{"last_updated":1722640066,"ttl":30,"version":"2.2","data":{"bikes":[{"bike_id":"8dc3a3c3-3de5-4493-ae66-0dac9125624b","system_id":"levelo_inurba_marseille","lat":43.313391,"lon":5.36706,"is_reserved":false,"is_disabled":false,"rental_uris":{"android":"levelo://app?vid=8dc3a3c3-3de5-4493-ae66-0dac9125624b","ios":"levelo://app?vid=8dc3a3c3-3de5-4493-ae66-0dac9125624b"},"vehicle_type_id":"4","last_reported":1722640066,"current_range_meters":26800,"station_id":"ce4bgr92rcd13ifvqc6g","pricing_plan_id":"cebpf4jnsgd1na2vs0mg"},{"bike_id":"34f43986-d401-4ab6-bdfc-41e7bd5bd7ce","system_id":"levelo_inurba_marseille","lat":43.312239,"lon":5.368562,"is_reserved":false,"is_disabled":false,"rental_uris":{"android":"levelo://app?vid=34f43986-d401-4ab6-bdfc-41e7bd5bd7ce","ios":"levelo://app?vid=34f43986-d401-4ab6-bdfc-41e7bd5bd7ce"},"vehicle_type_id":"4","last_reported":1722640066,"current_range_meters":7200,"station_id":"ce4bgl92rcd13ifvqbq0","pricing_plan_id":"cebpf4jnsgd1na2vs0mg"},{"bike_id":"36a4d737-ae9e-47f0-9a4e-5283897705ff","system_id":"levelo_inurba_marseille","lat":43.309076,"lon":5.368465,"is_reserved":false,"is_disabled":false,"rental_uris":{"android":"levelo://app?vid=36a4d737-ae9e-47f0-9a4e-5283897705ff","ios":"levelo://app?vid=36a4d737-ae9e-47f0-9a4e-5283897705ff"},"vehicle_type_id":"4","last_reported":1722640066,"current_range_meters":12800,"station_id":"ce4bgn92rcd13ifvqbvg","pricing_plan_id":"cebpf4jnsgd1na2vs0mg"},{"bike_id":"8537e41d-b794-4a16-af1b-a6a6e60bd258","system_id":"levelo_inurba_marseille","lat":43.314811,"lon":5.373104,"is_reserved":false,"is_disabled":false,"rental_uris":{"android":"levelo://app?vid=8537e41d-b794-4a16-af1b-a6a6e60bd258","ios":"levelo://app?vid=8537e41d-b794-4a16-af1b-a6a6e60bd258"},"vehicle_type_id":"4","last_reported":1722640066,"current_range_meters":11600,"station_id":"ce4bgt12rcd13ifvqcd0","pricing_plan_id":"cebpf4jnsgd1na2vs0mg"},{"bike_id":"ffc35295-1614-4539-b891-3bbe48dff5aa","system_id":"levelo_inurba_marseille","lat":43.314811,"lon":5.373103,"is_reserved":false,"is_disabled":false,"rental_uris":{"android":"levelo://app?vid=ffc35295-1614-4539-b891-3bbe48dff5aa","ios":"levelo://app?vid=ffc35295-1614-4539-b891-3bbe48dff5aa"},"vehicle_type_id":"4","last_reported":1722640066,"current_range_meters":3200,"station_id":"ce4bgt12rcd13ifvqcd0","pricing_plan_id":"cebpf4jnsgd1na2vs0mg"},{"bike_id":"50034ba3-241c-4a49-b152-0d78db9aad58","system_id":"levelo_inurba_marseille","lat":43.314811,"lon":5.373103,"is_reserved":false,"is_disabled":false,"rental_uris":{"android":"levelo://app?vid=50034ba3-241c-4a49-b152-0d78db9aad58","ios":"levelo://app?vid=50034ba3-241c-4a49-b152-0d78db9aad58"},"vehicle_type_id":"4","last_reported":1722640066,"current_range_meters":24400,"station_id":"ce4bgt12rcd13ifvqcd0","pricing_plan_id":"cebpf4jnsgd1na2vs0mg"},{"bike_id":"6062f25b-8794-42e9-8b51-18b55e91fe1c","system_id":"levelo_inurba_marseille","lat":43.314811,"lon":5.373103,"is_reserved":false,"is_disabled":false,"rental_uris":{"android":"levelo://app?vid=6062f25b-8794-42e9-8b51-18b55e91fe1c","ios":"levelo://app?vid=6062f25b-8794-42e9-8b51-18b55e91fe1c"},"vehicle_type_id":"4","last_reported":1722640066,"current_range_meters":29200,"station_id":"ce4bgt12rcd13ifvqcd0","pricing_plan_id":"cebpf4jnsgd1na2vs0mg"},{"bike_id":"d68a60ff-5974-407f-849a-f96ae6d65ec2","system_id":"levelo_inurba_marseille","lat":43.314811,"lon":5.373103,"is_reserved":false,"is_disabled":false,"rental_uris":{"android":"levelo://app?vid=d68a60ff-5974-407f-849a-f96ae6d65ec2","ios":"levelo://app?vid=d68a60ff-5974-407f-849a-f96ae6d65ec2"},"vehicle_type_id":"4","last_reported":1722640066,"current_range_meters":23600,"station_id":"ce4bgt12rcd13ifvqcd0","pricing_plan_id":"cebpf4jnsgd1na2vs0mg"},{"bike_id":"46974c28-3a1f-4490-ba56-2a1d89ad436c","system_id":"levelo_inurba_marseille","lat":43.309034,"lon":5.371783,"is_reserved":false,"is_disabled":false,"rental_uris":{"android":"levelo://app?vid=46974c28-3a1f-4490-ba56-2a1d89ad436c","ios":"levelo://app?vid=46974c28-3a1f-4490-ba56-2a1d89ad436c"},"vehicle_type_id":"4","last_reported":1722640066,"current_range_meters":3600,"station_id":"ce4bguh2rcd13ifvqckg","pricing_plan_id":"cebpf4jnsgd1na2vs0mg"},{"bike_id":"e00465ac-360c-4ae2-8c37-c8839a8a65b1","system_id":"levelo_inurba_marseille","lat":43.309039,"lon":5.371797,"is_reserved":false,"is_disabled":false,"rental_uris":{"android":"levelo://app?vid=e00465ac-360c-4ae2-8c37-c8839a8a65b1","ios":"levelo://app?vid=e00465ac-360c-4ae2-8c37-c8839a8a65b1"},"vehicle_type_id":"4","last_reported":1722640066,"current_range_meters":28800,"station_id":"ce4bguh2rcd13ifvqckg","pricing_plan_id":"cebpf4jnsgd1na2vs0mg"},{"bike_id":"f934a8fc-d2ec-4219-abbc-35616b854eb5","system_id":"levelo_inurba_marseille","lat":43.30889,"lon":5.37206,"is_reserved":false,"is_disabled":false,"rental_uris":{"android":"levelo://app?vid=f934a8fc-d2ec-4219-abbc-35616b854eb5","ios":"levelo://app?vid=f934a8fc-d2ec-4219-abbc-35616b854eb5"},"vehicle_type_id":"4","last_reported":1722640066,"current_range_meters":29600,"station_id":"ce4bguh2rcd13ifvqckg","pricing_plan_id":"cebpf4jnsgd1na2vs0mg"},{"bike_id":"9001e375-4758-4770-83a4-c730afdcfeb5","system_id":"levelo_inurba_marseille","lat":43.309034,"lon":5.371783,"is_reserved":false,"is_disabled":false,"rental_uris":{"android":"levelo://app?vid=9001e375-4758-4770-83a4-c730afdcfeb5","ios":"levelo://app?vid=9001e375-4758-4770-83a4-c730afdcfeb5"},"vehicle_type_id":"4","last_reported":1722640066,"current_range_meters":24000,"station_id":"ce4bguh2rcd13ifvqckg","pricing_plan_id":"cebpf4jnsgd1na2vs0mg"},{"bike_id":"d641f7a3-478c-4b27-8393-c7e378b8415e","system_id":"levelo_inurba_marseille","lat":43.31461,"lon":5.37393,"is_reserved":false,"is_disabled":false,"rental_uris":{"android":"levelo://app?vid=d641f7a3-478c-4b27-8393-c7e378b8415e","ios":"levelo://app?vid=d641f7a3-478c-4b27-8393-c7e378b8415e"},"vehicle_type_id":"4","last_reported":1722640066,"current_range_meters":29600,"station_id":"","pricing_plan_id":"cebpf4jnsgd1na2vs0mg"},{"bike_id":"69eebdea-6b88-4f2e-913a-0898de38fbcc","system_id":"levelo_inurba_marseille","lat":43.314092,"lon":5.375091,"is_reserved":false,"is_disabled":false,"rental_uris":{"android":"levelo://app?vid=69eebdea-6b88-4f2e-913a-0898de38fbcc","ios":"levelo://app?vid=69eebdea-6b88-4f2e-913a-0898de38fbcc"},"vehicle_type_id":"4","last_reported":1722640066,"current_range_meters":29600,"station_id":"","pricing_plan_id":"cebpf4jnsgd1na2vs0mg"},{"bike_id":"beb29842-ed55-4b2d-8381-0e77c72ff93f","system_id":"levelo_inurba_marseille","lat":43.30937,"lon":5.374823,"is_reserved":false,"is_disabled":false,"rental_uris":{"android":"levelo://app?vid=beb29842-ed55-4b2d-8381-0e77c72ff93f","ios":"levelo://app?vid=beb29842-ed55-4b2d-8381-0e77c72ff93f"},"vehicle_type_id":"4","last_reported":1722640066,"current_range_meters":19600,"station_id":"","pricing_plan_id":"cebpf4jnsgd1na2vs0mg"},{"bike_id":"85625f10-1a36-49ce-a6d3-ed034fb53bdc","system_id":"levelo_inurba_marseille","lat":43.305989,"lon":5.37225,"is_reserved":false,"is_disabled":false,"rental_uris":{"android":"levelo://app?vid=85625f10-1a36-49ce-a6d3-ed034fb53bdc","ios":"levelo://app?vid=85625f10-1a36-49ce-a6d3-ed034fb53bdc"},"vehicle_type_id":"4","last_reported":1722640066,"current_range_meters":0,"station_id":"ce4bgqh2rcd13ifvqc4g","pricing_plan_id":"cebpf4jnsgd1na2vs0mg"},{"bike_id":"443aff23-0d38-4133-9a18-ba3b4e3d9377","system_id":"levelo_inurba_marseille","lat":43.305989,"lon":5.37225,"is_reserved":false,"is_disabled":false,"rental_uris":{"android":"levelo://app?vid=443aff23-0d38-4133-9a18-ba3b4e3d9377","ios":"levelo://app?vid=443aff23-0d38-4133-9a18-ba3b4e3d9377"},"vehicle_type_id":"4","last_reported":1722640066,"current_range_meters":25200,"station_id":"ce4bgqh2rcd13ifvqc4g","pricing_plan_id":"cebpf4jnsgd1na2vs0mg"},{"bike_id":"ebaa9438-dd42-44cd-a548-c5cf6393411e","system_id":"levelo_inurba_marseille","lat":43.305989,"lon":5.37225,"is_reserved":false,"is_disabled":false,"rental_uris":{"android":"levelo://app?vid=ebaa9438-dd42-44cd-a548-c5cf6393411e","ios":"levelo://app?vid=ebaa9438-dd42-44cd-a548-c5cf6393411e"},"vehicle_type_id":"4","last_reported":1722640066,"current_range_meters":8400,"station_id":"ce4bgqh2rcd13ifvqc4g","pricing_plan_id":"cebpf4jnsgd1na2vs0mg"},{"bike_id":"a744978f-4446-4ebc-b878-ac94ea7d5b06","system_id":"levelo_inurba_marseille","lat":43.305989,"lon":5.37225,"is_reserved":false,"is_disabled":false,"rental_uris":{"android":"levelo://app?vid=a744978f-4446-4ebc-b878-ac94ea7d5b06","ios":"levelo://app?vid=a744978f-4446-4ebc-b878-ac94ea7d5b06"},"vehicle_type_id":"4","last_reported":1722640066,"current_range_meters":13600,"station_id":"ce4bgqh2rcd13ifvqc4g","pricing_plan_id":"cebpf4jnsgd1na2vs0mg"},{"bike_id":"c9b2baad-3c5f-402f-a83f-736cfbaccc68","system_id":"levelo_inurba_marseille","lat":43.305989,"lon":5.37225,"is_reserved":false,"is_disabled":false,"rental_uris":{"android":"levelo://app?vid=c9b2baad-3c5f-402f-a83f-736cfbaccc68","ios":"levelo://app?vid=c9b2baad-3c5f-402f-a83f-736cfbaccc68"},"vehicle_type_id":"4","last_reported":1722640066,"current_range_meters":1200,"station_id":"ce4bgqh2rcd13ifvqc4g","pricing_plan_id":"cebpf4jnsgd1na2vs0mg"},{"bike_id":"bcc0fb23-4de2-45e9-80aa-848d09b90a7f","system_id":"levelo_inurba_marseille","lat":43.305989,"lon":5.37225,"is_reserved":false,"is_disabled":false,"rental_uris":{"android":"levelo://app?vid=bcc0fb23-4de2-45e9-80aa-848d09b90a7f","ios":"levelo://app?vid=bcc0fb23-4de2-45e9-80aa-848d09b90a7f"},"vehicle_type_id":"4","last_reported":1722640066,"current_range_meters":14400,"station_id":"ce4bgqh2rcd13ifvqc4g","pricing_plan_id":"cebpf4jnsgd1na2vs0mg"},{"bike_id":"bd65a047-2d16-44f4-a3db-0b4235745352","system_id":"levelo_inurba_marseille","lat":43.305989,"lon":5.37225,"is_reserved":false,"is_disabled":false,"rental_uris":{"android":"levelo://app?vid=bd65a047-2d16-44f4-a3db-0b4235745352","ios":"levelo://app?vid=bd65a047-2d16-44f4-a3db-0b4235745352"},"vehicle_type_id":"4","last_reported":1722640066,"current_range_meters":2800,"station_id":"ce4bgqh2rcd13ifvqc4g","pricing_plan_id":"cebpf4jnsgd1na2vs0mg"},{"bike_id":"77d39cc5-8f3b-47fc-9fd3-6a5bcdbd3606","system_id":"levelo_inurba_marseille","lat":43.305989,"lon":5.37225,"is_reserved":false,"is_disabled":false,"rental_uris":{"android":"levelo://app?vid=77d39cc5-8f3b-47fc-9fd3-6a5bcdbd3606","ios":"levelo://app?vid=77d39cc5-8f3b-47fc-9fd3-6a5bcdbd3606"},"vehicle_type_id":"4","last_reported":1722640066,"current_range_meters":15600,"station_id":"ce4bgqh2rcd13ifvqc4g","pricing_plan_id":"cebpf4jnsgd1na2vs0mg"},{"bike_id":"2cbc324d-9b49-4947-84cc-83e263cfe4da","system_id":"levelo_inurba_marseille","lat":43.305989,"lon":5.37225,"is_reserved":false,"is_disabled":false,"rental_uris":{"android":"levelo://app?vid=2cbc324d-9b49-4947-84cc-83e263cfe4da","ios":"levelo://app?vid=2cbc324d-9b49-4947-84cc-83e263cfe4da"},"vehicle_type_id":"4","last_reported":1722640066,"current_range_meters":11200,"station_id":"ce4bgqh2rcd13ifvqc4g","pricing_plan_id":"cebpf4jnsgd1na2vs0mg"},{"bike_id":"dee271ae-0837-4499-83e8-9a4b9bea832d","system_id":"levelo_inurba_marseille","lat":43.305989,"lon":5.37225,"is_reserved":false,"is_disabled":false,"rental_uris":{"android":"levelo://app?vid=dee271ae-0837-4499-83e8-9a4b9bea832d","ios":"levelo://app?vid=dee271ae-0837-4499-83e8-9a4b9bea832d"},"vehicle_type_id":"4","last_reported":1722640066,"current_range_meters":20000,"station_id":"ce4bgqh2rcd13ifvqc4g","pricing_plan_id":"cebpf4jnsgd1na2vs0mg"},{"bike_id":"a15b7833-ee03-4fdd-81dc-675f6c1aac6b","system_id":"levelo_inurba_marseille","lat":43.311131,"lon":5.377651,"is_reserved":false,"is_disabled":false,"rental_uris":{"android":"levelo://app?vid=a15b7833-ee03-4fdd-81dc-675f6c1aac6b","ios":"levelo://app?vid=a15b7833-ee03-4fdd-81dc-675f6c1aac6b"},"vehicle_type_id":"4","last_reported":1722640066,"current_range_meters":13200,"station_id":"ce4bgt92rcd13ifvqcg0","pricing_plan_id":"cebpf4jnsgd1na2vs0mg"},{"bike_id":"b3f53b76-9440-4519-9acf-dcd647bdabb1","system_id":"levelo_inurba_marseille","lat":43.311131,"lon":5.377651,"is_reserved":false,"is_disabled":false,"rental_uris":{"android":"levelo://app?vid=b3f53b76-9440-4519-9acf-dcd647bdabb1","ios":"levelo://app?vid=b3f53b76-9440-4519-9acf-dcd647bdabb1"},"vehicle_type_id":"4","last_reported":1722640066,"current_range_meters":17200,"station_id":"ce4bgt92rcd13ifvqcg0","pricing_plan_id":"cebpf4jnsgd1na2vs0mg"},{"bike_id":"7ff56d70-83c5-40cb-a544-7eab273201da","system_id":"levelo_inurba_marseille","lat":43.311125,"lon":5.377624,"is_reserved":false,"is_disabled":false,"rental_uris":{"android":"levelo://app?vid=7ff56d70-83c5-40cb-a544-7eab273201da","ios":"levelo://app?vid=7ff56d70-83c5-40cb-a544-7eab273201da"},"vehicle_type_id":"4","last_reported":1722640066,"current_range_meters":3200,"station_id":"ce4bgt92rcd13ifvqcg0","pricing_plan_id":"cebpf4jnsgd1na2vs0mg"},{"bike_id":"b4a60b0c-ea1b-4bfe-a036-c2f2d284bb71","system_id":"levelo_inurba_marseille","lat":43.311125,"lon":5.377624,"is_reserved":false,"is_disabled":false,"rental_uris":{"android":"levelo://app?vid=b4a60b0c-ea1b-4bfe-a036-c2f2d284bb71","ios":"levelo://app?vid=b4a60b0c-ea1b-4bfe-a036-c2f2d284bb71"},"vehicle_type_id":"4","last_reported":1722640066,"current_range_meters":24400,"station_id":"ce4bgt92rcd13ifvqcg0","pricing_plan_id":"cebpf4jnsgd1na2vs0mg"},{"bike_id":"e68295e3-25b4-41e6-8ef5-da16719c90c2","system_id":"levelo_inurba_marseille","lat":43.31117,"lon":5.37777,"is_reserved":false,"is_disabled":false,"rental_uris":{"android":"levelo://app?vid=e68295e3-25b4-41e6-8ef5-da16719c90c2","ios":"levelo://app?vid=e68295e3-25b4-41e6-8ef5-da16719c90c2"},"vehicle_type_id":"4","last_reported":1722640066,"current_range_meters":4800,"station_id":"ce4bgt92rcd13ifvqcg0","pricing_plan_id":"cebpf4jnsgd1na2vs0mg"},{"bike_id":"d4ccb4e5-2233-44aa-ae07-653b175044b5","system_id":"levelo_inurba_marseille","lat":43.311185,"lon":5.377847,"is_reserved":false,"is_disabled":false,"rental_uris":{"android":"levelo://app?vid=d4ccb4e5-2233-44aa-ae07-653b175044b5","ios":"levelo://app?vid=d4ccb4e5-2233-44aa-ae07-653b175044b5"},"vehicle_type_id":"4","last_reported":1722640066,"current_range_meters":30400,"station_id":"ce4bgt92rcd13ifvqcg0","pricing_plan_id":"cebpf4jnsgd1na2vs0mg"},{"bike_id":"02bccfdc-5076-44d8-8fa7-30fad291de54","system_id":"levelo_inurba_marseille","lat":43.307945,"lon":5.376487,"is_reserved":false,"is_disabled":false,"rental_uris":{"android":"levelo://app?vid=02bccfdc-5076-44d8-8fa7-30fad291de54","ios":"levelo://app?vid=02bccfdc-5076-44d8-8fa7-30fad291de54"},"vehicle_type_id":"4","last_reported":1722640066,"current_range_meters":5600,"station_id":"ce4bgv92rcd13ifvqcq0","pricing_plan_id":"cebpf4jnsgd1na2vs0mg"},{"bike_id":"d76e2cb2-32a8-4b74-accf-c0fb7952a45c","system_id":"levelo_inurba_marseille","lat":43.307945,"lon":5.376487,"is_reserved":false,"is_disabled":false,"rental_uris":{"android":"levelo://app?vid=d76e2cb2-32a8-4b74-accf-c0fb7952a45c","ios":"levelo://app?vid=d76e2cb2-32a8-4b74-accf-c0fb7952a45c"},"vehicle_type_id":"4","last_reported":1722640066,"current_range_meters":14400,"station_id":"ce4bgv92rcd13ifvqcq0","pricing_plan_id":"cebpf4jnsgd1na2vs0mg"},{"bike_id":"76372f56-7d5a-4e3c-b737-21df89fc6ecf","system_id":"levelo_inurba_marseille","lat":43.307945,"lon":5.376487,"is_reserved":false,"is_disabled":false,"rental_uris":{"android":"levelo://app?vid=76372f56-7d5a-4e3c-b737-21df89fc6ecf","ios":"levelo://app?vid=76372f56-7d5a-4e3c-b737-21df89fc6ecf"},"vehicle_type_id":"4","last_reported":1722640066,"current_range_meters":16800,"station_id":"ce4bgv92rcd13ifvqcq0","pricing_plan_id":"cebpf4jnsgd1na2vs0mg"},{"bike_id":"2b7d62c7-fa0a-4b98-9709-cebb28ce3dae","system_id":"levelo_inurba_marseille","lat":43.307945,"lon":5.376487,"is_reserved":false,"is_disabled":false,"rental_uris":{"android":"levelo://app?vid=2b7d62c7-fa0a-4b98-9709-cebb28ce3dae","ios":"levelo://app?vid=2b7d62c7-fa0a-4b98-9709-cebb28ce3dae"},"vehicle_type_id":"4","last_reported":1722640066,"current_range_meters":27200,"station_id":"ce4bgv92rcd13ifvqcq0","pricing_plan_id":"cebpf4jnsgd1na2vs0mg"},{"bike_id":"428963b9-6914-4060-a5b7-f974baab40ef","system_id":"levelo_inurba_marseille","lat":43.307945,"lon":5.376487,"is_reserved":false,"is_disabled":false,"rental_uris":{"android":"levelo://app?vid=428963b9-6914-4060-a5b7-f974baab40ef","ios":"levelo://app?vid=428963b9-6914-4060-a5b7-f974baab40ef"},"vehicle_type_id":"4","last_reported":1722640066,"current_range_meters":13600,"station_id":"ce4bgv92rcd13ifvqcq0","pricing_plan_id":"cebpf4jnsgd1na2vs0mg"},{"bike_id":"2c8a7dad-a7fc-40d6-ac24-5138d11f03e2","system_id":"levelo_inurba_marseille","lat":43.307945,"lon":5.376487,"is_reserved":false,"is_disabled":false,"rental_uris":{"android":"levelo://app?vid=2c8a7dad-a7fc-40d6-ac24-5138d11f03e2","ios":"levelo://app?vid=2c8a7dad-a7fc-40d6-ac24-5138d11f03e2"},"vehicle_type_id":"4","last_reported":1722640066,"current_range_meters":22000,"station_id":"ce4bgv92rcd13ifvqcq0","pricing_plan_id":"cebpf4jnsgd1na2vs0mg"},{"bike_id":"b6c3bf17-a249-4abd-923f-564f232ea458","system_id":"levelo_inurba_marseille","lat":43.307945,"lon":5.376487,"is_reserved":false,"is_disabled":false,"rental_uris":{"android":"levelo://app?vid=b6c3bf17-a249-4abd-923f-564f232ea458","ios":"levelo://app?vid=b6c3bf17-a249-4abd-923f-564f232ea458"},"vehicle_type_id":"4","last_reported":1722640066,"current_range_meters":23200,"station_id":"ce4bgv92rcd13ifvqcq0","pricing_plan_id":"cebpf4jnsgd1na2vs0mg"},{"bike_id":"f53fe064-e123-4425-8c61-19f395153389","system_id":"levelo_inurba_marseille","lat":43.307945,"lon":5.376487,"is_reserved":false,"is_disabled":false,"rental_uris":{"android":"levelo://app?vid=f53fe064-e123-4425-8c61-19f395153389","ios":"levelo://app?vid=f53fe064-e123-4425-8c61-19f395153389"},"vehicle_type_id":"4","last_reported":1722640066,"current_range_meters":25200,"station_id":"ce4bgv92rcd13ifvqcq0","pricing_plan_id":"cebpf4jnsgd1na2vs0mg"},{"bike_id":"e179d81d-8267-4563-8e47-57b8f48202dd","system_id":"levelo_inurba_marseille","lat":43.316903,"lon":5.37738,"is_reserved":false,"is_disabled":false,"rental_uris":{"android":"levelo://app?vid=e179d81d-8267-4563-8e47-57b8f48202dd","ios":"levelo://app?vid=e179d81d-8267-4563-8e47-57b8f48202dd"},"vehicle_type_id":"4","last_reported":1722640066,"current_range_meters":26000,"station_id":"ce4bgth2rcd13ifvqch0","pricing_plan_id":"cebpf4jnsgd1na2vs0mg"},{"bike_id":"29c7d779-1eb0-47c4-822c-82554aaeae46","system_id":"levelo_inurba_marseille","lat":43.317033,"lon":5.377545,"is_reserved":false,"is_disabled":false,"rental_uris":{"android":"levelo://app?vid=29c7d779-1eb0-47c4-822c-82554aaeae46","ios":"levelo://app?vid=29c7d779-1eb0-47c4-822c-82554aaeae46"},"vehicle_type_id":"4","last_reported":1722640066,"current_range_meters":30000,"station_id":"ce4bgth2rcd13ifvqch0","pricing_plan_id":"cebpf4jnsgd1na2vs0mg"},{"bike_id":"00b4b6f7-e5b2-456f-8461-cc339f9cec0c","system_id":"levelo_inurba_marseille","lat":43.317075,"lon":5.377367,"is_reserved":false,"is_disabled":false,"rental_uris":{"android":"levelo://app?vid=00b4b6f7-e5b2-456f-8461-cc339f9cec0c","ios":"levelo://app?vid=00b4b6f7-e5b2-456f-8461-cc339f9cec0c"},"vehicle_type_id":"4","last_reported":1722640066,"current_range_meters":12000,"station_id":"ce4bgth2rcd13ifvqch0","pricing_plan_id":"cebpf4jnsgd1na2vs0mg"},{"bike_id":"9c512cc3-2238-499b-9bff-6f0bb8e06241","system_id":"levelo_inurba_marseille","lat":43.311131,"lon":5.377651,"is_reserved":false,"is_disabled":false,"rental_uris":{"android":"levelo://app?vid=9c512cc3-2238-499b-9bff-6f0bb8e06241","ios":"levelo://app?vid=9c512cc3-2238-499b-9bff-6f0bb8e06241"},"vehicle_type_id":"4","last_reported":1722640066,"current_range_meters":13600,"station_id":"ce4bgt92rcd13ifvqcg0","pricing_plan_id":"cebpf4jnsgd1na2vs0mg"},{"bike_id":"1552e916-74eb-4f7a-9f8e-c363be2e3ca9","system_id":"levelo_inurba_marseille","lat":43.296277,"lon":5.377108,"is_reserved":false,"is_disabled":false,"rental_uris":{"android":"levelo://app?vid=1552e916-74eb-4f7a-9f8e-c363be2e3ca9","ios":"levelo://app?vid=1552e916-74eb-4f7a-9f8e-c363be2e3ca9"},"vehicle_type_id":"4","last_reported":1722640066,"current_range_meters":3600,"station_id":"ce4bgi92rcd13ifvqb90","pricing_plan_id":"cebpf4jnsgd1na2vs0mg"},{"bike_id":"a2d17f84-98f3-4cbe-9724-eaf983049196","system_id":"levelo_inurba_marseille","lat":43.315289,"lon":5.380349,"is_reserved":false,"is_disabled":false,"rental_uris":{"android":"levelo://app?vid=a2d17f84-98f3-4cbe-9724-eaf983049196","ios":"levelo://app?vid=a2d17f84-98f3-4cbe-9724-eaf983049196"},"vehicle_type_id":"4","last_reported":1722640066,"current_range_meters":30400,"station_id":"ce4bhsp2rcd13ifvqi50","pricing_plan_id":"cebpf4jnsgd1na2vs0mg"},{"bike_id":"5fd822c0-3233-4448-b5c3-118aa3b16b88","system_id":"levelo_inurba_marseille","lat":43.315289,"lon":5.380349,"is_reserved":false,"is_disabled":false,"rental_uris":{"android":"levelo://app?vid=5fd822c0-3233-4448-b5c3-118aa3b16b88","ios":"levelo://app?vid=5fd822c0-3233-4448-b5c3-118aa3b16b88"},"vehicle_type_id":"4","last_reported":1722640066,"current_range_meters":4800,"station_id":"ce4bhsp2rcd13ifvqi50","pricing_plan_id":"cebpf4jnsgd1na2vs0mg"},{"bike_id":"7d26f442-7c92-4f3d-8240-0ca62ad96ee4","system_id":"levelo_inurba_marseille","lat":43.323453,"lon":5.364827,"is_reserved":false,"is_disabled":false,"rental_uris":{"android":"levelo://app?vid=7d26f442-7c92-4f3d-8240-0ca62ad96ee4","ios":"levelo://app?vid=7d26f442-7c92-4f3d-8240-0ca62ad96ee4"},"vehicle_type_id":"4","last_reported":1722640066,"current_range_meters":28800,"station_id":"","pricing_plan_id":"cebpf4jnsgd1na2vs0mg"},{"bike_id":"996b202d-a2fd-4b26-88b6-bc23e3b7d273","system_id":"levelo_inurba_marseille","lat":43.308012,"lon":5.381511,"is_reserved":false,"is_disabled":false,"rental_uris":{"android":"levelo://app?vid=996b202d-a2fd-4b26-88b6-bc23e3b7d273","ios":"levelo://app?vid=996b202d-a2fd-4b26-88b6-bc23e3b7d273"},"vehicle_type_id":"4","last_reported":1722640066,"current_range_meters":12800,"station_id":"ce4bgt12rcd13ifvqce0","pricing_plan_id":"cebpf4jnsgd1na2vs0mg"},{"bike_id":"f2fa2cc9-3062-43a0-a48e-5d06b1a5cdfc","system_id":"levelo_inurba_marseille","lat":43.308012,"lon":5.381511,"is_reserved":false,"is_disabled":false,"rental_uris":{"android":"levelo://app?vid=f2fa2cc9-3062-43a0-a48e-5d06b1a5cdfc","ios":"levelo://app?vid=f2fa2cc9-3062-43a0-a48e-5d06b1a5cdfc"},"vehicle_type_id":"4","last_reported":1722640066,"current_range_meters":0,"station_id":"ce4bgt12rcd13ifvqce0","pricing_plan_id":"cebpf4jnsgd1na2vs0mg"},{"bike_id":"737f2188-66bb-43a9-be3a-f3cb1e60d961","system_id":"levelo_inurba_marseille","lat":43.308077,"lon":5.381443,"is_reserved":false,"is_disabled":false,"rental_uris":{"android":"levelo://app?vid=737f2188-66bb-43a9-be3a-f3cb1e60d961","ios":"levelo://app?vid=737f2188-66bb-43a9-be3a-f3cb1e60d961"},"vehicle_type_id":"4","last_reported":1722640066,"current_range_meters":18800,"station_id":"ce4bgt12rcd13ifvqce0","pricing_plan_id":"cebpf4jnsgd1na2vs0mg"},{"bike_id":"504d056e-2333-4ca7-be39-89d064f613ef","system_id":"levelo_inurba_marseille","lat":43.308012,"lon":5.381511,"is_reserved":false,"is_disabled":false,"rental_uris":{"android":"levelo://app?vid=504d056e-2333-4ca7-be39-89d064f613ef","ios":"levelo://app?vid=504d056e-2333-4ca7-be39-89d064f613ef"},"vehicle_type_id":"4","last_reported":1722640066,"current_range_meters":5600,"station_id":"ce4bgt12rcd13ifvqce0","pricing_plan_id":"cebpf4jnsgd1na2vs0mg"},{"bike_id":"4e172378-2568-43d9-847c-751805ae864f","system_id":"levelo_inurba_marseille","lat":43.308012,"lon":5.381511,"is_reserved":false,"is_disabled":false,"rental_uris":{"android":"levelo://app?vid=4e172378-2568-43d9-847c-751805ae864f","ios":"levelo://app?vid=4e172378-2568-43d9-847c-751805ae864f"},"vehicle_type_id":"4","last_reported":1722640066,"current_range_meters":2000,"station_id":"ce4bgt12rcd13ifvqce0","pricing_plan_id":"cebpf4jnsgd1na2vs0mg"},{"bike_id":"02441ed0-612d-42af-8038-7c7e2149cd43","system_id":"levelo_inurba_marseille","lat":43.30805,"lon":5.38157,"is_reserved":false,"is_disabled":false,"rental_uris":{"android":"levelo://app?vid=02441ed0-612d-42af-8038-7c7e2149cd43","ios":"levelo://app?vid=02441ed0-612d-42af-8038-7c7e2149cd43"},"vehicle_type_id":"4","last_reported":1722640066,"current_range_meters":21600,"station_id":"ce4bgt12rcd13ifvqce0","pricing_plan_id":"cebpf4jnsgd1na2vs0mg"},{"bike_id":"cbc534ec-76ac-407d-9326-222c8dc240ba","system_id":"levelo_inurba_marseille","lat":43.308012,"lon":5.381511,"is_reserved":false,"is_disabled":false,"rental_uris":{"android":"levelo://app?vid=cbc534ec-76ac-407d-9326-222c8dc240ba","ios":"levelo://app?vid=cbc534ec-76ac-407d-9326-222c8dc240ba"},"vehicle_type_id":"4","last_reported":1722640066,"current_range_meters":0,"station_id":"ce4bgt12rcd13ifvqce0","pricing_plan_id":"cebpf4jnsgd1na2vs0mg"},{"bike_id":"2a1b77ff-4942-44bc-a77c-22ccb099ef0c","system_id":"levelo_inurba_marseille","lat":43.308012,"lon":5.381511,"is_reserved":false,"is_disabled":false,"rental_uris":{"android":"levelo://app?vid=2a1b77ff-4942-44bc-a77c-22ccb099ef0c","ios":"levelo://app?vid=2a1b77ff-4942-44bc-a77c-22ccb099ef0c"},"vehicle_type_id":"4","last_reported":1722640066,"current_range_meters":29200,"station_id":"ce4bgt12rcd13ifvqce0","pricing_plan_id":"cebpf4jnsgd1na2vs0mg"},{"bike_id":"fada7733-8a01-4ff1-b1b6-f503a988591e","system_id":"levelo_inurba_marseille","lat":43.308012,"lon":5.381511,"is_reserved":false,"is_disabled":false,"rental_uris":{"android":"levelo://app?vid=fada7733-8a01-4ff1-b1b6-f503a988591e","ios":"levelo://app?vid=fada7733-8a01-4ff1-b1b6-f503a988591e"},"vehicle_type_id":"4","last_reported":1722640066,"current_range_meters":31600,"station_id":"ce4bgt12rcd13ifvqce0","pricing_plan_id":"cebpf4jnsgd1na2vs0mg"},{"bike_id":"8782ea40-c69e-41fc-85d7-a6bd0a3b250e","system_id":"levelo_inurba_marseille","lat":43.308012,"lon":5.381511,"is_reserved":false,"is_disabled":false,"rental_uris":{"android":"levelo://app?vid=8782ea40-c69e-41fc-85d7-a6bd0a3b250e","ios":"levelo://app?vid=8782ea40-c69e-41fc-85d7-a6bd0a3b250e"},"vehicle_type_id":"4","last_reported":1722640066,"current_range_meters":3600,"station_id":"ce4bgt12rcd13ifvqce0","pricing_plan_id":"cebpf4jnsgd1na2vs0mg"},{"bike_id":"90fb5b4a-7ff0-48fe-985a-c41ee0bccb4c","system_id":"levelo_inurba_marseille","lat":43.308012,"lon":5.381511,"is_reserved":false,"is_disabled":false,"rental_uris":{"android":"levelo://app?vid=90fb5b4a-7ff0-48fe-985a-c41ee0bccb4c","ios":"levelo://app?vid=90fb5b4a-7ff0-48fe-985a-c41ee0bccb4c"},"vehicle_type_id":"4","last_reported":1722640066,"current_range_meters":28800,"station_id":"ce4bgt12rcd13ifvqce0","pricing_plan_id":"cebpf4jnsgd1na2vs0mg"},{"bike_id":"4eb0fe28-dfa1-4fde-a5d0-1c694fbe16a0","system_id":"levelo_inurba_marseille","lat":43.308012,"lon":5.381511,"is_reserved":false,"is_disabled":false,"rental_uris":{"android":"levelo://app?vid=4eb0fe28-dfa1-4fde-a5d0-1c694fbe16a0","ios":"levelo://app?vid=4eb0fe28-dfa1-4fde-a5d0-1c694fbe16a0"},"vehicle_type_id":"4","last_reported":1722640066,"current_range_meters":30800,"station_id":"ce4bgt12rcd13ifvqce0","pricing_plan_id":"cebpf4jnsgd1na2vs0mg"},{"bike_id":"2797abf7-c74e-4185-a8be-f0de480c4cc1","system_id":"levelo_inurba_marseille","lat":43.308012,"lon":5.381511,"is_reserved":false,"is_disabled":false,"rental_uris":{"android":"levelo://app?vid=2797abf7-c74e-4185-a8be-f0de480c4cc1","ios":"levelo://app?vid=2797abf7-c74e-4185-a8be-f0de480c4cc1"},"vehicle_type_id":"4","last_reported":1722640066,"current_range_meters":3200,"station_id":"ce4bgt12rcd13ifvqce0","pricing_plan_id":"cebpf4jnsgd1na2vs0mg"},{"bike_id":"8f990a90-bc89-4c28-87b1-e5cd82e4608a","system_id":"levelo_inurba_marseille","lat":43.308012,"lon":5.381511,"is_reserved":false,"is_disabled":false,"rental_uris":{"android":"levelo://app?vid=8f990a90-bc89-4c28-87b1-e5cd82e4608a","ios":"levelo://app?vid=8f990a90-bc89-4c28-87b1-e5cd82e4608a"},"vehicle_type_id":"4","last_reported":1722640066,"current_range_meters":10800,"station_id":"ce4bgt12rcd13ifvqce0","pricing_plan_id":"cebpf4jnsgd1na2vs0mg"},{"bike_id":"31742032-2283-4b37-9db5-1684a28935d4","system_id":"levelo_inurba_marseille","lat":43.317121,"lon":5.423936,"is_reserved":false,"is_disabled":false,"rental_uris":{"android":"levelo://app?vid=31742032-2283-4b37-9db5-1684a28935d4","ios":"levelo://app?vid=31742032-2283-4b37-9db5-1684a28935d4"},"vehicle_type_id":"4","last_reported":1722640066,"current_range_meters":0,"station_id":"ce4bhp92rcd13ifvqhbg","pricing_plan_id":"cebpf4jnsgd1na2vs0mg"},{"bike_id":"416627b1-947c-43c6-a861-ba1febda641a","system_id":"levelo_inurba_marseille","lat":43.324769,"lon":5.365703,"is_reserved":false,"is_disabled":false,"rental_uris":{"android":"levelo://app?vid=416627b1-947c-43c6-a861-ba1febda641a","ios":"levelo://app?vid=416627b1-947c-43c6-a861-ba1febda641a"},"vehicle_type_id":"4","last_reported":1722640066,"current_range_meters":19200,"station_id":"ce4bhs12rcd13ifvqhvg","pricing_plan_id":"cebpf4jnsgd1na2vs0mg"},{"bike_id":"ff4deeba-5127-4c9a-b037-334ce8ffc6c0","system_id":"levelo_inurba_marseille","lat":43.324771,"lon":5.36557,"is_reserved":false,"is_disabled":false,"rental_uris":{"android":"levelo://app?vid=ff4deeba-5127-4c9a-b037-334ce8ffc6c0","ios":"levelo://app?vid=ff4deeba-5127-4c9a-b037-334ce8ffc6c0"},"vehicle_type_id":"4","last_reported":1722640066,"current_range_meters":30000,"station_id":"ce4bhs12rcd13ifvqhvg","pricing_plan_id":"cebpf4jnsgd1na2vs0mg"},{"bike_id":"cfbb5f88-214f-4b9d-a4eb-4496dbd9322a","system_id":"levelo_inurba_marseille","lat":43.324771,"lon":5.36557,"is_reserved":false,"is_disabled":false,"rental_uris":{"android":"levelo://app?vid=cfbb5f88-214f-4b9d-a4eb-4496dbd9322a","ios":"levelo://app?vid=cfbb5f88-214f-4b9d-a4eb-4496dbd9322a"},"vehicle_type_id":"4","last_reported":1722640066,"current_range_meters":32000,"station_id":"ce4bhs12rcd13ifvqhvg","pricing_plan_id":"cebpf4jnsgd1na2vs0mg"},{"bike_id":"a40a97fe-8b2c-4e57-9687-bb54a2b0aca5","system_id":"levelo_inurba_marseille","lat":43.324771,"lon":5.36557,"is_reserved":false,"is_disabled":false,"rental_uris":{"android":"levelo://app?vid=a40a97fe-8b2c-4e57-9687-bb54a2b0aca5","ios":"levelo://app?vid=a40a97fe-8b2c-4e57-9687-bb54a2b0aca5"},"vehicle_type_id":"4","last_reported":1722640066,"current_range_meters":31600,"station_id":"ce4bhs12rcd13ifvqhvg","pricing_plan_id":"cebpf4jnsgd1na2vs0mg"},{"bike_id":"39c3d13d-fef7-48cf-9300-21353a1419e2","system_id":"levelo_inurba_marseille","lat":43.324796,"lon":5.365711,"is_reserved":false,"is_disabled":false,"rental_uris":{"android":"levelo://app?vid=39c3d13d-fef7-48cf-9300-21353a1419e2","ios":"levelo://app?vid=39c3d13d-fef7-48cf-9300-21353a1419e2"},"vehicle_type_id":"4","last_reported":1722640066,"current_range_meters":31200,"station_id":"ce4bhs12rcd13ifvqhvg","pricing_plan_id":"cebpf4jnsgd1na2vs0mg"},{"bike_id":"d66d41e1-0ddb-443c-86fc-6088762e55d1","system_id":"levelo_inurba_marseille","lat":43.324771,"lon":5.36557,"is_reserved":false,"is_disabled":false,"rental_uris":{"android":"levelo://app?vid=d66d41e1-0ddb-443c-86fc-6088762e55d1","ios":"levelo://app?vid=d66d41e1-0ddb-443c-86fc-6088762e55d1"},"vehicle_type_id":"4","last_reported":1722640066,"current_range_meters":23200,"station_id":"ce4bhs12rcd13ifvqhvg","pricing_plan_id":"cebpf4jnsgd1na2vs0mg"},{"bike_id":"c092aa3d-4112-47df-ade7-b6940eb112d6","system_id":"levelo_inurba_marseille","lat":43.324771,"lon":5.36557,"is_reserved":false,"is_disabled":false,"rental_uris":{"android":"levelo://app?vid=c092aa3d-4112-47df-ade7-b6940eb112d6","ios":"levelo://app?vid=c092aa3d-4112-47df-ade7-b6940eb112d6"},"vehicle_type_id":"4","last_reported":1722640066,"current_range_meters":28800,"station_id":"ce4bhs12rcd13ifvqhvg","pricing_plan_id":"cebpf4jnsgd1na2vs0mg"},{"bike_id":"25687aa4-8061-44cb-a0ea-afbdfc660b59","system_id":"levelo_inurba_marseille","lat":43.324771,"lon":5.36557,"is_reserved":false,"is_disabled":false,"rental_uris":{"android":"levelo://app?vid=25687aa4-8061-44cb-a0ea-afbdfc660b59","ios":"levelo://app?vid=25687aa4-8061-44cb-a0ea-afbdfc660b59"},"vehicle_type_id":"4","last_reported":1722640066,"current_range_meters":14800,"station_id":"ce4bhs12rcd13ifvqhvg","pricing_plan_id":"cebpf4jnsgd1na2vs0mg"},{"bike_id":"2b6de564-e6c5-481f-84c2-603e2065ad02","system_id":"levelo_inurba_marseille","lat":43.324771,"lon":5.36557,"is_reserved":false,"is_disabled":false,"rental_uris":{"android":"levelo://app?vid=2b6de564-e6c5-481f-84c2-603e2065ad02","ios":"levelo://app?vid=2b6de564-e6c5-481f-84c2-603e2065ad02"},"vehicle_type_id":"4","last_reported":1722640066,"current_range_meters":22800,"station_id":"ce4bhs12rcd13ifvqhvg","pricing_plan_id":"cebpf4jnsgd1na2vs0mg"},{"bike_id":"f7434446-b0f5-4fc5-956b-296c5af3cdc1","system_id":"levelo_inurba_marseille","lat":43.324771,"lon":5.36557,"is_reserved":false,"is_disabled":false,"rental_uris":{"android":"levelo://app?vid=f7434446-b0f5-4fc5-956b-296c5af3cdc1","ios":"levelo://app?vid=f7434446-b0f5-4fc5-956b-296c5af3cdc1"},"vehicle_type_id":"4","last_reported":1722640066,"current_range_meters":26400,"station_id":"ce4bhs12rcd13ifvqhvg","pricing_plan_id":"cebpf4jnsgd1na2vs0mg"},{"bike_id":"ca63ee76-c2b8-4b0a-be5d-07e9a2ca9e9e","system_id":"levelo_inurba_marseille","lat":43.324771,"lon":5.36557,"is_reserved":false,"is_disabled":false,"rental_uris":{"android":"levelo://app?vid=ca63ee76-c2b8-4b0a-be5d-07e9a2ca9e9e","ios":"levelo://app?vid=ca63ee76-c2b8-4b0a-be5d-07e9a2ca9e9e"},"vehicle_type_id":"4","last_reported":1722640066,"current_range_meters":3200,"station_id":"ce4bhs12rcd13ifvqhvg","pricing_plan_id":"cebpf4jnsgd1na2vs0mg"},{"bike_id":"569903ef-503e-475d-8980-c561aaf0290b","system_id":"levelo_inurba_marseille","lat":43.324771,"lon":5.36557,"is_reserved":false,"is_disabled":false,"rental_uris":{"android":"levelo://app?vid=569903ef-503e-475d-8980-c561aaf0290b","ios":"levelo://app?vid=569903ef-503e-475d-8980-c561aaf0290b"},"vehicle_type_id":"4","last_reported":1722640066,"current_range_meters":0,"station_id":"ce4bhs12rcd13ifvqhvg","pricing_plan_id":"cebpf4jnsgd1na2vs0mg"},{"bike_id":"81148f0e-b8c3-4d4b-a8c5-f0cd922d0ca2","system_id":"levelo_inurba_marseille","lat":43.324771,"lon":5.36557,"is_reserved":false,"is_disabled":false,"rental_uris":{"android":"levelo://app?vid=81148f0e-b8c3-4d4b-a8c5-f0cd922d0ca2","ios":"levelo://app?vid=81148f0e-b8c3-4d4b-a8c5-f0cd922d0ca2"},"vehicle_type_id":"4","last_reported":1722640066,"current_range_meters":27200,"station_id":"ce4bhs12rcd13ifvqhvg","pricing_plan_id":"cebpf4jnsgd1na2vs0mg"},{"bike_id":"6232810c-61f8-4289-b572-639cd00bfa92","system_id":"levelo_inurba_marseille","lat":43.324771,"lon":5.36557,"is_reserved":false,"is_disabled":false,"rental_uris":{"android":"levelo://app?vid=6232810c-61f8-4289-b572-639cd00bfa92","ios":"levelo://app?vid=6232810c-61f8-4289-b572-639cd00bfa92"},"vehicle_type_id":"4","last_reported":1722640066,"current_range_meters":2800,"station_id":"ce4bhs12rcd13ifvqhvg","pricing_plan_id":"cebpf4jnsgd1na2vs0mg"},{"bike_id":"4c22f15c-798c-43e0-80f2-8048acf7443a","system_id":"levelo_inurba_marseille","lat":43.32492,"lon":5.36601,"is_reserved":false,"is_disabled":false,"rental_uris":{"android":"levelo://app?vid=4c22f15c-798c-43e0-80f2-8048acf7443a","ios":"levelo://app?vid=4c22f15c-798c-43e0-80f2-8048acf7443a"},"vehicle_type_id":"4","last_reported":1722640066,"current_range_meters":12400,"station_id":"","pricing_plan_id":"cebpf4jnsgd1na2vs0mg"},{"bike_id":"7226e6f7-ce5a-4ab3-b570-2612b16231fe","system_id":"levelo_inurba_marseille","lat":43.310804,"lon":5.38359,"is_reserved":false,"is_disabled":false,"rental_uris":{"android":"levelo://app?vid=7226e6f7-ce5a-4ab3-b570-2612b16231fe","ios":"levelo://app?vid=7226e6f7-ce5a-4ab3-b570-2612b16231fe"},"vehicle_type_id":"4","last_reported":1722640066,"current_range_meters":11600,"station_id":"ce4bgv92rcd13ifvqcr0","pricing_plan_id":"cebpf4jnsgd1na2vs0mg"},{"bike_id":"1716bffb-7402-4c05-945a-ce26edc0f792","system_id":"levelo_inurba_marseille","lat":43.310804,"lon":5.38359,"is_reserved":false,"is_disabled":false,"rental_uris":{"android":"levelo://app?vid=1716bffb-7402-4c05-945a-ce26edc0f792","ios":"levelo://app?vid=1716bffb-7402-4c05-945a-ce26edc0f792"},"vehicle_type_id":"4","last_reported":1722640066,"current_range_meters":30800,"station_id":"ce4bgv92rcd13ifvqcr0","pricing_plan_id":"cebpf4jnsgd1na2vs0mg"},{"bike_id":"bf57a654-d4d3-4d02-b99a-362c42b413e6","system_id":"levelo_inurba_marseille","lat":43.310604,"lon":5.383502,"is_reserved":false,"is_disabled":false,"rental_uris":{"android":"levelo://app?vid=bf57a654-d4d3-4d02-b99a-362c42b413e6","ios":"levelo://app?vid=bf57a654-d4d3-4d02-b99a-362c42b413e6"},"vehicle_type_id":"4","last_reported":1722640066,"current_range_meters":4800,"station_id":"ce4bgv92rcd13ifvqcr0","pricing_plan_id":"cebpf4jnsgd1na2vs0mg"},{"bike_id":"b5bf820b-b9fc-4763-a3aa-450e362b06c3","system_id":"levelo_inurba_marseille","lat":43.30197,"lon":5.37496,"is_reserved":false,"is_disabled":false,"rental_uris":{"android":"levelo://app?vid=b5bf820b-b9fc-4763-a3aa-450e362b06c3","ios":"levelo://app?vid=b5bf820b-b9fc-4763-a3aa-450e362b06c3"},"vehicle_type_id":"4","last_reported":1722640066,"current_range_meters":31200,"station_id":"","pricing_plan_id":"cebpf4jnsgd1na2vs0mg"},{"bike_id":"1a1265a7-ed4e-477c-9701-b809694ca94d","system_id":"levelo_inurba_marseille","lat":43.310745,"lon":5.383575,"is_reserved":false,"is_disabled":false,"rental_uris":{"android":"levelo://app?vid=1a1265a7-ed4e-477c-9701-b809694ca94d","ios":"levelo://app?vid=1a1265a7-ed4e-477c-9701-b809694ca94d"},"vehicle_type_id":"4","last_reported":1722640066,"current_range_meters":10000,"station_id":"ce4bgv92rcd13ifvqcr0","pricing_plan_id":"cebpf4jnsgd1na2vs0mg"},{"bike_id":"637ff461-0972-47f5-905a-729cf8e5a250","system_id":"levelo_inurba_marseille","lat":43.310686,"lon":5.383574,"is_reserved":false,"is_disabled":false,"rental_uris":{"android":"levelo://app?vid=637ff461-0972-47f5-905a-729cf8e5a250","ios":"levelo://app?vid=637ff461-0972-47f5-905a-729cf8e5a250"},"vehicle_type_id":"4","last_reported":1722640066,"current_range_meters":6800,"station_id":"ce4bgv92rcd13ifvqcr0","pricing_plan_id":"cebpf4jnsgd1na2vs0mg"},{"bike_id":"94df0608-31b9-4d8f-9b19-608c54a02039","system_id":"levelo_inurba_marseille","lat":43.310804,"lon":5.38359,"is_reserved":false,"is_disabled":false,"rental_uris":{"android":"levelo://app?vid=94df0608-31b9-4d8f-9b19-608c54a02039","ios":"levelo://app?vid=94df0608-31b9-4d8f-9b19-608c54a02039"},"vehicle_type_id":"4","last_reported":1722640066,"current_range_meters":3600,"station_id":"ce4bgv92rcd13ifvqcr0","pricing_plan_id":"cebpf4jnsgd1na2vs0mg"},{"bike_id":"8e38401a-6489-4adf-a565-c28dd1fcc7d9","system_id":"levelo_inurba_marseille","lat":43.31078,"lon":5.38362,"is_reserved":false,"is_disabled":false,"rental_uris":{"android":"levelo://app?vid=8e38401a-6489-4adf-a565-c28dd1fcc7d9","ios":"levelo://app?vid=8e38401a-6489-4adf-a565-c28dd1fcc7d9"},"vehicle_type_id":"4","last_reported":1722640066,"current_range_meters":21200,"station_id":"ce4bgv92rcd13ifvqcr0","pricing_plan_id":"cebpf4jnsgd1na2vs0mg"},{"bike_id":"a8a932b1-ef39-4ad8-a278-5a562fd76d5d","system_id":"levelo_inurba_marseille","lat":43.310804,"lon":5.38359,"is_reserved":false,"is_disabled":false,"rental_uris":{"android":"levelo://app?vid=a8a932b1-ef39-4ad8-a278-5a562fd76d5d","ios":"levelo://app?vid=a8a932b1-ef39-4ad8-a278-5a562fd76d5d"},"vehicle_type_id":"4","last_reported":1722640066,"current_range_meters":30800,"station_id":"ce4bgv92rcd13ifvqcr0","pricing_plan_id":"cebpf4jnsgd1na2vs0mg"},{"bike_id":"642bf6dd-c125-4e6b-a7d4-07798fd012f9","system_id":"levelo_inurba_marseille","lat":43.302805,"lon":5.377045,"is_reserved":false,"is_disabled":false,"rental_uris":{"android":"levelo://app?vid=642bf6dd-c125-4e6b-a7d4-07798fd012f9","ios":"levelo://app?vid=642bf6dd-c125-4e6b-a7d4-07798fd012f9"},"vehicle_type_id":"4","last_reported":1722640066,"current_range_meters":29600,"station_id":"ce4bguh2rcd13ifvqcj0","pricing_plan_id":"cebpf4jnsgd1na2vs0mg"},{"bike_id":"825c9c3f-1554-4f60-9dca-bd03ad5b291b","system_id":"levelo_inurba_marseille","lat":43.302819,"lon":5.377079,"is_reserved":false,"is_disabled":false,"rental_uris":{"android":"levelo://app?vid=825c9c3f-1554-4f60-9dca-bd03ad5b291b","ios":"levelo://app?vid=825c9c3f-1554-4f60-9dca-bd03ad5b291b"},"vehicle_type_id":"4","last_reported":1722640066,"current_range_meters":30000,"station_id":"ce4bguh2rcd13ifvqcj0","pricing_plan_id":"cebpf4jnsgd1na2vs0mg"},{"bike_id":"8453d3f5-986e-4690-934f-377326baeaa2","system_id":"levelo_inurba_marseille","lat":43.310804,"lon":5.38359,"is_reserved":false,"is_disabled":false,"rental_uris":{"android":"levelo://app?vid=8453d3f5-986e-4690-934f-377326baeaa2","ios":"levelo://app?vid=8453d3f5-986e-4690-934f-377326baeaa2"},"vehicle_type_id":"4","last_reported":1722640066,"current_range_meters":19200,"station_id":"ce4bgv92rcd13ifvqcr0","pricing_plan_id":"cebpf4jnsgd1na2vs0mg"},{"bike_id":"3c67d1b8-a663-40c7-8e60-6f7bdfa00ca6","system_id":"levelo_inurba_marseille","lat":43.310804,"lon":5.38359,"is_reserved":false,"is_disabled":false,"rental_uris":{"android":"levelo://app?vid=3c67d1b8-a663-40c7-8e60-6f7bdfa00ca6","ios":"levelo://app?vid=3c67d1b8-a663-40c7-8e60-6f7bdfa00ca6"},"vehicle_type_id":"4","last_reported":1722640066,"current_range_meters":2000,"station_id":"ce4bgv92rcd13ifvqcr0","pricing_plan_id":"cebpf4jnsgd1na2vs0mg"},{"bike_id":"7a16929c-06dc-41b9-b2c1-41d9b5bbf782","system_id":"levelo_inurba_marseille","lat":43.302784,"lon":5.377158,"is_reserved":false,"is_disabled":false,"rental_uris":{"android":"levelo://app?vid=7a16929c-06dc-41b9-b2c1-41d9b5bbf782","ios":"levelo://app?vid=7a16929c-06dc-41b9-b2c1-41d9b5bbf782"},"vehicle_type_id":"4","last_reported":1722640066,"current_range_meters":4000,"station_id":"ce4bguh2rcd13ifvqcj0","pricing_plan_id":"cebpf4jnsgd1na2vs0mg"},{"bike_id":"f5c05407-074e-4404-bcc6-0335e98c5850","system_id":"levelo_inurba_marseille","lat":43.319916,"lon":5.381464,"is_reserved":false,"is_disabled":false,"rental_uris":{"android":"levelo://app?vid=f5c05407-074e-4404-bcc6-0335e98c5850","ios":"levelo://app?vid=f5c05407-074e-4404-bcc6-0335e98c5850"},"vehicle_type_id":"4","last_reported":1722640066,"current_range_meters":25600,"station_id":"ce4bhr12rcd13ifvqhpg","pricing_plan_id":"cebpf4jnsgd1na2vs0mg"},{"bike_id":"fad462a2-6e43-4d84-96cb-fb722545a036","system_id":"levelo_inurba_marseille","lat":43.319899,"lon":5.381569,"is_reserved":false,"is_disabled":false,"rental_uris":{"android":"levelo://app?vid=fad462a2-6e43-4d84-96cb-fb722545a036","ios":"levelo://app?vid=fad462a2-6e43-4d84-96cb-fb722545a036"},"vehicle_type_id":"4","last_reported":1722640066,"current_range_meters":4000,"station_id":"ce4bhr12rcd13ifvqhpg","pricing_plan_id":"cebpf4jnsgd1na2vs0mg"},{"bike_id":"f6f60429-f775-4eff-ad86-83602cab5b64","system_id":"levelo_inurba_marseille","lat":43.31993,"lon":5.381551,"is_reserved":false,"is_disabled":false,"rental_uris":{"android":"levelo://app?vid=f6f60429-f775-4eff-ad86-83602cab5b64","ios":"levelo://app?vid=f6f60429-f775-4eff-ad86-83602cab5b64"},"vehicle_type_id":"4","last_reported":1722640066,"current_range_meters":20800,"station_id":"ce4bhr12rcd13ifvqhpg","pricing_plan_id":"cebpf4jnsgd1na2vs0mg"},{"bike_id":"57e16e93-50e4-4f7e-9ea3-7919592fd1a7","system_id":"levelo_inurba_marseille","lat":43.31996,"lon":5.38161,"is_reserved":false,"is_disabled":false,"rental_uris":{"android":"levelo://app?vid=57e16e93-50e4-4f7e-9ea3-7919592fd1a7","ios":"levelo://app?vid=57e16e93-50e4-4f7e-9ea3-7919592fd1a7"},"vehicle_type_id":"4","last_reported":1722640066,"current_range_meters":6800,"station_id":"ce4bhr12rcd13ifvqhpg","pricing_plan_id":"cebpf4jnsgd1na2vs0mg"},{"bike_id":"aaf56518-486d-4ac9-99cd-4ceedf8a9da7","system_id":"levelo_inurba_marseille","lat":43.31993,"lon":5.38167,"is_reserved":false,"is_disabled":false,"rental_uris":{"android":"levelo://app?vid=aaf56518-486d-4ac9-99cd-4ceedf8a9da7","ios":"levelo://app?vid=aaf56518-486d-4ac9-99cd-4ceedf8a9da7"},"vehicle_type_id":"4","last_reported":1722640066,"current_range_meters":16800,"station_id":"ce4bhr12rcd13ifvqhpg","pricing_plan_id":"cebpf4jnsgd1na2vs0mg"},{"bike_id":"468d1d5d-3fcc-4b92-9efc-c13d437ba07c","system_id":"levelo_inurba_marseille","lat":43.30612,"lon":5.3822,"is_reserved":false,"is_disabled":false,"rental_uris":{"android":"levelo://app?vid=468d1d5d-3fcc-4b92-9efc-c13d437ba07c","ios":"levelo://app?vid=468d1d5d-3fcc-4b92-9efc-c13d437ba07c"},"vehicle_type_id":"4","last_reported":1722640066,"current_range_meters":18000,"station_id":"","pricing_plan_id":"cebpf4jnsgd1na2vs0mg"},{"bike_id":"f5e8d272-18a1-461b-aefa-94949eb2f15d","system_id":"levelo_inurba_marseille","lat":43.31367,"lon":5.3849,"is_reserved":false,"is_disabled":false,"rental_uris":{"android":"levelo://app?vid=f5e8d272-18a1-461b-aefa-94949eb2f15d","ios":"levelo://app?vid=f5e8d272-18a1-461b-aefa-94949eb2f15d"},"vehicle_type_id":"4","last_reported":1722640066,"current_range_meters":3600,"station_id":"ce4bgt92rcd13ifvqcf0","pricing_plan_id":"cebpf4jnsgd1na2vs0mg"},{"bike_id":"7616eff0-d6d3-47c4-a9aa-d5d46d207aa1","system_id":"levelo_inurba_marseille","lat":43.313571,"lon":5.384829,"is_reserved":false,"is_disabled":false,"rental_uris":{"android":"levelo://app?vid=7616eff0-d6d3-47c4-a9aa-d5d46d207aa1","ios":"levelo://app?vid=7616eff0-d6d3-47c4-a9aa-d5d46d207aa1"},"vehicle_type_id":"4","last_reported":1722640066,"current_range_meters":29200,"station_id":"ce4bgt92rcd13ifvqcf0","pricing_plan_id":"cebpf4jnsgd1na2vs0mg"},{"bike_id":"c62ad365-fe22-491b-b092-0d5305679e10","system_id":"levelo_inurba_marseille","lat":43.313571,"lon":5.384829,"is_reserved":false,"is_disabled":false,"rental_uris":{"android":"levelo://app?vid=c62ad365-fe22-491b-b092-0d5305679e10","ios":"levelo://app?vid=c62ad365-fe22-491b-b092-0d5305679e10"},"vehicle_type_id":"4","last_reported":1722640066,"current_range_meters":24000,"station_id":"ce4bgt92rcd13ifvqcf0","pricing_plan_id":"cebpf4jnsgd1na2vs0mg"},{"bike_id":"d0cd9e2e-0919-475a-b0e4-add4969cfa9e","system_id":"levelo_inurba_marseille","lat":43.313571,"lon":5.384829,"is_reserved":false,"is_disabled":false,"rental_uris":{"android":"levelo://app?vid=d0cd9e2e-0919-475a-b0e4-add4969cfa9e","ios":"levelo://app?vid=d0cd9e2e-0919-475a-b0e4-add4969cfa9e"},"vehicle_type_id":"4","last_reported":1722640066,"current_range_meters":26400,"station_id":"ce4bgt92rcd13ifvqcf0","pricing_plan_id":"cebpf4jnsgd1na2vs0mg"},{"bike_id":"7ba192ee-6965-4383-9ef5-f81117b78aa6","system_id":"levelo_inurba_marseille","lat":43.313571,"lon":5.384829,"is_reserved":false,"is_disabled":false,"rental_uris":{"android":"levelo://app?vid=7ba192ee-6965-4383-9ef5-f81117b78aa6","ios":"levelo://app?vid=7ba192ee-6965-4383-9ef5-f81117b78aa6"},"vehicle_type_id":"4","last_reported":1722640066,"current_range_meters":21200,"station_id":"ce4bgt92rcd13ifvqcf0","pricing_plan_id":"cebpf4jnsgd1na2vs0mg"},{"bike_id":"065afe85-101f-4e24-bdaf-fdd9bcc297b1","system_id":"levelo_inurba_marseille","lat":43.313571,"lon":5.384829,"is_reserved":false,"is_disabled":false,"rental_uris":{"android":"levelo://app?vid=065afe85-101f-4e24-bdaf-fdd9bcc297b1","ios":"levelo://app?vid=065afe85-101f-4e24-bdaf-fdd9bcc297b1"},"vehicle_type_id":"4","last_reported":1722640066,"current_range_meters":16400,"station_id":"ce4bgt92rcd13ifvqcf0","pricing_plan_id":"cebpf4jnsgd1na2vs0mg"},{"bike_id":"b6dd07f6-eb76-49cd-b5bf-3928fb8d3663","system_id":"levelo_inurba_marseille","lat":43.313571,"lon":5.384829,"is_reserved":false,"is_disabled":false,"rental_uris":{"android":"levelo://app?vid=b6dd07f6-eb76-49cd-b5bf-3928fb8d3663","ios":"levelo://app?vid=b6dd07f6-eb76-49cd-b5bf-3928fb8d3663"},"vehicle_type_id":"4","last_reported":1722640066,"current_range_meters":31200,"station_id":"ce4bgt92rcd13ifvqcf0","pricing_plan_id":"cebpf4jnsgd1na2vs0mg"},{"bike_id":"252b962a-d44b-46fc-80b5-450d0300963e","system_id":"levelo_inurba_marseille","lat":43.31373,"lon":5.38497,"is_reserved":false,"is_disabled":false,"rental_uris":{"android":"levelo://app?vid=252b962a-d44b-46fc-80b5-450d0300963e","ios":"levelo://app?vid=252b962a-d44b-46fc-80b5-450d0300963e"},"vehicle_type_id":"4","last_reported":1722640066,"current_range_meters":16000,"station_id":"ce4bgt92rcd13ifvqcf0","pricing_plan_id":"cebpf4jnsgd1na2vs0mg"},{"bike_id":"0780550a-512f-4073-83d6-0ee90f21be95","system_id":"levelo_inurba_marseille","lat":43.313571,"lon":5.384829,"is_reserved":false,"is_disabled":false,"rental_uris":{"android":"levelo://app?vid=0780550a-512f-4073-83d6-0ee90f21be95","ios":"levelo://app?vid=0780550a-512f-4073-83d6-0ee90f21be95"},"vehicle_type_id":"4","last_reported":1722640066,"current_range_meters":26400,"station_id":"ce4bgt92rcd13ifvqcf0","pricing_plan_id":"cebpf4jnsgd1na2vs0mg"},{"bike_id":"b8063fe8-8fd7-4dce-9e70-59b2996b9a85","system_id":"levelo_inurba_marseille","lat":43.3138,"lon":5.38497,"is_reserved":false,"is_disabled":false,"rental_uris":{"android":"levelo://app?vid=b8063fe8-8fd7-4dce-9e70-59b2996b9a85","ios":"levelo://app?vid=b8063fe8-8fd7-4dce-9e70-59b2996b9a85"},"vehicle_type_id":"4","last_reported":1722640066,"current_range_meters":2800,"station_id":"ce4bgt92rcd13ifvqcf0","pricing_plan_id":"cebpf4jnsgd1na2vs0mg"},{"bike_id":"6de7e36f-7b39-4c9f-a830-34eb84e675c3","system_id":"levelo_inurba_marseille","lat":43.313571,"lon":5.384829,"is_reserved":false,"is_disabled":false,"rental_uris":{"android":"levelo://app?vid=6de7e36f-7b39-4c9f-a830-34eb84e675c3","ios":"levelo://app?vid=6de7e36f-7b39-4c9f-a830-34eb84e675c3"},"vehicle_type_id":"4","last_reported":1722640066,"current_range_meters":27200,"station_id":"ce4bgt92rcd13ifvqcf0","pricing_plan_id":"cebpf4jnsgd1na2vs0mg"},{"bike_id":"014cdb2e-f922-4862-ad77-4b43c3dd3c0d","system_id":"levelo_inurba_marseille","lat":43.313571,"lon":5.384829,"is_reserved":false,"is_disabled":false,"rental_uris":{"android":"levelo://app?vid=014cdb2e-f922-4862-ad77-4b43c3dd3c0d","ios":"levelo://app?vid=014cdb2e-f922-4862-ad77-4b43c3dd3c0d"},"vehicle_type_id":"4","last_reported":1722640066,"current_range_meters":10800,"station_id":"ce4bgt92rcd13ifvqcf0","pricing_plan_id":"cebpf4jnsgd1na2vs0mg"},{"bike_id":"09399824-0237-4569-a4e8-dba15717b1bc","system_id":"levelo_inurba_marseille","lat":43.313571,"lon":5.384829,"is_reserved":false,"is_disabled":false,"rental_uris":{"android":"levelo://app?vid=09399824-0237-4569-a4e8-dba15717b1bc","ios":"levelo://app?vid=09399824-0237-4569-a4e8-dba15717b1bc"},"vehicle_type_id":"4","last_reported":1722640066,"current_range_meters":11600,"station_id":"ce4bgt92rcd13ifvqcf0","pricing_plan_id":"cebpf4jnsgd1na2vs0mg"},{"bike_id":"b9936026-6de2-4ee4-932c-c331059be3fd","system_id":"levelo_inurba_marseille","lat":43.31372,"lon":5.38499,"is_reserved":false,"is_disabled":false,"rental_uris":{"android":"levelo://app?vid=b9936026-6de2-4ee4-932c-c331059be3fd","ios":"levelo://app?vid=b9936026-6de2-4ee4-932c-c331059be3fd"},"vehicle_type_id":"4","last_reported":1722640066,"current_range_meters":7200,"station_id":"ce4bgt92rcd13ifvqcf0","pricing_plan_id":"cebpf4jnsgd1na2vs0mg"},{"bike_id":"12c54e17-1ba9-4aac-bd9a-52415b886274","system_id":"levelo_inurba_marseille","lat":43.313571,"lon":5.384829,"is_reserved":false,"is_disabled":false,"rental_uris":{"android":"levelo://app?vid=12c54e17-1ba9-4aac-bd9a-52415b886274","ios":"levelo://app?vid=12c54e17-1ba9-4aac-bd9a-52415b886274"},"vehicle_type_id":"4","last_reported":1722640066,"current_range_meters":6000,"station_id":"ce4bgt92rcd13ifvqcf0","pricing_plan_id":"cebpf4jnsgd1na2vs0mg"},{"bike_id":"db0e6572-c961-4d00-ba05-d9939a1869f6","system_id":"levelo_inurba_marseille","lat":43.313571,"lon":5.384829,"is_reserved":false,"is_disabled":false,"rental_uris":{"android":"levelo://app?vid=db0e6572-c961-4d00-ba05-d9939a1869f6","ios":"levelo://app?vid=db0e6572-c961-4d00-ba05-d9939a1869f6"},"vehicle_type_id":"4","last_reported":1722640066,"current_range_meters":18400,"station_id":"ce4bgt92rcd13ifvqcf0","pricing_plan_id":"cebpf4jnsgd1na2vs0mg"},{"bike_id":"7bf855f6-0189-40f2-8a8c-77d660e9cfa7","system_id":"levelo_inurba_marseille","lat":43.313571,"lon":5.384829,"is_reserved":false,"is_disabled":false,"rental_uris":{"android":"levelo://app?vid=7bf855f6-0189-40f2-8a8c-77d660e9cfa7","ios":"levelo://app?vid=7bf855f6-0189-40f2-8a8c-77d660e9cfa7"},"vehicle_type_id":"4","last_reported":1722640066,"current_range_meters":11600,"station_id":"ce4bgt92rcd13ifvqcf0","pricing_plan_id":"cebpf4jnsgd1na2vs0mg"},{"bike_id":"cb46f07e-ae0b-4282-85db-42d4e7110288","system_id":"levelo_inurba_marseille","lat":43.313571,"lon":5.384829,"is_reserved":false,"is_disabled":false,"rental_uris":{"android":"levelo://app?vid=cb46f07e-ae0b-4282-85db-42d4e7110288","ios":"levelo://app?vid=cb46f07e-ae0b-4282-85db-42d4e7110288"},"vehicle_type_id":"4","last_reported":1722640066,"current_range_meters":10400,"station_id":"ce4bgt92rcd13ifvqcf0","pricing_plan_id":"cebpf4jnsgd1na2vs0mg"},{"bike_id":"bf47a564-88f7-4b0d-8509-f4423f513d8d","system_id":"levelo_inurba_marseille","lat":43.31363,"lon":5.38501,"is_reserved":false,"is_disabled":false,"rental_uris":{"android":"levelo://app?vid=bf47a564-88f7-4b0d-8509-f4423f513d8d","ios":"levelo://app?vid=bf47a564-88f7-4b0d-8509-f4423f513d8d"},"vehicle_type_id":"4","last_reported":1722640066,"current_range_meters":11200,"station_id":"ce4bgt92rcd13ifvqcf0","pricing_plan_id":"cebpf4jnsgd1na2vs0mg"},{"bike_id":"ba1eed9a-8130-4dd3-b73e-3255edd40f36","system_id":"levelo_inurba_marseille","lat":43.313571,"lon":5.384829,"is_reserved":false,"is_disabled":false,"rental_uris":{"android":"levelo://app?vid=ba1eed9a-8130-4dd3-b73e-3255edd40f36","ios":"levelo://app?vid=ba1eed9a-8130-4dd3-b73e-3255edd40f36"},"vehicle_type_id":"4","last_reported":1722640066,"current_range_meters":27200,"station_id":"ce4bgt92rcd13ifvqcf0","pricing_plan_id":"cebpf4jnsgd1na2vs0mg"},{"bike_id":"cafb3dc5-f925-4e4d-9ecd-2e0a57e287f8","system_id":"levelo_inurba_marseille","lat":43.31362,"lon":5.38503,"is_reserved":false,"is_disabled":false,"rental_uris":{"android":"levelo://app?vid=cafb3dc5-f925-4e4d-9ecd-2e0a57e287f8","ios":"levelo://app?vid=cafb3dc5-f925-4e4d-9ecd-2e0a57e287f8"},"vehicle_type_id":"4","last_reported":1722640066,"current_range_meters":15600,"station_id":"ce4bgt92rcd13ifvqcf0","pricing_plan_id":"cebpf4jnsgd1na2vs0mg"},{"bike_id":"c3d9c8a2-34bd-49df-be83-fb76b3c041cd","system_id":"levelo_inurba_marseille","lat":43.3136,"lon":5.38504,"is_reserved":false,"is_disabled":false,"rental_uris":{"android":"levelo://app?vid=c3d9c8a2-34bd-49df-be83-fb76b3c041cd","ios":"levelo://app?vid=c3d9c8a2-34bd-49df-be83-fb76b3c041cd"},"vehicle_type_id":"4","last_reported":1722640066,"current_range_meters":26000,"station_id":"ce4bgt92rcd13ifvqcf0","pricing_plan_id":"cebpf4jnsgd1na2vs0mg"},{"bike_id":"b6f50120-f647-4aff-b292-844be74271d4","system_id":"levelo_inurba_marseille","lat":43.313571,"lon":5.384829,"is_reserved":false,"is_disabled":false,"rental_uris":{"android":"levelo://app?vid=b6f50120-f647-4aff-b292-844be74271d4","ios":"levelo://app?vid=b6f50120-f647-4aff-b292-844be74271d4"},"vehicle_type_id":"4","last_reported":1722640066,"current_range_meters":27600,"station_id":"ce4bgt92rcd13ifvqcf0","pricing_plan_id":"cebpf4jnsgd1na2vs0mg"},{"bike_id":"874751ae-ade4-461b-ba47-cfcd79d3f439","system_id":"levelo_inurba_marseille","lat":43.299222,"lon":5.365554,"is_reserved":false,"is_disabled":false,"rental_uris":{"android":"levelo://app?vid=874751ae-ade4-461b-ba47-cfcd79d3f439","ios":"levelo://app?vid=874751ae-ade4-461b-ba47-cfcd79d3f439"},"vehicle_type_id":"4","last_reported":1722640066,"current_range_meters":10000,"station_id":"ce4bgm92rcd13ifvqbr0","pricing_plan_id":"cebpf4jnsgd1na2vs0mg"},{"bike_id":"f3ec895c-00e8-4b51-94db-c15a3ebd8e77","system_id":"levelo_inurba_marseille","lat":43.299724,"lon":5.371829,"is_reserved":false,"is_disabled":false,"rental_uris":{"android":"levelo://app?vid=f3ec895c-00e8-4b51-94db-c15a3ebd8e77","ios":"levelo://app?vid=f3ec895c-00e8-4b51-94db-c15a3ebd8e77"},"vehicle_type_id":"4","last_reported":1722640066,"current_range_meters":4800,"station_id":"ce4bgr92rcd13ifvqc7g","pricing_plan_id":"cebpf4jnsgd1na2vs0mg"},{"bike_id":"4c306cd9-ac09-4afa-b2ea-321bc317bfed","system_id":"levelo_inurba_marseille","lat":43.319935,"lon":5.381699,"is_reserved":false,"is_disabled":false,"rental_uris":{"android":"levelo://app?vid=4c306cd9-ac09-4afa-b2ea-321bc317bfed","ios":"levelo://app?vid=4c306cd9-ac09-4afa-b2ea-321bc317bfed"},"vehicle_type_id":"4","last_reported":1722640066,"current_range_meters":28400,"station_id":"ce4bhr12rcd13ifvqhpg","pricing_plan_id":"cebpf4jnsgd1na2vs0mg"},{"bike_id":"f825378d-fecb-4a59-999c-74b2c82cf5d3","system_id":"levelo_inurba_marseille","lat":43.310251,"lon":5.385982,"is_reserved":false,"is_disabled":false,"rental_uris":{"android":"levelo://app?vid=f825378d-fecb-4a59-999c-74b2c82cf5d3","ios":"levelo://app?vid=f825378d-fecb-4a59-999c-74b2c82cf5d3"},"vehicle_type_id":"4","last_reported":1722640066,"current_range_meters":15200,"station_id":"","pricing_plan_id":"cebpf4jnsgd1na2vs0mg"},{"bike_id":"ab93a79a-6d04-4172-a14d-96f8ef25893b","system_id":"levelo_inurba_marseille","lat":43.313473,"lon":5.386543,"is_reserved":false,"is_disabled":false,"rental_uris":{"android":"levelo://app?vid=ab93a79a-6d04-4172-a14d-96f8ef25893b","ios":"levelo://app?vid=ab93a79a-6d04-4172-a14d-96f8ef25893b"},"vehicle_type_id":"4","last_reported":1722640066,"current_range_meters":30800,"station_id":"","pricing_plan_id":"cebpf4jnsgd1na2vs0mg"},{"bike_id":"63c1a11b-54f4-4bd2-b786-00f64f2cddd4","system_id":"levelo_inurba_marseille","lat":43.298433,"lon":5.362774,"is_reserved":false,"is_disabled":false,"rental_uris":{"android":"levelo://app?vid=63c1a11b-54f4-4bd2-b786-00f64f2cddd4","ios":"levelo://app?vid=63c1a11b-54f4-4bd2-b786-00f64f2cddd4"},"vehicle_type_id":"4","last_reported":1722640066,"current_range_meters":21600,"station_id":"ce4bgpp2rcd13ifvqc3g","pricing_plan_id":"cebpf4jnsgd1na2vs0mg"},{"bike_id":"31be7b1c-1f7a-4cbf-ad22-0b297c82e251","system_id":"levelo_inurba_marseille","lat":43.298433,"lon":5.362774,"is_reserved":false,"is_disabled":false,"rental_uris":{"android":"levelo://app?vid=31be7b1c-1f7a-4cbf-ad22-0b297c82e251","ios":"levelo://app?vid=31be7b1c-1f7a-4cbf-ad22-0b297c82e251"},"vehicle_type_id":"4","last_reported":1722640066,"current_range_meters":31200,"station_id":"ce4bgpp2rcd13ifvqc3g","pricing_plan_id":"cebpf4jnsgd1na2vs0mg"},{"bike_id":"8a239364-687a-47eb-990c-5d9bccdd512d","system_id":"levelo_inurba_marseille","lat":43.305364,"lon":5.384119,"is_reserved":false,"is_disabled":false,"rental_uris":{"android":"levelo://app?vid=8a239364-687a-47eb-990c-5d9bccdd512d","ios":"levelo://app?vid=8a239364-687a-47eb-990c-5d9bccdd512d"},"vehicle_type_id":"4","last_reported":1722640066,"current_range_meters":26400,"station_id":"ce4bgg92rcd13ifvqb30","pricing_plan_id":"cebpf4jnsgd1na2vs0mg"},{"bike_id":"ec2fb460-7f61-488b-aae9-7ff0a9ffea7d","system_id":"levelo_inurba_marseille","lat":43.29816,"lon":5.36878,"is_reserved":false,"is_disabled":false,"rental_uris":{"android":"levelo://app?vid=ec2fb460-7f61-488b-aae9-7ff0a9ffea7d","ios":"levelo://app?vid=ec2fb460-7f61-488b-aae9-7ff0a9ffea7d"},"vehicle_type_id":"4","last_reported":1722640066,"current_range_meters":23200,"station_id":"","pricing_plan_id":"cebpf4jnsgd1na2vs0mg"},{"bike_id":"b4cb6f7a-7728-448d-94aa-024bc5e107e5","system_id":"levelo_inurba_marseille","lat":43.311722,"lon":5.387247,"is_reserved":false,"is_disabled":false,"rental_uris":{"android":"levelo://app?vid=b4cb6f7a-7728-448d-94aa-024bc5e107e5","ios":"levelo://app?vid=b4cb6f7a-7728-448d-94aa-024bc5e107e5"},"vehicle_type_id":"4","last_reported":1722640066,"current_range_meters":5200,"station_id":"ce4bgv12rcd13ifvqcp0","pricing_plan_id":"cebpf4jnsgd1na2vs0mg"},{"bike_id":"fa6e4c2c-0f11-4546-a1fe-4865f6e59e13","system_id":"levelo_inurba_marseille","lat":43.299243,"lon":5.374807,"is_reserved":false,"is_disabled":false,"rental_uris":{"android":"levelo://app?vid=fa6e4c2c-0f11-4546-a1fe-4865f6e59e13","ios":"levelo://app?vid=fa6e4c2c-0f11-4546-a1fe-4865f6e59e13"},"vehicle_type_id":"4","last_reported":1722640066,"current_range_meters":31200,"station_id":"ce4bgjh2rcd13ifvqbg0","pricing_plan_id":"cebpf4jnsgd1na2vs0mg"},{"bike_id":"e1e1a0c8-8462-421d-8c23-d3a8a746f891","system_id":"levelo_inurba_marseille","lat":43.31172,"lon":5.38712,"is_reserved":false,"is_disabled":false,"rental_uris":{"android":"levelo://app?vid=e1e1a0c8-8462-421d-8c23-d3a8a746f891","ios":"levelo://app?vid=e1e1a0c8-8462-421d-8c23-d3a8a746f891"},"vehicle_type_id":"4","last_reported":1722640066,"current_range_meters":0,"station_id":"ce4bgv12rcd13ifvqcp0","pricing_plan_id":"cebpf4jnsgd1na2vs0mg"},{"bike_id":"e1bc7494-6621-45b9-a462-fd21bc9f8571","system_id":"levelo_inurba_marseille","lat":43.311722,"lon":5.387247,"is_reserved":false,"is_disabled":false,"rental_uris":{"android":"levelo://app?vid=e1bc7494-6621-45b9-a462-fd21bc9f8571","ios":"levelo://app?vid=e1bc7494-6621-45b9-a462-fd21bc9f8571"},"vehicle_type_id":"4","last_reported":1722640066,"current_range_meters":6400,"station_id":"ce4bgv12rcd13ifvqcp0","pricing_plan_id":"cebpf4jnsgd1na2vs0mg"},{"bike_id":"0de6e6f5-3cb5-4c41-950f-3d4cd30d5792","system_id":"levelo_inurba_marseille","lat":43.311722,"lon":5.387247,"is_reserved":false,"is_disabled":false,"rental_uris":{"android":"levelo://app?vid=0de6e6f5-3cb5-4c41-950f-3d4cd30d5792","ios":"levelo://app?vid=0de6e6f5-3cb5-4c41-950f-3d4cd30d5792"},"vehicle_type_id":"4","last_reported":1722640066,"current_range_meters":0,"station_id":"ce4bgv12rcd13ifvqcp0","pricing_plan_id":"cebpf4jnsgd1na2vs0mg"},{"bike_id":"dd6fdbf9-a85d-4dc0-8eb9-98d35a753e74","system_id":"levelo_inurba_marseille","lat":43.29909,"lon":5.37467,"is_reserved":false,"is_disabled":false,"rental_uris":{"android":"levelo://app?vid=dd6fdbf9-a85d-4dc0-8eb9-98d35a753e74","ios":"levelo://app?vid=dd6fdbf9-a85d-4dc0-8eb9-98d35a753e74"},"vehicle_type_id":"4","last_reported":1722640066,"current_range_meters":1600,"station_id":"ce4bgjh2rcd13ifvqbg0","pricing_plan_id":"cebpf4jnsgd1na2vs0mg"},{"bike_id":"ac4c147f-9231-4be4-964b-68761f22004c","system_id":"levelo_inurba_marseille","lat":43.31175,"lon":5.3872,"is_reserved":false,"is_disabled":false,"rental_uris":{"android":"levelo://app?vid=ac4c147f-9231-4be4-964b-68761f22004c","ios":"levelo://app?vid=ac4c147f-9231-4be4-964b-68761f22004c"},"vehicle_type_id":"4","last_reported":1722640066,"current_range_meters":7600,"station_id":"ce4bgv12rcd13ifvqcp0","pricing_plan_id":"cebpf4jnsgd1na2vs0mg"},{"bike_id":"0202d1c8-1e17-4de1-b483-3075ce04e1ce","system_id":"levelo_inurba_marseille","lat":43.311722,"lon":5.387247,"is_reserved":false,"is_disabled":false,"rental_uris":{"android":"levelo://app?vid=0202d1c8-1e17-4de1-b483-3075ce04e1ce","ios":"levelo://app?vid=0202d1c8-1e17-4de1-b483-3075ce04e1ce"},"vehicle_type_id":"4","last_reported":1722640066,"current_range_meters":28800,"station_id":"ce4bgv12rcd13ifvqcp0","pricing_plan_id":"cebpf4jnsgd1na2vs0mg"},{"bike_id":"63f88ed5-a53a-4016-a70b-541e0cba3202","system_id":"levelo_inurba_marseille","lat":43.311722,"lon":5.387247,"is_reserved":false,"is_disabled":false,"rental_uris":{"android":"levelo://app?vid=63f88ed5-a53a-4016-a70b-541e0cba3202","ios":"levelo://app?vid=63f88ed5-a53a-4016-a70b-541e0cba3202"},"vehicle_type_id":"4","last_reported":1722640066,"current_range_meters":2800,"station_id":"ce4bgv12rcd13ifvqcp0","pricing_plan_id":"cebpf4jnsgd1na2vs0mg"},{"bike_id":"25e1c896-b422-466f-88bd-b814f7ab8c69","system_id":"levelo_inurba_marseille","lat":43.311722,"lon":5.387247,"is_reserved":false,"is_disabled":false,"rental_uris":{"android":"levelo://app?vid=25e1c896-b422-466f-88bd-b814f7ab8c69","ios":"levelo://app?vid=25e1c896-b422-466f-88bd-b814f7ab8c69"},"vehicle_type_id":"4","last_reported":1722640066,"current_range_meters":18000,"station_id":"ce4bgv12rcd13ifvqcp0","pricing_plan_id":"cebpf4jnsgd1na2vs0mg"},{"bike_id":"46b4eaec-db21-4a1e-9f39-dd50f03b1a53","system_id":"levelo_inurba_marseille","lat":43.311722,"lon":5.387247,"is_reserved":false,"is_disabled":false,"rental_uris":{"android":"levelo://app?vid=46b4eaec-db21-4a1e-9f39-dd50f03b1a53","ios":"levelo://app?vid=46b4eaec-db21-4a1e-9f39-dd50f03b1a53"},"vehicle_type_id":"4","last_reported":1722640066,"current_range_meters":17600,"station_id":"ce4bgv12rcd13ifvqcp0","pricing_plan_id":"cebpf4jnsgd1na2vs0mg"},{"bike_id":"30f2c839-70f6-4cb1-b620-6e47b2ba9f87","system_id":"levelo_inurba_marseille","lat":43.311722,"lon":5.387247,"is_reserved":false,"is_disabled":false,"rental_uris":{"android":"levelo://app?vid=30f2c839-70f6-4cb1-b620-6e47b2ba9f87","ios":"levelo://app?vid=30f2c839-70f6-4cb1-b620-6e47b2ba9f87"},"vehicle_type_id":"4","last_reported":1722640066,"current_range_meters":18800,"station_id":"ce4bgv12rcd13ifvqcp0","pricing_plan_id":"cebpf4jnsgd1na2vs0mg"},{"bike_id":"afb94e94-94a7-44c2-add9-1ca7e4abdeda","system_id":"levelo_inurba_marseille","lat":43.311722,"lon":5.387247,"is_reserved":false,"is_disabled":false,"rental_uris":{"android":"levelo://app?vid=afb94e94-94a7-44c2-add9-1ca7e4abdeda","ios":"levelo://app?vid=afb94e94-94a7-44c2-add9-1ca7e4abdeda"},"vehicle_type_id":"4","last_reported":1722640066,"current_range_meters":24400,"station_id":"ce4bgv12rcd13ifvqcp0","pricing_plan_id":"cebpf4jnsgd1na2vs0mg"},{"bike_id":"effe204e-172c-4cfc-ac90-ad014f63365c","system_id":"levelo_inurba_marseille","lat":43.30153,"lon":5.38106,"is_reserved":false,"is_disabled":false,"rental_uris":{"android":"levelo://app?vid=effe204e-172c-4cfc-ac90-ad014f63365c","ios":"levelo://app?vid=effe204e-172c-4cfc-ac90-ad014f63365c"},"vehicle_type_id":"4","last_reported":1722640066,"current_range_meters":24000,"station_id":"","pricing_plan_id":"cebpf4jnsgd1na2vs0mg"},{"bike_id":"d065c92c-6334-411c-b664-2fe7f58d580a","system_id":"levelo_inurba_marseille","lat":43.322872,"lon":5.382756,"is_reserved":false,"is_disabled":false,"rental_uris":{"android":"levelo://app?vid=d065c92c-6334-411c-b664-2fe7f58d580a","ios":"levelo://app?vid=d065c92c-6334-411c-b664-2fe7f58d580a"},"vehicle_type_id":"4","last_reported":1722640066,"current_range_meters":32000,"station_id":"ce4bhr12rcd13ifvqhqg","pricing_plan_id":"cebpf4jnsgd1na2vs0mg"},{"bike_id":"c3e3c541-04e9-44d8-9d54-a5eaa08e82da","system_id":"levelo_inurba_marseille","lat":43.322872,"lon":5.382756,"is_reserved":false,"is_disabled":false,"rental_uris":{"android":"levelo://app?vid=c3e3c541-04e9-44d8-9d54-a5eaa08e82da","ios":"levelo://app?vid=c3e3c541-04e9-44d8-9d54-a5eaa08e82da"},"vehicle_type_id":"4","last_reported":1722640066,"current_range_meters":31600,"station_id":"ce4bhr12rcd13ifvqhqg","pricing_plan_id":"cebpf4jnsgd1na2vs0mg"},{"bike_id":"6d9c5c2c-47ea-496b-b8ef-58618a0fe003","system_id":"levelo_inurba_marseille","lat":43.322872,"lon":5.382756,"is_reserved":false,"is_disabled":false,"rental_uris":{"android":"levelo://app?vid=6d9c5c2c-47ea-496b-b8ef-58618a0fe003","ios":"levelo://app?vid=6d9c5c2c-47ea-496b-b8ef-58618a0fe003"},"vehicle_type_id":"4","last_reported":1722640066,"current_range_meters":25600,"station_id":"ce4bhr12rcd13ifvqhqg","pricing_plan_id":"cebpf4jnsgd1na2vs0mg"},{"bike_id":"18e6f8ea-14cd-4f38-add4-2a65e8235464","system_id":"levelo_inurba_marseille","lat":43.322872,"lon":5.382756,"is_reserved":false,"is_disabled":false,"rental_uris":{"android":"levelo://app?vid=18e6f8ea-14cd-4f38-add4-2a65e8235464","ios":"levelo://app?vid=18e6f8ea-14cd-4f38-add4-2a65e8235464"},"vehicle_type_id":"4","last_reported":1722640066,"current_range_meters":20400,"station_id":"ce4bhr12rcd13ifvqhqg","pricing_plan_id":"cebpf4jnsgd1na2vs0mg"},{"bike_id":"b654d970-8a92-4f23-815a-f01fd1d6dafb","system_id":"levelo_inurba_marseille","lat":43.322872,"lon":5.382756,"is_reserved":false,"is_disabled":false,"rental_uris":{"android":"levelo://app?vid=b654d970-8a92-4f23-815a-f01fd1d6dafb","ios":"levelo://app?vid=b654d970-8a92-4f23-815a-f01fd1d6dafb"},"vehicle_type_id":"4","last_reported":1722640066,"current_range_meters":32000,"station_id":"ce4bhr12rcd13ifvqhqg","pricing_plan_id":"cebpf4jnsgd1na2vs0mg"},{"bike_id":"c8a6d8cc-5417-4bdc-b1c7-646f4f46aa7b","system_id":"levelo_inurba_marseille","lat":43.322872,"lon":5.382756,"is_reserved":false,"is_disabled":false,"rental_uris":{"android":"levelo://app?vid=c8a6d8cc-5417-4bdc-b1c7-646f4f46aa7b","ios":"levelo://app?vid=c8a6d8cc-5417-4bdc-b1c7-646f4f46aa7b"},"vehicle_type_id":"4","last_reported":1722640066,"current_range_meters":31600,"station_id":"ce4bhr12rcd13ifvqhqg","pricing_plan_id":"cebpf4jnsgd1na2vs0mg"},{"bike_id":"daf17342-15d8-428e-88a3-2cd0fdbf3c01","system_id":"levelo_inurba_marseille","lat":43.29877,"lon":5.3759,"is_reserved":false,"is_disabled":false,"rental_uris":{"android":"levelo://app?vid=daf17342-15d8-428e-88a3-2cd0fdbf3c01","ios":"levelo://app?vid=daf17342-15d8-428e-88a3-2cd0fdbf3c01"},"vehicle_type_id":"4","last_reported":1722640066,"current_range_meters":6000,"station_id":"","pricing_plan_id":"cebpf4jnsgd1na2vs0mg"},{"bike_id":"52d933f6-e504-435b-8c68-99fb8e8bbdbd","system_id":"levelo_inurba_marseille","lat":43.297774,"lon":5.370875,"is_reserved":false,"is_disabled":false,"rental_uris":{"android":"levelo://app?vid=52d933f6-e504-435b-8c68-99fb8e8bbdbd","ios":"levelo://app?vid=52d933f6-e504-435b-8c68-99fb8e8bbdbd"},"vehicle_type_id":"4","last_reported":1722640066,"current_range_meters":15600,"station_id":"ce4bgop2rcd13ifvqc1g","pricing_plan_id":"cebpf4jnsgd1na2vs0mg"},{"bike_id":"0a4ec73d-4232-444e-8408-7461a9e59554","system_id":"levelo_inurba_marseille","lat":43.297168,"lon":5.368812,"is_reserved":false,"is_disabled":false,"rental_uris":{"android":"levelo://app?vid=0a4ec73d-4232-444e-8408-7461a9e59554","ios":"levelo://app?vid=0a4ec73d-4232-444e-8408-7461a9e59554"},"vehicle_type_id":"4","last_reported":1722640066,"current_range_meters":13600,"station_id":"","pricing_plan_id":"cebpf4jnsgd1na2vs0mg"},{"bike_id":"1fbef8a9-930f-4ea0-96e3-eb7c83a4d0da","system_id":"levelo_inurba_marseille","lat":43.297163,"lon":5.365866,"is_reserved":false,"is_disabled":false,"rental_uris":{"android":"levelo://app?vid=1fbef8a9-930f-4ea0-96e3-eb7c83a4d0da","ios":"levelo://app?vid=1fbef8a9-930f-4ea0-96e3-eb7c83a4d0da"},"vehicle_type_id":"4","last_reported":1722640066,"current_range_meters":0,"station_id":"ce4bgn12rcd13ifvqbt0","pricing_plan_id":"cebpf4jnsgd1na2vs0mg"},{"bike_id":"abb9ce0a-6b4b-442c-a769-b1c08daa6106","system_id":"levelo_inurba_marseille","lat":43.31612,"lon":5.38927,"is_reserved":false,"is_disabled":false,"rental_uris":{"android":"levelo://app?vid=abb9ce0a-6b4b-442c-a769-b1c08daa6106","ios":"levelo://app?vid=abb9ce0a-6b4b-442c-a769-b1c08daa6106"},"vehicle_type_id":"4","last_reported":1722640066,"current_range_meters":9600,"station_id":"","pricing_plan_id":"cebpf4jnsgd1na2vs0mg"},{"bike_id":"2914a6ce-7a25-4971-bc58-7eb345d80670","system_id":"levelo_inurba_marseille","lat":43.32937,"lon":5.36606,"is_reserved":false,"is_disabled":false,"rental_uris":{"android":"levelo://app?vid=2914a6ce-7a25-4971-bc58-7eb345d80670","ios":"levelo://app?vid=2914a6ce-7a25-4971-bc58-7eb345d80670"},"vehicle_type_id":"4","last_reported":1722640066,"current_range_meters":30400,"station_id":"","pricing_plan_id":"cebpf4jnsgd1na2vs0mg"},{"bike_id":"10c49719-e7c3-4404-bf4e-ca34507a7ec1","system_id":"levelo_inurba_marseille","lat":43.296131,"lon":5.370791,"is_reserved":false,"is_disabled":false,"rental_uris":{"android":"levelo://app?vid=10c49719-e7c3-4404-bf4e-ca34507a7ec1","ios":"levelo://app?vid=10c49719-e7c3-4404-bf4e-ca34507a7ec1"},"vehicle_type_id":"4","last_reported":1722640066,"current_range_meters":8400,"station_id":"ce4bgnh2rcd13ifvqc0g","pricing_plan_id":"cebpf4jnsgd1na2vs0mg"},{"bike_id":"8545c24d-2243-4cac-b6ae-79e407e6e367","system_id":"levelo_inurba_marseille","lat":43.296131,"lon":5.370791,"is_reserved":false,"is_disabled":false,"rental_uris":{"android":"levelo://app?vid=8545c24d-2243-4cac-b6ae-79e407e6e367","ios":"levelo://app?vid=8545c24d-2243-4cac-b6ae-79e407e6e367"},"vehicle_type_id":"4","last_reported":1722640066,"current_range_meters":22800,"station_id":"ce4bgnh2rcd13ifvqc0g","pricing_plan_id":"cebpf4jnsgd1na2vs0mg"},{"bike_id":"359bd0b1-7c5f-493e-8461-2ad1fae8e1af","system_id":"levelo_inurba_marseille","lat":43.29573,"lon":5.367355,"is_reserved":false,"is_disabled":false,"rental_uris":{"android":"levelo://app?vid=359bd0b1-7c5f-493e-8461-2ad1fae8e1af","ios":"levelo://app?vid=359bd0b1-7c5f-493e-8461-2ad1fae8e1af"},"vehicle_type_id":"4","last_reported":1722640066,"current_range_meters":6800,"station_id":"ce4bgph2rcd13ifvqc2g","pricing_plan_id":"cebpf4jnsgd1na2vs0mg"},{"bike_id":"3db66b60-3d0d-4a09-a3d6-42d19bc87ea0","system_id":"levelo_inurba_marseille","lat":43.29573,"lon":5.367355,"is_reserved":false,"is_disabled":false,"rental_uris":{"android":"levelo://app?vid=3db66b60-3d0d-4a09-a3d6-42d19bc87ea0","ios":"levelo://app?vid=3db66b60-3d0d-4a09-a3d6-42d19bc87ea0"},"vehicle_type_id":"4","last_reported":1722640066,"current_range_meters":8800,"station_id":"ce4bgph2rcd13ifvqc2g","pricing_plan_id":"cebpf4jnsgd1na2vs0mg"},{"bike_id":"e4ea0563-43a0-43ea-94c6-5105ce48a745","system_id":"levelo_inurba_marseille","lat":43.309589,"lon":5.390258,"is_reserved":false,"is_disabled":false,"rental_uris":{"android":"levelo://app?vid=e4ea0563-43a0-43ea-94c6-5105ce48a745","ios":"levelo://app?vid=e4ea0563-43a0-43ea-94c6-5105ce48a745"},"vehicle_type_id":"4","last_reported":1722640066,"current_range_meters":20400,"station_id":"ce4bgup2rcd13ifvqco0","pricing_plan_id":"cebpf4jnsgd1na2vs0mg"},{"bike_id":"d9d30c56-6159-44bc-941a-f93ef134f1aa","system_id":"levelo_inurba_marseille","lat":43.309589,"lon":5.390258,"is_reserved":false,"is_disabled":false,"rental_uris":{"android":"levelo://app?vid=d9d30c56-6159-44bc-941a-f93ef134f1aa","ios":"levelo://app?vid=d9d30c56-6159-44bc-941a-f93ef134f1aa"},"vehicle_type_id":"4","last_reported":1722640066,"current_range_meters":30800,"station_id":"ce4bgup2rcd13ifvqco0","pricing_plan_id":"cebpf4jnsgd1na2vs0mg"},{"bike_id":"ec49ea94-8766-4686-8fe0-dbd2cafe0287","system_id":"levelo_inurba_marseille","lat":43.309589,"lon":5.390258,"is_reserved":false,"is_disabled":false,"rental_uris":{"android":"levelo://app?vid=ec49ea94-8766-4686-8fe0-dbd2cafe0287","ios":"levelo://app?vid=ec49ea94-8766-4686-8fe0-dbd2cafe0287"},"vehicle_type_id":"4","last_reported":1722640066,"current_range_meters":18000,"station_id":"ce4bgup2rcd13ifvqco0","pricing_plan_id":"cebpf4jnsgd1na2vs0mg"},{"bike_id":"d8a89575-799c-48ca-a205-3e63b967aef2","system_id":"levelo_inurba_marseille","lat":43.309589,"lon":5.390258,"is_reserved":false,"is_disabled":false,"rental_uris":{"android":"levelo://app?vid=d8a89575-799c-48ca-a205-3e63b967aef2","ios":"levelo://app?vid=d8a89575-799c-48ca-a205-3e63b967aef2"},"vehicle_type_id":"4","last_reported":1722640066,"current_range_meters":12800,"station_id":"ce4bgup2rcd13ifvqco0","pricing_plan_id":"cebpf4jnsgd1na2vs0mg"},{"bike_id":"9f72bc4a-0729-473c-8873-168cfb875b85","system_id":"levelo_inurba_marseille","lat":43.309589,"lon":5.390258,"is_reserved":false,"is_disabled":false,"rental_uris":{"android":"levelo://app?vid=9f72bc4a-0729-473c-8873-168cfb875b85","ios":"levelo://app?vid=9f72bc4a-0729-473c-8873-168cfb875b85"},"vehicle_type_id":"4","last_reported":1722640066,"current_range_meters":8800,"station_id":"ce4bgup2rcd13ifvqco0","pricing_plan_id":"cebpf4jnsgd1na2vs0mg"},{"bike_id":"9c796ae2-eaed-49e0-8d23-11c58e25ba72","system_id":"levelo_inurba_marseille","lat":43.29723,"lon":5.378,"is_reserved":false,"is_disabled":false,"rental_uris":{"android":"levelo://app?vid=9c796ae2-eaed-49e0-8d23-11c58e25ba72","ios":"levelo://app?vid=9c796ae2-eaed-49e0-8d23-11c58e25ba72"},"vehicle_type_id":"4","last_reported":1722640066,"current_range_meters":0,"station_id":"","pricing_plan_id":"cebpf4jnsgd1na2vs0mg"},{"bike_id":"54789632-9579-4938-a931-d9030ba1a539","system_id":"levelo_inurba_marseille","lat":43.317557,"lon":5.390173,"is_reserved":false,"is_disabled":false,"rental_uris":{"android":"levelo://app?vid=54789632-9579-4938-a931-d9030ba1a539","ios":"levelo://app?vid=54789632-9579-4938-a931-d9030ba1a539"},"vehicle_type_id":"4","last_reported":1722640066,"current_range_meters":20800,"station_id":"ce4bhqp2rcd13ifvqhng","pricing_plan_id":"cebpf4jnsgd1na2vs0mg"},{"bike_id":"4f949a0a-6820-4ba2-9b8b-25798ea93f5e","system_id":"levelo_inurba_marseille","lat":43.317557,"lon":5.390173,"is_reserved":false,"is_disabled":false,"rental_uris":{"android":"levelo://app?vid=4f949a0a-6820-4ba2-9b8b-25798ea93f5e","ios":"levelo://app?vid=4f949a0a-6820-4ba2-9b8b-25798ea93f5e"},"vehicle_type_id":"4","last_reported":1722640066,"current_range_meters":28400,"station_id":"ce4bhqp2rcd13ifvqhng","pricing_plan_id":"cebpf4jnsgd1na2vs0mg"},{"bike_id":"191d0d8a-21db-434f-a96d-9bf62a59209a","system_id":"levelo_inurba_marseille","lat":43.317557,"lon":5.390173,"is_reserved":false,"is_disabled":false,"rental_uris":{"android":"levelo://app?vid=191d0d8a-21db-434f-a96d-9bf62a59209a","ios":"levelo://app?vid=191d0d8a-21db-434f-a96d-9bf62a59209a"},"vehicle_type_id":"4","last_reported":1722640066,"current_range_meters":25600,"station_id":"ce4bhqp2rcd13ifvqhng","pricing_plan_id":"cebpf4jnsgd1na2vs0mg"},{"bike_id":"49ac7765-bbdf-403c-a3a2-d2cc6e30804b","system_id":"levelo_inurba_marseille","lat":43.29795,"lon":5.38103,"is_reserved":false,"is_disabled":false,"rental_uris":{"android":"levelo://app?vid=49ac7765-bbdf-403c-a3a2-d2cc6e30804b","ios":"levelo://app?vid=49ac7765-bbdf-403c-a3a2-d2cc6e30804b"},"vehicle_type_id":"4","last_reported":1722640066,"current_range_meters":9200,"station_id":"ce4bgip2rcd13ifvqbb0","pricing_plan_id":"cebpf4jnsgd1na2vs0mg"},{"bike_id":"ee5e7c98-d583-4cbd-a2db-138baf6526cd","system_id":"levelo_inurba_marseille","lat":43.298037,"lon":5.381066,"is_reserved":false,"is_disabled":false,"rental_uris":{"android":"levelo://app?vid=ee5e7c98-d583-4cbd-a2db-138baf6526cd","ios":"levelo://app?vid=ee5e7c98-d583-4cbd-a2db-138baf6526cd"},"vehicle_type_id":"4","last_reported":1722640066,"current_range_meters":0,"station_id":"ce4bgip2rcd13ifvqbb0","pricing_plan_id":"cebpf4jnsgd1na2vs0mg"},{"bike_id":"ebb5fc2e-d5e5-41b4-8759-76d8d895a2f8","system_id":"levelo_inurba_marseille","lat":43.304274,"lon":5.388873,"is_reserved":false,"is_disabled":false,"rental_uris":{"android":"levelo://app?vid=ebb5fc2e-d5e5-41b4-8759-76d8d895a2f8","ios":"levelo://app?vid=ebb5fc2e-d5e5-41b4-8759-76d8d895a2f8"},"vehicle_type_id":"4","last_reported":1722640066,"current_range_meters":0,"station_id":"ce4bgk12rcd13ifvqbi0","pricing_plan_id":"cebpf4jnsgd1na2vs0mg"},{"bike_id":"f9323509-ca2d-4c73-9c83-6180449abf23","system_id":"levelo_inurba_marseille","lat":43.304278,"lon":5.388868,"is_reserved":false,"is_disabled":false,"rental_uris":{"android":"levelo://app?vid=f9323509-ca2d-4c73-9c83-6180449abf23","ios":"levelo://app?vid=f9323509-ca2d-4c73-9c83-6180449abf23"},"vehicle_type_id":"4","last_reported":1722640066,"current_range_meters":31600,"station_id":"ce4bgk12rcd13ifvqbi0","pricing_plan_id":"cebpf4jnsgd1na2vs0mg"},{"bike_id":"1ef25a45-1cf8-4940-9c4f-1c13edc22386","system_id":"levelo_inurba_marseille","lat":43.304274,"lon":5.388873,"is_reserved":false,"is_disabled":false,"rental_uris":{"android":"levelo://app?vid=1ef25a45-1cf8-4940-9c4f-1c13edc22386","ios":"levelo://app?vid=1ef25a45-1cf8-4940-9c4f-1c13edc22386"},"vehicle_type_id":"4","last_reported":1722640066,"current_range_meters":0,"station_id":"ce4bgk12rcd13ifvqbi0","pricing_plan_id":"cebpf4jnsgd1na2vs0mg"},{"bike_id":"7dd5e6e5-42b6-4bb9-ae5a-7e0bb45e1c6b","system_id":"levelo_inurba_marseille","lat":43.304278,"lon":5.388868,"is_reserved":false,"is_disabled":false,"rental_uris":{"android":"levelo://app?vid=7dd5e6e5-42b6-4bb9-ae5a-7e0bb45e1c6b","ios":"levelo://app?vid=7dd5e6e5-42b6-4bb9-ae5a-7e0bb45e1c6b"},"vehicle_type_id":"4","last_reported":1722640066,"current_range_meters":9600,"station_id":"ce4bgk12rcd13ifvqbi0","pricing_plan_id":"cebpf4jnsgd1na2vs0mg"},{"bike_id":"08852b3b-1f89-4cfb-a72d-6b6b51a09ffd","system_id":"levelo_inurba_marseille","lat":43.304278,"lon":5.388868,"is_reserved":false,"is_disabled":false,"rental_uris":{"android":"levelo://app?vid=08852b3b-1f89-4cfb-a72d-6b6b51a09ffd","ios":"levelo://app?vid=08852b3b-1f89-4cfb-a72d-6b6b51a09ffd"},"vehicle_type_id":"4","last_reported":1722640066,"current_range_meters":17600,"station_id":"ce4bgk12rcd13ifvqbi0","pricing_plan_id":"cebpf4jnsgd1na2vs0mg"},{"bike_id":"f6a220f6-fdd6-4d36-9e7c-09322db21603","system_id":"levelo_inurba_marseille","lat":43.29886,"lon":5.3832,"is_reserved":false,"is_disabled":false,"rental_uris":{"android":"levelo://app?vid=f6a220f6-fdd6-4d36-9e7c-09322db21603","ios":"levelo://app?vid=f6a220f6-fdd6-4d36-9e7c-09322db21603"},"vehicle_type_id":"4","last_reported":1722640066,"current_range_meters":5600,"station_id":"","pricing_plan_id":"cebpf4jnsgd1na2vs0mg"},{"bike_id":"9b30116a-0c2e-4ee3-bd8d-96566919bfaa","system_id":"levelo_inurba_marseille","lat":43.299724,"lon":5.384848,"is_reserved":false,"is_disabled":false,"rental_uris":{"android":"levelo://app?vid=9b30116a-0c2e-4ee3-bd8d-96566919bfaa","ios":"levelo://app?vid=9b30116a-0c2e-4ee3-bd8d-96566919bfaa"},"vehicle_type_id":"4","last_reported":1722640066,"current_range_meters":28800,"station_id":"ce4bgj92rcd13ifvqbd0","pricing_plan_id":"cebpf4jnsgd1na2vs0mg"},{"bike_id":"1ee8c4fd-d026-4298-a013-290575cab75f","system_id":"levelo_inurba_marseille","lat":43.299717,"lon":5.384845,"is_reserved":false,"is_disabled":false,"rental_uris":{"android":"levelo://app?vid=1ee8c4fd-d026-4298-a013-290575cab75f","ios":"levelo://app?vid=1ee8c4fd-d026-4298-a013-290575cab75f"},"vehicle_type_id":"4","last_reported":1722640066,"current_range_meters":19200,"station_id":"ce4bgj92rcd13ifvqbd0","pricing_plan_id":"cebpf4jnsgd1na2vs0mg"},{"bike_id":"6dabb033-ac98-4f34-a651-d6be713fcb02","system_id":"levelo_inurba_marseille","lat":43.30964,"lon":5.39257,"is_reserved":false,"is_disabled":false,"rental_uris":{"android":"levelo://app?vid=6dabb033-ac98-4f34-a651-d6be713fcb02","ios":"levelo://app?vid=6dabb033-ac98-4f34-a651-d6be713fcb02"},"vehicle_type_id":"4","last_reported":1722640066,"current_range_meters":18400,"station_id":"","pricing_plan_id":"cebpf4jnsgd1na2vs0mg"},{"bike_id":"d3576489-c02b-4e30-bc4d-f34b1172b506","system_id":"levelo_inurba_marseille","lat":43.32356,"lon":5.38884,"is_reserved":false,"is_disabled":false,"rental_uris":{"android":"levelo://app?vid=d3576489-c02b-4e30-bc4d-f34b1172b506","ios":"levelo://app?vid=d3576489-c02b-4e30-bc4d-f34b1172b506"},"vehicle_type_id":"4","last_reported":1722640066,"current_range_meters":21600,"station_id":"ce4bhqp2rcd13ifvqhog","pricing_plan_id":"cebpf4jnsgd1na2vs0mg"},{"bike_id":"a6e7aa3a-4bce-4f9d-bf35-603e015312e9","system_id":"levelo_inurba_marseille","lat":43.32364,"lon":5.38877,"is_reserved":false,"is_disabled":false,"rental_uris":{"android":"levelo://app?vid=a6e7aa3a-4bce-4f9d-bf35-603e015312e9","ios":"levelo://app?vid=a6e7aa3a-4bce-4f9d-bf35-603e015312e9"},"vehicle_type_id":"4","last_reported":1722640066,"current_range_meters":12800,"station_id":"ce4bhqp2rcd13ifvqhog","pricing_plan_id":"cebpf4jnsgd1na2vs0mg"},{"bike_id":"210adf71-4422-43c7-a406-d97a87807f4f","system_id":"levelo_inurba_marseille","lat":43.32361,"lon":5.38882,"is_reserved":false,"is_disabled":false,"rental_uris":{"android":"levelo://app?vid=210adf71-4422-43c7-a406-d97a87807f4f","ios":"levelo://app?vid=210adf71-4422-43c7-a406-d97a87807f4f"},"vehicle_type_id":"4","last_reported":1722640066,"current_range_meters":30800,"station_id":"ce4bhqp2rcd13ifvqhog","pricing_plan_id":"cebpf4jnsgd1na2vs0mg"},{"bike_id":"8d04932c-f75b-4dd7-bfd1-0b427b029a05","system_id":"levelo_inurba_marseille","lat":43.3236,"lon":5.38885,"is_reserved":false,"is_disabled":false,"rental_uris":{"android":"levelo://app?vid=8d04932c-f75b-4dd7-bfd1-0b427b029a05","ios":"levelo://app?vid=8d04932c-f75b-4dd7-bfd1-0b427b029a05"},"vehicle_type_id":"4","last_reported":1722640066,"current_range_meters":4000,"station_id":"ce4bhqp2rcd13ifvqhog","pricing_plan_id":"cebpf4jnsgd1na2vs0mg"},{"bike_id":"0009eb61-2553-4477-91e3-ab94c3850384","system_id":"levelo_inurba_marseille","lat":43.32365,"lon":5.38881,"is_reserved":false,"is_disabled":false,"rental_uris":{"android":"levelo://app?vid=0009eb61-2553-4477-91e3-ab94c3850384","ios":"levelo://app?vid=0009eb61-2553-4477-91e3-ab94c3850384"},"vehicle_type_id":"4","last_reported":1722640066,"current_range_meters":26400,"station_id":"ce4bhqp2rcd13ifvqhog","pricing_plan_id":"cebpf4jnsgd1na2vs0mg"},{"bike_id":"c0e51327-37b9-4730-9b0f-9d6b73bbe1e0","system_id":"levelo_inurba_marseille","lat":43.32367,"lon":5.388836,"is_reserved":false,"is_disabled":false,"rental_uris":{"android":"levelo://app?vid=c0e51327-37b9-4730-9b0f-9d6b73bbe1e0","ios":"levelo://app?vid=c0e51327-37b9-4730-9b0f-9d6b73bbe1e0"},"vehicle_type_id":"4","last_reported":1722640066,"current_range_meters":23200,"station_id":"ce4bhqp2rcd13ifvqhog","pricing_plan_id":"cebpf4jnsgd1na2vs0mg"},{"bike_id":"b8cf7acb-f378-4900-8cfe-63394b76ec47","system_id":"levelo_inurba_marseille","lat":43.32367,"lon":5.38881,"is_reserved":false,"is_disabled":false,"rental_uris":{"android":"levelo://app?vid=b8cf7acb-f378-4900-8cfe-63394b76ec47","ios":"levelo://app?vid=b8cf7acb-f378-4900-8cfe-63394b76ec47"},"vehicle_type_id":"4","last_reported":1722640066,"current_range_meters":26000,"station_id":"ce4bhqp2rcd13ifvqhog","pricing_plan_id":"cebpf4jnsgd1na2vs0mg"},{"bike_id":"2a7fdbca-6296-4df7-8529-49300be1471d","system_id":"levelo_inurba_marseille","lat":43.32367,"lon":5.388836,"is_reserved":false,"is_disabled":false,"rental_uris":{"android":"levelo://app?vid=2a7fdbca-6296-4df7-8529-49300be1471d","ios":"levelo://app?vid=2a7fdbca-6296-4df7-8529-49300be1471d"},"vehicle_type_id":"4","last_reported":1722640066,"current_range_meters":12800,"station_id":"ce4bhqp2rcd13ifvqhog","pricing_plan_id":"cebpf4jnsgd1na2vs0mg"},{"bike_id":"54ef3169-a37d-4c38-ad55-59245858401e","system_id":"levelo_inurba_marseille","lat":43.32368,"lon":5.38881,"is_reserved":false,"is_disabled":false,"rental_uris":{"android":"levelo://app?vid=54ef3169-a37d-4c38-ad55-59245858401e","ios":"levelo://app?vid=54ef3169-a37d-4c38-ad55-59245858401e"},"vehicle_type_id":"4","last_reported":1722640066,"current_range_meters":15200,"station_id":"ce4bhqp2rcd13ifvqhog","pricing_plan_id":"cebpf4jnsgd1na2vs0mg"},{"bike_id":"25afd062-5301-4e0e-825e-8c10ffc2f270","system_id":"levelo_inurba_marseille","lat":43.32367,"lon":5.388836,"is_reserved":false,"is_disabled":false,"rental_uris":{"android":"levelo://app?vid=25afd062-5301-4e0e-825e-8c10ffc2f270","ios":"levelo://app?vid=25afd062-5301-4e0e-825e-8c10ffc2f270"},"vehicle_type_id":"4","last_reported":1722640066,"current_range_meters":18800,"station_id":"ce4bhqp2rcd13ifvqhog","pricing_plan_id":"cebpf4jnsgd1na2vs0mg"},{"bike_id":"ce1d46c3-7a87-468d-93ef-7de440451ad5","system_id":"levelo_inurba_marseille","lat":43.32367,"lon":5.388836,"is_reserved":false,"is_disabled":false,"rental_uris":{"android":"levelo://app?vid=ce1d46c3-7a87-468d-93ef-7de440451ad5","ios":"levelo://app?vid=ce1d46c3-7a87-468d-93ef-7de440451ad5"},"vehicle_type_id":"4","last_reported":1722640066,"current_range_meters":16800,"station_id":"ce4bhqp2rcd13ifvqhog","pricing_plan_id":"cebpf4jnsgd1na2vs0mg"},{"bike_id":"982682db-6113-4510-95bd-4f274f8475f1","system_id":"levelo_inurba_marseille","lat":43.32366,"lon":5.38886,"is_reserved":false,"is_disabled":false,"rental_uris":{"android":"levelo://app?vid=982682db-6113-4510-95bd-4f274f8475f1","ios":"levelo://app?vid=982682db-6113-4510-95bd-4f274f8475f1"},"vehicle_type_id":"4","last_reported":1722640066,"current_range_meters":16800,"station_id":"ce4bhqp2rcd13ifvqhog","pricing_plan_id":"cebpf4jnsgd1na2vs0mg"},{"bike_id":"14b37cba-ed4d-4677-a91b-25741ad27612","system_id":"levelo_inurba_marseille","lat":43.32367,"lon":5.388836,"is_reserved":false,"is_disabled":false,"rental_uris":{"android":"levelo://app?vid=14b37cba-ed4d-4677-a91b-25741ad27612","ios":"levelo://app?vid=14b37cba-ed4d-4677-a91b-25741ad27612"},"vehicle_type_id":"4","last_reported":1722640066,"current_range_meters":23200,"station_id":"ce4bhqp2rcd13ifvqhog","pricing_plan_id":"cebpf4jnsgd1na2vs0mg"},{"bike_id":"69de66e4-9356-454e-addd-3e293526380e","system_id":"levelo_inurba_marseille","lat":43.32367,"lon":5.388836,"is_reserved":false,"is_disabled":false,"rental_uris":{"android":"levelo://app?vid=69de66e4-9356-454e-addd-3e293526380e","ios":"levelo://app?vid=69de66e4-9356-454e-addd-3e293526380e"},"vehicle_type_id":"4","last_reported":1722640066,"current_range_meters":29600,"station_id":"ce4bhqp2rcd13ifvqhog","pricing_plan_id":"cebpf4jnsgd1na2vs0mg"},{"bike_id":"7687e921-eb70-40f3-b744-1095c933d12b","system_id":"levelo_inurba_marseille","lat":43.32367,"lon":5.388836,"is_reserved":false,"is_disabled":false,"rental_uris":{"android":"levelo://app?vid=7687e921-eb70-40f3-b744-1095c933d12b","ios":"levelo://app?vid=7687e921-eb70-40f3-b744-1095c933d12b"},"vehicle_type_id":"4","last_reported":1722640066,"current_range_meters":6000,"station_id":"ce4bhqp2rcd13ifvqhog","pricing_plan_id":"cebpf4jnsgd1na2vs0mg"},{"bike_id":"2ce74ec0-7745-4e0c-b1f2-a4b38ae45f95","system_id":"levelo_inurba_marseille","lat":43.29602,"lon":5.381084,"is_reserved":false,"is_disabled":false,"rental_uris":{"android":"levelo://app?vid=2ce74ec0-7745-4e0c-b1f2-a4b38ae45f95","ios":"levelo://app?vid=2ce74ec0-7745-4e0c-b1f2-a4b38ae45f95"},"vehicle_type_id":"4","last_reported":1722640066,"current_range_meters":27600,"station_id":"ce4bgl12rcd13ifvqbo0","pricing_plan_id":"cebpf4jnsgd1na2vs0mg"},{"bike_id":"fc5aecd3-c3e2-4379-b10a-7c176ec5547f","system_id":"levelo_inurba_marseille","lat":43.292749,"lon":5.368402,"is_reserved":false,"is_disabled":false,"rental_uris":{"android":"levelo://app?vid=fc5aecd3-c3e2-4379-b10a-7c176ec5547f","ios":"levelo://app?vid=fc5aecd3-c3e2-4379-b10a-7c176ec5547f"},"vehicle_type_id":"4","last_reported":1722640066,"current_range_meters":10400,"station_id":"ce4bhbp2rcd13ifvqesg","pricing_plan_id":"cebpf4jnsgd1na2vs0mg"},{"bike_id":"57af0a04-f528-45c6-85f2-fa1f25fabc09","system_id":"levelo_inurba_marseille","lat":43.29256,"lon":5.364615,"is_reserved":false,"is_disabled":false,"rental_uris":{"android":"levelo://app?vid=57af0a04-f528-45c6-85f2-fa1f25fabc09","ios":"levelo://app?vid=57af0a04-f528-45c6-85f2-fa1f25fabc09"},"vehicle_type_id":"4","last_reported":1722640066,"current_range_meters":0,"station_id":"ce4bhbp2rcd13ifvqesg","pricing_plan_id":"cebpf4jnsgd1na2vs0mg"},{"bike_id":"10cf519a-d861-4533-b086-6228a0ce34c6","system_id":"levelo_inurba_marseille","lat":43.293009,"lon":5.374584,"is_reserved":false,"is_disabled":false,"rental_uris":{"android":"levelo://app?vid=10cf519a-d861-4533-b086-6228a0ce34c6","ios":"levelo://app?vid=10cf519a-d861-4533-b086-6228a0ce34c6"},"vehicle_type_id":"4","last_reported":1722640066,"current_range_meters":12400,"station_id":"ce4bgi12rcd13ifvqb70","pricing_plan_id":"cebpf4jnsgd1na2vs0mg"},{"bike_id":"f114823c-71b4-44dc-aa09-edcaaeb73001","system_id":"levelo_inurba_marseille","lat":43.305994,"lon":5.393687,"is_reserved":false,"is_disabled":false,"rental_uris":{"android":"levelo://app?vid=f114823c-71b4-44dc-aa09-edcaaeb73001","ios":"levelo://app?vid=f114823c-71b4-44dc-aa09-edcaaeb73001"},"vehicle_type_id":"4","last_reported":1722640066,"current_range_meters":21200,"station_id":"ce4bh0p2rcd13ifvqd80","pricing_plan_id":"cebpf4jnsgd1na2vs0mg"},{"bike_id":"2c3f072e-74e5-4634-9871-763744873a4b","system_id":"levelo_inurba_marseille","lat":43.305994,"lon":5.393687,"is_reserved":false,"is_disabled":false,"rental_uris":{"android":"levelo://app?vid=2c3f072e-74e5-4634-9871-763744873a4b","ios":"levelo://app?vid=2c3f072e-74e5-4634-9871-763744873a4b"},"vehicle_type_id":"4","last_reported":1722640066,"current_range_meters":4400,"station_id":"ce4bh0p2rcd13ifvqd80","pricing_plan_id":"cebpf4jnsgd1na2vs0mg"},{"bike_id":"50d91be6-d488-404e-aab6-62bb5d0747a6","system_id":"levelo_inurba_marseille","lat":43.305994,"lon":5.393687,"is_reserved":false,"is_disabled":false,"rental_uris":{"android":"levelo://app?vid=50d91be6-d488-404e-aab6-62bb5d0747a6","ios":"levelo://app?vid=50d91be6-d488-404e-aab6-62bb5d0747a6"},"vehicle_type_id":"4","last_reported":1722640066,"current_range_meters":27200,"station_id":"ce4bh0p2rcd13ifvqd80","pricing_plan_id":"cebpf4jnsgd1na2vs0mg"},{"bike_id":"648488d4-5d4c-49c6-9f1c-ebe21f5d5eaf","system_id":"levelo_inurba_marseille","lat":43.305994,"lon":5.393687,"is_reserved":false,"is_disabled":false,"rental_uris":{"android":"levelo://app?vid=648488d4-5d4c-49c6-9f1c-ebe21f5d5eaf","ios":"levelo://app?vid=648488d4-5d4c-49c6-9f1c-ebe21f5d5eaf"},"vehicle_type_id":"4","last_reported":1722640066,"current_range_meters":400,"station_id":"ce4bh0p2rcd13ifvqd80","pricing_plan_id":"cebpf4jnsgd1na2vs0mg"},{"bike_id":"5bee5a44-3fd3-4dd3-8aaf-a7e1a0d50c83","system_id":"levelo_inurba_marseille","lat":43.305994,"lon":5.393687,"is_reserved":false,"is_disabled":false,"rental_uris":{"android":"levelo://app?vid=5bee5a44-3fd3-4dd3-8aaf-a7e1a0d50c83","ios":"levelo://app?vid=5bee5a44-3fd3-4dd3-8aaf-a7e1a0d50c83"},"vehicle_type_id":"4","last_reported":1722640066,"current_range_meters":27200,"station_id":"ce4bh0p2rcd13ifvqd80","pricing_plan_id":"cebpf4jnsgd1na2vs0mg"},{"bike_id":"f53398f7-b80e-43ac-b3a9-cff74e7e51ec","system_id":"levelo_inurba_marseille","lat":43.305994,"lon":5.393687,"is_reserved":false,"is_disabled":false,"rental_uris":{"android":"levelo://app?vid=f53398f7-b80e-43ac-b3a9-cff74e7e51ec","ios":"levelo://app?vid=f53398f7-b80e-43ac-b3a9-cff74e7e51ec"},"vehicle_type_id":"4","last_reported":1722640066,"current_range_meters":9200,"station_id":"ce4bh0p2rcd13ifvqd80","pricing_plan_id":"cebpf4jnsgd1na2vs0mg"},{"bike_id":"a576eaa6-eb02-472e-bba8-a7acc961ce85","system_id":"levelo_inurba_marseille","lat":43.305994,"lon":5.393687,"is_reserved":false,"is_disabled":false,"rental_uris":{"android":"levelo://app?vid=a576eaa6-eb02-472e-bba8-a7acc961ce85","ios":"levelo://app?vid=a576eaa6-eb02-472e-bba8-a7acc961ce85"},"vehicle_type_id":"4","last_reported":1722640066,"current_range_meters":16400,"station_id":"ce4bh0p2rcd13ifvqd80","pricing_plan_id":"cebpf4jnsgd1na2vs0mg"},{"bike_id":"d386c841-6950-40ec-8292-23739c670a60","system_id":"levelo_inurba_marseille","lat":43.303002,"lon":5.392142,"is_reserved":false,"is_disabled":false,"rental_uris":{"android":"levelo://app?vid=d386c841-6950-40ec-8292-23739c670a60","ios":"levelo://app?vid=d386c841-6950-40ec-8292-23739c670a60"},"vehicle_type_id":"4","last_reported":1722640066,"current_range_meters":2400,"station_id":"ce4bgkh2rcd13ifvqbk0","pricing_plan_id":"cebpf4jnsgd1na2vs0mg"},{"bike_id":"8ff4ed7b-dc1a-4cd3-92d1-e6512328e38d","system_id":"levelo_inurba_marseille","lat":43.303002,"lon":5.392142,"is_reserved":false,"is_disabled":false,"rental_uris":{"android":"levelo://app?vid=8ff4ed7b-dc1a-4cd3-92d1-e6512328e38d","ios":"levelo://app?vid=8ff4ed7b-dc1a-4cd3-92d1-e6512328e38d"},"vehicle_type_id":"4","last_reported":1722640066,"current_range_meters":0,"station_id":"ce4bgkh2rcd13ifvqbk0","pricing_plan_id":"cebpf4jnsgd1na2vs0mg"},{"bike_id":"c102de1a-0047-422c-958f-99f91c208029","system_id":"levelo_inurba_marseille","lat":43.29383,"lon":5.37855,"is_reserved":false,"is_disabled":false,"rental_uris":{"android":"levelo://app?vid=c102de1a-0047-422c-958f-99f91c208029","ios":"levelo://app?vid=c102de1a-0047-422c-958f-99f91c208029"},"vehicle_type_id":"4","last_reported":1722640066,"current_range_meters":25200,"station_id":"ce4bgjh2rcd13ifvqbf0","pricing_plan_id":"cebpf4jnsgd1na2vs0mg"},{"bike_id":"1ad09a30-cdb1-40fc-ab0f-f0855d13b6ae","system_id":"levelo_inurba_marseille","lat":43.303002,"lon":5.392142,"is_reserved":false,"is_disabled":false,"rental_uris":{"android":"levelo://app?vid=1ad09a30-cdb1-40fc-ab0f-f0855d13b6ae","ios":"levelo://app?vid=1ad09a30-cdb1-40fc-ab0f-f0855d13b6ae"},"vehicle_type_id":"4","last_reported":1722640066,"current_range_meters":4000,"station_id":"ce4bgkh2rcd13ifvqbk0","pricing_plan_id":"cebpf4jnsgd1na2vs0mg"},{"bike_id":"15d2187a-e781-42d1-b3cc-2766265ae8b2","system_id":"levelo_inurba_marseille","lat":43.303002,"lon":5.392142,"is_reserved":false,"is_disabled":false,"rental_uris":{"android":"levelo://app?vid=15d2187a-e781-42d1-b3cc-2766265ae8b2","ios":"levelo://app?vid=15d2187a-e781-42d1-b3cc-2766265ae8b2"},"vehicle_type_id":"4","last_reported":1722640066,"current_range_meters":28000,"station_id":"ce4bgkh2rcd13ifvqbk0","pricing_plan_id":"cebpf4jnsgd1na2vs0mg"},{"bike_id":"c7bb11fd-6948-4e35-a9f8-3d2d2093f3eb","system_id":"levelo_inurba_marseille","lat":43.302992,"lon":5.392136,"is_reserved":false,"is_disabled":false,"rental_uris":{"android":"levelo://app?vid=c7bb11fd-6948-4e35-a9f8-3d2d2093f3eb","ios":"levelo://app?vid=c7bb11fd-6948-4e35-a9f8-3d2d2093f3eb"},"vehicle_type_id":"4","last_reported":1722640066,"current_range_meters":20000,"station_id":"ce4bgkh2rcd13ifvqbk0","pricing_plan_id":"cebpf4jnsgd1na2vs0mg"},{"bike_id":"b2d99278-d868-461f-a422-9cc4cb3031aa","system_id":"levelo_inurba_marseille","lat":43.30302,"lon":5.39217,"is_reserved":false,"is_disabled":false,"rental_uris":{"android":"levelo://app?vid=b2d99278-d868-461f-a422-9cc4cb3031aa","ios":"levelo://app?vid=b2d99278-d868-461f-a422-9cc4cb3031aa"},"vehicle_type_id":"4","last_reported":1722640066,"current_range_meters":3600,"station_id":"ce4bgkh2rcd13ifvqbk0","pricing_plan_id":"cebpf4jnsgd1na2vs0mg"},{"bike_id":"c1b887c0-d190-4185-9c2d-7282028d8a6d","system_id":"levelo_inurba_marseille","lat":43.30306,"lon":5.39221,"is_reserved":false,"is_disabled":false,"rental_uris":{"android":"levelo://app?vid=c1b887c0-d190-4185-9c2d-7282028d8a6d","ios":"levelo://app?vid=c1b887c0-d190-4185-9c2d-7282028d8a6d"},"vehicle_type_id":"4","last_reported":1722640066,"current_range_meters":2400,"station_id":"ce4bgkh2rcd13ifvqbk0","pricing_plan_id":"cebpf4jnsgd1na2vs0mg"},{"bike_id":"5f3ced42-a452-4ee0-aa0c-a679a158f98f","system_id":"levelo_inurba_marseille","lat":43.2936,"lon":5.37835,"is_reserved":false,"is_disabled":false,"rental_uris":{"android":"levelo://app?vid=5f3ced42-a452-4ee0-aa0c-a679a158f98f","ios":"levelo://app?vid=5f3ced42-a452-4ee0-aa0c-a679a158f98f"},"vehicle_type_id":"4","last_reported":1722640066,"current_range_meters":1600,"station_id":"ce4bgjh2rcd13ifvqbf0","pricing_plan_id":"cebpf4jnsgd1na2vs0mg"},{"bike_id":"960ec73b-97ae-49cf-b9d9-e9d4ba27fc35","system_id":"levelo_inurba_marseille","lat":43.2936,"lon":5.37835,"is_reserved":false,"is_disabled":false,"rental_uris":{"android":"levelo://app?vid=960ec73b-97ae-49cf-b9d9-e9d4ba27fc35","ios":"levelo://app?vid=960ec73b-97ae-49cf-b9d9-e9d4ba27fc35"},"vehicle_type_id":"4","last_reported":1722640066,"current_range_meters":23200,"station_id":"ce4bgjh2rcd13ifvqbf0","pricing_plan_id":"cebpf4jnsgd1na2vs0mg"},{"bike_id":"4432ee14-bb41-4f56-a14a-e5eeea0f56bf","system_id":"levelo_inurba_marseille","lat":43.302992,"lon":5.392136,"is_reserved":false,"is_disabled":false,"rental_uris":{"android":"levelo://app?vid=4432ee14-bb41-4f56-a14a-e5eeea0f56bf","ios":"levelo://app?vid=4432ee14-bb41-4f56-a14a-e5eeea0f56bf"},"vehicle_type_id":"4","last_reported":1722640066,"current_range_meters":30400,"station_id":"ce4bgkh2rcd13ifvqbk0","pricing_plan_id":"cebpf4jnsgd1na2vs0mg"},{"bike_id":"91043b28-1c96-4bf0-b1e5-5d75669bdee6","system_id":"levelo_inurba_marseille","lat":43.2923,"lon":5.36058,"is_reserved":false,"is_disabled":false,"rental_uris":{"android":"levelo://app?vid=91043b28-1c96-4bf0-b1e5-5d75669bdee6","ios":"levelo://app?vid=91043b28-1c96-4bf0-b1e5-5d75669bdee6"},"vehicle_type_id":"4","last_reported":1722640066,"current_range_meters":0,"station_id":"ce4bhbh2rcd13ifvqeqg","pricing_plan_id":"cebpf4jnsgd1na2vs0mg"},{"bike_id":"581c1035-e6ca-4179-903c-3eea59e98d53","system_id":"levelo_inurba_marseille","lat":43.30085,"lon":5.390856,"is_reserved":false,"is_disabled":false,"rental_uris":{"android":"levelo://app?vid=581c1035-e6ca-4179-903c-3eea59e98d53","ios":"levelo://app?vid=581c1035-e6ca-4179-903c-3eea59e98d53"},"vehicle_type_id":"4","last_reported":1722640066,"current_range_meters":28400,"station_id":"ce4bh192rcd13ifvqdb0","pricing_plan_id":"cebpf4jnsgd1na2vs0mg"},{"bike_id":"bbf0faf9-0f79-401c-ac03-5ed6b5119c5f","system_id":"levelo_inurba_marseille","lat":43.30085,"lon":5.390856,"is_reserved":false,"is_disabled":false,"rental_uris":{"android":"levelo://app?vid=bbf0faf9-0f79-401c-ac03-5ed6b5119c5f","ios":"levelo://app?vid=bbf0faf9-0f79-401c-ac03-5ed6b5119c5f"},"vehicle_type_id":"4","last_reported":1722640066,"current_range_meters":18800,"station_id":"ce4bh192rcd13ifvqdb0","pricing_plan_id":"cebpf4jnsgd1na2vs0mg"},