{"last_updated":1743955804,"ttl":60,"version":"2.2","data":{"bikes":[{"bike_id":"95fba40c-0757-4693-947f-ff8fe70a5faf","system_id":"levelo_inurba_marseille","lat":43.29182,"lon":5.39305,"is_reserved":false,"is_disabled":false,"rental_uris":{"android":"levelo://app?vid=95fba40c-0757-4693-947f-ff8fe70a5faf","ios":"levelo://app?vid=95fba40c-0757-4693-947f-ff8fe70a5faf"},"vehicle_type_id":"4","last_reported":1743955804,"current_range_meters":2800,"station_id":"ce4bh192rcd13ifvqdd0","pricing_plan_id":"cebpf4jnsgd1na2vs0mg"},{"bike_id":"557dddb3-e057-4dac-b81b-407f1b639c9f","system_id":"levelo_inurba_marseille","lat":43.299177,"lon":5.374445,"is_reserved":false,"is_disabled":false,"rental_uris":{"android":"levelo://app?vid=557dddb3-e057-4dac-b81b-407f1b639c9f","ios":"levelo://app?vid=557dddb3-e057-4dac-b81b-407f1b639c9f"},"vehicle_type_id":"4","last_reported":1743955804,"current_range_meters":2800,"station_id":"ce4bgjh2rcd13ifvqbg0","pricing_plan_id":"cebpf4jnsgd1na2vs0mg"},{"bike_id":"047ae52f-dfc6-42e5-99b8-a00dd4ba7db3","system_id":"levelo_inurba_marseille","lat":43.29281,"lon":5.36853,"is_reserved":false,"is_disabled":false,"rental_uris":{"android":"levelo://app?vid=047ae52f-dfc6-42e5-99b8-a00dd4ba7db3","ios":"levelo://app?vid=047ae52f-dfc6-42e5-99b8-a00dd4ba7db3"},"vehicle_type_id":"4","last_reported":1743955804,"current_range_meters":2800,"station_id":"ce4bhbp2rcd13ifvqesg","pricing_plan_id":"cebpf4jnsgd1na2vs0mg"},{"bike_id":"746d4332-7cb4-4c0e-8c56-060bdff72814","system_id":"levelo_inurba_marseille","lat":43.23965,"lon":5.36634,"is_reserved":false,"is_disabled":false,"rental_uris":{"android":"levelo://app?vid=746d4332-7cb4-4c0e-8c56-060bdff72814","ios":"levelo://app?vid=746d4332-7cb4-4c0e-8c56-060bdff72814"},"vehicle_type_id":"4","last_reported":1743955804,"current_range_meters":2800,"station_id":"ce4bhi12rcd13ifvqfp0","pricing_plan_id":"cebpf4jnsgd1na2vs0mg"},{"bike_id":"0d435391-b270-40ff-b5e7-220becfdbbe4","system_id":"levelo_inurba_marseille","lat":43.27373,"lon":5.36263,"is_reserved":false,"is_disabled":false,"rental_uris":{"android":"levelo://app?vid=0d435391-b270-40ff-b5e7-220becfdbbe4","ios":"levelo://app?vid=0d435391-b270-40ff-b5e7-220becfdbbe4"},"vehicle_type_id":"4","last_reported":1743955804,"current_range_meters":2800,"station_id":"ce4bhbh2rcd13ifvqeo0","pricing_plan_id":"cebpf4jnsgd1na2vs0mg"},{"bike_id":"363301c3-793c-46b7-a303-e3e8529141e1","system_id":"levelo_inurba_marseille","lat":43.29971,"lon":5.37167,"is_reserved":false,"is_disabled":false,"rental_uris":{"android":"levelo://app?vid=363301c3-793c-46b7-a303-e3e8529141e1","ios":"levelo://app?vid=363301c3-793c-46b7-a303-e3e8529141e1"},"vehicle_type_id":"4","last_reported":1743955804,"current_range_meters":2800,"station_id":"ce4bgr92rcd13ifvqc7g","pricing_plan_id":"cebpf4jnsgd1na2vs0mg"},{"bike_id":"61d3bd42-2950-4aa7-b72e-a1c0e9b55b91","system_id":"levelo_inurba_marseille","lat":43.2815,"lon":5.4262,"is_reserved":false,"is_disabled":false,"rental_uris":{"android":"levelo://app?vid=61d3bd42-2950-4aa7-b72e-a1c0e9b55b91","ios":"levelo://app?vid=61d3bd42-2950-4aa7-b72e-a1c0e9b55b91"},"vehicle_type_id":"4","last_reported":1743955804,"current_range_meters":2800,"station_id":"ce4bhnh2rcd13ifvqgug","pricing_plan_id":"cebpf4jnsgd1na2vs0mg"},{"bike_id":"2a12e8e3-1ab1-42e8-b783-f33bd542e1a6","system_id":"levelo_inurba_marseille","lat":43.3051,"lon":5.36721,"is_reserved":false,"is_disabled":false,"rental_uris":{"android":"levelo://app?vid=2a12e8e3-1ab1-42e8-b783-f33bd542e1a6","ios":"levelo://app?vid=2a12e8e3-1ab1-42e8-b783-f33bd542e1a6"},"vehicle_type_id":"4","last_reported":1743955804,"current_range_meters":2800,"station_id":"ce4bgrp2rcd13ifvqc9g","pricing_plan_id":"cebpf4jnsgd1na2vs0mg"},{"bike_id":"7ede0f54-0a97-4c1b-8ad1-59721da748b9","system_id":"levelo_inurba_marseille","lat":43.241655,"lon":5.363886,"is_reserved":false,"is_disabled":false,"rental_uris":{"android":"levelo://app?vid=7ede0f54-0a97-4c1b-8ad1-59721da748b9","ios":"levelo://app?vid=7ede0f54-0a97-4c1b-8ad1-59721da748b9"},"vehicle_type_id":"4","last_reported":1743955804,"current_range_meters":2800,"station_id":"cpo36qri1sfpv3e86is0","pricing_plan_id":"cebpf4jnsgd1na2vs0mg"},{"bike_id":"feb6e46c-3fb2-45a9-a2fb-22ac62feb505","system_id":"levelo_inurba_marseille","lat":43.23054,"lon":5.35489,"is_reserved":false,"is_disabled":true,"rental_uris":{"android":"levelo://app?vid=feb6e46c-3fb2-45a9-a2fb-22ac62feb505","ios":"levelo://app?vid=feb6e46c-3fb2-45a9-a2fb-22ac62feb505"},"vehicle_type_id":"4","last_reported":1743955804,"current_range_meters":2800,"station_id":"cpo3342slgdg3j2ifvpg","pricing_plan_id":"cebpf4jnsgd1na2vs0mg"},{"bike_id":"2b5e7ee6-35f1-4d9a-aa54-97acf6b5e93f","system_id":"levelo_inurba_marseille","lat":43.24172,"lon":5.36408,"is_reserved":false,"is_disabled":false,"rental_uris":{"android":"levelo://app?vid=2b5e7ee6-35f1-4d9a-aa54-97acf6b5e93f","ios":"levelo://app?vid=2b5e7ee6-35f1-4d9a-aa54-97acf6b5e93f"},"vehicle_type_id":"4","last_reported":1743955804,"current_range_meters":3200,"station_id":"cpo36qri1sfpv3e86is0","pricing_plan_id":"cebpf4jnsgd1na2vs0mg"},{"bike_id":"7500b53f-dcb1-4e79-9a33-812cad03b92c","system_id":"levelo_inurba_marseille","lat":43.2903,"lon":5.37571,"is_reserved":false,"is_disabled":false,"rental_uris":{"android":"levelo://app?vid=7500b53f-dcb1-4e79-9a33-812cad03b92c","ios":"levelo://app?vid=7500b53f-dcb1-4e79-9a33-812cad03b92c"},"vehicle_type_id":"4","last_reported":1743955804,"current_range_meters":2800,"station_id":"ce4bh692rcd13ifvqe90","pricing_plan_id":"cebpf4jnsgd1na2vs0mg"},{"bike_id":"a4cd930b-017c-4567-9719-bc63f5914fb2","system_id":"levelo_inurba_marseille","lat":43.25088,"lon":5.39511,"is_reserved":false,"is_disabled":false,"rental_uris":{"android":"levelo://app?vid=a4cd930b-017c-4567-9719-bc63f5914fb2","ios":"levelo://app?vid=a4cd930b-017c-4567-9719-bc63f5914fb2"},"vehicle_type_id":"4","last_reported":1743955804,"current_range_meters":3200,"station_id":"ce4bhm12rcd13ifvqgkg","pricing_plan_id":"cebpf4jnsgd1na2vs0mg"},{"bike_id":"32ea691d-b3f2-475f-badb-7a16f2ea0fc7","system_id":"levelo_inurba_marseille","lat":43.26197,"lon":5.37933,"is_reserved":false,"is_disabled":false,"rental_uris":{"android":"levelo://app?vid=32ea691d-b3f2-475f-badb-7a16f2ea0fc7","ios":"levelo://app?vid=32ea691d-b3f2-475f-badb-7a16f2ea0fc7"},"vehicle_type_id":"4","last_reported":1743955804,"current_range_meters":3200,"station_id":"ce4bhjp2rcd13ifvqg90","pricing_plan_id":"cebpf4jnsgd1na2vs0mg"},{"bike_id":"b51805cf-d63e-4bf3-95ee-e862afe25374","system_id":"levelo_inurba_marseille","lat":43.27972,"lon":5.38737,"is_reserved":false,"is_disabled":false,"rental_uris":{"android":"levelo://app?vid=b51805cf-d63e-4bf3-95ee-e862afe25374","ios":"levelo://app?vid=b51805cf-d63e-4bf3-95ee-e862afe25374"},"vehicle_type_id":"4","last_reported":1743955804,"current_range_meters":3200,"station_id":"ce4bhg12rcd13ifvqf80","pricing_plan_id":"cebpf4jnsgd1na2vs0mg"},{"bike_id":"b7ea40a5-6e67-405f-a078-5705bb84dc80","system_id":"levelo_inurba_marseille","lat":43.29267,"lon":5.38437,"is_reserved":false,"is_disabled":false,"rental_uris":{"android":"levelo://app?vid=b7ea40a5-6e67-405f-a078-5705bb84dc80","ios":"levelo://app?vid=b7ea40a5-6e67-405f-a078-5705bb84dc80"},"vehicle_type_id":"4","last_reported":1743955804,"current_range_meters":3600,"station_id":"ce4bh692rcd13ifvqea0","pricing_plan_id":"cebpf4jnsgd1na2vs0mg"},{"bike_id":"9e2ecca6-78f7-46a4-9134-1ed7f22698c9","system_id":"levelo_inurba_marseille","lat":43.2844,"lon":5.39182,"is_reserved":false,"is_disabled":false,"rental_uris":{"android":"levelo://app?vid=9e2ecca6-78f7-46a4-9134-1ed7f22698c9","ios":"levelo://app?vid=9e2ecca6-78f7-46a4-9134-1ed7f22698c9"},"vehicle_type_id":"4","last_reported":1743955804,"current_range_meters":3600,"station_id":"ce4bhoh2rcd13ifvqh5g","pricing_plan_id":"cebpf4jnsgd1na2vs0mg"},{"bike_id":"00cb19b4-d8e0-485f-a15a-3e8fa94a0c5e","system_id":"levelo_inurba_marseille","lat":43.230563,"lon":5.354957,"is_reserved":false,"is_disabled":false,"rental_uris":{"android":"levelo://app?vid=00cb19b4-d8e0-485f-a15a-3e8fa94a0c5e","ios":"levelo://app?vid=00cb19b4-d8e0-485f-a15a-3e8fa94a0c5e"},"vehicle_type_id":"4","last_reported":1743955804,"current_range_meters":3600,"station_id":"cpo3342slgdg3j2ifvpg","pricing_plan_id":"cebpf4jnsgd1na2vs0mg"},{"bike_id":"0fa993d3-de84-43dc-8cae-2dc46265326d","system_id":"levelo_inurba_marseille","lat":43.23962,"lon":5.3662,"is_reserved":false,"is_disabled":false,"rental_uris":{"android":"levelo://app?vid=0fa993d3-de84-43dc-8cae-2dc46265326d","ios":"levelo://app?vid=0fa993d3-de84-43dc-8cae-2dc46265326d"},"vehicle_type_id":"4","last_reported":1743955804,"current_range_meters":3600,"station_id":"ce4bhi12rcd13ifvqfp0","pricing_plan_id":"cebpf4jnsgd1na2vs0mg"},{"bike_id":"55fe0831-fb70-40f7-8c94-92a7c899d29c","system_id":"levelo_inurba_marseille","lat":43.296666,"lon":5.374521,"is_reserved":false,"is_disabled":false,"rental_uris":{"android":"levelo://app?vid=55fe0831-fb70-40f7-8c94-92a7c899d29c","ios":"levelo://app?vid=55fe0831-fb70-40f7-8c94-92a7c899d29c"},"vehicle_type_id":"4","last_reported":1743955804,"current_range_meters":3600,"station_id":"ce4bgk12rcd13ifvqbj0","pricing_plan_id":"cebpf4jnsgd1na2vs0mg"},{"bike_id":"fc4d376d-1c70-407d-9168-05d30e5598d1","system_id":"levelo_inurba_marseille","lat":43.27902,"lon":5.38017,"is_reserved":false,"is_disabled":false,"rental_uris":{"android":"levelo://app?vid=fc4d376d-1c70-407d-9168-05d30e5598d1","ios":"levelo://app?vid=fc4d376d-1c70-407d-9168-05d30e5598d1"},"vehicle_type_id":"4","last_reported":1743955804,"current_range_meters":3600,"station_id":"ce4bhf92rcd13ifvqf50","pricing_plan_id":"cebpf4jnsgd1na2vs0mg"},{"bike_id":"60ad8fa4-f3aa-4350-a363-fd93dbaf32b4","system_id":"levelo_inurba_marseille","lat":43.27917,"lon":5.39572,"is_reserved":false,"is_disabled":false,"rental_uris":{"android":"levelo://app?vid=60ad8fa4-f3aa-4350-a363-fd93dbaf32b4","ios":"levelo://app?vid=60ad8fa4-f3aa-4350-a363-fd93dbaf32b4"},"vehicle_type_id":"4","last_reported":1743955804,"current_range_meters":3600,"station_id":"ce4bhf92rcd13ifvqf40","pricing_plan_id":"cebpf4jnsgd1na2vs0mg"},{"bike_id":"92b4413f-1028-41b8-aba3-19caaea910ef","system_id":"levelo_inurba_marseille","lat":43.32333,"lon":5.40629,"is_reserved":false,"is_disabled":false,"rental_uris":{"android":"levelo://app?vid=92b4413f-1028-41b8-aba3-19caaea910ef","ios":"levelo://app?vid=92b4413f-1028-41b8-aba3-19caaea910ef"},"vehicle_type_id":"4","last_reported":1743955804,"current_range_meters":2000,"station_id":"ce4bhq92rcd13ifvqhjg","pricing_plan_id":"cebpf4jnsgd1na2vs0mg"},{"bike_id":"28a223d8-640f-4da9-b77b-797da625c594","system_id":"levelo_inurba_marseille","lat":43.287,"lon":5.39988,"is_reserved":false,"is_disabled":false,"rental_uris":{"android":"levelo://app?vid=28a223d8-640f-4da9-b77b-797da625c594","ios":"levelo://app?vid=28a223d8-640f-4da9-b77b-797da625c594"},"vehicle_type_id":"4","last_reported":1743955804,"current_range_meters":3600,"station_id":"ce4bho92rcd13ifvqh3g","pricing_plan_id":"cebpf4jnsgd1na2vs0mg"},{"bike_id":"3a69c7bf-ffb3-4dce-af64-5df0ba24282c","system_id":"levelo_inurba_marseille","lat":43.27672,"lon":5.38934,"is_reserved":false,"is_disabled":false,"rental_uris":{"android":"levelo://app?vid=3a69c7bf-ffb3-4dce-af64-5df0ba24282c","ios":"levelo://app?vid=3a69c7bf-ffb3-4dce-af64-5df0ba24282c"},"vehicle_type_id":"4","last_reported":1743955804,"current_range_meters":3600,"station_id":"ce4bhi12rcd13ifvqfo0","pricing_plan_id":"cebpf4jnsgd1na2vs0mg"},{"bike_id":"a8c5543f-0892-43cb-b96f-3c97bb120ec9","system_id":"levelo_inurba_marseille","lat":43.31701,"lon":5.43704,"is_reserved":false,"is_disabled":false,"rental_uris":{"android":"levelo://app?vid=a8c5543f-0892-43cb-b96f-3c97bb120ec9","ios":"levelo://app?vid=a8c5543f-0892-43cb-b96f-3c97bb120ec9"},"vehicle_type_id":"4","last_reported":1743955804,"current_range_meters":4000,"station_id":"ce4bhp92rcd13ifvqhcg","pricing_plan_id":"cebpf4jnsgd1na2vs0mg"},{"bike_id":"003cf085-bbab-4d17-8af3-6cafc119cf98","system_id":"levelo_inurba_marseille","lat":43.29503,"lon":5.39402,"is_reserved":false,"is_disabled":false,"rental_uris":{"android":"levelo://app?vid=003cf085-bbab-4d17-8af3-6cafc119cf98","ios":"levelo://app?vid=003cf085-bbab-4d17-8af3-6cafc119cf98"},"vehicle_type_id":"4","last_reported":1743955804,"current_range_meters":4000,"station_id":"ce4bh292rcd13ifvqdf0","pricing_plan_id":"cebpf4jnsgd1na2vs0mg"},{"bike_id":"d5bdec32-c6bc-476a-9339-bbaa5300d9ea","system_id":"levelo_inurba_marseille","lat":43.29531,"lon":5.38552,"is_reserved":false,"is_disabled":false,"rental_uris":{"android":"levelo://app?vid=d5bdec32-c6bc-476a-9339-bbaa5300d9ea","ios":"levelo://app?vid=d5bdec32-c6bc-476a-9339-bbaa5300d9ea"},"vehicle_type_id":"4","last_reported":1743955804,"current_range_meters":4000,"station_id":"ce4bgih2rcd13ifvqba0","pricing_plan_id":"cebpf4jnsgd1na2vs0mg"},{"bike_id":"fb0d4993-67fa-4314-9525-ef2ba9197c72","system_id":"levelo_inurba_marseille","lat":43.30321,"lon":5.4059,"is_reserved":false,"is_disabled":false,"rental_uris":{"android":"levelo://app?vid=fb0d4993-67fa-4314-9525-ef2ba9197c72","ios":"levelo://app?vid=fb0d4993-67fa-4314-9525-ef2ba9197c72"},"vehicle_type_id":"4","last_reported":1743955804,"current_range_meters":4000,"station_id":"","pricing_plan_id":"cebpf4jnsgd1na2vs0mg"},{"bike_id":"435df996-23d0-4266-9397-8cf5564310cc","system_id":"levelo_inurba_marseille","lat":43.24167,"lon":5.36434,"is_reserved":false,"is_disabled":false,"rental_uris":{"android":"levelo://app?vid=435df996-23d0-4266-9397-8cf5564310cc","ios":"levelo://app?vid=435df996-23d0-4266-9397-8cf5564310cc"},"vehicle_type_id":"4","last_reported":1743955804,"current_range_meters":4000,"station_id":"cpo36qri1sfpv3e86is0","pricing_plan_id":"cebpf4jnsgd1na2vs0mg"},{"bike_id":"909ff4da-29ae-471f-9d40-1d49dec520fb","system_id":"levelo_inurba_marseille","lat":43.22499,"lon":5.34771,"is_reserved":false,"is_disabled":false,"rental_uris":{"android":"levelo://app?vid=909ff4da-29ae-471f-9d40-1d49dec520fb","ios":"levelo://app?vid=909ff4da-29ae-471f-9d40-1d49dec520fb"},"vehicle_type_id":"4","last_reported":1743955804,"current_range_meters":4000,"station_id":"","pricing_plan_id":"cebpf4jnsgd1na2vs0mg"},{"bike_id":"c9edc89c-e058-477d-983c-d835074d261b","system_id":"levelo_inurba_marseille","lat":43.23051,"lon":5.35492,"is_reserved":false,"is_disabled":false,"rental_uris":{"android":"levelo://app?vid=c9edc89c-e058-477d-983c-d835074d261b","ios":"levelo://app?vid=c9edc89c-e058-477d-983c-d835074d261b"},"vehicle_type_id":"4","last_reported":1743955804,"current_range_meters":4000,"station_id":"cpo3342slgdg3j2ifvpg","pricing_plan_id":"cebpf4jnsgd1na2vs0mg"},{"bike_id":"14a64ac4-bf6f-4bc7-bd47-235b8e111e99","system_id":"levelo_inurba_marseille","lat":43.24165,"lon":5.36405,"is_reserved":false,"is_disabled":false,"rental_uris":{"android":"levelo://app?vid=14a64ac4-bf6f-4bc7-bd47-235b8e111e99","ios":"levelo://app?vid=14a64ac4-bf6f-4bc7-bd47-235b8e111e99"},"vehicle_type_id":"4","last_reported":1743955804,"current_range_meters":4000,"station_id":"cpo36qri1sfpv3e86is0","pricing_plan_id":"cebpf4jnsgd1na2vs0mg"},{"bike_id":"ff04a74a-908b-43f2-9e7c-6618db084149","system_id":"levelo_inurba_marseille","lat":43.27208,"lon":5.39186,"is_reserved":false,"is_disabled":false,"rental_uris":{"android":"levelo://app?vid=ff04a74a-908b-43f2-9e7c-6618db084149","ios":"levelo://app?vid=ff04a74a-908b-43f2-9e7c-6618db084149"},"vehicle_type_id":"4","last_reported":1743955804,"current_range_meters":4000,"station_id":"ce4bhhp2rcd13ifvqfm0","pricing_plan_id":"cebpf4jnsgd1na2vs0mg"},{"bike_id":"731135ec-f012-4e25-92d8-e9d9e18f38c5","system_id":"levelo_inurba_marseille","lat":43.21191,"lon":5.35071,"is_reserved":false,"is_disabled":false,"rental_uris":{"android":"levelo://app?vid=731135ec-f012-4e25-92d8-e9d9e18f38c5","ios":"levelo://app?vid=731135ec-f012-4e25-92d8-e9d9e18f38c5"},"vehicle_type_id":"4","last_reported":1743955804,"current_range_meters":4000,"station_id":"st_cvj6sg6p6f1abm77japg","pricing_plan_id":"cebpf4jnsgd1na2vs0mg"},{"bike_id":"a4d6f996-debf-4cde-aa45-5f11b4aedd04","system_id":"levelo_inurba_marseille","lat":43.24809,"lon":5.37463,"is_reserved":false,"is_disabled":false,"rental_uris":{"android":"levelo://app?vid=a4d6f996-debf-4cde-aa45-5f11b4aedd04","ios":"levelo://app?vid=a4d6f996-debf-4cde-aa45-5f11b4aedd04"},"vehicle_type_id":"4","last_reported":1743955804,"current_range_meters":4000,"station_id":"ce4bhgh2rcd13ifvqfb0","pricing_plan_id":"cebpf4jnsgd1na2vs0mg"},{"bike_id":"ad9a8615-b70a-4b25-877b-2a4f604abcbb","system_id":"levelo_inurba_marseille","lat":43.21206,"lon":5.35071,"is_reserved":false,"is_disabled":false,"rental_uris":{"android":"levelo://app?vid=ad9a8615-b70a-4b25-877b-2a4f604abcbb","ios":"levelo://app?vid=ad9a8615-b70a-4b25-877b-2a4f604abcbb"},"vehicle_type_id":"4","last_reported":1743955804,"current_range_meters":4400,"station_id":"st_cvj6sg6p6f1abm77japg","pricing_plan_id":"cebpf4jnsgd1na2vs0mg"},{"bike_id":"19c21be0-0877-4548-935f-a1ee611aad09","system_id":"levelo_inurba_marseille","lat":43.26808,"lon":5.40267,"is_reserved":false,"is_disabled":false,"rental_uris":{"android":"levelo://app?vid=19c21be0-0877-4548-935f-a1ee611aad09","ios":"levelo://app?vid=19c21be0-0877-4548-935f-a1ee611aad09"},"vehicle_type_id":"4","last_reported":1743955804,"current_range_meters":4400,"station_id":"ce501612rcd8frsf0b60","pricing_plan_id":"cebpf4jnsgd1na2vs0mg"},{"bike_id":"0f93cd4a-cc5c-43bf-891d-df30c81cb1f7","system_id":"levelo_inurba_marseille","lat":43.32286,"lon":5.38281,"is_reserved":false,"is_disabled":false,"rental_uris":{"android":"levelo://app?vid=0f93cd4a-cc5c-43bf-891d-df30c81cb1f7","ios":"levelo://app?vid=0f93cd4a-cc5c-43bf-891d-df30c81cb1f7"},"vehicle_type_id":"4","last_reported":1743955804,"current_range_meters":4400,"station_id":"ce4bhr12rcd13ifvqhqg","pricing_plan_id":"cebpf4jnsgd1na2vs0mg"},{"bike_id":"40119a5c-8a48-4b5b-8b30-c09a5c53d9dc","system_id":"levelo_inurba_marseille","lat":43.23967,"lon":5.36629,"is_reserved":false,"is_disabled":false,"rental_uris":{"android":"levelo://app?vid=40119a5c-8a48-4b5b-8b30-c09a5c53d9dc","ios":"levelo://app?vid=40119a5c-8a48-4b5b-8b30-c09a5c53d9dc"},"vehicle_type_id":"4","last_reported":1743955804,"current_range_meters":4400,"station_id":"ce4bhi12rcd13ifvqfp0","pricing_plan_id":"cebpf4jnsgd1na2vs0mg"},{"bike_id":"69f8a740-a0ff-4635-87ad-9b7d7d0db53e","system_id":"levelo_inurba_marseille","lat":43.24649,"lon":5.389163,"is_reserved":false,"is_disabled":true,"rental_uris":{"android":"levelo://app?vid=69f8a740-a0ff-4635-87ad-9b7d7d0db53e","ios":"levelo://app?vid=69f8a740-a0ff-4635-87ad-9b7d7d0db53e"},"vehicle_type_id":"4","last_reported":1743955804,"current_range_meters":4400,"station_id":"ce4bhg12rcd13ifvqf60","pricing_plan_id":"cebpf4jnsgd1na2vs0mg"},{"bike_id":"8564606e-09ed-4bb1-8a19-f6db5c92c6b1","system_id":"levelo_inurba_marseille","lat":43.23963,"lon":5.3663,"is_reserved":false,"is_disabled":false,"rental_uris":{"android":"levelo://app?vid=8564606e-09ed-4bb1-8a19-f6db5c92c6b1","ios":"levelo://app?vid=8564606e-09ed-4bb1-8a19-f6db5c92c6b1"},"vehicle_type_id":"4","last_reported":1743955804,"current_range_meters":4400,"station_id":"ce4bhi12rcd13ifvqfp0","pricing_plan_id":"cebpf4jnsgd1na2vs0mg"},{"bike_id":"549c2da9-603f-4670-a932-fa4b8a321dc5","system_id":"levelo_inurba_marseille","lat":43.30146,"lon":5.3877,"is_reserved":false,"is_disabled":false,"rental_uris":{"android":"levelo://app?vid=549c2da9-603f-4670-a932-fa4b8a321dc5","ios":"levelo://app?vid=549c2da9-603f-4670-a932-fa4b8a321dc5"},"vehicle_type_id":"4","last_reported":1743955804,"current_range_meters":4400,"station_id":"ce4bghh2rcd13ifvqb60","pricing_plan_id":"cebpf4jnsgd1na2vs0mg"},{"bike_id":"dd02f062-f6b8-407f-b4aa-69aa5127d545","system_id":"levelo_inurba_marseille","lat":43.29519,"lon":5.39401,"is_reserved":false,"is_disabled":false,"rental_uris":{"android":"levelo://app?vid=dd02f062-f6b8-407f-b4aa-69aa5127d545","ios":"levelo://app?vid=dd02f062-f6b8-407f-b4aa-69aa5127d545"},"vehicle_type_id":"4","last_reported":1743955804,"current_range_meters":4400,"station_id":"ce4bh292rcd13ifvqdf0","pricing_plan_id":"cebpf4jnsgd1na2vs0mg"},{"bike_id":"00934ce1-152b-4bfb-802e-4725788a73a4","system_id":"levelo_inurba_marseille","lat":43.29539,"lon":5.38542,"is_reserved":false,"is_disabled":false,"rental_uris":{"android":"levelo://app?vid=00934ce1-152b-4bfb-802e-4725788a73a4","ios":"levelo://app?vid=00934ce1-152b-4bfb-802e-4725788a73a4"},"vehicle_type_id":"4","last_reported":1743955804,"current_range_meters":4400,"station_id":"ce4bgih2rcd13ifvqba0","pricing_plan_id":"cebpf4jnsgd1na2vs0mg"},{"bike_id":"b2617a5f-ed2a-4757-a6bb-315e28a8ac3d","system_id":"levelo_inurba_marseille","lat":43.28853,"lon":5.39328,"is_reserved":false,"is_disabled":false,"rental_uris":{"android":"levelo://app?vid=b2617a5f-ed2a-4757-a6bb-315e28a8ac3d","ios":"levelo://app?vid=b2617a5f-ed2a-4757-a6bb-315e28a8ac3d"},"vehicle_type_id":"4","last_reported":1743955804,"current_range_meters":4000,"station_id":"ce4bh2p2rcd13ifvqdi0","pricing_plan_id":"cebpf4jnsgd1na2vs0mg"},{"bike_id":"a42e1d13-bf7d-42b8-8685-1776ee9c61d6","system_id":"levelo_inurba_marseille","lat":43.2511,"lon":5.40311,"is_reserved":false,"is_disabled":false,"rental_uris":{"android":"levelo://app?vid=a42e1d13-bf7d-42b8-8685-1776ee9c61d6","ios":"levelo://app?vid=a42e1d13-bf7d-42b8-8685-1776ee9c61d6"},"vehicle_type_id":"4","last_reported":1743955804,"current_range_meters":4400,"station_id":"ce4bhlh2rcd13ifvqgig","pricing_plan_id":"cebpf4jnsgd1na2vs0mg"},{"bike_id":"8739ea41-f2be-441b-82fb-ac6608ea96ab","system_id":"levelo_inurba_marseille","lat":43.27132,"lon":5.38973,"is_reserved":false,"is_disabled":false,"rental_uris":{"android":"levelo://app?vid=8739ea41-f2be-441b-82fb-ac6608ea96ab","ios":"levelo://app?vid=8739ea41-f2be-441b-82fb-ac6608ea96ab"},"vehicle_type_id":"4","last_reported":1743955804,"current_range_meters":4400,"station_id":"ce4bh612rcd13ifvqe6g","pricing_plan_id":"cebpf4jnsgd1na2vs0mg"},{"bike_id":"b6c25b7a-4f4a-42d7-aca7-f9d7cd7dd66b","system_id":"levelo_inurba_marseille","lat":43.28046,"lon":5.36949,"is_reserved":false,"is_disabled":false,"rental_uris":{"android":"levelo://app?vid=b6c25b7a-4f4a-42d7-aca7-f9d7cd7dd66b","ios":"levelo://app?vid=b6c25b7a-4f4a-42d7-aca7-f9d7cd7dd66b"},"vehicle_type_id":"4","last_reported":1743955804,"current_range_meters":4800,"station_id":"ce4bha12rcd13ifvqef0","pricing_plan_id":"cebpf4jnsgd1na2vs0mg"},{"bike_id":"81e4dfdb-9987-477e-a9a5-d888b8697f65","system_id":"levelo_inurba_marseille","lat":43.29421,"lon":5.38611,"is_reserved":false,"is_disabled":true,"rental_uris":{"android":"levelo://app?vid=81e4dfdb-9987-477e-a9a5-d888b8697f65","ios":"levelo://app?vid=81e4dfdb-9987-477e-a9a5-d888b8697f65"},"vehicle_type_id":"4","last_reported":1743955804,"current_range_meters":4800,"station_id":"ce4bh2h2rcd13ifvqdh0","pricing_plan_id":"cebpf4jnsgd1na2vs0mg"},{"bike_id":"976099b8-33f5-4b8f-8720-f316bc3a1612","system_id":"levelo_inurba_marseille","lat":43.21213,"lon":5.3506,"is_reserved":false,"is_disabled":false,"rental_uris":{"android":"levelo://app?vid=976099b8-33f5-4b8f-8720-f316bc3a1612","ios":"levelo://app?vid=976099b8-33f5-4b8f-8720-f316bc3a1612"},"vehicle_type_id":"4","last_reported":1743955804,"current_range_meters":4800,"station_id":"st_cvj6sg6p6f1abm77japg","pricing_plan_id":"cebpf4jnsgd1na2vs0mg"},{"bike_id":"6f83abd9-732d-4ebf-aca0-51c9bde70af1","system_id":"levelo_inurba_marseille","lat":43.30901,"lon":5.37177,"is_reserved":false,"is_disabled":false,"rental_uris":{"android":"levelo://app?vid=6f83abd9-732d-4ebf-aca0-51c9bde70af1","ios":"levelo://app?vid=6f83abd9-732d-4ebf-aca0-51c9bde70af1"},"vehicle_type_id":"4","last_reported":1743955804,"current_range_meters":4800,"station_id":"ce4bguh2rcd13ifvqckg","pricing_plan_id":"cebpf4jnsgd1na2vs0mg"},{"bike_id":"8e8105ce-63e2-4441-9ebe-d6a09a08a22e","system_id":"levelo_inurba_marseille","lat":43.29668,"lon":5.36204,"is_reserved":false,"is_disabled":false,"rental_uris":{"android":"levelo://app?vid=8e8105ce-63e2-4441-9ebe-d6a09a08a22e","ios":"levelo://app?vid=8e8105ce-63e2-4441-9ebe-d6a09a08a22e"},"vehicle_type_id":"4","last_reported":1743955804,"current_range_meters":4800,"station_id":"","pricing_plan_id":"cebpf4jnsgd1na2vs0mg"},{"bike_id":"7c02c4a1-3fd9-4820-b277-c97752c93ae7","system_id":"levelo_inurba_marseille","lat":43.286595,"lon":5.383306,"is_reserved":false,"is_disabled":false,"rental_uris":{"android":"levelo://app?vid=7c02c4a1-3fd9-4820-b277-c97752c93ae7","ios":"levelo://app?vid=7c02c4a1-3fd9-4820-b277-c97752c93ae7"},"vehicle_type_id":"4","last_reported":1743955804,"current_range_meters":4400,"station_id":"ce4bh5p2rcd13ifvqe4g","pricing_plan_id":"cebpf4jnsgd1na2vs0mg"},{"bike_id":"02a80860-4a61-46a4-8329-dd236e0e0ab6","system_id":"levelo_inurba_marseille","lat":43.29102,"lon":5.3815,"is_reserved":false,"is_disabled":false,"rental_uris":{"android":"levelo://app?vid=02a80860-4a61-46a4-8329-dd236e0e0ab6","ios":"levelo://app?vid=02a80860-4a61-46a4-8329-dd236e0e0ab6"},"vehicle_type_id":"4","last_reported":1743955804,"current_range_meters":5600,"station_id":"ce4bh512rcd13ifvqe2g","pricing_plan_id":"cebpf4jnsgd1na2vs0mg"},{"bike_id":"1bad66c5-0c40-4b46-bf42-5b3305f3f94e","system_id":"levelo_inurba_marseille","lat":43.3043,"lon":5.39744,"is_reserved":false,"is_disabled":false,"rental_uris":{"android":"levelo://app?vid=1bad66c5-0c40-4b46-bf42-5b3305f3f94e","ios":"levelo://app?vid=1bad66c5-0c40-4b46-bf42-5b3305f3f94e"},"vehicle_type_id":"4","last_reported":1743955804,"current_range_meters":5600,"station_id":"ce4bh092rcd13ifvqd20","pricing_plan_id":"cebpf4jnsgd1na2vs0mg"},{"bike_id":"c0ab4009-467b-4a45-bc88-0f7f68811fc6","system_id":"levelo_inurba_marseille","lat":43.28042,"lon":5.36947,"is_reserved":false,"is_disabled":false,"rental_uris":{"android":"levelo://app?vid=c0ab4009-467b-4a45-bc88-0f7f68811fc6","ios":"levelo://app?vid=c0ab4009-467b-4a45-bc88-0f7f68811fc6"},"vehicle_type_id":"4","last_reported":1743955804,"current_range_meters":5600,"station_id":"ce4bha12rcd13ifvqef0","pricing_plan_id":"cebpf4jnsgd1na2vs0mg"},{"bike_id":"a29ab625-934b-423d-ad9a-fa14c773a171","system_id":"levelo_inurba_marseille","lat":43.305634,"lon":5.39783,"is_reserved":false,"is_disabled":false,"rental_uris":{"android":"levelo://app?vid=a29ab625-934b-423d-ad9a-fa14c773a171","ios":"levelo://app?vid=a29ab625-934b-423d-ad9a-fa14c773a171"},"vehicle_type_id":"4","last_reported":1743955804,"current_range_meters":5600,"station_id":"ce4bguh2rcd13ifvqcj0","pricing_plan_id":"cebpf4jnsgd1na2vs0mg"},{"bike_id":"48346453-e742-44df-b5de-b76aa5e458be","system_id":"levelo_inurba_marseille","lat":43.26944,"lon":5.40246,"is_reserved":false,"is_disabled":false,"rental_uris":{"android":"levelo://app?vid=48346453-e742-44df-b5de-b76aa5e458be","ios":"levelo://app?vid=48346453-e742-44df-b5de-b76aa5e458be"},"vehicle_type_id":"4","last_reported":1743955804,"current_range_meters":5600,"station_id":"cjm6bp8fraef2m0cb0m0","pricing_plan_id":"cebpf4jnsgd1na2vs0mg"},{"bike_id":"643b8472-50e9-4c25-920d-7cb3354f7fa1","system_id":"levelo_inurba_marseille","lat":43.2511,"lon":5.40326,"is_reserved":false,"is_disabled":false,"rental_uris":{"android":"levelo://app?vid=643b8472-50e9-4c25-920d-7cb3354f7fa1","ios":"levelo://app?vid=643b8472-50e9-4c25-920d-7cb3354f7fa1"},"vehicle_type_id":"4","last_reported":1743955804,"current_range_meters":5600,"station_id":"ce4bhlh2rcd13ifvqgig","pricing_plan_id":"cebpf4jnsgd1na2vs0mg"},{"bike_id":"0acc7a74-dc6e-4034-9336-0d9b7c3bfa2e","system_id":"levelo_inurba_marseille","lat":43.27909,"lon":5.38008,"is_reserved":false,"is_disabled":false,"rental_uris":{"android":"levelo://app?vid=0acc7a74-dc6e-4034-9336-0d9b7c3bfa2e","ios":"levelo://app?vid=0acc7a74-dc6e-4034-9336-0d9b7c3bfa2e"},"vehicle_type_id":"4","last_reported":1743955804,"current_range_meters":5600,"station_id":"ce4bhf92rcd13ifvqf50","pricing_plan_id":"cebpf4jnsgd1na2vs0mg"},{"bike_id":"eb79d1f9-7c91-4ea2-b5f8-796189743e1a","system_id":"levelo_inurba_marseille","lat":43.34248,"lon":5.38127,"is_reserved":false,"is_disabled":false,"rental_uris":{"android":"levelo://app?vid=eb79d1f9-7c91-4ea2-b5f8-796189743e1a","ios":"levelo://app?vid=eb79d1f9-7c91-4ea2-b5f8-796189743e1a"},"vehicle_type_id":"4","last_reported":1743955804,"current_range_meters":6000,"station_id":"","pricing_plan_id":"cebpf4jnsgd1na2vs0mg"},{"bike_id":"230eb7f1-1e51-4055-ada4-9b9ccfa0a126","system_id":"levelo_inurba_marseille","lat":43.29534,"lon":5.38536,"is_reserved":false,"is_disabled":false,"rental_uris":{"android":"levelo://app?vid=230eb7f1-1e51-4055-ada4-9b9ccfa0a126","ios":"levelo://app?vid=230eb7f1-1e51-4055-ada4-9b9ccfa0a126"},"vehicle_type_id":"4","last_reported":1743955804,"current_range_meters":6000,"station_id":"ce4bgih2rcd13ifvqba0","pricing_plan_id":"cebpf4jnsgd1na2vs0mg"},{"bike_id":"45a63576-30de-4d87-93d5-b56d79bca9eb","system_id":"levelo_inurba_marseille","lat":43.29042,"lon":5.3997,"is_reserved":false,"is_disabled":false,"rental_uris":{"android":"levelo://app?vid=45a63576-30de-4d87-93d5-b56d79bca9eb","ios":"levelo://app?vid=45a63576-30de-4d87-93d5-b56d79bca9eb"},"vehicle_type_id":"4","last_reported":1743955804,"current_range_meters":6000,"station_id":"ce4bh392rcd13ifvqdm0","pricing_plan_id":"cebpf4jnsgd1na2vs0mg"},{"bike_id":"e12a5f8c-d052-42d3-bdc0-3a6aeffb3518","system_id":"levelo_inurba_marseille","lat":43.25118,"lon":5.40316,"is_reserved":false,"is_disabled":false,"rental_uris":{"android":"levelo://app?vid=e12a5f8c-d052-42d3-bdc0-3a6aeffb3518","ios":"levelo://app?vid=e12a5f8c-d052-42d3-bdc0-3a6aeffb3518"},"vehicle_type_id":"4","last_reported":1743955804,"current_range_meters":6000,"station_id":"ce4bhlh2rcd13ifvqgig","pricing_plan_id":"cebpf4jnsgd1na2vs0mg"},{"bike_id":"6f73edba-b848-4a48-b566-fcbdc128fff7","system_id":"levelo_inurba_marseille","lat":43.290645,"lon":5.35921,"is_reserved":false,"is_disabled":false,"rental_uris":{"android":"levelo://app?vid=6f73edba-b848-4a48-b566-fcbdc128fff7","ios":"levelo://app?vid=6f73edba-b848-4a48-b566-fcbdc128fff7"},"vehicle_type_id":"4","last_reported":1743955804,"current_range_meters":6000,"station_id":"ce4bgi12rcd13ifvqb70","pricing_plan_id":"cebpf4jnsgd1na2vs0mg"},{"bike_id":"6b8fc1ae-1675-418c-81f6-303f3c85bbfa","system_id":"levelo_inurba_marseille","lat":43.24165,"lon":5.36417,"is_reserved":false,"is_disabled":false,"rental_uris":{"android":"levelo://app?vid=6b8fc1ae-1675-418c-81f6-303f3c85bbfa","ios":"levelo://app?vid=6b8fc1ae-1675-418c-81f6-303f3c85bbfa"},"vehicle_type_id":"4","last_reported":1743955804,"current_range_meters":6000,"station_id":"cpo36qri1sfpv3e86is0","pricing_plan_id":"cebpf4jnsgd1na2vs0mg"},{"bike_id":"c782d25b-a1d0-4ed2-b2f6-6030d0cc531b","system_id":"levelo_inurba_marseille","lat":43.243884,"lon":5.370533,"is_reserved":false,"is_disabled":false,"rental_uris":{"android":"levelo://app?vid=c782d25b-a1d0-4ed2-b2f6-6030d0cc531b","ios":"levelo://app?vid=c782d25b-a1d0-4ed2-b2f6-6030d0cc531b"},"vehicle_type_id":"4","last_reported":1743955804,"current_range_meters":6800,"station_id":"ce4bhhh2rcd13ifvqfk0","pricing_plan_id":"cebpf4jnsgd1na2vs0mg"},{"bike_id":"beb7cf9e-39ed-45c1-abd0-685713e2d235","system_id":"levelo_inurba_marseille","lat":43.28042,"lon":5.36935,"is_reserved":false,"is_disabled":false,"rental_uris":{"android":"levelo://app?vid=beb7cf9e-39ed-45c1-abd0-685713e2d235","ios":"levelo://app?vid=beb7cf9e-39ed-45c1-abd0-685713e2d235"},"vehicle_type_id":"4","last_reported":1743955804,"current_range_meters":6400,"station_id":"ce4bha12rcd13ifvqef0","pricing_plan_id":"cebpf4jnsgd1na2vs0mg"},{"bike_id":"3d88e78d-f8f3-4a05-806c-f97e39d0c973","system_id":"levelo_inurba_marseille","lat":43.241673,"lon":5.363872,"is_reserved":false,"is_disabled":false,"rental_uris":{"android":"levelo://app?vid=3d88e78d-f8f3-4a05-806c-f97e39d0c973","ios":"levelo://app?vid=3d88e78d-f8f3-4a05-806c-f97e39d0c973"},"vehicle_type_id":"4","last_reported":1743955804,"current_range_meters":6400,"station_id":"cpo36qri1sfpv3e86is0","pricing_plan_id":"cebpf4jnsgd1na2vs0mg"},{"bike_id":"bd221283-beef-49b3-8957-0980e7ca0556","system_id":"levelo_inurba_marseille","lat":43.29261,"lon":5.38422,"is_reserved":false,"is_disabled":false,"rental_uris":{"android":"levelo://app?vid=bd221283-beef-49b3-8957-0980e7ca0556","ios":"levelo://app?vid=bd221283-beef-49b3-8957-0980e7ca0556"},"vehicle_type_id":"4","last_reported":1743955804,"current_range_meters":6400,"station_id":"ce4bh692rcd13ifvqea0","pricing_plan_id":"cebpf4jnsgd1na2vs0mg"},{"bike_id":"2f7da3e8-12c5-4931-8279-65eb0b12f6c6","system_id":"levelo_inurba_marseille","lat":43.28472,"lon":5.3854,"is_reserved":false,"is_disabled":false,"rental_uris":{"android":"levelo://app?vid=2f7da3e8-12c5-4931-8279-65eb0b12f6c6","ios":"levelo://app?vid=2f7da3e8-12c5-4931-8279-65eb0b12f6c6"},"vehicle_type_id":"4","last_reported":1743955804,"current_range_meters":6400,"station_id":"ce4bh8p2rcd13ifvqeb0","pricing_plan_id":"cebpf4jnsgd1na2vs0mg"},{"bike_id":"abf828e0-bebc-4654-bc93-1d92f449deee","system_id":"levelo_inurba_marseille","lat":43.32366,"lon":5.36756,"is_reserved":false,"is_disabled":true,"rental_uris":{"android":"levelo://app?vid=abf828e0-bebc-4654-bc93-1d92f449deee","ios":"levelo://app?vid=abf828e0-bebc-4654-bc93-1d92f449deee"},"vehicle_type_id":"4","last_reported":1743955804,"current_range_meters":6400,"station_id":"ce4bhsh2rcd13ifvqi2g","pricing_plan_id":"cebpf4jnsgd1na2vs0mg"},{"bike_id":"6bb8e348-6b4e-47fe-84d3-39777a126739","system_id":"levelo_inurba_marseille","lat":43.31239,"lon":5.37317,"is_reserved":false,"is_disabled":false,"rental_uris":{"android":"levelo://app?vid=6bb8e348-6b4e-47fe-84d3-39777a126739","ios":"levelo://app?vid=6bb8e348-6b4e-47fe-84d3-39777a126739"},"vehicle_type_id":"4","last_reported":1743955804,"current_range_meters":6400,"station_id":"","pricing_plan_id":"cebpf4jnsgd1na2vs0mg"},{"bike_id":"4e86a482-5f33-4fdb-ae17-d646110c818c","system_id":"levelo_inurba_marseille","lat":43.2583,"lon":5.39448,"is_reserved":false,"is_disabled":false,"rental_uris":{"android":"levelo://app?vid=4e86a482-5f33-4fdb-ae17-d646110c818c","ios":"levelo://app?vid=4e86a482-5f33-4fdb-ae17-d646110c818c"},"vehicle_type_id":"4","last_reported":1743955804,"current_range_meters":6800,"station_id":"ce4bhip2rcd13ifvqft0","pricing_plan_id":"cebpf4jnsgd1na2vs0mg"},{"bike_id":"47987ea5-f3bd-41ea-ae13-7d6493cdc7e2","system_id":"levelo_inurba_marseille","lat":43.23052,"lon":5.35458,"is_reserved":false,"is_disabled":false,"rental_uris":{"android":"levelo://app?vid=47987ea5-f3bd-41ea-ae13-7d6493cdc7e2","ios":"levelo://app?vid=47987ea5-f3bd-41ea-ae13-7d6493cdc7e2"},"vehicle_type_id":"4","last_reported":1743955804,"current_range_meters":6800,"station_id":"cpo3342slgdg3j2ifvpg","pricing_plan_id":"cebpf4jnsgd1na2vs0mg"},{"bike_id":"3253d87c-1e76-4f32-b465-767e100c6e49","system_id":"levelo_inurba_marseille","lat":43.29899,"lon":5.43667,"is_reserved":false,"is_disabled":false,"rental_uris":{"android":"levelo://app?vid=3253d87c-1e76-4f32-b465-767e100c6e49","ios":"levelo://app?vid=3253d87c-1e76-4f32-b465-767e100c6e49"},"vehicle_type_id":"4","last_reported":1743955804,"current_range_meters":6800,"station_id":"ce4bhpp2rcd13ifvqhfg","pricing_plan_id":"cebpf4jnsgd1na2vs0mg"},{"bike_id":"6f14227e-f803-4ae1-87e1-1c9b8097c4b1","system_id":"levelo_inurba_marseille","lat":43.29537,"lon":5.38548,"is_reserved":false,"is_disabled":false,"rental_uris":{"android":"levelo://app?vid=6f14227e-f803-4ae1-87e1-1c9b8097c4b1","ios":"levelo://app?vid=6f14227e-f803-4ae1-87e1-1c9b8097c4b1"},"vehicle_type_id":"4","last_reported":1743955804,"current_range_meters":6800,"station_id":"ce4bgih2rcd13ifvqba0","pricing_plan_id":"cebpf4jnsgd1na2vs0mg"},{"bike_id":"9378cab7-1ef7-47d6-af28-c6473192be1a","system_id":"levelo_inurba_marseille","lat":43.31196,"lon":5.40786,"is_reserved":false,"is_disabled":false,"rental_uris":{"android":"levelo://app?vid=9378cab7-1ef7-47d6-af28-c6473192be1a","ios":"levelo://app?vid=9378cab7-1ef7-47d6-af28-c6473192be1a"},"vehicle_type_id":"4","last_reported":1743955804,"current_range_meters":6800,"station_id":"","pricing_plan_id":"cebpf4jnsgd1na2vs0mg"},{"bike_id":"19918c5e-2cad-4b6f-99e5-c17b31f78239","system_id":"levelo_inurba_marseille","lat":43.24158,"lon":5.364,"is_reserved":false,"is_disabled":false,"rental_uris":{"android":"levelo://app?vid=19918c5e-2cad-4b6f-99e5-c17b31f78239","ios":"levelo://app?vid=19918c5e-2cad-4b6f-99e5-c17b31f78239"},"vehicle_type_id":"4","last_reported":1743955804,"current_range_meters":6800,"station_id":"cpo36qri1sfpv3e86is0","pricing_plan_id":"cebpf4jnsgd1na2vs0mg"},{"bike_id":"6eaca609-15d4-492d-9fb7-82c71eb136d2","system_id":"levelo_inurba_marseille","lat":43.24171,"lon":5.36415,"is_reserved":false,"is_disabled":false,"rental_uris":{"android":"levelo://app?vid=6eaca609-15d4-492d-9fb7-82c71eb136d2","ios":"levelo://app?vid=6eaca609-15d4-492d-9fb7-82c71eb136d2"},"vehicle_type_id":"4","last_reported":1743955804,"current_range_meters":6800,"station_id":"cpo36qri1sfpv3e86is0","pricing_plan_id":"cebpf4jnsgd1na2vs0mg"},{"bike_id":"f5b47f19-30f6-4cdb-bcc6-e1b413333d84","system_id":"levelo_inurba_marseille","lat":43.24811,"lon":5.37461,"is_reserved":false,"is_disabled":false,"rental_uris":{"android":"levelo://app?vid=f5b47f19-30f6-4cdb-bcc6-e1b413333d84","ios":"levelo://app?vid=f5b47f19-30f6-4cdb-bcc6-e1b413333d84"},"vehicle_type_id":"4","last_reported":1743955804,"current_range_meters":6800,"station_id":"ce4bhgh2rcd13ifvqfb0","pricing_plan_id":"cebpf4jnsgd1na2vs0mg"},{"bike_id":"369091ce-38c0-4ae6-a402-d25455d87c4e","system_id":"levelo_inurba_marseille","lat":43.26217,"lon":5.40475,"is_reserved":false,"is_disabled":false,"rental_uris":{"android":"levelo://app?vid=369091ce-38c0-4ae6-a402-d25455d87c4e","ios":"levelo://app?vid=369091ce-38c0-4ae6-a402-d25455d87c4e"},"vehicle_type_id":"4","last_reported":1743955804,"current_range_meters":6800,"station_id":"ce4bhmh2rcd13ifvqgmg","pricing_plan_id":"cebpf4jnsgd1na2vs0mg"},{"bike_id":"f942961e-94d5-4e59-ac72-d390be8d9aa4","system_id":"levelo_inurba_marseille","lat":43.30641,"lon":5.40081,"is_reserved":false,"is_disabled":false,"rental_uris":{"android":"levelo://app?vid=f942961e-94d5-4e59-ac72-d390be8d9aa4","ios":"levelo://app?vid=f942961e-94d5-4e59-ac72-d390be8d9aa4"},"vehicle_type_id":"4","last_reported":1743955804,"current_range_meters":7200,"station_id":"ce4bh112rcd13ifvqda0","pricing_plan_id":"cebpf4jnsgd1na2vs0mg"},{"bike_id":"f85f1dc6-d1c9-4009-8f25-8643233d1605","system_id":"levelo_inurba_marseille","lat":43.25821,"lon":5.39438,"is_reserved":false,"is_disabled":false,"rental_uris":{"android":"levelo://app?vid=f85f1dc6-d1c9-4009-8f25-8643233d1605","ios":"levelo://app?vid=f85f1dc6-d1c9-4009-8f25-8643233d1605"},"vehicle_type_id":"4","last_reported":1743955804,"current_range_meters":7200,"station_id":"ce4bhip2rcd13ifvqft0","pricing_plan_id":"cebpf4jnsgd1na2vs0mg"},{"bike_id":"db29433a-c7f6-40d6-b0e1-3a1f0abf15ab","system_id":"levelo_inurba_marseille","lat":43.241712,"lon":5.364041,"is_reserved":false,"is_disabled":true,"rental_uris":{"android":"levelo://app?vid=db29433a-c7f6-40d6-b0e1-3a1f0abf15ab","ios":"levelo://app?vid=db29433a-c7f6-40d6-b0e1-3a1f0abf15ab"},"vehicle_type_id":"4","last_reported":1743955804,"current_range_meters":7200,"station_id":"ce4bh412rcd13ifvqdr0","pricing_plan_id":"cebpf4jnsgd1na2vs0mg"},{"bike_id":"4e5c4758-bb5d-457d-8782-98a5c19e297a","system_id":"levelo_inurba_marseille","lat":43.257599,"lon":5.410848,"is_reserved":false,"is_disabled":false,"rental_uris":{"android":"levelo://app?vid=4e5c4758-bb5d-457d-8782-98a5c19e297a","ios":"levelo://app?vid=4e5c4758-bb5d-457d-8782-98a5c19e297a"},"vehicle_type_id":"4","last_reported":1743955804,"current_range_meters":6800,"station_id":"ce4bhkp2rcd13ifvqgd0","pricing_plan_id":"cebpf4jnsgd1na2vs0mg"},{"bike_id":"8cac8c60-6761-4007-9f4f-c106e1187fd0","system_id":"levelo_inurba_marseille","lat":43.29267,"lon":5.38449,"is_reserved":false,"is_disabled":false,"rental_uris":{"android":"levelo://app?vid=8cac8c60-6761-4007-9f4f-c106e1187fd0","ios":"levelo://app?vid=8cac8c60-6761-4007-9f4f-c106e1187fd0"},"vehicle_type_id":"4","last_reported":1743955804,"current_range_meters":7200,"station_id":"ce4bh692rcd13ifvqea0","pricing_plan_id":"cebpf4jnsgd1na2vs0mg"},{"bike_id":"94828f2b-87c1-4904-9e1f-ea8e6b0df218","system_id":"levelo_inurba_marseille","lat":43.229241,"lon":5.353826,"is_reserved":false,"is_disabled":false,"rental_uris":{"android":"levelo://app?vid=94828f2b-87c1-4904-9e1f-ea8e6b0df218","ios":"levelo://app?vid=94828f2b-87c1-4904-9e1f-ea8e6b0df218"},"vehicle_type_id":"4","last_reported":1743955804,"current_range_meters":7200,"station_id":"cpo3532slgdg3j2ikp40","pricing_plan_id":"cebpf4jnsgd1na2vs0mg"},{"bike_id":"3a74bdf6-efa6-4937-be9f-2581f0bfb9d6","system_id":"levelo_inurba_marseille","lat":43.24177,"lon":5.39731,"is_reserved":false,"is_disabled":false,"rental_uris":{"android":"levelo://app?vid=3a74bdf6-efa6-4937-be9f-2581f0bfb9d6","ios":"levelo://app?vid=3a74bdf6-efa6-4937-be9f-2581f0bfb9d6"},"vehicle_type_id":"4","last_reported":1743955804,"current_range_meters":7200,"station_id":"ce4bhn12rcd13ifvqgpg","pricing_plan_id":"cebpf4jnsgd1na2vs0mg"},{"bike_id":"45b4008f-54c1-4d17-8bbf-96f80d4fa84f","system_id":"levelo_inurba_marseille","lat":43.32117,"lon":5.36803,"is_reserved":false,"is_disabled":false,"rental_uris":{"android":"levelo://app?vid=45b4008f-54c1-4d17-8bbf-96f80d4fa84f","ios":"levelo://app?vid=45b4008f-54c1-4d17-8bbf-96f80d4fa84f"},"vehicle_type_id":"4","last_reported":1743955804,"current_range_meters":7200,"station_id":"ce4bhrh2rcd13ifvqhug","pricing_plan_id":"cebpf4jnsgd1na2vs0mg"},{"bike_id":"0a0fbd72-64e2-4aaa-8c3a-d30727431ea2","system_id":"levelo_inurba_marseille","lat":43.30885,"lon":5.37185,"is_reserved":false,"is_disabled":false,"rental_uris":{"android":"levelo://app?vid=0a0fbd72-64e2-4aaa-8c3a-d30727431ea2","ios":"levelo://app?vid=0a0fbd72-64e2-4aaa-8c3a-d30727431ea2"},"vehicle_type_id":"4","last_reported":1743955804,"current_range_meters":6800,"station_id":"ce4bguh2rcd13ifvqckg","pricing_plan_id":"cebpf4jnsgd1na2vs0mg"},{"bike_id":"74bd8095-1cef-45a5-9bad-64fb6d6e558b","system_id":"levelo_inurba_marseille","lat":43.30306,"lon":5.36889,"is_reserved":false,"is_disabled":false,"rental_uris":{"android":"levelo://app?vid=74bd8095-1cef-45a5-9bad-64fb6d6e558b","ios":"levelo://app?vid=74bd8095-1cef-45a5-9bad-64fb6d6e558b"},"vehicle_type_id":"4","last_reported":1743955804,"current_range_meters":8000,"station_id":"ce4bgqh2rcd13ifvqc5g","pricing_plan_id":"cebpf4jnsgd1na2vs0mg"},{"bike_id":"e1cb6f51-ceaa-4813-a8ae-dfa38af9a33c","system_id":"levelo_inurba_marseille","lat":43.29783,"lon":5.39346,"is_reserved":false,"is_disabled":false,"rental_uris":{"android":"levelo://app?vid=e1cb6f51-ceaa-4813-a8ae-dfa38af9a33c","ios":"levelo://app?vid=e1cb6f51-ceaa-4813-a8ae-dfa38af9a33c"},"vehicle_type_id":"4","last_reported":1743955804,"current_range_meters":8000,"station_id":"chh1huq6cuj3fo74tm60","pricing_plan_id":"cebpf4jnsgd1na2vs0mg"},{"bike_id":"301b6729-c45c-4915-8ef6-dadde3959d3d","system_id":"levelo_inurba_marseille","lat":43.265578,"lon":5.390081,"is_reserved":false,"is_disabled":true,"rental_uris":{"android":"levelo://app?vid=301b6729-c45c-4915-8ef6-dadde3959d3d","ios":"levelo://app?vid=301b6729-c45c-4915-8ef6-dadde3959d3d"},"vehicle_type_id":"4","last_reported":1743955804,"current_range_meters":8000,"station_id":"ce4bhe12rcd13ifvqf30","pricing_plan_id":"cebpf4jnsgd1na2vs0mg"},{"bike_id":"e80c8a90-d6e3-4c31-bfe2-b36ce2e8431a","system_id":"levelo_inurba_marseille","lat":43.32348,"lon":5.40626,"is_reserved":false,"is_disabled":false,"rental_uris":{"android":"levelo://app?vid=e80c8a90-d6e3-4c31-bfe2-b36ce2e8431a","ios":"levelo://app?vid=e80c8a90-d6e3-4c31-bfe2-b36ce2e8431a"},"vehicle_type_id":"4","last_reported":1743955804,"current_range_meters":8000,"station_id":"ce4bhq92rcd13ifvqhjg","pricing_plan_id":"cebpf4jnsgd1na2vs0mg"},{"bike_id":"2fd94120-e7b8-4261-b3a3-93a65c87f44c","system_id":"levelo_inurba_marseille","lat":43.24808,"lon":5.37453,"is_reserved":false,"is_disabled":false,"rental_uris":{"android":"levelo://app?vid=2fd94120-e7b8-4261-b3a3-93a65c87f44c","ios":"levelo://app?vid=2fd94120-e7b8-4261-b3a3-93a65c87f44c"},"vehicle_type_id":"4","last_reported":1743955804,"current_range_meters":8000,"station_id":"ce4bhgh2rcd13ifvqfb0","pricing_plan_id":"cebpf4jnsgd1na2vs0mg"},{"bike_id":"33e3d54d-21a5-47ff-9ee3-76450b0321fa","system_id":"levelo_inurba_marseille","lat":43.29911,"lon":5.43585,"is_reserved":false,"is_disabled":false,"rental_uris":{"android":"levelo://app?vid=33e3d54d-21a5-47ff-9ee3-76450b0321fa","ios":"levelo://app?vid=33e3d54d-21a5-47ff-9ee3-76450b0321fa"},"vehicle_type_id":"4","last_reported":1743955804,"current_range_meters":8000,"station_id":"","pricing_plan_id":"cebpf4jnsgd1na2vs0mg"},{"bike_id":"8f550fa5-09cd-43cc-aca5-0b83e850edb8","system_id":"levelo_inurba_marseille","lat":43.276746,"lon":5.388675,"is_reserved":false,"is_disabled":false,"rental_uris":{"android":"levelo://app?vid=8f550fa5-09cd-43cc-aca5-0b83e850edb8","ios":"levelo://app?vid=8f550fa5-09cd-43cc-aca5-0b83e850edb8"},"vehicle_type_id":"4","last_reported":1743955804,"current_range_meters":8000,"station_id":"ce4bhi12rcd13ifvqfo0","pricing_plan_id":"cebpf4jnsgd1na2vs0mg"},{"bike_id":"89412b8e-370a-486c-b8f3-2399bad3404e","system_id":"levelo_inurba_marseille","lat":43.3032,"lon":5.40434,"is_reserved":false,"is_disabled":false,"rental_uris":{"android":"levelo://app?vid=89412b8e-370a-486c-b8f3-2399bad3404e","ios":"levelo://app?vid=89412b8e-370a-486c-b8f3-2399bad3404e"},"vehicle_type_id":"4","last_reported":1743955804,"current_range_meters":8000,"station_id":"ce4bh012rcd13ifvqd10","pricing_plan_id":"cebpf4jnsgd1na2vs0mg"},{"bike_id":"6023584e-870f-454d-88b0-bf3dc0e21fbe","system_id":"levelo_inurba_marseille","lat":43.244097,"lon":5.370323,"is_reserved":false,"is_disabled":true,"rental_uris":{"android":"levelo://app?vid=6023584e-870f-454d-88b0-bf3dc0e21fbe","ios":"levelo://app?vid=6023584e-870f-454d-88b0-bf3dc0e21fbe"},"vehicle_type_id":"4","last_reported":1743955804,"current_range_meters":8000,"station_id":"ce4bhhh2rcd13ifvqfk0","pricing_plan_id":"cebpf4jnsgd1na2vs0mg"},{"bike_id":"f15ba88f-5aac-45f9-8380-292b55383a37","system_id":"levelo_inurba_marseille","lat":43.23056,"lon":5.35493,"is_reserved":false,"is_disabled":false,"rental_uris":{"android":"levelo://app?vid=f15ba88f-5aac-45f9-8380-292b55383a37","ios":"levelo://app?vid=f15ba88f-5aac-45f9-8380-292b55383a37"},"vehicle_type_id":"4","last_reported":1743955804,"current_range_meters":8400,"station_id":"cpo3342slgdg3j2ifvpg","pricing_plan_id":"cebpf4jnsgd1na2vs0mg"},{"bike_id":"2c83ef0f-b2a0-4407-bed4-597ffb3d4cbf","system_id":"levelo_inurba_marseille","lat":43.28364,"lon":5.38123,"is_reserved":false,"is_disabled":false,"rental_uris":{"android":"levelo://app?vid=2c83ef0f-b2a0-4407-bed4-597ffb3d4cbf","ios":"levelo://app?vid=2c83ef0f-b2a0-4407-bed4-597ffb3d4cbf"},"vehicle_type_id":"4","last_reported":1743955804,"current_range_meters":8400,"station_id":"ce4bh412rcd13ifvqdr0","pricing_plan_id":"cebpf4jnsgd1na2vs0mg"},{"bike_id":"f7871337-7063-4663-b904-664b2ff9aa73","system_id":"levelo_inurba_marseille","lat":43.2849,"lon":5.38559,"is_reserved":false,"is_disabled":false,"rental_uris":{"android":"levelo://app?vid=f7871337-7063-4663-b904-664b2ff9aa73","ios":"levelo://app?vid=f7871337-7063-4663-b904-664b2ff9aa73"},"vehicle_type_id":"4","last_reported":1743955804,"current_range_meters":8400,"station_id":"ce4bh8p2rcd13ifvqeb0","pricing_plan_id":"cebpf4jnsgd1na2vs0mg"},{"bike_id":"9e3b5764-8142-480c-bebf-c27d87b47184","system_id":"levelo_inurba_marseille","lat":43.23192,"lon":5.35554,"is_reserved":false,"is_disabled":false,"rental_uris":{"android":"levelo://app?vid=9e3b5764-8142-480c-bebf-c27d87b47184","ios":"levelo://app?vid=9e3b5764-8142-480c-bebf-c27d87b47184"},"vehicle_type_id":"4","last_reported":1743955804,"current_range_meters":8400,"station_id":"ce4bhu92rcd13ifvqi70","pricing_plan_id":"cebpf4jnsgd1na2vs0mg"},{"bike_id":"178f9321-6add-4ecb-b2e0-0c4e3f0d33f3","system_id":"levelo_inurba_marseille","lat":43.28674,"lon":5.38669,"is_reserved":false,"is_disabled":false,"rental_uris":{"android":"levelo://app?vid=178f9321-6add-4ecb-b2e0-0c4e3f0d33f3","ios":"levelo://app?vid=178f9321-6add-4ecb-b2e0-0c4e3f0d33f3"},"vehicle_type_id":"4","last_reported":1743955804,"current_range_meters":8400,"station_id":"ce4bh492rcd13ifvqdug","pricing_plan_id":"cebpf4jnsgd1na2vs0mg"},{"bike_id":"dfe033e5-eb50-4610-85ee-430cd4939587","system_id":"levelo_inurba_marseille","lat":43.27605,"lon":5.3552,"is_reserved":false,"is_disabled":true,"rental_uris":{"android":"levelo://app?vid=dfe033e5-eb50-4610-85ee-430cd4939587","ios":"levelo://app?vid=dfe033e5-eb50-4610-85ee-430cd4939587"},"vehicle_type_id":"4","last_reported":1743955804,"current_range_meters":8400,"station_id":"","pricing_plan_id":"cebpf4jnsgd1na2vs0mg"},{"bike_id":"922b8423-760e-4e0b-b9c3-9863a7ca23ea","system_id":"levelo_inurba_marseille","lat":43.29374,"lon":5.37823,"is_reserved":false,"is_disabled":false,"rental_uris":{"android":"levelo://app?vid=922b8423-760e-4e0b-b9c3-9863a7ca23ea","ios":"levelo://app?vid=922b8423-760e-4e0b-b9c3-9863a7ca23ea"},"vehicle_type_id":"4","last_reported":1743955804,"current_range_meters":8400,"station_id":"ce4bgjh2rcd13ifvqbf0","pricing_plan_id":"cebpf4jnsgd1na2vs0mg"},{"bike_id":"f40b5cfb-ffef-4269-aa4b-7d62e5530308","system_id":"levelo_inurba_marseille","lat":43.30427,"lon":5.39742,"is_reserved":false,"is_disabled":false,"rental_uris":{"android":"levelo://app?vid=f40b5cfb-ffef-4269-aa4b-7d62e5530308","ios":"levelo://app?vid=f40b5cfb-ffef-4269-aa4b-7d62e5530308"},"vehicle_type_id":"4","last_reported":1743955804,"current_range_meters":12000,"station_id":"ce4bh092rcd13ifvqd20","pricing_plan_id":"cebpf4jnsgd1na2vs0mg"},{"bike_id":"1622461e-25a5-4ec6-9188-643400d8cf0e","system_id":"levelo_inurba_marseille","lat":43.30813,"lon":5.43534,"is_reserved":false,"is_disabled":false,"rental_uris":{"android":"levelo://app?vid=1622461e-25a5-4ec6-9188-643400d8cf0e","ios":"levelo://app?vid=1622461e-25a5-4ec6-9188-643400d8cf0e"},"vehicle_type_id":"4","last_reported":1743955804,"current_range_meters":8800,"station_id":"ce4bhph2rcd13ifvqheg","pricing_plan_id":"cebpf4jnsgd1na2vs0mg"},{"bike_id":"3ae4bd0a-e972-4828-9024-6540812b2d8a","system_id":"levelo_inurba_marseille","lat":43.28163,"lon":5.4265,"is_reserved":false,"is_disabled":false,"rental_uris":{"android":"levelo://app?vid=3ae4bd0a-e972-4828-9024-6540812b2d8a","ios":"levelo://app?vid=3ae4bd0a-e972-4828-9024-6540812b2d8a"},"vehicle_type_id":"4","last_reported":1743955804,"current_range_meters":8800,"station_id":"ce4bhnh2rcd13ifvqgug","pricing_plan_id":"cebpf4jnsgd1na2vs0mg"},{"bike_id":"8cdf45f8-2c10-47c8-944f-b11312e64736","system_id":"levelo_inurba_marseille","lat":43.29281,"lon":5.36847,"is_reserved":false,"is_disabled":false,"rental_uris":{"android":"levelo://app?vid=8cdf45f8-2c10-47c8-944f-b11312e64736","ios":"levelo://app?vid=8cdf45f8-2c10-47c8-944f-b11312e64736"},"vehicle_type_id":"4","last_reported":1743955804,"current_range_meters":8800,"station_id":"ce4bhbp2rcd13ifvqesg","pricing_plan_id":"cebpf4jnsgd1na2vs0mg"},{"bike_id":"27391ec2-dbda-4e0b-8d08-ec417b126eb3","system_id":"levelo_inurba_marseille","lat":43.26939,"lon":5.40251,"is_reserved":false,"is_disabled":false,"rental_uris":{"android":"levelo://app?vid=27391ec2-dbda-4e0b-8d08-ec417b126eb3","ios":"levelo://app?vid=27391ec2-dbda-4e0b-8d08-ec417b126eb3"},"vehicle_type_id":"4","last_reported":1743955804,"current_range_meters":9200,"station_id":"cjm6bp8fraef2m0cb0m0","pricing_plan_id":"cebpf4jnsgd1na2vs0mg"},{"bike_id":"929a9469-6c10-47f6-af74-832a91594238","system_id":"levelo_inurba_marseille","lat":43.26222,"lon":5.40454,"is_reserved":false,"is_disabled":false,"rental_uris":{"android":"levelo://app?vid=929a9469-6c10-47f6-af74-832a91594238","ios":"levelo://app?vid=929a9469-6c10-47f6-af74-832a91594238"},"vehicle_type_id":"4","last_reported":1743955804,"current_range_meters":9200,"station_id":"ce4bhmh2rcd13ifvqgmg","pricing_plan_id":"cebpf4jnsgd1na2vs0mg"},{"bike_id":"7dc7c846-2ea9-4578-acd4-f33b1021d7a9","system_id":"levelo_inurba_marseille","lat":43.28942,"lon":5.36623,"is_reserved":false,"is_disabled":false,"rental_uris":{"android":"levelo://app?vid=7dc7c846-2ea9-4578-acd4-f33b1021d7a9","ios":"levelo://app?vid=7dc7c846-2ea9-4578-acd4-f33b1021d7a9"},"vehicle_type_id":"4","last_reported":1743955804,"current_range_meters":9200,"station_id":"ce4bhap2rcd13ifvqek0","pricing_plan_id":"cebpf4jnsgd1na2vs0mg"},{"bike_id":"6b623c4e-0145-4724-a101-fd77f8ba8d23","system_id":"levelo_inurba_marseille","lat":43.27621,"lon":5.36097,"is_reserved":false,"is_disabled":false,"rental_uris":{"android":"levelo://app?vid=6b623c4e-0145-4724-a101-fd77f8ba8d23","ios":"levelo://app?vid=6b623c4e-0145-4724-a101-fd77f8ba8d23"},"vehicle_type_id":"4","last_reported":1743955804,"current_range_meters":9200,"station_id":"ce4bgj92rcd13ifvqbe0","pricing_plan_id":"cebpf4jnsgd1na2vs0mg"},{"bike_id":"27835047-0e52-48f6-a82a-d99bebd0ca72","system_id":"levelo_inurba_marseille","lat":43.29578,"lon":5.36736,"is_reserved":false,"is_disabled":false,"rental_uris":{"android":"levelo://app?vid=27835047-0e52-48f6-a82a-d99bebd0ca72","ios":"levelo://app?vid=27835047-0e52-48f6-a82a-d99bebd0ca72"},"vehicle_type_id":"4","last_reported":1743955804,"current_range_meters":9200,"station_id":"ce4bgph2rcd13ifvqc2g","pricing_plan_id":"cebpf4jnsgd1na2vs0mg"},{"bike_id":"62e676a8-ebc8-42e1-91d6-c2e5372d8eed","system_id":"levelo_inurba_marseille","lat":43.23194,"lon":5.35547,"is_reserved":false,"is_disabled":false,"rental_uris":{"android":"levelo://app?vid=62e676a8-ebc8-42e1-91d6-c2e5372d8eed","ios":"levelo://app?vid=62e676a8-ebc8-42e1-91d6-c2e5372d8eed"},"vehicle_type_id":"4","last_reported":1743955804,"current_range_meters":9200,"station_id":"ce4bhu92rcd13ifvqi70","pricing_plan_id":"cebpf4jnsgd1na2vs0mg"},{"bike_id":"a8c8cf0e-6770-44db-a521-a27724427824","system_id":"levelo_inurba_marseille","lat":43.26943,"lon":5.4026,"is_reserved":false,"is_disabled":false,"rental_uris":{"android":"levelo://app?vid=a8c8cf0e-6770-44db-a521-a27724427824","ios":"levelo://app?vid=a8c8cf0e-6770-44db-a521-a27724427824"},"vehicle_type_id":"4","last_reported":1743955804,"current_range_meters":9200,"station_id":"cjm6bp8fraef2m0cb0m0","pricing_plan_id":"cebpf4jnsgd1na2vs0mg"},{"bike_id":"d02f2934-2897-4639-af9b-92468eeb323a","system_id":"levelo_inurba_marseille","lat":43.29537,"lon":5.38545,"is_reserved":false,"is_disabled":false,"rental_uris":{"android":"levelo://app?vid=d02f2934-2897-4639-af9b-92468eeb323a","ios":"levelo://app?vid=d02f2934-2897-4639-af9b-92468eeb323a"},"vehicle_type_id":"4","last_reported":1743955804,"current_range_meters":9600,"station_id":"ce4bgih2rcd13ifvqba0","pricing_plan_id":"cebpf4jnsgd1na2vs0mg"},{"bike_id":"0b21aeb2-02b2-4d71-9199-3b0cfb26415d","system_id":"levelo_inurba_marseille","lat":43.27945,"lon":5.4105,"is_reserved":false,"is_disabled":false,"rental_uris":{"android":"levelo://app?vid=0b21aeb2-02b2-4d71-9199-3b0cfb26415d","ios":"levelo://app?vid=0b21aeb2-02b2-4d71-9199-3b0cfb26415d"},"vehicle_type_id":"4","last_reported":1743955804,"current_range_meters":9600,"station_id":"ce4bhnp2rcd13ifvqh0g","pricing_plan_id":"cebpf4jnsgd1na2vs0mg"},{"bike_id":"00393ee2-317d-4e98-a30d-fd25773ef49f","system_id":"levelo_inurba_marseille","lat":43.35235,"lon":5.35817,"is_reserved":false,"is_disabled":false,"rental_uris":{"android":"levelo://app?vid=00393ee2-317d-4e98-a30d-fd25773ef49f","ios":"levelo://app?vid=00393ee2-317d-4e98-a30d-fd25773ef49f"},"vehicle_type_id":"4","last_reported":1743955804,"current_range_meters":9600,"station_id":"","pricing_plan_id":"cebpf4jnsgd1na2vs0mg"},{"bike_id":"7e998a0c-eed3-46de-aa53-8ecfbd4eddbb","system_id":"levelo_inurba_marseille","lat":43.2319,"lon":5.35552,"is_reserved":false,"is_disabled":true,"rental_uris":{"android":"levelo://app?vid=7e998a0c-eed3-46de-aa53-8ecfbd4eddbb","ios":"levelo://app?vid=7e998a0c-eed3-46de-aa53-8ecfbd4eddbb"},"vehicle_type_id":"4","last_reported":1743955804,"current_range_meters":9600,"station_id":"ce4bhu92rcd13ifvqi70","pricing_plan_id":"cebpf4jnsgd1na2vs0mg"},{"bike_id":"c374cd81-8690-470a-98a4-c6a1fa6952a7","system_id":"levelo_inurba_marseille","lat":43.31327,"lon":5.39693,"is_reserved":false,"is_disabled":false,"rental_uris":{"android":"levelo://app?vid=c374cd81-8690-470a-98a4-c6a1fa6952a7","ios":"levelo://app?vid=c374cd81-8690-470a-98a4-c6a1fa6952a7"},"vehicle_type_id":"4","last_reported":1743955804,"current_range_meters":11200,"station_id":"ce4bgvp2rcd13ifvqcu0","pricing_plan_id":"cebpf4jnsgd1na2vs0mg"},{"bike_id":"7430a625-f006-4a2a-a806-26f90f80c268","system_id":"levelo_inurba_marseille","lat":43.284668,"lon":5.384332,"is_reserved":false,"is_disabled":false,"rental_uris":{"android":"levelo://app?vid=7430a625-f006-4a2a-a806-26f90f80c268","ios":"levelo://app?vid=7430a625-f006-4a2a-a806-26f90f80c268"},"vehicle_type_id":"4","last_reported":1743955804,"current_range_meters":9600,"station_id":"ce4bh512rcd13ifvqe3g","pricing_plan_id":"cebpf4jnsgd1na2vs0mg"},{"bike_id":"b01c115f-160a-4118-9051-fac2dd7e0084","system_id":"levelo_inurba_marseille","lat":43.27574,"lon":5.38446,"is_reserved":false,"is_disabled":false,"rental_uris":{"android":"levelo://app?vid=b01c115f-160a-4118-9051-fac2dd7e0084","ios":"levelo://app?vid=b01c115f-160a-4118-9051-fac2dd7e0084"},"vehicle_type_id":"4","last_reported":1743955804,"current_range_meters":10000,"station_id":"ce4bhh92rcd13ifvqfi0","pricing_plan_id":"cebpf4jnsgd1na2vs0mg"},{"bike_id":"abde5d83-9b30-4b2f-8a88-f914ca452329","system_id":"levelo_inurba_marseille","lat":43.31221,"lon":5.38696,"is_reserved":false,"is_disabled":false,"rental_uris":{"android":"levelo://app?vid=abde5d83-9b30-4b2f-8a88-f914ca452329","ios":"levelo://app?vid=abde5d83-9b30-4b2f-8a88-f914ca452329"},"vehicle_type_id":"4","last_reported":1743955804,"current_range_meters":10000,"station_id":"","pricing_plan_id":"cebpf4jnsgd1na2vs0mg"},{"bike_id":"ceba594e-ff69-4140-828e-f8a961103e51","system_id":"levelo_inurba_marseille","lat":43.24148,"lon":5.36419,"is_reserved":false,"is_disabled":false,"rental_uris":{"android":"levelo://app?vid=ceba594e-ff69-4140-828e-f8a961103e51","ios":"levelo://app?vid=ceba594e-ff69-4140-828e-f8a961103e51"},"vehicle_type_id":"4","last_reported":1743955804,"current_range_meters":10000,"station_id":"cpo36qri1sfpv3e86is0","pricing_plan_id":"cebpf4jnsgd1na2vs0mg"},{"bike_id":"8c9c4a8b-8458-4198-a8fa-49c4e41dda49","system_id":"levelo_inurba_marseille","lat":43.21203,"lon":5.35085,"is_reserved":false,"is_disabled":false,"rental_uris":{"android":"levelo://app?vid=8c9c4a8b-8458-4198-a8fa-49c4e41dda49","ios":"levelo://app?vid=8c9c4a8b-8458-4198-a8fa-49c4e41dda49"},"vehicle_type_id":"4","last_reported":1743955804,"current_range_meters":10000,"station_id":"st_cvj6sg6p6f1abm77japg","pricing_plan_id":"cebpf4jnsgd1na2vs0mg"},{"bike_id":"f295a9e8-23fb-4ec4-8906-b4f075796f29","system_id":"levelo_inurba_marseille","lat":43.23971,"lon":5.36663,"is_reserved":false,"is_disabled":false,"rental_uris":{"android":"levelo://app?vid=f295a9e8-23fb-4ec4-8906-b4f075796f29","ios":"levelo://app?vid=f295a9e8-23fb-4ec4-8906-b4f075796f29"},"vehicle_type_id":"4","last_reported":1743955804,"current_range_meters":9600,"station_id":"ce4bhi12rcd13ifvqfp0","pricing_plan_id":"cebpf4jnsgd1na2vs0mg"},{"bike_id":"aa9b59b6-65cb-49e0-b211-3fb1aecd03a8","system_id":"levelo_inurba_marseille","lat":43.29188,"lon":5.36093,"is_reserved":false,"is_disabled":true,"rental_uris":{"android":"levelo://app?vid=aa9b59b6-65cb-49e0-b211-3fb1aecd03a8","ios":"levelo://app?vid=aa9b59b6-65cb-49e0-b211-3fb1aecd03a8"},"vehicle_type_id":"4","last_reported":1743955804,"current_range_meters":10000,"station_id":"","pricing_plan_id":"cebpf4jnsgd1na2vs0mg"},{"bike_id":"7fd0635d-68ad-4ce6-a52b-daef56987b4b","system_id":"levelo_inurba_marseille","lat":43.30853,"lon":5.38636,"is_reserved":false,"is_disabled":false,"rental_uris":{"android":"levelo://app?vid=7fd0635d-68ad-4ce6-a52b-daef56987b4b","ios":"levelo://app?vid=7fd0635d-68ad-4ce6-a52b-daef56987b4b"},"vehicle_type_id":"4","last_reported":1743955804,"current_range_meters":10000,"station_id":"","pricing_plan_id":"cebpf4jnsgd1na2vs0mg"},{"bike_id":"94e019c4-03a7-4ce5-8bd8-0a03e0eb2912","system_id":"levelo_inurba_marseille","lat":43.24167,"lon":5.36384,"is_reserved":false,"is_disabled":false,"rental_uris":{"android":"levelo://app?vid=94e019c4-03a7-4ce5-8bd8-0a03e0eb2912","ios":"levelo://app?vid=94e019c4-03a7-4ce5-8bd8-0a03e0eb2912"},"vehicle_type_id":"4","last_reported":1743955804,"current_range_meters":10000,"station_id":"cpo36qri1sfpv3e86is0","pricing_plan_id":"cebpf4jnsgd1na2vs0mg"},{"bike_id":"136b6e45-ee21-453e-aa22-e07947db9071","system_id":"levelo_inurba_marseille","lat":43.23173,"lon":5.43732,"is_reserved":false,"is_disabled":true,"rental_uris":{"android":"levelo://app?vid=136b6e45-ee21-453e-aa22-e07947db9071","ios":"levelo://app?vid=136b6e45-ee21-453e-aa22-e07947db9071"},"vehicle_type_id":"4","last_reported":1743955804,"current_range_meters":10000,"station_id":"ce4bhmp2rcd13ifvqgog","pricing_plan_id":"cebpf4jnsgd1na2vs0mg"},{"bike_id":"8b14b63c-7975-45da-b2fd-6ef094ec9555","system_id":"levelo_inurba_marseille","lat":43.30147,"lon":5.37418,"is_reserved":false,"is_disabled":false,"rental_uris":{"android":"levelo://app?vid=8b14b63c-7975-45da-b2fd-6ef094ec9555","ios":"levelo://app?vid=8b14b63c-7975-45da-b2fd-6ef094ec9555"},"vehicle_type_id":"4","last_reported":1743955804,"current_range_meters":10800,"station_id":"ce4bgs92rcd13ifvqcc0","pricing_plan_id":"cebpf4jnsgd1na2vs0mg"},{"bike_id":"f8321878-9e9a-4e56-8919-d9cad8905f3c","system_id":"levelo_inurba_marseille","lat":43.30514,"lon":5.3649,"is_reserved":false,"is_disabled":true,"rental_uris":{"android":"levelo://app?vid=f8321878-9e9a-4e56-8919-d9cad8905f3c","ios":"levelo://app?vid=f8321878-9e9a-4e56-8919-d9cad8905f3c"},"vehicle_type_id":"4","last_reported":1743955804,"current_range_meters":10800,"station_id":"ce4bgs12rcd13ifvqcag","pricing_plan_id":"cebpf4jnsgd1na2vs0mg"},{"bike_id":"f78ca29f-0172-4b10-9e2f-9c566d7a8e82","system_id":"levelo_inurba_marseille","lat":43.28352,"lon":5.38636,"is_reserved":false,"is_disabled":false,"rental_uris":{"android":"levelo://app?vid=f78ca29f-0172-4b10-9e2f-9c566d7a8e82","ios":"levelo://app?vid=f78ca29f-0172-4b10-9e2f-9c566d7a8e82"},"vehicle_type_id":"4","last_reported":1743955804,"current_range_meters":10800,"station_id":"ce4bh492rcd13ifvqdvg","pricing_plan_id":"cebpf4jnsgd1na2vs0mg"},{"bike_id":"cf25c9c7-64dc-4db6-82f5-79306525f6e0","system_id":"levelo_inurba_marseille","lat":43.31686,"lon":5.40472,"is_reserved":false,"is_disabled":false,"rental_uris":{"android":"levelo://app?vid=cf25c9c7-64dc-4db6-82f5-79306525f6e0","ios":"levelo://app?vid=cf25c9c7-64dc-4db6-82f5-79306525f6e0"},"vehicle_type_id":"4","last_reported":1743955804,"current_range_meters":10800,"station_id":"ce4bh012rcd13ifvqd00","pricing_plan_id":"cebpf4jnsgd1na2vs0mg"},{"bike_id":"ff195095-aeb1-4ab8-b99a-808f5d483d8f","system_id":"levelo_inurba_marseille","lat":43.24177,"lon":5.36384,"is_reserved":false,"is_disabled":false,"rental_uris":{"android":"levelo://app?vid=ff195095-aeb1-4ab8-b99a-808f5d483d8f","ios":"levelo://app?vid=ff195095-aeb1-4ab8-b99a-808f5d483d8f"},"vehicle_type_id":"4","last_reported":1743955804,"current_range_meters":10800,"station_id":"cpo36qri1sfpv3e86is0","pricing_plan_id":"cebpf4jnsgd1na2vs0mg"},{"bike_id":"f5cac15c-f34d-46ec-b095-fe3221508340","system_id":"levelo_inurba_marseille","lat":43.27173,"lon":5.40991,"is_reserved":false,"is_disabled":false,"rental_uris":{"android":"levelo://app?vid=f5cac15c-f34d-46ec-b095-fe3221508340","ios":"levelo://app?vid=f5cac15c-f34d-46ec-b095-fe3221508340"},"vehicle_type_id":"4","last_reported":1743955804,"current_range_meters":10800,"station_id":"ce4bhl12rcd13ifvqgf0","pricing_plan_id":"cebpf4jnsgd1na2vs0mg"},{"bike_id":"35b1223b-647f-4f9f-9d4e-ffe538fbd0b8","system_id":"levelo_inurba_marseille","lat":43.26945,"lon":5.40242,"is_reserved":false,"is_disabled":false,"rental_uris":{"android":"levelo://app?vid=35b1223b-647f-4f9f-9d4e-ffe538fbd0b8","ios":"levelo://app?vid=35b1223b-647f-4f9f-9d4e-ffe538fbd0b8"},"vehicle_type_id":"4","last_reported":1743955804,"current_range_meters":10800,"station_id":"cjm6bp8fraef2m0cb0m0","pricing_plan_id":"cebpf4jnsgd1na2vs0mg"},{"bike_id":"f45c2299-0461-40e0-81f0-bb2ccd3f41b8","system_id":"levelo_inurba_marseille","lat":43.28448,"lon":5.39206,"is_reserved":false,"is_disabled":false,"rental_uris":{"android":"levelo://app?vid=f45c2299-0461-40e0-81f0-bb2ccd3f41b8","ios":"levelo://app?vid=f45c2299-0461-40e0-81f0-bb2ccd3f41b8"},"vehicle_type_id":"4","last_reported":1743955804,"current_range_meters":10000,"station_id":"ce4bhoh2rcd13ifvqh5g","pricing_plan_id":"cebpf4jnsgd1na2vs0mg"},{"bike_id":"b8bae21a-7c89-4395-9d8f-f14c1628cba8","system_id":"levelo_inurba_marseille","lat":43.24165,"lon":5.36399,"is_reserved":false,"is_disabled":false,"rental_uris":{"android":"levelo://app?vid=b8bae21a-7c89-4395-9d8f-f14c1628cba8","ios":"levelo://app?vid=b8bae21a-7c89-4395-9d8f-f14c1628cba8"},"vehicle_type_id":"4","last_reported":1743955804,"current_range_meters":11200,"station_id":"cpo36qri1sfpv3e86is0","pricing_plan_id":"cebpf4jnsgd1na2vs0mg"},{"bike_id":"7d2dde4f-5a6a-4005-a47e-231c9dacefe3","system_id":"levelo_inurba_marseille","lat":43.30805,"lon":5.43536,"is_reserved":false,"is_disabled":false,"rental_uris":{"android":"levelo://app?vid=7d2dde4f-5a6a-4005-a47e-231c9dacefe3","ios":"levelo://app?vid=7d2dde4f-5a6a-4005-a47e-231c9dacefe3"},"vehicle_type_id":"4","last_reported":1743955804,"current_range_meters":11200,"station_id":"ce4bhph2rcd13ifvqheg","pricing_plan_id":"cebpf4jnsgd1na2vs0mg"},{"bike_id":"72543552-8188-4373-8db0-bd2f24c14e7b","system_id":"levelo_inurba_marseille","lat":43.32305,"lon":5.37652,"is_reserved":false,"is_disabled":false,"rental_uris":{"android":"levelo://app?vid=72543552-8188-4373-8db0-bd2f24c14e7b","ios":"levelo://app?vid=72543552-8188-4373-8db0-bd2f24c14e7b"},"vehicle_type_id":"4","last_reported":1743955804,"current_range_meters":11200,"station_id":"","pricing_plan_id":"cebpf4jnsgd1na2vs0mg"},{"bike_id":"c3e6d442-6282-4c88-9f90-93d85aff9e76","system_id":"levelo_inurba_marseille","lat":43.28162,"lon":5.42658,"is_reserved":false,"is_disabled":false,"rental_uris":{"android":"levelo://app?vid=c3e6d442-6282-4c88-9f90-93d85aff9e76","ios":"levelo://app?vid=c3e6d442-6282-4c88-9f90-93d85aff9e76"},"vehicle_type_id":"4","last_reported":1743955804,"current_range_meters":11200,"station_id":"ce4bhnh2rcd13ifvqgug","pricing_plan_id":"cebpf4jnsgd1na2vs0mg"},{"bike_id":"c2d6bdc9-9134-46ea-8128-77118c9d91a3","system_id":"levelo_inurba_marseille","lat":43.29975,"lon":5.37168,"is_reserved":false,"is_disabled":false,"rental_uris":{"android":"levelo://app?vid=c2d6bdc9-9134-46ea-8128-77118c9d91a3","ios":"levelo://app?vid=c2d6bdc9-9134-46ea-8128-77118c9d91a3"},"vehicle_type_id":"4","last_reported":1743955804,"current_range_meters":11200,"station_id":"ce4bgr92rcd13ifvqc7g","pricing_plan_id":"cebpf4jnsgd1na2vs0mg"},{"bike_id":"d09cfb96-92e7-4b55-9260-d47d1f9298a0","system_id":"levelo_inurba_marseille","lat":43.2927,"lon":5.38433,"is_reserved":false,"is_disabled":false,"rental_uris":{"android":"levelo://app?vid=d09cfb96-92e7-4b55-9260-d47d1f9298a0","ios":"levelo://app?vid=d09cfb96-92e7-4b55-9260-d47d1f9298a0"},"vehicle_type_id":"4","last_reported":1743955804,"current_range_meters":11200,"station_id":"ce4bh692rcd13ifvqea0","pricing_plan_id":"cebpf4jnsgd1na2vs0mg"},{"bike_id":"9abb6ec2-5acd-4327-9898-dd9dbedec59a","system_id":"levelo_inurba_marseille","lat":43.31712,"lon":5.43715,"is_reserved":false,"is_disabled":false,"rental_uris":{"android":"levelo://app?vid=9abb6ec2-5acd-4327-9898-dd9dbedec59a","ios":"levelo://app?vid=9abb6ec2-5acd-4327-9898-dd9dbedec59a"},"vehicle_type_id":"4","last_reported":1743955804,"current_range_meters":11200,"station_id":"ce4bhp92rcd13ifvqhcg","pricing_plan_id":"cebpf4jnsgd1na2vs0mg"},{"bike_id":"b5f969de-f00c-4527-8db7-b0bfd727b190","system_id":"levelo_inurba_marseille","lat":43.304511,"lon":5.378573,"is_reserved":false,"is_disabled":false,"rental_uris":{"android":"levelo://app?vid=b5f969de-f00c-4527-8db7-b0bfd727b190","ios":"levelo://app?vid=b5f969de-f00c-4527-8db7-b0bfd727b190"},"vehicle_type_id":"4","last_reported":1743955804,"current_range_meters":11200,"station_id":"ce4bha12rcd13ifvqee0","pricing_plan_id":"cebpf4jnsgd1na2vs0mg"},{"bike_id":"9d479d10-66bd-4efa-be82-4d1647097eb1","system_id":"levelo_inurba_marseille","lat":43.29539,"lon":5.38551,"is_reserved":false,"is_disabled":false,"rental_uris":{"android":"levelo://app?vid=9d479d10-66bd-4efa-be82-4d1647097eb1","ios":"levelo://app?vid=9d479d10-66bd-4efa-be82-4d1647097eb1"},"vehicle_type_id":"4","last_reported":1743955804,"current_range_meters":11600,"station_id":"ce4bgih2rcd13ifvqba0","pricing_plan_id":"cebpf4jnsgd1na2vs0mg"},{"bike_id":"82583482-0259-432c-b81b-e2806f193735","system_id":"levelo_inurba_marseille","lat":43.24182,"lon":5.36411,"is_reserved":false,"is_disabled":false,"rental_uris":{"android":"levelo://app?vid=82583482-0259-432c-b81b-e2806f193735","ios":"levelo://app?vid=82583482-0259-432c-b81b-e2806f193735"},"vehicle_type_id":"4","last_reported":1743955804,"current_range_meters":11600,"station_id":"cpo36qri1sfpv3e86is0","pricing_plan_id":"cebpf4jnsgd1na2vs0mg"},{"bike_id":"ec8318f8-fb99-4387-b30a-cebea6db3415","system_id":"levelo_inurba_marseille","lat":43.29308,"lon":5.37135,"is_reserved":false,"is_disabled":false,"rental_uris":{"android":"levelo://app?vid=ec8318f8-fb99-4387-b30a-cebea6db3415","ios":"levelo://app?vid=ec8318f8-fb99-4387-b30a-cebea6db3415"},"vehicle_type_id":"4","last_reported":1743955804,"current_range_meters":11600,"station_id":"ce4bgh92rcd13ifvqb40","pricing_plan_id":"cebpf4jnsgd1na2vs0mg"},{"bike_id":"f7e3b8fa-9062-4469-bcee-58c5aa5cfb6e","system_id":"levelo_inurba_marseille","lat":43.29535,"lon":5.38548,"is_reserved":false,"is_disabled":true,"rental_uris":{"android":"levelo://app?vid=f7e3b8fa-9062-4469-bcee-58c5aa5cfb6e","ios":"levelo://app?vid=f7e3b8fa-9062-4469-bcee-58c5aa5cfb6e"},"vehicle_type_id":"4","last_reported":1743955804,"current_range_meters":11600,"station_id":"ce4bgih2rcd13ifvqba0","pricing_plan_id":"cebpf4jnsgd1na2vs0mg"},{"bike_id":"b9b7d5a4-c96c-417f-b4d0-9b44348a0f14","system_id":"levelo_inurba_marseille","lat":43.29541,"lon":5.38539,"is_reserved":false,"is_disabled":false,"rental_uris":{"android":"levelo://app?vid=b9b7d5a4-c96c-417f-b4d0-9b44348a0f14","ios":"levelo://app?vid=b9b7d5a4-c96c-417f-b4d0-9b44348a0f14"},"vehicle_type_id":"4","last_reported":1743955804,"current_range_meters":11600,"station_id":"ce4bgih2rcd13ifvqba0","pricing_plan_id":"cebpf4jnsgd1na2vs0mg"},{"bike_id":"74bc3e56-9efa-454d-b596-3e1f84ec7077","system_id":"levelo_inurba_marseille","lat":43.24171,"lon":5.363995,"is_reserved":false,"is_disabled":false,"rental_uris":{"android":"levelo://app?vid=74bc3e56-9efa-454d-b596-3e1f84ec7077","ios":"levelo://app?vid=74bc3e56-9efa-454d-b596-3e1f84ec7077"},"vehicle_type_id":"4","last_reported":1743955804,"current_range_meters":11600,"station_id":"cpo36qri1sfpv3e86is0","pricing_plan_id":"cebpf4jnsgd1na2vs0mg"},{"bike_id":"19379d7b-b3b4-46ff-9af1-6370bf06ecc3","system_id":"levelo_inurba_marseille","lat":43.29016,"lon":5.35627,"is_reserved":false,"is_disabled":true,"rental_uris":{"android":"levelo://app?vid=19379d7b-b3b4-46ff-9af1-6370bf06ecc3","ios":"levelo://app?vid=19379d7b-b3b4-46ff-9af1-6370bf06ecc3"},"vehicle_type_id":"4","last_reported":1743955804,"current_range_meters":11600,"station_id":"ce4bhb92rcd13ifvqen0","pricing_plan_id":"cebpf4jnsgd1na2vs0mg"},{"bike_id":"1cd3857d-ae3c-4490-90e2-ccb4350ed1b5","system_id":"levelo_inurba_marseille","lat":43.27426,"lon":5.39415,"is_reserved":false,"is_disabled":false,"rental_uris":{"android":"levelo://app?vid=1cd3857d-ae3c-4490-90e2-ccb4350ed1b5","ios":"levelo://app?vid=1cd3857d-ae3c-4490-90e2-ccb4350ed1b5"},"vehicle_type_id":"4","last_reported":1743955804,"current_range_meters":11600,"station_id":"ce4bhdp2rcd13ifvqf20","pricing_plan_id":"cebpf4jnsgd1na2vs0mg"},{"bike_id":"571de576-7f5a-4c0c-b42f-a83d3e894961","system_id":"levelo_inurba_marseille","lat":43.2623,"lon":5.40451,"is_reserved":false,"is_disabled":false,"rental_uris":{"android":"levelo://app?vid=571de576-7f5a-4c0c-b42f-a83d3e894961","ios":"levelo://app?vid=571de576-7f5a-4c0c-b42f-a83d3e894961"},"vehicle_type_id":"4","last_reported":1743955804,"current_range_meters":12000,"station_id":"ce4bhmh2rcd13ifvqgmg","pricing_plan_id":"cebpf4jnsgd1na2vs0mg"},{"bike_id":"8a38320c-a733-4cf5-8c8e-152497fe8f8f","system_id":"levelo_inurba_marseille","lat":43.28156,"lon":5.42649,"is_reserved":false,"is_disabled":false,"rental_uris":{"android":"levelo://app?vid=8a38320c-a733-4cf5-8c8e-152497fe8f8f","ios":"levelo://app?vid=8a38320c-a733-4cf5-8c8e-152497fe8f8f"},"vehicle_type_id":"4","last_reported":1743955804,"current_range_meters":12000,"station_id":"ce4bhnh2rcd13ifvqgug","pricing_plan_id":"cebpf4jnsgd1na2vs0mg"},{"bike_id":"c9bcb9ed-89fa-4f1d-bf29-12fb5d644696","system_id":"levelo_inurba_marseille","lat":43.28,"lon":5.41674,"is_reserved":false,"is_disabled":false,"rental_uris":{"android":"levelo://app?vid=c9bcb9ed-89fa-4f1d-bf29-12fb5d644696","ios":"levelo://app?vid=c9bcb9ed-89fa-4f1d-bf29-12fb5d644696"},"vehicle_type_id":"4","last_reported":1743955804,"current_range_meters":12000,"station_id":"ce4bho12rcd13ifvqh1g","pricing_plan_id":"cebpf4jnsgd1na2vs0mg"},{"bike_id":"6ee85d75-9576-48a6-9ea1-92da0dac2d73","system_id":"levelo_inurba_marseille","lat":43.30806,"lon":5.43546,"is_reserved":false,"is_disabled":false,"rental_uris":{"android":"levelo://app?vid=6ee85d75-9576-48a6-9ea1-92da0dac2d73","ios":"levelo://app?vid=6ee85d75-9576-48a6-9ea1-92da0dac2d73"},"vehicle_type_id":"4","last_reported":1743955804,"current_range_meters":12000,"station_id":"ce4bhph2rcd13ifvqheg","pricing_plan_id":"cebpf4jnsgd1na2vs0mg"},{"bike_id":"14885471-4918-4d6d-a8ad-49af2fbd1a9b","system_id":"levelo_inurba_marseille","lat":43.229858,"lon":5.437076,"is_reserved":false,"is_disabled":false,"rental_uris":{"android":"levelo://app?vid=14885471-4918-4d6d-a8ad-49af2fbd1a9b","ios":"levelo://app?vid=14885471-4918-4d6d-a8ad-49af2fbd1a9b"},"vehicle_type_id":"4","last_reported":1743955804,"current_range_meters":12000,"station_id":"cpo36qri1sfpv3e86is0","pricing_plan_id":"cebpf4jnsgd1na2vs0mg"},{"bike_id":"8539495d-a8db-48e8-999c-a0eec7f95200","system_id":"levelo_inurba_marseille","lat":43.25488,"lon":5.37646,"is_reserved":false,"is_disabled":true,"rental_uris":{"android":"levelo://app?vid=8539495d-a8db-48e8-999c-a0eec7f95200","ios":"levelo://app?vid=8539495d-a8db-48e8-999c-a0eec7f95200"},"vehicle_type_id":"4","last_reported":1743955804,"current_range_meters":12000,"station_id":"ce4bhh12rcd13ifvqff0","pricing_plan_id":"cebpf4jnsgd1na2vs0mg"},{"bike_id":"cab55782-a0c0-4647-b0e9-1d9f1d78bcd1","system_id":"levelo_inurba_marseille","lat":43.29265,"lon":5.38449,"is_reserved":false,"is_disabled":false,"rental_uris":{"android":"levelo://app?vid=cab55782-a0c0-4647-b0e9-1d9f1d78bcd1","ios":"levelo://app?vid=cab55782-a0c0-4647-b0e9-1d9f1d78bcd1"},"vehicle_type_id":"4","last_reported":1743955804,"current_range_meters":12400,"station_id":"ce4bh692rcd13ifvqea0","pricing_plan_id":"cebpf4jnsgd1na2vs0mg"},{"bike_id":"e332aab8-1fe3-40e9-8086-1f7d5ff35118","system_id":"levelo_inurba_marseille","lat":43.33157,"lon":5.38182,"is_reserved":false,"is_disabled":false,"rental_uris":{"android":"levelo://app?vid=e332aab8-1fe3-40e9-8086-1f7d5ff35118","ios":"levelo://app?vid=e332aab8-1fe3-40e9-8086-1f7d5ff35118"},"vehicle_type_id":"4","last_reported":1743955804,"current_range_meters":12400,"station_id":"","pricing_plan_id":"cebpf4jnsgd1na2vs0mg"},{"bike_id":"b22f025c-a36c-4a54-b3d8-a16fb2d2a0e4","system_id":"levelo_inurba_marseille","lat":43.29962,"lon":5.38503,"is_reserved":false,"is_disabled":false,"rental_uris":{"android":"levelo://app?vid=b22f025c-a36c-4a54-b3d8-a16fb2d2a0e4","ios":"levelo://app?vid=b22f025c-a36c-4a54-b3d8-a16fb2d2a0e4"},"vehicle_type_id":"4","last_reported":1743955804,"current_range_meters":12400,"station_id":"ce4bgj92rcd13ifvqbd0","pricing_plan_id":"cebpf4jnsgd1na2vs0mg"},{"bike_id":"6626fa81-7712-4f54-8603-69b155b17c40","system_id":"levelo_inurba_marseille","lat":43.25565,"lon":5.38248,"is_reserved":false,"is_disabled":true,"rental_uris":{"android":"levelo://app?vid=6626fa81-7712-4f54-8603-69b155b17c40","ios":"levelo://app?vid=6626fa81-7712-4f54-8603-69b155b17c40"},"vehicle_type_id":"4","last_reported":1743955804,"current_range_meters":12400,"station_id":"ce4bhih2rcd13ifvqfs0","pricing_plan_id":"cebpf4jnsgd1na2vs0mg"},{"bike_id":"a409c3f0-8991-4228-afb5-57b19bb06658","system_id":"levelo_inurba_marseille","lat":43.32401,"lon":5.38997,"is_reserved":false,"is_disabled":false,"rental_uris":{"android":"levelo://app?vid=a409c3f0-8991-4228-afb5-57b19bb06658","ios":"levelo://app?vid=a409c3f0-8991-4228-afb5-57b19bb06658"},"vehicle_type_id":"4","last_reported":1743955804,"current_range_meters":12400,"station_id":"","pricing_plan_id":"cebpf4jnsgd1na2vs0mg"},{"bike_id":"63e1d95c-79be-4b82-a868-e312bf827ceb","system_id":"levelo_inurba_marseille","lat":43.29029,"lon":5.3865,"is_reserved":false,"is_disabled":true,"rental_uris":{"android":"levelo://app?vid=63e1d95c-79be-4b82-a868-e312bf827ceb","ios":"levelo://app?vid=63e1d95c-79be-4b82-a868-e312bf827ceb"},"vehicle_type_id":"4","last_reported":1743955804,"current_range_meters":12400,"station_id":"ce4bh4p2rcd13ifvqe0g","pricing_plan_id":"cebpf4jnsgd1na2vs0mg"},{"bike_id":"e4d4dc7a-abcd-4c1d-8017-887f937d011f","system_id":"levelo_inurba_marseille","lat":43.29559,"lon":5.39965,"is_reserved":false,"is_disabled":true,"rental_uris":{"android":"levelo://app?vid=e4d4dc7a-abcd-4c1d-8017-887f937d011f","ios":"levelo://app?vid=e4d4dc7a-abcd-4c1d-8017-887f937d011f"},"vehicle_type_id":"4","last_reported":1743955804,"current_range_meters":12400,"station_id":"ce4bh312rcd13ifvqdj0","pricing_plan_id":"cebpf4jnsgd1na2vs0mg"},{"bike_id":"a56d9e93-ff14-4dc3-9550-a56fbad1008e","system_id":"levelo_inurba_marseille","lat":43.29593,"lon":5.38085,"is_reserved":false,"is_disabled":false,"rental_uris":{"android":"levelo://app?vid=a56d9e93-ff14-4dc3-9550-a56fbad1008e","ios":"levelo://app?vid=a56d9e93-ff14-4dc3-9550-a56fbad1008e"},"vehicle_type_id":"4","last_reported":1743955804,"current_range_meters":12400,"station_id":"ce4bgl12rcd13ifvqbo0","pricing_plan_id":"cebpf4jnsgd1na2vs0mg"},{"bike_id":"b8499a1f-2b38-4769-81ca-06e796ac6d0c","system_id":"levelo_inurba_marseille","lat":43.239678,"lon":5.366309,"is_reserved":false,"is_disabled":false,"rental_uris":{"android":"levelo://app?vid=b8499a1f-2b38-4769-81ca-06e796ac6d0c","ios":"levelo://app?vid=b8499a1f-2b38-4769-81ca-06e796ac6d0c"},"vehicle_type_id":"4","last_reported":1743955804,"current_range_meters":12800,"station_id":"ce4bh292rcd13ifvqdg0","pricing_plan_id":"cebpf4jnsgd1na2vs0mg"},{"bike_id":"8f039e9b-908d-4671-8c31-c10c45ffd6ab","system_id":"levelo_inurba_marseille","lat":43.24171,"lon":5.36391,"is_reserved":false,"is_disabled":false,"rental_uris":{"android":"levelo://app?vid=8f039e9b-908d-4671-8c31-c10c45ffd6ab","ios":"levelo://app?vid=8f039e9b-908d-4671-8c31-c10c45ffd6ab"},"vehicle_type_id":"4","last_reported":1743955804,"current_range_meters":12800,"station_id":"cpo36qri1sfpv3e86is0","pricing_plan_id":"cebpf4jnsgd1na2vs0mg"},{"bike_id":"a5bd5abf-e64b-49fb-9823-db9745ea97e7","system_id":"levelo_inurba_marseille","lat":43.2894,"lon":5.36624,"is_reserved":false,"is_disabled":true,"rental_uris":{"android":"levelo://app?vid=a5bd5abf-e64b-49fb-9823-db9745ea97e7","ios":"levelo://app?vid=a5bd5abf-e64b-49fb-9823-db9745ea97e7"},"vehicle_type_id":"4","last_reported":1743955804,"current_range_meters":12800,"station_id":"ce4bhap2rcd13ifvqek0","pricing_plan_id":"cebpf4jnsgd1na2vs0mg"},{"bike_id":"228a61b3-f17a-4329-b936-a474881a0c8d","system_id":"levelo_inurba_marseille","lat":43.24807,"lon":5.37454,"is_reserved":false,"is_disabled":false,"rental_uris":{"android":"levelo://app?vid=228a61b3-f17a-4329-b936-a474881a0c8d","ios":"levelo://app?vid=228a61b3-f17a-4329-b936-a474881a0c8d"},"vehicle_type_id":"4","last_reported":1743955804,"current_range_meters":12800,"station_id":"ce4bhgh2rcd13ifvqfb0","pricing_plan_id":"cebpf4jnsgd1na2vs0mg"},{"bike_id":"73da4ec2-07ab-49b0-840e-487dd77ca4ac","system_id":"levelo_inurba_marseille","lat":43.21196,"lon":5.35081,"is_reserved":false,"is_disabled":false,"rental_uris":{"android":"levelo://app?vid=73da4ec2-07ab-49b0-840e-487dd77ca4ac","ios":"levelo://app?vid=73da4ec2-07ab-49b0-840e-487dd77ca4ac"},"vehicle_type_id":"4","last_reported":1743955804,"current_range_meters":12800,"station_id":"st_cvj6sg6p6f1abm77japg","pricing_plan_id":"cebpf4jnsgd1na2vs0mg"},{"bike_id":"73272853-088e-4b39-8e6e-94fe10fc353c","system_id":"levelo_inurba_marseille","lat":43.33761,"lon":5.37496,"is_reserved":false,"is_disabled":false,"rental_uris":{"android":"levelo://app?vid=73272853-088e-4b39-8e6e-94fe10fc353c","ios":"levelo://app?vid=73272853-088e-4b39-8e6e-94fe10fc353c"},"vehicle_type_id":"4","last_reported":1743955804,"current_range_meters":12800,"station_id":"","pricing_plan_id":"cebpf4jnsgd1na2vs0mg"},{"bike_id":"7a935817-47e2-4cb3-8324-a647fdf3a140","system_id":"levelo_inurba_marseille","lat":43.29538,"lon":5.38544,"is_reserved":false,"is_disabled":true,"rental_uris":{"android":"levelo://app?vid=7a935817-47e2-4cb3-8324-a647fdf3a140","ios":"levelo://app?vid=7a935817-47e2-4cb3-8324-a647fdf3a140"},"vehicle_type_id":"4","last_reported":1743955804,"current_range_meters":12800,"station_id":"ce4bgih2rcd13ifvqba0","pricing_plan_id":"cebpf4jnsgd1na2vs0mg"},{"bike_id":"eb036402-0cb4-4e3c-8d1e-0b7a29d2ba31","system_id":"levelo_inurba_marseille","lat":43.34124,"lon":5.40971,"is_reserved":false,"is_disabled":false,"rental_uris":{"android":"levelo://app?vid=eb036402-0cb4-4e3c-8d1e-0b7a29d2ba31","ios":"levelo://app?vid=eb036402-0cb4-4e3c-8d1e-0b7a29d2ba31"},"vehicle_type_id":"4","last_reported":1743955804,"current_range_meters":12800,"station_id":"ce4bhqh2rcd13ifvqhlg","pricing_plan_id":"cebpf4jnsgd1na2vs0mg"},{"bike_id":"07486871-a0ff-4090-ad80-c7d852308ed3","system_id":"levelo_inurba_marseille","lat":43.23204,"lon":5.35549,"is_reserved":false,"is_disabled":false,"rental_uris":{"android":"levelo://app?vid=07486871-a0ff-4090-ad80-c7d852308ed3","ios":"levelo://app?vid=07486871-a0ff-4090-ad80-c7d852308ed3"},"vehicle_type_id":"4","last_reported":1743955804,"current_range_meters":12800,"station_id":"ce4bhu92rcd13ifvqi70","pricing_plan_id":"cebpf4jnsgd1na2vs0mg"},{"bike_id":"efbe252a-f45c-409e-add5-1cc7f9cc95c8","system_id":"levelo_inurba_marseille","lat":43.214153,"lon":5.341207,"is_reserved":false,"is_disabled":false,"rental_uris":{"android":"levelo://app?vid=efbe252a-f45c-409e-add5-1cc7f9cc95c8","ios":"levelo://app?vid=efbe252a-f45c-409e-add5-1cc7f9cc95c8"},"vehicle_type_id":"4","last_reported":1743955804,"current_range_meters":12800,"station_id":"","pricing_plan_id":"cebpf4jnsgd1na2vs0mg"},{"bike_id":"d6c3d7f4-760c-422c-8667-25e15a7934b3","system_id":"levelo_inurba_marseille","lat":43.30791,"lon":5.37452,"is_reserved":false,"is_disabled":false,"rental_uris":{"android":"levelo://app?vid=d6c3d7f4-760c-422c-8667-25e15a7934b3","ios":"levelo://app?vid=d6c3d7f4-760c-422c-8667-25e15a7934b3"},"vehicle_type_id":"4","last_reported":1743955804,"current_range_meters":13600,"station_id":"","pricing_plan_id":"cebpf4jnsgd1na2vs0mg"},{"bike_id":"bb26af9d-edf4-4e89-b769-6d98a6039c4d","system_id":"levelo_inurba_marseille","lat":43.29296,"lon":5.37465,"is_reserved":false,"is_disabled":false,"rental_uris":{"android":"levelo://app?vid=bb26af9d-edf4-4e89-b769-6d98a6039c4d","ios":"levelo://app?vid=bb26af9d-edf4-4e89-b769-6d98a6039c4d"},"vehicle_type_id":"4","last_reported":1743955804,"current_range_meters":13600,"station_id":"ce4bgi12rcd13ifvqb70","pricing_plan_id":"cebpf4jnsgd1na2vs0mg"},{"bike_id":"9c65667d-9c4e-4a97-a5f6-f1d05fcfcd61","system_id":"levelo_inurba_marseille","lat":43.22933,"lon":5.3538,"is_reserved":false,"is_disabled":false,"rental_uris":{"android":"levelo://app?vid=9c65667d-9c4e-4a97-a5f6-f1d05fcfcd61","ios":"levelo://app?vid=9c65667d-9c4e-4a97-a5f6-f1d05fcfcd61"},"vehicle_type_id":"4","last_reported":1743955804,"current_range_meters":13600,"station_id":"cpo3532slgdg3j2ikp40","pricing_plan_id":"cebpf4jnsgd1na2vs0mg"},{"bike_id":"acd32f8d-21bf-40c8-a3e9-0d8592afcf22","system_id":"levelo_inurba_marseille","lat":43.29963,"lon":5.38495,"is_reserved":false,"is_disabled":false,"rental_uris":{"android":"levelo://app?vid=acd32f8d-21bf-40c8-a3e9-0d8592afcf22","ios":"levelo://app?vid=acd32f8d-21bf-40c8-a3e9-0d8592afcf22"},"vehicle_type_id":"4","last_reported":1743955804,"current_range_meters":14000,"station_id":"ce4bgj92rcd13ifvqbd0","pricing_plan_id":"cebpf4jnsgd1na2vs0mg"},{"bike_id":"8cfd8938-ab02-4f88-9086-591f1be1afd7","system_id":"levelo_inurba_marseille","lat":43.23062,"lon":5.35487,"is_reserved":false,"is_disabled":false,"rental_uris":{"android":"levelo://app?vid=8cfd8938-ab02-4f88-9086-591f1be1afd7","ios":"levelo://app?vid=8cfd8938-ab02-4f88-9086-591f1be1afd7"},"vehicle_type_id":"4","last_reported":1743955804,"current_range_meters":14000,"station_id":"cpo3342slgdg3j2ifvpg","pricing_plan_id":"cebpf4jnsgd1na2vs0mg"},{"bike_id":"14013b0f-1d3c-4caa-b475-0539d5ed5d51","system_id":"levelo_inurba_marseille","lat":43.28609,"lon":5.37067,"is_reserved":false,"is_disabled":false,"rental_uris":{"android":"levelo://app?vid=14013b0f-1d3c-4caa-b475-0539d5ed5d51","ios":"levelo://app?vid=14013b0f-1d3c-4caa-b475-0539d5ed5d51"},"vehicle_type_id":"4","last_reported":1743955804,"current_range_meters":14000,"station_id":"ce4bht12rcd13ifvqi60","pricing_plan_id":"cebpf4jnsgd1na2vs0mg"},{"bike_id":"bce1070c-5229-45cf-9108-950642742868","system_id":"levelo_inurba_marseille","lat":43.304772,"lon":5.365329,"is_reserved":false,"is_disabled":false,"rental_uris":{"android":"levelo://app?vid=bce1070c-5229-45cf-9108-950642742868","ios":"levelo://app?vid=bce1070c-5229-45cf-9108-950642742868"},"vehicle_type_id":"4","last_reported":1743955804,"current_range_meters":14000,"station_id":"ce4bgs12rcd13ifvqcag","pricing_plan_id":"cebpf4jnsgd1na2vs0mg"},{"bike_id":"e3afb319-cee1-4d56-b5a0-fb4b49f87b79","system_id":"levelo_inurba_marseille","lat":43.29218,"lon":5.359638,"is_reserved":false,"is_disabled":false,"rental_uris":{"android":"levelo://app?vid=e3afb319-cee1-4d56-b5a0-fb4b49f87b79","ios":"levelo://app?vid=e3afb319-cee1-4d56-b5a0-fb4b49f87b79"},"vehicle_type_id":"4","last_reported":1743955804,"current_range_meters":14000,"station_id":"ce4bgvp2rcd13ifvqcu0","pricing_plan_id":"cebpf4jnsgd1na2vs0mg"},{"bike_id":"a959694d-18ce-4d80-917f-23c91ed81065","system_id":"levelo_inurba_marseille","lat":43.29902,"lon":5.43666,"is_reserved":false,"is_disabled":false,"rental_uris":{"android":"levelo://app?vid=a959694d-18ce-4d80-917f-23c91ed81065","ios":"levelo://app?vid=a959694d-18ce-4d80-917f-23c91ed81065"},"vehicle_type_id":"4","last_reported":1743955804,"current_range_meters":14000,"station_id":"ce4bhpp2rcd13ifvqhfg","pricing_plan_id":"cebpf4jnsgd1na2vs0mg"},{"bike_id":"c192c15a-083f-4a20-ac78-998eb275d79e","system_id":"levelo_inurba_marseille","lat":43.28153,"lon":5.42651,"is_reserved":false,"is_disabled":false,"rental_uris":{"android":"levelo://app?vid=c192c15a-083f-4a20-ac78-998eb275d79e","ios":"levelo://app?vid=c192c15a-083f-4a20-ac78-998eb275d79e"},"vehicle_type_id":"4","last_reported":1743955804,"current_range_meters":14000,"station_id":"ce4bhnh2rcd13ifvqgug","pricing_plan_id":"cebpf4jnsgd1na2vs0mg"},{"bike_id":"83daaad8-ff1f-4a7b-91ec-f615ddb621a4","system_id":"levelo_inurba_marseille","lat":43.24174,"lon":5.36411,"is_reserved":false,"is_disabled":false,"rental_uris":{"android":"levelo://app?vid=83daaad8-ff1f-4a7b-91ec-f615ddb621a4","ios":"levelo://app?vid=83daaad8-ff1f-4a7b-91ec-f615ddb621a4"},"vehicle_type_id":"4","last_reported":1743955804,"current_range_meters":14000,"station_id":"cpo36qri1sfpv3e86is0","pricing_plan_id":"cebpf4jnsgd1na2vs0mg"},{"bike_id":"0b019f27-b1b6-402a-b4d6-f9d063bf7adf","system_id":"levelo_inurba_marseille","lat":43.2417,"lon":5.3643,"is_reserved":false,"is_disabled":false,"rental_uris":{"android":"levelo://app?vid=0b019f27-b1b6-402a-b4d6-f9d063bf7adf","ios":"levelo://app?vid=0b019f27-b1b6-402a-b4d6-f9d063bf7adf"},"vehicle_type_id":"4","last_reported":1743955804,"current_range_meters":14400,"station_id":"cpo36qri1sfpv3e86is0","pricing_plan_id":"cebpf4jnsgd1na2vs0mg"},{"bike_id":"ae6cbe5f-4c16-4fc1-8d16-2f35d86999e4","system_id":"levelo_inurba_marseille","lat":43.28399,"lon":5.37519,"is_reserved":false,"is_disabled":false,"rental_uris":{"android":"levelo://app?vid=ae6cbe5f-4c16-4fc1-8d16-2f35d86999e4","ios":"levelo://app?vid=ae6cbe5f-4c16-4fc1-8d16-2f35d86999e4"},"vehicle_type_id":"4","last_reported":1743955804,"current_range_meters":14400,"station_id":"ce4bh412rcd13ifvqds0","pricing_plan_id":"cebpf4jnsgd1na2vs0mg"},{"bike_id":"a1a74f1b-fb44-455f-8438-c57f314bba18","system_id":"levelo_inurba_marseille","lat":43.22494,"lon":5.34785,"is_reserved":false,"is_disabled":false,"rental_uris":{"android":"levelo://app?vid=a1a74f1b-fb44-455f-8438-c57f314bba18","ios":"levelo://app?vid=a1a74f1b-fb44-455f-8438-c57f314bba18"},"vehicle_type_id":"4","last_reported":1743955804,"current_range_meters":14400,"station_id":"st_cvj5dfep6f1abm77gieg","pricing_plan_id":"cebpf4jnsgd1na2vs0mg"},{"bike_id":"e29dd1f3-b639-40ac-b3de-f870152edc8a","system_id":"levelo_inurba_marseille","lat":43.23068,"lon":5.35494,"is_reserved":false,"is_disabled":false,"rental_uris":{"android":"levelo://app?vid=e29dd1f3-b639-40ac-b3de-f870152edc8a","ios":"levelo://app?vid=e29dd1f3-b639-40ac-b3de-f870152edc8a"},"vehicle_type_id":"4","last_reported":1743955804,"current_range_meters":14400,"station_id":"cpo3342slgdg3j2ifvpg","pricing_plan_id":"cebpf4jnsgd1na2vs0mg"},{"bike_id":"222e1e00-578b-4512-8bd3-f56c6fa61730","system_id":"levelo_inurba_marseille","lat":43.23958,"lon":5.36638,"is_reserved":false,"is_disabled":true,"rental_uris":{"android":"levelo://app?vid=222e1e00-578b-4512-8bd3-f56c6fa61730","ios":"levelo://app?vid=222e1e00-578b-4512-8bd3-f56c6fa61730"},"vehicle_type_id":"4","last_reported":1743955804,"current_range_meters":14800,"station_id":"ce4bhi12rcd13ifvqfp0","pricing_plan_id":"cebpf4jnsgd1na2vs0mg"},{"bike_id":"3421c882-3fa1-44aa-ba15-70b406af94eb","system_id":"levelo_inurba_marseille","lat":43.23198,"lon":5.35561,"is_reserved":false,"is_disabled":false,"rental_uris":{"android":"levelo://app?vid=3421c882-3fa1-44aa-ba15-70b406af94eb","ios":"levelo://app?vid=3421c882-3fa1-44aa-ba15-70b406af94eb"},"vehicle_type_id":"4","last_reported":1743955804,"current_range_meters":14800,"station_id":"ce4bhu92rcd13ifvqi70","pricing_plan_id":"cebpf4jnsgd1na2vs0mg"},{"bike_id":"4ca885ad-bf65-4540-b5d0-1baba23daec6","system_id":"levelo_inurba_marseille","lat":43.22518,"lon":5.34792,"is_reserved":false,"is_disabled":false,"rental_uris":{"android":"levelo://app?vid=4ca885ad-bf65-4540-b5d0-1baba23daec6","ios":"levelo://app?vid=4ca885ad-bf65-4540-b5d0-1baba23daec6"},"vehicle_type_id":"4","last_reported":1743955804,"current_range_meters":14800,"station_id":"ce4bh612rcd13ifvqe6g","pricing_plan_id":"cebpf4jnsgd1na2vs0mg"},{"bike_id":"ca8e4b2c-bbbb-4a69-adb8-ea3afa3a44bc","system_id":"levelo_inurba_marseille","lat":43.26567,"lon":5.38994,"is_reserved":false,"is_disabled":false,"rental_uris":{"android":"levelo://app?vid=ca8e4b2c-bbbb-4a69-adb8-ea3afa3a44bc","ios":"levelo://app?vid=ca8e4b2c-bbbb-4a69-adb8-ea3afa3a44bc"},"vehicle_type_id":"4","last_reported":1743955804,"current_range_meters":14800,"station_id":"ce4bhe12rcd13ifvqf30","pricing_plan_id":"cebpf4jnsgd1na2vs0mg"},{"bike_id":"a0ac2a61-06ea-4de4-837e-20de51f24a2f","system_id":"levelo_inurba_marseille","lat":43.33732,"lon":5.39188,"is_reserved":false,"is_disabled":false,"rental_uris":{"android":"levelo://app?vid=a0ac2a61-06ea-4de4-837e-20de51f24a2f","ios":"levelo://app?vid=a0ac2a61-06ea-4de4-837e-20de51f24a2f"},"vehicle_type_id":"4","last_reported":1743955804,"current_range_meters":15200,"station_id":"ce4bhr92rcd13ifvqhsg","pricing_plan_id":"cebpf4jnsgd1na2vs0mg"},{"bike_id":"49f1cbb5-285d-4f1a-80e1-0b17200a63fa","system_id":"levelo_inurba_marseille","lat":43.2953,"lon":5.38565,"is_reserved":false,"is_disabled":false,"rental_uris":{"android":"levelo://app?vid=49f1cbb5-285d-4f1a-80e1-0b17200a63fa","ios":"levelo://app?vid=49f1cbb5-285d-4f1a-80e1-0b17200a63fa"},"vehicle_type_id":"4","last_reported":1743955804,"current_range_meters":15200,"station_id":"ce4bgih2rcd13ifvqba0","pricing_plan_id":"cebpf4jnsgd1na2vs0mg"},{"bike_id":"750bc9c2-8244-4f27-a571-77c62d7d6b92","system_id":"levelo_inurba_marseille","lat":43.31278,"lon":5.37759,"is_reserved":false,"is_disabled":false,"rental_uris":{"android":"levelo://app?vid=750bc9c2-8244-4f27-a571-77c62d7d6b92","ios":"levelo://app?vid=750bc9c2-8244-4f27-a571-77c62d7d6b92"},"vehicle_type_id":"4","last_reported":1743955804,"current_range_meters":16000,"station_id":"","pricing_plan_id":"cebpf4jnsgd1na2vs0mg"},{"bike_id":"d5359024-5235-4f23-aee2-c601031cad14","system_id":"levelo_inurba_marseille","lat":43.24386,"lon":5.37052,"is_reserved":false,"is_disabled":false,"rental_uris":{"android":"levelo://app?vid=d5359024-5235-4f23-aee2-c601031cad14","ios":"levelo://app?vid=d5359024-5235-4f23-aee2-c601031cad14"},"vehicle_type_id":"4","last_reported":1743955804,"current_range_meters":16000,"station_id":"ce4bhhh2rcd13ifvqfk0","pricing_plan_id":"cebpf4jnsgd1na2vs0mg"},{"bike_id":"5780a621-d1ab-49c0-a9d2-f2bde4e2ccc1","system_id":"levelo_inurba_marseille","lat":43.297058,"lon":5.376987,"is_reserved":false,"is_disabled":false,"rental_uris":{"android":"levelo://app?vid=5780a621-d1ab-49c0-a9d2-f2bde4e2ccc1","ios":"levelo://app?vid=5780a621-d1ab-49c0-a9d2-f2bde4e2ccc1"},"vehicle_type_id":"4","last_reported":1743955804,"current_range_meters":16000,"station_id":"ce4bgkh2rcd13ifvqbl0","pricing_plan_id":"cebpf4jnsgd1na2vs0mg"},{"bike_id":"d3940f6d-6c26-4ccb-aa36-1b12f0ca6ef4","system_id":"levelo_inurba_marseille","lat":43.32107,"lon":5.38602,"is_reserved":false,"is_disabled":false,"rental_uris":{"android":"levelo://app?vid=d3940f6d-6c26-4ccb-aa36-1b12f0ca6ef4","ios":"levelo://app?vid=d3940f6d-6c26-4ccb-aa36-1b12f0ca6ef4"},"vehicle_type_id":"4","last_reported":1743955804,"current_range_meters":16000,"station_id":"","pricing_plan_id":"cebpf4jnsgd1na2vs0mg"},{"bike_id":"0fd453bc-2d6e-4482-8ae4-2c4cd0a51bc1","system_id":"levelo_inurba_marseille","lat":43.30773,"lon":5.37977,"is_reserved":false,"is_disabled":false,"rental_uris":{"android":"levelo://app?vid=0fd453bc-2d6e-4482-8ae4-2c4cd0a51bc1","ios":"levelo://app?vid=0fd453bc-2d6e-4482-8ae4-2c4cd0a51bc1"},"vehicle_type_id":"4","last_reported":1743955804,"current_range_meters":16400,"station_id":"","pricing_plan_id":"cebpf4jnsgd1na2vs0mg"},{"bike_id":"c292128d-4e82-40a8-9b8d-d582f8c97e7a","system_id":"levelo_inurba_marseille","lat":43.2844,"lon":5.39204,"is_reserved":false,"is_disabled":false,"rental_uris":{"android":"levelo://app?vid=c292128d-4e82-40a8-9b8d-d582f8c97e7a","ios":"levelo://app?vid=c292128d-4e82-40a8-9b8d-d582f8c97e7a"},"vehicle_type_id":"4","last_reported":1743955804,"current_range_meters":16400,"station_id":"ce4bhoh2rcd13ifvqh5g","pricing_plan_id":"cebpf4jnsgd1na2vs0mg"},{"bike_id":"4b9dfe05-0e60-423c-af4b-3ef6e8cad4ce","system_id":"levelo_inurba_marseille","lat":43.25107,"lon":5.40321,"is_reserved":false,"is_disabled":true,"rental_uris":{"android":"levelo://app?vid=4b9dfe05-0e60-423c-af4b-3ef6e8cad4ce","ios":"levelo://app?vid=4b9dfe05-0e60-423c-af4b-3ef6e8cad4ce"},"vehicle_type_id":"4","last_reported":1743955804,"current_range_meters":16400,"station_id":"","pricing_plan_id":"cebpf4jnsgd1na2vs0mg"},{"bike_id":"f6eacdc6-ebba-4cd8-a45a-983313858b24","system_id":"levelo_inurba_marseille","lat":43.26963,"lon":5.40269,"is_reserved":false,"is_disabled":false,"rental_uris":{"android":"levelo://app?vid=f6eacdc6-ebba-4cd8-a45a-983313858b24","ios":"levelo://app?vid=f6eacdc6-ebba-4cd8-a45a-983313858b24"},"vehicle_type_id":"4","last_reported":1743955804,"current_range_meters":16400,"station_id":"cjm6bp8fraef2m0cb0m0","pricing_plan_id":"cebpf4jnsgd1na2vs0mg"},{"bike_id":"66b73515-9e0c-4f1c-b5eb-3e9dcd8d0d0f","system_id":"levelo_inurba_marseille","lat":43.29799,"lon":5.38084,"is_reserved":false,"is_disabled":false,"rental_uris":{"android":"levelo://app?vid=66b73515-9e0c-4f1c-b5eb-3e9dcd8d0d0f","ios":"levelo://app?vid=66b73515-9e0c-4f1c-b5eb-3e9dcd8d0d0f"},"vehicle_type_id":"4","last_reported":1743955804,"current_range_meters":16400,"station_id":"ce4bgip2rcd13ifvqbb0","pricing_plan_id":"cebpf4jnsgd1na2vs0mg"},{"bike_id":"81ff7e24-56a0-48c0-a7aa-306ece6f3952","system_id":"levelo_inurba_marseille","lat":43.23193,"lon":5.35559,"is_reserved":false,"is_disabled":false,"rental_uris":{"android":"levelo://app?vid=81ff7e24-56a0-48c0-a7aa-306ece6f3952","ios":"levelo://app?vid=81ff7e24-56a0-48c0-a7aa-306ece6f3952"},"vehicle_type_id":"4","last_reported":1743955804,"current_range_meters":16400,"station_id":"ce4bhu92rcd13ifvqi70","pricing_plan_id":"cebpf4jnsgd1na2vs0mg"},{"bike_id":"f406d14a-cc71-4c2c-a73e-bbc7eae339de","system_id":"levelo_inurba_marseille","lat":43.26187,"lon":5.374617,"is_reserved":false,"is_disabled":true,"rental_uris":{"android":"levelo://app?vid=f406d14a-cc71-4c2c-a73e-bbc7eae339de","ios":"levelo://app?vid=f406d14a-cc71-4c2c-a73e-bbc7eae339de"},"vehicle_type_id":"4","last_reported":1743955804,"current_range_meters":16800,"station_id":"ce4bhgp2rcd13ifvqfc0","pricing_plan_id":"cebpf4jnsgd1na2vs0mg"},{"bike_id":"0f8bc079-2755-44ec-a7e5-4750fe7fc792","system_id":"levelo_inurba_marseille","lat":43.27836,"lon":5.39211,"is_reserved":false,"is_disabled":false,"rental_uris":{"android":"levelo://app?vid=0f8bc079-2755-44ec-a7e5-4750fe7fc792","ios":"levelo://app?vid=0f8bc079-2755-44ec-a7e5-4750fe7fc792"},"vehicle_type_id":"4","last_reported":1743955804,"current_range_meters":16800,"station_id":"ce4bhjp2rcd13ifvqga0","pricing_plan_id":"cebpf4jnsgd1na2vs0mg"},{"bike_id":"4ab2c4a2-ebd5-4f1d-850d-13a53f45a265","system_id":"levelo_inurba_marseille","lat":43.25085,"lon":5.39529,"is_reserved":false,"is_disabled":false,"rental_uris":{"android":"levelo://app?vid=4ab2c4a2-ebd5-4f1d-850d-13a53f45a265","ios":"levelo://app?vid=4ab2c4a2-ebd5-4f1d-850d-13a53f45a265"},"vehicle_type_id":"4","last_reported":1743955804,"current_range_meters":16800,"station_id":"ce4bhm12rcd13ifvqgkg","pricing_plan_id":"cebpf4jnsgd1na2vs0mg"},{"bike_id":"3ad82b75-91de-4a74-a7e6-6bdb4a250987","system_id":"levelo_inurba_marseille","lat":43.21425,"lon":5.3422,"is_reserved":false,"is_disabled":false,"rental_uris":{"android":"levelo://app?vid=3ad82b75-91de-4a74-a7e6-6bdb4a250987","ios":"levelo://app?vid=3ad82b75-91de-4a74-a7e6-6bdb4a250987"},"vehicle_type_id":"4","last_reported":1743955804,"current_range_meters":16800,"station_id":"","pricing_plan_id":"cebpf4jnsgd1na2vs0mg"},{"bike_id":"e2ddb683-c032-4aaa-a46d-1b4ea338b015","system_id":"levelo_inurba_marseille","lat":43.30538,"lon":5.36556,"is_reserved":false,"is_disabled":false,"rental_uris":{"android":"levelo://app?vid=e2ddb683-c032-4aaa-a46d-1b4ea338b015","ios":"levelo://app?vid=e2ddb683-c032-4aaa-a46d-1b4ea338b015"},"vehicle_type_id":"4","last_reported":1743955804,"current_range_meters":16800,"station_id":"ce4bgs12rcd13ifvqcag","pricing_plan_id":"cebpf4jnsgd1na2vs0mg"},{"bike_id":"69f25506-685e-4847-9621-f4fa78a4dc47","system_id":"levelo_inurba_marseille","lat":43.22814,"lon":5.3492,"is_reserved":false,"is_disabled":false,"rental_uris":{"android":"levelo://app?vid=69f25506-685e-4847-9621-f4fa78a4dc47","ios":"levelo://app?vid=69f25506-685e-4847-9621-f4fa78a4dc47"},"vehicle_type_id":"4","last_reported":1743955804,"current_range_meters":16800,"station_id":"","pricing_plan_id":"cebpf4jnsgd1na2vs0mg"},{"bike_id":"017190fd-7833-46ce-9494-0e0bdee8423b","system_id":"levelo_inurba_marseille","lat":43.26807,"lon":5.40256,"is_reserved":false,"is_disabled":false,"rental_uris":{"android":"levelo://app?vid=017190fd-7833-46ce-9494-0e0bdee8423b","ios":"levelo://app?vid=017190fd-7833-46ce-9494-0e0bdee8423b"},