{"last_updated":1736342184,"ttl":60,"version":"2.2","data":{"bikes":[{"bike_id":"de9f3905-3e53-4990-b4ec-ecc42b728163","system_id":"levelo_inurba_marseille","lat":43.32369,"lon":5.38945,"is_reserved":false,"is_disabled":false,"rental_uris":{"android":"levelo://app?vid=de9f3905-3e53-4990-b4ec-ecc42b728163","ios":"levelo://app?vid=de9f3905-3e53-4990-b4ec-ecc42b728163"},"vehicle_type_id":"4","last_reported":1736342184,"current_range_meters":17200,"station_id":"ce4bhqp2rcd13ifvqhog","pricing_plan_id":"cebpf4jnsgd1na2vs0mg"},{"bike_id":"a3c187cb-66d2-4342-ab9b-574b9c8c1d43","system_id":"levelo_inurba_marseille","lat":43.29532,"lon":5.42252,"is_reserved":false,"is_disabled":false,"rental_uris":{"android":"levelo://app?vid=a3c187cb-66d2-4342-ab9b-574b9c8c1d43","ios":"levelo://app?vid=a3c187cb-66d2-4342-ab9b-574b9c8c1d43"},"vehicle_type_id":"4","last_reported":1736342184,"current_range_meters":36400,"station_id":"ce4bhph2rcd13ifvqhdg","pricing_plan_id":"cebpf4jnsgd1na2vs0mg"},{"bike_id":"651c9803-5972-421f-acea-8217f1a396ba","system_id":"levelo_inurba_marseille","lat":43.30956,"lon":5.39028,"is_reserved":false,"is_disabled":true,"rental_uris":{"android":"levelo://app?vid=651c9803-5972-421f-acea-8217f1a396ba","ios":"levelo://app?vid=651c9803-5972-421f-acea-8217f1a396ba"},"vehicle_type_id":"4","last_reported":1736342184,"current_range_meters":1200,"station_id":"ce4bgup2rcd13ifvqco0","pricing_plan_id":"cebpf4jnsgd1na2vs0mg"},{"bike_id":"ff5266a7-b04c-42f1-9886-755a74b70dde","system_id":"levelo_inurba_marseille","lat":43.30956,"lon":5.39053,"is_reserved":false,"is_disabled":false,"rental_uris":{"android":"levelo://app?vid=ff5266a7-b04c-42f1-9886-755a74b70dde","ios":"levelo://app?vid=ff5266a7-b04c-42f1-9886-755a74b70dde"},"vehicle_type_id":"4","last_reported":1736342184,"current_range_meters":37600,"station_id":"ce4bgup2rcd13ifvqco0","pricing_plan_id":"cebpf4jnsgd1na2vs0mg"},{"bike_id":"d447d665-9ebc-44e8-a3da-eabb86649cc3","system_id":"levelo_inurba_marseille","lat":43.26842,"lon":5.40257,"is_reserved":false,"is_disabled":false,"rental_uris":{"android":"levelo://app?vid=d447d665-9ebc-44e8-a3da-eabb86649cc3","ios":"levelo://app?vid=d447d665-9ebc-44e8-a3da-eabb86649cc3"},"vehicle_type_id":"4","last_reported":1736342184,"current_range_meters":38000,"station_id":"ce501612rcd8frsf0b60","pricing_plan_id":"cebpf4jnsgd1na2vs0mg"},{"bike_id":"cb61aaba-5a02-4a24-bd4b-70961154ff79","system_id":"levelo_inurba_marseille","lat":43.27554,"lon":5.38436,"is_reserved":false,"is_disabled":false,"rental_uris":{"android":"levelo://app?vid=cb61aaba-5a02-4a24-bd4b-70961154ff79","ios":"levelo://app?vid=cb61aaba-5a02-4a24-bd4b-70961154ff79"},"vehicle_type_id":"4","last_reported":1736342184,"current_range_meters":19200,"station_id":"ce4bhh92rcd13ifvqfi0","pricing_plan_id":"cebpf4jnsgd1na2vs0mg"},{"bike_id":"594a2010-d05d-4465-a76a-37b41e2fa375","system_id":"levelo_inurba_marseille","lat":43.31229,"lon":5.36859,"is_reserved":false,"is_disabled":false,"rental_uris":{"android":"levelo://app?vid=594a2010-d05d-4465-a76a-37b41e2fa375","ios":"levelo://app?vid=594a2010-d05d-4465-a76a-37b41e2fa375"},"vehicle_type_id":"4","last_reported":1736342184,"current_range_meters":11200,"station_id":"ce4bgl92rcd13ifvqbq0","pricing_plan_id":"cebpf4jnsgd1na2vs0mg"},{"bike_id":"63e414a9-60cb-47ae-bb7b-7ae88927049d","system_id":"levelo_inurba_marseille","lat":43.22931,"lon":5.353751,"is_reserved":false,"is_disabled":false,"rental_uris":{"android":"levelo://app?vid=63e414a9-60cb-47ae-bb7b-7ae88927049d","ios":"levelo://app?vid=63e414a9-60cb-47ae-bb7b-7ae88927049d"},"vehicle_type_id":"4","last_reported":1736342184,"current_range_meters":18000,"station_id":"ce4bhgh2rcd13ifvqfb0","pricing_plan_id":"cebpf4jnsgd1na2vs0mg"},{"bike_id":"d1244aa9-0aef-4cc0-95b0-1ab2bc0f68a2","system_id":"levelo_inurba_marseille","lat":43.27198,"lon":5.41004,"is_reserved":false,"is_disabled":false,"rental_uris":{"android":"levelo://app?vid=d1244aa9-0aef-4cc0-95b0-1ab2bc0f68a2","ios":"levelo://app?vid=d1244aa9-0aef-4cc0-95b0-1ab2bc0f68a2"},"vehicle_type_id":"4","last_reported":1736342184,"current_range_meters":38000,"station_id":"ce4bhl12rcd13ifvqgf0","pricing_plan_id":"cebpf4jnsgd1na2vs0mg"},{"bike_id":"95441836-7d57-4a6c-8cdb-64e7d50c6a32","system_id":"levelo_inurba_marseille","lat":43.25861,"lon":5.39905,"is_reserved":false,"is_disabled":false,"rental_uris":{"android":"levelo://app?vid=95441836-7d57-4a6c-8cdb-64e7d50c6a32","ios":"levelo://app?vid=95441836-7d57-4a6c-8cdb-64e7d50c6a32"},"vehicle_type_id":"4","last_reported":1736342184,"current_range_meters":38800,"station_id":"ce4bhl92rcd13ifvqghg","pricing_plan_id":"cebpf4jnsgd1na2vs0mg"},{"bike_id":"f65c6935-84b0-45a5-b8a2-08e620262b34","system_id":"levelo_inurba_marseille","lat":43.27316,"lon":5.39099,"is_reserved":false,"is_disabled":false,"rental_uris":{"android":"levelo://app?vid=f65c6935-84b0-45a5-b8a2-08e620262b34","ios":"levelo://app?vid=f65c6935-84b0-45a5-b8a2-08e620262b34"},"vehicle_type_id":"4","last_reported":1736342184,"current_range_meters":37600,"station_id":"ce4bhgp2rcd13ifvqfe0","pricing_plan_id":"cebpf4jnsgd1na2vs0mg"},{"bike_id":"3ed45608-fed4-4efa-9d09-a4524ba70561","system_id":"levelo_inurba_marseille","lat":43.29506,"lon":5.38723,"is_reserved":false,"is_disabled":false,"rental_uris":{"android":"levelo://app?vid=3ed45608-fed4-4efa-9d09-a4524ba70561","ios":"levelo://app?vid=3ed45608-fed4-4efa-9d09-a4524ba70561"},"vehicle_type_id":"4","last_reported":1736342184,"current_range_meters":4000,"station_id":"ce4bh612rcd13ifvqe6g","pricing_plan_id":"cebpf4jnsgd1na2vs0mg"},{"bike_id":"784c114c-6b4b-4d66-8437-8a364b7d7999","system_id":"levelo_inurba_marseille","lat":43.33758,"lon":5.39195,"is_reserved":false,"is_disabled":false,"rental_uris":{"android":"levelo://app?vid=784c114c-6b4b-4d66-8437-8a364b7d7999","ios":"levelo://app?vid=784c114c-6b4b-4d66-8437-8a364b7d7999"},"vehicle_type_id":"4","last_reported":1736342184,"current_range_meters":36000,"station_id":"ce4bhr92rcd13ifvqhsg","pricing_plan_id":"cebpf4jnsgd1na2vs0mg"},{"bike_id":"c2f190fc-d007-4429-8a58-fce535400ed7","system_id":"levelo_inurba_marseille","lat":43.29361,"lon":5.37859,"is_reserved":false,"is_disabled":false,"rental_uris":{"android":"levelo://app?vid=c2f190fc-d007-4429-8a58-fce535400ed7","ios":"levelo://app?vid=c2f190fc-d007-4429-8a58-fce535400ed7"},"vehicle_type_id":"4","last_reported":1736342184,"current_range_meters":36400,"station_id":"ce4bgjh2rcd13ifvqbf0","pricing_plan_id":"cebpf4jnsgd1na2vs0mg"},{"bike_id":"52866410-96f7-43df-bc30-b2bf09002294","system_id":"levelo_inurba_marseille","lat":43.27998,"lon":5.41662,"is_reserved":false,"is_disabled":true,"rental_uris":{"android":"levelo://app?vid=52866410-96f7-43df-bc30-b2bf09002294","ios":"levelo://app?vid=52866410-96f7-43df-bc30-b2bf09002294"},"vehicle_type_id":"4","last_reported":1736342184,"current_range_meters":29600,"station_id":"ce4bho12rcd13ifvqh1g","pricing_plan_id":"cebpf4jnsgd1na2vs0mg"},{"bike_id":"312c827e-2b01-490a-bff5-49f63cba507e","system_id":"levelo_inurba_marseille","lat":43.285452,"lon":5.390508,"is_reserved":false,"is_disabled":false,"rental_uris":{"android":"levelo://app?vid=312c827e-2b01-490a-bff5-49f63cba507e","ios":"levelo://app?vid=312c827e-2b01-490a-bff5-49f63cba507e"},"vehicle_type_id":"4","last_reported":1736342184,"current_range_meters":34000,"station_id":"ce4bhoh2rcd13ifvqh5g","pricing_plan_id":"cebpf4jnsgd1na2vs0mg"},{"bike_id":"57d3c3b7-7117-4d9a-a1f7-cdf52f2a7446","system_id":"levelo_inurba_marseille","lat":43.31323,"lon":5.39702,"is_reserved":false,"is_disabled":false,"rental_uris":{"android":"levelo://app?vid=57d3c3b7-7117-4d9a-a1f7-cdf52f2a7446","ios":"levelo://app?vid=57d3c3b7-7117-4d9a-a1f7-cdf52f2a7446"},"vehicle_type_id":"4","last_reported":1736342184,"current_range_meters":38800,"station_id":"ce4bgvp2rcd13ifvqcu0","pricing_plan_id":"cebpf4jnsgd1na2vs0mg"},{"bike_id":"88e50017-6ae6-4ea3-8898-841e9eaebe0c","system_id":"levelo_inurba_marseille","lat":43.27415,"lon":5.39434,"is_reserved":false,"is_disabled":false,"rental_uris":{"android":"levelo://app?vid=88e50017-6ae6-4ea3-8898-841e9eaebe0c","ios":"levelo://app?vid=88e50017-6ae6-4ea3-8898-841e9eaebe0c"},"vehicle_type_id":"4","last_reported":1736342184,"current_range_meters":29600,"station_id":"ce4bhdp2rcd13ifvqf20","pricing_plan_id":"cebpf4jnsgd1na2vs0mg"},{"bike_id":"181880e4-46aa-4a12-9bac-27fe3a058799","system_id":"levelo_inurba_marseille","lat":43.26712,"lon":5.38271,"is_reserved":false,"is_disabled":false,"rental_uris":{"android":"levelo://app?vid=181880e4-46aa-4a12-9bac-27fe3a058799","ios":"levelo://app?vid=181880e4-46aa-4a12-9bac-27fe3a058799"},"vehicle_type_id":"4","last_reported":1736342184,"current_range_meters":38800,"station_id":"ce4bhg92rcd13ifvqf90","pricing_plan_id":"cebpf4jnsgd1na2vs0mg"},{"bike_id":"f40a23e1-4db4-43c9-bf26-5d3436aadc87","system_id":"levelo_inurba_marseille","lat":43.2836,"lon":5.3863,"is_reserved":false,"is_disabled":true,"rental_uris":{"android":"levelo://app?vid=f40a23e1-4db4-43c9-bf26-5d3436aadc87","ios":"levelo://app?vid=f40a23e1-4db4-43c9-bf26-5d3436aadc87"},"vehicle_type_id":"4","last_reported":1736342184,"current_range_meters":38000,"station_id":"ce4bh492rcd13ifvqdvg","pricing_plan_id":"cebpf4jnsgd1na2vs0mg"},{"bike_id":"b8272bd9-f933-48f4-8864-e8c8377f6071","system_id":"levelo_inurba_marseille","lat":43.32536,"lon":5.41449,"is_reserved":false,"is_disabled":false,"rental_uris":{"android":"levelo://app?vid=b8272bd9-f933-48f4-8864-e8c8377f6071","ios":"levelo://app?vid=b8272bd9-f933-48f4-8864-e8c8377f6071"},"vehicle_type_id":"4","last_reported":1736342184,"current_range_meters":28400,"station_id":"ce4bhq12rcd13ifvqhhg","pricing_plan_id":"cebpf4jnsgd1na2vs0mg"},{"bike_id":"73eb524f-2d58-4a00-9fa5-76f6077910dd","system_id":"levelo_inurba_marseille","lat":43.2318,"lon":5.39993,"is_reserved":false,"is_disabled":true,"rental_uris":{"android":"levelo://app?vid=73eb524f-2d58-4a00-9fa5-76f6077910dd","ios":"levelo://app?vid=73eb524f-2d58-4a00-9fa5-76f6077910dd"},"vehicle_type_id":"4","last_reported":1736342184,"current_range_meters":16000,"station_id":"ce4bhn12rcd13ifvqgqg","pricing_plan_id":"cebpf4jnsgd1na2vs0mg"},{"bike_id":"c13e404c-3822-47fa-98e3-b2f91eef48ac","system_id":"levelo_inurba_marseille","lat":43.28951,"lon":5.39703,"is_reserved":false,"is_disabled":false,"rental_uris":{"android":"levelo://app?vid=c13e404c-3822-47fa-98e3-b2f91eef48ac","ios":"levelo://app?vid=c13e404c-3822-47fa-98e3-b2f91eef48ac"},"vehicle_type_id":"4","last_reported":1736342184,"current_range_meters":17200,"station_id":"","pricing_plan_id":"cebpf4jnsgd1na2vs0mg"},{"bike_id":"a81f0b25-2849-4974-9edb-1a08c6c0db79","system_id":"levelo_inurba_marseille","lat":43.23152,"lon":5.43705,"is_reserved":false,"is_disabled":false,"rental_uris":{"android":"levelo://app?vid=a81f0b25-2849-4974-9edb-1a08c6c0db79","ios":"levelo://app?vid=a81f0b25-2849-4974-9edb-1a08c6c0db79"},"vehicle_type_id":"4","last_reported":1736342184,"current_range_meters":39200,"station_id":"ce4bhmp2rcd13ifvqgog","pricing_plan_id":"cebpf4jnsgd1na2vs0mg"},{"bike_id":"032ad142-d83c-430e-8fb8-61d451007e94","system_id":"levelo_inurba_marseille","lat":43.29067,"lon":5.37159,"is_reserved":false,"is_disabled":false,"rental_uris":{"android":"levelo://app?vid=032ad142-d83c-430e-8fb8-61d451007e94","ios":"levelo://app?vid=032ad142-d83c-430e-8fb8-61d451007e94"},"vehicle_type_id":"4","last_reported":1736342184,"current_range_meters":22800,"station_id":"ce4bh5p2rcd13ifvqe4g","pricing_plan_id":"cebpf4jnsgd1na2vs0mg"},{"bike_id":"3338ca9c-b9dc-4937-8362-1f230b4c76db","system_id":"levelo_inurba_marseille","lat":43.31359,"lon":5.36712,"is_reserved":false,"is_disabled":false,"rental_uris":{"android":"levelo://app?vid=3338ca9c-b9dc-4937-8362-1f230b4c76db","ios":"levelo://app?vid=3338ca9c-b9dc-4937-8362-1f230b4c76db"},"vehicle_type_id":"4","last_reported":1736342184,"current_range_meters":25200,"station_id":"","pricing_plan_id":"cebpf4jnsgd1na2vs0mg"},{"bike_id":"d7b0780e-cbec-4acb-869e-f1105dd19d2e","system_id":"levelo_inurba_marseille","lat":43.2931,"lon":5.37701,"is_reserved":false,"is_disabled":false,"rental_uris":{"android":"levelo://app?vid=d7b0780e-cbec-4acb-869e-f1105dd19d2e","ios":"levelo://app?vid=d7b0780e-cbec-4acb-869e-f1105dd19d2e"},"vehicle_type_id":"4","last_reported":1736342184,"current_range_meters":12400,"station_id":"ce4bgr92rcd13ifvqc6g","pricing_plan_id":"cebpf4jnsgd1na2vs0mg"},{"bike_id":"e9811af6-2b58-44bf-8a8f-1cf010738c20","system_id":"levelo_inurba_marseille","lat":43.23194,"lon":5.39994,"is_reserved":false,"is_disabled":false,"rental_uris":{"android":"levelo://app?vid=e9811af6-2b58-44bf-8a8f-1cf010738c20","ios":"levelo://app?vid=e9811af6-2b58-44bf-8a8f-1cf010738c20"},"vehicle_type_id":"4","last_reported":1736342184,"current_range_meters":27600,"station_id":"ce4bhn12rcd13ifvqgqg","pricing_plan_id":"cebpf4jnsgd1na2vs0mg"},{"bike_id":"0a6c8bdc-51a9-4430-8e98-45f35ef647a1","system_id":"levelo_inurba_marseille","lat":43.30139,"lon":5.37431,"is_reserved":false,"is_disabled":true,"rental_uris":{"android":"levelo://app?vid=0a6c8bdc-51a9-4430-8e98-45f35ef647a1","ios":"levelo://app?vid=0a6c8bdc-51a9-4430-8e98-45f35ef647a1"},"vehicle_type_id":"4","last_reported":1736342184,"current_range_meters":0,"station_id":"ce4bgs92rcd13ifvqcc0","pricing_plan_id":"cebpf4jnsgd1na2vs0mg"},{"bike_id":"4746bea6-71d3-45b9-aef3-8bc50942d52a","system_id":"levelo_inurba_marseille","lat":43.28413,"lon":5.35003,"is_reserved":false,"is_disabled":false,"rental_uris":{"android":"levelo://app?vid=4746bea6-71d3-45b9-aef3-8bc50942d52a","ios":"levelo://app?vid=4746bea6-71d3-45b9-aef3-8bc50942d52a"},"vehicle_type_id":"4","last_reported":1736342184,"current_range_meters":18800,"station_id":"ce4bhbh2rcd13ifvqepg","pricing_plan_id":"cebpf4jnsgd1na2vs0mg"},{"bike_id":"dfcc14da-7aef-4d0c-99a2-b83ed10a02b9","system_id":"levelo_inurba_marseille","lat":43.28412,"lon":5.37511,"is_reserved":false,"is_disabled":false,"rental_uris":{"android":"levelo://app?vid=dfcc14da-7aef-4d0c-99a2-b83ed10a02b9","ios":"levelo://app?vid=dfcc14da-7aef-4d0c-99a2-b83ed10a02b9"},"vehicle_type_id":"4","last_reported":1736342184,"current_range_meters":14400,"station_id":"ce4bh412rcd13ifvqds0","pricing_plan_id":"cebpf4jnsgd1na2vs0mg"},{"bike_id":"6ef0cd9e-5e9e-4f7c-b5ca-9f2847ac70b7","system_id":"levelo_inurba_marseille","lat":43.29007,"lon":5.35616,"is_reserved":false,"is_disabled":false,"rental_uris":{"android":"levelo://app?vid=6ef0cd9e-5e9e-4f7c-b5ca-9f2847ac70b7","ios":"levelo://app?vid=6ef0cd9e-5e9e-4f7c-b5ca-9f2847ac70b7"},"vehicle_type_id":"4","last_reported":1736342184,"current_range_meters":39200,"station_id":"ce4bhb92rcd13ifvqen0","pricing_plan_id":"cebpf4jnsgd1na2vs0mg"},{"bike_id":"cb2b6336-78ab-4eb9-af67-e32e664641da","system_id":"levelo_inurba_marseille","lat":43.2315,"lon":5.43709,"is_reserved":false,"is_disabled":false,"rental_uris":{"android":"levelo://app?vid=cb2b6336-78ab-4eb9-af67-e32e664641da","ios":"levelo://app?vid=cb2b6336-78ab-4eb9-af67-e32e664641da"},"vehicle_type_id":"4","last_reported":1736342184,"current_range_meters":39200,"station_id":"ce4bhmp2rcd13ifvqgog","pricing_plan_id":"cebpf4jnsgd1na2vs0mg"},{"bike_id":"568b062a-58fe-46af-9ff5-d60c977e4bbf","system_id":"levelo_inurba_marseille","lat":43.28412,"lon":5.37525,"is_reserved":false,"is_disabled":true,"rental_uris":{"android":"levelo://app?vid=568b062a-58fe-46af-9ff5-d60c977e4bbf","ios":"levelo://app?vid=568b062a-58fe-46af-9ff5-d60c977e4bbf"},"vehicle_type_id":"4","last_reported":1736342184,"current_range_meters":400,"station_id":"ce4bh412rcd13ifvqds0","pricing_plan_id":"cebpf4jnsgd1na2vs0mg"},{"bike_id":"4505ba7e-e544-414e-b06b-e1d1cb5e9bc4","system_id":"levelo_inurba_marseille","lat":43.3021,"lon":5.39488,"is_reserved":false,"is_disabled":false,"rental_uris":{"android":"levelo://app?vid=4505ba7e-e544-414e-b06b-e1d1cb5e9bc4","ios":"levelo://app?vid=4505ba7e-e544-414e-b06b-e1d1cb5e9bc4"},"vehicle_type_id":"4","last_reported":1736342184,"current_range_meters":38000,"station_id":"ce4bh0p2rcd13ifvqd70","pricing_plan_id":"cebpf4jnsgd1na2vs0mg"},{"bike_id":"d9adb59d-5ab0-4acd-bf60-0e285c5f6cb9","system_id":"levelo_inurba_marseille","lat":43.28614,"lon":5.35111,"is_reserved":false,"is_disabled":false,"rental_uris":{"android":"levelo://app?vid=d9adb59d-5ab0-4acd-bf60-0e285c5f6cb9","ios":"levelo://app?vid=d9adb59d-5ab0-4acd-bf60-0e285c5f6cb9"},"vehicle_type_id":"4","last_reported":1736342184,"current_range_meters":31200,"station_id":"ce4bhch2rcd13ifvqeug","pricing_plan_id":"cebpf4jnsgd1na2vs0mg"},{"bike_id":"e58b5896-fd72-4329-9a3f-0bfd1fd7b28c","system_id":"levelo_inurba_marseille","lat":43.29363,"lon":5.37869,"is_reserved":false,"is_disabled":false,"rental_uris":{"android":"levelo://app?vid=e58b5896-fd72-4329-9a3f-0bfd1fd7b28c","ios":"levelo://app?vid=e58b5896-fd72-4329-9a3f-0bfd1fd7b28c"},"vehicle_type_id":"4","last_reported":1736342184,"current_range_meters":38800,"station_id":"ce4bgjh2rcd13ifvqbf0","pricing_plan_id":"cebpf4jnsgd1na2vs0mg"},{"bike_id":"be4c59f4-a498-44be-a430-245c96b05e75","system_id":"levelo_inurba_marseille","lat":43.32848,"lon":5.39162,"is_reserved":false,"is_disabled":false,"rental_uris":{"android":"levelo://app?vid=be4c59f4-a498-44be-a430-245c96b05e75","ios":"levelo://app?vid=be4c59f4-a498-44be-a430-245c96b05e75"},"vehicle_type_id":"4","last_reported":1736342184,"current_range_meters":16400,"station_id":"","pricing_plan_id":"cebpf4jnsgd1na2vs0mg"},{"bike_id":"feeeae9a-4bcc-477a-bc8c-e9391fa8aedd","system_id":"levelo_inurba_marseille","lat":43.29171,"lon":5.3931,"is_reserved":false,"is_disabled":true,"rental_uris":{"android":"levelo://app?vid=feeeae9a-4bcc-477a-bc8c-e9391fa8aedd","ios":"levelo://app?vid=feeeae9a-4bcc-477a-bc8c-e9391fa8aedd"},"vehicle_type_id":"4","last_reported":1736342184,"current_range_meters":3600,"station_id":"ce4bh192rcd13ifvqdd0","pricing_plan_id":"cebpf4jnsgd1na2vs0mg"},{"bike_id":"2a08f733-0f8c-4cb9-b45c-2a502029e158","system_id":"levelo_inurba_marseille","lat":43.23152,"lon":5.437145,"is_reserved":false,"is_disabled":false,"rental_uris":{"android":"levelo://app?vid=2a08f733-0f8c-4cb9-b45c-2a502029e158","ios":"levelo://app?vid=2a08f733-0f8c-4cb9-b45c-2a502029e158"},"vehicle_type_id":"4","last_reported":1736342184,"current_range_meters":38800,"station_id":"ce4bhmp2rcd13ifvqgog","pricing_plan_id":"cebpf4jnsgd1na2vs0mg"},{"bike_id":"dbe4d7d2-95f9-4a28-b000-f9ac7c3f52eb","system_id":"levelo_inurba_marseille","lat":43.29205,"lon":5.39313,"is_reserved":false,"is_disabled":true,"rental_uris":{"android":"levelo://app?vid=dbe4d7d2-95f9-4a28-b000-f9ac7c3f52eb","ios":"levelo://app?vid=dbe4d7d2-95f9-4a28-b000-f9ac7c3f52eb"},"vehicle_type_id":"4","last_reported":1736342184,"current_range_meters":3600,"station_id":"ce4bh192rcd13ifvqdd0","pricing_plan_id":"cebpf4jnsgd1na2vs0mg"},{"bike_id":"163a389b-7b2c-4561-8824-3d85f5ff761b","system_id":"levelo_inurba_marseille","lat":43.29718,"lon":5.37697,"is_reserved":false,"is_disabled":false,"rental_uris":{"android":"levelo://app?vid=163a389b-7b2c-4561-8824-3d85f5ff761b","ios":"levelo://app?vid=163a389b-7b2c-4561-8824-3d85f5ff761b"},"vehicle_type_id":"4","last_reported":1736342184,"current_range_meters":12800,"station_id":"ce4bgkh2rcd13ifvqbl0","pricing_plan_id":"cebpf4jnsgd1na2vs0mg"},{"bike_id":"b02ae6ee-06d8-4b9f-9872-c8fcf9b7576a","system_id":"levelo_inurba_marseille","lat":43.30537,"lon":5.36528,"is_reserved":false,"is_disabled":true,"rental_uris":{"android":"levelo://app?vid=b02ae6ee-06d8-4b9f-9872-c8fcf9b7576a","ios":"levelo://app?vid=b02ae6ee-06d8-4b9f-9872-c8fcf9b7576a"},"vehicle_type_id":"4","last_reported":1736342184,"current_range_meters":25200,"station_id":"ce4bgs12rcd13ifvqcag","pricing_plan_id":"cebpf4jnsgd1na2vs0mg"},{"bike_id":"79863e65-a4a7-4cab-904f-a8d219f20ec8","system_id":"levelo_inurba_marseille","lat":43.31166,"lon":5.38718,"is_reserved":false,"is_disabled":false,"rental_uris":{"android":"levelo://app?vid=79863e65-a4a7-4cab-904f-a8d219f20ec8","ios":"levelo://app?vid=79863e65-a4a7-4cab-904f-a8d219f20ec8"},"vehicle_type_id":"4","last_reported":1736342184,"current_range_meters":39200,"station_id":"ce4bgv12rcd13ifvqcp0","pricing_plan_id":"cebpf4jnsgd1na2vs0mg"},{"bike_id":"1b1b7ebb-dc7a-44f7-ae39-416f31ab8e6a","system_id":"levelo_inurba_marseille","lat":43.2669,"lon":5.38317,"is_reserved":false,"is_disabled":false,"rental_uris":{"android":"levelo://app?vid=1b1b7ebb-dc7a-44f7-ae39-416f31ab8e6a","ios":"levelo://app?vid=1b1b7ebb-dc7a-44f7-ae39-416f31ab8e6a"},"vehicle_type_id":"4","last_reported":1736342184,"current_range_meters":21600,"station_id":"ce4bhg92rcd13ifvqf90","pricing_plan_id":"cebpf4jnsgd1na2vs0mg"},{"bike_id":"9aec225d-a400-4174-9206-a94af0438f62","system_id":"levelo_inurba_marseille","lat":43.29554,"lon":5.42271,"is_reserved":false,"is_disabled":false,"rental_uris":{"android":"levelo://app?vid=9aec225d-a400-4174-9206-a94af0438f62","ios":"levelo://app?vid=9aec225d-a400-4174-9206-a94af0438f62"},"vehicle_type_id":"4","last_reported":1736342184,"current_range_meters":11200,"station_id":"ce4bhph2rcd13ifvqhdg","pricing_plan_id":"cebpf4jnsgd1na2vs0mg"},{"bike_id":"c15b2fc8-4db0-4c19-bb23-db28d8cc46ec","system_id":"levelo_inurba_marseille","lat":43.30946,"lon":5.3903,"is_reserved":false,"is_disabled":false,"rental_uris":{"android":"levelo://app?vid=c15b2fc8-4db0-4c19-bb23-db28d8cc46ec","ios":"levelo://app?vid=c15b2fc8-4db0-4c19-bb23-db28d8cc46ec"},"vehicle_type_id":"4","last_reported":1736342184,"current_range_meters":23200,"station_id":"ce4bgup2rcd13ifvqco0","pricing_plan_id":"cebpf4jnsgd1na2vs0mg"},{"bike_id":"951ce007-9c43-48a8-87a0-518f84e29e82","system_id":"levelo_inurba_marseille","lat":43.24648,"lon":5.3889,"is_reserved":false,"is_disabled":false,"rental_uris":{"android":"levelo://app?vid=951ce007-9c43-48a8-87a0-518f84e29e82","ios":"levelo://app?vid=951ce007-9c43-48a8-87a0-518f84e29e82"},"vehicle_type_id":"4","last_reported":1736342184,"current_range_meters":39200,"station_id":"ce4bhg12rcd13ifvqf60","pricing_plan_id":"cebpf4jnsgd1na2vs0mg"},{"bike_id":"f406b84f-1b77-440c-b408-f780c4357565","system_id":"levelo_inurba_marseille","lat":43.27943,"lon":5.41036,"is_reserved":false,"is_disabled":false,"rental_uris":{"android":"levelo://app?vid=f406b84f-1b77-440c-b408-f780c4357565","ios":"levelo://app?vid=f406b84f-1b77-440c-b408-f780c4357565"},"vehicle_type_id":"4","last_reported":1736342184,"current_range_meters":35600,"station_id":"ce4bhnp2rcd13ifvqh0g","pricing_plan_id":"cebpf4jnsgd1na2vs0mg"},{"bike_id":"9cff0fbb-5bb0-4738-9933-ca250cffc362","system_id":"levelo_inurba_marseille","lat":43.28254,"lon":5.350766,"is_reserved":false,"is_disabled":false,"rental_uris":{"android":"levelo://app?vid=9cff0fbb-5bb0-4738-9933-ca250cffc362","ios":"levelo://app?vid=9cff0fbb-5bb0-4738-9933-ca250cffc362"},"vehicle_type_id":"4","last_reported":1736342184,"current_range_meters":6400,"station_id":"ce4bhbp2rcd13ifvqerg","pricing_plan_id":"cebpf4jnsgd1na2vs0mg"},{"bike_id":"4aced99d-c84f-4807-ae40-b3d6686ceb2d","system_id":"levelo_inurba_marseille","lat":43.29714,"lon":5.37681,"is_reserved":false,"is_disabled":false,"rental_uris":{"android":"levelo://app?vid=4aced99d-c84f-4807-ae40-b3d6686ceb2d","ios":"levelo://app?vid=4aced99d-c84f-4807-ae40-b3d6686ceb2d"},"vehicle_type_id":"4","last_reported":1736342184,"current_range_meters":38800,"station_id":"ce4bgkh2rcd13ifvqbl0","pricing_plan_id":"cebpf4jnsgd1na2vs0mg"},{"bike_id":"664dca7b-df4f-4b83-bb6e-bc731aaae690","system_id":"levelo_inurba_marseille","lat":43.28266,"lon":5.35077,"is_reserved":false,"is_disabled":false,"rental_uris":{"android":"levelo://app?vid=664dca7b-df4f-4b83-bb6e-bc731aaae690","ios":"levelo://app?vid=664dca7b-df4f-4b83-bb6e-bc731aaae690"},"vehicle_type_id":"4","last_reported":1736342184,"current_range_meters":34000,"station_id":"ce4bhbp2rcd13ifvqerg","pricing_plan_id":"cebpf4jnsgd1na2vs0mg"},{"bike_id":"5994fa8b-967d-4ef9-9eb1-e4a4a6b89871","system_id":"levelo_inurba_marseille","lat":43.23151,"lon":5.43716,"is_reserved":false,"is_disabled":false,"rental_uris":{"android":"levelo://app?vid=5994fa8b-967d-4ef9-9eb1-e4a4a6b89871","ios":"levelo://app?vid=5994fa8b-967d-4ef9-9eb1-e4a4a6b89871"},"vehicle_type_id":"4","last_reported":1736342184,"current_range_meters":13600,"station_id":"ce4bhmp2rcd13ifvqgog","pricing_plan_id":"cebpf4jnsgd1na2vs0mg"},{"bike_id":"f5ca1501-67dc-4227-a538-3638c9573471","system_id":"levelo_inurba_marseille","lat":43.337551,"lon":5.374525,"is_reserved":false,"is_disabled":false,"rental_uris":{"android":"levelo://app?vid=f5ca1501-67dc-4227-a538-3638c9573471","ios":"levelo://app?vid=f5ca1501-67dc-4227-a538-3638c9573471"},"vehicle_type_id":"4","last_reported":1736342184,"current_range_meters":38800,"station_id":"","pricing_plan_id":"cebpf4jnsgd1na2vs0mg"},{"bike_id":"bd93e039-8312-422d-b562-d45f6831b1fa","system_id":"levelo_inurba_marseille","lat":43.26543,"lon":5.37325,"is_reserved":false,"is_disabled":false,"rental_uris":{"android":"levelo://app?vid=bd93e039-8312-422d-b562-d45f6831b1fa","ios":"levelo://app?vid=bd93e039-8312-422d-b562-d45f6831b1fa"},"vehicle_type_id":"4","last_reported":1736342184,"current_range_meters":27200,"station_id":"ce4bhg12rcd13ifvqf70","pricing_plan_id":"cebpf4jnsgd1na2vs0mg"},{"bike_id":"6426e0fd-c201-49c8-a027-441aa2a7ec05","system_id":"levelo_inurba_marseille","lat":43.26202,"lon":5.37933,"is_reserved":false,"is_disabled":false,"rental_uris":{"android":"levelo://app?vid=6426e0fd-c201-49c8-a027-441aa2a7ec05","ios":"levelo://app?vid=6426e0fd-c201-49c8-a027-441aa2a7ec05"},"vehicle_type_id":"4","last_reported":1736342184,"current_range_meters":20000,"station_id":"ce4bhjp2rcd13ifvqg90","pricing_plan_id":"cebpf4jnsgd1na2vs0mg"},{"bike_id":"e0c5bcca-f38c-4415-8d3c-64dad8e411d9","system_id":"levelo_inurba_marseille","lat":43.27378,"lon":5.36261,"is_reserved":false,"is_disabled":false,"rental_uris":{"android":"levelo://app?vid=e0c5bcca-f38c-4415-8d3c-64dad8e411d9","ios":"levelo://app?vid=e0c5bcca-f38c-4415-8d3c-64dad8e411d9"},"vehicle_type_id":"4","last_reported":1736342184,"current_range_meters":39200,"station_id":"ce4bhbh2rcd13ifvqeo0","pricing_plan_id":"cebpf4jnsgd1na2vs0mg"},{"bike_id":"80edce56-1998-42da-9921-1a899ec3b896","system_id":"levelo_inurba_marseille","lat":43.29365,"lon":5.37846,"is_reserved":false,"is_disabled":false,"rental_uris":{"android":"levelo://app?vid=80edce56-1998-42da-9921-1a899ec3b896","ios":"levelo://app?vid=80edce56-1998-42da-9921-1a899ec3b896"},"vehicle_type_id":"4","last_reported":1736342184,"current_range_meters":8000,"station_id":"ce4bgjh2rcd13ifvqbf0","pricing_plan_id":"cebpf4jnsgd1na2vs0mg"},{"bike_id":"d3086a9e-7d4f-4ee6-8f19-5f5c4dfc2ce5","system_id":"levelo_inurba_marseille","lat":43.29537,"lon":5.3856,"is_reserved":false,"is_disabled":false,"rental_uris":{"android":"levelo://app?vid=d3086a9e-7d4f-4ee6-8f19-5f5c4dfc2ce5","ios":"levelo://app?vid=d3086a9e-7d4f-4ee6-8f19-5f5c4dfc2ce5"},"vehicle_type_id":"4","last_reported":1736342184,"current_range_meters":36400,"station_id":"ce4bgih2rcd13ifvqba0","pricing_plan_id":"cebpf4jnsgd1na2vs0mg"},{"bike_id":"87cd4c8e-dd31-49cb-a754-0e97614559ef","system_id":"levelo_inurba_marseille","lat":43.29375,"lon":5.37862,"is_reserved":false,"is_disabled":false,"rental_uris":{"android":"levelo://app?vid=87cd4c8e-dd31-49cb-a754-0e97614559ef","ios":"levelo://app?vid=87cd4c8e-dd31-49cb-a754-0e97614559ef"},"vehicle_type_id":"4","last_reported":1736342184,"current_range_meters":31200,"station_id":"ce4bgjh2rcd13ifvqbf0","pricing_plan_id":"cebpf4jnsgd1na2vs0mg"},{"bike_id":"afd4d053-5b2c-4b95-974c-108689eb1cdd","system_id":"levelo_inurba_marseille","lat":43.27192,"lon":5.40993,"is_reserved":false,"is_disabled":false,"rental_uris":{"android":"levelo://app?vid=afd4d053-5b2c-4b95-974c-108689eb1cdd","ios":"levelo://app?vid=afd4d053-5b2c-4b95-974c-108689eb1cdd"},"vehicle_type_id":"4","last_reported":1736342184,"current_range_meters":38400,"station_id":"ce4bhl12rcd13ifvqgf0","pricing_plan_id":"cebpf4jnsgd1na2vs0mg"},{"bike_id":"07679ad1-be4f-4432-9fdb-e9d0c1add1ce","system_id":"levelo_inurba_marseille","lat":43.2873,"lon":5.37944,"is_reserved":false,"is_disabled":false,"rental_uris":{"android":"levelo://app?vid=07679ad1-be4f-4432-9fdb-e9d0c1add1ce","ios":"levelo://app?vid=07679ad1-be4f-4432-9fdb-e9d0c1add1ce"},"vehicle_type_id":"4","last_reported":1736342184,"current_range_meters":12400,"station_id":"ce4bh9p2rcd13ifvqec0","pricing_plan_id":"cebpf4jnsgd1na2vs0mg"},{"bike_id":"899ef30c-0b0f-41d3-9f93-6dcdfa8edcb1","system_id":"levelo_inurba_marseille","lat":43.30547,"lon":5.36707,"is_reserved":false,"is_disabled":false,"rental_uris":{"android":"levelo://app?vid=899ef30c-0b0f-41d3-9f93-6dcdfa8edcb1","ios":"levelo://app?vid=899ef30c-0b0f-41d3-9f93-6dcdfa8edcb1"},"vehicle_type_id":"4","last_reported":1736342184,"current_range_meters":7200,"station_id":"ce4bgrp2rcd13ifvqc9g","pricing_plan_id":"cebpf4jnsgd1na2vs0mg"},{"bike_id":"14a74ccd-d4fd-4770-b335-58eb0fd745c6","system_id":"levelo_inurba_marseille","lat":43.3147,"lon":5.37271,"is_reserved":false,"is_disabled":true,"rental_uris":{"android":"levelo://app?vid=14a74ccd-d4fd-4770-b335-58eb0fd745c6","ios":"levelo://app?vid=14a74ccd-d4fd-4770-b335-58eb0fd745c6"},"vehicle_type_id":"4","last_reported":1736342184,"current_range_meters":8800,"station_id":"ce4bgt12rcd13ifvqcd0","pricing_plan_id":"cebpf4jnsgd1na2vs0mg"},{"bike_id":"7e647b87-ee39-48c8-8a57-8ca415c7293d","system_id":"levelo_inurba_marseille","lat":43.23066,"lon":5.35474,"is_reserved":false,"is_disabled":false,"rental_uris":{"android":"levelo://app?vid=7e647b87-ee39-48c8-8a57-8ca415c7293d","ios":"levelo://app?vid=7e647b87-ee39-48c8-8a57-8ca415c7293d"},"vehicle_type_id":"4","last_reported":1736342184,"current_range_meters":37600,"station_id":"cpo3342slgdg3j2ifvpg","pricing_plan_id":"cebpf4jnsgd1na2vs0mg"},{"bike_id":"0b2ae5f0-35aa-4038-afed-c6f5edc043e0","system_id":"levelo_inurba_marseille","lat":43.2737,"lon":5.36251,"is_reserved":false,"is_disabled":false,"rental_uris":{"android":"levelo://app?vid=0b2ae5f0-35aa-4038-afed-c6f5edc043e0","ios":"levelo://app?vid=0b2ae5f0-35aa-4038-afed-c6f5edc043e0"},"vehicle_type_id":"4","last_reported":1736342184,"current_range_meters":36800,"station_id":"ce4bhbh2rcd13ifvqeo0","pricing_plan_id":"cebpf4jnsgd1na2vs0mg"},{"bike_id":"ec871138-61ad-41e1-acd3-7372904dde2d","system_id":"levelo_inurba_marseille","lat":43.24552,"lon":5.39534,"is_reserved":false,"is_disabled":false,"rental_uris":{"android":"levelo://app?vid=ec871138-61ad-41e1-acd3-7372904dde2d","ios":"levelo://app?vid=ec871138-61ad-41e1-acd3-7372904dde2d"},"vehicle_type_id":"4","last_reported":1736342184,"current_range_meters":38800,"station_id":"ce4bhlp2rcd13ifvqgjg","pricing_plan_id":"cebpf4jnsgd1na2vs0mg"},{"bike_id":"e04da36c-8403-43af-adce-e499b8ddff99","system_id":"levelo_inurba_marseille","lat":43.23152,"lon":5.43723,"is_reserved":false,"is_disabled":false,"rental_uris":{"android":"levelo://app?vid=e04da36c-8403-43af-adce-e499b8ddff99","ios":"levelo://app?vid=e04da36c-8403-43af-adce-e499b8ddff99"},"vehicle_type_id":"4","last_reported":1736342184,"current_range_meters":20400,"station_id":"ce4bhmp2rcd13ifvqgog","pricing_plan_id":"cebpf4jnsgd1na2vs0mg"},{"bike_id":"5549b556-b9e3-4064-9298-90d9f253d1c9","system_id":"levelo_inurba_marseille","lat":43.29276,"lon":5.36846,"is_reserved":false,"is_disabled":false,"rental_uris":{"android":"levelo://app?vid=5549b556-b9e3-4064-9298-90d9f253d1c9","ios":"levelo://app?vid=5549b556-b9e3-4064-9298-90d9f253d1c9"},"vehicle_type_id":"4","last_reported":1736342184,"current_range_meters":32800,"station_id":"ce4bhbp2rcd13ifvqesg","pricing_plan_id":"cebpf4jnsgd1na2vs0mg"},{"bike_id":"295b1cd6-ba86-4be2-a2a5-dfa1adb3f42f","system_id":"levelo_inurba_marseille","lat":43.31061,"lon":5.40102,"is_reserved":false,"is_disabled":false,"rental_uris":{"android":"levelo://app?vid=295b1cd6-ba86-4be2-a2a5-dfa1adb3f42f","ios":"levelo://app?vid=295b1cd6-ba86-4be2-a2a5-dfa1adb3f42f"},"vehicle_type_id":"4","last_reported":1736342184,"current_range_meters":20800,"station_id":"","pricing_plan_id":"cebpf4jnsgd1na2vs0mg"},{"bike_id":"1ea4cc37-1d56-4b17-8e08-f68c1d20aa61","system_id":"levelo_inurba_marseille","lat":43.28353,"lon":5.38106,"is_reserved":false,"is_disabled":false,"rental_uris":{"android":"levelo://app?vid=1ea4cc37-1d56-4b17-8e08-f68c1d20aa61","ios":"levelo://app?vid=1ea4cc37-1d56-4b17-8e08-f68c1d20aa61"},"vehicle_type_id":"4","last_reported":1736342184,"current_range_meters":27200,"station_id":"ce4bh412rcd13ifvqdr0","pricing_plan_id":"cebpf4jnsgd1na2vs0mg"},{"bike_id":"b1e1ca3c-1c29-40ff-b3b4-889bde8beca2","system_id":"levelo_inurba_marseille","lat":43.25821,"lon":5.39414,"is_reserved":false,"is_disabled":false,"rental_uris":{"android":"levelo://app?vid=b1e1ca3c-1c29-40ff-b3b4-889bde8beca2","ios":"levelo://app?vid=b1e1ca3c-1c29-40ff-b3b4-889bde8beca2"},"vehicle_type_id":"4","last_reported":1736342184,"current_range_meters":38800,"station_id":"ce4bhip2rcd13ifvqft0","pricing_plan_id":"cebpf4jnsgd1na2vs0mg"},{"bike_id":"11d07089-c5fa-485c-a301-bf7c13747aef","system_id":"levelo_inurba_marseille","lat":43.28602,"lon":5.3705,"is_reserved":false,"is_disabled":false,"rental_uris":{"android":"levelo://app?vid=11d07089-c5fa-485c-a301-bf7c13747aef","ios":"levelo://app?vid=11d07089-c5fa-485c-a301-bf7c13747aef"},"vehicle_type_id":"4","last_reported":1736342184,"current_range_meters":32800,"station_id":"ce4bht12rcd13ifvqi60","pricing_plan_id":"cebpf4jnsgd1na2vs0mg"},{"bike_id":"5d634d21-5260-4277-8951-6fdfa72aa1c3","system_id":"levelo_inurba_marseille","lat":43.26791,"lon":5.38453,"is_reserved":false,"is_disabled":false,"rental_uris":{"android":"levelo://app?vid=5d634d21-5260-4277-8951-6fdfa72aa1c3","ios":"levelo://app?vid=5d634d21-5260-4277-8951-6fdfa72aa1c3"},"vehicle_type_id":"4","last_reported":1736342184,"current_range_meters":31200,"station_id":"ce4bhh92rcd13ifvqfh0","pricing_plan_id":"cebpf4jnsgd1na2vs0mg"},{"bike_id":"176fd75c-0057-40cd-94e4-3404fb7e7d3b","system_id":"levelo_inurba_marseille","lat":43.3079,"lon":5.37652,"is_reserved":false,"is_disabled":true,"rental_uris":{"android":"levelo://app?vid=176fd75c-0057-40cd-94e4-3404fb7e7d3b","ios":"levelo://app?vid=176fd75c-0057-40cd-94e4-3404fb7e7d3b"},"vehicle_type_id":"4","last_reported":1736342184,"current_range_meters":38000,"station_id":"","pricing_plan_id":"cebpf4jnsgd1na2vs0mg"},{"bike_id":"80716bfe-ce4c-458a-a817-cd7a4ffc01a2","system_id":"levelo_inurba_marseille","lat":43.31718,"lon":5.37783,"is_reserved":false,"is_disabled":false,"rental_uris":{"android":"levelo://app?vid=80716bfe-ce4c-458a-a817-cd7a4ffc01a2","ios":"levelo://app?vid=80716bfe-ce4c-458a-a817-cd7a4ffc01a2"},"vehicle_type_id":"4","last_reported":1736342184,"current_range_meters":30800,"station_id":"ce4bgth2rcd13ifvqch0","pricing_plan_id":"cebpf4jnsgd1na2vs0mg"},{"bike_id":"b5dee396-6744-4f01-a88a-ed1add7f4217","system_id":"levelo_inurba_marseille","lat":43.30526,"lon":5.36722,"is_reserved":false,"is_disabled":false,"rental_uris":{"android":"levelo://app?vid=b5dee396-6744-4f01-a88a-ed1add7f4217","ios":"levelo://app?vid=b5dee396-6744-4f01-a88a-ed1add7f4217"},"vehicle_type_id":"4","last_reported":1736342184,"current_range_meters":25200,"station_id":"ce4bgrp2rcd13ifvqc9g","pricing_plan_id":"cebpf4jnsgd1na2vs0mg"},{"bike_id":"a48ee251-975b-47cc-8bcf-5163b65b2f80","system_id":"levelo_inurba_marseille","lat":43.23917,"lon":5.36665,"is_reserved":false,"is_disabled":false,"rental_uris":{"android":"levelo://app?vid=a48ee251-975b-47cc-8bcf-5163b65b2f80","ios":"levelo://app?vid=a48ee251-975b-47cc-8bcf-5163b65b2f80"},"vehicle_type_id":"4","last_reported":1736342184,"current_range_meters":8000,"station_id":"","pricing_plan_id":"cebpf4jnsgd1na2vs0mg"},{"bike_id":"39faa2fe-395f-49c9-9056-e37436793a85","system_id":"levelo_inurba_marseille","lat":43.30335,"lon":5.40452,"is_reserved":false,"is_disabled":true,"rental_uris":{"android":"levelo://app?vid=39faa2fe-395f-49c9-9056-e37436793a85","ios":"levelo://app?vid=39faa2fe-395f-49c9-9056-e37436793a85"},"vehicle_type_id":"4","last_reported":1736342184,"current_range_meters":32400,"station_id":"ce4bh012rcd13ifvqd10","pricing_plan_id":"cebpf4jnsgd1na2vs0mg"},{"bike_id":"ad09d2f8-d1fd-4117-b032-9370ae2ea9db","system_id":"levelo_inurba_marseille","lat":43.25923,"lon":5.40919,"is_reserved":false,"is_disabled":false,"rental_uris":{"android":"levelo://app?vid=ad09d2f8-d1fd-4117-b032-9370ae2ea9db","ios":"levelo://app?vid=ad09d2f8-d1fd-4117-b032-9370ae2ea9db"},"vehicle_type_id":"4","last_reported":1736342184,"current_range_meters":36800,"station_id":"ce4bhm92rcd13ifvqglg","pricing_plan_id":"cebpf4jnsgd1na2vs0mg"},{"bike_id":"91b9d400-7842-464b-b406-b708d842c54b","system_id":"levelo_inurba_marseille","lat":43.25109,"lon":5.40323,"is_reserved":false,"is_disabled":false,"rental_uris":{"android":"levelo://app?vid=91b9d400-7842-464b-b406-b708d842c54b","ios":"levelo://app?vid=91b9d400-7842-464b-b406-b708d842c54b"},"vehicle_type_id":"4","last_reported":1736342184,"current_range_meters":14400,"station_id":"ce4bhlh2rcd13ifvqgig","pricing_plan_id":"cebpf4jnsgd1na2vs0mg"},{"bike_id":"f6972f76-a346-4073-a640-6994f9e99649","system_id":"levelo_inurba_marseille","lat":43.23961,"lon":5.36631,"is_reserved":false,"is_disabled":false,"rental_uris":{"android":"levelo://app?vid=f6972f76-a346-4073-a640-6994f9e99649","ios":"levelo://app?vid=f6972f76-a346-4073-a640-6994f9e99649"},"vehicle_type_id":"4","last_reported":1736342184,"current_range_meters":13600,"station_id":"ce4bhi12rcd13ifvqfp0","pricing_plan_id":"cebpf4jnsgd1na2vs0mg"},{"bike_id":"aed35fa6-5659-48ec-a6ce-10915e2958d4","system_id":"levelo_inurba_marseille","lat":43.23959,"lon":5.36659,"is_reserved":false,"is_disabled":false,"rental_uris":{"android":"levelo://app?vid=aed35fa6-5659-48ec-a6ce-10915e2958d4","ios":"levelo://app?vid=aed35fa6-5659-48ec-a6ce-10915e2958d4"},"vehicle_type_id":"4","last_reported":1736342184,"current_range_meters":9200,"station_id":"ce4bhi12rcd13ifvqfp0","pricing_plan_id":"cebpf4jnsgd1na2vs0mg"},{"bike_id":"f6729c56-9df8-4f53-92ad-71b91f2e7254","system_id":"levelo_inurba_marseille","lat":43.25836,"lon":5.39421,"is_reserved":false,"is_disabled":false,"rental_uris":{"android":"levelo://app?vid=f6729c56-9df8-4f53-92ad-71b91f2e7254","ios":"levelo://app?vid=f6729c56-9df8-4f53-92ad-71b91f2e7254"},"vehicle_type_id":"4","last_reported":1736342184,"current_range_meters":36800,"station_id":"ce4bhip2rcd13ifvqft0","pricing_plan_id":"cebpf4jnsgd1na2vs0mg"},{"bike_id":"aee7713f-4f69-4292-bc45-f3850ff5100d","system_id":"levelo_inurba_marseille","lat":43.30802,"lon":5.4354,"is_reserved":false,"is_disabled":false,"rental_uris":{"android":"levelo://app?vid=aee7713f-4f69-4292-bc45-f3850ff5100d","ios":"levelo://app?vid=aee7713f-4f69-4292-bc45-f3850ff5100d"},"vehicle_type_id":"4","last_reported":1736342184,"current_range_meters":32000,"station_id":"ce4bhph2rcd13ifvqheg","pricing_plan_id":"cebpf4jnsgd1na2vs0mg"},{"bike_id":"7bb4a7de-253c-441c-9699-15315f788406","system_id":"levelo_inurba_marseille","lat":43.30184,"lon":5.36629,"is_reserved":false,"is_disabled":false,"rental_uris":{"android":"levelo://app?vid=7bb4a7de-253c-441c-9699-15315f788406","ios":"levelo://app?vid=7bb4a7de-253c-441c-9699-15315f788406"},"vehicle_type_id":"4","last_reported":1736342184,"current_range_meters":10800,"station_id":"ce4bgrh2rcd13ifvqc8g","pricing_plan_id":"cebpf4jnsgd1na2vs0mg"},{"bike_id":"f2536309-8d2b-4ccd-86e1-4c168080c77c","system_id":"levelo_inurba_marseille","lat":43.231934,"lon":5.355492,"is_reserved":false,"is_disabled":false,"rental_uris":{"android":"levelo://app?vid=f2536309-8d2b-4ccd-86e1-4c168080c77c","ios":"levelo://app?vid=f2536309-8d2b-4ccd-86e1-4c168080c77c"},"vehicle_type_id":"4","last_reported":1736342184,"current_range_meters":10000,"station_id":"ce4bhu92rcd13ifvqi70","pricing_plan_id":"cebpf4jnsgd1na2vs0mg"},{"bike_id":"5941b620-be3e-48f8-a635-243d7a768194","system_id":"levelo_inurba_marseille","lat":43.28156,"lon":5.4264,"is_reserved":false,"is_disabled":false,"rental_uris":{"android":"levelo://app?vid=5941b620-be3e-48f8-a635-243d7a768194","ios":"levelo://app?vid=5941b620-be3e-48f8-a635-243d7a768194"},"vehicle_type_id":"4","last_reported":1736342184,"current_range_meters":18800,"station_id":"ce4bhnh2rcd13ifvqgug","pricing_plan_id":"cebpf4jnsgd1na2vs0mg"},{"bike_id":"cbedc1cb-4a57-45a1-9e40-86d6e88a743e","system_id":"levelo_inurba_marseille","lat":43.33613,"lon":5.41033,"is_reserved":false,"is_disabled":false,"rental_uris":{"android":"levelo://app?vid=cbedc1cb-4a57-45a1-9e40-86d6e88a743e","ios":"levelo://app?vid=cbedc1cb-4a57-45a1-9e40-86d6e88a743e"},"vehicle_type_id":"4","last_reported":1736342184,"current_range_meters":10000,"station_id":"ce4bhqh2rcd13ifvqhmg","pricing_plan_id":"cebpf4jnsgd1na2vs0mg"},{"bike_id":"acb70d44-34d3-423d-8f01-0ce589677008","system_id":"levelo_inurba_marseille","lat":43.29835,"lon":5.36251,"is_reserved":false,"is_disabled":false,"rental_uris":{"android":"levelo://app?vid=acb70d44-34d3-423d-8f01-0ce589677008","ios":"levelo://app?vid=acb70d44-34d3-423d-8f01-0ce589677008"},"vehicle_type_id":"4","last_reported":1736342184,"current_range_meters":16400,"station_id":"ce4bgpp2rcd13ifvqc3g","pricing_plan_id":"cebpf4jnsgd1na2vs0mg"},{"bike_id":"133a73dd-cdc6-4396-844a-232bcfdd1ea8","system_id":"levelo_inurba_marseille","lat":43.30528,"lon":5.36699,"is_reserved":false,"is_disabled":false,"rental_uris":{"android":"levelo://app?vid=133a73dd-cdc6-4396-844a-232bcfdd1ea8","ios":"levelo://app?vid=133a73dd-cdc6-4396-844a-232bcfdd1ea8"},"vehicle_type_id":"4","last_reported":1736342184,"current_range_meters":39200,"station_id":"ce4bgrp2rcd13ifvqc9g","pricing_plan_id":"cebpf4jnsgd1na2vs0mg"},{"bike_id":"b29c418f-e002-4e26-8d22-6ac4e76bf266","system_id":"levelo_inurba_marseille","lat":43.317,"lon":5.37777,"is_reserved":false,"is_disabled":false,"rental_uris":{"android":"levelo://app?vid=b29c418f-e002-4e26-8d22-6ac4e76bf266","ios":"levelo://app?vid=b29c418f-e002-4e26-8d22-6ac4e76bf266"},"vehicle_type_id":"4","last_reported":1736342184,"current_range_meters":38800,"station_id":"ce4bgth2rcd13ifvqch0","pricing_plan_id":"cebpf4jnsgd1na2vs0mg"},{"bike_id":"a059afd4-499a-4453-a4ee-f83c5d2b51c6","system_id":"levelo_inurba_marseille","lat":43.23971,"lon":5.36638,"is_reserved":false,"is_disabled":false,"rental_uris":{"android":"levelo://app?vid=a059afd4-499a-4453-a4ee-f83c5d2b51c6","ios":"levelo://app?vid=a059afd4-499a-4453-a4ee-f83c5d2b51c6"},"vehicle_type_id":"4","last_reported":1736342184,"current_range_meters":14800,"station_id":"ce4bhi12rcd13ifvqfp0","pricing_plan_id":"cebpf4jnsgd1na2vs0mg"},{"bike_id":"6ce82496-1d25-4267-881f-07e98495a71d","system_id":"levelo_inurba_marseille","lat":43.25941,"lon":5.40901,"is_reserved":false,"is_disabled":false,"rental_uris":{"android":"levelo://app?vid=6ce82496-1d25-4267-881f-07e98495a71d","ios":"levelo://app?vid=6ce82496-1d25-4267-881f-07e98495a71d"},"vehicle_type_id":"4","last_reported":1736342184,"current_range_meters":27200,"station_id":"ce4bhm92rcd13ifvqglg","pricing_plan_id":"cebpf4jnsgd1na2vs0mg"},{"bike_id":"412641fb-1223-4549-a4fe-5d0cdf506cd0","system_id":"levelo_inurba_marseille","lat":43.29196,"lon":5.35817,"is_reserved":false,"is_disabled":false,"rental_uris":{"android":"levelo://app?vid=412641fb-1223-4549-a4fe-5d0cdf506cd0","ios":"levelo://app?vid=412641fb-1223-4549-a4fe-5d0cdf506cd0"},"vehicle_type_id":"4","last_reported":1736342184,"current_range_meters":38800,"station_id":"ce4bhb12rcd13ifvqel0","pricing_plan_id":"cebpf4jnsgd1na2vs0mg"},{"bike_id":"c5bdcbc9-5666-48cc-865a-d43ab7e609ca","system_id":"levelo_inurba_marseille","lat":43.292991,"lon":5.374633,"is_reserved":false,"is_disabled":true,"rental_uris":{"android":"levelo://app?vid=c5bdcbc9-5666-48cc-865a-d43ab7e609ca","ios":"levelo://app?vid=c5bdcbc9-5666-48cc-865a-d43ab7e609ca"},"vehicle_type_id":"4","last_reported":1736342184,"current_range_meters":34000,"station_id":"ce4bgi12rcd13ifvqb70","pricing_plan_id":"cebpf4jnsgd1na2vs0mg"},{"bike_id":"d9151d6c-1f4a-40c9-ac33-6ec48a9a705f","system_id":"levelo_inurba_marseille","lat":43.23069,"lon":5.355,"is_reserved":false,"is_disabled":false,"rental_uris":{"android":"levelo://app?vid=d9151d6c-1f4a-40c9-ac33-6ec48a9a705f","ios":"levelo://app?vid=d9151d6c-1f4a-40c9-ac33-6ec48a9a705f"},"vehicle_type_id":"4","last_reported":1736342184,"current_range_meters":34800,"station_id":"cpo3342slgdg3j2ifvpg","pricing_plan_id":"cebpf4jnsgd1na2vs0mg"},{"bike_id":"412c961b-9eee-480e-9da4-be4fd2e54380","system_id":"levelo_inurba_marseille","lat":43.29543,"lon":5.42292,"is_reserved":false,"is_disabled":false,"rental_uris":{"android":"levelo://app?vid=412c961b-9eee-480e-9da4-be4fd2e54380","ios":"levelo://app?vid=412c961b-9eee-480e-9da4-be4fd2e54380"},"vehicle_type_id":"4","last_reported":1736342184,"current_range_meters":4000,"station_id":"ce4bhph2rcd13ifvqhdg","pricing_plan_id":"cebpf4jnsgd1na2vs0mg"},{"bike_id":"a7412a45-2296-4222-ba77-3e131a32fddd","system_id":"levelo_inurba_marseille","lat":43.28614,"lon":5.3511,"is_reserved":false,"is_disabled":false,"rental_uris":{"android":"levelo://app?vid=a7412a45-2296-4222-ba77-3e131a32fddd","ios":"levelo://app?vid=a7412a45-2296-4222-ba77-3e131a32fddd"},"vehicle_type_id":"4","last_reported":1736342184,"current_range_meters":6800,"station_id":"ce4bhch2rcd13ifvqeug","pricing_plan_id":"cebpf4jnsgd1na2vs0mg"},{"bike_id":"963072e5-07f3-4651-a637-9456f4a8d2cb","system_id":"levelo_inurba_marseille","lat":43.29033,"lon":5.38649,"is_reserved":false,"is_disabled":false,"rental_uris":{"android":"levelo://app?vid=963072e5-07f3-4651-a637-9456f4a8d2cb","ios":"levelo://app?vid=963072e5-07f3-4651-a637-9456f4a8d2cb"},"vehicle_type_id":"4","last_reported":1736342184,"current_range_meters":37600,"station_id":"ce4bh4p2rcd13ifvqe0g","pricing_plan_id":"cebpf4jnsgd1na2vs0mg"},{"bike_id":"7b012ec8-5bf4-4e65-b410-d1b1c3a3c2c3","system_id":"levelo_inurba_marseille","lat":43.27948,"lon":5.41034,"is_reserved":false,"is_disabled":false,"rental_uris":{"android":"levelo://app?vid=7b012ec8-5bf4-4e65-b410-d1b1c3a3c2c3","ios":"levelo://app?vid=7b012ec8-5bf4-4e65-b410-d1b1c3a3c2c3"},"vehicle_type_id":"4","last_reported":1736342184,"current_range_meters":8800,"station_id":"ce4bhnp2rcd13ifvqh0g","pricing_plan_id":"cebpf4jnsgd1na2vs0mg"},{"bike_id":"8280579b-4703-4dea-b469-9c9ae7aeda9d","system_id":"levelo_inurba_marseille","lat":43.28424,"lon":5.37521,"is_reserved":false,"is_disabled":true,"rental_uris":{"android":"levelo://app?vid=8280579b-4703-4dea-b469-9c9ae7aeda9d","ios":"levelo://app?vid=8280579b-4703-4dea-b469-9c9ae7aeda9d"},"vehicle_type_id":"4","last_reported":1736342184,"current_range_meters":36800,"station_id":"ce4bh412rcd13ifvqds0","pricing_plan_id":"cebpf4jnsgd1na2vs0mg"},{"bike_id":"04c5f3d9-d069-49ba-9779-3dfe963da0d4","system_id":"levelo_inurba_marseille","lat":43.23196,"lon":5.39984,"is_reserved":false,"is_disabled":false,"rental_uris":{"android":"levelo://app?vid=04c5f3d9-d069-49ba-9779-3dfe963da0d4","ios":"levelo://app?vid=04c5f3d9-d069-49ba-9779-3dfe963da0d4"},"vehicle_type_id":"4","last_reported":1736342184,"current_range_meters":25600,"station_id":"ce4bhn12rcd13ifvqgqg","pricing_plan_id":"cebpf4jnsgd1na2vs0mg"},{"bike_id":"2825a119-5b5a-4630-b83a-5a86bf58ccad","system_id":"levelo_inurba_marseille","lat":43.31278,"lon":5.37375,"is_reserved":false,"is_disabled":false,"rental_uris":{"android":"levelo://app?vid=2825a119-5b5a-4630-b83a-5a86bf58ccad","ios":"levelo://app?vid=2825a119-5b5a-4630-b83a-5a86bf58ccad"},"vehicle_type_id":"4","last_reported":1736342184,"current_range_meters":9600,"station_id":"","pricing_plan_id":"cebpf4jnsgd1na2vs0mg"},{"bike_id":"60fcd759-e3a2-4617-98d5-33c0e6ef396a","system_id":"levelo_inurba_marseille","lat":43.302726,"lon":5.37728,"is_reserved":false,"is_disabled":false,"rental_uris":{"android":"levelo://app?vid=60fcd759-e3a2-4617-98d5-33c0e6ef396a","ios":"levelo://app?vid=60fcd759-e3a2-4617-98d5-33c0e6ef396a"},"vehicle_type_id":"4","last_reported":1736342184,"current_range_meters":22800,"station_id":"ce4bguh2rcd13ifvqcj0","pricing_plan_id":"cebpf4jnsgd1na2vs0mg"},{"bike_id":"027c7e84-a827-4e03-8a40-70ba4cde080d","system_id":"levelo_inurba_marseille","lat":43.2668,"lon":5.3827,"is_reserved":false,"is_disabled":false,"rental_uris":{"android":"levelo://app?vid=027c7e84-a827-4e03-8a40-70ba4cde080d","ios":"levelo://app?vid=027c7e84-a827-4e03-8a40-70ba4cde080d"},"vehicle_type_id":"4","last_reported":1736342184,"current_range_meters":6800,"station_id":"ce4bhg92rcd13ifvqf90","pricing_plan_id":"cebpf4jnsgd1na2vs0mg"},{"bike_id":"6960d5d4-2e4e-46c2-b32f-ce97424bf9fa","system_id":"levelo_inurba_marseille","lat":43.295583,"lon":5.375822,"is_reserved":false,"is_disabled":false,"rental_uris":{"android":"levelo://app?vid=6960d5d4-2e4e-46c2-b32f-ce97424bf9fa","ios":"levelo://app?vid=6960d5d4-2e4e-46c2-b32f-ce97424bf9fa"},"vehicle_type_id":"4","last_reported":1736342184,"current_range_meters":36800,"station_id":"","pricing_plan_id":"cebpf4jnsgd1na2vs0mg"},{"bike_id":"5e3969ec-ff0d-4662-8888-07b216df4420","system_id":"levelo_inurba_marseille","lat":43.3134,"lon":5.36729,"is_reserved":false,"is_disabled":false,"rental_uris":{"android":"levelo://app?vid=5e3969ec-ff0d-4662-8888-07b216df4420","ios":"levelo://app?vid=5e3969ec-ff0d-4662-8888-07b216df4420"},"vehicle_type_id":"4","last_reported":1736342184,"current_range_meters":30800,"station_id":"ce4bgr92rcd13ifvqc6g","pricing_plan_id":"cebpf4jnsgd1na2vs0mg"},{"bike_id":"3b5bd529-1029-48ff-99a8-664e1a2702cb","system_id":"levelo_inurba_marseille","lat":43.29189,"lon":5.39321,"is_reserved":false,"is_disabled":false,"rental_uris":{"android":"levelo://app?vid=3b5bd529-1029-48ff-99a8-664e1a2702cb","ios":"levelo://app?vid=3b5bd529-1029-48ff-99a8-664e1a2702cb"},"vehicle_type_id":"4","last_reported":1736342184,"current_range_meters":30000,"station_id":"ce4bh192rcd13ifvqdd0","pricing_plan_id":"cebpf4jnsgd1na2vs0mg"},{"bike_id":"b93a5933-2b30-4af6-9d4c-741b325e4d7a","system_id":"levelo_inurba_marseille","lat":43.30185,"lon":5.36638,"is_reserved":false,"is_disabled":false,"rental_uris":{"android":"levelo://app?vid=b93a5933-2b30-4af6-9d4c-741b325e4d7a","ios":"levelo://app?vid=b93a5933-2b30-4af6-9d4c-741b325e4d7a"},"vehicle_type_id":"4","last_reported":1736342184,"current_range_meters":39200,"station_id":"ce4bgrh2rcd13ifvqc8g","pricing_plan_id":"cebpf4jnsgd1na2vs0mg"},{"bike_id":"3136e12c-5c10-4a30-bcac-ce810e7d2a8e","system_id":"levelo_inurba_marseille","lat":43.29843,"lon":5.36259,"is_reserved":false,"is_disabled":false,"rental_uris":{"android":"levelo://app?vid=3136e12c-5c10-4a30-bcac-ce810e7d2a8e","ios":"levelo://app?vid=3136e12c-5c10-4a30-bcac-ce810e7d2a8e"},"vehicle_type_id":"4","last_reported":1736342184,"current_range_meters":37600,"station_id":"ce4bgpp2rcd13ifvqc3g","pricing_plan_id":"cebpf4jnsgd1na2vs0mg"},{"bike_id":"f5b2de69-ea07-4b33-a436-49a7f21ea0f9","system_id":"levelo_inurba_marseille","lat":43.29605,"lon":5.3673,"is_reserved":false,"is_disabled":false,"rental_uris":{"android":"levelo://app?vid=f5b2de69-ea07-4b33-a436-49a7f21ea0f9","ios":"levelo://app?vid=f5b2de69-ea07-4b33-a436-49a7f21ea0f9"},"vehicle_type_id":"4","last_reported":1736342184,"current_range_meters":24400,"station_id":"ce4bgph2rcd13ifvqc2g","pricing_plan_id":"cebpf4jnsgd1na2vs0mg"},{"bike_id":"7a0a8a69-615c-43f3-a001-073b74f4a57b","system_id":"levelo_inurba_marseille","lat":43.25586,"lon":5.3824,"is_reserved":false,"is_disabled":false,"rental_uris":{"android":"levelo://app?vid=7a0a8a69-615c-43f3-a001-073b74f4a57b","ios":"levelo://app?vid=7a0a8a69-615c-43f3-a001-073b74f4a57b"},"vehicle_type_id":"4","last_reported":1736342184,"current_range_meters":32400,"station_id":"ce4bhih2rcd13ifvqfs0","pricing_plan_id":"cebpf4jnsgd1na2vs0mg"},{"bike_id":"16c041a2-2249-42ba-83f9-aa1e63bb87f4","system_id":"levelo_inurba_marseille","lat":43.28274,"lon":5.35069,"is_reserved":false,"is_disabled":false,"rental_uris":{"android":"levelo://app?vid=16c041a2-2249-42ba-83f9-aa1e63bb87f4","ios":"levelo://app?vid=16c041a2-2249-42ba-83f9-aa1e63bb87f4"},"vehicle_type_id":"4","last_reported":1736342184,"current_range_meters":32000,"station_id":"ce4bhbp2rcd13ifvqerg","pricing_plan_id":"cebpf4jnsgd1na2vs0mg"},{"bike_id":"d03baa4e-a1ff-4dbb-aa3a-8f7610789178","system_id":"levelo_inurba_marseille","lat":43.33756,"lon":5.39194,"is_reserved":false,"is_disabled":false,"rental_uris":{"android":"levelo://app?vid=d03baa4e-a1ff-4dbb-aa3a-8f7610789178","ios":"levelo://app?vid=d03baa4e-a1ff-4dbb-aa3a-8f7610789178"},"vehicle_type_id":"4","last_reported":1736342184,"current_range_meters":38800,"station_id":"ce4bhr92rcd13ifvqhsg","pricing_plan_id":"cebpf4jnsgd1na2vs0mg"},{"bike_id":"77f216d1-6f69-47fb-bb4c-6c4c5a5331f2","system_id":"levelo_inurba_marseille","lat":43.258488,"lon":5.394505,"is_reserved":false,"is_disabled":false,"rental_uris":{"android":"levelo://app?vid=77f216d1-6f69-47fb-bb4c-6c4c5a5331f2","ios":"levelo://app?vid=77f216d1-6f69-47fb-bb4c-6c4c5a5331f2"},"vehicle_type_id":"4","last_reported":1736342184,"current_range_meters":28000,"station_id":"ce4bhip2rcd13ifvqft0","pricing_plan_id":"cebpf4jnsgd1na2vs0mg"},{"bike_id":"5cbc2cb3-489b-4757-bef9-84c199a03c26","system_id":"levelo_inurba_marseille","lat":43.23964,"lon":5.36631,"is_reserved":false,"is_disabled":false,"rental_uris":{"android":"levelo://app?vid=5cbc2cb3-489b-4757-bef9-84c199a03c26","ios":"levelo://app?vid=5cbc2cb3-489b-4757-bef9-84c199a03c26"},"vehicle_type_id":"4","last_reported":1736342184,"current_range_meters":8400,"station_id":"ce4bhi12rcd13ifvqfp0","pricing_plan_id":"cebpf4jnsgd1na2vs0mg"},{"bike_id":"46422d9e-3d17-4978-a20a-a9d26cfc2622","system_id":"levelo_inurba_marseille","lat":43.282628,"lon":5.350618,"is_reserved":false,"is_disabled":false,"rental_uris":{"android":"levelo://app?vid=46422d9e-3d17-4978-a20a-a9d26cfc2622","ios":"levelo://app?vid=46422d9e-3d17-4978-a20a-a9d26cfc2622"},"vehicle_type_id":"4","last_reported":1736342184,"current_range_meters":29600,"station_id":"","pricing_plan_id":"cebpf4jnsgd1na2vs0mg"},{"bike_id":"c915b420-f51e-4ea3-8ddd-43180c9d4edb","system_id":"levelo_inurba_marseille","lat":43.28268,"lon":5.35077,"is_reserved":false,"is_disabled":false,"rental_uris":{"android":"levelo://app?vid=c915b420-f51e-4ea3-8ddd-43180c9d4edb","ios":"levelo://app?vid=c915b420-f51e-4ea3-8ddd-43180c9d4edb"},"vehicle_type_id":"4","last_reported":1736342184,"current_range_meters":30000,"station_id":"ce4bhbp2rcd13ifvqerg","pricing_plan_id":"cebpf4jnsgd1na2vs0mg"},{"bike_id":"bec44870-59c7-42c4-84e0-176ee46453be","system_id":"levelo_inurba_marseille","lat":43.262,"lon":5.37932,"is_reserved":false,"is_disabled":false,"rental_uris":{"android":"levelo://app?vid=bec44870-59c7-42c4-84e0-176ee46453be","ios":"levelo://app?vid=bec44870-59c7-42c4-84e0-176ee46453be"},"vehicle_type_id":"4","last_reported":1736342184,"current_range_meters":8400,"station_id":"ce4bhjp2rcd13ifvqg90","pricing_plan_id":"cebpf4jnsgd1na2vs0mg"},{"bike_id":"4792f216-6e71-4eb7-8101-d7681e177c2b","system_id":"levelo_inurba_marseille","lat":43.33608,"lon":5.41023,"is_reserved":false,"is_disabled":false,"rental_uris":{"android":"levelo://app?vid=4792f216-6e71-4eb7-8101-d7681e177c2b","ios":"levelo://app?vid=4792f216-6e71-4eb7-8101-d7681e177c2b"},"vehicle_type_id":"4","last_reported":1736342184,"current_range_meters":39200,"station_id":"ce4bhqh2rcd13ifvqhmg","pricing_plan_id":"cebpf4jnsgd1na2vs0mg"},{"bike_id":"a64b103b-8430-448c-8b1c-5557c9f55c4c","system_id":"levelo_inurba_marseille","lat":43.2722,"lon":5.39187,"is_reserved":false,"is_disabled":false,"rental_uris":{"android":"levelo://app?vid=a64b103b-8430-448c-8b1c-5557c9f55c4c","ios":"levelo://app?vid=a64b103b-8430-448c-8b1c-5557c9f55c4c"},"vehicle_type_id":"4","last_reported":1736342184,"current_range_meters":38800,"station_id":"ce4bhhp2rcd13ifvqfm0","pricing_plan_id":"cebpf4jnsgd1na2vs0mg"},{"bike_id":"5aff22fc-7da0-4fa1-950a-d0c864951366","system_id":"levelo_inurba_marseille","lat":43.24532,"lon":5.39524,"is_reserved":false,"is_disabled":false,"rental_uris":{"android":"levelo://app?vid=5aff22fc-7da0-4fa1-950a-d0c864951366","ios":"levelo://app?vid=5aff22fc-7da0-4fa1-950a-d0c864951366"},"vehicle_type_id":"4","last_reported":1736342184,"current_range_meters":21600,"station_id":"ce4bhlp2rcd13ifvqgjg","pricing_plan_id":"cebpf4jnsgd1na2vs0mg"},{"bike_id":"ed295c49-63cb-44cb-ba93-ac2671a9267f","system_id":"levelo_inurba_marseille","lat":43.2797,"lon":5.38742,"is_reserved":false,"is_disabled":false,"rental_uris":{"android":"levelo://app?vid=ed295c49-63cb-44cb-ba93-ac2671a9267f","ios":"levelo://app?vid=ed295c49-63cb-44cb-ba93-ac2671a9267f"},"vehicle_type_id":"4","last_reported":1736342184,"current_range_meters":8400,"station_id":"ce4bhg12rcd13ifvqf80","pricing_plan_id":"cebpf4jnsgd1na2vs0mg"},{"bike_id":"b753435e-f6bb-4c1f-9e42-1ce67c2a1696","system_id":"levelo_inurba_marseille","lat":43.27493,"lon":5.42449,"is_reserved":false,"is_disabled":true,"rental_uris":{"android":"levelo://app?vid=b753435e-f6bb-4c1f-9e42-1ce67c2a1696","ios":"levelo://app?vid=b753435e-f6bb-4c1f-9e42-1ce67c2a1696"},"vehicle_type_id":"4","last_reported":1736342184,"current_range_meters":800,"station_id":"ce4bhn92rcd13ifvqgrg","pricing_plan_id":"cebpf4jnsgd1na2vs0mg"},{"bike_id":"c7e4e4e5-1847-44f3-96b6-ad216285bc92","system_id":"levelo_inurba_marseille","lat":43.33766,"lon":5.37429,"is_reserved":false,"is_disabled":false,"rental_uris":{"android":"levelo://app?vid=c7e4e4e5-1847-44f3-96b6-ad216285bc92","ios":"levelo://app?vid=c7e4e4e5-1847-44f3-96b6-ad216285bc92"},"vehicle_type_id":"4","last_reported":1736342184,"current_range_meters":33200,"station_id":"","pricing_plan_id":"cebpf4jnsgd1na2vs0mg"},{"bike_id":"bdaa3bef-66a9-4394-a00b-5b407d24db81","system_id":"levelo_inurba_marseille","lat":43.23204,"lon":5.35558,"is_reserved":false,"is_disabled":false,"rental_uris":{"android":"levelo://app?vid=bdaa3bef-66a9-4394-a00b-5b407d24db81","ios":"levelo://app?vid=bdaa3bef-66a9-4394-a00b-5b407d24db81"},"vehicle_type_id":"4","last_reported":1736342184,"current_range_meters":14000,"station_id":"ce4bhu92rcd13ifvqi70","pricing_plan_id":"cebpf4jnsgd1na2vs0mg"},{"bike_id":"7b71d2b1-0f5f-48b8-a921-ed516ad36cfa","system_id":"levelo_inurba_marseille","lat":43.23136,"lon":5.43731,"is_reserved":false,"is_disabled":false,"rental_uris":{"android":"levelo://app?vid=7b71d2b1-0f5f-48b8-a921-ed516ad36cfa","ios":"levelo://app?vid=7b71d2b1-0f5f-48b8-a921-ed516ad36cfa"},"vehicle_type_id":"4","last_reported":1736342184,"current_range_meters":19200,"station_id":"ce4bhmp2rcd13ifvqgog","pricing_plan_id":"cebpf4jnsgd1na2vs0mg"},{"bike_id":"3a1318d6-e0ec-4965-b6af-61d4c63f5f7d","system_id":"levelo_inurba_marseille","lat":43.26203,"lon":5.37921,"is_reserved":false,"is_disabled":false,"rental_uris":{"android":"levelo://app?vid=3a1318d6-e0ec-4965-b6af-61d4c63f5f7d","ios":"levelo://app?vid=3a1318d6-e0ec-4965-b6af-61d4c63f5f7d"},"vehicle_type_id":"4","last_reported":1736342184,"current_range_meters":36800,"station_id":"ce4bhjp2rcd13ifvqg90","pricing_plan_id":"cebpf4jnsgd1na2vs0mg"},{"bike_id":"93cdcd75-b1e7-40d7-9584-0ea4d1b674cb","system_id":"levelo_inurba_marseille","lat":43.26681,"lon":5.38273,"is_reserved":false,"is_disabled":false,"rental_uris":{"android":"levelo://app?vid=93cdcd75-b1e7-40d7-9584-0ea4d1b674cb","ios":"levelo://app?vid=93cdcd75-b1e7-40d7-9584-0ea4d1b674cb"},"vehicle_type_id":"4","last_reported":1736342184,"current_range_meters":10800,"station_id":"ce4bhg92rcd13ifvqf90","pricing_plan_id":"cebpf4jnsgd1na2vs0mg"},{"bike_id":"33ba4f7c-2575-4e69-ad5f-b9c4d00d1c80","system_id":"levelo_inurba_marseille","lat":43.29751,"lon":5.38097,"is_reserved":false,"is_disabled":false,"rental_uris":{"android":"levelo://app?vid=33ba4f7c-2575-4e69-ad5f-b9c4d00d1c80","ios":"levelo://app?vid=33ba4f7c-2575-4e69-ad5f-b9c4d00d1c80"},"vehicle_type_id":"4","last_reported":1736342184,"current_range_meters":32800,"station_id":"","pricing_plan_id":"cebpf4jnsgd1na2vs0mg"},{"bike_id":"27bd57bc-90e8-4421-9cc2-4b85852005fa","system_id":"levelo_inurba_marseille","lat":43.28027,"lon":5.36951,"is_reserved":false,"is_disabled":false,"rental_uris":{"android":"levelo://app?vid=27bd57bc-90e8-4421-9cc2-4b85852005fa","ios":"levelo://app?vid=27bd57bc-90e8-4421-9cc2-4b85852005fa"},"vehicle_type_id":"4","last_reported":1736342184,"current_range_meters":33600,"station_id":"ce4bha12rcd13ifvqef0","pricing_plan_id":"cebpf4jnsgd1na2vs0mg"},{"bike_id":"ed3dd117-041d-49b0-8071-a62c4d6d3fe5","system_id":"levelo_inurba_marseille","lat":43.27316,"lon":5.39093,"is_reserved":false,"is_disabled":false,"rental_uris":{"android":"levelo://app?vid=ed3dd117-041d-49b0-8071-a62c4d6d3fe5","ios":"levelo://app?vid=ed3dd117-041d-49b0-8071-a62c4d6d3fe5"},"vehicle_type_id":"4","last_reported":1736342184,"current_range_meters":22400,"station_id":"ce4bhgp2rcd13ifvqfe0","pricing_plan_id":"cebpf4jnsgd1na2vs0mg"},{"bike_id":"c2ed0edb-0456-4c5f-9f34-3e824fb0acd7","system_id":"levelo_inurba_marseille","lat":43.29423,"lon":5.3863,"is_reserved":false,"is_disabled":false,"rental_uris":{"android":"levelo://app?vid=c2ed0edb-0456-4c5f-9f34-3e824fb0acd7","ios":"levelo://app?vid=c2ed0edb-0456-4c5f-9f34-3e824fb0acd7"},"vehicle_type_id":"4","last_reported":1736342184,"current_range_meters":24000,"station_id":"ce4bh2h2rcd13ifvqdh0","pricing_plan_id":"cebpf4jnsgd1na2vs0mg"},{"bike_id":"7618ced7-b343-464e-817b-57b857eb31e9","system_id":"levelo_inurba_marseille","lat":43.28616,"lon":5.35113,"is_reserved":false,"is_disabled":false,"rental_uris":{"android":"levelo://app?vid=7618ced7-b343-464e-817b-57b857eb31e9","ios":"levelo://app?vid=7618ced7-b343-464e-817b-57b857eb31e9"},"vehicle_type_id":"4","last_reported":1736342184,"current_range_meters":24400,"station_id":"ce4bhch2rcd13ifvqeug","pricing_plan_id":"cebpf4jnsgd1na2vs0mg"},{"bike_id":"37d8e1ef-d932-49d7-b893-49542cf44d13","system_id":"levelo_inurba_marseille","lat":43.32345,"lon":5.40629,"is_reserved":false,"is_disabled":true,"rental_uris":{"android":"levelo://app?vid=37d8e1ef-d932-49d7-b893-49542cf44d13","ios":"levelo://app?vid=37d8e1ef-d932-49d7-b893-49542cf44d13"},"vehicle_type_id":"4","last_reported":1736342184,"current_range_meters":0,"station_id":"ce4bhq92rcd13ifvqhjg","pricing_plan_id":"cebpf4jnsgd1na2vs0mg"},{"bike_id":"32a4fb87-34f7-41cc-a1bf-df05e6828b58","system_id":"levelo_inurba_marseille","lat":43.31332,"lon":5.39702,"is_reserved":false,"is_disabled":false,"rental_uris":{"android":"levelo://app?vid=32a4fb87-34f7-41cc-a1bf-df05e6828b58","ios":"levelo://app?vid=32a4fb87-34f7-41cc-a1bf-df05e6828b58"},"vehicle_type_id":"4","last_reported":1736342184,"current_range_meters":9600,"station_id":"ce4bgvp2rcd13ifvqcu0","pricing_plan_id":"cebpf4jnsgd1na2vs0mg"},{"bike_id":"71de47ad-023f-4cbb-bf18-a0a561824435","system_id":"levelo_inurba_marseille","lat":43.26765,"lon":5.39423,"is_reserved":false,"is_disabled":false,"rental_uris":{"android":"levelo://app?vid=71de47ad-023f-4cbb-bf18-a0a561824435","ios":"levelo://app?vid=71de47ad-023f-4cbb-bf18-a0a561824435"},"vehicle_type_id":"4","last_reported":1736342184,"current_range_meters":13600,"station_id":"ce4bhh12rcd13ifvqfg0","pricing_plan_id":"cebpf4jnsgd1na2vs0mg"},{"bike_id":"98361f16-bf80-49fc-8b89-fba02f7e7927","system_id":"levelo_inurba_marseille","lat":43.29065,"lon":5.39946,"is_reserved":false,"is_disabled":false,"rental_uris":{"android":"levelo://app?vid=98361f16-bf80-49fc-8b89-fba02f7e7927","ios":"levelo://app?vid=98361f16-bf80-49fc-8b89-fba02f7e7927"},"vehicle_type_id":"4","last_reported":1736342184,"current_range_meters":38800,"station_id":"ce4bh392rcd13ifvqdm0","pricing_plan_id":"cebpf4jnsgd1na2vs0mg"},{"bike_id":"665b6f15-ae32-484c-8a18-f3992221abd2","system_id":"levelo_inurba_marseille","lat":43.2582,"lon":5.39422,"is_reserved":false,"is_disabled":false,"rental_uris":{"android":"levelo://app?vid=665b6f15-ae32-484c-8a18-f3992221abd2","ios":"levelo://app?vid=665b6f15-ae32-484c-8a18-f3992221abd2"},"vehicle_type_id":"4","last_reported":1736342184,"current_range_meters":12000,"station_id":"ce4bhip2rcd13ifvqft0","pricing_plan_id":"cebpf4jnsgd1na2vs0mg"},{"bike_id":"9b2f55e0-edd8-4d6c-b73b-00ee1872c633","system_id":"levelo_inurba_marseille","lat":43.33029,"lon":5.39038,"is_reserved":false,"is_disabled":false,"rental_uris":{"android":"levelo://app?vid=9b2f55e0-edd8-4d6c-b73b-00ee1872c633","ios":"levelo://app?vid=9b2f55e0-edd8-4d6c-b73b-00ee1872c633"},"vehicle_type_id":"4","last_reported":1736342184,"current_range_meters":14000,"station_id":"ce4bhr92rcd13ifvqhrg","pricing_plan_id":"cebpf4jnsgd1na2vs0mg"},{"bike_id":"3f1e84b1-fe66-4d2b-9f81-fc1d017750bf","system_id":"levelo_inurba_marseille","lat":43.30826,"lon":5.38039,"is_reserved":false,"is_disabled":true,"rental_uris":{"android":"levelo://app?vid=3f1e84b1-fe66-4d2b-9f81-fc1d017750bf","ios":"levelo://app?vid=3f1e84b1-fe66-4d2b-9f81-fc1d017750bf"},"vehicle_type_id":"4","last_reported":1736342184,"current_range_meters":0,"station_id":"ce4bgt12rcd13ifvqce0","pricing_plan_id":"cebpf4jnsgd1na2vs0mg"},{"bike_id":"91aae5cf-068f-4218-a6f9-db21593b4dfe","system_id":"levelo_inurba_marseille","lat":43.25947,"lon":5.40923,"is_reserved":false,"is_disabled":false,"rental_uris":{"android":"levelo://app?vid=91aae5cf-068f-4218-a6f9-db21593b4dfe","ios":"levelo://app?vid=91aae5cf-068f-4218-a6f9-db21593b4dfe"},"vehicle_type_id":"4","last_reported":1736342184,"current_range_meters":38800,"station_id":"ce4bhm92rcd13ifvqglg","pricing_plan_id":"cebpf4jnsgd1na2vs0mg"},{"bike_id":"91d74f0a-360b-4b1c-80e6-6f4cf5a204e1","system_id":"levelo_inurba_marseille","lat":43.31703,"lon":5.37763,"is_reserved":false,"is_disabled":false,"rental_uris":{"android":"levelo://app?vid=91d74f0a-360b-4b1c-80e6-6f4cf5a204e1","ios":"levelo://app?vid=91d74f0a-360b-4b1c-80e6-6f4cf5a204e1"},"vehicle_type_id":"4","last_reported":1736342184,"current_range_meters":38800,"station_id":"ce4bgth2rcd13ifvqch0","pricing_plan_id":"cebpf4jnsgd1na2vs0mg"},{"bike_id":"ec070c9b-b204-4195-8da4-627432f984a9","system_id":"levelo_inurba_marseille","lat":43.2622,"lon":5.37442,"is_reserved":false,"is_disabled":false,"rental_uris":{"android":"levelo://app?vid=ec070c9b-b204-4195-8da4-627432f984a9","ios":"levelo://app?vid=ec070c9b-b204-4195-8da4-627432f984a9"},"vehicle_type_id":"4","last_reported":1736342184,"current_range_meters":35200,"station_id":"ce4bhgp2rcd13ifvqfc0","pricing_plan_id":"cebpf4jnsgd1na2vs0mg"},{"bike_id":"62f17cb9-2c66-4cff-81db-916d063de829","system_id":"levelo_inurba_marseille","lat":43.32995,"lon":5.39054,"is_reserved":false,"is_disabled":false,"rental_uris":{"android":"levelo://app?vid=62f17cb9-2c66-4cff-81db-916d063de829","ios":"levelo://app?vid=62f17cb9-2c66-4cff-81db-916d063de829"},"vehicle_type_id":"4","last_reported":1736342184,"current_range_meters":38800,"station_id":"ce4bhr92rcd13ifvqhrg","pricing_plan_id":"cebpf4jnsgd1na2vs0mg"},{"bike_id":"c6470ca7-0d06-42bc-af5a-e3ecae92fae2","system_id":"levelo_inurba_marseille","lat":43.279489,"lon":5.38705,"is_reserved":false,"is_disabled":true,"rental_uris":{"android":"levelo://app?vid=c6470ca7-0d06-42bc-af5a-e3ecae92fae2","ios":"levelo://app?vid=c6470ca7-0d06-42bc-af5a-e3ecae92fae2"},"vehicle_type_id":"4","last_reported":1736342184,"current_range_meters":1200,"station_id":"ce4bhg12rcd13ifvqf80","pricing_plan_id":"cebpf4jnsgd1na2vs0mg"},{"bike_id":"f162e091-eaf8-40f8-b4ce-6d0b5a00bdb2","system_id":"levelo_inurba_marseille","lat":43.280294,"lon":5.369404,"is_reserved":false,"is_disabled":false,"rental_uris":{"android":"levelo://app?vid=f162e091-eaf8-40f8-b4ce-6d0b5a00bdb2","ios":"levelo://app?vid=f162e091-eaf8-40f8-b4ce-6d0b5a00bdb2"},"vehicle_type_id":"4","last_reported":1736342184,"current_range_meters":35200,"station_id":"ce4bha12rcd13ifvqef0","pricing_plan_id":"cebpf4jnsgd1na2vs0mg"},{"bike_id":"64e43754-579d-462e-a1e5-f17e1c068bca","system_id":"levelo_inurba_marseille","lat":43.28265,"lon":5.35078,"is_reserved":false,"is_disabled":false,"rental_uris":{"android":"levelo://app?vid=64e43754-579d-462e-a1e5-f17e1c068bca","ios":"levelo://app?vid=64e43754-579d-462e-a1e5-f17e1c068bca"},"vehicle_type_id":"4","last_reported":1736342184,"current_range_meters":18000,"station_id":"ce4bhbp2rcd13ifvqerg","pricing_plan_id":"cebpf4jnsgd1na2vs0mg"},{"bike_id":"6b2ed858-a4e5-4de1-93a4-0842c383f463","system_id":"levelo_inurba_marseille","lat":43.336041,"lon":5.410367,"is_reserved":false,"is_disabled":false,"rental_uris":{"android":"levelo://app?vid=6b2ed858-a4e5-4de1-93a4-0842c383f463","ios":"levelo://app?vid=6b2ed858-a4e5-4de1-93a4-0842c383f463"},"vehicle_type_id":"4","last_reported":1736342184,"current_range_meters":33600,"station_id":"ce4bhqh2rcd13ifvqhmg","pricing_plan_id":"cebpf4jnsgd1na2vs0mg"},{"bike_id":"608fecec-9b5b-4a6b-aae5-1fef7a6d0d41","system_id":"levelo_inurba_marseille","lat":43.33615,"lon":5.4104,"is_reserved":false,"is_disabled":false,"rental_uris":{"android":"levelo://app?vid=608fecec-9b5b-4a6b-aae5-1fef7a6d0d41","ios":"levelo://app?vid=608fecec-9b5b-4a6b-aae5-1fef7a6d0d41"},"vehicle_type_id":"4","last_reported":1736342184,"current_range_meters":30800,"station_id":"ce4bhqh2rcd13ifvqhmg","pricing_plan_id":"cebpf4jnsgd1na2vs0mg"},{"bike_id":"b4036e33-3f18-4d11-820a-6f12a939b8e7","system_id":"levelo_inurba_marseille","lat":43.272118,"lon":5.391963,"is_reserved":false,"is_disabled":false,"rental_uris":{"android":"levelo://app?vid=b4036e33-3f18-4d11-820a-6f12a939b8e7","ios":"levelo://app?vid=b4036e33-3f18-4d11-820a-6f12a939b8e7"},"vehicle_type_id":"4","last_reported":1736342184,"current_range_meters":21600,"station_id":"ce4bhhp2rcd13ifvqfm0","pricing_plan_id":"cebpf4jnsgd1na2vs0mg"},{"bike_id":"7c81599f-0b26-41d8-9687-a7eb871a6b6f","system_id":"levelo_inurba_marseille","lat":43.2465,"lon":5.38891,"is_reserved":false,"is_disabled":false,"rental_uris":{"android":"levelo://app?vid=7c81599f-0b26-41d8-9687-a7eb871a6b6f","ios":"levelo://app?vid=7c81599f-0b26-41d8-9687-a7eb871a6b6f"},"vehicle_type_id":"4","last_reported":1736342184,"current_range_meters":39200,"station_id":"ce4bhg12rcd13ifvqf60","pricing_plan_id":"cebpf4jnsgd1na2vs0mg"},{"bike_id":"2d05e14f-996e-4998-b8e4-489fd17ed518","system_id":"levelo_inurba_marseille","lat":43.27839,"lon":5.3921,"is_reserved":false,"is_disabled":false,"rental_uris":{"android":"levelo://app?vid=2d05e14f-996e-4998-b8e4-489fd17ed518","ios":"levelo://app?vid=2d05e14f-996e-4998-b8e4-489fd17ed518"},"vehicle_type_id":"4","last_reported":1736342184,"current_range_meters":35600,"station_id":"ce4bhjp2rcd13ifvqga0","pricing_plan_id":"cebpf4jnsgd1na2vs0mg"},{"bike_id":"805ac0db-3bf6-4fe5-bf7f-f6cda41e35f2","system_id":"levelo_inurba_marseille","lat":43.26798,"lon":5.39454,"is_reserved":false,"is_disabled":false,"rental_uris":{"android":"levelo://app?vid=805ac0db-3bf6-4fe5-bf7f-f6cda41e35f2","ios":"levelo://app?vid=805ac0db-3bf6-4fe5-bf7f-f6cda41e35f2"},"vehicle_type_id":"4","last_reported":1736342184,"current_range_meters":33600,"station_id":"ce4bhh12rcd13ifvqfg0","pricing_plan_id":"cebpf4jnsgd1na2vs0mg"},{"bike_id":"c20962ea-5e9e-48e4-bd39-40c8ef3bfa53","system_id":"levelo_inurba_marseille","lat":43.32002,"lon":5.38166,"is_reserved":false,"is_disabled":false,"rental_uris":{"android":"levelo://app?vid=c20962ea-5e9e-48e4-bd39-40c8ef3bfa53","ios":"levelo://app?vid=c20962ea-5e9e-48e4-bd39-40c8ef3bfa53"},"vehicle_type_id":"4","last_reported":1736342184,"current_range_meters":30000,"station_id":"ce4bhr12rcd13ifvqhpg","pricing_plan_id":"cebpf4jnsgd1na2vs0mg"},{"bike_id":"bddc3086-efbb-4133-8ce5-4d99ebe0f1c7","system_id":"levelo_inurba_marseille","lat":43.3091,"lon":5.36851,"is_reserved":false,"is_disabled":false,"rental_uris":{"android":"levelo://app?vid=bddc3086-efbb-4133-8ce5-4d99ebe0f1c7","ios":"levelo://app?vid=bddc3086-efbb-4133-8ce5-4d99ebe0f1c7"},"vehicle_type_id":"4","last_reported":1736342184,"current_range_meters":35600,"station_id":"ce4bgn92rcd13ifvqbvg","pricing_plan_id":"cebpf4jnsgd1na2vs0mg"},{"bike_id":"48ce03f6-f3a8-490e-8671-5ca1c760d650","system_id":"levelo_inurba_marseille","lat":43.28614,"lon":5.37053,"is_reserved":false,"is_disabled":true,"rental_uris":{"android":"levelo://app?vid=48ce03f6-f3a8-490e-8671-5ca1c760d650","ios":"levelo://app?vid=48ce03f6-f3a8-490e-8671-5ca1c760d650"},"vehicle_type_id":"4","last_reported":1736342184,"current_range_meters":38800,"station_id":"ce4bht12rcd13ifvqi60","pricing_plan_id":"cebpf4jnsgd1na2vs0mg"},{"bike_id":"83e97259-2512-4ec2-8ca1-7676eb79dd3e","system_id":"levelo_inurba_marseille","lat":43.33019,"lon":5.39056,"is_reserved":false,"is_disabled":false,"rental_uris":{"android":"levelo://app?vid=83e97259-2512-4ec2-8ca1-7676eb79dd3e","ios":"levelo://app?vid=83e97259-2512-4ec2-8ca1-7676eb79dd3e"},"vehicle_type_id":"4","last_reported":1736342184,"current_range_meters":38800,"station_id":"ce4bhr92rcd13ifvqhrg","pricing_plan_id":"cebpf4jnsgd1na2vs0mg"},{"bike_id":"ec139761-d570-47fe-8322-343df8d21414","system_id":"levelo_inurba_marseille","lat":43.266805,"lon":5.382669,"is_reserved":false,"is_disabled":false,"rental_uris":{"android":"levelo://app?vid=ec139761-d570-47fe-8322-343df8d21414","ios":"levelo://app?vid=ec139761-d570-47fe-8322-343df8d21414"},"vehicle_type_id":"4","last_reported":1736342184,"current_range_meters":38800,"station_id":"ce4bhg92rcd13ifvqf90","pricing_plan_id":"cebpf4jnsgd1na2vs0mg"},{"bike_id":"6c9daffc-e174-4a9a-8b3e-30a6cf4027c8","system_id":"levelo_inurba_marseille","lat":43.32101,"lon":5.3677,"is_reserved":false,"is_disabled":false,"rental_uris":{"android":"levelo://app?vid=6c9daffc-e174-4a9a-8b3e-30a6cf4027c8","ios":"levelo://app?vid=6c9daffc-e174-4a9a-8b3e-30a6cf4027c8"},"vehicle_type_id":"4","last_reported":1736342184,"current_range_meters":18800,"station_id":"ce4bhrh2rcd13ifvqhug","pricing_plan_id":"cebpf4jnsgd1na2vs0mg"},{"bike_id":"80390567-821c-4025-8bc9-aa99a11d153e","system_id":"levelo_inurba_marseille","lat":43.26555,"lon":5.37305,"is_reserved":false,"is_disabled":false,"rental_uris":{"android":"levelo://app?vid=80390567-821c-4025-8bc9-aa99a11d153e","ios":"levelo://app?vid=80390567-821c-4025-8bc9-aa99a11d153e"},"vehicle_type_id":"4","last_reported":1736342184,"current_range_meters":16800,"station_id":"ce4bhg12rcd13ifvqf70","pricing_plan_id":"cebpf4jnsgd1na2vs0mg"},{"bike_id":"9eb509c7-473a-423c-bff1-95eb5d57d712","system_id":"levelo_inurba_marseille","lat":43.31546,"lon":5.38034,"is_reserved":false,"is_disabled":false,"rental_uris":{"android":"levelo://app?vid=9eb509c7-473a-423c-bff1-95eb5d57d712","ios":"levelo://app?vid=9eb509c7-473a-423c-bff1-95eb5d57d712"},"vehicle_type_id":"4","last_reported":1736342184,"current_range_meters":16800,"station_id":"ce4bhsp2rcd13ifvqi50","pricing_plan_id":"cebpf4jnsgd1na2vs0mg"},{"bike_id":"87610480-9ba3-4347-902f-c64a1e1fcb8e","system_id":"levelo_inurba_marseille","lat":43.27171,"lon":5.40998,"is_reserved":false,"is_disabled":false,"rental_uris":{"android":"levelo://app?vid=87610480-9ba3-4347-902f-c64a1e1fcb8e","ios":"levelo://app?vid=87610480-9ba3-4347-902f-c64a1e1fcb8e"},"vehicle_type_id":"4","last_reported":1736342184,"current_range_meters":6400,"station_id":"ce4bhl12rcd13ifvqgf0","pricing_plan_id":"cebpf4jnsgd1na2vs0mg"},{"bike_id":"10cbf73e-85a6-40b6-ae3f-27a0e14bcadf","system_id":"levelo_inurba_marseille","lat":43.32539,"lon":5.41443,"is_reserved":false,"is_disabled":false,"rental_uris":{"android":"levelo://app?vid=10cbf73e-85a6-40b6-ae3f-27a0e14bcadf","ios":"levelo://app?vid=10cbf73e-85a6-40b6-ae3f-27a0e14bcadf"},"vehicle_type_id":"4","last_reported":1736342184,"current_range_meters":12400,"station_id":"ce4bhq12rcd13ifvqhhg","pricing_plan_id":"cebpf4jnsgd1na2vs0mg"},{"bike_id":"66b297fa-2019-4d14-9ae4-d8d77cce584f","system_id":"levelo_inurba_marseille","lat":43.29452,"lon":5.39746,"is_reserved":false,"is_disabled":false,"rental_uris":{"android":"levelo://app?vid=66b297fa-2019-4d14-9ae4-d8d77cce584f","ios":"levelo://app?vid=66b297fa-2019-4d14-9ae4-d8d77cce584f"},"vehicle_type_id":"4","last_reported":1736342184,"current_range_meters":25200,"station_id":"ce4bh3h2rcd13ifvqdo0","pricing_plan_id":"cebpf4jnsgd1na2vs0mg"},{"bike_id":"60669f6b-5d5a-4706-a293-17bd3191f89d","system_id":"levelo_inurba_marseille","lat":43.2902,"lon":5.38647,"is_reserved":false,"is_disabled":false,"rental_uris":{"android":"levelo://app?vid=60669f6b-5d5a-4706-a293-17bd3191f89d","ios":"levelo://app?vid=60669f6b-5d5a-4706-a293-17bd3191f89d"},"vehicle_type_id":"4","last_reported":1736342184,"current_range_meters":38400,"station_id":"ce4bh4p2rcd13ifvqe0g","pricing_plan_id":"cebpf4jnsgd1na2vs0mg"},{"bike_id":"65a9f044-ede5-4d81-9c26-d3b284ff59cb","system_id":"levelo_inurba_marseille","lat":43.23186,"lon":5.4001,"is_reserved":false,"is_disabled":false,"rental_uris":{"android":"levelo://app?vid=65a9f044-ede5-4d81-9c26-d3b284ff59cb","ios":"levelo://app?vid=65a9f044-ede5-4d81-9c26-d3b284ff59cb"},"vehicle_type_id":"4","last_reported":1736342184,"current_range_meters":16000,"station_id":"ce4bhn12rcd13ifvqgqg","pricing_plan_id":"cebpf4jnsgd1na2vs0mg"},{"bike_id":"6dea616b-5a54-4359-91fb-7085ad83043e","system_id":"levelo_inurba_marseille","lat":43.29563,"lon":5.37521,"is_reserved":false,"is_disabled":false,"rental_uris":{"android":"levelo://app?vid=6dea616b-5a54-4359-91fb-7085ad83043e","ios":"levelo://app?vid=6dea616b-5a54-4359-91fb-7085ad83043e"},"vehicle_type_id":"4","last_reported":1736342184,"current_range_meters":14400,"station_id":"ce4bgh92rcd13ifvqb50","pricing_plan_id":"cebpf4jnsgd1na2vs0mg"},{"bike_id":"b1c05a28-e862-4024-a61b-ab8d551b8107","system_id":"levelo_inurba_marseille","lat":43.3302,"lon":5.39019,"is_reserved":false,"is_disabled":false,"rental_uris":{"android":"levelo://app?vid=b1c05a28-e862-4024-a61b-ab8d551b8107","ios":"levelo://app?vid=b1c05a28-e862-4024-a61b-ab8d551b8107"},"vehicle_type_id":"4","last_reported":1736342184,"current_range_meters":38000,"station_id":"ce4bhr92rcd13ifvqhrg","pricing_plan_id":"cebpf4jnsgd1na2vs0mg"},{"bike_id":"2875f589-d481-436a-bcd9-732200485325","system_id":"levelo_inurba_marseille","lat":43.27947,"lon":5.4104,"is_reserved":false,"is_disabled":false,"rental_uris":{"android":"levelo://app?vid=2875f589-d481-436a-bcd9-732200485325","ios":"levelo://app?vid=2875f589-d481-436a-bcd9-732200485325"},"vehicle_type_id":"4","last_reported":1736342184,"current_range_meters":6000,"station_id":"ce4bhnp2rcd13ifvqh0g","pricing_plan_id":"cebpf4jnsgd1na2vs0mg"},{"bike_id":"e797976e-f3da-48d1-93de-1d401bbc1e91","system_id":"levelo_inurba_marseille","lat":43.287039,"lon":5.373797,"is_reserved":false,"is_disabled":false,"rental_uris":{"android":"levelo://app?vid=e797976e-f3da-48d1-93de-1d401bbc1e91","ios":"levelo://app?vid=e797976e-f3da-48d1-93de-1d401bbc1e91"},"vehicle_type_id":"4","last_reported":1736342184,"current_range_meters":16800,"station_id":"ce4bh3p2rcd13ifvqdq0","pricing_plan_id":"cebpf4jnsgd1na2vs0mg"},{"bike_id":"f90735bf-053d-4ead-9bcd-08d65e402552","system_id":"levelo_inurba_marseille","lat":43.26203,"lon":5.37932,"is_reserved":false,"is_disabled":false,"rental_uris":{"android":"levelo://app?vid=f90735bf-053d-4ead-9bcd-08d65e402552","ios":"levelo://app?vid=f90735bf-053d-4ead-9bcd-08d65e402552"},"vehicle_type_id":"4","last_reported":1736342184,"current_range_meters":9600,"station_id":"ce4bhjp2rcd13ifvqg90","pricing_plan_id":"cebpf4jnsgd1na2vs0mg"},{"bike_id":"bc972982-3f4a-4485-bc1a-a2f6afbb3b39","system_id":"levelo_inurba_marseille","lat":43.28617,"lon":5.35112,"is_reserved":false,"is_disabled":false,"rental_uris":{"android":"levelo://app?vid=bc972982-3f4a-4485-bc1a-a2f6afbb3b39","ios":"levelo://app?vid=bc972982-3f4a-4485-bc1a-a2f6afbb3b39"},"vehicle_type_id":"4","last_reported":1736342184,"current_range_meters":38800,"station_id":"ce4bhch2rcd13ifvqeug","pricing_plan_id":"cebpf4jnsgd1na2vs0mg"},{"bike_id":"1e2223a2-c032-49e7-8dbf-982df86a0520","system_id":"levelo_inurba_marseille","lat":43.22927,"lon":5.35378,"is_reserved":false,"is_disabled":false,"rental_uris":{"android":"levelo://app?vid=1e2223a2-c032-49e7-8dbf-982df86a0520","ios":"levelo://app?vid=1e2223a2-c032-49e7-8dbf-982df86a0520"},"vehicle_type_id":"4","last_reported":1736342184,"current_range_meters":3200,"station_id":"cpo3532slgdg3j2ikp40","pricing_plan_id":"cebpf4jnsgd1na2vs0mg"},{"bike_id":"da2b7539-b6a7-411c-ad87-54bbd95c18e3","system_id":"levelo_inurba_marseille","lat":43.29856,"lon":5.36273,"is_reserved":false,"is_disabled":false,"rental_uris":{"android":"levelo://app?vid=da2b7539-b6a7-411c-ad87-54bbd95c18e3","ios":"levelo://app?vid=da2b7539-b6a7-411c-ad87-54bbd95c18e3"},"vehicle_type_id":"4","last_reported":1736342184,"current_range_meters":38800,"station_id":"ce4bgpp2rcd13ifvqc3g","pricing_plan_id":"cebpf4jnsgd1na2vs0mg"},{"bike_id":"408d1b95-65ad-4ab1-aa59-d24594f95197","system_id":"levelo_inurba_marseille","lat":43.28933,"lon":5.36637,"is_reserved":false,"is_disabled":true,"rental_uris":{"android":"levelo://app?vid=408d1b95-65ad-4ab1-aa59-d24594f95197","ios":"levelo://app?vid=408d1b95-65ad-4ab1-aa59-d24594f95197"},"vehicle_type_id":"4","last_reported":1736342184,"current_range_meters":0,"station_id":"ce4bhap2rcd13ifvqek0","pricing_plan_id":"cebpf4jnsgd1na2vs0mg"},{"bike_id":"be8a233f-ad85-41b2-af03-bfa1e3033438","system_id":"levelo_inurba_marseille","lat":43.23215,"lon":5.35559,"is_reserved":false,"is_disabled":false,"rental_uris":{"android":"levelo://app?vid=be8a233f-ad85-41b2-af03-bfa1e3033438","ios":"levelo://app?vid=be8a233f-ad85-41b2-af03-bfa1e3033438"},"vehicle_type_id":"4","last_reported":1736342184,"current_range_meters":32000,"station_id":"ce4bhu92rcd13ifvqi70","pricing_plan_id":"cebpf4jnsgd1na2vs0mg"},{"bike_id":"65e45bc2-89fc-4f49-a256-2a9100c411cb","system_id":"levelo_inurba_marseille","lat":43.26785,"lon":5.39414,"is_reserved":false,"is_disabled":false,"rental_uris":{"android":"levelo://app?vid=65e45bc2-89fc-4f49-a256-2a9100c411cb","ios":"levelo://app?vid=65e45bc2-89fc-4f49-a256-2a9100c411cb"},"vehicle_type_id":"4","last_reported":1736342184,"current_range_meters":25200,"station_id":"ce4bhh12rcd13ifvqfg0","pricing_plan_id":"cebpf4jnsgd1na2vs0mg"},{"bike_id":"4384440c-1107-4132-b7ac-dfb5e37e2bbd","system_id":"levelo_inurba_marseille","lat":43.29014,"lon":5.35633,"is_reserved":false,"is_disabled":false,"rental_uris":{"android":"levelo://app?vid=4384440c-1107-4132-b7ac-dfb5e37e2bbd","ios":"levelo://app?vid=4384440c-1107-4132-b7ac-dfb5e37e2bbd"},"vehicle_type_id":"4","last_reported":1736342184,"current_range_meters":35200,"station_id":"ce4bhb92rcd13ifvqen0","pricing_plan_id":"cebpf4jnsgd1na2vs0mg"},{"bike_id":"82512bdb-1bd6-4ee5-afaf-8d21e65273b9","system_id":"levelo_inurba_marseille","lat":43.296059,"lon":5.37722,"is_reserved":false,"is_disabled":false,"rental_uris":{"android":"levelo://app?vid=82512bdb-1bd6-4ee5-afaf-8d21e65273b9","ios":"levelo://app?vid=82512bdb-1bd6-4ee5-afaf-8d21e65273b9"},"vehicle_type_id":"4","last_reported":1736342184,"current_range_meters":30000,"station_id":"ce4bgi92rcd13ifvqb90","pricing_plan_id":"cebpf4jnsgd1na2vs0mg"},{"bike_id":"5f9fe051-177e-401c-9cf6-ad464d4bf618","system_id":"levelo_inurba_marseille","lat":43.29729,"lon":5.37685,"is_reserved":false,"is_disabled":false,"rental_uris":{"android":"levelo://app?vid=5f9fe051-177e-401c-9cf6-ad464d4bf618","ios":"levelo://app?vid=5f9fe051-177e-401c-9cf6-ad464d4bf618"},"vehicle_type_id":"4","last_reported":1736342184,"current_range_meters":7200,"station_id":"ce4bgkh2rcd13ifvqbl0","pricing_plan_id":"cebpf4jnsgd1na2vs0mg"},{"bike_id":"261d6baa-6908-4873-ace6-dde103e05e90","system_id":"levelo_inurba_marseille","lat":43.28264,"lon":5.35088,"is_reserved":false,"is_disabled":false,"rental_uris":{"android":"levelo://app?vid=261d6baa-6908-4873-ace6-dde103e05e90","ios":"levelo://app?vid=261d6baa-6908-4873-ace6-dde103e05e90"},"vehicle_type_id":"4","last_reported":1736342184,"current_range_meters":38800,"station_id":"ce4bhbp2rcd13ifvqerg","pricing_plan_id":"cebpf4jnsgd1na2vs0mg"},{"bike_id":"ad29a801-54b6-4280-bc37-850eb1ef3f7e","system_id":"levelo_inurba_marseille","lat":43.30925,"lon":5.40143,"is_reserved":false,"is_disabled":false,"rental_uris":{"android":"levelo://app?vid=ad29a801-54b6-4280-bc37-850eb1ef3f7e","ios":"levelo://app?vid=ad29a801-54b6-4280-bc37-850eb1ef3f7e"},"vehicle_type_id":"4","last_reported":1736342184,"current_range_meters":30400,"station_id":"ce4bgvp2rcd13ifvqct0","pricing_plan_id":"cebpf4jnsgd1na2vs0mg"},{"bike_id":"0686a8cb-2b76-4424-87d1-4f58c91d61f2","system_id":"levelo_inurba_marseille","lat":43.25718,"lon":5.41119,"is_reserved":false,"is_disabled":false,"rental_uris":{"android":"levelo://app?vid=0686a8cb-2b76-4424-87d1-4f58c91d61f2","ios":"levelo://app?vid=0686a8cb-2b76-4424-87d1-4f58c91d61f2"},"vehicle_type_id":"4","last_reported":1736342184,"current_range_meters":38800,"station_id":"ce4bhkp2rcd13ifvqgd0","pricing_plan_id":"cebpf4jnsgd1na2vs0mg"},{"bike_id":"b63f0d82-7904-4818-a6b1-9534f420fba3","system_id":"levelo_inurba_marseille","lat":43.3025,"lon":5.40077,"is_reserved":false,"is_disabled":false,"rental_uris":{"android":"levelo://app?vid=b63f0d82-7904-4818-a6b1-9534f420fba3","ios":"levelo://app?vid=b63f0d82-7904-4818-a6b1-9534f420fba3"},"vehicle_type_id":"4","last_reported":1736342184,"current_range_meters":27200,"station_id":"ce4bgvh2rcd13ifvqcs0","pricing_plan_id":"cebpf4jnsgd1na2vs0mg"},{"bike_id":"ad1dff91-2f95-4984-91ce-84be50678298","system_id":"levelo_inurba_marseille","lat":43.26208,"lon":5.3792,"is_reserved":false,"is_disabled":false,"rental_uris":{"android":"levelo://app?vid=ad1dff91-2f95-4984-91ce-84be50678298","ios":"levelo://app?vid=ad1dff91-2f95-4984-91ce-84be50678298"},"vehicle_type_id":"4","last_reported":1736342184,"current_range_meters":36000,"station_id":"ce4bhjp2rcd13ifvqg90","pricing_plan_id":"cebpf4jnsgd1na2vs0mg"},{"bike_id":"f4850a55-53b7-479f-8420-ce4aadecd260","system_id":"levelo_inurba_marseille","lat":43.29099,"lon":5.38128,"is_reserved":false,"is_disabled":false,"rental_uris":{"android":"levelo://app?vid=f4850a55-53b7-479f-8420-ce4aadecd260","ios":"levelo://app?vid=f4850a55-53b7-479f-8420-ce4aadecd260"},"vehicle_type_id":"4","last_reported":1736342184,"current_range_meters":38000,"station_id":"ce4bh512rcd13ifvqe2g","pricing_plan_id":"cebpf4jnsgd1na2vs0mg"},{"bike_id":"aa126130-1d49-459b-b987-cd03572c6689","system_id":"levelo_inurba_marseille","lat":43.28352,"lon":5.38107,"is_reserved":false,"is_disabled":false,"rental_uris":{"android":"levelo://app?vid=aa126130-1d49-459b-b987-cd03572c6689","ios":"levelo://app?vid=aa126130-1d49-459b-b987-cd03572c6689"},"vehicle_type_id":"4","last_reported":1736342184,"current_range_meters":27200,"station_id":"ce4bh412rcd13ifvqdr0","pricing_plan_id":"cebpf4jnsgd1na2vs0mg"},{"bike_id":"59b6d80e-08d9-454f-9b32-34e960189002","system_id":"levelo_inurba_marseille","lat":43.23963,"lon":5.3663,"is_reserved":false,"is_disabled":false,"rental_uris":{"android":"levelo://app?vid=59b6d80e-08d9-454f-9b32-34e960189002","ios":"levelo://app?vid=59b6d80e-08d9-454f-9b32-34e960189002"},"vehicle_type_id":"4","last_reported":1736342184,"current_range_meters":21600,"station_id":"ce4bhi12rcd13ifvqfp0","pricing_plan_id":"cebpf4jnsgd1na2vs0mg"},{"bike_id":"ad28bd53-1c8c-44ea-9a1c-1e5a5b2498fe","system_id":"levelo_inurba_marseille","lat":43.24168,"lon":5.36403,"is_reserved":false,"is_disabled":false,"rental_uris":{"android":"levelo://app?vid=ad28bd53-1c8c-44ea-9a1c-1e5a5b2498fe","ios":"levelo://app?vid=ad28bd53-1c8c-44ea-9a1c-1e5a5b2498fe"},"vehicle_type_id":"4","last_reported":1736342184,"current_range_meters":19600,"station_id":"cpo36qri1sfpv3e86is0","pricing_plan_id":"cebpf4jnsgd1na2vs0mg"},{"bike_id":"247347ad-5bef-4bd7-b4b8-b4f9435b48aa","system_id":"levelo_inurba_marseille","lat":43.27056,"lon":5.40264,"is_reserved":false,"is_disabled":false,"rental_uris":{"android":"levelo://app?vid=247347ad-5bef-4bd7-b4b8-b4f9435b48aa","ios":"levelo://app?vid=247347ad-5bef-4bd7-b4b8-b4f9435b48aa"},"vehicle_type_id":"4","last_reported":1736342184,"current_range_meters":38800,"station_id":"ce4bhk92rcd13ifvqgc0","pricing_plan_id":"cebpf4jnsgd1na2vs0mg"},{"bike_id":"73af944a-344d-4876-97da-a15332379853","system_id":"levelo_inurba_marseille","lat":43.31541,"lon":5.38032,"is_reserved":false,"is_disabled":false,"rental_uris":{"android":"levelo://app?vid=73af944a-344d-4876-97da-a15332379853","ios":"levelo://app?vid=73af944a-344d-4876-97da-a15332379853"},"vehicle_type_id":"4","last_reported":1736342184,"current_range_meters":28400,"station_id":"ce4bhsp2rcd13ifvqi50","pricing_plan_id":"cebpf4jnsgd1na2vs0mg"},{"bike_id":"fbc22a0a-3d41-4d61-8239-f1368d1f7b10","system_id":"levelo_inurba_marseille","lat":43.29553,"lon":5.37509,"is_reserved":false,"is_disabled":false,"rental_uris":{"android":"levelo://app?vid=fbc22a0a-3d41-4d61-8239-f1368d1f7b10","ios":"levelo://app?vid=fbc22a0a-3d41-4d61-8239-f1368d1f7b10"},"vehicle_type_id":"4","last_reported":1736342184,"current_range_meters":19200,"station_id":"ce4bgh92rcd13ifvqb50","pricing_plan_id":"cebpf4jnsgd1na2vs0mg"},{"bike_id":"c8ebe7df-006f-4929-bdb9-97e0f784e301","system_id":"levelo_inurba_marseille","lat":43.29582,"lon":5.36729,"is_reserved":false,"is_disabled":false,"rental_uris":{"android":"levelo://app?vid=c8ebe7df-006f-4929-bdb9-97e0f784e301","ios":"levelo://app?vid=c8ebe7df-006f-4929-bdb9-97e0f784e301"},"vehicle_type_id":"4","last_reported":1736342184,"current_range_meters":38800,"station_id":"ce4bgph2rcd13ifvqc2g","pricing_plan_id":"cebpf4jnsgd1na2vs0mg"},{"bike_id":"dd2ed07d-aacc-4042-92e9-f341e7758bb3","system_id":"levelo_inurba_marseille","lat":43.26683,"lon":5.38278,"is_reserved":false,"is_disabled":false,"rental_uris":{"android":"levelo://app?vid=dd2ed07d-aacc-4042-92e9-f341e7758bb3","ios":"levelo://app?vid=dd2ed07d-aacc-4042-92e9-f341e7758bb3"},"vehicle_type_id":"4","last_reported":1736342184,"current_range_meters":34800,"station_id":"ce4bhg92rcd13ifvqf90","pricing_plan_id":"cebpf4jnsgd1na2vs0mg"},{"bike_id":"cecb496a-19a6-4ad5-b31b-eac3846b2c8c","system_id":"levelo_inurba_marseille","lat":43.29381,"lon":5.37853,"is_reserved":false,"is_disabled":true,"rental_uris":{"android":"levelo://app?vid=cecb496a-19a6-4ad5-b31b-eac3846b2c8c","ios":"levelo://app?vid=cecb496a-19a6-4ad5-b31b-eac3846b2c8c"},"vehicle_type_id":"4","last_reported":1736342184,"current_range_meters":3200,"station_id":"ce4bgjh2rcd13ifvqbf0","pricing_plan_id":"cebpf4jnsgd1na2vs0mg"},{"bike_id":"5a6646f5-bf81-40ee-8a07-244a7035ee8f","system_id":"levelo_inurba_marseille","lat":43.28298,"lon":5.35093,"is_reserved":false,"is_disabled":false,"rental_uris":{"android":"levelo://app?vid=5a6646f5-bf81-40ee-8a07-244a7035ee8f","ios":"levelo://app?vid=5a6646f5-bf81-40ee-8a07-244a7035ee8f"},"vehicle_type_id":"4","last_reported":1736342184,"current_range_meters":38800,"station_id":"ce4bhbp2rcd13ifvqerg","pricing_plan_id":"cebpf4jnsgd1na2vs0mg"},{"bike_id":"606c5c4b-0be2-4e18-bcc7-d742618831cf","system_id":"levelo_inurba_marseille","lat":43.28465,"lon":5.3924,"is_reserved":false,"is_disabled":false,"rental_uris":{"android":"levelo://app?vid=606c5c4b-0be2-4e18-bcc7-d742618831cf","ios":"levelo://app?vid=606c5c4b-0be2-4e18-bcc7-d742618831cf"},"vehicle_type_id":"4","last_reported":1736342184,"current_range_meters":39200,"station_id":"ce4bhoh2rcd13ifvqh5g","pricing_plan_id":"cebpf4jnsgd1na2vs0mg"},{"bike_id":"867b2724-173e-4935-9078-e499308ce82e","system_id":"levelo_inurba_marseille","lat":43.27375,"lon":5.36251,"is_reserved":false,"is_disabled":false,"rental_uris":{"android":"levelo://app?vid=867b2724-173e-4935-9078-e499308ce82e","ios":"levelo://app?vid=867b2724-173e-4935-9078-e499308ce82e"},"vehicle_type_id":"4","last_reported":1736342184,"current_range_meters":34000,"station_id":"ce4bhbh2rcd13ifvqeo0","pricing_plan_id":"cebpf4jnsgd1na2vs0mg"},{"bike_id":"62ebd551-4014-4c16-b6b8-616f8fce73ef","system_id":"levelo_inurba_marseille","lat":43.30914,"lon":5.36868,"is_reserved":false,"is_disabled":true,"rental_uris":{"android":"levelo://app?vid=62ebd551-4014-4c16-b6b8-616f8fce73ef","ios":"levelo://app?vid=62ebd551-4014-4c16-b6b8-616f8fce73ef"},"vehicle_type_id":"4","last_reported":1736342184,"current_range_meters":0,"station_id":"ce4bgn92rcd13ifvqbvg","pricing_plan_id":"cebpf4jnsgd1na2vs0mg"},{"bike_id":"babfa938-4d9d-46c5-9949-5dd894d221bb","system_id":"levelo_inurba_marseille","lat":43.3017,"lon":5.36606,"is_reserved":false,"is_disabled":false,"rental_uris":{"android":"levelo://app?vid=babfa938-4d9d-46c5-9949-5dd894d221bb","ios":"levelo://app?vid=babfa938-4d9d-46c5-9949-5dd894d221bb"},"vehicle_type_id":"4","last_reported":1736342184,"current_range_meters":39200,"station_id":"ce4bgrh2rcd13ifvqc8g","pricing_plan_id":"cebpf4jnsgd1na2vs0mg"},{"bike_id":"4a8da2ba-676b-4202-95a6-d547f915e48e","system_id":"levelo_inurba_marseille","lat":43.32277,"lon":5.38278,"is_reserved":false,"is_disabled":false,"rental_uris":{"android":"levelo://app?vid=4a8da2ba-676b-4202-95a6-d547f915e48e","ios":"levelo://app?vid=4a8da2ba-676b-4202-95a6-d547f915e48e"},"vehicle_type_id":"4","last_reported":1736342184,"current_range_meters":38800,"station_id":"ce4bhr12rcd13ifvqhqg","pricing_plan_id":"cebpf4jnsgd1na2vs0mg"},{"bike_id":"517b7bea-fb10-48e1-b47d-bb65f21dc56b","system_id":"levelo_inurba_marseille","lat":43.28269,"lon":5.3507,"is_reserved":false,"is_disabled":false,"rental_uris":{"android":"levelo://app?vid=517b7bea-fb10-48e1-b47d-bb65f21dc56b","ios":"levelo://app?vid=517b7bea-fb10-48e1-b47d-bb65f21dc56b"},"vehicle_type_id":"4","last_reported":1736342184,"current_range_meters":16400,"station_id":"ce4bhbp2rcd13ifvqerg","pricing_plan_id":"cebpf4jnsgd1na2vs0mg"},{"bike_id":"e1c96e15-8c1f-44db-bd4b-d97fe47974bb","system_id":"levelo_inurba_marseille","lat":43.28623,"lon":5.351,"is_reserved":false,"is_disabled":false,"rental_uris":{"android":"levelo://app?vid=e1c96e15-8c1f-44db-bd4b-d97fe47974bb","ios":"levelo://app?vid=e1c96e15-8c1f-44db-bd4b-d97fe47974bb"},"vehicle_type_id":"4","last_reported":1736342184,"current_range_meters":38400,"station_id":"ce4bhch2rcd13ifvqeug","pricing_plan_id":"cebpf4jnsgd1na2vs0mg"},{"bike_id":"53e77af5-ac5a-4ea7-8958-406ca4e89e7b","system_id":"levelo_inurba_marseille","lat":43.24402,"lon":5.3708,"is_reserved":false,"is_disabled":false,"rental_uris":{"android":"levelo://app?vid=53e77af5-ac5a-4ea7-8958-406ca4e89e7b","ios":"levelo://app?vid=53e77af5-ac5a-4ea7-8958-406ca4e89e7b"},"vehicle_type_id":"4","last_reported":1736342184,"current_range_meters":38400,"station_id":"ce4bhhh2rcd13ifvqfk0","pricing_plan_id":"cebpf4jnsgd1na2vs0mg"},{"bike_id":"38f7b306-aedf-4666-ba28-178ae53ba75c","system_id":"levelo_inurba_marseille","lat":43.30526,"lon":5.36713,"is_reserved":false,"is_disabled":false,"rental_uris":{"android":"levelo://app?vid=38f7b306-aedf-4666-ba28-178ae53ba75c","ios":"levelo://app?vid=38f7b306-aedf-4666-ba28-178ae53ba75c"},"vehicle_type_id":"4","last_reported":1736342184,"current_range_meters":32400,"station_id":"ce4bgrp2rcd13ifvqc9g","pricing_plan_id":"cebpf4jnsgd1na2vs0mg"},{"bike_id":"ae57f230-ec9d-44b0-ad5b-3ee6d1ca4574","system_id":"levelo_inurba_marseille","lat":43.27064,"lon":5.40271,"is_reserved":false,"is_disabled":false,"rental_uris":{"android":"levelo://app?vid=ae57f230-ec9d-44b0-ad5b-3ee6d1ca4574","ios":"levelo://app?vid=ae57f230-ec9d-44b0-ad5b-3ee6d1ca4574"},"vehicle_type_id":"4","last_reported":1736342184,"current_range_meters":38400,"station_id":"ce4bhk92rcd13ifvqgc0","pricing_plan_id":"cebpf4jnsgd1na2vs0mg"},{"bike_id":"51319175-ee32-4a41-9e56-3d7d71a16d4b","system_id":"levelo_inurba_marseille","lat":43.27052,"lon":5.40262,"is_reserved":false,"is_disabled":false,"rental_uris":{"android":"levelo://app?vid=51319175-ee32-4a41-9e56-3d7d71a16d4b","ios":"levelo://app?vid=51319175-ee32-4a41-9e56-3d7d71a16d4b"},"vehicle_type_id":"4","last_reported":1736342184,"current_range_meters":16800,"station_id":"ce4bhk92rcd13ifvqgc0","pricing_plan_id":"cebpf4jnsgd1na2vs0mg"},{"bike_id":"7bc5649e-6bf9-44e0-81e0-4779df803f45","system_id":"levelo_inurba_marseille","lat":43.2815,"lon":5.42633,"is_reserved":false,"is_disabled":true,"rental_uris":{"android":"levelo://app?vid=7bc5649e-6bf9-44e0-81e0-4779df803f45","ios":"levelo://app?vid=7bc5649e-6bf9-44e0-81e0-4779df803f45"},"vehicle_type_id":"4","last_reported":1736342184,"current_range_meters":800,"station_id":"ce4bhnh2rcd13ifvqgug","pricing_plan_id":"cebpf4jnsgd1na2vs0mg"},{"bike_id":"6856f041-bd4d-40fe-a6a5-9584cc08b135","system_id":"levelo_inurba_marseille","lat":43.24675,"lon":5.38159,"is_reserved":false,"is_disabled":false,"rental_uris":{"android":"levelo://app?vid=6856f041-bd4d-40fe-a6a5-9584cc08b135","ios":"levelo://app?vid=6856f041-bd4d-40fe-a6a5-9584cc08b135"},"vehicle_type_id":"4","last_reported":1736342184,"current_range_meters":35200,"station_id":"ce4bhih2rcd13ifvqfr0","pricing_plan_id":"cebpf4jnsgd1na2vs0mg"},{"bike_id":"f7e5303f-9d7b-4310-936e-7fedd7552842","system_id":"levelo_inurba_marseille","lat":43.29038,"lon":5.39961,"is_reserved":false,"is_disabled":false,"rental_uris":{"android":"levelo://app?vid=f7e5303f-9d7b-4310-936e-7fedd7552842","ios":"levelo://app?vid=f7e5303f-9d7b-4310-936e-7fedd7552842"},"vehicle_type_id":"4","last_reported":1736342184,"current_range_meters":38800,"station_id":"ce4bh392rcd13ifvqdm0","pricing_plan_id":"cebpf4jnsgd1na2vs0mg"},{"bike_id":"77140e92-43d3-4e9c-b1bf-1a7db1513194","system_id":"levelo_inurba_marseille","lat":43.2781,"lon":5.40713,"is_reserved":false,"is_disabled":false,"rental_uris":{"android":"levelo://app?vid=77140e92-43d3-4e9c-b1bf-1a7db1513194","ios":"levelo://app?vid=77140e92-43d3-4e9c-b1bf-1a7db1513194"},"vehicle_type_id":"4","last_reported":1736342184,"current_range_meters":28800,"station_id":"ce4bhnh2rcd13ifvqgtg","pricing_plan_id":"cebpf4jnsgd1na2vs0mg"},{"bike_id":"e06707d6-40a2-43f6-9805-0d388df24f5c","system_id":"levelo_inurba_marseille","lat":43.29589,"lon":5.36742,"is_reserved":false,"is_disabled":false,"rental_uris":{"android":"levelo://app?vid=e06707d6-40a2-43f6-9805-0d388df24f5c","ios":"levelo://app?vid=e06707d6-40a2-43f6-9805-0d388df24f5c"},"vehicle_type_id":"4","last_reported":1736342184,"current_range_meters":16000,"station_id":"ce4bgph2rcd13ifvqc2g","pricing_plan_id":"cebpf4jnsgd1na2vs0mg"},{"bike_id":"e7ce7560-0a75-4275-9af8-997e9af96e6d","system_id":"levelo_inurba_marseille","lat":43.25918,"lon":5.40908,"is_reserved":false,"is_disabled":false,"rental_uris":{"android":"levelo://app?vid=e7ce7560-0a75-4275-9af8-997e9af96e6d","ios":"levelo://app?vid=e7ce7560-0a75-4275-9af8-997e9af96e6d"},"vehicle_type_id":"4","last_reported":1736342184,"current_range_meters":32400,"station_id":"ce4bhm92rcd13ifvqglg","pricing_plan_id":"cebpf4jnsgd1na2vs0mg"},{"bike_id":"9f734721-07c4-4fb6-b677-9abc357155bb","system_id":"levelo_inurba_marseille","lat":43.29195,"lon":5.35805,"is_reserved":false,"is_disabled":false,"rental_uris":{"android":"levelo://app?vid=9f734721-07c4-4fb6-b677-9abc357155bb","ios":"levelo://app?vid=9f734721-07c4-4fb6-b677-9abc357155bb"},"vehicle_type_id":"4","last_reported":1736342184,"current_range_meters":16400,"station_id":"ce4bhb12rcd13ifvqel0","pricing_plan_id":"cebpf4jnsgd1na2vs0mg"},{"bike_id":"0ce73ae1-b154-43da-a4ed-8140bf82ff61","system_id":"levelo_inurba_marseille","lat":43.28626,"lon":5.35101,"is_reserved":false,"is_disabled":true,"rental_uris":{"android":"levelo://app?vid=0ce73ae1-b154-43da-a4ed-8140bf82ff61","ios":"levelo://app?vid=0ce73ae1-b154-43da-a4ed-8140bf82ff61"},"vehicle_type_id":"4","last_reported":1736342184,"current_range_meters":0,"station_id":"ce4bhch2rcd13ifvqeug","pricing_plan_id":"cebpf4jnsgd1na2vs0mg"},{"bike_id":"fc16b4ca-3f6b-4afa-92ce-20d3d57aa176","system_id":"levelo_inurba_marseille","lat":43.24554,"lon":5.39533,"is_reserved":false,"is_disabled":false,"rental_uris":{"android":"levelo://app?vid=fc16b4ca-3f6b-4afa-92ce-20d3d57aa176","ios":"levelo://app?vid=fc16b4ca-3f6b-4afa-92ce-20d3d57aa176"},"vehicle_type_id":"4","last_reported":1736342184,"current_range_meters":36800,"station_id":"ce4bhlp2rcd13ifvqgjg","pricing_plan_id":"cebpf4jnsgd1na2vs0mg"},{"bike_id":"e4e3dae7-f927-42ec-881f-8431b70e1083","system_id":"levelo_inurba_marseille","lat":43.26192,"lon":5.37454,"is_reserved":false,"is_disabled":false,"rental_uris":{"android":"levelo://app?vid=e4e3dae7-f927-42ec-881f-8431b70e1083","ios":"levelo://app?vid=e4e3dae7-f927-42ec-881f-8431b70e1083"},"vehicle_type_id":"4","last_reported":1736342184,"current_range_meters":29600,"station_id":"ce4bhgp2rcd13ifvqfc0","pricing_plan_id":"cebpf4jnsgd1na2vs0mg"},