{"last_updated":1738602479,"ttl":60,"version":"2.2","data":{"bikes":[{"bike_id":"59c830b9-d6f0-49df-91e9-084aeda66649","system_id":"levelo_inurba_marseille","lat":43.29165,"lon":5.358,"is_reserved":false,"is_disabled":false,"rental_uris":{"android":"levelo://app?vid=59c830b9-d6f0-49df-91e9-084aeda66649","ios":"levelo://app?vid=59c830b9-d6f0-49df-91e9-084aeda66649"},"vehicle_type_id":"4","last_reported":1738602480,"current_range_meters":30000,"station_id":"ce4bhb12rcd13ifvqel0","pricing_plan_id":"cebpf4jnsgd1na2vs0mg"},{"bike_id":"176cb06f-f5e2-40ce-a5f0-b94c8af2011d","system_id":"levelo_inurba_marseille","lat":43.30894,"lon":5.36857,"is_reserved":false,"is_disabled":true,"rental_uris":{"android":"levelo://app?vid=176cb06f-f5e2-40ce-a5f0-b94c8af2011d","ios":"levelo://app?vid=176cb06f-f5e2-40ce-a5f0-b94c8af2011d"},"vehicle_type_id":"4","last_reported":1738602480,"current_range_meters":28800,"station_id":"ce4bgn92rcd13ifvqbvg","pricing_plan_id":"cebpf4jnsgd1na2vs0mg"},{"bike_id":"0f4c9221-e69c-4238-b350-047e83dc6913","system_id":"levelo_inurba_marseille","lat":43.29796,"lon":5.404,"is_reserved":false,"is_disabled":false,"rental_uris":{"android":"levelo://app?vid=0f4c9221-e69c-4238-b350-047e83dc6913","ios":"levelo://app?vid=0f4c9221-e69c-4238-b350-047e83dc6913"},"vehicle_type_id":"4","last_reported":1738602480,"current_range_meters":14400,"station_id":"ce4bh112rcd13ifvqd90","pricing_plan_id":"cebpf4jnsgd1na2vs0mg"},{"bike_id":"fc814a83-4ff5-43a8-a34b-7b78fc22ed1e","system_id":"levelo_inurba_marseille","lat":43.26689,"lon":5.38268,"is_reserved":false,"is_disabled":true,"rental_uris":{"android":"levelo://app?vid=fc814a83-4ff5-43a8-a34b-7b78fc22ed1e","ios":"levelo://app?vid=fc814a83-4ff5-43a8-a34b-7b78fc22ed1e"},"vehicle_type_id":"4","last_reported":1738602480,"current_range_meters":400,"station_id":"ce4bhg92rcd13ifvqf90","pricing_plan_id":"cebpf4jnsgd1na2vs0mg"},{"bike_id":"0c4ce1c9-5dfd-498a-9268-e97e1b569d3a","system_id":"levelo_inurba_marseille","lat":43.23193,"lon":5.35568,"is_reserved":false,"is_disabled":false,"rental_uris":{"android":"levelo://app?vid=0c4ce1c9-5dfd-498a-9268-e97e1b569d3a","ios":"levelo://app?vid=0c4ce1c9-5dfd-498a-9268-e97e1b569d3a"},"vehicle_type_id":"4","last_reported":1738602480,"current_range_meters":37600,"station_id":"ce4bhu92rcd13ifvqi70","pricing_plan_id":"cebpf4jnsgd1na2vs0mg"},{"bike_id":"1fb1fbac-8ad9-47be-8bc8-bdf0e4a9c4f3","system_id":"levelo_inurba_marseille","lat":43.28844,"lon":5.35846,"is_reserved":false,"is_disabled":false,"rental_uris":{"android":"levelo://app?vid=1fb1fbac-8ad9-47be-8bc8-bdf0e4a9c4f3","ios":"levelo://app?vid=1fb1fbac-8ad9-47be-8bc8-bdf0e4a9c4f3"},"vehicle_type_id":"4","last_reported":1738602480,"current_range_meters":22800,"station_id":"ce4bhb12rcd13ifvqem0","pricing_plan_id":"cebpf4jnsgd1na2vs0mg"},{"bike_id":"7ad543c6-fb45-451c-add8-0b23712390bd","system_id":"levelo_inurba_marseille","lat":43.26934,"lon":5.40246,"is_reserved":false,"is_disabled":false,"rental_uris":{"android":"levelo://app?vid=7ad543c6-fb45-451c-add8-0b23712390bd","ios":"levelo://app?vid=7ad543c6-fb45-451c-add8-0b23712390bd"},"vehicle_type_id":"4","last_reported":1738602480,"current_range_meters":21600,"station_id":"cjm6bp8fraef2m0cb0m0","pricing_plan_id":"cebpf4jnsgd1na2vs0mg"},{"bike_id":"da9152f0-4ca7-41dc-b8e7-93555b45a950","system_id":"levelo_inurba_marseille","lat":43.27052,"lon":5.40257,"is_reserved":false,"is_disabled":false,"rental_uris":{"android":"levelo://app?vid=da9152f0-4ca7-41dc-b8e7-93555b45a950","ios":"levelo://app?vid=da9152f0-4ca7-41dc-b8e7-93555b45a950"},"vehicle_type_id":"4","last_reported":1738602480,"current_range_meters":35600,"station_id":"ce4bhk92rcd13ifvqgc0","pricing_plan_id":"cebpf4jnsgd1na2vs0mg"},{"bike_id":"b53d434e-0520-45fe-97f8-287dd21ae78c","system_id":"levelo_inurba_marseille","lat":43.2707,"lon":5.42292,"is_reserved":false,"is_disabled":false,"rental_uris":{"android":"levelo://app?vid=b53d434e-0520-45fe-97f8-287dd21ae78c","ios":"levelo://app?vid=b53d434e-0520-45fe-97f8-287dd21ae78c"},"vehicle_type_id":"4","last_reported":1738602480,"current_range_meters":6400,"station_id":"ce4bhk92rcd13ifvqgb0","pricing_plan_id":"cebpf4jnsgd1na2vs0mg"},{"bike_id":"81fc2b49-7d41-4bc4-9c6c-fc4ded896c4f","system_id":"levelo_inurba_marseille","lat":43.29922,"lon":5.37467,"is_reserved":false,"is_disabled":true,"rental_uris":{"android":"levelo://app?vid=81fc2b49-7d41-4bc4-9c6c-fc4ded896c4f","ios":"levelo://app?vid=81fc2b49-7d41-4bc4-9c6c-fc4ded896c4f"},"vehicle_type_id":"4","last_reported":1738602480,"current_range_meters":37600,"station_id":"ce4bgjh2rcd13ifvqbg0","pricing_plan_id":"cebpf4jnsgd1na2vs0mg"},{"bike_id":"b2f5ad0b-e859-4a5a-afe6-19f2444b14ba","system_id":"levelo_inurba_marseille","lat":43.31998,"lon":5.38153,"is_reserved":false,"is_disabled":false,"rental_uris":{"android":"levelo://app?vid=b2f5ad0b-e859-4a5a-afe6-19f2444b14ba","ios":"levelo://app?vid=b2f5ad0b-e859-4a5a-afe6-19f2444b14ba"},"vehicle_type_id":"4","last_reported":1738602480,"current_range_meters":38800,"station_id":"ce4bhr12rcd13ifvqhpg","pricing_plan_id":"cebpf4jnsgd1na2vs0mg"},{"bike_id":"84e53465-926b-43ef-956d-fb0614e2633b","system_id":"levelo_inurba_marseille","lat":43.30419,"lon":5.41282,"is_reserved":false,"is_disabled":true,"rental_uris":{"android":"levelo://app?vid=84e53465-926b-43ef-956d-fb0614e2633b","ios":"levelo://app?vid=84e53465-926b-43ef-956d-fb0614e2633b"},"vehicle_type_id":"4","last_reported":1738602480,"current_range_meters":0,"station_id":"ce4bhop2rcd13ifvqh8g","pricing_plan_id":"cebpf4jnsgd1na2vs0mg"},{"bike_id":"46d57953-5a8b-4a73-a05f-e65f22d873c6","system_id":"levelo_inurba_marseille","lat":43.27057,"lon":5.40274,"is_reserved":false,"is_disabled":false,"rental_uris":{"android":"levelo://app?vid=46d57953-5a8b-4a73-a05f-e65f22d873c6","ios":"levelo://app?vid=46d57953-5a8b-4a73-a05f-e65f22d873c6"},"vehicle_type_id":"4","last_reported":1738602480,"current_range_meters":36400,"station_id":"ce4bhk92rcd13ifvqgc0","pricing_plan_id":"cebpf4jnsgd1na2vs0mg"},{"bike_id":"edd72ebc-c1ea-4fa2-b830-e875764857e2","system_id":"levelo_inurba_marseille","lat":43.27376,"lon":5.3626,"is_reserved":false,"is_disabled":true,"rental_uris":{"android":"levelo://app?vid=edd72ebc-c1ea-4fa2-b830-e875764857e2","ios":"levelo://app?vid=edd72ebc-c1ea-4fa2-b830-e875764857e2"},"vehicle_type_id":"4","last_reported":1738602480,"current_range_meters":0,"station_id":"ce4bhbh2rcd13ifvqeo0","pricing_plan_id":"cebpf4jnsgd1na2vs0mg"},{"bike_id":"491586c2-5407-4196-ba25-6eea3bba9a3f","system_id":"levelo_inurba_marseille","lat":43.30475,"lon":5.39031,"is_reserved":false,"is_disabled":false,"rental_uris":{"android":"levelo://app?vid=491586c2-5407-4196-ba25-6eea3bba9a3f","ios":"levelo://app?vid=491586c2-5407-4196-ba25-6eea3bba9a3f"},"vehicle_type_id":"4","last_reported":1738602480,"current_range_meters":32400,"station_id":"","pricing_plan_id":"cebpf4jnsgd1na2vs0mg"},{"bike_id":"430d5648-146c-4ec7-bbfa-6e1440b57110","system_id":"levelo_inurba_marseille","lat":43.337444,"lon":5.374475,"is_reserved":false,"is_disabled":false,"rental_uris":{"android":"levelo://app?vid=430d5648-146c-4ec7-bbfa-6e1440b57110","ios":"levelo://app?vid=430d5648-146c-4ec7-bbfa-6e1440b57110"},"vehicle_type_id":"4","last_reported":1738602480,"current_range_meters":20400,"station_id":"","pricing_plan_id":"cebpf4jnsgd1na2vs0mg"},{"bike_id":"3e574816-3754-460d-8072-f6ebe3757ea0","system_id":"levelo_inurba_marseille","lat":43.3237,"lon":5.3678,"is_reserved":false,"is_disabled":false,"rental_uris":{"android":"levelo://app?vid=3e574816-3754-460d-8072-f6ebe3757ea0","ios":"levelo://app?vid=3e574816-3754-460d-8072-f6ebe3757ea0"},"vehicle_type_id":"4","last_reported":1738602480,"current_range_meters":22000,"station_id":"ce4bhsh2rcd13ifvqi2g","pricing_plan_id":"cebpf4jnsgd1na2vs0mg"},{"bike_id":"a1a7079b-68b5-45ca-9af8-b6bc9f7cd559","system_id":"levelo_inurba_marseille","lat":43.22922,"lon":5.35402,"is_reserved":false,"is_disabled":false,"rental_uris":{"android":"levelo://app?vid=a1a7079b-68b5-45ca-9af8-b6bc9f7cd559","ios":"levelo://app?vid=a1a7079b-68b5-45ca-9af8-b6bc9f7cd559"},"vehicle_type_id":"4","last_reported":1738602480,"current_range_meters":38800,"station_id":"cpo3532slgdg3j2ikp40","pricing_plan_id":"cebpf4jnsgd1na2vs0mg"},{"bike_id":"391156ab-23e6-4087-9fff-4d00554806c8","system_id":"levelo_inurba_marseille","lat":43.27566,"lon":5.38416,"is_reserved":false,"is_disabled":false,"rental_uris":{"android":"levelo://app?vid=391156ab-23e6-4087-9fff-4d00554806c8","ios":"levelo://app?vid=391156ab-23e6-4087-9fff-4d00554806c8"},"vehicle_type_id":"4","last_reported":1738602480,"current_range_meters":36800,"station_id":"ce4bhh92rcd13ifvqfi0","pricing_plan_id":"cebpf4jnsgd1na2vs0mg"},{"bike_id":"4a02347c-ae91-4c9d-adba-44e31fcd384a","system_id":"levelo_inurba_marseille","lat":43.28409,"lon":5.34977,"is_reserved":false,"is_disabled":false,"rental_uris":{"android":"levelo://app?vid=4a02347c-ae91-4c9d-adba-44e31fcd384a","ios":"levelo://app?vid=4a02347c-ae91-4c9d-adba-44e31fcd384a"},"vehicle_type_id":"4","last_reported":1738602480,"current_range_meters":8000,"station_id":"ce4bhbh2rcd13ifvqepg","pricing_plan_id":"cebpf4jnsgd1na2vs0mg"},{"bike_id":"03c58b86-6f9e-4876-a067-63e726c4181d","system_id":"levelo_inurba_marseille","lat":43.29785,"lon":5.39342,"is_reserved":false,"is_disabled":true,"rental_uris":{"android":"levelo://app?vid=03c58b86-6f9e-4876-a067-63e726c4181d","ios":"levelo://app?vid=03c58b86-6f9e-4876-a067-63e726c4181d"},"vehicle_type_id":"4","last_reported":1738602480,"current_range_meters":2000,"station_id":"chh1huq6cuj3fo74tm60","pricing_plan_id":"cebpf4jnsgd1na2vs0mg"},{"bike_id":"1e80229c-3730-4f6a-ad92-db35f7d75e3d","system_id":"levelo_inurba_marseille","lat":43.27188,"lon":5.40994,"is_reserved":false,"is_disabled":false,"rental_uris":{"android":"levelo://app?vid=1e80229c-3730-4f6a-ad92-db35f7d75e3d","ios":"levelo://app?vid=1e80229c-3730-4f6a-ad92-db35f7d75e3d"},"vehicle_type_id":"4","last_reported":1738602480,"current_range_meters":38800,"station_id":"ce4bhl12rcd13ifvqgf0","pricing_plan_id":"cebpf4jnsgd1na2vs0mg"},{"bike_id":"b2a6436f-4c95-46dd-a3bd-6af91e9591d2","system_id":"levelo_inurba_marseille","lat":43.25582,"lon":5.38231,"is_reserved":false,"is_disabled":false,"rental_uris":{"android":"levelo://app?vid=b2a6436f-4c95-46dd-a3bd-6af91e9591d2","ios":"levelo://app?vid=b2a6436f-4c95-46dd-a3bd-6af91e9591d2"},"vehicle_type_id":"4","last_reported":1738602480,"current_range_meters":24000,"station_id":"ce4bhih2rcd13ifvqfs0","pricing_plan_id":"cebpf4jnsgd1na2vs0mg"},{"bike_id":"7b6ac018-345d-4190-a847-586d445bf6f7","system_id":"levelo_inurba_marseille","lat":43.28461,"lon":5.359,"is_reserved":false,"is_disabled":false,"rental_uris":{"android":"levelo://app?vid=7b6ac018-345d-4190-a847-586d445bf6f7","ios":"levelo://app?vid=7b6ac018-345d-4190-a847-586d445bf6f7"},"vehicle_type_id":"4","last_reported":1738602480,"current_range_meters":17600,"station_id":"ce4bhah2rcd13ifvqei0","pricing_plan_id":"cebpf4jnsgd1na2vs0mg"},{"bike_id":"ca1325ef-741e-47d0-bae1-a1e41ee6efd1","system_id":"levelo_inurba_marseille","lat":43.29895,"lon":5.43677,"is_reserved":false,"is_disabled":false,"rental_uris":{"android":"levelo://app?vid=ca1325ef-741e-47d0-bae1-a1e41ee6efd1","ios":"levelo://app?vid=ca1325ef-741e-47d0-bae1-a1e41ee6efd1"},"vehicle_type_id":"4","last_reported":1738602480,"current_range_meters":7200,"station_id":"ce4bhpp2rcd13ifvqhfg","pricing_plan_id":"cebpf4jnsgd1na2vs0mg"},{"bike_id":"1234f0e7-5545-4f40-8fc9-7c355485e5e4","system_id":"levelo_inurba_marseille","lat":43.28727,"lon":5.36096,"is_reserved":false,"is_disabled":false,"rental_uris":{"android":"levelo://app?vid=1234f0e7-5545-4f40-8fc9-7c355485e5e4","ios":"levelo://app?vid=1234f0e7-5545-4f40-8fc9-7c355485e5e4"},"vehicle_type_id":"4","last_reported":1738602480,"current_range_meters":17600,"station_id":"cki0cbj6b192h4jlfktg","pricing_plan_id":"cebpf4jnsgd1na2vs0mg"},{"bike_id":"1a0ab282-96cc-4eda-98fb-8dbaf401e70b","system_id":"levelo_inurba_marseille","lat":43.26233,"lon":5.40459,"is_reserved":false,"is_disabled":true,"rental_uris":{"android":"levelo://app?vid=1a0ab282-96cc-4eda-98fb-8dbaf401e70b","ios":"levelo://app?vid=1a0ab282-96cc-4eda-98fb-8dbaf401e70b"},"vehicle_type_id":"4","last_reported":1738602480,"current_range_meters":0,"station_id":"ce4bhmh2rcd13ifvqgmg","pricing_plan_id":"cebpf4jnsgd1na2vs0mg"},{"bike_id":"1a794636-1de8-48ff-a1bf-f41557cb147d","system_id":"levelo_inurba_marseille","lat":43.34611,"lon":5.38095,"is_reserved":false,"is_disabled":false,"rental_uris":{"android":"levelo://app?vid=1a794636-1de8-48ff-a1bf-f41557cb147d","ios":"levelo://app?vid=1a794636-1de8-48ff-a1bf-f41557cb147d"},"vehicle_type_id":"4","last_reported":1738602480,"current_range_meters":17200,"station_id":"","pricing_plan_id":"cebpf4jnsgd1na2vs0mg"},{"bike_id":"3c8e5445-cf86-469e-9c11-4a5caaef9b7e","system_id":"levelo_inurba_marseille","lat":43.24646,"lon":5.38892,"is_reserved":false,"is_disabled":false,"rental_uris":{"android":"levelo://app?vid=3c8e5445-cf86-469e-9c11-4a5caaef9b7e","ios":"levelo://app?vid=3c8e5445-cf86-469e-9c11-4a5caaef9b7e"},"vehicle_type_id":"4","last_reported":1738602480,"current_range_meters":38400,"station_id":"ce4bhg12rcd13ifvqf60","pricing_plan_id":"cebpf4jnsgd1na2vs0mg"},{"bike_id":"57e52221-d5e2-4aae-ae2a-6cc34b7d06f2","system_id":"levelo_inurba_marseille","lat":43.27319,"lon":5.39087,"is_reserved":false,"is_disabled":false,"rental_uris":{"android":"levelo://app?vid=57e52221-d5e2-4aae-ae2a-6cc34b7d06f2","ios":"levelo://app?vid=57e52221-d5e2-4aae-ae2a-6cc34b7d06f2"},"vehicle_type_id":"4","last_reported":1738602480,"current_range_meters":38000,"station_id":"ce4bhgp2rcd13ifvqfe0","pricing_plan_id":"cebpf4jnsgd1na2vs0mg"},{"bike_id":"8ffd93a7-f1da-4894-a175-b7b2afaf3cb9","system_id":"levelo_inurba_marseille","lat":43.29269,"lon":5.36858,"is_reserved":false,"is_disabled":false,"rental_uris":{"android":"levelo://app?vid=8ffd93a7-f1da-4894-a175-b7b2afaf3cb9","ios":"levelo://app?vid=8ffd93a7-f1da-4894-a175-b7b2afaf3cb9"},"vehicle_type_id":"4","last_reported":1738602480,"current_range_meters":38000,"station_id":"ce4bhbp2rcd13ifvqesg","pricing_plan_id":"cebpf4jnsgd1na2vs0mg"},{"bike_id":"0f7dc977-41db-4b77-aa8c-5274e9d463e2","system_id":"levelo_inurba_marseille","lat":43.29461,"lon":5.39763,"is_reserved":false,"is_disabled":false,"rental_uris":{"android":"levelo://app?vid=0f7dc977-41db-4b77-aa8c-5274e9d463e2","ios":"levelo://app?vid=0f7dc977-41db-4b77-aa8c-5274e9d463e2"},"vehicle_type_id":"4","last_reported":1738602480,"current_range_meters":38000,"station_id":"ce4bh3h2rcd13ifvqdo0","pricing_plan_id":"cebpf4jnsgd1na2vs0mg"},{"bike_id":"c3f024be-846e-467d-8c49-c1790a4b148c","system_id":"levelo_inurba_marseille","lat":43.30882,"lon":5.39645,"is_reserved":false,"is_disabled":false,"rental_uris":{"android":"levelo://app?vid=c3f024be-846e-467d-8c49-c1790a4b148c","ios":"levelo://app?vid=c3f024be-846e-467d-8c49-c1790a4b148c"},"vehicle_type_id":"4","last_reported":1738602480,"current_range_meters":38800,"station_id":"ce4bh012rcd13ifvqcv0","pricing_plan_id":"cebpf4jnsgd1na2vs0mg"},{"bike_id":"30d68ac6-7ba6-4749-8154-bf914e372a6a","system_id":"levelo_inurba_marseille","lat":43.32347,"lon":5.38912,"is_reserved":false,"is_disabled":false,"rental_uris":{"android":"levelo://app?vid=30d68ac6-7ba6-4749-8154-bf914e372a6a","ios":"levelo://app?vid=30d68ac6-7ba6-4749-8154-bf914e372a6a"},"vehicle_type_id":"4","last_reported":1738602480,"current_range_meters":38800,"station_id":"ce4bhqp2rcd13ifvqhog","pricing_plan_id":"cebpf4jnsgd1na2vs0mg"},{"bike_id":"70db77fa-5101-4cc3-b5ef-7ecd27e20697","system_id":"levelo_inurba_marseille","lat":43.23057,"lon":5.35492,"is_reserved":false,"is_disabled":false,"rental_uris":{"android":"levelo://app?vid=70db77fa-5101-4cc3-b5ef-7ecd27e20697","ios":"levelo://app?vid=70db77fa-5101-4cc3-b5ef-7ecd27e20697"},"vehicle_type_id":"4","last_reported":1738602480,"current_range_meters":27600,"station_id":"cpo3342slgdg3j2ifvpg","pricing_plan_id":"cebpf4jnsgd1na2vs0mg"},{"bike_id":"f6dacf6b-80aa-4ed3-b60f-a447a5860aff","system_id":"levelo_inurba_marseille","lat":43.29224,"lon":5.36054,"is_reserved":false,"is_disabled":false,"rental_uris":{"android":"levelo://app?vid=f6dacf6b-80aa-4ed3-b60f-a447a5860aff","ios":"levelo://app?vid=f6dacf6b-80aa-4ed3-b60f-a447a5860aff"},"vehicle_type_id":"4","last_reported":1738602480,"current_range_meters":17600,"station_id":"ce4bhbh2rcd13ifvqeqg","pricing_plan_id":"cebpf4jnsgd1na2vs0mg"},{"bike_id":"e33c097b-83d0-40ec-9fbf-364e5b0a9ef8","system_id":"levelo_inurba_marseille","lat":43.23195,"lon":5.35555,"is_reserved":false,"is_disabled":false,"rental_uris":{"android":"levelo://app?vid=e33c097b-83d0-40ec-9fbf-364e5b0a9ef8","ios":"levelo://app?vid=e33c097b-83d0-40ec-9fbf-364e5b0a9ef8"},"vehicle_type_id":"4","last_reported":1738602480,"current_range_meters":38800,"station_id":"ce4bhu92rcd13ifvqi70","pricing_plan_id":"cebpf4jnsgd1na2vs0mg"},{"bike_id":"1c76b995-c945-44fc-a497-fc47eb597fd6","system_id":"levelo_inurba_marseille","lat":43.28846,"lon":5.3586,"is_reserved":false,"is_disabled":true,"rental_uris":{"android":"levelo://app?vid=1c76b995-c945-44fc-a497-fc47eb597fd6","ios":"levelo://app?vid=1c76b995-c945-44fc-a497-fc47eb597fd6"},"vehicle_type_id":"4","last_reported":1738602480,"current_range_meters":0,"station_id":"ce4bhb12rcd13ifvqem0","pricing_plan_id":"cebpf4jnsgd1na2vs0mg"},{"bike_id":"272a6181-bfe1-4f12-b3df-d057573256ce","system_id":"levelo_inurba_marseille","lat":43.28466,"lon":5.35887,"is_reserved":false,"is_disabled":false,"rental_uris":{"android":"levelo://app?vid=272a6181-bfe1-4f12-b3df-d057573256ce","ios":"levelo://app?vid=272a6181-bfe1-4f12-b3df-d057573256ce"},"vehicle_type_id":"4","last_reported":1738602480,"current_range_meters":38800,"station_id":"ce4bhah2rcd13ifvqei0","pricing_plan_id":"cebpf4jnsgd1na2vs0mg"},{"bike_id":"edb62687-fa3f-4c8f-a470-47542a886b4d","system_id":"levelo_inurba_marseille","lat":43.29455,"lon":5.38644,"is_reserved":false,"is_disabled":false,"rental_uris":{"android":"levelo://app?vid=edb62687-fa3f-4c8f-a470-47542a886b4d","ios":"levelo://app?vid=edb62687-fa3f-4c8f-a470-47542a886b4d"},"vehicle_type_id":"4","last_reported":1738602480,"current_range_meters":32000,"station_id":"ce4bh2h2rcd13ifvqdh0","pricing_plan_id":"cebpf4jnsgd1na2vs0mg"},{"bike_id":"36c59cc3-cea9-47a3-a8cf-c96b91c44490","system_id":"levelo_inurba_marseille","lat":43.27997,"lon":5.40028,"is_reserved":false,"is_disabled":false,"rental_uris":{"android":"levelo://app?vid=36c59cc3-cea9-47a3-a8cf-c96b91c44490","ios":"levelo://app?vid=36c59cc3-cea9-47a3-a8cf-c96b91c44490"},"vehicle_type_id":"4","last_reported":1738602480,"current_range_meters":19200,"station_id":"ce4bho92rcd13ifvqh4g","pricing_plan_id":"cebpf4jnsgd1na2vs0mg"},{"bike_id":"89e0fb27-5f26-4cfe-9f61-e8651117733f","system_id":"levelo_inurba_marseille","lat":43.22922,"lon":5.35384,"is_reserved":false,"is_disabled":false,"rental_uris":{"android":"levelo://app?vid=89e0fb27-5f26-4cfe-9f61-e8651117733f","ios":"levelo://app?vid=89e0fb27-5f26-4cfe-9f61-e8651117733f"},"vehicle_type_id":"4","last_reported":1738602480,"current_range_meters":38800,"station_id":"cpo3532slgdg3j2ikp40","pricing_plan_id":"cebpf4jnsgd1na2vs0mg"},{"bike_id":"64b39ebf-c1cd-4ade-9f9b-d1bf166917e4","system_id":"levelo_inurba_marseille","lat":43.32292,"lon":5.38269,"is_reserved":false,"is_disabled":false,"rental_uris":{"android":"levelo://app?vid=64b39ebf-c1cd-4ade-9f9b-d1bf166917e4","ios":"levelo://app?vid=64b39ebf-c1cd-4ade-9f9b-d1bf166917e4"},"vehicle_type_id":"4","last_reported":1738602480,"current_range_meters":35600,"station_id":"ce4bhr12rcd13ifvqhqg","pricing_plan_id":"cebpf4jnsgd1na2vs0mg"},{"bike_id":"98aea7c6-6ead-45cc-83b7-57b81452bc31","system_id":"levelo_inurba_marseille","lat":43.28413,"lon":5.37544,"is_reserved":false,"is_disabled":false,"rental_uris":{"android":"levelo://app?vid=98aea7c6-6ead-45cc-83b7-57b81452bc31","ios":"levelo://app?vid=98aea7c6-6ead-45cc-83b7-57b81452bc31"},"vehicle_type_id":"4","last_reported":1738602480,"current_range_meters":27600,"station_id":"ce4bh412rcd13ifvqds0","pricing_plan_id":"cebpf4jnsgd1na2vs0mg"},{"bike_id":"d9a0037b-ea73-422f-86c2-72b990424241","system_id":"levelo_inurba_marseille","lat":43.23965,"lon":5.3665,"is_reserved":false,"is_disabled":false,"rental_uris":{"android":"levelo://app?vid=d9a0037b-ea73-422f-86c2-72b990424241","ios":"levelo://app?vid=d9a0037b-ea73-422f-86c2-72b990424241"},"vehicle_type_id":"4","last_reported":1738602480,"current_range_meters":16800,"station_id":"ce4bhi12rcd13ifvqfp0","pricing_plan_id":"cebpf4jnsgd1na2vs0mg"},{"bike_id":"de27dfc9-f2fb-4778-8226-69a993c0eb2e","system_id":"levelo_inurba_marseille","lat":43.24552,"lon":5.39514,"is_reserved":false,"is_disabled":false,"rental_uris":{"android":"levelo://app?vid=de27dfc9-f2fb-4778-8226-69a993c0eb2e","ios":"levelo://app?vid=de27dfc9-f2fb-4778-8226-69a993c0eb2e"},"vehicle_type_id":"4","last_reported":1738602480,"current_range_meters":38800,"station_id":"ce4bhlp2rcd13ifvqgjg","pricing_plan_id":"cebpf4jnsgd1na2vs0mg"},{"bike_id":"3e92e2d8-7c23-4a21-a753-85318379f30c","system_id":"levelo_inurba_marseille","lat":43.29276,"lon":5.36841,"is_reserved":false,"is_disabled":false,"rental_uris":{"android":"levelo://app?vid=3e92e2d8-7c23-4a21-a753-85318379f30c","ios":"levelo://app?vid=3e92e2d8-7c23-4a21-a753-85318379f30c"},"vehicle_type_id":"4","last_reported":1738602480,"current_range_meters":28400,"station_id":"ce4bhbp2rcd13ifvqesg","pricing_plan_id":"cebpf4jnsgd1na2vs0mg"},{"bike_id":"761f8c7e-e88b-48dc-b0de-7607c12c337a","system_id":"levelo_inurba_marseille","lat":43.24997,"lon":5.38931,"is_reserved":false,"is_disabled":false,"rental_uris":{"android":"levelo://app?vid=761f8c7e-e88b-48dc-b0de-7607c12c337a","ios":"levelo://app?vid=761f8c7e-e88b-48dc-b0de-7607c12c337a"},"vehicle_type_id":"4","last_reported":1738602480,"current_range_meters":12000,"station_id":"ce4bhgp2rcd13ifvqfd0","pricing_plan_id":"cebpf4jnsgd1na2vs0mg"},{"bike_id":"8800dd5a-d74f-4ee5-bc96-f6630250f422","system_id":"levelo_inurba_marseille","lat":43.23962,"lon":5.36649,"is_reserved":false,"is_disabled":false,"rental_uris":{"android":"levelo://app?vid=8800dd5a-d74f-4ee5-bc96-f6630250f422","ios":"levelo://app?vid=8800dd5a-d74f-4ee5-bc96-f6630250f422"},"vehicle_type_id":"4","last_reported":1738602480,"current_range_meters":36400,"station_id":"ce4bhi12rcd13ifvqfp0","pricing_plan_id":"cebpf4jnsgd1na2vs0mg"},{"bike_id":"8270da70-a2d5-49f3-9df0-efc0215a4d15","system_id":"levelo_inurba_marseille","lat":43.32334,"lon":5.40627,"is_reserved":false,"is_disabled":false,"rental_uris":{"android":"levelo://app?vid=8270da70-a2d5-49f3-9df0-efc0215a4d15","ios":"levelo://app?vid=8270da70-a2d5-49f3-9df0-efc0215a4d15"},"vehicle_type_id":"4","last_reported":1738602480,"current_range_meters":38800,"station_id":"ce4bhq92rcd13ifvqhjg","pricing_plan_id":"cebpf4jnsgd1na2vs0mg"},{"bike_id":"9216f4d4-796e-4eca-847a-3542653d4814","system_id":"levelo_inurba_marseille","lat":43.23182,"lon":5.39992,"is_reserved":false,"is_disabled":false,"rental_uris":{"android":"levelo://app?vid=9216f4d4-796e-4eca-847a-3542653d4814","ios":"levelo://app?vid=9216f4d4-796e-4eca-847a-3542653d4814"},"vehicle_type_id":"4","last_reported":1738602480,"current_range_meters":6400,"station_id":"ce4bhn12rcd13ifvqgqg","pricing_plan_id":"cebpf4jnsgd1na2vs0mg"},{"bike_id":"3bee43d5-e27e-4692-8630-5bfa4bfc3f39","system_id":"levelo_inurba_marseille","lat":43.32295,"lon":5.38289,"is_reserved":false,"is_disabled":false,"rental_uris":{"android":"levelo://app?vid=3bee43d5-e27e-4692-8630-5bfa4bfc3f39","ios":"levelo://app?vid=3bee43d5-e27e-4692-8630-5bfa4bfc3f39"},"vehicle_type_id":"4","last_reported":1738602480,"current_range_meters":28000,"station_id":"ce4bhr12rcd13ifvqhqg","pricing_plan_id":"cebpf4jnsgd1na2vs0mg"},{"bike_id":"cb9e092a-81a9-4536-b645-1d1f9d6be896","system_id":"levelo_inurba_marseille","lat":43.28404,"lon":5.37508,"is_reserved":false,"is_disabled":false,"rental_uris":{"android":"levelo://app?vid=cb9e092a-81a9-4536-b645-1d1f9d6be896","ios":"levelo://app?vid=cb9e092a-81a9-4536-b645-1d1f9d6be896"},"vehicle_type_id":"4","last_reported":1738602480,"current_range_meters":14800,"station_id":"ce4bh412rcd13ifvqds0","pricing_plan_id":"cebpf4jnsgd1na2vs0mg"},{"bike_id":"d44034e2-7192-469b-8a3d-9223520498d4","system_id":"levelo_inurba_marseille","lat":43.31366,"lon":5.38503,"is_reserved":false,"is_disabled":false,"rental_uris":{"android":"levelo://app?vid=d44034e2-7192-469b-8a3d-9223520498d4","ios":"levelo://app?vid=d44034e2-7192-469b-8a3d-9223520498d4"},"vehicle_type_id":"4","last_reported":1738602480,"current_range_meters":21600,"station_id":"ce4bgt92rcd13ifvqcf0","pricing_plan_id":"cebpf4jnsgd1na2vs0mg"},{"bike_id":"3ab0ceb6-cd89-477f-8038-1be761eb4bda","system_id":"levelo_inurba_marseille","lat":43.29213,"lon":5.36049,"is_reserved":false,"is_disabled":false,"rental_uris":{"android":"levelo://app?vid=3ab0ceb6-cd89-477f-8038-1be761eb4bda","ios":"levelo://app?vid=3ab0ceb6-cd89-477f-8038-1be761eb4bda"},"vehicle_type_id":"4","last_reported":1738602480,"current_range_meters":17600,"station_id":"ce4bhbh2rcd13ifvqeqg","pricing_plan_id":"cebpf4jnsgd1na2vs0mg"},{"bike_id":"8e599b88-5a17-40c8-a99e-aa5dfac0c156","system_id":"levelo_inurba_marseille","lat":43.248115,"lon":5.37457,"is_reserved":false,"is_disabled":false,"rental_uris":{"android":"levelo://app?vid=8e599b88-5a17-40c8-a99e-aa5dfac0c156","ios":"levelo://app?vid=8e599b88-5a17-40c8-a99e-aa5dfac0c156"},"vehicle_type_id":"4","last_reported":1738602480,"current_range_meters":29600,"station_id":"ce4bhgh2rcd13ifvqfb0","pricing_plan_id":"cebpf4jnsgd1na2vs0mg"},{"bike_id":"40ba102e-bf38-4bcb-a1a5-64f20f7d9926","system_id":"levelo_inurba_marseille","lat":43.2866,"lon":5.38653,"is_reserved":false,"is_disabled":false,"rental_uris":{"android":"levelo://app?vid=40ba102e-bf38-4bcb-a1a5-64f20f7d9926","ios":"levelo://app?vid=40ba102e-bf38-4bcb-a1a5-64f20f7d9926"},"vehicle_type_id":"4","last_reported":1738602480,"current_range_meters":38800,"station_id":"ce4bh492rcd13ifvqdug","pricing_plan_id":"cebpf4jnsgd1na2vs0mg"},{"bike_id":"336ba170-f212-47ec-a8a9-236ae819b98c","system_id":"levelo_inurba_marseille","lat":43.30882,"lon":5.37206,"is_reserved":false,"is_disabled":false,"rental_uris":{"android":"levelo://app?vid=336ba170-f212-47ec-a8a9-236ae819b98c","ios":"levelo://app?vid=336ba170-f212-47ec-a8a9-236ae819b98c"},"vehicle_type_id":"4","last_reported":1738602480,"current_range_meters":28400,"station_id":"ce4bguh2rcd13ifvqckg","pricing_plan_id":"cebpf4jnsgd1na2vs0mg"},{"bike_id":"040c186f-291f-4f61-a54f-cd742e5fa1c4","system_id":"levelo_inurba_marseille","lat":43.32495,"lon":5.3658,"is_reserved":false,"is_disabled":false,"rental_uris":{"android":"levelo://app?vid=040c186f-291f-4f61-a54f-cd742e5fa1c4","ios":"levelo://app?vid=040c186f-291f-4f61-a54f-cd742e5fa1c4"},"vehicle_type_id":"4","last_reported":1738602480,"current_range_meters":12000,"station_id":"ce4bhs12rcd13ifvqhvg","pricing_plan_id":"cebpf4jnsgd1na2vs0mg"},{"bike_id":"fe7841ee-6c3b-41b6-ba59-419273b65ba5","system_id":"levelo_inurba_marseille","lat":43.29262,"lon":5.40922,"is_reserved":false,"is_disabled":false,"rental_uris":{"android":"levelo://app?vid=fe7841ee-6c3b-41b6-ba59-419273b65ba5","ios":"levelo://app?vid=fe7841ee-6c3b-41b6-ba59-419273b65ba5"},"vehicle_type_id":"4","last_reported":1738602480,"current_range_meters":38800,"station_id":"ce4bh192rcd13ifvqdc0","pricing_plan_id":"cebpf4jnsgd1na2vs0mg"},{"bike_id":"d5ef5307-3c62-4e8c-be40-7276d944468f","system_id":"levelo_inurba_marseille","lat":43.27378,"lon":5.3627,"is_reserved":false,"is_disabled":false,"rental_uris":{"android":"levelo://app?vid=d5ef5307-3c62-4e8c-be40-7276d944468f","ios":"levelo://app?vid=d5ef5307-3c62-4e8c-be40-7276d944468f"},"vehicle_type_id":"4","last_reported":1738602480,"current_range_meters":12000,"station_id":"ce4bhbh2rcd13ifvqeo0","pricing_plan_id":"cebpf4jnsgd1na2vs0mg"},{"bike_id":"13c11301-c5ce-4642-b94e-88c528ed70db","system_id":"levelo_inurba_marseille","lat":43.29279,"lon":5.40133,"is_reserved":false,"is_disabled":false,"rental_uris":{"android":"levelo://app?vid=13c11301-c5ce-4642-b94e-88c528ed70db","ios":"levelo://app?vid=13c11301-c5ce-4642-b94e-88c528ed70db"},"vehicle_type_id":"4","last_reported":1738602480,"current_range_meters":24000,"station_id":"ce4bh312rcd13ifvqdk0","pricing_plan_id":"cebpf4jnsgd1na2vs0mg"},{"bike_id":"7dd68174-1d38-48a0-87e4-e5911f1e11f7","system_id":"levelo_inurba_marseille","lat":43.28859,"lon":5.35867,"is_reserved":false,"is_disabled":false,"rental_uris":{"android":"levelo://app?vid=7dd68174-1d38-48a0-87e4-e5911f1e11f7","ios":"levelo://app?vid=7dd68174-1d38-48a0-87e4-e5911f1e11f7"},"vehicle_type_id":"4","last_reported":1738602480,"current_range_meters":30400,"station_id":"ce4bhb12rcd13ifvqem0","pricing_plan_id":"cebpf4jnsgd1na2vs0mg"},{"bike_id":"61245831-2a5b-499b-a7bd-326ecf7b0019","system_id":"levelo_inurba_marseille","lat":43.28404,"lon":5.37525,"is_reserved":false,"is_disabled":false,"rental_uris":{"android":"levelo://app?vid=61245831-2a5b-499b-a7bd-326ecf7b0019","ios":"levelo://app?vid=61245831-2a5b-499b-a7bd-326ecf7b0019"},"vehicle_type_id":"4","last_reported":1738602480,"current_range_meters":24800,"station_id":"ce4bh412rcd13ifvqds0","pricing_plan_id":"cebpf4jnsgd1na2vs0mg"},{"bike_id":"80cf4f8d-d798-425d-b154-b8e2f6180377","system_id":"levelo_inurba_marseille","lat":43.28925,"lon":5.38401,"is_reserved":false,"is_disabled":false,"rental_uris":{"android":"levelo://app?vid=80cf4f8d-d798-425d-b154-b8e2f6180377","ios":"levelo://app?vid=80cf4f8d-d798-425d-b154-b8e2f6180377"},"vehicle_type_id":"4","last_reported":1738602480,"current_range_meters":17600,"station_id":"ce4bh612rcd13ifvqe6g","pricing_plan_id":"cebpf4jnsgd1na2vs0mg"},{"bike_id":"0a1df72b-6902-46e8-84ca-d6442cdf93c7","system_id":"levelo_inurba_marseille","lat":43.28582,"lon":5.39501,"is_reserved":false,"is_disabled":false,"rental_uris":{"android":"levelo://app?vid=0a1df72b-6902-46e8-84ca-d6442cdf93c7","ios":"levelo://app?vid=0a1df72b-6902-46e8-84ca-d6442cdf93c7"},"vehicle_type_id":"4","last_reported":1738602480,"current_range_meters":33200,"station_id":"ce4bh292rcd13ifvqdg0","pricing_plan_id":"cebpf4jnsgd1na2vs0mg"},{"bike_id":"8e6b8286-84f1-4d45-ab56-032ef29c0271","system_id":"levelo_inurba_marseille","lat":43.30945,"lon":5.39025,"is_reserved":false,"is_disabled":false,"rental_uris":{"android":"levelo://app?vid=8e6b8286-84f1-4d45-ab56-032ef29c0271","ios":"levelo://app?vid=8e6b8286-84f1-4d45-ab56-032ef29c0271"},"vehicle_type_id":"4","last_reported":1738602480,"current_range_meters":4400,"station_id":"ce4bgup2rcd13ifvqco0","pricing_plan_id":"cebpf4jnsgd1na2vs0mg"},{"bike_id":"42816ade-a29d-4347-88c5-59152793779e","system_id":"levelo_inurba_marseille","lat":43.27618,"lon":5.3612,"is_reserved":false,"is_disabled":false,"rental_uris":{"android":"levelo://app?vid=42816ade-a29d-4347-88c5-59152793779e","ios":"levelo://app?vid=42816ade-a29d-4347-88c5-59152793779e"},"vehicle_type_id":"4","last_reported":1738602480,"current_range_meters":12800,"station_id":"ce4bgj92rcd13ifvqbe0","pricing_plan_id":"cebpf4jnsgd1na2vs0mg"},{"bike_id":"0416cf78-7863-4eec-b5e5-3557e2310ee1","system_id":"levelo_inurba_marseille","lat":43.26782,"lon":5.39443,"is_reserved":false,"is_disabled":true,"rental_uris":{"android":"levelo://app?vid=0416cf78-7863-4eec-b5e5-3557e2310ee1","ios":"levelo://app?vid=0416cf78-7863-4eec-b5e5-3557e2310ee1"},"vehicle_type_id":"4","last_reported":1738602480,"current_range_meters":1200,"station_id":"ce4bhh12rcd13ifvqfg0","pricing_plan_id":"cebpf4jnsgd1na2vs0mg"},{"bike_id":"b93236d3-7c1f-462b-b052-ef803b0d1060","system_id":"levelo_inurba_marseille","lat":43.29546,"lon":5.37481,"is_reserved":false,"is_disabled":true,"rental_uris":{"android":"levelo://app?vid=b93236d3-7c1f-462b-b052-ef803b0d1060","ios":"levelo://app?vid=b93236d3-7c1f-462b-b052-ef803b0d1060"},"vehicle_type_id":"4","last_reported":1738602480,"current_range_meters":800,"station_id":"ce4bgkp2rcd13ifvqbmg","pricing_plan_id":"cebpf4jnsgd1na2vs0mg"},{"bike_id":"d956c0fa-8e81-4a5c-a819-66560ebeacd2","system_id":"levelo_inurba_marseille","lat":43.28156,"lon":5.42654,"is_reserved":false,"is_disabled":false,"rental_uris":{"android":"levelo://app?vid=d956c0fa-8e81-4a5c-a819-66560ebeacd2","ios":"levelo://app?vid=d956c0fa-8e81-4a5c-a819-66560ebeacd2"},"vehicle_type_id":"4","last_reported":1738602480,"current_range_meters":9600,"station_id":"ce4bhnh2rcd13ifvqgug","pricing_plan_id":"cebpf4jnsgd1na2vs0mg"},{"bike_id":"da34d4f8-fcc3-4716-a4b5-ebb5e90aeefc","system_id":"levelo_inurba_marseille","lat":43.31332,"lon":5.39697,"is_reserved":false,"is_disabled":false,"rental_uris":{"android":"levelo://app?vid=da34d4f8-fcc3-4716-a4b5-ebb5e90aeefc","ios":"levelo://app?vid=da34d4f8-fcc3-4716-a4b5-ebb5e90aeefc"},"vehicle_type_id":"4","last_reported":1738602480,"current_range_meters":39200,"station_id":"ce4bgvp2rcd13ifvqcu0","pricing_plan_id":"cebpf4jnsgd1na2vs0mg"},{"bike_id":"21c89297-c791-4464-9214-e643c17f7aa6","system_id":"levelo_inurba_marseille","lat":43.31333,"lon":5.39707,"is_reserved":false,"is_disabled":false,"rental_uris":{"android":"levelo://app?vid=21c89297-c791-4464-9214-e643c17f7aa6","ios":"levelo://app?vid=21c89297-c791-4464-9214-e643c17f7aa6"},"vehicle_type_id":"4","last_reported":1738602480,"current_range_meters":38800,"station_id":"ce4bgvp2rcd13ifvqcu0","pricing_plan_id":"cebpf4jnsgd1na2vs0mg"},{"bike_id":"f0c771c7-496a-40c6-9ca1-cbd73f6a8ca9","system_id":"levelo_inurba_marseille","lat":43.29544,"lon":5.39396,"is_reserved":false,"is_disabled":false,"rental_uris":{"android":"levelo://app?vid=f0c771c7-496a-40c6-9ca1-cbd73f6a8ca9","ios":"levelo://app?vid=f0c771c7-496a-40c6-9ca1-cbd73f6a8ca9"},"vehicle_type_id":"4","last_reported":1738602480,"current_range_meters":27600,"station_id":"ce4bh292rcd13ifvqdf0","pricing_plan_id":"cebpf4jnsgd1na2vs0mg"},{"bike_id":"71ec8193-f671-4e06-9ff4-9da8f309a0bc","system_id":"levelo_inurba_marseille","lat":43.28416,"lon":5.38325,"is_reserved":false,"is_disabled":true,"rental_uris":{"android":"levelo://app?vid=71ec8193-f671-4e06-9ff4-9da8f309a0bc","ios":"levelo://app?vid=71ec8193-f671-4e06-9ff4-9da8f309a0bc"},"vehicle_type_id":"4","last_reported":1738602480,"current_range_meters":23200,"station_id":"","pricing_plan_id":"cebpf4jnsgd1na2vs0mg"},{"bike_id":"48c23db0-b5b4-47ef-bf29-862bb3b67da5","system_id":"levelo_inurba_marseille","lat":43.29941,"lon":5.3654,"is_reserved":false,"is_disabled":false,"rental_uris":{"android":"levelo://app?vid=48c23db0-b5b4-47ef-bf29-862bb3b67da5","ios":"levelo://app?vid=48c23db0-b5b4-47ef-bf29-862bb3b67da5"},"vehicle_type_id":"4","last_reported":1738602480,"current_range_meters":30800,"station_id":"ce4bgm92rcd13ifvqbr0","pricing_plan_id":"cebpf4jnsgd1na2vs0mg"},{"bike_id":"e8e2716e-9a37-4b04-b126-020411e8f21f","system_id":"levelo_inurba_marseille","lat":43.28943,"lon":5.36639,"is_reserved":false,"is_disabled":false,"rental_uris":{"android":"levelo://app?vid=e8e2716e-9a37-4b04-b126-020411e8f21f","ios":"levelo://app?vid=e8e2716e-9a37-4b04-b126-020411e8f21f"},"vehicle_type_id":"4","last_reported":1738602480,"current_range_meters":8000,"station_id":"ce4bhap2rcd13ifvqek0","pricing_plan_id":"cebpf4jnsgd1na2vs0mg"},{"bike_id":"79ef0074-2270-49ce-a7ab-a3cdc92062a4","system_id":"levelo_inurba_marseille","lat":43.2872,"lon":5.3611,"is_reserved":false,"is_disabled":false,"rental_uris":{"android":"levelo://app?vid=79ef0074-2270-49ce-a7ab-a3cdc92062a4","ios":"levelo://app?vid=79ef0074-2270-49ce-a7ab-a3cdc92062a4"},"vehicle_type_id":"4","last_reported":1738602480,"current_range_meters":22000,"station_id":"cki0cbj6b192h4jlfktg","pricing_plan_id":"cebpf4jnsgd1na2vs0mg"},{"bike_id":"153cb308-f511-47a7-b85b-3cb49127ada0","system_id":"levelo_inurba_marseille","lat":43.33025,"lon":5.39046,"is_reserved":false,"is_disabled":false,"rental_uris":{"android":"levelo://app?vid=153cb308-f511-47a7-b85b-3cb49127ada0","ios":"levelo://app?vid=153cb308-f511-47a7-b85b-3cb49127ada0"},"vehicle_type_id":"4","last_reported":1738602480,"current_range_meters":16000,"station_id":"ce4bhr92rcd13ifvqhrg","pricing_plan_id":"cebpf4jnsgd1na2vs0mg"},{"bike_id":"88f6ec14-1047-428a-bfc8-ed7564b679d3","system_id":"levelo_inurba_marseille","lat":43.24385,"lon":5.37074,"is_reserved":false,"is_disabled":false,"rental_uris":{"android":"levelo://app?vid=88f6ec14-1047-428a-bfc8-ed7564b679d3","ios":"levelo://app?vid=88f6ec14-1047-428a-bfc8-ed7564b679d3"},"vehicle_type_id":"4","last_reported":1738602480,"current_range_meters":8000,"station_id":"ce4bhhh2rcd13ifvqfk0","pricing_plan_id":"cebpf4jnsgd1na2vs0mg"},{"bike_id":"b2d8d49d-b968-417e-aebd-1bc27e81ce1e","system_id":"levelo_inurba_marseille","lat":43.27997,"lon":5.41681,"is_reserved":false,"is_disabled":false,"rental_uris":{"android":"levelo://app?vid=b2d8d49d-b968-417e-aebd-1bc27e81ce1e","ios":"levelo://app?vid=b2d8d49d-b968-417e-aebd-1bc27e81ce1e"},"vehicle_type_id":"4","last_reported":1738602480,"current_range_meters":38400,"station_id":"ce4bho12rcd13ifvqh1g","pricing_plan_id":"cebpf4jnsgd1na2vs0mg"},{"bike_id":"fad26299-4859-48d9-af16-461be31a4018","system_id":"levelo_inurba_marseille","lat":43.23191,"lon":5.39992,"is_reserved":false,"is_disabled":true,"rental_uris":{"android":"levelo://app?vid=fad26299-4859-48d9-af16-461be31a4018","ios":"levelo://app?vid=fad26299-4859-48d9-af16-461be31a4018"},"vehicle_type_id":"4","last_reported":1738602480,"current_range_meters":800,"station_id":"ce4bhn12rcd13ifvqgqg","pricing_plan_id":"cebpf4jnsgd1na2vs0mg"},{"bike_id":"469ea5ad-a86d-47ad-875b-dafc09a8c5ea","system_id":"levelo_inurba_marseille","lat":43.3092,"lon":5.40147,"is_reserved":false,"is_disabled":false,"rental_uris":{"android":"levelo://app?vid=469ea5ad-a86d-47ad-875b-dafc09a8c5ea","ios":"levelo://app?vid=469ea5ad-a86d-47ad-875b-dafc09a8c5ea"},"vehicle_type_id":"4","last_reported":1738602480,"current_range_meters":22800,"station_id":"ce4bgvp2rcd13ifvqct0","pricing_plan_id":"cebpf4jnsgd1na2vs0mg"},{"bike_id":"ed055d78-c0e9-4ba9-b7bf-eb7be3852e13","system_id":"levelo_inurba_marseille","lat":43.26556,"lon":5.37281,"is_reserved":false,"is_disabled":false,"rental_uris":{"android":"levelo://app?vid=ed055d78-c0e9-4ba9-b7bf-eb7be3852e13","ios":"levelo://app?vid=ed055d78-c0e9-4ba9-b7bf-eb7be3852e13"},"vehicle_type_id":"4","last_reported":1738602480,"current_range_meters":16000,"station_id":"ce4bhg12rcd13ifvqf70","pricing_plan_id":"cebpf4jnsgd1na2vs0mg"},{"bike_id":"f939f6ab-1c9d-4450-8556-6ec36e6bd0d5","system_id":"levelo_inurba_marseille","lat":43.29264,"lon":5.38448,"is_reserved":false,"is_disabled":false,"rental_uris":{"android":"levelo://app?vid=f939f6ab-1c9d-4450-8556-6ec36e6bd0d5","ios":"levelo://app?vid=f939f6ab-1c9d-4450-8556-6ec36e6bd0d5"},"vehicle_type_id":"4","last_reported":1738602480,"current_range_meters":4400,"station_id":"ce4bh692rcd13ifvqea0","pricing_plan_id":"cebpf4jnsgd1na2vs0mg"},{"bike_id":"d1d51ec2-e1ab-4b92-9a4b-f935b04ef436","system_id":"levelo_inurba_marseille","lat":43.25005,"lon":5.38938,"is_reserved":false,"is_disabled":false,"rental_uris":{"android":"levelo://app?vid=d1d51ec2-e1ab-4b92-9a4b-f935b04ef436","ios":"levelo://app?vid=d1d51ec2-e1ab-4b92-9a4b-f935b04ef436"},"vehicle_type_id":"4","last_reported":1738602480,"current_range_meters":27600,"station_id":"ce4bhgp2rcd13ifvqfd0","pricing_plan_id":"cebpf4jnsgd1na2vs0mg"},{"bike_id":"30e962a5-ed17-4781-966d-335d338660e0","system_id":"levelo_inurba_marseille","lat":43.32353,"lon":5.38924,"is_reserved":false,"is_disabled":false,"rental_uris":{"android":"levelo://app?vid=30e962a5-ed17-4781-966d-335d338660e0","ios":"levelo://app?vid=30e962a5-ed17-4781-966d-335d338660e0"},"vehicle_type_id":"4","last_reported":1738602480,"current_range_meters":16400,"station_id":"ce4bhqp2rcd13ifvqhog","pricing_plan_id":"cebpf4jnsgd1na2vs0mg"},{"bike_id":"29b23894-1ba1-4040-b571-81ee6daf9adb","system_id":"levelo_inurba_marseille","lat":43.30315,"lon":5.36904,"is_reserved":false,"is_disabled":false,"rental_uris":{"android":"levelo://app?vid=29b23894-1ba1-4040-b571-81ee6daf9adb","ios":"levelo://app?vid=29b23894-1ba1-4040-b571-81ee6daf9adb"},"vehicle_type_id":"4","last_reported":1738602480,"current_range_meters":22000,"station_id":"ce4bgqh2rcd13ifvqc5g","pricing_plan_id":"cebpf4jnsgd1na2vs0mg"},{"bike_id":"c7ffedac-349c-4fc0-8875-a3ceaf85f7b5","system_id":"levelo_inurba_marseille","lat":43.24167,"lon":5.3642,"is_reserved":false,"is_disabled":false,"rental_uris":{"android":"levelo://app?vid=c7ffedac-349c-4fc0-8875-a3ceaf85f7b5","ios":"levelo://app?vid=c7ffedac-349c-4fc0-8875-a3ceaf85f7b5"},"vehicle_type_id":"4","last_reported":1738602480,"current_range_meters":7200,"station_id":"cpo36qri1sfpv3e86is0","pricing_plan_id":"cebpf4jnsgd1na2vs0mg"},{"bike_id":"d08ca28b-23df-4eba-b7b5-7910c4aa69d2","system_id":"levelo_inurba_marseille","lat":43.32483,"lon":5.36569,"is_reserved":false,"is_disabled":false,"rental_uris":{"android":"levelo://app?vid=d08ca28b-23df-4eba-b7b5-7910c4aa69d2","ios":"levelo://app?vid=d08ca28b-23df-4eba-b7b5-7910c4aa69d2"},"vehicle_type_id":"4","last_reported":1738602480,"current_range_meters":37600,"station_id":"ce4bhs12rcd13ifvqhvg","pricing_plan_id":"cebpf4jnsgd1na2vs0mg"},{"bike_id":"29606d2e-ed45-4fa0-a7a1-997379376ffb","system_id":"levelo_inurba_marseille","lat":43.29445,"lon":5.39755,"is_reserved":false,"is_disabled":false,"rental_uris":{"android":"levelo://app?vid=29606d2e-ed45-4fa0-a7a1-997379376ffb","ios":"levelo://app?vid=29606d2e-ed45-4fa0-a7a1-997379376ffb"},"vehicle_type_id":"4","last_reported":1738602480,"current_range_meters":38800,"station_id":"ce4bh3h2rcd13ifvqdo0","pricing_plan_id":"cebpf4jnsgd1na2vs0mg"},{"bike_id":"0bb638d0-2838-47fa-8a2d-f175e9aec41a","system_id":"levelo_inurba_marseille","lat":43.2396,"lon":5.36648,"is_reserved":false,"is_disabled":false,"rental_uris":{"android":"levelo://app?vid=0bb638d0-2838-47fa-8a2d-f175e9aec41a","ios":"levelo://app?vid=0bb638d0-2838-47fa-8a2d-f175e9aec41a"},"vehicle_type_id":"4","last_reported":1738602480,"current_range_meters":18800,"station_id":"ce4bhi12rcd13ifvqfp0","pricing_plan_id":"cebpf4jnsgd1na2vs0mg"},{"bike_id":"2cbd5193-ddde-4715-a2bf-e1cb8bb201c9","system_id":"levelo_inurba_marseille","lat":43.2849,"lon":5.38432,"is_reserved":false,"is_disabled":true,"rental_uris":{"android":"levelo://app?vid=2cbd5193-ddde-4715-a2bf-e1cb8bb201c9","ios":"levelo://app?vid=2cbd5193-ddde-4715-a2bf-e1cb8bb201c9"},"vehicle_type_id":"4","last_reported":1738602480,"current_range_meters":0,"station_id":"ce4bh512rcd13ifvqe3g","pricing_plan_id":"cebpf4jnsgd1na2vs0mg"},{"bike_id":"0570fa00-dcc1-45f2-92dd-a890f5ad8110","system_id":"levelo_inurba_marseille","lat":43.29052,"lon":5.35906,"is_reserved":false,"is_disabled":false,"rental_uris":{"android":"levelo://app?vid=0570fa00-dcc1-45f2-92dd-a890f5ad8110","ios":"levelo://app?vid=0570fa00-dcc1-45f2-92dd-a890f5ad8110"},"vehicle_type_id":"4","last_reported":1738602480,"current_range_meters":24400,"station_id":"ce4bha92rcd13ifvqeg0","pricing_plan_id":"cebpf4jnsgd1na2vs0mg"},{"bike_id":"4a18fa25-a72b-4cad-ab40-77dc9d93d71e","system_id":"levelo_inurba_marseille","lat":43.28419,"lon":5.37499,"is_reserved":false,"is_disabled":true,"rental_uris":{"android":"levelo://app?vid=4a18fa25-a72b-4cad-ab40-77dc9d93d71e","ios":"levelo://app?vid=4a18fa25-a72b-4cad-ab40-77dc9d93d71e"},"vehicle_type_id":"4","last_reported":1738602480,"current_range_meters":0,"station_id":"ce4bh412rcd13ifvqds0","pricing_plan_id":"cebpf4jnsgd1na2vs0mg"},{"bike_id":"604dcf97-653b-4f7d-91b8-b15d3ba07d60","system_id":"levelo_inurba_marseille","lat":43.28279,"lon":5.35078,"is_reserved":false,"is_disabled":false,"rental_uris":{"android":"levelo://app?vid=604dcf97-653b-4f7d-91b8-b15d3ba07d60","ios":"levelo://app?vid=604dcf97-653b-4f7d-91b8-b15d3ba07d60"},"vehicle_type_id":"4","last_reported":1738602480,"current_range_meters":21600,"station_id":"ce4bhbp2rcd13ifvqerg","pricing_plan_id":"cebpf4jnsgd1na2vs0mg"},{"bike_id":"c9a53036-fdd2-406b-9e70-c17f21e2eb93","system_id":"levelo_inurba_marseille","lat":43.28403,"lon":5.3752,"is_reserved":false,"is_disabled":false,"rental_uris":{"android":"levelo://app?vid=c9a53036-fdd2-406b-9e70-c17f21e2eb93","ios":"levelo://app?vid=c9a53036-fdd2-406b-9e70-c17f21e2eb93"},"vehicle_type_id":"4","last_reported":1738602480,"current_range_meters":16800,"station_id":"ce4bh412rcd13ifvqds0","pricing_plan_id":"cebpf4jnsgd1na2vs0mg"},{"bike_id":"8274d570-94cc-44d0-8f24-915bbe768e9d","system_id":"levelo_inurba_marseille","lat":43.32892,"lon":5.39191,"is_reserved":false,"is_disabled":false,"rental_uris":{"android":"levelo://app?vid=8274d570-94cc-44d0-8f24-915bbe768e9d","ios":"levelo://app?vid=8274d570-94cc-44d0-8f24-915bbe768e9d"},"vehicle_type_id":"4","last_reported":1738602480,"current_range_meters":19600,"station_id":"","pricing_plan_id":"cebpf4jnsgd1na2vs0mg"},{"bike_id":"15751c8b-a3a7-454f-96d5-a92ac3978ce2","system_id":"levelo_inurba_marseille","lat":43.28621,"lon":5.35115,"is_reserved":false,"is_disabled":false,"rental_uris":{"android":"levelo://app?vid=15751c8b-a3a7-454f-96d5-a92ac3978ce2","ios":"levelo://app?vid=15751c8b-a3a7-454f-96d5-a92ac3978ce2"},"vehicle_type_id":"4","last_reported":1738602480,"current_range_meters":28800,"station_id":"ce4bhch2rcd13ifvqeug","pricing_plan_id":"cebpf4jnsgd1na2vs0mg"},{"bike_id":"8c9f8b52-67f0-49ce-89fc-91d52fc7effc","system_id":"levelo_inurba_marseille","lat":43.30304,"lon":5.39229,"is_reserved":false,"is_disabled":false,"rental_uris":{"android":"levelo://app?vid=8c9f8b52-67f0-49ce-89fc-91d52fc7effc","ios":"levelo://app?vid=8c9f8b52-67f0-49ce-89fc-91d52fc7effc"},"vehicle_type_id":"4","last_reported":1738602480,"current_range_meters":35200,"station_id":"ce4bgkh2rcd13ifvqbk0","pricing_plan_id":"cebpf4jnsgd1na2vs0mg"},{"bike_id":"2988dec3-1dbe-4f78-b305-bc64d85375e8","system_id":"levelo_inurba_marseille","lat":43.27368,"lon":5.36269,"is_reserved":false,"is_disabled":true,"rental_uris":{"android":"levelo://app?vid=2988dec3-1dbe-4f78-b305-bc64d85375e8","ios":"levelo://app?vid=2988dec3-1dbe-4f78-b305-bc64d85375e8"},"vehicle_type_id":"4","last_reported":1738602480,"current_range_meters":0,"station_id":"ce4bhbh2rcd13ifvqeo0","pricing_plan_id":"cebpf4jnsgd1na2vs0mg"},{"bike_id":"895b886d-f041-450f-bbc7-c95d89abf42f","system_id":"levelo_inurba_marseille","lat":43.31108,"lon":5.37998,"is_reserved":false,"is_disabled":false,"rental_uris":{"android":"levelo://app?vid=895b886d-f041-450f-bbc7-c95d89abf42f","ios":"levelo://app?vid=895b886d-f041-450f-bbc7-c95d89abf42f"},"vehicle_type_id":"4","last_reported":1738602480,"current_range_meters":30000,"station_id":"","pricing_plan_id":"cebpf4jnsgd1na2vs0mg"},{"bike_id":"9912a023-1392-44b1-838d-79029cefb35e","system_id":"levelo_inurba_marseille","lat":43.27905,"lon":5.38021,"is_reserved":false,"is_disabled":false,"rental_uris":{"android":"levelo://app?vid=9912a023-1392-44b1-838d-79029cefb35e","ios":"levelo://app?vid=9912a023-1392-44b1-838d-79029cefb35e"},"vehicle_type_id":"4","last_reported":1738602480,"current_range_meters":31200,"station_id":"ce4bhf92rcd13ifvqf50","pricing_plan_id":"cebpf4jnsgd1na2vs0mg"},{"bike_id":"99630b4f-d397-4cd1-b643-a51d074b76bb","system_id":"levelo_inurba_marseille","lat":43.28464,"lon":5.35899,"is_reserved":false,"is_disabled":false,"rental_uris":{"android":"levelo://app?vid=99630b4f-d397-4cd1-b643-a51d074b76bb","ios":"levelo://app?vid=99630b4f-d397-4cd1-b643-a51d074b76bb"},"vehicle_type_id":"4","last_reported":1738602480,"current_range_meters":38800,"station_id":"ce4bhah2rcd13ifvqei0","pricing_plan_id":"cebpf4jnsgd1na2vs0mg"},{"bike_id":"dfca75c2-55e3-4e13-8b26-4b6ce664ebef","system_id":"levelo_inurba_marseille","lat":43.28417,"lon":5.34992,"is_reserved":false,"is_disabled":false,"rental_uris":{"android":"levelo://app?vid=dfca75c2-55e3-4e13-8b26-4b6ce664ebef","ios":"levelo://app?vid=dfca75c2-55e3-4e13-8b26-4b6ce664ebef"},"vehicle_type_id":"4","last_reported":1738602480,"current_range_meters":8800,"station_id":"ce4bhbh2rcd13ifvqepg","pricing_plan_id":"cebpf4jnsgd1na2vs0mg"},{"bike_id":"115e302a-af5d-408a-980b-094c657f62a3","system_id":"levelo_inurba_marseille","lat":43.27569,"lon":5.38432,"is_reserved":false,"is_disabled":false,"rental_uris":{"android":"levelo://app?vid=115e302a-af5d-408a-980b-094c657f62a3","ios":"levelo://app?vid=115e302a-af5d-408a-980b-094c657f62a3"},"vehicle_type_id":"4","last_reported":1738602480,"current_range_meters":9600,"station_id":"ce4bhh92rcd13ifvqfi0","pricing_plan_id":"cebpf4jnsgd1na2vs0mg"},{"bike_id":"27eef74b-c3ed-48f7-8fa4-d80937c6c667","system_id":"levelo_inurba_marseille","lat":43.28934,"lon":5.36422,"is_reserved":false,"is_disabled":false,"rental_uris":{"android":"levelo://app?vid=27eef74b-c3ed-48f7-8fa4-d80937c6c667","ios":"levelo://app?vid=27eef74b-c3ed-48f7-8fa4-d80937c6c667"},"vehicle_type_id":"4","last_reported":1738602480,"current_range_meters":20000,"station_id":"ce4bhc92rcd13ifvqetg","pricing_plan_id":"cebpf4jnsgd1na2vs0mg"},{"bike_id":"4e790c06-2a94-477c-a2da-9a0330388cc5","system_id":"levelo_inurba_marseille","lat":43.2621,"lon":5.37462,"is_reserved":false,"is_disabled":false,"rental_uris":{"android":"levelo://app?vid=4e790c06-2a94-477c-a2da-9a0330388cc5","ios":"levelo://app?vid=4e790c06-2a94-477c-a2da-9a0330388cc5"},"vehicle_type_id":"4","last_reported":1738602480,"current_range_meters":19600,"station_id":"ce4bhgp2rcd13ifvqfc0","pricing_plan_id":"cebpf4jnsgd1na2vs0mg"},{"bike_id":"df721def-598a-4e24-a89a-4771bf19c6fb","system_id":"levelo_inurba_marseille","lat":43.278175,"lon":5.407091,"is_reserved":false,"is_disabled":false,"rental_uris":{"android":"levelo://app?vid=df721def-598a-4e24-a89a-4771bf19c6fb","ios":"levelo://app?vid=df721def-598a-4e24-a89a-4771bf19c6fb"},"vehicle_type_id":"4","last_reported":1738602480,"current_range_meters":38800,"station_id":"ce4bhnh2rcd13ifvqgtg","pricing_plan_id":"cebpf4jnsgd1na2vs0mg"},{"bike_id":"432bc086-190c-49bd-9f0f-b7d592e08498","system_id":"levelo_inurba_marseille","lat":43.23161,"lon":5.43698,"is_reserved":false,"is_disabled":false,"rental_uris":{"android":"levelo://app?vid=432bc086-190c-49bd-9f0f-b7d592e08498","ios":"levelo://app?vid=432bc086-190c-49bd-9f0f-b7d592e08498"},"vehicle_type_id":"4","last_reported":1738602480,"current_range_meters":18000,"station_id":"ce4bhmp2rcd13ifvqgog","pricing_plan_id":"cebpf4jnsgd1na2vs0mg"},{"bike_id":"905522ef-d4d4-4a33-8994-defbf52775ca","system_id":"levelo_inurba_marseille","lat":43.26239,"lon":5.40463,"is_reserved":false,"is_disabled":true,"rental_uris":{"android":"levelo://app?vid=905522ef-d4d4-4a33-8994-defbf52775ca","ios":"levelo://app?vid=905522ef-d4d4-4a33-8994-defbf52775ca"},"vehicle_type_id":"4","last_reported":1738602480,"current_range_meters":0,"station_id":"ce4bhmh2rcd13ifvqgmg","pricing_plan_id":"cebpf4jnsgd1na2vs0mg"},{"bike_id":"5df9bf08-43fe-4acc-898a-9db2002f38bc","system_id":"levelo_inurba_marseille","lat":43.2586,"lon":5.39905,"is_reserved":false,"is_disabled":false,"rental_uris":{"android":"levelo://app?vid=5df9bf08-43fe-4acc-898a-9db2002f38bc","ios":"levelo://app?vid=5df9bf08-43fe-4acc-898a-9db2002f38bc"},"vehicle_type_id":"4","last_reported":1738602480,"current_range_meters":19200,"station_id":"ce4bhl92rcd13ifvqghg","pricing_plan_id":"cebpf4jnsgd1na2vs0mg"},{"bike_id":"d9c614f7-8968-45e8-82a0-4ae06e41b32a","system_id":"levelo_inurba_marseille","lat":43.292174,"lon":5.360507,"is_reserved":false,"is_disabled":false,"rental_uris":{"android":"levelo://app?vid=d9c614f7-8968-45e8-82a0-4ae06e41b32a","ios":"levelo://app?vid=d9c614f7-8968-45e8-82a0-4ae06e41b32a"},"vehicle_type_id":"4","last_reported":1738602480,"current_range_meters":14800,"station_id":"ce4bhbh2rcd13ifvqeqg","pricing_plan_id":"cebpf4jnsgd1na2vs0mg"},{"bike_id":"933f132a-74c3-4edd-a7e3-63405a73f3a8","system_id":"levelo_inurba_marseille","lat":43.28689,"lon":5.40019,"is_reserved":false,"is_disabled":false,"rental_uris":{"android":"levelo://app?vid=933f132a-74c3-4edd-a7e3-63405a73f3a8","ios":"levelo://app?vid=933f132a-74c3-4edd-a7e3-63405a73f3a8"},"vehicle_type_id":"4","last_reported":1738602480,"current_range_meters":17600,"station_id":"ce4bho92rcd13ifvqh3g","pricing_plan_id":"cebpf4jnsgd1na2vs0mg"},{"bike_id":"3034d64e-f78e-468c-b4d6-2520a053438f","system_id":"levelo_inurba_marseille","lat":43.232,"lon":5.40004,"is_reserved":false,"is_disabled":true,"rental_uris":{"android":"levelo://app?vid=3034d64e-f78e-468c-b4d6-2520a053438f","ios":"levelo://app?vid=3034d64e-f78e-468c-b4d6-2520a053438f"},"vehicle_type_id":"4","last_reported":1738602480,"current_range_meters":16000,"station_id":"ce4bhn12rcd13ifvqgqg","pricing_plan_id":"cebpf4jnsgd1na2vs0mg"},{"bike_id":"4d56843c-838b-4099-80e1-081325709750","system_id":"levelo_inurba_marseille","lat":43.29191,"lon":5.35795,"is_reserved":false,"is_disabled":false,"rental_uris":{"android":"levelo://app?vid=4d56843c-838b-4099-80e1-081325709750","ios":"levelo://app?vid=4d56843c-838b-4099-80e1-081325709750"},"vehicle_type_id":"4","last_reported":1738602480,"current_range_meters":39200,"station_id":"ce4bhb12rcd13ifvqel0","pricing_plan_id":"cebpf4jnsgd1na2vs0mg"},{"bike_id":"1753dfa9-c752-4e0d-a0c0-1096f5fbab8b","system_id":"levelo_inurba_marseille","lat":43.29538,"lon":5.39045,"is_reserved":false,"is_disabled":false,"rental_uris":{"android":"levelo://app?vid=1753dfa9-c752-4e0d-a0c0-1096f5fbab8b","ios":"levelo://app?vid=1753dfa9-c752-4e0d-a0c0-1096f5fbab8b"},"vehicle_type_id":"4","last_reported":1738602480,"current_range_meters":17200,"station_id":"ce4bh3p2rcd13ifvqdp0","pricing_plan_id":"cebpf4jnsgd1na2vs0mg"},{"bike_id":"9e768907-2758-4663-849c-1bfedc158f31","system_id":"levelo_inurba_marseille","lat":43.279114,"lon":5.395864,"is_reserved":false,"is_disabled":true,"rental_uris":{"android":"levelo://app?vid=9e768907-2758-4663-849c-1bfedc158f31","ios":"levelo://app?vid=9e768907-2758-4663-849c-1bfedc158f31"},"vehicle_type_id":"4","last_reported":1738602480,"current_range_meters":0,"station_id":"ce4bhf92rcd13ifvqf40","pricing_plan_id":"cebpf4jnsgd1na2vs0mg"},{"bike_id":"942ee348-f601-4816-a32c-40a8d55d3f6b","system_id":"levelo_inurba_marseille","lat":43.337444,"lon":5.374475,"is_reserved":false,"is_disabled":true,"rental_uris":{"android":"levelo://app?vid=942ee348-f601-4816-a32c-40a8d55d3f6b","ios":"levelo://app?vid=942ee348-f601-4816-a32c-40a8d55d3f6b"},"vehicle_type_id":"4","last_reported":1738602480,"current_range_meters":0,"station_id":"","pricing_plan_id":"cebpf4jnsgd1na2vs0mg"},{"bike_id":"a7dc0848-081a-4438-bce6-7e161a91f066","system_id":"levelo_inurba_marseille","lat":43.28153,"lon":5.42653,"is_reserved":false,"is_disabled":true,"rental_uris":{"android":"levelo://app?vid=a7dc0848-081a-4438-bce6-7e161a91f066","ios":"levelo://app?vid=a7dc0848-081a-4438-bce6-7e161a91f066"},"vehicle_type_id":"4","last_reported":1738602480,"current_range_meters":0,"station_id":"ce4bhnh2rcd13ifvqgug","pricing_plan_id":"cebpf4jnsgd1na2vs0mg"},{"bike_id":"38cb1f63-70f1-449e-9ad2-1e8769f8c549","system_id":"levelo_inurba_marseille","lat":43.29303,"lon":5.37466,"is_reserved":false,"is_disabled":false,"rental_uris":{"android":"levelo://app?vid=38cb1f63-70f1-449e-9ad2-1e8769f8c549","ios":"levelo://app?vid=38cb1f63-70f1-449e-9ad2-1e8769f8c549"},"vehicle_type_id":"4","last_reported":1738602480,"current_range_meters":11600,"station_id":"ce4bgi12rcd13ifvqb70","pricing_plan_id":"cebpf4jnsgd1na2vs0mg"},{"bike_id":"f509805c-cf62-4952-8cc2-f1abfdf78735","system_id":"levelo_inurba_marseille","lat":43.29277,"lon":5.36853,"is_reserved":false,"is_disabled":false,"rental_uris":{"android":"levelo://app?vid=f509805c-cf62-4952-8cc2-f1abfdf78735","ios":"levelo://app?vid=f509805c-cf62-4952-8cc2-f1abfdf78735"},"vehicle_type_id":"4","last_reported":1738602480,"current_range_meters":33200,"station_id":"ce4bhbp2rcd13ifvqesg","pricing_plan_id":"cebpf4jnsgd1na2vs0mg"},{"bike_id":"f0b53076-d51d-4c78-be73-c20056d1b4ad","system_id":"levelo_inurba_marseille","lat":43.29981,"lon":5.38479,"is_reserved":false,"is_disabled":true,"rental_uris":{"android":"levelo://app?vid=f0b53076-d51d-4c78-be73-c20056d1b4ad","ios":"levelo://app?vid=f0b53076-d51d-4c78-be73-c20056d1b4ad"},"vehicle_type_id":"4","last_reported":1738602480,"current_range_meters":38000,"station_id":"ce4bgj92rcd13ifvqbd0","pricing_plan_id":"cebpf4jnsgd1na2vs0mg"},{"bike_id":"9819be76-2d4b-4fb5-a60b-698c25adabe5","system_id":"levelo_inurba_marseille","lat":43.26217,"lon":5.37466,"is_reserved":false,"is_disabled":false,"rental_uris":{"android":"levelo://app?vid=9819be76-2d4b-4fb5-a60b-698c25adabe5","ios":"levelo://app?vid=9819be76-2d4b-4fb5-a60b-698c25adabe5"},"vehicle_type_id":"4","last_reported":1738602480,"current_range_meters":32000,"station_id":"ce4bhgp2rcd13ifvqfc0","pricing_plan_id":"cebpf4jnsgd1na2vs0mg"},{"bike_id":"c8bd1d84-2291-473f-ab82-361f165fe1db","system_id":"levelo_inurba_marseille","lat":43.24169,"lon":5.36407,"is_reserved":false,"is_disabled":false,"rental_uris":{"android":"levelo://app?vid=c8bd1d84-2291-473f-ab82-361f165fe1db","ios":"levelo://app?vid=c8bd1d84-2291-473f-ab82-361f165fe1db"},"vehicle_type_id":"4","last_reported":1738602480,"current_range_meters":24800,"station_id":"cpo36qri1sfpv3e86is0","pricing_plan_id":"cebpf4jnsgd1na2vs0mg"},{"bike_id":"bb846df9-2969-480a-aed6-edbcf9c326fb","system_id":"levelo_inurba_marseille","lat":43.24818,"lon":5.37464,"is_reserved":false,"is_disabled":false,"rental_uris":{"android":"levelo://app?vid=bb846df9-2969-480a-aed6-edbcf9c326fb","ios":"levelo://app?vid=bb846df9-2969-480a-aed6-edbcf9c326fb"},"vehicle_type_id":"4","last_reported":1738602480,"current_range_meters":28400,"station_id":"ce4bhgh2rcd13ifvqfb0","pricing_plan_id":"cebpf4jnsgd1na2vs0mg"},{"bike_id":"48ebfd2e-3b3a-4da2-a76d-11ff63396ffb","system_id":"levelo_inurba_marseille","lat":43.27993,"lon":5.40004,"is_reserved":false,"is_disabled":true,"rental_uris":{"android":"levelo://app?vid=48ebfd2e-3b3a-4da2-a76d-11ff63396ffb","ios":"levelo://app?vid=48ebfd2e-3b3a-4da2-a76d-11ff63396ffb"},"vehicle_type_id":"4","last_reported":1738602480,"current_range_meters":20000,"station_id":"ce4bho92rcd13ifvqh4g","pricing_plan_id":"cebpf4jnsgd1na2vs0mg"},{"bike_id":"85e0a930-26fd-4edc-a536-795827c6b8db","system_id":"levelo_inurba_marseille","lat":43.28705,"lon":5.37408,"is_reserved":false,"is_disabled":false,"rental_uris":{"android":"levelo://app?vid=85e0a930-26fd-4edc-a536-795827c6b8db","ios":"levelo://app?vid=85e0a930-26fd-4edc-a536-795827c6b8db"},"vehicle_type_id":"4","last_reported":1738602480,"current_range_meters":17600,"station_id":"ce4bh3p2rcd13ifvqdq0","pricing_plan_id":"cebpf4jnsgd1na2vs0mg"},{"bike_id":"cd07e062-2af1-406e-bcb9-5f1ec4730937","system_id":"levelo_inurba_marseille","lat":43.23074,"lon":5.35502,"is_reserved":false,"is_disabled":false,"rental_uris":{"android":"levelo://app?vid=cd07e062-2af1-406e-bcb9-5f1ec4730937","ios":"levelo://app?vid=cd07e062-2af1-406e-bcb9-5f1ec4730937"},"vehicle_type_id":"4","last_reported":1738602480,"current_range_meters":12000,"station_id":"cpo3342slgdg3j2ifvpg","pricing_plan_id":"cebpf4jnsgd1na2vs0mg"},{"bike_id":"516f2549-79cf-4297-a0ad-3d3f06a71f80","system_id":"levelo_inurba_marseille","lat":43.31718,"lon":5.42404,"is_reserved":false,"is_disabled":true,"rental_uris":{"android":"levelo://app?vid=516f2549-79cf-4297-a0ad-3d3f06a71f80","ios":"levelo://app?vid=516f2549-79cf-4297-a0ad-3d3f06a71f80"},"vehicle_type_id":"4","last_reported":1738602480,"current_range_meters":8000,"station_id":"ce4bhp92rcd13ifvqhbg","pricing_plan_id":"cebpf4jnsgd1na2vs0mg"},{"bike_id":"2560298a-7b73-4b42-b024-41069cd9db21","system_id":"levelo_inurba_marseille","lat":43.27049,"lon":5.40268,"is_reserved":false,"is_disabled":true,"rental_uris":{"android":"levelo://app?vid=2560298a-7b73-4b42-b024-41069cd9db21","ios":"levelo://app?vid=2560298a-7b73-4b42-b024-41069cd9db21"},"vehicle_type_id":"4","last_reported":1738602480,"current_range_meters":1200,"station_id":"ce4bhk92rcd13ifvqgc0","pricing_plan_id":"cebpf4jnsgd1na2vs0mg"},{"bike_id":"00de6221-440e-40cd-b5f7-243a7f482c1d","system_id":"levelo_inurba_marseille","lat":43.30423,"lon":5.41293,"is_reserved":false,"is_disabled":false,"rental_uris":{"android":"levelo://app?vid=00de6221-440e-40cd-b5f7-243a7f482c1d","ios":"levelo://app?vid=00de6221-440e-40cd-b5f7-243a7f482c1d"},"vehicle_type_id":"4","last_reported":1738602480,"current_range_meters":29600,"station_id":"ce4bhop2rcd13ifvqh8g","pricing_plan_id":"cebpf4jnsgd1na2vs0mg"},{"bike_id":"2e000050-3e54-4f5a-9a94-7b366c1367e2","system_id":"levelo_inurba_marseille","lat":43.2841,"lon":5.3752,"is_reserved":false,"is_disabled":false,"rental_uris":{"android":"levelo://app?vid=2e000050-3e54-4f5a-9a94-7b366c1367e2","ios":"levelo://app?vid=2e000050-3e54-4f5a-9a94-7b366c1367e2"},"vehicle_type_id":"4","last_reported":1738602480,"current_range_meters":26800,"station_id":"ce4bh412rcd13ifvqds0","pricing_plan_id":"cebpf4jnsgd1na2vs0mg"},{"bike_id":"82b96249-9f3e-451b-ae28-0614063677c1","system_id":"levelo_inurba_marseille","lat":43.23183,"lon":5.39991,"is_reserved":false,"is_disabled":false,"rental_uris":{"android":"levelo://app?vid=82b96249-9f3e-451b-ae28-0614063677c1","ios":"levelo://app?vid=82b96249-9f3e-451b-ae28-0614063677c1"},"vehicle_type_id":"4","last_reported":1738602480,"current_range_meters":22000,"station_id":"ce4bhn12rcd13ifvqgqg","pricing_plan_id":"cebpf4jnsgd1na2vs0mg"},{"bike_id":"08691341-08de-4814-8055-e780af04f89c","system_id":"levelo_inurba_marseille","lat":43.25011,"lon":5.38941,"is_reserved":false,"is_disabled":false,"rental_uris":{"android":"levelo://app?vid=08691341-08de-4814-8055-e780af04f89c","ios":"levelo://app?vid=08691341-08de-4814-8055-e780af04f89c"},"vehicle_type_id":"4","last_reported":1738602480,"current_range_meters":36400,"station_id":"ce4bhgp2rcd13ifvqfd0","pricing_plan_id":"cebpf4jnsgd1na2vs0mg"},{"bike_id":"3eeff02b-8268-4022-b26d-26bab769f3f5","system_id":"levelo_inurba_marseille","lat":43.28408,"lon":5.37517,"is_reserved":false,"is_disabled":false,"rental_uris":{"android":"levelo://app?vid=3eeff02b-8268-4022-b26d-26bab769f3f5","ios":"levelo://app?vid=3eeff02b-8268-4022-b26d-26bab769f3f5"},"vehicle_type_id":"4","last_reported":1738602480,"current_range_meters":27200,"station_id":"ce4bh412rcd13ifvqds0","pricing_plan_id":"cebpf4jnsgd1na2vs0mg"},{"bike_id":"c3066916-eed2-4635-b496-6709235f4164","system_id":"levelo_inurba_marseille","lat":43.25001,"lon":5.38931,"is_reserved":false,"is_disabled":false,"rental_uris":{"android":"levelo://app?vid=c3066916-eed2-4635-b496-6709235f4164","ios":"levelo://app?vid=c3066916-eed2-4635-b496-6709235f4164"},"vehicle_type_id":"4","last_reported":1738602480,"current_range_meters":17600,"station_id":"ce4bhgp2rcd13ifvqfd0","pricing_plan_id":"cebpf4jnsgd1na2vs0mg"},{"bike_id":"5718481c-817c-4453-ad50-860ac1fd6949","system_id":"levelo_inurba_marseille","lat":43.26496,"lon":5.39542,"is_reserved":false,"is_disabled":false,"rental_uris":{"android":"levelo://app?vid=5718481c-817c-4453-ad50-860ac1fd6949","ios":"levelo://app?vid=5718481c-817c-4453-ad50-860ac1fd6949"},"vehicle_type_id":"4","last_reported":1738602480,"current_range_meters":38800,"station_id":"ce4bhi12rcd13ifvqfq0","pricing_plan_id":"cebpf4jnsgd1na2vs0mg"},{"bike_id":"fa48af50-f7f8-463b-8073-011bea7848cf","system_id":"levelo_inurba_marseille","lat":43.26985,"lon":5.40267,"is_reserved":false,"is_disabled":false,"rental_uris":{"android":"levelo://app?vid=fa48af50-f7f8-463b-8073-011bea7848cf","ios":"levelo://app?vid=fa48af50-f7f8-463b-8073-011bea7848cf"},"vehicle_type_id":"4","last_reported":1738602480,"current_range_meters":36400,"station_id":"cjm6bp8fraef2m0cb0m0","pricing_plan_id":"cebpf4jnsgd1na2vs0mg"},{"bike_id":"50eb9ff4-819f-4f03-83c2-13c6f3388b47","system_id":"levelo_inurba_marseille","lat":43.302519,"lon":5.400745,"is_reserved":false,"is_disabled":false,"rental_uris":{"android":"levelo://app?vid=50eb9ff4-819f-4f03-83c2-13c6f3388b47","ios":"levelo://app?vid=50eb9ff4-819f-4f03-83c2-13c6f3388b47"},"vehicle_type_id":"4","last_reported":1738602480,"current_range_meters":29600,"station_id":"ce4bgvh2rcd13ifvqcs0","pricing_plan_id":"cebpf4jnsgd1na2vs0mg"},{"bike_id":"7bbd1ca9-5cb4-4750-a3f0-60560373cbff","system_id":"levelo_inurba_marseille","lat":43.25474,"lon":5.3764,"is_reserved":false,"is_disabled":false,"rental_uris":{"android":"levelo://app?vid=7bbd1ca9-5cb4-4750-a3f0-60560373cbff","ios":"levelo://app?vid=7bbd1ca9-5cb4-4750-a3f0-60560373cbff"},"vehicle_type_id":"4","last_reported":1738602480,"current_range_meters":38800,"station_id":"ce4bhh12rcd13ifvqff0","pricing_plan_id":"cebpf4jnsgd1na2vs0mg"},{"bike_id":"42ad3b60-8ff9-4cf4-b036-3f56a4049c41","system_id":"levelo_inurba_marseille","lat":43.30096,"lon":5.39087,"is_reserved":false,"is_disabled":false,"rental_uris":{"android":"levelo://app?vid=42ad3b60-8ff9-4cf4-b036-3f56a4049c41","ios":"levelo://app?vid=42ad3b60-8ff9-4cf4-b036-3f56a4049c41"},"vehicle_type_id":"4","last_reported":1738602480,"current_range_meters":26800,"station_id":"ce4bh192rcd13ifvqdb0","pricing_plan_id":"cebpf4jnsgd1na2vs0mg"},{"bike_id":"506a5841-1d0a-4e9a-bf75-c549116e09f0","system_id":"levelo_inurba_marseille","lat":43.27813,"lon":5.40725,"is_reserved":false,"is_disabled":false,"rental_uris":{"android":"levelo://app?vid=506a5841-1d0a-4e9a-bf75-c549116e09f0","ios":"levelo://app?vid=506a5841-1d0a-4e9a-bf75-c549116e09f0"},"vehicle_type_id":"4","last_reported":1738602480,"current_range_meters":33200,"station_id":"ce4bhnh2rcd13ifvqgtg","pricing_plan_id":"cebpf4jnsgd1na2vs0mg"},{"bike_id":"ae50caec-5ecb-4a77-8148-ffb9866043e3","system_id":"levelo_inurba_marseille","lat":43.3237,"lon":5.38889,"is_reserved":false,"is_disabled":false,"rental_uris":{"android":"levelo://app?vid=ae50caec-5ecb-4a77-8148-ffb9866043e3","ios":"levelo://app?vid=ae50caec-5ecb-4a77-8148-ffb9866043e3"},"vehicle_type_id":"4","last_reported":1738602480,"current_range_meters":28000,"station_id":"ce4bhqp2rcd13ifvqhog","pricing_plan_id":"cebpf4jnsgd1na2vs0mg"},{"bike_id":"6bb18b6b-35db-4080-8375-2a2e83c6fc4b","system_id":"levelo_inurba_marseille","lat":43.23147,"lon":5.43688,"is_reserved":false,"is_disabled":true,"rental_uris":{"android":"levelo://app?vid=6bb18b6b-35db-4080-8375-2a2e83c6fc4b","ios":"levelo://app?vid=6bb18b6b-35db-4080-8375-2a2e83c6fc4b"},"vehicle_type_id":"4","last_reported":1738602480,"current_range_meters":38800,"station_id":"ce4bhmp2rcd13ifvqgog","pricing_plan_id":"cebpf4jnsgd1na2vs0mg"},{"bike_id":"a951be92-44a1-4649-8c91-03b367400f06","system_id":"levelo_inurba_marseille","lat":43.28465,"lon":5.35901,"is_reserved":false,"is_disabled":false,"rental_uris":{"android":"levelo://app?vid=a951be92-44a1-4649-8c91-03b367400f06","ios":"levelo://app?vid=a951be92-44a1-4649-8c91-03b367400f06"},"vehicle_type_id":"4","last_reported":1738602480,"current_range_meters":26000,"station_id":"ce4bhah2rcd13ifvqei0","pricing_plan_id":"cebpf4jnsgd1na2vs0mg"},{"bike_id":"73da363e-32af-49e1-a6b2-5b1de4da8c50","system_id":"levelo_inurba_marseille","lat":43.29329,"lon":5.36855,"is_reserved":false,"is_disabled":false,"rental_uris":{"android":"levelo://app?vid=73da363e-32af-49e1-a6b2-5b1de4da8c50","ios":"levelo://app?vid=73da363e-32af-49e1-a6b2-5b1de4da8c50"},"vehicle_type_id":"4","last_reported":1738602480,"current_range_meters":30000,"station_id":"ce4bhbp2rcd13ifvqesg","pricing_plan_id":"cebpf4jnsgd1na2vs0mg"},{"bike_id":"a900de3e-9b85-4eee-8886-aef2be1bd40e","system_id":"levelo_inurba_marseille","lat":43.31321,"lon":5.39697,"is_reserved":false,"is_disabled":false,"rental_uris":{"android":"levelo://app?vid=a900de3e-9b85-4eee-8886-aef2be1bd40e","ios":"levelo://app?vid=a900de3e-9b85-4eee-8886-aef2be1bd40e"},"vehicle_type_id":"4","last_reported":1738602480,"current_range_meters":3600,"station_id":"ce4bgvp2rcd13ifvqcu0","pricing_plan_id":"cebpf4jnsgd1na2vs0mg"},{"bike_id":"5804672b-52c6-4005-aabe-d9aef083bfe2","system_id":"levelo_inurba_marseille","lat":43.3175,"lon":5.37196,"is_reserved":false,"is_disabled":false,"rental_uris":{"android":"levelo://app?vid=5804672b-52c6-4005-aabe-d9aef083bfe2","ios":"levelo://app?vid=5804672b-52c6-4005-aabe-d9aef083bfe2"},"vehicle_type_id":"4","last_reported":1738602480,"current_range_meters":38800,"station_id":"","pricing_plan_id":"cebpf4jnsgd1na2vs0mg"},{"bike_id":"7476c13f-bd83-4d5d-ad19-abf5e6200780","system_id":"levelo_inurba_marseille","lat":43.26494,"lon":5.39556,"is_reserved":false,"is_disabled":false,"rental_uris":{"android":"levelo://app?vid=7476c13f-bd83-4d5d-ad19-abf5e6200780","ios":"levelo://app?vid=7476c13f-bd83-4d5d-ad19-abf5e6200780"},"vehicle_type_id":"4","last_reported":1738602480,"current_range_meters":10000,"station_id":"ce4bhi12rcd13ifvqfq0","pricing_plan_id":"cebpf4jnsgd1na2vs0mg"},{"bike_id":"4b223ce6-4a41-429a-ad08-9f1cef4ec600","system_id":"levelo_inurba_marseille","lat":43.30783,"lon":5.37652,"is_reserved":false,"is_disabled":false,"rental_uris":{"android":"levelo://app?vid=4b223ce6-4a41-429a-ad08-9f1cef4ec600","ios":"levelo://app?vid=4b223ce6-4a41-429a-ad08-9f1cef4ec600"},"vehicle_type_id":"4","last_reported":1738602480,"current_range_meters":17200,"station_id":"ce4bgv92rcd13ifvqcq0","pricing_plan_id":"cebpf4jnsgd1na2vs0mg"},{"bike_id":"eac8e106-76e0-4f1b-81af-4eaefecd2501","system_id":"levelo_inurba_marseille","lat":43.25002,"lon":5.3894,"is_reserved":false,"is_disabled":false,"rental_uris":{"android":"levelo://app?vid=eac8e106-76e0-4f1b-81af-4eaefecd2501","ios":"levelo://app?vid=eac8e106-76e0-4f1b-81af-4eaefecd2501"},"vehicle_type_id":"4","last_reported":1738602480,"current_range_meters":20000,"station_id":"ce4bhgp2rcd13ifvqfd0","pricing_plan_id":"cebpf4jnsgd1na2vs0mg"},{"bike_id":"ec1ec617-9d93-4d66-a5d8-531cf4c0e604","system_id":"levelo_inurba_marseille","lat":43.25872,"lon":5.39909,"is_reserved":false,"is_disabled":false,"rental_uris":{"android":"levelo://app?vid=ec1ec617-9d93-4d66-a5d8-531cf4c0e604","ios":"levelo://app?vid=ec1ec617-9d93-4d66-a5d8-531cf4c0e604"},"vehicle_type_id":"4","last_reported":1738602480,"current_range_meters":8000,"station_id":"ce4bhl92rcd13ifvqghg","pricing_plan_id":"cebpf4jnsgd1na2vs0mg"},{"bike_id":"8654b126-eecc-48d2-96fd-5d032bef9699","system_id":"levelo_inurba_marseille","lat":43.29929,"lon":5.36522,"is_reserved":false,"is_disabled":false,"rental_uris":{"android":"levelo://app?vid=8654b126-eecc-48d2-96fd-5d032bef9699","ios":"levelo://app?vid=8654b126-eecc-48d2-96fd-5d032bef9699"},"vehicle_type_id":"4","last_reported":1738602480,"current_range_meters":30800,"station_id":"ce4bgm92rcd13ifvqbr0","pricing_plan_id":"cebpf4jnsgd1na2vs0mg"},{"bike_id":"fe17d549-c68a-4c68-8652-263788d853da","system_id":"levelo_inurba_marseille","lat":43.27794,"lon":5.40721,"is_reserved":false,"is_disabled":false,"rental_uris":{"android":"levelo://app?vid=fe17d549-c68a-4c68-8652-263788d853da","ios":"levelo://app?vid=fe17d549-c68a-4c68-8652-263788d853da"},"vehicle_type_id":"4","last_reported":1738602480,"current_range_meters":8000,"station_id":"ce4bhnh2rcd13ifvqgtg","pricing_plan_id":"cebpf4jnsgd1na2vs0mg"},{"bike_id":"1763f8ae-0a51-4b0a-a14f-0c44d2a598d3","system_id":"levelo_inurba_marseille","lat":43.29531,"lon":5.37517,"is_reserved":false,"is_disabled":false,"rental_uris":{"android":"levelo://app?vid=1763f8ae-0a51-4b0a-a14f-0c44d2a598d3","ios":"levelo://app?vid=1763f8ae-0a51-4b0a-a14f-0c44d2a598d3"},"vehicle_type_id":"4","last_reported":1738602480,"current_range_meters":38800,"station_id":"ce4bgkp2rcd13ifvqbmg","pricing_plan_id":"cebpf4jnsgd1na2vs0mg"},{"bike_id":"eb9c859e-ef39-446e-afa7-9063d5540a2c","system_id":"levelo_inurba_marseille","lat":43.32906,"lon":5.36704,"is_reserved":false,"is_disabled":false,"rental_uris":{"android":"levelo://app?vid=eb9c859e-ef39-446e-afa7-9063d5540a2c","ios":"levelo://app?vid=eb9c859e-ef39-446e-afa7-9063d5540a2c"},"vehicle_type_id":"4","last_reported":1738602480,"current_range_meters":32000,"station_id":"","pricing_plan_id":"cebpf4jnsgd1na2vs0mg"},{"bike_id":"9c42114e-ea61-4c3d-98b3-5089f1e0e4ce","system_id":"levelo_inurba_marseille","lat":43.29246,"lon":5.40904,"is_reserved":false,"is_disabled":false,"rental_uris":{"android":"levelo://app?vid=9c42114e-ea61-4c3d-98b3-5089f1e0e4ce","ios":"levelo://app?vid=9c42114e-ea61-4c3d-98b3-5089f1e0e4ce"},"vehicle_type_id":"4","last_reported":1738602480,"current_range_meters":38800,"station_id":"ce4bh192rcd13ifvqdc0","pricing_plan_id":"cebpf4jnsgd1na2vs0mg"},{"bike_id":"b69d0c13-1b50-4c4d-a3a2-1d795cf04ef1","system_id":"levelo_inurba_marseille","lat":43.30134,"lon":5.38786,"is_reserved":false,"is_disabled":true,"rental_uris":{"android":"levelo://app?vid=b69d0c13-1b50-4c4d-a3a2-1d795cf04ef1","ios":"levelo://app?vid=b69d0c13-1b50-4c4d-a3a2-1d795cf04ef1"},"vehicle_type_id":"4","last_reported":1738602480,"current_range_meters":32400,"station_id":"ce4bghh2rcd13ifvqb60","pricing_plan_id":"cebpf4jnsgd1na2vs0mg"},{"bike_id":"5688ac17-5443-4dac-8fe6-c32fce7d33ec","system_id":"levelo_inurba_marseille","lat":43.27373,"lon":5.36259,"is_reserved":false,"is_disabled":false,"rental_uris":{"android":"levelo://app?vid=5688ac17-5443-4dac-8fe6-c32fce7d33ec","ios":"levelo://app?vid=5688ac17-5443-4dac-8fe6-c32fce7d33ec"},"vehicle_type_id":"4","last_reported":1738602480,"current_range_meters":6800,"station_id":"ce4bhbh2rcd13ifvqeo0","pricing_plan_id":"cebpf4jnsgd1na2vs0mg"},{"bike_id":"bd8fce10-db60-4637-88ad-07a5a938f039","system_id":"levelo_inurba_marseille","lat":43.28608,"lon":5.37073,"is_reserved":false,"is_disabled":true,"rental_uris":{"android":"levelo://app?vid=bd8fce10-db60-4637-88ad-07a5a938f039","ios":"levelo://app?vid=bd8fce10-db60-4637-88ad-07a5a938f039"},"vehicle_type_id":"4","last_reported":1738602480,"current_range_meters":38400,"station_id":"ce4bht12rcd13ifvqi60","pricing_plan_id":"cebpf4jnsgd1na2vs0mg"},{"bike_id":"aca7f856-95b0-4e97-8a0a-cf9d567272bd","system_id":"levelo_inurba_marseille","lat":43.23065,"lon":5.35493,"is_reserved":false,"is_disabled":false,"rental_uris":{"android":"levelo://app?vid=aca7f856-95b0-4e97-8a0a-cf9d567272bd","ios":"levelo://app?vid=aca7f856-95b0-4e97-8a0a-cf9d567272bd"},"vehicle_type_id":"4","last_reported":1738602480,"current_range_meters":36400,"station_id":"cpo3342slgdg3j2ifvpg","pricing_plan_id":"cebpf4jnsgd1na2vs0mg"},{"bike_id":"d5fdd631-4613-47d3-957c-71490edf7eff","system_id":"levelo_inurba_marseille","lat":43.29585,"lon":5.36744,"is_reserved":false,"is_disabled":false,"rental_uris":{"android":"levelo://app?vid=d5fdd631-4613-47d3-957c-71490edf7eff","ios":"levelo://app?vid=d5fdd631-4613-47d3-957c-71490edf7eff"},"vehicle_type_id":"4","last_reported":1738602480,"current_range_meters":34800,"station_id":"ce4bgph2rcd13ifvqc2g","pricing_plan_id":"cebpf4jnsgd1na2vs0mg"},{"bike_id":"9d9e6714-036c-4151-8a5d-515ad00cd54b","system_id":"levelo_inurba_marseille","lat":43.23193,"lon":5.35549,"is_reserved":false,"is_disabled":false,"rental_uris":{"android":"levelo://app?vid=9d9e6714-036c-4151-8a5d-515ad00cd54b","ios":"levelo://app?vid=9d9e6714-036c-4151-8a5d-515ad00cd54b"},"vehicle_type_id":"4","last_reported":1738602480,"current_range_meters":21600,"station_id":"ce4bhu92rcd13ifvqi70","pricing_plan_id":"cebpf4jnsgd1na2vs0mg"},{"bike_id":"041f5224-5988-41e0-9b58-4ec9304bc398","system_id":"levelo_inurba_marseille","lat":43.29038,"lon":5.39964,"is_reserved":false,"is_disabled":false,"rental_uris":{"android":"levelo://app?vid=041f5224-5988-41e0-9b58-4ec9304bc398","ios":"levelo://app?vid=041f5224-5988-41e0-9b58-4ec9304bc398"},"vehicle_type_id":"4","last_reported":1738602480,"current_range_meters":31200,"station_id":"ce4bh392rcd13ifvqdm0","pricing_plan_id":"cebpf4jnsgd1na2vs0mg"},{"bike_id":"6f47217d-29d2-49bc-b01f-b8375fd47483","system_id":"levelo_inurba_marseille","lat":43.32364,"lon":5.389,"is_reserved":false,"is_disabled":false,"rental_uris":{"android":"levelo://app?vid=6f47217d-29d2-49bc-b01f-b8375fd47483","ios":"levelo://app?vid=6f47217d-29d2-49bc-b01f-b8375fd47483"},"vehicle_type_id":"4","last_reported":1738602480,"current_range_meters":12800,"station_id":"ce4bhqp2rcd13ifvqhog","pricing_plan_id":"cebpf4jnsgd1na2vs0mg"},{"bike_id":"287abf4f-7460-423f-83ef-a25fc7ee8976","system_id":"levelo_inurba_marseille","lat":43.29685,"lon":5.36588,"is_reserved":false,"is_disabled":false,"rental_uris":{"android":"levelo://app?vid=287abf4f-7460-423f-83ef-a25fc7ee8976","ios":"levelo://app?vid=287abf4f-7460-423f-83ef-a25fc7ee8976"},"vehicle_type_id":"4","last_reported":1738602480,"current_range_meters":32400,"station_id":"ce4bgn92rcd13ifvqbvg","pricing_plan_id":"cebpf4jnsgd1na2vs0mg"},{"bike_id":"b39173c5-b93d-42e7-aa9f-ef1b710f7b45","system_id":"levelo_inurba_marseille","lat":43.30146,"lon":5.39913,"is_reserved":false,"is_disabled":true,"rental_uris":{"android":"levelo://app?vid=b39173c5-b93d-42e7-aa9f-ef1b710f7b45","ios":"levelo://app?vid=b39173c5-b93d-42e7-aa9f-ef1b710f7b45"},"vehicle_type_id":"4","last_reported":1738602480,"current_range_meters":38800,"station_id":"ce4bh0h2rcd13ifvqd40","pricing_plan_id":"cebpf4jnsgd1na2vs0mg"},{"bike_id":"d1f73a6e-4a72-4ba1-ace0-3d4a39f9f484","system_id":"levelo_inurba_marseille","lat":43.30358,"lon":5.41877,"is_reserved":false,"is_disabled":true,"rental_uris":{"android":"levelo://app?vid=d1f73a6e-4a72-4ba1-ace0-3d4a39f9f484","ios":"levelo://app?vid=d1f73a6e-4a72-4ba1-ace0-3d4a39f9f484"},"vehicle_type_id":"4","last_reported":1738602480,"current_range_meters":36800,"station_id":"ce4bhop2rcd13ifvqh7g","pricing_plan_id":"cebpf4jnsgd1na2vs0mg"},{"bike_id":"e3918b4a-6f57-4723-9eb4-ceee89132d13","system_id":"levelo_inurba_marseille","lat":43.29519,"lon":5.37498,"is_reserved":false,"is_disabled":false,"rental_uris":{"android":"levelo://app?vid=e3918b4a-6f57-4723-9eb4-ceee89132d13","ios":"levelo://app?vid=e3918b4a-6f57-4723-9eb4-ceee89132d13"},"vehicle_type_id":"4","last_reported":1738602480,"current_range_meters":36400,"station_id":"ce4bgkp2rcd13ifvqbmg","pricing_plan_id":"cebpf4jnsgd1na2vs0mg"},{"bike_id":"b91ffbc4-acdc-4860-898c-1b8a478577d5","system_id":"levelo_inurba_marseille","lat":43.29051,"lon":5.35918,"is_reserved":false,"is_disabled":false,"rental_uris":{"android":"levelo://app?vid=b91ffbc4-acdc-4860-898c-1b8a478577d5","ios":"levelo://app?vid=b91ffbc4-acdc-4860-898c-1b8a478577d5"},"vehicle_type_id":"4","last_reported":1738602480,"current_range_meters":6000,"station_id":"ce4bha92rcd13ifvqeg0","pricing_plan_id":"cebpf4jnsgd1na2vs0mg"},{"bike_id":"6bf9febf-ad8e-4881-9769-37f999f0d115","system_id":"levelo_inurba_marseille","lat":43.28146,"lon":5.4264,"is_reserved":false,"is_disabled":false,"rental_uris":{"android":"levelo://app?vid=6bf9febf-ad8e-4881-9769-37f999f0d115","ios":"levelo://app?vid=6bf9febf-ad8e-4881-9769-37f999f0d115"},"vehicle_type_id":"4","last_reported":1738602480,"current_range_meters":9600,"station_id":"ce4bhnh2rcd13ifvqgug","pricing_plan_id":"cebpf4jnsgd1na2vs0mg"},{"bike_id":"1f7e6434-a3ad-4e03-907e-63af1050cf22","system_id":"levelo_inurba_marseille","lat":43.2841,"lon":5.37512,"is_reserved":false,"is_disabled":false,"rental_uris":{"android":"levelo://app?vid=1f7e6434-a3ad-4e03-907e-63af1050cf22","ios":"levelo://app?vid=1f7e6434-a3ad-4e03-907e-63af1050cf22"},"vehicle_type_id":"4","last_reported":1738602480,"current_range_meters":16400,"station_id":"ce4bh412rcd13ifvqds0","pricing_plan_id":"cebpf4jnsgd1na2vs0mg"},{"bike_id":"7b39ed00-86df-4303-bda1-bfc0fee1e7e2","system_id":"levelo_inurba_marseille","lat":43.32447,"lon":5.4556,"is_reserved":false,"is_disabled":false,"rental_uris":{"android":"levelo://app?vid=7b39ed00-86df-4303-bda1-bfc0fee1e7e2","ios":"levelo://app?vid=7b39ed00-86df-4303-bda1-bfc0fee1e7e2"},"vehicle_type_id":"4","last_reported":1738602480,"current_range_meters":27600,"station_id":"","pricing_plan_id":"cebpf4jnsgd1na2vs0mg"},{"bike_id":"d2ff4a34-2bc5-49ef-ad6d-16bc20d19af4","system_id":"levelo_inurba_marseille","lat":43.29518,"lon":5.39412,"is_reserved":false,"is_disabled":false,"rental_uris":{"android":"levelo://app?vid=d2ff4a34-2bc5-49ef-ad6d-16bc20d19af4","ios":"levelo://app?vid=d2ff4a34-2bc5-49ef-ad6d-16bc20d19af4"},"vehicle_type_id":"4","last_reported":1738602480,"current_range_meters":7200,"station_id":"ce4bh292rcd13ifvqdf0","pricing_plan_id":"cebpf4jnsgd1na2vs0mg"},{"bike_id":"27965b13-db93-44ae-be4a-77a8d97c3b7e","system_id":"levelo_inurba_marseille","lat":43.26942,"lon":5.40278,"is_reserved":false,"is_disabled":false,"rental_uris":{"android":"levelo://app?vid=27965b13-db93-44ae-be4a-77a8d97c3b7e","ios":"levelo://app?vid=27965b13-db93-44ae-be4a-77a8d97c3b7e"},"vehicle_type_id":"4","last_reported":1738602480,"current_range_meters":38800,"station_id":"cjm6bp8fraef2m0cb0m0","pricing_plan_id":"cebpf4jnsgd1na2vs0mg"},{"bike_id":"d215c4a2-3af2-4e5d-8704-66bbf4080aad","system_id":"levelo_inurba_marseille","lat":43.25504,"lon":5.37663,"is_reserved":false,"is_disabled":false,"rental_uris":{"android":"levelo://app?vid=d215c4a2-3af2-4e5d-8704-66bbf4080aad","ios":"levelo://app?vid=d215c4a2-3af2-4e5d-8704-66bbf4080aad"},"vehicle_type_id":"4","last_reported":1738602480,"current_range_meters":37600,"station_id":"ce4bhh12rcd13ifvqff0","pricing_plan_id":"cebpf4jnsgd1na2vs0mg"},{"bike_id":"31e7a8ad-a88e-4f4f-b410-0753a570be44","system_id":"levelo_inurba_marseille","lat":43.26956,"lon":5.38634,"is_reserved":false,"is_disabled":false,"rental_uris":{"android":"levelo://app?vid=31e7a8ad-a88e-4f4f-b410-0753a570be44","ios":"levelo://app?vid=31e7a8ad-a88e-4f4f-b410-0753a570be44"},"vehicle_type_id":"4","last_reported":1738602480,"current_range_meters":8400,"station_id":"ce4bhh92rcd13ifvqfh0","pricing_plan_id":"cebpf4jnsgd1na2vs0mg"},{"bike_id":"bad12b46-aa04-4c47-86f4-2aea6ce4230d","system_id":"levelo_inurba_marseille","lat":43.26059,"lon":5.394,"is_reserved":false,"is_disabled":false,"rental_uris":{"android":"levelo://app?vid=bad12b46-aa04-4c47-86f4-2aea6ce4230d","ios":"levelo://app?vid=bad12b46-aa04-4c47-86f4-2aea6ce4230d"},"vehicle_type_id":"4","last_reported":1738602480,"current_range_meters":16400,"station_id":"ce4bhh92rcd13ifvqfj0","pricing_plan_id":"cebpf4jnsgd1na2vs0mg"},{"bike_id":"c7efea0b-41ab-47c4-93f0-43a53000a63b","system_id":"levelo_inurba_marseille","lat":43.23085,"lon":5.35515,"is_reserved":false,"is_disabled":false,"rental_uris":{"android":"levelo://app?vid=c7efea0b-41ab-47c4-93f0-43a53000a63b","ios":"levelo://app?vid=c7efea0b-41ab-47c4-93f0-43a53000a63b"},"vehicle_type_id":"4","last_reported":1738602480,"current_range_meters":38000,"station_id":"cpo3342slgdg3j2ifvpg","pricing_plan_id":"cebpf4jnsgd1na2vs0mg"},{"bike_id":"57e01045-990f-45b7-aec0-b6edb12f21c7","system_id":"levelo_inurba_marseille","lat":43.26225,"lon":5.40459,"is_reserved":false,"is_disabled":true,"rental_uris":{"android":"levelo://app?vid=57e01045-990f-45b7-aec0-b6edb12f21c7","ios":"levelo://app?vid=57e01045-990f-45b7-aec0-b6edb12f21c7"},"vehicle_type_id":"4","last_reported":1738602480,"current_range_meters":800,"station_id":"ce4bhmh2rcd13ifvqgmg","pricing_plan_id":"cebpf4jnsgd1na2vs0mg"},{"bike_id":"1827f861-2491-418f-8ab1-b9c7b413bb8d","system_id":"levelo_inurba_marseille","lat":43.27679,"lon":5.38905,"is_reserved":false,"is_disabled":false,"rental_uris":{"android":"levelo://app?vid=1827f861-2491-418f-8ab1-b9c7b413bb8d","ios":"levelo://app?vid=1827f861-2491-418f-8ab1-b9c7b413bb8d"},"vehicle_type_id":"4","last_reported":1738602480,"current_range_meters":38800,"station_id":"ce4bhi12rcd13ifvqfo0","pricing_plan_id":"cebpf4jnsgd1na2vs0mg"},{"bike_id":"0404324f-de03-482a-890a-68fe844d83b7","system_id":"levelo_inurba_marseille","lat":43.23186,"lon":5.39992,"is_reserved":false,"is_disabled":false,"rental_uris":{"android":"levelo://app?vid=0404324f-de03-482a-890a-68fe844d83b7","ios":"levelo://app?vid=0404324f-de03-482a-890a-68fe844d83b7"},"vehicle_type_id":"4","last_reported":1738602480,"current_range_meters":9200,"station_id":"ce4bhn12rcd13ifvqgqg","pricing_plan_id":"cebpf4jnsgd1na2vs0mg"},{"bike_id":"ef2c1a19-5f16-4f9c-b19f-ec22e3770dc7","system_id":"levelo_inurba_marseille","lat":43.32332,"lon":5.40621,"is_reserved":false,"is_disabled":false,"rental_uris":{"android":"levelo://app?vid=ef2c1a19-5f16-4f9c-b19f-ec22e3770dc7","ios":"levelo://app?vid=ef2c1a19-5f16-4f9c-b19f-ec22e3770dc7"},"vehicle_type_id":"4","last_reported":1738602480,"current_range_meters":25200,"station_id":"ce4bhq92rcd13ifvqhjg","pricing_plan_id":"cebpf4jnsgd1na2vs0mg"},{"bike_id":"a002f279-dc63-44da-a8c2-69f8f241d451","system_id":"levelo_inurba_marseille","lat":43.24663,"lon":5.38167,"is_reserved":false,"is_disabled":false,"rental_uris":{"android":"levelo://app?vid=a002f279-dc63-44da-a8c2-69f8f241d451","ios":"levelo://app?vid=a002f279-dc63-44da-a8c2-69f8f241d451"},"vehicle_type_id":"4","last_reported":1738602480,"current_range_meters":20400,"station_id":"ce4bhih2rcd13ifvqfr0","pricing_plan_id":"cebpf4jnsgd1na2vs0mg"},{"bike_id":"98ebb257-44d3-4161-905f-bea8ec055399","system_id":"levelo_inurba_marseille","lat":43.29077,"lon":5.37145,"is_reserved":false,"is_disabled":true,"rental_uris":{"android":"levelo://app?vid=98ebb257-44d3-4161-905f-bea8ec055399","ios":"levelo://app?vid=98ebb257-44d3-4161-905f-bea8ec055399"},"vehicle_type_id":"4","last_reported":1738602480,"current_range_meters":8400,"station_id":"ce4bh5p2rcd13ifvqe4g","pricing_plan_id":"cebpf4jnsgd1na2vs0mg"},{"bike_id":"ac0576e1-59c8-4ee2-b4f1-92b7576ad1bf","system_id":"levelo_inurba_marseille","lat":43.27962,"lon":5.3875,"is_reserved":false,"is_disabled":false,"rental_uris":{"android":"levelo://app?vid=ac0576e1-59c8-4ee2-b4f1-92b7576ad1bf","ios":"levelo://app?vid=ac0576e1-59c8-4ee2-b4f1-92b7576ad1bf"},"vehicle_type_id":"4","last_reported":1738602480,"current_range_meters":36400,"station_id":"ce4bhg12rcd13ifvqf80","pricing_plan_id":"cebpf4jnsgd1na2vs0mg"},{"bike_id":"f401b5cd-ff4a-427b-873b-200db4b23c22","system_id":"levelo_inurba_marseille","lat":43.29011,"lon":5.35598,"is_reserved":false,"is_disabled":false,"rental_uris":{"android":"levelo://app?vid=f401b5cd-ff4a-427b-873b-200db4b23c22","ios":"levelo://app?vid=f401b5cd-ff4a-427b-873b-200db4b23c22"},"vehicle_type_id":"4","last_reported":1738602480,"current_range_meters":31200,"station_id":"ce4bhb92rcd13ifvqen0","pricing_plan_id":"cebpf4jnsgd1na2vs0mg"},{"bike_id":"6a979002-c28b-416e-9fa4-cc29463556a1","system_id":"levelo_inurba_marseille","lat":43.24804,"lon":5.37453,"is_reserved":false,"is_disabled":false,"rental_uris":{"android":"levelo://app?vid=6a979002-c28b-416e-9fa4-cc29463556a1","ios":"levelo://app?vid=6a979002-c28b-416e-9fa4-cc29463556a1"},"vehicle_type_id":"4","last_reported":1738602480,"current_range_meters":16800,"station_id":"ce4bhgh2rcd13ifvqfb0","pricing_plan_id":"cebpf4jnsgd1na2vs0mg"},{"bike_id":"e5239f3f-82cc-4029-b568-6a868bc77d31","system_id":"levelo_inurba_marseille","lat":43.32541,"lon":5.41442,"is_reserved":false,"is_disabled":true,"rental_uris":{"android":"levelo://app?vid=e5239f3f-82cc-4029-b568-6a868bc77d31","ios":"levelo://app?vid=e5239f3f-82cc-4029-b568-6a868bc77d31"},"vehicle_type_id":"4","last_reported":1738602480,"current_range_meters":800,"station_id":"ce4bhq12rcd13ifvqhhg","pricing_plan_id":"cebpf4jnsgd1na2vs0mg"},{"bike_id":"ce6562d8-c617-43a3-a1b9-91ef458d490e","system_id":"levelo_inurba_marseille","lat":43.26803,"lon":5.40263,"is_reserved":false,"is_disabled":false,"rental_uris":{"android":"levelo://app?vid=ce6562d8-c617-43a3-a1b9-91ef458d490e","ios":"levelo://app?vid=ce6562d8-c617-43a3-a1b9-91ef458d490e"},"vehicle_type_id":"4","last_reported":1738602480,"current_range_meters":38800,"station_id":"ce501612rcd8frsf0b60","pricing_plan_id":"cebpf4jnsgd1na2vs0mg"},{"bike_id":"b99f24fe-c65c-4e34-891b-3c15ab1a2872","system_id":"levelo_inurba_marseille","lat":43.24173,"lon":5.36413,"is_reserved":false,"is_disabled":false,"rental_uris":{"android":"levelo://app?vid=b99f24fe-c65c-4e34-891b-3c15ab1a2872","ios":"levelo://app?vid=b99f24fe-c65c-4e34-891b-3c15ab1a2872"},"vehicle_type_id":"4","last_reported":1738602480,"current_range_meters":6000,"station_id":"cpo36qri1sfpv3e86is0","pricing_plan_id":"cebpf4jnsgd1na2vs0mg"},{"bike_id":"932158f8-ac77-401e-bf22-bf4d8206db30","system_id":"levelo_inurba_marseille","lat":43.27814,"lon":5.40721,"is_reserved":false,"is_disabled":false,"rental_uris":{"android":"levelo://app?vid=932158f8-ac77-401e-bf22-bf4d8206db30","ios":"levelo://app?vid=932158f8-ac77-401e-bf22-bf4d8206db30"},"vehicle_type_id":"4","last_reported":1738602480,"current_range_meters":38800,"station_id":"ce4bhnh2rcd13ifvqgtg","pricing_plan_id":"cebpf4jnsgd1na2vs0mg"},{"bike_id":"5774c46f-e2a3-49a6-b936-3bf1b62a1665","system_id":"levelo_inurba_marseille","lat":43.321133,"lon":5.367847,"is_reserved":false,"is_disabled":false,"rental_uris":{"android":"levelo://app?vid=5774c46f-e2a3-49a6-b936-3bf1b62a1665","ios":"levelo://app?vid=5774c46f-e2a3-49a6-b936-3bf1b62a1665"},"vehicle_type_id":"4","last_reported":1738602480,"current_range_meters":17600,"station_id":"ce4bhrh2rcd13ifvqhug","pricing_plan_id":"cebpf4jnsgd1na2vs0mg"},{"bike_id":"6061a8f4-6e81-41b8-9335-b72f7b65ae20","system_id":"levelo_inurba_marseille","lat":43.246474,"lon":5.388871,"is_reserved":false,"is_disabled":false,"rental_uris":{"android":"levelo://app?vid=6061a8f4-6e81-41b8-9335-b72f7b65ae20","ios":"levelo://app?vid=6061a8f4-6e81-41b8-9335-b72f7b65ae20"},"vehicle_type_id":"4","last_reported":1738602480,"current_range_meters":36800,"station_id":"ce4bhg12rcd13ifvqf60","pricing_plan_id":"cebpf4jnsgd1na2vs0mg"},{"bike_id":"9e443c44-3971-4e71-a953-26adf5009005","system_id":"levelo_inurba_marseille","lat":43.27557,"lon":5.38405,"is_reserved":false,"is_disabled":false,"rental_uris":{"android":"levelo://app?vid=9e443c44-3971-4e71-a953-26adf5009005","ios":"levelo://app?vid=9e443c44-3971-4e71-a953-26adf5009005"},"vehicle_type_id":"4","last_reported":1738602480,"current_range_meters":32800,"station_id":"ce4bhh92rcd13ifvqfi0","pricing_plan_id":"cebpf4jnsgd1na2vs0mg"},{"bike_id":"fff8d168-a1c9-4c99-a1a8-64b8c7818e84","system_id":"levelo_inurba_marseille","lat":43.29228,"lon":5.3608,"is_reserved":false,"is_disabled":false,"rental_uris":{"android":"levelo://app?vid=fff8d168-a1c9-4c99-a1a8-64b8c7818e84","ios":"levelo://app?vid=fff8d168-a1c9-4c99-a1a8-64b8c7818e84"},"vehicle_type_id":"4","last_reported":1738602480,"current_range_meters":30800,"station_id":"ce4bhbh2rcd13ifvqeqg","pricing_plan_id":"cebpf4jnsgd1na2vs0mg"},{"bike_id":"22c1ccea-64c9-4dfe-8739-1ea0a386562b","system_id":"levelo_inurba_marseille","lat":43.30604,"lon":5.39364,"is_reserved":false,"is_disabled":true,"rental_uris":{"android":"levelo://app?vid=22c1ccea-64c9-4dfe-8739-1ea0a386562b","ios":"levelo://app?vid=22c1ccea-64c9-4dfe-8739-1ea0a386562b"},"vehicle_type_id":"4","last_reported":1738602480,"current_range_meters":16800,"station_id":"ce4bh0p2rcd13ifvqd80","pricing_plan_id":"cebpf4jnsgd1na2vs0mg"},{"bike_id":"253b40ce-6c72-4bcc-af22-abcdd5142a13","system_id":"levelo_inurba_marseille","lat":43.30886,"lon":5.3714,"is_reserved":false,"is_disabled":false,"rental_uris":{"android":"levelo://app?vid=253b40ce-6c72-4bcc-af22-abcdd5142a13","ios":"levelo://app?vid=253b40ce-6c72-4bcc-af22-abcdd5142a13"},"vehicle_type_id":"4","last_reported":1738602480,"current_range_meters":11600,"station_id":"ce4bguh2rcd13ifvqckg","pricing_plan_id":"cebpf4jnsgd1na2vs0mg"},{"bike_id":"85f5f59c-ff7a-4f8a-a2b3-b9f7850f2841","system_id":"levelo_inurba_marseille","lat":43.29738,"lon":5.37696,"is_reserved":false,"is_disabled":true,"rental_uris":{"android":"levelo://app?vid=85f5f59c-ff7a-4f8a-a2b3-b9f7850f2841","ios":"levelo://app?vid=85f5f59c-ff7a-4f8a-a2b3-b9f7850f2841"},"vehicle_type_id":"4","last_reported":1738602480,"current_range_meters":0,"station_id":"ce4bgkh2rcd13ifvqbl0","pricing_plan_id":"cebpf4jnsgd1na2vs0mg"},{"bike_id":"66ba9113-06d4-4f80-a21b-6ae5778e1fe6","system_id":"levelo_inurba_marseille","lat":43.2397,"lon":5.36633,"is_reserved":false,"is_disabled":false,"rental_uris":{"android":"levelo://app?vid=66ba9113-06d4-4f80-a21b-6ae5778e1fe6","ios":"levelo://app?vid=66ba9113-06d4-4f80-a21b-6ae5778e1fe6"},"vehicle_type_id":"4","last_reported":1738602480,"current_range_meters":6800,"station_id":"ce4bhi12rcd13ifvqfp0","pricing_plan_id":"cebpf4jnsgd1na2vs0mg"},{"bike_id":"6a92b2ac-9bcc-4050-afd7-40445ea2384b","system_id":"levelo_inurba_marseille","lat":43.33029,"lon":5.39034,"is_reserved":false,"is_disabled":false,"rental_uris":{"android":"levelo://app?vid=6a92b2ac-9bcc-4050-afd7-40445ea2384b","ios":"levelo://app?vid=6a92b2ac-9bcc-4050-afd7-40445ea2384b"},"vehicle_type_id":"4","last_reported":1738602480,"current_range_meters":28000,"station_id":"ce4bhr92rcd13ifvqhrg","pricing_plan_id":"cebpf4jnsgd1na2vs0mg"},{"bike_id":"adc38dc3-6d6a-4e21-866c-c99f433616fb","system_id":"levelo_inurba_marseille","lat":43.27627,"lon":5.36142,"is_reserved":false,"is_disabled":false,"rental_uris":{"android":"levelo://app?vid=adc38dc3-6d6a-4e21-866c-c99f433616fb","ios":"levelo://app?vid=adc38dc3-6d6a-4e21-866c-c99f433616fb"},"vehicle_type_id":"4","last_reported":1738602480,"current_range_meters":37600,"station_id":"ce4bgj92rcd13ifvqbe0","pricing_plan_id":"cebpf4jnsgd1na2vs0mg"},{"bike_id":"86a1dcf5-830e-478b-b8a1-7c70a20e480c","system_id":"levelo_inurba_marseille","lat":43.23194,"lon":5.35554,"is_reserved":false,"is_disabled":false,"rental_uris":{"android":"levelo://app?vid=86a1dcf5-830e-478b-b8a1-7c70a20e480c","ios":"levelo://app?vid=86a1dcf5-830e-478b-b8a1-7c70a20e480c"},"vehicle_type_id":"4","last_reported":1738602480,"current_range_meters":38800,"station_id":"ce4bhu92rcd13ifvqi70","pricing_plan_id":"cebpf4jnsgd1na2vs0mg"},{"bike_id":"db23a254-403e-4983-a757-d5b1734a534d","system_id":"levelo_inurba_marseille","lat":43.31486,"lon":5.37312,"is_reserved":false,"is_disabled":false,"rental_uris":{"android":"levelo://app?vid=db23a254-403e-4983-a757-d5b1734a534d","ios":"levelo://app?vid=db23a254-403e-4983-a757-d5b1734a534d"},"vehicle_type_id":"4","last_reported":1738602480,"current_range_meters":12800,"station_id":"ce4bgt12rcd13ifvqcd0","pricing_plan_id":"cebpf4jnsgd1na2vs0mg"},{"bike_id":"29fffb12-1348-4943-b513-ed8a6a438598","system_id":"levelo_inurba_marseille","lat":43.3013,"lon":5.39871,"is_reserved":false,"is_disabled":false,"rental_uris":{"android":"levelo://app?vid=29fffb12-1348-4943-b513-ed8a6a438598","ios":"levelo://app?vid=29fffb12-1348-4943-b513-ed8a6a438598"},"vehicle_type_id":"4","last_reported":1738602480,"current_range_meters":24800,"station_id":"ce4bh0h2rcd13ifvqd40","pricing_plan_id":"cebpf4jnsgd1na2vs0mg"},{"bike_id":"2537067e-a1a9-4aba-a25e-dbdd2c3acc02","system_id":"levelo_inurba_marseille","lat":43.320966,"lon":5.445189,"is_reserved":false,"is_disabled":true,"rental_uris":{"android":"levelo://app?vid=2537067e-a1a9-4aba-a25e-dbdd2c3acc02","ios":"levelo://app?vid=2537067e-a1a9-4aba-a25e-dbdd2c3acc02"},"vehicle_type_id":"4","last_reported":1738602480,"current_range_meters":800,"station_id":"","pricing_plan_id":"cebpf4jnsgd1na2vs0mg"},{"bike_id":"fb3d6aa4-69cb-4cba-a3ef-4781202f8a6f","system_id":"levelo_inurba_marseille","lat":43.27931,"lon":5.41043,"is_reserved":false,"is_disabled":true,"rental_uris":{"android":"levelo://app?vid=fb3d6aa4-69cb-4cba-a3ef-4781202f8a6f","ios":"levelo://app?vid=fb3d6aa4-69cb-4cba-a3ef-4781202f8a6f"},"vehicle_type_id":"4","last_reported":1738602480,"current_range_meters":1200,"station_id":"ce4bhnp2rcd13ifvqh0g","pricing_plan_id":"cebpf4jnsgd1na2vs0mg"},{"bike_id":"36229881-8131-45f4-b402-a9b45e41aedb","system_id":"levelo_inurba_marseille","lat":43.26793,"lon":5.39417,"is_reserved":false,"is_disabled":false,"rental_uris":{"android":"levelo://app?vid=36229881-8131-45f4-b402-a9b45e41aedb","ios":"levelo://app?vid=36229881-8131-45f4-b402-a9b45e41aedb"},"vehicle_type_id":"4","last_reported":1738602480,"current_range_meters":35200,"station_id":"ce4bhh12rcd13ifvqfg0","pricing_plan_id":"cebpf4jnsgd1na2vs0mg"},{"bike_id":"bb6e8bb0-4255-46cb-8007-e6fd3df0e340","system_id":"levelo_inurba_marseille","lat":43.28523,"lon":5.4253,"is_reserved":false,"is_disabled":true,"rental_uris":{"android":"levelo://app?vid=bb6e8bb0-4255-46cb-8007-e6fd3df0e340","ios":"levelo://app?vid=bb6e8bb0-4255-46cb-8007-e6fd3df0e340"},"vehicle_type_id":"4","last_reported":1738602480,"current_range_meters":0,"station_id":"ce4bhnh2rcd13ifvqgug","pricing_plan_id":"cebpf4jnsgd1na2vs0mg"},{"bike_id":"b0829d45-0881-4cd4-adef-7befcf02a401","system_id":"levelo_inurba_marseille","lat":43.28158,"lon":5.42637,"is_reserved":false,"is_disabled":false,"rental_uris":{"android":"levelo://app?vid=b0829d45-0881-4cd4-adef-7befcf02a401","ios":"levelo://app?vid=b0829d45-0881-4cd4-adef-7befcf02a401"},"vehicle_type_id":"4","last_reported":1738602480,"current_range_meters":36800,"station_id":"ce4bhnh2rcd13ifvqgug","pricing_plan_id":"cebpf4jnsgd1na2vs0mg"},{"bike_id":"5c42e792-8944-4dfe-a1b6-39c0f5d5981c","system_id":"levelo_inurba_marseille","lat":43.26214,"lon":5.40437,"is_reserved":false,"is_disabled":false,"rental_uris":{"android":"levelo://app?vid=5c42e792-8944-4dfe-a1b6-39c0f5d5981c","ios":"levelo://app?vid=5c42e792-8944-4dfe-a1b6-39c0f5d5981c"},"vehicle_type_id":"4","last_reported":1738602480,"current_range_meters":24400,"station_id":"ce4bhmh2rcd13ifvqgmg","pricing_plan_id":"cebpf4jnsgd1na2vs0mg"},{"bike_id":"c5f8b4bd-25ee-48ca-a4f0-f62f6b7a23c1","system_id":"levelo_inurba_marseille","lat":43.32292,"lon":5.38294,"is_reserved":false,"is_disabled":false,"rental_uris":{"android":"levelo://app?vid=c5f8b4bd-25ee-48ca-a4f0-f62f6b7a23c1","ios":"levelo://app?vid=c5f8b4bd-25ee-48ca-a4f0-f62f6b7a23c1"},"vehicle_type_id":"4","last_reported":1738602480,"current_range_meters":33600,"station_id":"ce4bhr12rcd13ifvqhqg","pricing_plan_id":"cebpf4jnsgd1na2vs0mg"},{"bike_id":"ce5e51af-246b-4ff2-bd0d-7325afff5037","system_id":"levelo_inurba_marseille","lat":43.29599,"lon":5.36708,"is_reserved":false,"is_disabled":false,"rental_uris":{"android":"levelo://app?vid=ce5e51af-246b-4ff2-bd0d-7325afff5037","ios":"levelo://app?vid=ce5e51af-246b-4ff2-bd0d-7325afff5037"},"vehicle_type_id":"4","last_reported":1738602480,"current_range_meters":34800,"station_id":"ce4bgph2rcd13ifvqc2g","pricing_plan_id":"cebpf4jnsgd1na2vs0mg"},{"bike_id":"56579edf-7b36-47df-92ae-828048b16cfe","system_id":"levelo_inurba_marseille","lat":43.2928,"lon":5.36845,"is_reserved":false,"is_disabled":false,"rental_uris":{"android":"levelo://app?vid=56579edf-7b36-47df-92ae-828048b16cfe","ios":"levelo://app?vid=56579edf-7b36-47df-92ae-828048b16cfe"},"vehicle_type_id":"4","last_reported":1738602480,"current_range_meters":19200,"station_id":"ce4bhbp2rcd13ifvqesg","pricing_plan_id":"cebpf4jnsgd1na2vs0mg"},{"bike_id":"36cf28c8-93c6-46b1-9213-4a1d6b4271fb","system_id":"levelo_inurba_marseille","lat":43.25823,"lon":5.39435,"is_reserved":false,"is_disabled":false,"rental_uris":{"android":"levelo://app?vid=36cf28c8-93c6-46b1-9213-4a1d6b4271fb","ios":"levelo://app?vid=36cf28c8-93c6-46b1-9213-4a1d6b4271fb"},"vehicle_type_id":"4","last_reported":1738602480,"current_range_meters":38800,"station_id":"ce4bhip2rcd13ifvqft0","pricing_plan_id":"cebpf4jnsgd1na2vs0mg"},{"bike_id":"e94195b3-8d87-486b-aaf9-03203167ff48","system_id":"levelo_inurba_marseille","lat":43.24661,"lon":5.38163,"is_reserved":false,"is_disabled":false,"rental_uris":{"android":"levelo://app?vid=e94195b3-8d87-486b-aaf9-03203167ff48","ios":"levelo://app?vid=e94195b3-8d87-486b-aaf9-03203167ff48"},"vehicle_type_id":"4","last_reported":1738602480,"current_range_meters":37600,"station_id":"ce4bhih2rcd13ifvqfr0","pricing_plan_id":"cebpf4jnsgd1na2vs0mg"},{"bike_id":"15ef6b82-3349-471c-9c79-cea220f8d3c5","system_id":"levelo_inurba_marseille","lat":43.29302,"lon":5.37457,"is_reserved":false,"is_disabled":true,"rental_uris":{"android":"levelo://app?vid=15ef6b82-3349-471c-9c79-cea220f8d3c5","ios":"levelo://app?vid=15ef6b82-3349-471c-9c79-cea220f8d3c5"},"vehicle_type_id":"4","last_reported":1738602480,"current_range_meters":38400,"station_id":"ce4bgi12rcd13ifvqb70","pricing_plan_id":"cebpf4jnsgd1na2vs0mg"},{"bike_id":"3861f02c-5901-4e85-ad06-46445d27c502","system_id":"levelo_inurba_marseille","lat":43.31377,"lon":5.38496,"is_reserved":false,"is_disabled":false,"rental_uris":{"android":"levelo://app?vid=3861f02c-5901-4e85-ad06-46445d27c502","ios":"levelo://app?vid=3861f02c-5901-4e85-ad06-46445d27c502"},"vehicle_type_id":"4","last_reported":1738602480,"current_range_meters":9600,"station_id":"ce4bgt92rcd13ifvqcf0","pricing_plan_id":"cebpf4jnsgd1na2vs0mg"},