{"last_updated":1702148672,"ttl":30,"version":"2.2","data":{"bikes":[{"bike_id":"6ef1924a-0c86-47e2-8dcc-1134a4c96ba6","system_id":"levelo_inurba_marseille","lat":43.309076,"lon":5.368465,"is_reserved":false,"is_disabled":false,"rental_uris":{"android":"levelo://app?vid=6ef1924a-0c86-47e2-8dcc-1134a4c96ba6","ios":"levelo://app?vid=6ef1924a-0c86-47e2-8dcc-1134a4c96ba6"},"vehicle_type_id":"4","last_reported":1702148672,"current_range_meters":8000,"station_id":"ce4bgn92rcd13ifvqbvg","pricing_plan_id":"free"},{"bike_id":"8213fb51-6ca0-4f12-9e9a-b9f26db97a3d","system_id":"levelo_inurba_marseille","lat":43.31502,"lon":5.37317,"is_reserved":false,"is_disabled":false,"rental_uris":{"android":"levelo://app?vid=8213fb51-6ca0-4f12-9e9a-b9f26db97a3d","ios":"levelo://app?vid=8213fb51-6ca0-4f12-9e9a-b9f26db97a3d"},"vehicle_type_id":"4","last_reported":1702148672,"current_range_meters":25600,"station_id":"ce4bgt12rcd13ifvqcd0","pricing_plan_id":"free"},{"bike_id":"f2054868-8120-4557-989d-9e24a6bda388","system_id":"levelo_inurba_marseille","lat":43.30533,"lon":5.36725,"is_reserved":false,"is_disabled":false,"rental_uris":{"android":"levelo://app?vid=f2054868-8120-4557-989d-9e24a6bda388","ios":"levelo://app?vid=f2054868-8120-4557-989d-9e24a6bda388"},"vehicle_type_id":"4","last_reported":1702148672,"current_range_meters":12800,"station_id":"ce4bgrp2rcd13ifvqc9g","pricing_plan_id":"free"},{"bike_id":"32f8b304-a407-4194-b8ac-a5ef8a456b5f","system_id":"levelo_inurba_marseille","lat":43.305368,"lon":5.367343,"is_reserved":false,"is_disabled":false,"rental_uris":{"android":"levelo://app?vid=32f8b304-a407-4194-b8ac-a5ef8a456b5f","ios":"levelo://app?vid=32f8b304-a407-4194-b8ac-a5ef8a456b5f"},"vehicle_type_id":"4","last_reported":1702148672,"current_range_meters":12000,"station_id":"ce4bgrp2rcd13ifvqc9g","pricing_plan_id":"free"},{"bike_id":"5d56b86d-8339-4c56-a304-890e7158ba50","system_id":"levelo_inurba_marseille","lat":43.305989,"lon":5.37225,"is_reserved":false,"is_disabled":false,"rental_uris":{"android":"levelo://app?vid=5d56b86d-8339-4c56-a304-890e7158ba50","ios":"levelo://app?vid=5d56b86d-8339-4c56-a304-890e7158ba50"},"vehicle_type_id":"4","last_reported":1702148672,"current_range_meters":5200,"station_id":"ce4bgqh2rcd13ifvqc4g","pricing_plan_id":"free"},{"bike_id":"8f8ca50b-9290-4ad5-9ab3-955dfdf6edee","system_id":"levelo_inurba_marseille","lat":43.306378,"lon":5.373205,"is_reserved":false,"is_disabled":false,"rental_uris":{"android":"levelo://app?vid=8f8ca50b-9290-4ad5-9ab3-955dfdf6edee","ios":"levelo://app?vid=8f8ca50b-9290-4ad5-9ab3-955dfdf6edee"},"vehicle_type_id":"4","last_reported":1702148672,"current_range_meters":20000,"station_id":"","pricing_plan_id":"free"},{"bike_id":"78e45d4f-c5ad-45c5-8313-7616693a5556","system_id":"levelo_inurba_marseille","lat":43.311131,"lon":5.377651,"is_reserved":false,"is_disabled":false,"rental_uris":{"android":"levelo://app?vid=78e45d4f-c5ad-45c5-8313-7616693a5556","ios":"levelo://app?vid=78e45d4f-c5ad-45c5-8313-7616693a5556"},"vehicle_type_id":"4","last_reported":1702148672,"current_range_meters":8400,"station_id":"ce4bgt92rcd13ifvqcg0","pricing_plan_id":"free"},{"bike_id":"8bb831c9-1967-4d39-8c71-2e1ec8bb83db","system_id":"levelo_inurba_marseille","lat":43.303046,"lon":5.368981,"is_reserved":false,"is_disabled":false,"rental_uris":{"android":"levelo://app?vid=8bb831c9-1967-4d39-8c71-2e1ec8bb83db","ios":"levelo://app?vid=8bb831c9-1967-4d39-8c71-2e1ec8bb83db"},"vehicle_type_id":"4","last_reported":1702148672,"current_range_meters":5200,"station_id":"ce4bgqh2rcd13ifvqc5g","pricing_plan_id":"free"},{"bike_id":"478f6a26-c5b9-4947-b951-fd7c89da617c","system_id":"levelo_inurba_marseille","lat":43.304606,"lon":5.379026,"is_reserved":false,"is_disabled":false,"rental_uris":{"android":"levelo://app?vid=478f6a26-c5b9-4947-b951-fd7c89da617c","ios":"levelo://app?vid=478f6a26-c5b9-4947-b951-fd7c89da617c"},"vehicle_type_id":"4","last_reported":1702148672,"current_range_meters":25200,"station_id":"ce4bgup2rcd13ifvqcn0","pricing_plan_id":"free"},{"bike_id":"59b1982d-0c16-4fb6-a0ee-9acc09a937da","system_id":"levelo_inurba_marseille","lat":43.30154,"lon":5.37385,"is_reserved":false,"is_disabled":false,"rental_uris":{"android":"levelo://app?vid=59b1982d-0c16-4fb6-a0ee-9acc09a937da","ios":"levelo://app?vid=59b1982d-0c16-4fb6-a0ee-9acc09a937da"},"vehicle_type_id":"4","last_reported":1702148672,"current_range_meters":0,"station_id":"ce4bgs92rcd13ifvqcc0","pricing_plan_id":"free"},{"bike_id":"31bf2c08-273f-48d6-85ed-055db1d5b15b","system_id":"levelo_inurba_marseille","lat":43.313571,"lon":5.384829,"is_reserved":false,"is_disabled":false,"rental_uris":{"android":"levelo://app?vid=31bf2c08-273f-48d6-85ed-055db1d5b15b","ios":"levelo://app?vid=31bf2c08-273f-48d6-85ed-055db1d5b15b"},"vehicle_type_id":"4","last_reported":1702148672,"current_range_meters":4800,"station_id":"ce4bgt92rcd13ifvqcf0","pricing_plan_id":"free"},{"bike_id":"4b0918fb-927a-45cd-b334-04c7781588bd","system_id":"levelo_inurba_marseille","lat":43.313571,"lon":5.384829,"is_reserved":false,"is_disabled":false,"rental_uris":{"android":"levelo://app?vid=4b0918fb-927a-45cd-b334-04c7781588bd","ios":"levelo://app?vid=4b0918fb-927a-45cd-b334-04c7781588bd"},"vehicle_type_id":"4","last_reported":1702148672,"current_range_meters":16800,"station_id":"ce4bgt92rcd13ifvqcf0","pricing_plan_id":"free"},{"bike_id":"713344ff-6ea9-4425-8e61-d8dcf6885a1e","system_id":"levelo_inurba_marseille","lat":43.313571,"lon":5.384829,"is_reserved":false,"is_disabled":false,"rental_uris":{"android":"levelo://app?vid=713344ff-6ea9-4425-8e61-d8dcf6885a1e","ios":"levelo://app?vid=713344ff-6ea9-4425-8e61-d8dcf6885a1e"},"vehicle_type_id":"4","last_reported":1702148672,"current_range_meters":3200,"station_id":"ce4bgt92rcd13ifvqcf0","pricing_plan_id":"free"},{"bike_id":"d8be298e-f4c0-4479-a66b-e307c680d7cc","system_id":"levelo_inurba_marseille","lat":43.31356,"lon":5.38493,"is_reserved":false,"is_disabled":false,"rental_uris":{"android":"levelo://app?vid=d8be298e-f4c0-4479-a66b-e307c680d7cc","ios":"levelo://app?vid=d8be298e-f4c0-4479-a66b-e307c680d7cc"},"vehicle_type_id":"4","last_reported":1702148672,"current_range_meters":23200,"station_id":"ce4bgt92rcd13ifvqcf0","pricing_plan_id":"free"},{"bike_id":"9b81655d-e9fd-4df6-89b3-dc88c058625e","system_id":"levelo_inurba_marseille","lat":43.29936,"lon":5.36552,"is_reserved":false,"is_disabled":false,"rental_uris":{"android":"levelo://app?vid=9b81655d-e9fd-4df6-89b3-dc88c058625e","ios":"levelo://app?vid=9b81655d-e9fd-4df6-89b3-dc88c058625e"},"vehicle_type_id":"4","last_reported":1702148672,"current_range_meters":3200,"station_id":"ce4bgm92rcd13ifvqbr0","pricing_plan_id":"free"},{"bike_id":"548973cd-31e2-464b-8888-8e528c7d375b","system_id":"levelo_inurba_marseille","lat":43.29933,"lon":5.36546,"is_reserved":false,"is_disabled":false,"rental_uris":{"android":"levelo://app?vid=548973cd-31e2-464b-8888-8e528c7d375b","ios":"levelo://app?vid=548973cd-31e2-464b-8888-8e528c7d375b"},"vehicle_type_id":"4","last_reported":1702148672,"current_range_meters":0,"station_id":"ce4bgm92rcd13ifvqbr0","pricing_plan_id":"free"},{"bike_id":"95790d6b-b116-495c-8f8f-d3d34a256a65","system_id":"levelo_inurba_marseille","lat":43.299209,"lon":5.365547,"is_reserved":false,"is_disabled":false,"rental_uris":{"android":"levelo://app?vid=95790d6b-b116-495c-8f8f-d3d34a256a65","ios":"levelo://app?vid=95790d6b-b116-495c-8f8f-d3d34a256a65"},"vehicle_type_id":"4","last_reported":1702148672,"current_range_meters":6000,"station_id":"ce4bgm92rcd13ifvqbr0","pricing_plan_id":"free"},{"bike_id":"14bda37d-edb9-4ce8-81d9-3154e2f1552f","system_id":"levelo_inurba_marseille","lat":43.297794,"lon":5.370888,"is_reserved":false,"is_disabled":false,"rental_uris":{"android":"levelo://app?vid=14bda37d-edb9-4ce8-81d9-3154e2f1552f","ios":"levelo://app?vid=14bda37d-edb9-4ce8-81d9-3154e2f1552f"},"vehicle_type_id":"4","last_reported":1702148672,"current_range_meters":5200,"station_id":"ce4bgop2rcd13ifvqc1g","pricing_plan_id":"free"},{"bike_id":"c60cbb7e-9382-450f-b819-5c2450f4f643","system_id":"levelo_inurba_marseille","lat":43.322872,"lon":5.382756,"is_reserved":false,"is_disabled":false,"rental_uris":{"android":"levelo://app?vid=c60cbb7e-9382-450f-b819-5c2450f4f643","ios":"levelo://app?vid=c60cbb7e-9382-450f-b819-5c2450f4f643"},"vehicle_type_id":"4","last_reported":1702148672,"current_range_meters":4800,"station_id":"ce4bhr12rcd13ifvqhqg","pricing_plan_id":"free"},{"bike_id":"0370f0dd-02e1-44c3-b626-7cdd11d7ffac","system_id":"levelo_inurba_marseille","lat":43.322872,"lon":5.382756,"is_reserved":false,"is_disabled":false,"rental_uris":{"android":"levelo://app?vid=0370f0dd-02e1-44c3-b626-7cdd11d7ffac","ios":"levelo://app?vid=0370f0dd-02e1-44c3-b626-7cdd11d7ffac"},"vehicle_type_id":"4","last_reported":1702148672,"current_range_meters":22400,"station_id":"ce4bhr12rcd13ifvqhqg","pricing_plan_id":"free"},{"bike_id":"6ac675f1-e0be-498c-ad2f-b742a949d4b0","system_id":"levelo_inurba_marseille","lat":43.298218,"lon":5.374416,"is_reserved":false,"is_disabled":false,"rental_uris":{"android":"levelo://app?vid=6ac675f1-e0be-498c-ad2f-b742a949d4b0","ios":"levelo://app?vid=6ac675f1-e0be-498c-ad2f-b742a949d4b0"},"vehicle_type_id":"4","last_reported":1702148672,"current_range_meters":1200,"station_id":"","pricing_plan_id":"free"},{"bike_id":"5c79bc93-8f13-4c40-8a8c-8f35d3902245","system_id":"levelo_inurba_marseille","lat":43.32884,"lon":5.36722,"is_reserved":false,"is_disabled":false,"rental_uris":{"android":"levelo://app?vid=5c79bc93-8f13-4c40-8a8c-8f35d3902245","ios":"levelo://app?vid=5c79bc93-8f13-4c40-8a8c-8f35d3902245"},"vehicle_type_id":"4","last_reported":1702148672,"current_range_meters":12400,"station_id":"","pricing_plan_id":"free"},{"bike_id":"5ed66215-e812-4934-8bd8-05fa06e2778c","system_id":"levelo_inurba_marseille","lat":43.329005,"lon":5.36717,"is_reserved":false,"is_disabled":false,"rental_uris":{"android":"levelo://app?vid=5ed66215-e812-4934-8bd8-05fa06e2778c","ios":"levelo://app?vid=5ed66215-e812-4934-8bd8-05fa06e2778c"},"vehicle_type_id":"4","last_reported":1702148672,"current_range_meters":27600,"station_id":"","pricing_plan_id":"free"},{"bike_id":"53ce7648-4052-40a1-8893-66241dff171e","system_id":"levelo_inurba_marseille","lat":43.297774,"lon":5.370875,"is_reserved":false,"is_disabled":false,"rental_uris":{"android":"levelo://app?vid=53ce7648-4052-40a1-8893-66241dff171e","ios":"levelo://app?vid=53ce7648-4052-40a1-8893-66241dff171e"},"vehicle_type_id":"4","last_reported":1702148672,"current_range_meters":400,"station_id":"ce4bgop2rcd13ifvqc1g","pricing_plan_id":"free"},{"bike_id":"92dc65d6-6823-4de3-93d4-056f738f090c","system_id":"levelo_inurba_marseille","lat":43.316538,"lon":5.38954,"is_reserved":false,"is_disabled":false,"rental_uris":{"android":"levelo://app?vid=92dc65d6-6823-4de3-93d4-056f738f090c","ios":"levelo://app?vid=92dc65d6-6823-4de3-93d4-056f738f090c"},"vehicle_type_id":"4","last_reported":1702148672,"current_range_meters":0,"station_id":"","pricing_plan_id":"free"},{"bike_id":"84f5800e-949c-472e-90a6-7359b7e59ffc","system_id":"levelo_inurba_marseille","lat":43.296131,"lon":5.370791,"is_reserved":false,"is_disabled":false,"rental_uris":{"android":"levelo://app?vid=84f5800e-949c-472e-90a6-7359b7e59ffc","ios":"levelo://app?vid=84f5800e-949c-472e-90a6-7359b7e59ffc"},"vehicle_type_id":"4","last_reported":1702148672,"current_range_meters":4800,"station_id":"ce4bgnh2rcd13ifvqc0g","pricing_plan_id":"free"},{"bike_id":"ea2d4f7c-c131-4f14-a7bc-f5c2879d4424","system_id":"levelo_inurba_marseille","lat":43.29624,"lon":5.37216,"is_reserved":false,"is_disabled":false,"rental_uris":{"android":"levelo://app?vid=ea2d4f7c-c131-4f14-a7bc-f5c2879d4424","ios":"levelo://app?vid=ea2d4f7c-c131-4f14-a7bc-f5c2879d4424"},"vehicle_type_id":"4","last_reported":1702148672,"current_range_meters":0,"station_id":"","pricing_plan_id":"free"},{"bike_id":"85e621d1-a144-4a3f-9c1e-99f26aa8e633","system_id":"levelo_inurba_marseille","lat":43.299028,"lon":5.381509,"is_reserved":false,"is_disabled":false,"rental_uris":{"android":"levelo://app?vid=85e621d1-a144-4a3f-9c1e-99f26aa8e633","ios":"levelo://app?vid=85e621d1-a144-4a3f-9c1e-99f26aa8e633"},"vehicle_type_id":"4","last_reported":1702148672,"current_range_meters":30400,"station_id":"ce4bgj12rcd13ifvqbc0","pricing_plan_id":"free"},{"bike_id":"81c4f88e-bb53-4e91-81ea-f5f56a1904c8","system_id":"levelo_inurba_marseille","lat":43.317557,"lon":5.390173,"is_reserved":false,"is_disabled":false,"rental_uris":{"android":"levelo://app?vid=81c4f88e-bb53-4e91-81ea-f5f56a1904c8","ios":"levelo://app?vid=81c4f88e-bb53-4e91-81ea-f5f56a1904c8"},"vehicle_type_id":"4","last_reported":1702148672,"current_range_meters":30400,"station_id":"ce4bhqp2rcd13ifvqhng","pricing_plan_id":"free"},{"bike_id":"d69f04d9-84df-4f26-bc64-9f532752e790","system_id":"levelo_inurba_marseille","lat":43.317557,"lon":5.390173,"is_reserved":false,"is_disabled":false,"rental_uris":{"android":"levelo://app?vid=d69f04d9-84df-4f26-bc64-9f532752e790","ios":"levelo://app?vid=d69f04d9-84df-4f26-bc64-9f532752e790"},"vehicle_type_id":"4","last_reported":1702148672,"current_range_meters":3600,"station_id":"ce4bhqp2rcd13ifvqhng","pricing_plan_id":"free"},{"bike_id":"691afdb2-fe44-4e9e-a2e6-e273490c5be3","system_id":"levelo_inurba_marseille","lat":43.298037,"lon":5.381066,"is_reserved":false,"is_disabled":false,"rental_uris":{"android":"levelo://app?vid=691afdb2-fe44-4e9e-a2e6-e273490c5be3","ios":"levelo://app?vid=691afdb2-fe44-4e9e-a2e6-e273490c5be3"},"vehicle_type_id":"4","last_reported":1702148672,"current_range_meters":10800,"station_id":"ce4bgip2rcd13ifvqbb0","pricing_plan_id":"free"},{"bike_id":"d35a9284-0e97-4dd4-9e88-7a89042f935c","system_id":"levelo_inurba_marseille","lat":43.298037,"lon":5.381066,"is_reserved":false,"is_disabled":false,"rental_uris":{"android":"levelo://app?vid=d35a9284-0e97-4dd4-9e88-7a89042f935c","ios":"levelo://app?vid=d35a9284-0e97-4dd4-9e88-7a89042f935c"},"vehicle_type_id":"4","last_reported":1702148672,"current_range_meters":10000,"station_id":"ce4bgip2rcd13ifvqbb0","pricing_plan_id":"free"},{"bike_id":"563c6129-6585-4685-9c80-53df1a1b5413","system_id":"levelo_inurba_marseille","lat":43.295748,"lon":5.37522,"is_reserved":false,"is_disabled":false,"rental_uris":{"android":"levelo://app?vid=563c6129-6585-4685-9c80-53df1a1b5413","ios":"levelo://app?vid=563c6129-6585-4685-9c80-53df1a1b5413"},"vehicle_type_id":"4","last_reported":1702148672,"current_range_meters":3200,"station_id":"ce4bgh92rcd13ifvqb50","pricing_plan_id":"free"},{"bike_id":"3bcaf5a4-1520-435c-b64c-e18b5b681be1","system_id":"levelo_inurba_marseille","lat":43.304278,"lon":5.388868,"is_reserved":false,"is_disabled":false,"rental_uris":{"android":"levelo://app?vid=3bcaf5a4-1520-435c-b64c-e18b5b681be1","ios":"levelo://app?vid=3bcaf5a4-1520-435c-b64c-e18b5b681be1"},"vehicle_type_id":"4","last_reported":1702148672,"current_range_meters":10400,"station_id":"ce4bgk12rcd13ifvqbi0","pricing_plan_id":"free"},{"bike_id":"88c5eb3c-c2a4-4675-8075-e68e5588846e","system_id":"levelo_inurba_marseille","lat":43.296263,"lon":5.377094,"is_reserved":false,"is_disabled":false,"rental_uris":{"android":"levelo://app?vid=88c5eb3c-c2a4-4675-8075-e68e5588846e","ios":"levelo://app?vid=88c5eb3c-c2a4-4675-8075-e68e5588846e"},"vehicle_type_id":"4","last_reported":1702148672,"current_range_meters":27200,"station_id":"ce4bgi92rcd13ifvqb90","pricing_plan_id":"free"},{"bike_id":"ce070572-77c5-4cdb-a41d-78096f645a86","system_id":"levelo_inurba_marseille","lat":43.299724,"lon":5.384848,"is_reserved":false,"is_disabled":false,"rental_uris":{"android":"levelo://app?vid=ce070572-77c5-4cdb-a41d-78096f645a86","ios":"levelo://app?vid=ce070572-77c5-4cdb-a41d-78096f645a86"},"vehicle_type_id":"4","last_reported":1702148672,"current_range_meters":18400,"station_id":"ce4bgj92rcd13ifvqbd0","pricing_plan_id":"free"},{"bike_id":"e2000dcf-4090-4be6-9756-0e131eee5f6c","system_id":"levelo_inurba_marseille","lat":43.29602,"lon":5.381084,"is_reserved":false,"is_disabled":false,"rental_uris":{"android":"levelo://app?vid=e2000dcf-4090-4be6-9756-0e131eee5f6c","ios":"levelo://app?vid=e2000dcf-4090-4be6-9756-0e131eee5f6c"},"vehicle_type_id":"4","last_reported":1702148672,"current_range_meters":0,"station_id":"ce4bgl12rcd13ifvqbo0","pricing_plan_id":"free"},{"bike_id":"ad8ad180-2d98-4911-af95-bb38c4785343","system_id":"levelo_inurba_marseille","lat":43.29594,"lon":5.38101,"is_reserved":false,"is_disabled":false,"rental_uris":{"android":"levelo://app?vid=ad8ad180-2d98-4911-af95-bb38c4785343","ios":"levelo://app?vid=ad8ad180-2d98-4911-af95-bb38c4785343"},"vehicle_type_id":"4","last_reported":1702148672,"current_range_meters":2800,"station_id":"ce4bgl12rcd13ifvqbo0","pricing_plan_id":"free"},{"bike_id":"207c88b4-0fe8-4c0f-b89c-d91dd39d7305","system_id":"levelo_inurba_marseille","lat":43.292796,"lon":5.368412,"is_reserved":false,"is_disabled":false,"rental_uris":{"android":"levelo://app?vid=207c88b4-0fe8-4c0f-b89c-d91dd39d7305","ios":"levelo://app?vid=207c88b4-0fe8-4c0f-b89c-d91dd39d7305"},"vehicle_type_id":"4","last_reported":1702148672,"current_range_meters":21200,"station_id":"","pricing_plan_id":"free"},{"bike_id":"8fb95e64-f0bc-44bb-a960-7024ab9db819","system_id":"levelo_inurba_marseille","lat":43.293259,"lon":5.371586,"is_reserved":false,"is_disabled":false,"rental_uris":{"android":"levelo://app?vid=8fb95e64-f0bc-44bb-a960-7024ab9db819","ios":"levelo://app?vid=8fb95e64-f0bc-44bb-a960-7024ab9db819"},"vehicle_type_id":"4","last_reported":1702148672,"current_range_meters":22400,"station_id":"ce4bgh92rcd13ifvqb40","pricing_plan_id":"free"},{"bike_id":"e0224945-ca42-4bca-bae0-c445f230c01e","system_id":"levelo_inurba_marseille","lat":43.292749,"lon":5.368402,"is_reserved":false,"is_disabled":false,"rental_uris":{"android":"levelo://app?vid=e0224945-ca42-4bca-bae0-c445f230c01e","ios":"levelo://app?vid=e0224945-ca42-4bca-bae0-c445f230c01e"},"vehicle_type_id":"4","last_reported":1702148672,"current_range_meters":3600,"station_id":"ce4bhbp2rcd13ifvqesg","pricing_plan_id":"free"},{"bike_id":"4169107b-953e-4335-a050-e3d662dc2d9d","system_id":"levelo_inurba_marseille","lat":43.303002,"lon":5.392142,"is_reserved":false,"is_disabled":false,"rental_uris":{"android":"levelo://app?vid=4169107b-953e-4335-a050-e3d662dc2d9d","ios":"levelo://app?vid=4169107b-953e-4335-a050-e3d662dc2d9d"},"vehicle_type_id":"4","last_reported":1702148672,"current_range_meters":18000,"station_id":"ce4bgkh2rcd13ifvqbk0","pricing_plan_id":"free"},{"bike_id":"837455b7-72de-49a3-8128-0ff4dd69614f","system_id":"levelo_inurba_marseille","lat":43.300852,"lon":5.390859,"is_reserved":false,"is_disabled":false,"rental_uris":{"android":"levelo://app?vid=837455b7-72de-49a3-8128-0ff4dd69614f","ios":"levelo://app?vid=837455b7-72de-49a3-8128-0ff4dd69614f"},"vehicle_type_id":"4","last_reported":1702148672,"current_range_meters":28400,"station_id":"ce4bh192rcd13ifvqdb0","pricing_plan_id":"free"},{"bike_id":"c6194d83-4b9b-46ee-a648-bc9f75f0bc5f","system_id":"levelo_inurba_marseille","lat":43.300852,"lon":5.390859,"is_reserved":false,"is_disabled":false,"rental_uris":{"android":"levelo://app?vid=c6194d83-4b9b-46ee-a648-bc9f75f0bc5f","ios":"levelo://app?vid=c6194d83-4b9b-46ee-a648-bc9f75f0bc5f"},"vehicle_type_id":"4","last_reported":1702148672,"current_range_meters":25200,"station_id":"ce4bh192rcd13ifvqdb0","pricing_plan_id":"free"},{"bike_id":"4290dcdd-c657-4a10-b45c-9d7a1591befd","system_id":"levelo_inurba_marseille","lat":43.30092,"lon":5.39078,"is_reserved":false,"is_disabled":false,"rental_uris":{"android":"levelo://app?vid=4290dcdd-c657-4a10-b45c-9d7a1591befd","ios":"levelo://app?vid=4290dcdd-c657-4a10-b45c-9d7a1591befd"},"vehicle_type_id":"4","last_reported":1702148672,"current_range_meters":8800,"station_id":"ce4bh192rcd13ifvqdb0","pricing_plan_id":"free"},{"bike_id":"7bdd0726-3156-4362-81be-1b30100758de","system_id":"levelo_inurba_marseille","lat":43.292311,"lon":5.360731,"is_reserved":false,"is_disabled":false,"rental_uris":{"android":"levelo://app?vid=7bdd0726-3156-4362-81be-1b30100758de","ios":"levelo://app?vid=7bdd0726-3156-4362-81be-1b30100758de"},"vehicle_type_id":"4","last_reported":1702148672,"current_range_meters":4800,"station_id":"ce4bhbh2rcd13ifvqeqg","pricing_plan_id":"free"},{"bike_id":"761046af-7192-4f63-84e8-f6c7a00563ab","system_id":"levelo_inurba_marseille","lat":43.29252,"lon":5.37612,"is_reserved":false,"is_disabled":false,"rental_uris":{"android":"levelo://app?vid=761046af-7192-4f63-84e8-f6c7a00563ab","ios":"levelo://app?vid=761046af-7192-4f63-84e8-f6c7a00563ab"},"vehicle_type_id":"4","last_reported":1702148672,"current_range_meters":0,"station_id":"ce4bgi12rcd13ifvqb80","pricing_plan_id":"free"},{"bike_id":"ffe8e861-9583-46be-9da3-462d5c1037ee","system_id":"levelo_inurba_marseille","lat":43.29247,"lon":5.37601,"is_reserved":false,"is_disabled":false,"rental_uris":{"android":"levelo://app?vid=ffe8e861-9583-46be-9da3-462d5c1037ee","ios":"levelo://app?vid=ffe8e861-9583-46be-9da3-462d5c1037ee"},"vehicle_type_id":"4","last_reported":1702148672,"current_range_meters":10400,"station_id":"ce4bgi12rcd13ifvqb80","pricing_plan_id":"free"},{"bike_id":"33629a0f-077c-45b7-8bb1-997a7d232724","system_id":"levelo_inurba_marseille","lat":43.29187,"lon":5.35797,"is_reserved":false,"is_disabled":false,"rental_uris":{"android":"levelo://app?vid=33629a0f-077c-45b7-8bb1-997a7d232724","ios":"levelo://app?vid=33629a0f-077c-45b7-8bb1-997a7d232724"},"vehicle_type_id":"4","last_reported":1702148672,"current_range_meters":15600,"station_id":"ce4bhb12rcd13ifvqel0","pricing_plan_id":"free"},{"bike_id":"735f5f2d-27b4-47b0-a99a-73c00b52eb2f","system_id":"levelo_inurba_marseille","lat":43.29529,"lon":5.385581,"is_reserved":false,"is_disabled":false,"rental_uris":{"android":"levelo://app?vid=735f5f2d-27b4-47b0-a99a-73c00b52eb2f","ios":"levelo://app?vid=735f5f2d-27b4-47b0-a99a-73c00b52eb2f"},"vehicle_type_id":"4","last_reported":1702148672,"current_range_meters":15600,"station_id":"ce4bgih2rcd13ifvqba0","pricing_plan_id":"free"},{"bike_id":"9be2326f-02a0-461f-9a25-2b5517ef4249","system_id":"levelo_inurba_marseille","lat":43.290779,"lon":5.371482,"is_reserved":false,"is_disabled":false,"rental_uris":{"android":"levelo://app?vid=9be2326f-02a0-461f-9a25-2b5517ef4249","ios":"levelo://app?vid=9be2326f-02a0-461f-9a25-2b5517ef4249"},"vehicle_type_id":"4","last_reported":1702148672,"current_range_meters":30400,"station_id":"ce4bh5p2rcd13ifvqe4g","pricing_plan_id":"free"},{"bike_id":"b79e930a-e408-49ec-8495-41f6e692263f","system_id":"levelo_inurba_marseille","lat":43.290624,"lon":5.359245,"is_reserved":false,"is_disabled":false,"rental_uris":{"android":"levelo://app?vid=b79e930a-e408-49ec-8495-41f6e692263f","ios":"levelo://app?vid=b79e930a-e408-49ec-8495-41f6e692263f"},"vehicle_type_id":"4","last_reported":1702148672,"current_range_meters":11200,"station_id":"ce4bha92rcd13ifvqeg0","pricing_plan_id":"free"},{"bike_id":"e9eeb1dd-f67d-4144-9919-789993589fd5","system_id":"levelo_inurba_marseille","lat":43.294162,"lon":5.386292,"is_reserved":false,"is_disabled":false,"rental_uris":{"android":"levelo://app?vid=e9eeb1dd-f67d-4144-9919-789993589fd5","ios":"levelo://app?vid=e9eeb1dd-f67d-4144-9919-789993589fd5"},"vehicle_type_id":"4","last_reported":1702148672,"current_range_meters":11200,"station_id":"ce4bh2h2rcd13ifvqdh0","pricing_plan_id":"free"},{"bike_id":"bc472ef6-1624-492b-b1f1-f048590c6784","system_id":"levelo_inurba_marseille","lat":43.294153,"lon":5.386305,"is_reserved":false,"is_disabled":false,"rental_uris":{"android":"levelo://app?vid=bc472ef6-1624-492b-b1f1-f048590c6784","ios":"levelo://app?vid=bc472ef6-1624-492b-b1f1-f048590c6784"},"vehicle_type_id":"4","last_reported":1702148672,"current_range_meters":1200,"station_id":"ce4bh2h2rcd13ifvqdh0","pricing_plan_id":"free"},{"bike_id":"ea39043c-001b-44d9-9aaa-7d2cf0e3185d","system_id":"levelo_inurba_marseille","lat":43.2894,"lon":5.36635,"is_reserved":false,"is_disabled":false,"rental_uris":{"android":"levelo://app?vid=ea39043c-001b-44d9-9aaa-7d2cf0e3185d","ios":"levelo://app?vid=ea39043c-001b-44d9-9aaa-7d2cf0e3185d"},"vehicle_type_id":"4","last_reported":1702148672,"current_range_meters":0,"station_id":"ce4bhap2rcd13ifvqek0","pricing_plan_id":"free"},{"bike_id":"a02a1b20-1fb1-4951-988a-77389649024d","system_id":"levelo_inurba_marseille","lat":43.289259,"lon":5.366364,"is_reserved":false,"is_disabled":false,"rental_uris":{"android":"levelo://app?vid=a02a1b20-1fb1-4951-988a-77389649024d","ios":"levelo://app?vid=a02a1b20-1fb1-4951-988a-77389649024d"},"vehicle_type_id":"4","last_reported":1702148672,"current_range_meters":11200,"station_id":"","pricing_plan_id":"free"},{"bike_id":"6e267d3f-acbf-4de2-b8dc-1b00a4f0769a","system_id":"levelo_inurba_marseille","lat":43.292644,"lon":5.384257,"is_reserved":false,"is_disabled":false,"rental_uris":{"android":"levelo://app?vid=6e267d3f-acbf-4de2-b8dc-1b00a4f0769a","ios":"levelo://app?vid=6e267d3f-acbf-4de2-b8dc-1b00a4f0769a"},"vehicle_type_id":"4","last_reported":1702148672,"current_range_meters":0,"station_id":"ce4bh692rcd13ifvqea0","pricing_plan_id":"free"},{"bike_id":"52ce81f5-a5cd-495c-8b77-f15e8c8d6736","system_id":"levelo_inurba_marseille","lat":43.292642,"lon":5.384254,"is_reserved":false,"is_disabled":false,"rental_uris":{"android":"levelo://app?vid=52ce81f5-a5cd-495c-8b77-f15e8c8d6736","ios":"levelo://app?vid=52ce81f5-a5cd-495c-8b77-f15e8c8d6736"},"vehicle_type_id":"4","last_reported":1702148672,"current_range_meters":6000,"station_id":"ce4bh692rcd13ifvqea0","pricing_plan_id":"free"},{"bike_id":"e2cd04d0-4e59-4511-8bc3-ceadc4b63768","system_id":"levelo_inurba_marseille","lat":43.292644,"lon":5.384257,"is_reserved":false,"is_disabled":false,"rental_uris":{"android":"levelo://app?vid=e2cd04d0-4e59-4511-8bc3-ceadc4b63768","ios":"levelo://app?vid=e2cd04d0-4e59-4511-8bc3-ceadc4b63768"},"vehicle_type_id":"4","last_reported":1702148672,"current_range_meters":2400,"station_id":"ce4bh692rcd13ifvqea0","pricing_plan_id":"free"},{"bike_id":"4545afc4-979c-48ee-8b80-68655296d4ba","system_id":"levelo_inurba_marseille","lat":43.29002,"lon":5.356125,"is_reserved":false,"is_disabled":false,"rental_uris":{"android":"levelo://app?vid=4545afc4-979c-48ee-8b80-68655296d4ba","ios":"levelo://app?vid=4545afc4-979c-48ee-8b80-68655296d4ba"},"vehicle_type_id":"4","last_reported":1702148672,"current_range_meters":25200,"station_id":"ce4bhb92rcd13ifvqen0","pricing_plan_id":"free"},{"bike_id":"6e12c37b-de77-4610-b8ce-1bb71283f247","system_id":"levelo_inurba_marseille","lat":43.290104,"lon":5.356111,"is_reserved":false,"is_disabled":false,"rental_uris":{"android":"levelo://app?vid=6e12c37b-de77-4610-b8ce-1bb71283f247","ios":"levelo://app?vid=6e12c37b-de77-4610-b8ce-1bb71283f247"},"vehicle_type_id":"4","last_reported":1702148672,"current_range_meters":5600,"station_id":"ce4bhb92rcd13ifvqen0","pricing_plan_id":"free"},{"bike_id":"dc4bf304-fa6a-4a9a-9a3c-3a64c75d8ef6","system_id":"levelo_inurba_marseille","lat":43.295169,"lon":5.390426,"is_reserved":false,"is_disabled":false,"rental_uris":{"android":"levelo://app?vid=dc4bf304-fa6a-4a9a-9a3c-3a64c75d8ef6","ios":"levelo://app?vid=dc4bf304-fa6a-4a9a-9a3c-3a64c75d8ef6"},"vehicle_type_id":"4","last_reported":1702148672,"current_range_meters":4400,"station_id":"ce4bh3p2rcd13ifvqdp0","pricing_plan_id":"free"},{"bike_id":"34665518-aae3-49ff-8ff1-bcba59c30e2a","system_id":"levelo_inurba_marseille","lat":43.289741,"lon":5.378306,"is_reserved":false,"is_disabled":false,"rental_uris":{"android":"levelo://app?vid=34665518-aae3-49ff-8ff1-bcba59c30e2a","ios":"levelo://app?vid=34665518-aae3-49ff-8ff1-bcba59c30e2a"},"vehicle_type_id":"4","last_reported":1702148672,"current_range_meters":2000,"station_id":"ce4bh9p2rcd13ifvqed0","pricing_plan_id":"free"},{"bike_id":"d54e35cd-28be-40ce-b262-6fa899e5ed2c","system_id":"levelo_inurba_marseille","lat":43.295169,"lon":5.390426,"is_reserved":false,"is_disabled":false,"rental_uris":{"android":"levelo://app?vid=d54e35cd-28be-40ce-b262-6fa899e5ed2c","ios":"levelo://app?vid=d54e35cd-28be-40ce-b262-6fa899e5ed2c"},"vehicle_type_id":"4","last_reported":1702148672,"current_range_meters":14800,"station_id":"ce4bh3p2rcd13ifvqdp0","pricing_plan_id":"free"},{"bike_id":"707a8223-c57c-4890-a8e2-d75ab1ab348b","system_id":"levelo_inurba_marseille","lat":43.309295,"lon":5.401324,"is_reserved":false,"is_disabled":false,"rental_uris":{"android":"levelo://app?vid=707a8223-c57c-4890-a8e2-d75ab1ab348b","ios":"levelo://app?vid=707a8223-c57c-4890-a8e2-d75ab1ab348b"},"vehicle_type_id":"4","last_reported":1702148672,"current_range_meters":20400,"station_id":"","pricing_plan_id":"free"},{"bike_id":"c147ebb3-141d-4c1a-9cd7-cd494fa1ade2","system_id":"levelo_inurba_marseille","lat":43.312609,"lon":5.401662,"is_reserved":false,"is_disabled":false,"rental_uris":{"android":"levelo://app?vid=c147ebb3-141d-4c1a-9cd7-cd494fa1ade2","ios":"levelo://app?vid=c147ebb3-141d-4c1a-9cd7-cd494fa1ade2"},"vehicle_type_id":"4","last_reported":1702148672,"current_range_meters":5600,"station_id":"ce4bh092rcd13ifvqd30","pricing_plan_id":"free"},{"bike_id":"82b248e1-4971-46bb-a291-2f8b548b8785","system_id":"levelo_inurba_marseille","lat":43.30642,"lon":5.401031,"is_reserved":false,"is_disabled":false,"rental_uris":{"android":"levelo://app?vid=82b248e1-4971-46bb-a291-2f8b548b8785","ios":"levelo://app?vid=82b248e1-4971-46bb-a291-2f8b548b8785"},"vehicle_type_id":"4","last_reported":1702148672,"current_range_meters":0,"station_id":"ce4bh112rcd13ifvqda0","pricing_plan_id":"free"},{"bike_id":"1e3a87f4-4cee-4c05-b229-ed8335fd77ba","system_id":"levelo_inurba_marseille","lat":43.30642,"lon":5.401031,"is_reserved":false,"is_disabled":false,"rental_uris":{"android":"levelo://app?vid=1e3a87f4-4cee-4c05-b229-ed8335fd77ba","ios":"levelo://app?vid=1e3a87f4-4cee-4c05-b229-ed8335fd77ba"},"vehicle_type_id":"4","last_reported":1702148672,"current_range_meters":11600,"station_id":"ce4bh112rcd13ifvqda0","pricing_plan_id":"free"},{"bike_id":"af06d411-ada6-42b7-8ebf-46ea11e5f6e8","system_id":"levelo_inurba_marseille","lat":43.306412,"lon":5.401035,"is_reserved":false,"is_disabled":false,"rental_uris":{"android":"levelo://app?vid=af06d411-ada6-42b7-8ebf-46ea11e5f6e8","ios":"levelo://app?vid=af06d411-ada6-42b7-8ebf-46ea11e5f6e8"},"vehicle_type_id":"4","last_reported":1702148672,"current_range_meters":25600,"station_id":"ce4bh112rcd13ifvqda0","pricing_plan_id":"free"},{"bike_id":"599a1e5d-5a27-4799-88e7-26cb2e67f801","system_id":"levelo_inurba_marseille","lat":43.30642,"lon":5.401031,"is_reserved":false,"is_disabled":false,"rental_uris":{"android":"levelo://app?vid=599a1e5d-5a27-4799-88e7-26cb2e67f801","ios":"levelo://app?vid=599a1e5d-5a27-4799-88e7-26cb2e67f801"},"vehicle_type_id":"4","last_reported":1702148672,"current_range_meters":3600,"station_id":"ce4bh112rcd13ifvqda0","pricing_plan_id":"free"},{"bike_id":"0eaa458f-628e-45ed-86df-fae4ef6785c6","system_id":"levelo_inurba_marseille","lat":43.289307,"lon":5.38406,"is_reserved":false,"is_disabled":false,"rental_uris":{"android":"levelo://app?vid=0eaa458f-628e-45ed-86df-fae4ef6785c6","ios":"levelo://app?vid=0eaa458f-628e-45ed-86df-fae4ef6785c6"},"vehicle_type_id":"4","last_reported":1702148672,"current_range_meters":11200,"station_id":"ce4bh612rcd13ifvqe6g","pricing_plan_id":"free"},{"bike_id":"3e126926-604f-41fc-83a0-ba39c998c04b","system_id":"levelo_inurba_marseille","lat":43.289307,"lon":5.38406,"is_reserved":false,"is_disabled":false,"rental_uris":{"android":"levelo://app?vid=3e126926-604f-41fc-83a0-ba39c998c04b","ios":"levelo://app?vid=3e126926-604f-41fc-83a0-ba39c998c04b"},"vehicle_type_id":"4","last_reported":1702148672,"current_range_meters":22800,"station_id":"ce4bh612rcd13ifvqe6g","pricing_plan_id":"free"},{"bike_id":"37b46b28-d689-4bbe-91f6-61f07694ee19","system_id":"levelo_inurba_marseille","lat":43.29028,"lon":5.3864,"is_reserved":false,"is_disabled":false,"rental_uris":{"android":"levelo://app?vid=37b46b28-d689-4bbe-91f6-61f07694ee19","ios":"levelo://app?vid=37b46b28-d689-4bbe-91f6-61f07694ee19"},"vehicle_type_id":"4","last_reported":1702148672,"current_range_meters":18000,"station_id":"ce4bh4p2rcd13ifvqe0g","pricing_plan_id":"free"},{"bike_id":"7dad8f41-5cd6-4532-ac78-4f34e73f31e6","system_id":"levelo_inurba_marseille","lat":43.28923,"lon":5.38408,"is_reserved":false,"is_disabled":false,"rental_uris":{"android":"levelo://app?vid=7dad8f41-5cd6-4532-ac78-4f34e73f31e6","ios":"levelo://app?vid=7dad8f41-5cd6-4532-ac78-4f34e73f31e6"},"vehicle_type_id":"4","last_reported":1702148672,"current_range_meters":7200,"station_id":"ce4bh612rcd13ifvqe6g","pricing_plan_id":"free"},{"bike_id":"6cfe0d5e-01da-41d4-9b32-ffdb962db5dc","system_id":"levelo_inurba_marseille","lat":43.295194,"lon":5.39397,"is_reserved":false,"is_disabled":false,"rental_uris":{"android":"levelo://app?vid=6cfe0d5e-01da-41d4-9b32-ffdb962db5dc","ios":"levelo://app?vid=6cfe0d5e-01da-41d4-9b32-ffdb962db5dc"},"vehicle_type_id":"4","last_reported":1702148672,"current_range_meters":0,"station_id":"ce4bh292rcd13ifvqdf0","pricing_plan_id":"free"},{"bike_id":"13a8d491-0d2d-4b79-aba0-944d2a4f313d","system_id":"levelo_inurba_marseille","lat":43.316828,"lon":5.404723,"is_reserved":false,"is_disabled":false,"rental_uris":{"android":"levelo://app?vid=13a8d491-0d2d-4b79-aba0-944d2a4f313d","ios":"levelo://app?vid=13a8d491-0d2d-4b79-aba0-944d2a4f313d"},"vehicle_type_id":"4","last_reported":1702148672,"current_range_meters":0,"station_id":"ce4bh012rcd13ifvqd00","pricing_plan_id":"free"},{"bike_id":"781df50f-6ad8-4eb9-89f2-8b733c35a8ef","system_id":"levelo_inurba_marseille","lat":43.291994,"lon":5.392907,"is_reserved":false,"is_disabled":false,"rental_uris":{"android":"levelo://app?vid=781df50f-6ad8-4eb9-89f2-8b733c35a8ef","ios":"levelo://app?vid=781df50f-6ad8-4eb9-89f2-8b733c35a8ef"},"vehicle_type_id":"4","last_reported":1702148672,"current_range_meters":22800,"station_id":"ce4bh192rcd13ifvqdd0","pricing_plan_id":"free"},{"bike_id":"3d5d41a2-3ef8-4595-9899-efa8d330d05c","system_id":"levelo_inurba_marseille","lat":43.284538,"lon":5.358657,"is_reserved":false,"is_disabled":false,"rental_uris":{"android":"levelo://app?vid=3d5d41a2-3ef8-4595-9899-efa8d330d05c","ios":"levelo://app?vid=3d5d41a2-3ef8-4595-9899-efa8d330d05c"},"vehicle_type_id":"4","last_reported":1702148672,"current_range_meters":17600,"station_id":"ce4bhah2rcd13ifvqei0","pricing_plan_id":"free"},{"bike_id":"93b582b5-6fca-455b-8eec-64a2ef1549ae","system_id":"levelo_inurba_marseille","lat":43.29195,"lon":5.3942,"is_reserved":false,"is_disabled":false,"rental_uris":{"android":"levelo://app?vid=93b582b5-6fca-455b-8eec-64a2ef1549ae","ios":"levelo://app?vid=93b582b5-6fca-455b-8eec-64a2ef1549ae"},"vehicle_type_id":"4","last_reported":1702148672,"current_range_meters":0,"station_id":"","pricing_plan_id":"free"},{"bike_id":"7ef16812-32bd-4f61-a6e6-f0fd4090995a","system_id":"levelo_inurba_marseille","lat":43.28459,"lon":5.35885,"is_reserved":false,"is_disabled":false,"rental_uris":{"android":"levelo://app?vid=7ef16812-32bd-4f61-a6e6-f0fd4090995a","ios":"levelo://app?vid=7ef16812-32bd-4f61-a6e6-f0fd4090995a"},"vehicle_type_id":"4","last_reported":1702148672,"current_range_meters":0,"station_id":"ce4bhah2rcd13ifvqei0","pricing_plan_id":"free"},{"bike_id":"908ba5c4-a8d4-49c0-99d6-cf98cadb512b","system_id":"levelo_inurba_marseille","lat":43.28458,"lon":5.35887,"is_reserved":false,"is_disabled":false,"rental_uris":{"android":"levelo://app?vid=908ba5c4-a8d4-49c0-99d6-cf98cadb512b","ios":"levelo://app?vid=908ba5c4-a8d4-49c0-99d6-cf98cadb512b"},"vehicle_type_id":"4","last_reported":1702148672,"current_range_meters":0,"station_id":"ce4bhah2rcd13ifvqei0","pricing_plan_id":"free"},{"bike_id":"fff83e4d-f834-4f91-9ddc-072156b48a7f","system_id":"levelo_inurba_marseille","lat":43.294314,"lon":5.397498,"is_reserved":false,"is_disabled":false,"rental_uris":{"android":"levelo://app?vid=fff83e4d-f834-4f91-9ddc-072156b48a7f","ios":"levelo://app?vid=fff83e4d-f834-4f91-9ddc-072156b48a7f"},"vehicle_type_id":"4","last_reported":1702148672,"current_range_meters":19200,"station_id":"ce4bh3h2rcd13ifvqdo0","pricing_plan_id":"free"},{"bike_id":"b1bd4a11-45ff-4de1-957b-004e5c559b95","system_id":"levelo_inurba_marseille","lat":43.285856,"lon":5.350771,"is_reserved":false,"is_disabled":false,"rental_uris":{"android":"levelo://app?vid=b1bd4a11-45ff-4de1-957b-004e5c559b95","ios":"levelo://app?vid=b1bd4a11-45ff-4de1-957b-004e5c559b95"},"vehicle_type_id":"4","last_reported":1702148672,"current_range_meters":0,"station_id":"ce4bhch2rcd13ifvqeug","pricing_plan_id":"free"},{"bike_id":"afe2eefc-61ed-45fc-90c7-ead8ed20eab2","system_id":"levelo_inurba_marseille","lat":43.295713,"lon":5.399639,"is_reserved":false,"is_disabled":false,"rental_uris":{"android":"levelo://app?vid=afe2eefc-61ed-45fc-90c7-ead8ed20eab2","ios":"levelo://app?vid=afe2eefc-61ed-45fc-90c7-ead8ed20eab2"},"vehicle_type_id":"4","last_reported":1702148672,"current_range_meters":7600,"station_id":"ce4bh312rcd13ifvqdj0","pricing_plan_id":"free"},{"bike_id":"69542edb-741f-43b9-b0c8-ff475dfe32d1","system_id":"levelo_inurba_marseille","lat":43.295713,"lon":5.399639,"is_reserved":false,"is_disabled":false,"rental_uris":{"android":"levelo://app?vid=69542edb-741f-43b9-b0c8-ff475dfe32d1","ios":"levelo://app?vid=69542edb-741f-43b9-b0c8-ff475dfe32d1"},"vehicle_type_id":"4","last_reported":1702148672,"current_range_meters":10800,"station_id":"ce4bh312rcd13ifvqdj0","pricing_plan_id":"free"},{"bike_id":"60d9f572-dad8-45f5-ae93-2d608685ea5d","system_id":"levelo_inurba_marseille","lat":43.295713,"lon":5.399639,"is_reserved":false,"is_disabled":false,"rental_uris":{"android":"levelo://app?vid=60d9f572-dad8-45f5-ae93-2d608685ea5d","ios":"levelo://app?vid=60d9f572-dad8-45f5-ae93-2d608685ea5d"},"vehicle_type_id":"4","last_reported":1702148672,"current_range_meters":2000,"station_id":"ce4bh312rcd13ifvqdj0","pricing_plan_id":"free"},{"bike_id":"e2e924d7-26df-4736-8ede-4441bcaacb10","system_id":"levelo_inurba_marseille","lat":43.28652,"lon":5.3862,"is_reserved":false,"is_disabled":false,"rental_uris":{"android":"levelo://app?vid=e2e924d7-26df-4736-8ede-4441bcaacb10","ios":"levelo://app?vid=e2e924d7-26df-4736-8ede-4441bcaacb10"},"vehicle_type_id":"4","last_reported":1702148672,"current_range_meters":18000,"station_id":"ce4bh492rcd13ifvqdug","pricing_plan_id":"free"},{"bike_id":"06b3aba6-9d1c-4e37-9a84-95de7cc08875","system_id":"levelo_inurba_marseille","lat":43.323464,"lon":5.406297,"is_reserved":false,"is_disabled":false,"rental_uris":{"android":"levelo://app?vid=06b3aba6-9d1c-4e37-9a84-95de7cc08875","ios":"levelo://app?vid=06b3aba6-9d1c-4e37-9a84-95de7cc08875"},"vehicle_type_id":"4","last_reported":1702148672,"current_range_meters":17600,"station_id":"ce4bhq92rcd13ifvqhjg","pricing_plan_id":"free"},{"bike_id":"6b626de1-0433-4089-b33b-b05857135cc0","system_id":"levelo_inurba_marseille","lat":43.284787,"lon":5.384116,"is_reserved":false,"is_disabled":false,"rental_uris":{"android":"levelo://app?vid=6b626de1-0433-4089-b33b-b05857135cc0","ios":"levelo://app?vid=6b626de1-0433-4089-b33b-b05857135cc0"},"vehicle_type_id":"4","last_reported":1702148672,"current_range_meters":0,"station_id":"ce4bh512rcd13ifvqe3g","pricing_plan_id":"free"},{"bike_id":"acfef7f4-b10a-4aaa-b99e-bd13d7dcbcb7","system_id":"levelo_inurba_marseille","lat":43.29795,"lon":5.404086,"is_reserved":false,"is_disabled":false,"rental_uris":{"android":"levelo://app?vid=acfef7f4-b10a-4aaa-b99e-bd13d7dcbcb7","ios":"levelo://app?vid=acfef7f4-b10a-4aaa-b99e-bd13d7dcbcb7"},"vehicle_type_id":"4","last_reported":1702148672,"current_range_meters":16800,"station_id":"ce4bh112rcd13ifvqd90","pricing_plan_id":"free"},{"bike_id":"45ebb8df-03a0-4159-ba20-dfd258ddb94b","system_id":"levelo_inurba_marseille","lat":43.283498,"lon":5.380948,"is_reserved":false,"is_disabled":false,"rental_uris":{"android":"levelo://app?vid=45ebb8df-03a0-4159-ba20-dfd258ddb94b","ios":"levelo://app?vid=45ebb8df-03a0-4159-ba20-dfd258ddb94b"},"vehicle_type_id":"4","last_reported":1702148672,"current_range_meters":0,"station_id":"ce4bh412rcd13ifvqdr0","pricing_plan_id":"free"},{"bike_id":"c52ffce4-098b-4f8c-b0f0-d69d59ed11cd","system_id":"levelo_inurba_marseille","lat":43.284219,"lon":5.3497,"is_reserved":false,"is_disabled":false,"rental_uris":{"android":"levelo://app?vid=c52ffce4-098b-4f8c-b0f0-d69d59ed11cd","ios":"levelo://app?vid=c52ffce4-098b-4f8c-b0f0-d69d59ed11cd"},"vehicle_type_id":"4","last_reported":1702148672,"current_range_meters":24800,"station_id":"ce4bhbh2rcd13ifvqepg","pricing_plan_id":"free"},{"bike_id":"6cf6f0c1-05c9-4fad-b447-5577ae103eed","system_id":"levelo_inurba_marseille","lat":43.292724,"lon":5.401131,"is_reserved":false,"is_disabled":false,"rental_uris":{"android":"levelo://app?vid=6cf6f0c1-05c9-4fad-b447-5577ae103eed","ios":"levelo://app?vid=6cf6f0c1-05c9-4fad-b447-5577ae103eed"},"vehicle_type_id":"4","last_reported":1702148672,"current_range_meters":21200,"station_id":"ce4bh312rcd13ifvqdk0","pricing_plan_id":"free"},{"bike_id":"0b37a8a1-4742-4944-a615-1086a686a76e","system_id":"levelo_inurba_marseille","lat":43.282754,"lon":5.350519,"is_reserved":false,"is_disabled":false,"rental_uris":{"android":"levelo://app?vid=0b37a8a1-4742-4944-a615-1086a686a76e","ios":"levelo://app?vid=0b37a8a1-4742-4944-a615-1086a686a76e"},"vehicle_type_id":"4","last_reported":1702148672,"current_range_meters":0,"station_id":"ce4bhbp2rcd13ifvqerg","pricing_plan_id":"free"},{"bike_id":"acad1986-01fd-4f56-aad5-045423634a7e","system_id":"levelo_inurba_marseille","lat":43.283502,"lon":5.386471,"is_reserved":false,"is_disabled":false,"rental_uris":{"android":"levelo://app?vid=acad1986-01fd-4f56-aad5-045423634a7e","ios":"levelo://app?vid=acad1986-01fd-4f56-aad5-045423634a7e"},"vehicle_type_id":"4","last_reported":1702148672,"current_range_meters":10800,"station_id":"ce4bh492rcd13ifvqdvg","pricing_plan_id":"free"},{"bike_id":"0cf5e634-92cd-4666-a755-3ed4209b2c8f","system_id":"levelo_inurba_marseille","lat":43.280382,"lon":5.369291,"is_reserved":false,"is_disabled":false,"rental_uris":{"android":"levelo://app?vid=0cf5e634-92cd-4666-a755-3ed4209b2c8f","ios":"levelo://app?vid=0cf5e634-92cd-4666-a755-3ed4209b2c8f"},"vehicle_type_id":"4","last_reported":1702148672,"current_range_meters":15600,"station_id":"ce4bha12rcd13ifvqef0","pricing_plan_id":"free"},{"bike_id":"9fd8e679-b93e-4949-884e-2f39fba186b9","system_id":"levelo_inurba_marseille","lat":43.290457,"lon":5.399643,"is_reserved":false,"is_disabled":false,"rental_uris":{"android":"levelo://app?vid=9fd8e679-b93e-4949-884e-2f39fba186b9","ios":"levelo://app?vid=9fd8e679-b93e-4949-884e-2f39fba186b9"},"vehicle_type_id":"4","last_reported":1702148672,"current_range_meters":0,"station_id":"ce4bh392rcd13ifvqdm0","pricing_plan_id":"free"},{"bike_id":"52fbd530-87d8-4d35-85ee-584dedf79103","system_id":"levelo_inurba_marseille","lat":43.290412,"lon":5.399633,"is_reserved":false,"is_disabled":false,"rental_uris":{"android":"levelo://app?vid=52fbd530-87d8-4d35-85ee-584dedf79103","ios":"levelo://app?vid=52fbd530-87d8-4d35-85ee-584dedf79103"},"vehicle_type_id":"4","last_reported":1702148672,"current_range_meters":0,"station_id":"ce4bh392rcd13ifvqdm0","pricing_plan_id":"free"},{"bike_id":"3a082848-3533-4674-8c0a-2cb76f0bcd6d","system_id":"levelo_inurba_marseille","lat":43.281044,"lon":5.378308,"is_reserved":false,"is_disabled":false,"rental_uris":{"android":"levelo://app?vid=3a082848-3533-4674-8c0a-2cb76f0bcd6d","ios":"levelo://app?vid=3a082848-3533-4674-8c0a-2cb76f0bcd6d"},"vehicle_type_id":"4","last_reported":1702148672,"current_range_meters":29200,"station_id":"ce4bha12rcd13ifvqee0","pricing_plan_id":"free"},{"bike_id":"f74250ad-a656-476b-9338-f24f91bb9568","system_id":"levelo_inurba_marseille","lat":43.285742,"lon":5.395004,"is_reserved":false,"is_disabled":false,"rental_uris":{"android":"levelo://app?vid=f74250ad-a656-476b-9338-f24f91bb9568","ios":"levelo://app?vid=f74250ad-a656-476b-9338-f24f91bb9568"},"vehicle_type_id":"4","last_reported":1702148672,"current_range_meters":29200,"station_id":"ce4bh292rcd13ifvqdg0","pricing_plan_id":"free"},{"bike_id":"78b70e5f-a517-48fc-ab73-ed576c5d9b93","system_id":"levelo_inurba_marseille","lat":43.287154,"lon":5.399979,"is_reserved":false,"is_disabled":false,"rental_uris":{"android":"levelo://app?vid=78b70e5f-a517-48fc-ab73-ed576c5d9b93","ios":"levelo://app?vid=78b70e5f-a517-48fc-ab73-ed576c5d9b93"},"vehicle_type_id":"4","last_reported":1702148672,"current_range_meters":21600,"station_id":"ce4bho92rcd13ifvqh3g","pricing_plan_id":"free"},{"bike_id":"85f5ba0c-bc5d-4662-ac8f-165b663326cd","system_id":"levelo_inurba_marseille","lat":43.287154,"lon":5.399979,"is_reserved":false,"is_disabled":false,"rental_uris":{"android":"levelo://app?vid=85f5ba0c-bc5d-4662-ac8f-165b663326cd","ios":"levelo://app?vid=85f5ba0c-bc5d-4662-ac8f-165b663326cd"},"vehicle_type_id":"4","last_reported":1702148672,"current_range_meters":24000,"station_id":"ce4bho92rcd13ifvqh3g","pricing_plan_id":"free"},{"bike_id":"7dd71ff8-701b-458f-9e80-dae838364728","system_id":"levelo_inurba_marseille","lat":43.279087,"lon":5.380114,"is_reserved":false,"is_disabled":false,"rental_uris":{"android":"levelo://app?vid=7dd71ff8-701b-458f-9e80-dae838364728","ios":"levelo://app?vid=7dd71ff8-701b-458f-9e80-dae838364728"},"vehicle_type_id":"4","last_reported":1702148672,"current_range_meters":9200,"station_id":"ce4bhf92rcd13ifvqf50","pricing_plan_id":"free"},{"bike_id":"58f52f1b-f682-43f9-888f-474549184cf8","system_id":"levelo_inurba_marseille","lat":43.32215,"lon":5.41467,"is_reserved":false,"is_disabled":false,"rental_uris":{"android":"levelo://app?vid=58f52f1b-f682-43f9-888f-474549184cf8","ios":"levelo://app?vid=58f52f1b-f682-43f9-888f-474549184cf8"},"vehicle_type_id":"4","last_reported":1702148672,"current_range_meters":16800,"station_id":"","pricing_plan_id":"free"},{"bike_id":"bfd7b56c-a3a1-480e-81cf-a010edc11b83","system_id":"levelo_inurba_marseille","lat":43.27951,"lon":5.38717,"is_reserved":false,"is_disabled":false,"rental_uris":{"android":"levelo://app?vid=bfd7b56c-a3a1-480e-81cf-a010edc11b83","ios":"levelo://app?vid=bfd7b56c-a3a1-480e-81cf-a010edc11b83"},"vehicle_type_id":"4","last_reported":1702148672,"current_range_meters":0,"station_id":"ce4bhg12rcd13ifvqf80","pricing_plan_id":"free"},{"bike_id":"119c9fd4-97f4-41a8-8f45-84befbf6b041","system_id":"levelo_inurba_marseille","lat":43.292569,"lon":5.409107,"is_reserved":false,"is_disabled":false,"rental_uris":{"android":"levelo://app?vid=119c9fd4-97f4-41a8-8f45-84befbf6b041","ios":"levelo://app?vid=119c9fd4-97f4-41a8-8f45-84befbf6b041"},"vehicle_type_id":"4","last_reported":1702148672,"current_range_meters":7200,"station_id":"ce4bh192rcd13ifvqdc0","pricing_plan_id":"free"},{"bike_id":"febd3258-597b-4f09-b725-16961abd4b70","system_id":"levelo_inurba_marseille","lat":43.29254,"lon":5.409063,"is_reserved":false,"is_disabled":false,"rental_uris":{"android":"levelo://app?vid=febd3258-597b-4f09-b725-16961abd4b70","ios":"levelo://app?vid=febd3258-597b-4f09-b725-16961abd4b70"},"vehicle_type_id":"4","last_reported":1702148672,"current_range_meters":4800,"station_id":"ce4bh192rcd13ifvqdc0","pricing_plan_id":"free"},{"bike_id":"16d7b292-3796-4bc2-a29b-cf7f1ed5b460","system_id":"levelo_inurba_marseille","lat":43.292571,"lon":5.409107,"is_reserved":false,"is_disabled":false,"rental_uris":{"android":"levelo://app?vid=16d7b292-3796-4bc2-a29b-cf7f1ed5b460","ios":"levelo://app?vid=16d7b292-3796-4bc2-a29b-cf7f1ed5b460"},"vehicle_type_id":"4","last_reported":1702148672,"current_range_meters":25600,"station_id":"ce4bh192rcd13ifvqdc0","pricing_plan_id":"free"},{"bike_id":"a148b3ad-4229-40c7-b578-15b32d72e96b","system_id":"levelo_inurba_marseille","lat":43.325243,"lon":5.414326,"is_reserved":false,"is_disabled":false,"rental_uris":{"android":"levelo://app?vid=a148b3ad-4229-40c7-b578-15b32d72e96b","ios":"levelo://app?vid=a148b3ad-4229-40c7-b578-15b32d72e96b"},"vehicle_type_id":"4","last_reported":1702148672,"current_range_meters":30400,"station_id":"ce4bhq12rcd13ifvqhhg","pricing_plan_id":"free"},{"bike_id":"d320513b-0bea-4e7c-9bd0-e8df77cb8cb8","system_id":"levelo_inurba_marseille","lat":43.278401,"lon":5.392152,"is_reserved":false,"is_disabled":false,"rental_uris":{"android":"levelo://app?vid=d320513b-0bea-4e7c-9bd0-e8df77cb8cb8","ios":"levelo://app?vid=d320513b-0bea-4e7c-9bd0-e8df77cb8cb8"},"vehicle_type_id":"4","last_reported":1702148672,"current_range_meters":28800,"station_id":"ce4bhjp2rcd13ifvqga0","pricing_plan_id":"free"},{"bike_id":"dec087dc-2f88-4bd2-9da7-57b7b745d402","system_id":"levelo_inurba_marseille","lat":43.273613,"lon":5.362705,"is_reserved":false,"is_disabled":false,"rental_uris":{"android":"levelo://app?vid=dec087dc-2f88-4bd2-9da7-57b7b745d402","ios":"levelo://app?vid=dec087dc-2f88-4bd2-9da7-57b7b745d402"},"vehicle_type_id":"4","last_reported":1702148672,"current_range_meters":26000,"station_id":"ce4bhbh2rcd13ifvqeo0","pricing_plan_id":"free"},{"bike_id":"32dd0e15-1b98-4e83-a659-43bacef86254","system_id":"levelo_inurba_marseille","lat":43.336148,"lon":5.410349,"is_reserved":false,"is_disabled":false,"rental_uris":{"android":"levelo://app?vid=32dd0e15-1b98-4e83-a659-43bacef86254","ios":"levelo://app?vid=32dd0e15-1b98-4e83-a659-43bacef86254"},"vehicle_type_id":"4","last_reported":1702148672,"current_range_meters":16400,"station_id":"ce4bhqh2rcd13ifvqhmg","pricing_plan_id":"free"},{"bike_id":"5dcea534-78fe-476d-9642-e65eac60e17d","system_id":"levelo_inurba_marseille","lat":43.28,"lon":5.40008,"is_reserved":false,"is_disabled":false,"rental_uris":{"android":"levelo://app?vid=5dcea534-78fe-476d-9642-e65eac60e17d","ios":"levelo://app?vid=5dcea534-78fe-476d-9642-e65eac60e17d"},"vehicle_type_id":"4","last_reported":1702148672,"current_range_meters":13600,"station_id":"ce4bho92rcd13ifvqh4g","pricing_plan_id":"free"},{"bike_id":"fce8ef5a-0f61-4cfb-b8bb-9e1b28bf23ad","system_id":"levelo_inurba_marseille","lat":43.3172,"lon":5.42397,"is_reserved":false,"is_disabled":false,"rental_uris":{"android":"levelo://app?vid=fce8ef5a-0f61-4cfb-b8bb-9e1b28bf23ad","ios":"levelo://app?vid=fce8ef5a-0f61-4cfb-b8bb-9e1b28bf23ad"},"vehicle_type_id":"4","last_reported":1702148672,"current_range_meters":28000,"station_id":"ce4bhp92rcd13ifvqhbg","pricing_plan_id":"free"},{"bike_id":"88e59060-d458-48a8-8abe-8a1913097d92","system_id":"levelo_inurba_marseille","lat":43.31716,"lon":5.42402,"is_reserved":false,"is_disabled":false,"rental_uris":{"android":"levelo://app?vid=88e59060-d458-48a8-8abe-8a1913097d92","ios":"levelo://app?vid=88e59060-d458-48a8-8abe-8a1913097d92"},"vehicle_type_id":"4","last_reported":1702148672,"current_range_meters":24000,"station_id":"ce4bhp92rcd13ifvqhbg","pricing_plan_id":"free"},{"bike_id":"fc4bcc5b-5f4e-42a1-8cca-78d5c651475f","system_id":"levelo_inurba_marseille","lat":43.317121,"lon":5.423936,"is_reserved":false,"is_disabled":false,"rental_uris":{"android":"levelo://app?vid=fc4bcc5b-5f4e-42a1-8cca-78d5c651475f","ios":"levelo://app?vid=fc4bcc5b-5f4e-42a1-8cca-78d5c651475f"},"vehicle_type_id":"4","last_reported":1702148672,"current_range_meters":28400,"station_id":"ce4bhp92rcd13ifvqhbg","pricing_plan_id":"free"},{"bike_id":"e6ff414d-6f05-44d2-b7c6-4a89a6fc64e2","system_id":"levelo_inurba_marseille","lat":43.310785,"lon":5.424305,"is_reserved":false,"is_disabled":false,"rental_uris":{"android":"levelo://app?vid=e6ff414d-6f05-44d2-b7c6-4a89a6fc64e2","ios":"levelo://app?vid=e6ff414d-6f05-44d2-b7c6-4a89a6fc64e2"},"vehicle_type_id":"4","last_reported":1702148672,"current_range_meters":4400,"station_id":"ce4bhp92rcd13ifvqhag","pricing_plan_id":"free"},{"bike_id":"80038031-3601-4c51-b66a-c6c9131d41d1","system_id":"levelo_inurba_marseille","lat":43.310785,"lon":5.424305,"is_reserved":false,"is_disabled":false,"rental_uris":{"android":"levelo://app?vid=80038031-3601-4c51-b66a-c6c9131d41d1","ios":"levelo://app?vid=80038031-3601-4c51-b66a-c6c9131d41d1"},"vehicle_type_id":"4","last_reported":1702148672,"current_range_meters":30400,"station_id":"ce4bhp92rcd13ifvqhag","pricing_plan_id":"free"},{"bike_id":"02791883-a925-42a0-9dd3-b7193f6a574b","system_id":"levelo_inurba_marseille","lat":43.31716,"lon":5.42403,"is_reserved":false,"is_disabled":false,"rental_uris":{"android":"levelo://app?vid=02791883-a925-42a0-9dd3-b7193f6a574b","ios":"levelo://app?vid=02791883-a925-42a0-9dd3-b7193f6a574b"},"vehicle_type_id":"4","last_reported":1702148672,"current_range_meters":29600,"station_id":"ce4bhp92rcd13ifvqhbg","pricing_plan_id":"free"},{"bike_id":"b2b30634-efac-4a39-976a-11b013bebac6","system_id":"levelo_inurba_marseille","lat":43.310785,"lon":5.424305,"is_reserved":false,"is_disabled":false,"rental_uris":{"android":"levelo://app?vid=b2b30634-efac-4a39-976a-11b013bebac6","ios":"levelo://app?vid=b2b30634-efac-4a39-976a-11b013bebac6"},"vehicle_type_id":"4","last_reported":1702148672,"current_range_meters":18400,"station_id":"ce4bhp92rcd13ifvqhag","pricing_plan_id":"free"},{"bike_id":"e7bd1e73-4f86-473d-905c-a7b0f3d6ad8a","system_id":"levelo_inurba_marseille","lat":43.31723,"lon":5.42405,"is_reserved":false,"is_disabled":false,"rental_uris":{"android":"levelo://app?vid=e7bd1e73-4f86-473d-905c-a7b0f3d6ad8a","ios":"levelo://app?vid=e7bd1e73-4f86-473d-905c-a7b0f3d6ad8a"},"vehicle_type_id":"4","last_reported":1702148672,"current_range_meters":16400,"station_id":"ce4bhp92rcd13ifvqhbg","pricing_plan_id":"free"},{"bike_id":"48e3df08-57dc-434d-a06c-f6f751cd351f","system_id":"levelo_inurba_marseille","lat":43.310785,"lon":5.424305,"is_reserved":false,"is_disabled":false,"rental_uris":{"android":"levelo://app?vid=48e3df08-57dc-434d-a06c-f6f751cd351f","ios":"levelo://app?vid=48e3df08-57dc-434d-a06c-f6f751cd351f"},"vehicle_type_id":"4","last_reported":1702148672,"current_range_meters":18800,"station_id":"ce4bhp92rcd13ifvqhag","pricing_plan_id":"free"},{"bike_id":"dc011345-ff5f-480d-b6d5-f874b8d283f3","system_id":"levelo_inurba_marseille","lat":43.340804,"lon":5.410219,"is_reserved":false,"is_disabled":false,"rental_uris":{"android":"levelo://app?vid=dc011345-ff5f-480d-b6d5-f874b8d283f3","ios":"levelo://app?vid=dc011345-ff5f-480d-b6d5-f874b8d283f3"},"vehicle_type_id":"4","last_reported":1702148672,"current_range_meters":18000,"station_id":"ce4bhqh2rcd13ifvqhlg","pricing_plan_id":"free"},{"bike_id":"63133364-316e-458e-b234-bbd4926c63fc","system_id":"levelo_inurba_marseille","lat":43.27583,"lon":5.39474,"is_reserved":false,"is_disabled":false,"rental_uris":{"android":"levelo://app?vid=63133364-316e-458e-b234-bbd4926c63fc","ios":"levelo://app?vid=63133364-316e-458e-b234-bbd4926c63fc"},"vehicle_type_id":"4","last_reported":1702148672,"current_range_meters":6400,"station_id":"","pricing_plan_id":"free"},{"bike_id":"8f021145-48f8-459b-aef0-f8921e18b0a0","system_id":"levelo_inurba_marseille","lat":43.27214,"lon":5.3925,"is_reserved":false,"is_disabled":false,"rental_uris":{"android":"levelo://app?vid=8f021145-48f8-459b-aef0-f8921e18b0a0","ios":"levelo://app?vid=8f021145-48f8-459b-aef0-f8921e18b0a0"},"vehicle_type_id":"4","last_reported":1702148672,"current_range_meters":800,"station_id":"","pricing_plan_id":"free"},{"bike_id":"1da5cadd-0f62-4791-baf4-9a8e21858cd6","system_id":"levelo_inurba_marseille","lat":43.278128,"lon":5.407195,"is_reserved":false,"is_disabled":false,"rental_uris":{"android":"levelo://app?vid=1da5cadd-0f62-4791-baf4-9a8e21858cd6","ios":"levelo://app?vid=1da5cadd-0f62-4791-baf4-9a8e21858cd6"},"vehicle_type_id":"4","last_reported":1702148672,"current_range_meters":19200,"station_id":"ce4bhnh2rcd13ifvqgtg","pricing_plan_id":"free"},{"bike_id":"7349fdae-43a7-4d69-b164-2d1940a828f5","system_id":"levelo_inurba_marseille","lat":43.269467,"lon":5.386439,"is_reserved":false,"is_disabled":false,"rental_uris":{"android":"levelo://app?vid=7349fdae-43a7-4d69-b164-2d1940a828f5","ios":"levelo://app?vid=7349fdae-43a7-4d69-b164-2d1940a828f5"},"vehicle_type_id":"4","last_reported":1702148672,"current_range_meters":3200,"station_id":"ce4bhh92rcd13ifvqfh0","pricing_plan_id":"free"},{"bike_id":"3decf5d7-bca0-402b-89c8-f89fba01800f","system_id":"levelo_inurba_marseille","lat":43.265714,"lon":5.372891,"is_reserved":false,"is_disabled":false,"rental_uris":{"android":"levelo://app?vid=3decf5d7-bca0-402b-89c8-f89fba01800f","ios":"levelo://app?vid=3decf5d7-bca0-402b-89c8-f89fba01800f"},"vehicle_type_id":"4","last_reported":1702148672,"current_range_meters":18000,"station_id":"ce4bhg12rcd13ifvqf70","pricing_plan_id":"free"},{"bike_id":"b92b5360-b821-4da6-ae2c-a0ccfef7873e","system_id":"levelo_inurba_marseille","lat":43.269188,"lon":5.393527,"is_reserved":false,"is_disabled":false,"rental_uris":{"android":"levelo://app?vid=b92b5360-b821-4da6-ae2c-a0ccfef7873e","ios":"levelo://app?vid=b92b5360-b821-4da6-ae2c-a0ccfef7873e"},"vehicle_type_id":"4","last_reported":1702148672,"current_range_meters":12400,"station_id":"","pricing_plan_id":"free"},{"bike_id":"19cc942f-ece9-40d3-8083-cccfba7fe5b1","system_id":"levelo_inurba_marseille","lat":43.279881,"lon":5.416579,"is_reserved":false,"is_disabled":false,"rental_uris":{"android":"levelo://app?vid=19cc942f-ece9-40d3-8083-cccfba7fe5b1","ios":"levelo://app?vid=19cc942f-ece9-40d3-8083-cccfba7fe5b1"},"vehicle_type_id":"4","last_reported":1702148672,"current_range_meters":2000,"station_id":"ce4bho12rcd13ifvqh1g","pricing_plan_id":"free"},{"bike_id":"1aa146f6-bcee-4a32-8a39-31b4e3cd2790","system_id":"levelo_inurba_marseille","lat":43.267966,"lon":5.393976,"is_reserved":false,"is_disabled":false,"rental_uris":{"android":"levelo://app?vid=1aa146f6-bcee-4a32-8a39-31b4e3cd2790","ios":"levelo://app?vid=1aa146f6-bcee-4a32-8a39-31b4e3cd2790"},"vehicle_type_id":"4","last_reported":1702148672,"current_range_meters":4800,"station_id":"ce4bhh12rcd13ifvqfg0","pricing_plan_id":"free"},{"bike_id":"efce3206-6d32-4826-b5d6-39f58e58c1ba","system_id":"levelo_inurba_marseille","lat":43.26937,"lon":5.40257,"is_reserved":false,"is_disabled":false,"rental_uris":{"android":"levelo://app?vid=efce3206-6d32-4826-b5d6-39f58e58c1ba","ios":"levelo://app?vid=efce3206-6d32-4826-b5d6-39f58e58c1ba"},"vehicle_type_id":"4","last_reported":1702148672,"current_range_meters":17600,"station_id":"cjm6bp8fraef2m0cb0m0","pricing_plan_id":"free"},{"bike_id":"f5b58947-511a-4bf1-bb05-e4b8764df321","system_id":"levelo_inurba_marseille","lat":43.261782,"lon":5.374515,"is_reserved":false,"is_disabled":false,"rental_uris":{"android":"levelo://app?vid=f5b58947-511a-4bf1-bb05-e4b8764df321","ios":"levelo://app?vid=f5b58947-511a-4bf1-bb05-e4b8764df321"},"vehicle_type_id":"4","last_reported":1702148672,"current_range_meters":4800,"station_id":"ce4bhgp2rcd13ifvqfc0","pricing_plan_id":"free"},{"bike_id":"9b2b1b24-09ce-4a67-b955-8e8d0bf6565f","system_id":"levelo_inurba_marseille","lat":43.261782,"lon":5.374515,"is_reserved":false,"is_disabled":false,"rental_uris":{"android":"levelo://app?vid=9b2b1b24-09ce-4a67-b955-8e8d0bf6565f","ios":"levelo://app?vid=9b2b1b24-09ce-4a67-b955-8e8d0bf6565f"},"vehicle_type_id":"4","last_reported":1702148672,"current_range_meters":26000,"station_id":"ce4bhgp2rcd13ifvqfc0","pricing_plan_id":"free"},{"bike_id":"6d7cd608-23cf-4c91-abee-f8b340c140ce","system_id":"levelo_inurba_marseille","lat":43.261782,"lon":5.374515,"is_reserved":false,"is_disabled":false,"rental_uris":{"android":"levelo://app?vid=6d7cd608-23cf-4c91-abee-f8b340c140ce","ios":"levelo://app?vid=6d7cd608-23cf-4c91-abee-f8b340c140ce"},"vehicle_type_id":"4","last_reported":1702148672,"current_range_meters":17600,"station_id":"ce4bhgp2rcd13ifvqfc0","pricing_plan_id":"free"},{"bike_id":"11e3233e-edb4-44fa-8216-f13d98ea8cdc","system_id":"levelo_inurba_marseille","lat":43.261782,"lon":5.374515,"is_reserved":false,"is_disabled":false,"rental_uris":{"android":"levelo://app?vid=11e3233e-edb4-44fa-8216-f13d98ea8cdc","ios":"levelo://app?vid=11e3233e-edb4-44fa-8216-f13d98ea8cdc"},"vehicle_type_id":"4","last_reported":1702148672,"current_range_meters":4800,"station_id":"ce4bhgp2rcd13ifvqfc0","pricing_plan_id":"free"},{"bike_id":"610b4c30-dfcf-4d12-b033-95787d925183","system_id":"levelo_inurba_marseille","lat":43.261782,"lon":5.374515,"is_reserved":false,"is_disabled":false,"rental_uris":{"android":"levelo://app?vid=610b4c30-dfcf-4d12-b033-95787d925183","ios":"levelo://app?vid=610b4c30-dfcf-4d12-b033-95787d925183"},"vehicle_type_id":"4","last_reported":1702148672,"current_range_meters":800,"station_id":"ce4bhgp2rcd13ifvqfc0","pricing_plan_id":"free"},{"bike_id":"f05c3e92-2d40-48ba-85ca-bf713caa920f","system_id":"levelo_inurba_marseille","lat":43.317104,"lon":5.436818,"is_reserved":false,"is_disabled":false,"rental_uris":{"android":"levelo://app?vid=f05c3e92-2d40-48ba-85ca-bf713caa920f","ios":"levelo://app?vid=f05c3e92-2d40-48ba-85ca-bf713caa920f"},"vehicle_type_id":"4","last_reported":1702148672,"current_range_meters":2000,"station_id":"ce4bhp92rcd13ifvqhcg","pricing_plan_id":"free"},{"bike_id":"dbacbb4a-9e99-4a7a-9713-43dac221ae4c","system_id":"levelo_inurba_marseille","lat":43.317104,"lon":5.436818,"is_reserved":false,"is_disabled":false,"rental_uris":{"android":"levelo://app?vid=dbacbb4a-9e99-4a7a-9713-43dac221ae4c","ios":"levelo://app?vid=dbacbb4a-9e99-4a7a-9713-43dac221ae4c"},"vehicle_type_id":"4","last_reported":1702148672,"current_range_meters":20800,"station_id":"ce4bhp92rcd13ifvqhcg","pricing_plan_id":"free"},{"bike_id":"44f517c3-8ca9-43b4-9e02-8262e4fb0881","system_id":"levelo_inurba_marseille","lat":43.317104,"lon":5.436818,"is_reserved":false,"is_disabled":false,"rental_uris":{"android":"levelo://app?vid=44f517c3-8ca9-43b4-9e02-8262e4fb0881","ios":"levelo://app?vid=44f517c3-8ca9-43b4-9e02-8262e4fb0881"},"vehicle_type_id":"4","last_reported":1702148672,"current_range_meters":22400,"station_id":"ce4bhp92rcd13ifvqhcg","pricing_plan_id":"free"},{"bike_id":"e2a5fdfb-8206-4159-81d6-1ab96fe4d7e7","system_id":"levelo_inurba_marseille","lat":43.262012,"lon":5.379307,"is_reserved":false,"is_disabled":false,"rental_uris":{"android":"levelo://app?vid=e2a5fdfb-8206-4159-81d6-1ab96fe4d7e7","ios":"levelo://app?vid=e2a5fdfb-8206-4159-81d6-1ab96fe4d7e7"},"vehicle_type_id":"4","last_reported":1702148672,"current_range_meters":15200,"station_id":"ce4bhjp2rcd13ifvqg90","pricing_plan_id":"free"},{"bike_id":"d14fddf3-3638-41ff-a2e7-5c41cc7e7327","system_id":"levelo_inurba_marseille","lat":43.271368,"lon":5.40928,"is_reserved":false,"is_disabled":false,"rental_uris":{"android":"levelo://app?vid=d14fddf3-3638-41ff-a2e7-5c41cc7e7327","ios":"levelo://app?vid=d14fddf3-3638-41ff-a2e7-5c41cc7e7327"},"vehicle_type_id":"4","last_reported":1702148672,"current_range_meters":15600,"station_id":"ce4bhl12rcd13ifvqgf0","pricing_plan_id":"free"},{"bike_id":"5f2d3882-2773-4d5c-828c-4c3c96bb97f7","system_id":"levelo_inurba_marseille","lat":43.298768,"lon":5.43643,"is_reserved":false,"is_disabled":false,"rental_uris":{"android":"levelo://app?vid=5f2d3882-2773-4d5c-828c-4c3c96bb97f7","ios":"levelo://app?vid=5f2d3882-2773-4d5c-828c-4c3c96bb97f7"},"vehicle_type_id":"4","last_reported":1702148672,"current_range_meters":26800,"station_id":"ce4bhpp2rcd13ifvqhfg","pricing_plan_id":"free"},{"bike_id":"c4a32d8b-8a0b-4189-aa9f-2983a413dfe8","system_id":"levelo_inurba_marseille","lat":43.299,"lon":5.43662,"is_reserved":false,"is_disabled":false,"rental_uris":{"android":"levelo://app?vid=c4a32d8b-8a0b-4189-aa9f-2983a413dfe8","ios":"levelo://app?vid=c4a32d8b-8a0b-4189-aa9f-2983a413dfe8"},"vehicle_type_id":"4","last_reported":1702148672,"current_range_meters":29200,"station_id":"ce4bhpp2rcd13ifvqhfg","pricing_plan_id":"free"},{"bike_id":"83e2018e-7127-4415-8bbf-2e347a9c6750","system_id":"levelo_inurba_marseille","lat":43.29894,"lon":5.43662,"is_reserved":false,"is_disabled":false,"rental_uris":{"android":"levelo://app?vid=83e2018e-7127-4415-8bbf-2e347a9c6750","ios":"levelo://app?vid=83e2018e-7127-4415-8bbf-2e347a9c6750"},"vehicle_type_id":"4","last_reported":1702148672,"current_range_meters":28800,"station_id":"ce4bhpp2rcd13ifvqhfg","pricing_plan_id":"free"},{"bike_id":"4f68f183-a711-4386-a731-e8ea8e2f115e","system_id":"levelo_inurba_marseille","lat":43.298768,"lon":5.43643,"is_reserved":false,"is_disabled":false,"rental_uris":{"android":"levelo://app?vid=4f68f183-a711-4386-a731-e8ea8e2f115e","ios":"levelo://app?vid=4f68f183-a711-4386-a731-e8ea8e2f115e"},"vehicle_type_id":"4","last_reported":1702148672,"current_range_meters":26000,"station_id":"ce4bhpp2rcd13ifvqhfg","pricing_plan_id":"free"},{"bike_id":"70c52fa1-91be-4fbd-9217-7a0c668f9310","system_id":"levelo_inurba_marseille","lat":43.29899,"lon":5.43665,"is_reserved":false,"is_disabled":false,"rental_uris":{"android":"levelo://app?vid=70c52fa1-91be-4fbd-9217-7a0c668f9310","ios":"levelo://app?vid=70c52fa1-91be-4fbd-9217-7a0c668f9310"},"vehicle_type_id":"4","last_reported":1702148672,"current_range_meters":24400,"station_id":"ce4bhpp2rcd13ifvqhfg","pricing_plan_id":"free"},{"bike_id":"6b17b896-99f2-456b-929e-df3811eeb274","system_id":"levelo_inurba_marseille","lat":43.298768,"lon":5.43643,"is_reserved":false,"is_disabled":false,"rental_uris":{"android":"levelo://app?vid=6b17b896-99f2-456b-929e-df3811eeb274","ios":"levelo://app?vid=6b17b896-99f2-456b-929e-df3811eeb274"},"vehicle_type_id":"4","last_reported":1702148672,"current_range_meters":28800,"station_id":"ce4bhpp2rcd13ifvqhfg","pricing_plan_id":"free"},{"bike_id":"8b52906f-164e-4a6b-aed3-6eef957e6401","system_id":"levelo_inurba_marseille","lat":43.281548,"lon":5.42643,"is_reserved":false,"is_disabled":false,"rental_uris":{"android":"levelo://app?vid=8b52906f-164e-4a6b-aed3-6eef957e6401","ios":"levelo://app?vid=8b52906f-164e-4a6b-aed3-6eef957e6401"},"vehicle_type_id":"4","last_reported":1702148672,"current_range_meters":30400,"station_id":"ce4bhnh2rcd13ifvqgug","pricing_plan_id":"free"},{"bike_id":"ae2ee4ec-e0be-4650-a25d-ad306c6973d5","system_id":"levelo_inurba_marseille","lat":43.281548,"lon":5.42643,"is_reserved":false,"is_disabled":false,"rental_uris":{"android":"levelo://app?vid=ae2ee4ec-e0be-4650-a25d-ad306c6973d5","ios":"levelo://app?vid=ae2ee4ec-e0be-4650-a25d-ad306c6973d5"},"vehicle_type_id":"4","last_reported":1702148672,"current_range_meters":12800,"station_id":"ce4bhnh2rcd13ifvqgug","pricing_plan_id":"free"},{"bike_id":"c03e7c65-94ee-4f51-bb31-7322ab7baa32","system_id":"levelo_inurba_marseille","lat":43.281548,"lon":5.42643,"is_reserved":false,"is_disabled":false,"rental_uris":{"android":"levelo://app?vid=c03e7c65-94ee-4f51-bb31-7322ab7baa32","ios":"levelo://app?vid=c03e7c65-94ee-4f51-bb31-7322ab7baa32"},"vehicle_type_id":"4","last_reported":1702148672,"current_range_meters":0,"station_id":"ce4bhnh2rcd13ifvqgug","pricing_plan_id":"free"},{"bike_id":"139a27c7-f3ae-47e4-b585-f0759b6ba5b6","system_id":"levelo_inurba_marseille","lat":43.281548,"lon":5.42643,"is_reserved":false,"is_disabled":false,"rental_uris":{"android":"levelo://app?vid=139a27c7-f3ae-47e4-b585-f0759b6ba5b6","ios":"levelo://app?vid=139a27c7-f3ae-47e4-b585-f0759b6ba5b6"},"vehicle_type_id":"4","last_reported":1702148672,"current_range_meters":22400,"station_id":"ce4bhnh2rcd13ifvqgug","pricing_plan_id":"free"},{"bike_id":"5525a139-c8f9-4163-ad42-51992063b245","system_id":"levelo_inurba_marseille","lat":43.281548,"lon":5.42643,"is_reserved":false,"is_disabled":false,"rental_uris":{"android":"levelo://app?vid=5525a139-c8f9-4163-ad42-51992063b245","ios":"levelo://app?vid=5525a139-c8f9-4163-ad42-51992063b245"},"vehicle_type_id":"4","last_reported":1702148672,"current_range_meters":6000,"station_id":"ce4bhnh2rcd13ifvqgug","pricing_plan_id":"free"},{"bike_id":"b9063a33-13b5-4cca-826c-3f51be03f8ec","system_id":"levelo_inurba_marseille","lat":43.281548,"lon":5.42643,"is_reserved":false,"is_disabled":false,"rental_uris":{"android":"levelo://app?vid=b9063a33-13b5-4cca-826c-3f51be03f8ec","ios":"levelo://app?vid=b9063a33-13b5-4cca-826c-3f51be03f8ec"},"vehicle_type_id":"4","last_reported":1702148672,"current_range_meters":30400,"station_id":"ce4bhnh2rcd13ifvqgug","pricing_plan_id":"free"},{"bike_id":"4b961cec-d7ea-47bd-8b69-193b02ff897c","system_id":"levelo_inurba_marseille","lat":43.2607,"lon":5.393983,"is_reserved":false,"is_disabled":false,"rental_uris":{"android":"levelo://app?vid=4b961cec-d7ea-47bd-8b69-193b02ff897c","ios":"levelo://app?vid=4b961cec-d7ea-47bd-8b69-193b02ff897c"},"vehicle_type_id":"4","last_reported":1702148672,"current_range_meters":10800,"station_id":"ce4bhh92rcd13ifvqfj0","pricing_plan_id":"free"},{"bike_id":"f8257087-7e3c-478a-843b-bb8aa4309efa","system_id":"levelo_inurba_marseille","lat":43.2607,"lon":5.393983,"is_reserved":false,"is_disabled":false,"rental_uris":{"android":"levelo://app?vid=f8257087-7e3c-478a-843b-bb8aa4309efa","ios":"levelo://app?vid=f8257087-7e3c-478a-843b-bb8aa4309efa"},"vehicle_type_id":"4","last_reported":1702148672,"current_range_meters":10000,"station_id":"ce4bhh92rcd13ifvqfj0","pricing_plan_id":"free"},{"bike_id":"e9a23148-ea63-448e-8189-1ee0e20e4523","system_id":"levelo_inurba_marseille","lat":43.27414,"lon":5.42391,"is_reserved":false,"is_disabled":false,"rental_uris":{"android":"levelo://app?vid=e9a23148-ea63-448e-8189-1ee0e20e4523","ios":"levelo://app?vid=e9a23148-ea63-448e-8189-1ee0e20e4523"},"vehicle_type_id":"4","last_reported":1702148672,"current_range_meters":4000,"station_id":"","pricing_plan_id":"free"},{"bike_id":"a969904f-ae03-4dcb-b095-5c1af96de464","system_id":"levelo_inurba_marseille","lat":43.258658,"lon":5.398935,"is_reserved":false,"is_disabled":false,"rental_uris":{"android":"levelo://app?vid=a969904f-ae03-4dcb-b095-5c1af96de464","ios":"levelo://app?vid=a969904f-ae03-4dcb-b095-5c1af96de464"},"vehicle_type_id":"4","last_reported":1702148672,"current_range_meters":18400,"station_id":"ce4bhl92rcd13ifvqghg","pricing_plan_id":"free"},{"bike_id":"2ceb5d1d-ada0-4ce0-b70b-f54cb7fa7e69","system_id":"levelo_inurba_marseille","lat":43.255505,"lon":5.393095,"is_reserved":false,"is_disabled":false,"rental_uris":{"android":"levelo://app?vid=2ceb5d1d-ada0-4ce0-b70b-f54cb7fa7e69","ios":"levelo://app?vid=2ceb5d1d-ada0-4ce0-b70b-f54cb7fa7e69"},"vehicle_type_id":"4","last_reported":1702148672,"current_range_meters":11200,"station_id":"ce4bhhh2rcd13ifvqfl0","pricing_plan_id":"free"},{"bike_id":"8ab53011-c859-4848-9af2-188b1bd3d023","system_id":"levelo_inurba_marseille","lat":43.2479,"lon":5.374457,"is_reserved":false,"is_disabled":false,"rental_uris":{"android":"levelo://app?vid=8ab53011-c859-4848-9af2-188b1bd3d023","ios":"levelo://app?vid=8ab53011-c859-4848-9af2-188b1bd3d023"},"vehicle_type_id":"4","last_reported":1702148672,"current_range_meters":5600,"station_id":"ce4bhgh2rcd13ifvqfb0","pricing_plan_id":"free"},{"bike_id":"09dd185e-f14a-4042-b221-3dbec0b7fa9e","system_id":"levelo_inurba_marseille","lat":43.2479,"lon":5.374457,"is_reserved":false,"is_disabled":false,"rental_uris":{"android":"levelo://app?vid=09dd185e-f14a-4042-b221-3dbec0b7fa9e","ios":"levelo://app?vid=09dd185e-f14a-4042-b221-3dbec0b7fa9e"},"vehicle_type_id":"4","last_reported":1702148672,"current_range_meters":20000,"station_id":"ce4bhgh2rcd13ifvqfb0","pricing_plan_id":"free"},{"bike_id":"3b84ff55-b48c-4c65-9282-c71920fc0fcb","system_id":"levelo_inurba_marseille","lat":43.24661,"lon":5.3817,"is_reserved":false,"is_disabled":false,"rental_uris":{"android":"levelo://app?vid=3b84ff55-b48c-4c65-9282-c71920fc0fcb","ios":"levelo://app?vid=3b84ff55-b48c-4c65-9282-c71920fc0fcb"},"vehicle_type_id":"4","last_reported":1702148672,"current_range_meters":0,"station_id":"ce4bhih2rcd13ifvqfr0","pricing_plan_id":"free"},{"bike_id":"5d08390b-d5dd-46e8-b883-e1f91a93f8dd","system_id":"levelo_inurba_marseille","lat":43.24693,"lon":5.382096,"is_reserved":false,"is_disabled":false,"rental_uris":{"android":"levelo://app?vid=5d08390b-d5dd-46e8-b883-e1f91a93f8dd","ios":"levelo://app?vid=5d08390b-d5dd-46e8-b883-e1f91a93f8dd"},"vehicle_type_id":"4","last_reported":1702148672,"current_range_meters":5200,"station_id":"ce4bhih2rcd13ifvqfr0","pricing_plan_id":"free"},{"bike_id":"cd9dcc01-2d69-4d9d-9a7f-86875f3c46c0","system_id":"levelo_inurba_marseille","lat":43.2511,"lon":5.40323,"is_reserved":false,"is_disabled":false,"rental_uris":{"android":"levelo://app?vid=cd9dcc01-2d69-4d9d-9a7f-86875f3c46c0","ios":"levelo://app?vid=cd9dcc01-2d69-4d9d-9a7f-86875f3c46c0"},"vehicle_type_id":"4","last_reported":1702148672,"current_range_meters":14400,"station_id":"ce4bhlh2rcd13ifvqgig","pricing_plan_id":"free"},{"bike_id":"6ffa404c-bd43-4ef5-aa2c-7350849e4cbf","system_id":"levelo_inurba_marseille","lat":43.246467,"lon":5.388984,"is_reserved":false,"is_disabled":false,"rental_uris":{"android":"levelo://app?vid=6ffa404c-bd43-4ef5-aa2c-7350849e4cbf","ios":"levelo://app?vid=6ffa404c-bd43-4ef5-aa2c-7350849e4cbf"},"vehicle_type_id":"4","last_reported":1702148672,"current_range_meters":27200,"station_id":"ce4bhg12rcd13ifvqf60","pricing_plan_id":"free"},{"bike_id":"1d260029-f614-4fcd-9e34-5fe59d13160e","system_id":"levelo_inurba_marseille","lat":43.243884,"lon":5.370736,"is_reserved":false,"is_disabled":false,"rental_uris":{"android":"levelo://app?vid=1d260029-f614-4fcd-9e34-5fe59d13160e","ios":"levelo://app?vid=1d260029-f614-4fcd-9e34-5fe59d13160e"},"vehicle_type_id":"4","last_reported":1702148672,"current_range_meters":26000,"station_id":"ce4bhhh2rcd13ifvqfk0","pricing_plan_id":"free"},{"bike_id":"a4e6304e-c8df-4b34-84be-1d8c4ad9f4f7","system_id":"levelo_inurba_marseille","lat":43.24072,"lon":5.3776,"is_reserved":false,"is_disabled":false,"rental_uris":{"android":"levelo://app?vid=a4e6304e-c8df-4b34-84be-1d8c4ad9f4f7","ios":"levelo://app?vid=a4e6304e-c8df-4b34-84be-1d8c4ad9f4f7"},"vehicle_type_id":"4","last_reported":1702148672,"current_range_meters":7600,"station_id":"ce4bhnp2rcd13ifvqgvg","pricing_plan_id":"free"},{"bike_id":"ccc904d0-ec17-4c75-aba3-8acab7bda7c3","system_id":"levelo_inurba_marseille","lat":43.24071,"lon":5.37756,"is_reserved":false,"is_disabled":false,"rental_uris":{"android":"levelo://app?vid=ccc904d0-ec17-4c75-aba3-8acab7bda7c3","ios":"levelo://app?vid=ccc904d0-ec17-4c75-aba3-8acab7bda7c3"},"vehicle_type_id":"4","last_reported":1702148672,"current_range_meters":2800,"station_id":"ce4bhnp2rcd13ifvqgvg","pricing_plan_id":"free"},{"bike_id":"2580262e-1e7c-49c0-8d7a-29f401d9ac6f","system_id":"levelo_inurba_marseille","lat":43.240623,"lon":5.377642,"is_reserved":false,"is_disabled":false,"rental_uris":{"android":"levelo://app?vid=2580262e-1e7c-49c0-8d7a-29f401d9ac6f","ios":"levelo://app?vid=2580262e-1e7c-49c0-8d7a-29f401d9ac6f"},"vehicle_type_id":"4","last_reported":1702148672,"current_range_meters":17200,"station_id":"ce4bhnp2rcd13ifvqgvg","pricing_plan_id":"free"},{"bike_id":"bd83e60a-c0a9-42d0-9228-56613594b85e","system_id":"levelo_inurba_marseille","lat":43.240623,"lon":5.377642,"is_reserved":false,"is_disabled":false,"rental_uris":{"android":"levelo://app?vid=bd83e60a-c0a9-42d0-9228-56613594b85e","ios":"levelo://app?vid=bd83e60a-c0a9-42d0-9228-56613594b85e"},"vehicle_type_id":"4","last_reported":1702148672,"current_range_meters":20000,"station_id":"ce4bhnp2rcd13ifvqgvg","pricing_plan_id":"free"},{"bike_id":"06eac772-e835-4063-ada9-4a4a8159d584","system_id":"levelo_inurba_marseille","lat":43.239588,"lon":5.366238,"is_reserved":false,"is_disabled":false,"rental_uris":{"android":"levelo://app?vid=06eac772-e835-4063-ada9-4a4a8159d584","ios":"levelo://app?vid=06eac772-e835-4063-ada9-4a4a8159d584"},"vehicle_type_id":"4","last_reported":1702148672,"current_range_meters":23200,"station_id":"ce4bhi12rcd13ifvqfp0","pricing_plan_id":"free"},{"bike_id":"b17e00c2-bf59-4ac0-bf9d-4e8ada93c9ba","system_id":"levelo_inurba_marseille","lat":43.241782,"lon":5.397261,"is_reserved":false,"is_disabled":false,"rental_uris":{"android":"levelo://app?vid=b17e00c2-bf59-4ac0-bf9d-4e8ada93c9ba","ios":"levelo://app?vid=b17e00c2-bf59-4ac0-bf9d-4e8ada93c9ba"},"vehicle_type_id":"4","last_reported":1702148672,"current_range_meters":0,"station_id":"ce4bhn12rcd13ifvqgpg","pricing_plan_id":"free"},{"bike_id":"2eac3e0a-1cc3-4e75-9865-782906f9549d","system_id":"levelo_inurba_marseille","lat":43.231919,"lon":5.355532,"is_reserved":false,"is_disabled":false,"rental_uris":{"android":"levelo://app?vid=2eac3e0a-1cc3-4e75-9865-782906f9549d","ios":"levelo://app?vid=2eac3e0a-1cc3-4e75-9865-782906f9549d"},"vehicle_type_id":"4","last_reported":1702148672,"current_range_meters":28800,"station_id":"ce4bhu92rcd13ifvqi70","pricing_plan_id":"free"},{"bike_id":"a8c501f0-1f0c-4126-b8d3-0e787022ce6a","system_id":"levelo_inurba_marseille","lat":43.231919,"lon":5.355532,"is_reserved":false,"is_disabled":false,"rental_uris":{"android":"levelo://app?vid=a8c501f0-1f0c-4126-b8d3-0e787022ce6a","ios":"levelo://app?vid=a8c501f0-1f0c-4126-b8d3-0e787022ce6a"},"vehicle_type_id":"4","last_reported":1702148672,"current_range_meters":30000,"station_id":"ce4bhu92rcd13ifvqi70","pricing_plan_id":"free"},{"bike_id":"529449ae-9bd0-4a42-b2ad-b913b1c62c25","system_id":"levelo_inurba_marseille","lat":43.231919,"lon":5.355532,"is_reserved":false,"is_disabled":false,"rental_uris":{"android":"levelo://app?vid=529449ae-9bd0-4a42-b2ad-b913b1c62c25","ios":"levelo://app?vid=529449ae-9bd0-4a42-b2ad-b913b1c62c25"},"vehicle_type_id":"4","last_reported":1702148672,"current_range_meters":30400,"station_id":"ce4bhu92rcd13ifvqi70","pricing_plan_id":"free"},{"bike_id":"61aa0a27-01cd-4079-9d0b-d55e5cfaee7e","system_id":"levelo_inurba_marseille","lat":43.231919,"lon":5.355532,"is_reserved":false,"is_disabled":false,"rental_uris":{"android":"levelo://app?vid=61aa0a27-01cd-4079-9d0b-d55e5cfaee7e","ios":"levelo://app?vid=61aa0a27-01cd-4079-9d0b-d55e5cfaee7e"},"vehicle_type_id":"4","last_reported":1702148672,"current_range_meters":30400,"station_id":"ce4bhu92rcd13ifvqi70","pricing_plan_id":"free"},{"bike_id":"db837267-81e3-439e-98cb-2684c730942d","system_id":"levelo_inurba_marseille","lat":43.231928,"lon":5.355429,"is_reserved":false,"is_disabled":false,"rental_uris":{"android":"levelo://app?vid=db837267-81e3-439e-98cb-2684c730942d","ios":"levelo://app?vid=db837267-81e3-439e-98cb-2684c730942d"},"vehicle_type_id":"4","last_reported":1702148672,"current_range_meters":19600,"station_id":"ce4bhu92rcd13ifvqi70","pricing_plan_id":"free"},{"bike_id":"e2bfbe22-bb3b-47ff-9cb7-4e3e6fea8c6b","system_id":"levelo_inurba_marseille","lat":43.231794,"lon":5.400052,"is_reserved":false,"is_disabled":false,"rental_uris":{"android":"levelo://app?vid=e2bfbe22-bb3b-47ff-9cb7-4e3e6fea8c6b","ios":"levelo://app?vid=e2bfbe22-bb3b-47ff-9cb7-4e3e6fea8c6b"},"vehicle_type_id":"4","last_reported":1702148672,"current_range_meters":18400,"station_id":"ce4bhn12rcd13ifvqgqg","pricing_plan_id":"free"}]}}