{"last_updated":1727129355,"ttl":30,"version":"2.2","data":{"bikes":[{"bike_id":"be9ee9f5-3c7a-495a-9914-c1f8a9f762e2","system_id":"levelo_inurba_marseille","lat":43.2582,"lon":5.39439,"is_reserved":false,"is_disabled":false,"rental_uris":{"android":"levelo://app?vid=be9ee9f5-3c7a-495a-9914-c1f8a9f762e2","ios":"levelo://app?vid=be9ee9f5-3c7a-495a-9914-c1f8a9f762e2"},"vehicle_type_id":"4","last_reported":1727129355,"current_range_meters":39200,"station_id":"ce4bhip2rcd13ifvqft0","pricing_plan_id":"cebpf4jnsgd1na2vs0mg"},{"bike_id":"1bbd2c9d-0111-4ab6-9880-8a8cf885073f","system_id":"levelo_inurba_marseille","lat":43.22927,"lon":5.35375,"is_reserved":false,"is_disabled":false,"rental_uris":{"android":"levelo://app?vid=1bbd2c9d-0111-4ab6-9880-8a8cf885073f","ios":"levelo://app?vid=1bbd2c9d-0111-4ab6-9880-8a8cf885073f"},"vehicle_type_id":"4","last_reported":1727129355,"current_range_meters":38800,"station_id":"cpo3532slgdg3j2ikp40","pricing_plan_id":"cebpf4jnsgd1na2vs0mg"},{"bike_id":"2de07918-086b-453b-b5ce-5ab7a848cd89","system_id":"levelo_inurba_marseille","lat":43.31693,"lon":5.40453,"is_reserved":false,"is_disabled":false,"rental_uris":{"android":"levelo://app?vid=2de07918-086b-453b-b5ce-5ab7a848cd89","ios":"levelo://app?vid=2de07918-086b-453b-b5ce-5ab7a848cd89"},"vehicle_type_id":"4","last_reported":1727129355,"current_range_meters":38800,"station_id":"ce4bh012rcd13ifvqd00","pricing_plan_id":"cebpf4jnsgd1na2vs0mg"},{"bike_id":"34e49e59-195f-4e3e-907c-4e46993b2f20","system_id":"levelo_inurba_marseille","lat":43.25079,"lon":5.3952,"is_reserved":false,"is_disabled":false,"rental_uris":{"android":"levelo://app?vid=34e49e59-195f-4e3e-907c-4e46993b2f20","ios":"levelo://app?vid=34e49e59-195f-4e3e-907c-4e46993b2f20"},"vehicle_type_id":"4","last_reported":1727129355,"current_range_meters":37600,"station_id":"ce4bhm12rcd13ifvqgkg","pricing_plan_id":"cebpf4jnsgd1na2vs0mg"},{"bike_id":"a9c042b5-aa44-41e6-ae6f-d6edb7b9da97","system_id":"levelo_inurba_marseille","lat":43.29804,"lon":5.39342,"is_reserved":false,"is_disabled":false,"rental_uris":{"android":"levelo://app?vid=a9c042b5-aa44-41e6-ae6f-d6edb7b9da97","ios":"levelo://app?vid=a9c042b5-aa44-41e6-ae6f-d6edb7b9da97"},"vehicle_type_id":"4","last_reported":1727129355,"current_range_meters":38800,"station_id":"chh1huq6cuj3fo74tm60","pricing_plan_id":"cebpf4jnsgd1na2vs0mg"},{"bike_id":"9218faa6-bed0-49a5-93f8-e77c777d8c04","system_id":"levelo_inurba_marseille","lat":43.32545,"lon":5.4144,"is_reserved":false,"is_disabled":false,"rental_uris":{"android":"levelo://app?vid=9218faa6-bed0-49a5-93f8-e77c777d8c04","ios":"levelo://app?vid=9218faa6-bed0-49a5-93f8-e77c777d8c04"},"vehicle_type_id":"4","last_reported":1727129355,"current_range_meters":38800,"station_id":"ce4bhq12rcd13ifvqhhg","pricing_plan_id":"cebpf4jnsgd1na2vs0mg"},{"bike_id":"8bb2518f-55dd-4c1a-87b9-a20806215020","system_id":"levelo_inurba_marseille","lat":43.32661,"lon":5.40987,"is_reserved":false,"is_disabled":false,"rental_uris":{"android":"levelo://app?vid=8bb2518f-55dd-4c1a-87b9-a20806215020","ios":"levelo://app?vid=8bb2518f-55dd-4c1a-87b9-a20806215020"},"vehicle_type_id":"4","last_reported":1727129355,"current_range_meters":38800,"station_id":"ce4bhpp2rcd13ifvqhgg","pricing_plan_id":"cebpf4jnsgd1na2vs0mg"},{"bike_id":"0b867cf0-0a3a-446c-b669-b298f9278571","system_id":"levelo_inurba_marseille","lat":43.26549,"lon":5.37296,"is_reserved":false,"is_disabled":false,"rental_uris":{"android":"levelo://app?vid=0b867cf0-0a3a-446c-b669-b298f9278571","ios":"levelo://app?vid=0b867cf0-0a3a-446c-b669-b298f9278571"},"vehicle_type_id":"4","last_reported":1727129355,"current_range_meters":38800,"station_id":"ce4bhg12rcd13ifvqf70","pricing_plan_id":"cebpf4jnsgd1na2vs0mg"},{"bike_id":"5f0b1244-d634-4717-ab1d-dd6db718fb6d","system_id":"levelo_inurba_marseille","lat":43.30803,"lon":5.43556,"is_reserved":false,"is_disabled":false,"rental_uris":{"android":"levelo://app?vid=5f0b1244-d634-4717-ab1d-dd6db718fb6d","ios":"levelo://app?vid=5f0b1244-d634-4717-ab1d-dd6db718fb6d"},"vehicle_type_id":"4","last_reported":1727129355,"current_range_meters":38800,"station_id":"ce4bhph2rcd13ifvqheg","pricing_plan_id":"cebpf4jnsgd1na2vs0mg"},{"bike_id":"195f0389-8525-419d-b9b7-07f958b4f1d0","system_id":"levelo_inurba_marseille","lat":43.30887,"lon":5.39637,"is_reserved":false,"is_disabled":false,"rental_uris":{"android":"levelo://app?vid=195f0389-8525-419d-b9b7-07f958b4f1d0","ios":"levelo://app?vid=195f0389-8525-419d-b9b7-07f958b4f1d0"},"vehicle_type_id":"4","last_reported":1727129355,"current_range_meters":27200,"station_id":"ce4bh012rcd13ifvqcv0","pricing_plan_id":"cebpf4jnsgd1na2vs0mg"},{"bike_id":"229ab557-cb9e-4461-94d1-6175270daf5b","system_id":"levelo_inurba_marseille","lat":43.299,"lon":5.43661,"is_reserved":false,"is_disabled":false,"rental_uris":{"android":"levelo://app?vid=229ab557-cb9e-4461-94d1-6175270daf5b","ios":"levelo://app?vid=229ab557-cb9e-4461-94d1-6175270daf5b"},"vehicle_type_id":"4","last_reported":1727129355,"current_range_meters":38800,"station_id":"ce4bhpp2rcd13ifvqhfg","pricing_plan_id":"cebpf4jnsgd1na2vs0mg"},{"bike_id":"ea1a9d5f-9623-4701-83a9-d4e239f87cbc","system_id":"levelo_inurba_marseille","lat":43.30263,"lon":5.40079,"is_reserved":false,"is_disabled":false,"rental_uris":{"android":"levelo://app?vid=ea1a9d5f-9623-4701-83a9-d4e239f87cbc","ios":"levelo://app?vid=ea1a9d5f-9623-4701-83a9-d4e239f87cbc"},"vehicle_type_id":"4","last_reported":1727129355,"current_range_meters":36800,"station_id":"ce4bgvh2rcd13ifvqcs0","pricing_plan_id":"cebpf4jnsgd1na2vs0mg"},{"bike_id":"499c0ced-b967-420d-8de7-21ec3fc392a9","system_id":"levelo_inurba_marseille","lat":43.31333,"lon":5.39688,"is_reserved":false,"is_disabled":false,"rental_uris":{"android":"levelo://app?vid=499c0ced-b967-420d-8de7-21ec3fc392a9","ios":"levelo://app?vid=499c0ced-b967-420d-8de7-21ec3fc392a9"},"vehicle_type_id":"4","last_reported":1727129355,"current_range_meters":38800,"station_id":"ce4bgvp2rcd13ifvqcu0","pricing_plan_id":"cebpf4jnsgd1na2vs0mg"},{"bike_id":"3b3d1df5-4a16-4b51-9480-2c333bc939e6","system_id":"levelo_inurba_marseille","lat":43.28466,"lon":5.35879,"is_reserved":false,"is_disabled":false,"rental_uris":{"android":"levelo://app?vid=3b3d1df5-4a16-4b51-9480-2c333bc939e6","ios":"levelo://app?vid=3b3d1df5-4a16-4b51-9480-2c333bc939e6"},"vehicle_type_id":"4","last_reported":1727129355,"current_range_meters":20400,"station_id":"ce4bhah2rcd13ifvqei0","pricing_plan_id":"cebpf4jnsgd1na2vs0mg"},{"bike_id":"8a36b205-5d39-425b-9431-3cbfd0b04638","system_id":"levelo_inurba_marseille","lat":43.31708,"lon":5.43709,"is_reserved":false,"is_disabled":false,"rental_uris":{"android":"levelo://app?vid=8a36b205-5d39-425b-9431-3cbfd0b04638","ios":"levelo://app?vid=8a36b205-5d39-425b-9431-3cbfd0b04638"},"vehicle_type_id":"4","last_reported":1727129355,"current_range_meters":12000,"station_id":"ce4bhp92rcd13ifvqhcg","pricing_plan_id":"cebpf4jnsgd1na2vs0mg"},{"bike_id":"6fe862fe-6846-4362-a714-f7750c1170d8","system_id":"levelo_inurba_marseille","lat":43.30642,"lon":5.40075,"is_reserved":false,"is_disabled":false,"rental_uris":{"android":"levelo://app?vid=6fe862fe-6846-4362-a714-f7750c1170d8","ios":"levelo://app?vid=6fe862fe-6846-4362-a714-f7750c1170d8"},"vehicle_type_id":"4","last_reported":1727129355,"current_range_meters":18000,"station_id":"ce4bh112rcd13ifvqda0","pricing_plan_id":"cebpf4jnsgd1na2vs0mg"},{"bike_id":"7dce752f-3feb-4b58-8a73-ae39e71c4e05","system_id":"levelo_inurba_marseille","lat":43.307927,"lon":5.381476,"is_reserved":false,"is_disabled":false,"rental_uris":{"android":"levelo://app?vid=7dce752f-3feb-4b58-8a73-ae39e71c4e05","ios":"levelo://app?vid=7dce752f-3feb-4b58-8a73-ae39e71c4e05"},"vehicle_type_id":"4","last_reported":1727129355,"current_range_meters":4400,"station_id":"ce4bgt12rcd13ifvqce0","pricing_plan_id":"cebpf4jnsgd1na2vs0mg"},{"bike_id":"bac21bf1-4541-484a-ad04-b5c0f02c4672","system_id":"levelo_inurba_marseille","lat":43.335453,"lon":5.410227,"is_reserved":false,"is_disabled":false,"rental_uris":{"android":"levelo://app?vid=bac21bf1-4541-484a-ad04-b5c0f02c4672","ios":"levelo://app?vid=bac21bf1-4541-484a-ad04-b5c0f02c4672"},"vehicle_type_id":"4","last_reported":1727129355,"current_range_meters":26000,"station_id":"ce4bhqh2rcd13ifvqhmg","pricing_plan_id":"cebpf4jnsgd1na2vs0mg"},{"bike_id":"c44a2d1f-0e1f-4194-afa0-989e14768908","system_id":"levelo_inurba_marseille","lat":43.31711,"lon":5.37764,"is_reserved":false,"is_disabled":false,"rental_uris":{"android":"levelo://app?vid=c44a2d1f-0e1f-4194-afa0-989e14768908","ios":"levelo://app?vid=c44a2d1f-0e1f-4194-afa0-989e14768908"},"vehicle_type_id":"4","last_reported":1727129355,"current_range_meters":37600,"station_id":"ce4bgth2rcd13ifvqch0","pricing_plan_id":"cebpf4jnsgd1na2vs0mg"},{"bike_id":"9aa06e38-009d-4bef-ab34-8652e7f20979","system_id":"levelo_inurba_marseille","lat":43.30249,"lon":5.40064,"is_reserved":false,"is_disabled":false,"rental_uris":{"android":"levelo://app?vid=9aa06e38-009d-4bef-ab34-8652e7f20979","ios":"levelo://app?vid=9aa06e38-009d-4bef-ab34-8652e7f20979"},"vehicle_type_id":"4","last_reported":1727129355,"current_range_meters":24800,"station_id":"ce4bgvh2rcd13ifvqcs0","pricing_plan_id":"cebpf4jnsgd1na2vs0mg"},{"bike_id":"20a042f1-81aa-4cde-8548-4f002e395336","system_id":"levelo_inurba_marseille","lat":43.31066,"lon":5.40086,"is_reserved":false,"is_disabled":false,"rental_uris":{"android":"levelo://app?vid=20a042f1-81aa-4cde-8548-4f002e395336","ios":"levelo://app?vid=20a042f1-81aa-4cde-8548-4f002e395336"},"vehicle_type_id":"4","last_reported":1727129355,"current_range_meters":27200,"station_id":"ce4bgvp2rcd13ifvqct0","pricing_plan_id":"cebpf4jnsgd1na2vs0mg"},{"bike_id":"df42beef-4b79-4e3d-8a5b-5d144604d004","system_id":"levelo_inurba_marseille","lat":43.24548,"lon":5.39526,"is_reserved":false,"is_disabled":false,"rental_uris":{"android":"levelo://app?vid=df42beef-4b79-4e3d-8a5b-5d144604d004","ios":"levelo://app?vid=df42beef-4b79-4e3d-8a5b-5d144604d004"},"vehicle_type_id":"4","last_reported":1727129355,"current_range_meters":38800,"station_id":"ce4bhlp2rcd13ifvqgjg","pricing_plan_id":"cebpf4jnsgd1na2vs0mg"},{"bike_id":"955a45ce-ee6e-43bd-b0f8-b99118776f58","system_id":"levelo_inurba_marseille","lat":43.31765,"lon":5.3902,"is_reserved":false,"is_disabled":false,"rental_uris":{"android":"levelo://app?vid=955a45ce-ee6e-43bd-b0f8-b99118776f58","ios":"levelo://app?vid=955a45ce-ee6e-43bd-b0f8-b99118776f58"},"vehicle_type_id":"4","last_reported":1727129355,"current_range_meters":9600,"station_id":"ce4bhqp2rcd13ifvqhng","pricing_plan_id":"cebpf4jnsgd1na2vs0mg"},{"bike_id":"63787d9b-be54-425a-afb4-9e90a9f49605","system_id":"levelo_inurba_marseille","lat":43.33607,"lon":5.41034,"is_reserved":false,"is_disabled":false,"rental_uris":{"android":"levelo://app?vid=63787d9b-be54-425a-afb4-9e90a9f49605","ios":"levelo://app?vid=63787d9b-be54-425a-afb4-9e90a9f49605"},"vehicle_type_id":"4","last_reported":1727129355,"current_range_meters":27600,"station_id":"ce4bhqh2rcd13ifvqhmg","pricing_plan_id":"cebpf4jnsgd1na2vs0mg"},{"bike_id":"8422990e-8823-4d96-af43-839cc39d19a0","system_id":"levelo_inurba_marseille","lat":43.27074,"lon":5.42285,"is_reserved":false,"is_disabled":false,"rental_uris":{"android":"levelo://app?vid=8422990e-8823-4d96-af43-839cc39d19a0","ios":"levelo://app?vid=8422990e-8823-4d96-af43-839cc39d19a0"},"vehicle_type_id":"4","last_reported":1727129355,"current_range_meters":38400,"station_id":"ce4bhk92rcd13ifvqgb0","pricing_plan_id":"cebpf4jnsgd1na2vs0mg"},{"bike_id":"e6ed4c9b-6970-4cb2-a069-b7fa26f2e077","system_id":"levelo_inurba_marseille","lat":43.3079,"lon":5.37661,"is_reserved":false,"is_disabled":false,"rental_uris":{"android":"levelo://app?vid=e6ed4c9b-6970-4cb2-a069-b7fa26f2e077","ios":"levelo://app?vid=e6ed4c9b-6970-4cb2-a069-b7fa26f2e077"},"vehicle_type_id":"4","last_reported":1727129355,"current_range_meters":12400,"station_id":"ce4bgv92rcd13ifvqcq0","pricing_plan_id":"cebpf4jnsgd1na2vs0mg"},{"bike_id":"2da6bb34-e6b8-4740-b6ca-62eda5452aec","system_id":"levelo_inurba_marseille","lat":43.25576,"lon":5.38243,"is_reserved":false,"is_disabled":false,"rental_uris":{"android":"levelo://app?vid=2da6bb34-e6b8-4740-b6ca-62eda5452aec","ios":"levelo://app?vid=2da6bb34-e6b8-4740-b6ca-62eda5452aec"},"vehicle_type_id":"4","last_reported":1727129355,"current_range_meters":38800,"station_id":"ce4bhih2rcd13ifvqfs0","pricing_plan_id":"cebpf4jnsgd1na2vs0mg"},{"bike_id":"8ea06fdf-0829-4de0-ad97-8a4d58343f95","system_id":"levelo_inurba_marseille","lat":43.29534,"lon":5.39398,"is_reserved":false,"is_disabled":false,"rental_uris":{"android":"levelo://app?vid=8ea06fdf-0829-4de0-ad97-8a4d58343f95","ios":"levelo://app?vid=8ea06fdf-0829-4de0-ad97-8a4d58343f95"},"vehicle_type_id":"4","last_reported":1727129355,"current_range_meters":26800,"station_id":"ce4bh292rcd13ifvqdf0","pricing_plan_id":"cebpf4jnsgd1na2vs0mg"},{"bike_id":"7470a4e5-70e7-46ac-a921-c05ce817deb6","system_id":"levelo_inurba_marseille","lat":43.23187,"lon":5.39989,"is_reserved":false,"is_disabled":false,"rental_uris":{"android":"levelo://app?vid=7470a4e5-70e7-46ac-a921-c05ce817deb6","ios":"levelo://app?vid=7470a4e5-70e7-46ac-a921-c05ce817deb6"},"vehicle_type_id":"4","last_reported":1727129355,"current_range_meters":38800,"station_id":"ce4bhn12rcd13ifvqgqg","pricing_plan_id":"cebpf4jnsgd1na2vs0mg"},{"bike_id":"531fcc15-d23e-4b5d-a8e6-a3d37e939f7e","system_id":"levelo_inurba_marseille","lat":43.27069,"lon":5.4228,"is_reserved":false,"is_disabled":false,"rental_uris":{"android":"levelo://app?vid=531fcc15-d23e-4b5d-a8e6-a3d37e939f7e","ios":"levelo://app?vid=531fcc15-d23e-4b5d-a8e6-a3d37e939f7e"},"vehicle_type_id":"4","last_reported":1727129355,"current_range_meters":36000,"station_id":"ce4bhk92rcd13ifvqgb0","pricing_plan_id":"cebpf4jnsgd1na2vs0mg"},{"bike_id":"e41c9cd9-0b50-43c6-9076-6cb8813bb20e","system_id":"levelo_inurba_marseille","lat":43.2455,"lon":5.39527,"is_reserved":false,"is_disabled":false,"rental_uris":{"android":"levelo://app?vid=e41c9cd9-0b50-43c6-9076-6cb8813bb20e","ios":"levelo://app?vid=e41c9cd9-0b50-43c6-9076-6cb8813bb20e"},"vehicle_type_id":"4","last_reported":1727129355,"current_range_meters":38800,"station_id":"ce4bhlp2rcd13ifvqgjg","pricing_plan_id":"cebpf4jnsgd1na2vs0mg"},{"bike_id":"ba398423-104c-4d17-851a-2a8001635d21","system_id":"levelo_inurba_marseille","lat":43.31183,"lon":5.38718,"is_reserved":false,"is_disabled":false,"rental_uris":{"android":"levelo://app?vid=ba398423-104c-4d17-851a-2a8001635d21","ios":"levelo://app?vid=ba398423-104c-4d17-851a-2a8001635d21"},"vehicle_type_id":"4","last_reported":1727129355,"current_range_meters":38800,"station_id":"ce4bgv12rcd13ifvqcp0","pricing_plan_id":"cebpf4jnsgd1na2vs0mg"},{"bike_id":"dbb2a794-7415-493d-9d34-8e7376479da6","system_id":"levelo_inurba_marseille","lat":43.29202,"lon":5.39324,"is_reserved":false,"is_disabled":false,"rental_uris":{"android":"levelo://app?vid=dbb2a794-7415-493d-9d34-8e7376479da6","ios":"levelo://app?vid=dbb2a794-7415-493d-9d34-8e7376479da6"},"vehicle_type_id":"4","last_reported":1727129355,"current_range_meters":32000,"station_id":"ce4bh192rcd13ifvqdd0","pricing_plan_id":"cebpf4jnsgd1na2vs0mg"},{"bike_id":"4117225d-fbf7-489f-a9f9-a7903758f15d","system_id":"levelo_inurba_marseille","lat":43.337444,"lon":5.374475,"is_reserved":false,"is_disabled":false,"rental_uris":{"android":"levelo://app?vid=4117225d-fbf7-489f-a9f9-a7903758f15d","ios":"levelo://app?vid=4117225d-fbf7-489f-a9f9-a7903758f15d"},"vehicle_type_id":"4","last_reported":1727129355,"current_range_meters":24400,"station_id":"","pricing_plan_id":"cebpf4jnsgd1na2vs0mg"},{"bike_id":"d0ec4f7a-ac0d-44fa-83b4-aeda2498d0bb","system_id":"levelo_inurba_marseille","lat":43.27918,"lon":5.39581,"is_reserved":false,"is_disabled":false,"rental_uris":{"android":"levelo://app?vid=d0ec4f7a-ac0d-44fa-83b4-aeda2498d0bb","ios":"levelo://app?vid=d0ec4f7a-ac0d-44fa-83b4-aeda2498d0bb"},"vehicle_type_id":"4","last_reported":1727129355,"current_range_meters":36400,"station_id":"ce4bhf92rcd13ifvqf40","pricing_plan_id":"cebpf4jnsgd1na2vs0mg"},{"bike_id":"b446cd64-b771-4a80-b34d-f5c22efde07b","system_id":"levelo_inurba_marseille","lat":43.26951,"lon":5.40258,"is_reserved":false,"is_disabled":false,"rental_uris":{"android":"levelo://app?vid=b446cd64-b771-4a80-b34d-f5c22efde07b","ios":"levelo://app?vid=b446cd64-b771-4a80-b34d-f5c22efde07b"},"vehicle_type_id":"4","last_reported":1727129355,"current_range_meters":18000,"station_id":"cjm6bp8fraef2m0cb0m0","pricing_plan_id":"cebpf4jnsgd1na2vs0mg"},{"bike_id":"d3d95288-22a3-477a-8b82-3d450f6a1bbc","system_id":"levelo_inurba_marseille","lat":43.28737,"lon":5.36096,"is_reserved":false,"is_disabled":false,"rental_uris":{"android":"levelo://app?vid=d3d95288-22a3-477a-8b82-3d450f6a1bbc","ios":"levelo://app?vid=d3d95288-22a3-477a-8b82-3d450f6a1bbc"},"vehicle_type_id":"4","last_reported":1727129355,"current_range_meters":6800,"station_id":"cki0cbj6b192h4jlfktg","pricing_plan_id":"cebpf4jnsgd1na2vs0mg"},{"bike_id":"79d58713-3a26-4a29-8b05-4e992aab1829","system_id":"levelo_inurba_marseille","lat":43.28155,"lon":5.42646,"is_reserved":false,"is_disabled":false,"rental_uris":{"android":"levelo://app?vid=79d58713-3a26-4a29-8b05-4e992aab1829","ios":"levelo://app?vid=79d58713-3a26-4a29-8b05-4e992aab1829"},"vehicle_type_id":"4","last_reported":1727129355,"current_range_meters":10800,"station_id":"ce4bhnh2rcd13ifvqgug","pricing_plan_id":"cebpf4jnsgd1na2vs0mg"},{"bike_id":"a1e6c73d-635c-4d18-aa26-00d9d8e42282","system_id":"levelo_inurba_marseille","lat":43.31225,"lon":5.36857,"is_reserved":false,"is_disabled":false,"rental_uris":{"android":"levelo://app?vid=a1e6c73d-635c-4d18-aa26-00d9d8e42282","ios":"levelo://app?vid=a1e6c73d-635c-4d18-aa26-00d9d8e42282"},"vehicle_type_id":"4","last_reported":1727129355,"current_range_meters":36000,"station_id":"ce4bgl92rcd13ifvqbq0","pricing_plan_id":"cebpf4jnsgd1na2vs0mg"},{"bike_id":"8034a22f-53a1-499f-851e-d3ef519a24b0","system_id":"levelo_inurba_marseille","lat":43.30644,"lon":5.40069,"is_reserved":false,"is_disabled":false,"rental_uris":{"android":"levelo://app?vid=8034a22f-53a1-499f-851e-d3ef519a24b0","ios":"levelo://app?vid=8034a22f-53a1-499f-851e-d3ef519a24b0"},"vehicle_type_id":"4","last_reported":1727129355,"current_range_meters":16800,"station_id":"ce4bh112rcd13ifvqda0","pricing_plan_id":"cebpf4jnsgd1na2vs0mg"},{"bike_id":"a697c666-c7db-4dd0-93e0-cd3cdc25783c","system_id":"levelo_inurba_marseille","lat":43.32655,"lon":5.40999,"is_reserved":false,"is_disabled":false,"rental_uris":{"android":"levelo://app?vid=a697c666-c7db-4dd0-93e0-cd3cdc25783c","ios":"levelo://app?vid=a697c666-c7db-4dd0-93e0-cd3cdc25783c"},"vehicle_type_id":"4","last_reported":1727129355,"current_range_meters":38800,"station_id":"ce4bhpp2rcd13ifvqhgg","pricing_plan_id":"cebpf4jnsgd1na2vs0mg"},{"bike_id":"8cf8eddb-e442-47b0-9c45-6088c76a1438","system_id":"levelo_inurba_marseille","lat":43.31758,"lon":5.39008,"is_reserved":false,"is_disabled":false,"rental_uris":{"android":"levelo://app?vid=8cf8eddb-e442-47b0-9c45-6088c76a1438","ios":"levelo://app?vid=8cf8eddb-e442-47b0-9c45-6088c76a1438"},"vehicle_type_id":"4","last_reported":1727129355,"current_range_meters":38400,"station_id":"ce4bhqp2rcd13ifvqhng","pricing_plan_id":"cebpf4jnsgd1na2vs0mg"},{"bike_id":"96a83bfe-c6b5-4256-89b6-ec36bdfaf970","system_id":"levelo_inurba_marseille","lat":43.26944,"lon":5.40263,"is_reserved":false,"is_disabled":false,"rental_uris":{"android":"levelo://app?vid=96a83bfe-c6b5-4256-89b6-ec36bdfaf970","ios":"levelo://app?vid=96a83bfe-c6b5-4256-89b6-ec36bdfaf970"},"vehicle_type_id":"4","last_reported":1727129355,"current_range_meters":29600,"station_id":"cjm6bp8fraef2m0cb0m0","pricing_plan_id":"cebpf4jnsgd1na2vs0mg"},{"bike_id":"fa9370f8-6949-4504-ae96-c94007ebf570","system_id":"levelo_inurba_marseille","lat":43.23976,"lon":5.36628,"is_reserved":false,"is_disabled":false,"rental_uris":{"android":"levelo://app?vid=fa9370f8-6949-4504-ae96-c94007ebf570","ios":"levelo://app?vid=fa9370f8-6949-4504-ae96-c94007ebf570"},"vehicle_type_id":"4","last_reported":1727129355,"current_range_meters":38800,"station_id":"ce4bhi12rcd13ifvqfp0","pricing_plan_id":"cebpf4jnsgd1na2vs0mg"},{"bike_id":"c7540a20-2066-4dfa-bad4-1b7db1035b9a","system_id":"levelo_inurba_marseille","lat":43.31533,"lon":5.38029,"is_reserved":false,"is_disabled":false,"rental_uris":{"android":"levelo://app?vid=c7540a20-2066-4dfa-bad4-1b7db1035b9a","ios":"levelo://app?vid=c7540a20-2066-4dfa-bad4-1b7db1035b9a"},"vehicle_type_id":"4","last_reported":1727129355,"current_range_meters":6400,"station_id":"ce4bhsp2rcd13ifvqi50","pricing_plan_id":"cebpf4jnsgd1na2vs0mg"},{"bike_id":"12554161-57d3-449e-82e3-5def79892b3d","system_id":"levelo_inurba_marseille","lat":43.28715,"lon":5.3999,"is_reserved":false,"is_disabled":false,"rental_uris":{"android":"levelo://app?vid=12554161-57d3-449e-82e3-5def79892b3d","ios":"levelo://app?vid=12554161-57d3-449e-82e3-5def79892b3d"},"vehicle_type_id":"4","last_reported":1727129355,"current_range_meters":38800,"station_id":"ce4bho92rcd13ifvqh3g","pricing_plan_id":"cebpf4jnsgd1na2vs0mg"},{"bike_id":"f14678bd-98aa-49c0-b0f8-e50c306aefc1","system_id":"levelo_inurba_marseille","lat":43.29029,"lon":5.38656,"is_reserved":false,"is_disabled":false,"rental_uris":{"android":"levelo://app?vid=f14678bd-98aa-49c0-b0f8-e50c306aefc1","ios":"levelo://app?vid=f14678bd-98aa-49c0-b0f8-e50c306aefc1"},"vehicle_type_id":"4","last_reported":1727129355,"current_range_meters":15200,"station_id":"ce4bh292rcd13ifvqdg0","pricing_plan_id":"cebpf4jnsgd1na2vs0mg"},{"bike_id":"053e2fd2-80c0-4086-919b-7ec7255e28a3","system_id":"levelo_inurba_marseille","lat":43.31117,"lon":5.37765,"is_reserved":false,"is_disabled":false,"rental_uris":{"android":"levelo://app?vid=053e2fd2-80c0-4086-919b-7ec7255e28a3","ios":"levelo://app?vid=053e2fd2-80c0-4086-919b-7ec7255e28a3"},"vehicle_type_id":"4","last_reported":1727129355,"current_range_meters":36800,"station_id":"ce4bgt92rcd13ifvqcg0","pricing_plan_id":"cebpf4jnsgd1na2vs0mg"},{"bike_id":"766f3b4d-74d7-4b4a-b44b-7c4ce308308f","system_id":"levelo_inurba_marseille","lat":43.2887,"lon":5.35983,"is_reserved":false,"is_disabled":false,"rental_uris":{"android":"levelo://app?vid=766f3b4d-74d7-4b4a-b44b-7c4ce308308f","ios":"levelo://app?vid=766f3b4d-74d7-4b4a-b44b-7c4ce308308f"},"vehicle_type_id":"4","last_reported":1727129355,"current_range_meters":25600,"station_id":"","pricing_plan_id":"cebpf4jnsgd1na2vs0mg"},{"bike_id":"67f25e71-d398-4629-b141-dc877cec4c4c","system_id":"levelo_inurba_marseille","lat":43.26017,"lon":5.37587,"is_reserved":false,"is_disabled":false,"rental_uris":{"android":"levelo://app?vid=67f25e71-d398-4629-b141-dc877cec4c4c","ios":"levelo://app?vid=67f25e71-d398-4629-b141-dc877cec4c4c"},"vehicle_type_id":"4","last_reported":1727129355,"current_range_meters":6800,"station_id":"ce4bhgh2rcd13ifvqfa0","pricing_plan_id":"cebpf4jnsgd1na2vs0mg"},{"bike_id":"a41f78ca-c56e-4015-a153-aa8c5ee44fd7","system_id":"levelo_inurba_marseille","lat":43.31061,"lon":5.38347,"is_reserved":false,"is_disabled":false,"rental_uris":{"android":"levelo://app?vid=a41f78ca-c56e-4015-a153-aa8c5ee44fd7","ios":"levelo://app?vid=a41f78ca-c56e-4015-a153-aa8c5ee44fd7"},"vehicle_type_id":"4","last_reported":1727129355,"current_range_meters":38800,"station_id":"ce4bgv92rcd13ifvqcr0","pricing_plan_id":"cebpf4jnsgd1na2vs0mg"},{"bike_id":"d171a2b3-6372-4af1-8a11-5061d298d43a","system_id":"levelo_inurba_marseille","lat":43.31119,"lon":5.37766,"is_reserved":false,"is_disabled":false,"rental_uris":{"android":"levelo://app?vid=d171a2b3-6372-4af1-8a11-5061d298d43a","ios":"levelo://app?vid=d171a2b3-6372-4af1-8a11-5061d298d43a"},"vehicle_type_id":"4","last_reported":1727129355,"current_range_meters":38800,"station_id":"ce4bgt92rcd13ifvqcg0","pricing_plan_id":"cebpf4jnsgd1na2vs0mg"},{"bike_id":"5a1521a8-5072-4ef0-818c-b1a7c293acca","system_id":"levelo_inurba_marseille","lat":43.26549,"lon":5.37287,"is_reserved":false,"is_disabled":false,"rental_uris":{"android":"levelo://app?vid=5a1521a8-5072-4ef0-818c-b1a7c293acca","ios":"levelo://app?vid=5a1521a8-5072-4ef0-818c-b1a7c293acca"},"vehicle_type_id":"4","last_reported":1727129355,"current_range_meters":38800,"station_id":"ce4bhg12rcd13ifvqf70","pricing_plan_id":"cebpf4jnsgd1na2vs0mg"},{"bike_id":"84bc8a4f-4e89-4351-a1ab-21979fbfe8de","system_id":"levelo_inurba_marseille","lat":43.24662,"lon":5.38161,"is_reserved":false,"is_disabled":false,"rental_uris":{"android":"levelo://app?vid=84bc8a4f-4e89-4351-a1ab-21979fbfe8de","ios":"levelo://app?vid=84bc8a4f-4e89-4351-a1ab-21979fbfe8de"},"vehicle_type_id":"4","last_reported":1727129355,"current_range_meters":38800,"station_id":"ce4bhih2rcd13ifvqfr0","pricing_plan_id":"cebpf4jnsgd1na2vs0mg"},{"bike_id":"1a108c67-bfd6-4ec1-bbd7-f904000be4ea","system_id":"levelo_inurba_marseille","lat":43.2873,"lon":5.36079,"is_reserved":false,"is_disabled":false,"rental_uris":{"android":"levelo://app?vid=1a108c67-bfd6-4ec1-bbd7-f904000be4ea","ios":"levelo://app?vid=1a108c67-bfd6-4ec1-bbd7-f904000be4ea"},"vehicle_type_id":"4","last_reported":1727129355,"current_range_meters":19200,"station_id":"cki0cbj6b192h4jlfktg","pricing_plan_id":"cebpf4jnsgd1na2vs0mg"},{"bike_id":"2d47d9ef-ddfa-41da-88c1-6cc4349377d1","system_id":"levelo_inurba_marseille","lat":43.33025,"lon":5.39046,"is_reserved":false,"is_disabled":false,"rental_uris":{"android":"levelo://app?vid=2d47d9ef-ddfa-41da-88c1-6cc4349377d1","ios":"levelo://app?vid=2d47d9ef-ddfa-41da-88c1-6cc4349377d1"},"vehicle_type_id":"4","last_reported":1727129355,"current_range_meters":22400,"station_id":"ce4bhr92rcd13ifvqhrg","pricing_plan_id":"cebpf4jnsgd1na2vs0mg"},{"bike_id":"3ebaaaec-15d2-494c-ab9e-13e8bcbe1874","system_id":"levelo_inurba_marseille","lat":43.29276,"lon":5.3686,"is_reserved":false,"is_disabled":false,"rental_uris":{"android":"levelo://app?vid=3ebaaaec-15d2-494c-ab9e-13e8bcbe1874","ios":"levelo://app?vid=3ebaaaec-15d2-494c-ab9e-13e8bcbe1874"},"vehicle_type_id":"4","last_reported":1727129355,"current_range_meters":28400,"station_id":"ce4bhbp2rcd13ifvqesg","pricing_plan_id":"cebpf4jnsgd1na2vs0mg"},{"bike_id":"0acb8fda-8c8b-45d6-a605-e76d40778e66","system_id":"levelo_inurba_marseille","lat":43.28466,"lon":5.35887,"is_reserved":false,"is_disabled":false,"rental_uris":{"android":"levelo://app?vid=0acb8fda-8c8b-45d6-a605-e76d40778e66","ios":"levelo://app?vid=0acb8fda-8c8b-45d6-a605-e76d40778e66"},"vehicle_type_id":"4","last_reported":1727129355,"current_range_meters":35600,"station_id":"ce4bhah2rcd13ifvqei0","pricing_plan_id":"cebpf4jnsgd1na2vs0mg"},{"bike_id":"84bfa327-5931-4fe5-98dd-b4cee613801e","system_id":"levelo_inurba_marseille","lat":43.28677,"lon":5.38663,"is_reserved":false,"is_disabled":false,"rental_uris":{"android":"levelo://app?vid=84bfa327-5931-4fe5-98dd-b4cee613801e","ios":"levelo://app?vid=84bfa327-5931-4fe5-98dd-b4cee613801e"},"vehicle_type_id":"4","last_reported":1727129355,"current_range_meters":40000,"station_id":"ce4bh492rcd13ifvqdug","pricing_plan_id":"cebpf4jnsgd1na2vs0mg"},{"bike_id":"57be9e58-b1b2-43d9-9f58-d16597d1070b","system_id":"levelo_inurba_marseille","lat":43.28697,"lon":5.3738,"is_reserved":false,"is_disabled":false,"rental_uris":{"android":"levelo://app?vid=57be9e58-b1b2-43d9-9f58-d16597d1070b","ios":"levelo://app?vid=57be9e58-b1b2-43d9-9f58-d16597d1070b"},"vehicle_type_id":"4","last_reported":1727129355,"current_range_meters":36800,"station_id":"ce4bh3p2rcd13ifvqdq0","pricing_plan_id":"cebpf4jnsgd1na2vs0mg"},{"bike_id":"243acbb2-b7c1-4cd9-af3a-99bdf9b601de","system_id":"levelo_inurba_marseille","lat":43.30632,"lon":5.40069,"is_reserved":false,"is_disabled":false,"rental_uris":{"android":"levelo://app?vid=243acbb2-b7c1-4cd9-af3a-99bdf9b601de","ios":"levelo://app?vid=243acbb2-b7c1-4cd9-af3a-99bdf9b601de"},"vehicle_type_id":"4","last_reported":1727129355,"current_range_meters":10800,"station_id":"ce4bh112rcd13ifvqda0","pricing_plan_id":"cebpf4jnsgd1na2vs0mg"},{"bike_id":"61bd236a-fb12-4a4b-98e9-490ae0b82a81","system_id":"levelo_inurba_marseille","lat":43.27918,"lon":5.39577,"is_reserved":false,"is_disabled":false,"rental_uris":{"android":"levelo://app?vid=61bd236a-fb12-4a4b-98e9-490ae0b82a81","ios":"levelo://app?vid=61bd236a-fb12-4a4b-98e9-490ae0b82a81"},"vehicle_type_id":"4","last_reported":1727129355,"current_range_meters":24000,"station_id":"ce4bhf92rcd13ifvqf40","pricing_plan_id":"cebpf4jnsgd1na2vs0mg"},{"bike_id":"81ea2171-f6ad-45eb-a199-d58fb107d910","system_id":"levelo_inurba_marseille","lat":43.28442,"lon":5.39187,"is_reserved":false,"is_disabled":false,"rental_uris":{"android":"levelo://app?vid=81ea2171-f6ad-45eb-a199-d58fb107d910","ios":"levelo://app?vid=81ea2171-f6ad-45eb-a199-d58fb107d910"},"vehicle_type_id":"4","last_reported":1727129355,"current_range_meters":16400,"station_id":"ce4bhoh2rcd13ifvqh5g","pricing_plan_id":"cebpf4jnsgd1na2vs0mg"},{"bike_id":"6ed3e83e-2342-4930-89f5-17f7fe1002ec","system_id":"levelo_inurba_marseille","lat":43.28432,"lon":5.39182,"is_reserved":false,"is_disabled":false,"rental_uris":{"android":"levelo://app?vid=6ed3e83e-2342-4930-89f5-17f7fe1002ec","ios":"levelo://app?vid=6ed3e83e-2342-4930-89f5-17f7fe1002ec"},"vehicle_type_id":"4","last_reported":1727129355,"current_range_meters":38800,"station_id":"ce4bhoh2rcd13ifvqh5g","pricing_plan_id":"cebpf4jnsgd1na2vs0mg"},{"bike_id":"5a13534e-4fda-4d78-846c-f529c165d12f","system_id":"levelo_inurba_marseille","lat":43.287212,"lon":5.37897,"is_reserved":false,"is_disabled":false,"rental_uris":{"android":"levelo://app?vid=5a13534e-4fda-4d78-846c-f529c165d12f","ios":"levelo://app?vid=5a13534e-4fda-4d78-846c-f529c165d12f"},"vehicle_type_id":"4","last_reported":1727129355,"current_range_meters":36800,"station_id":"ce4bgup2rcd13ifvqco0","pricing_plan_id":"cebpf4jnsgd1na2vs0mg"},{"bike_id":"666624a4-1ff9-40c1-90cd-a2413de224c1","system_id":"levelo_inurba_marseille","lat":43.27922,"lon":5.39575,"is_reserved":false,"is_disabled":false,"rental_uris":{"android":"levelo://app?vid=666624a4-1ff9-40c1-90cd-a2413de224c1","ios":"levelo://app?vid=666624a4-1ff9-40c1-90cd-a2413de224c1"},"vehicle_type_id":"4","last_reported":1727129355,"current_range_meters":8000,"station_id":"ce4bhf92rcd13ifvqf40","pricing_plan_id":"cebpf4jnsgd1na2vs0mg"},{"bike_id":"4cbcc294-5468-41c5-bc38-42bc04c7066d","system_id":"levelo_inurba_marseille","lat":43.29593,"lon":5.38102,"is_reserved":false,"is_disabled":false,"rental_uris":{"android":"levelo://app?vid=4cbcc294-5468-41c5-bc38-42bc04c7066d","ios":"levelo://app?vid=4cbcc294-5468-41c5-bc38-42bc04c7066d"},"vehicle_type_id":"4","last_reported":1727129355,"current_range_meters":17200,"station_id":"ce4bgl12rcd13ifvqbo0","pricing_plan_id":"cebpf4jnsgd1na2vs0mg"},{"bike_id":"cd5c5922-cbcb-4dea-bad7-5c835bfd2ef2","system_id":"levelo_inurba_marseille","lat":43.31692,"lon":5.40455,"is_reserved":false,"is_disabled":false,"rental_uris":{"android":"levelo://app?vid=cd5c5922-cbcb-4dea-bad7-5c835bfd2ef2","ios":"levelo://app?vid=cd5c5922-cbcb-4dea-bad7-5c835bfd2ef2"},"vehicle_type_id":"4","last_reported":1727129355,"current_range_meters":38800,"station_id":"ce4bh012rcd13ifvqd00","pricing_plan_id":"cebpf4jnsgd1na2vs0mg"},{"bike_id":"331f2b2b-288a-4317-9752-d8cc2c6dc0bf","system_id":"levelo_inurba_marseille","lat":43.286682,"lon":5.386668,"is_reserved":false,"is_disabled":false,"rental_uris":{"android":"levelo://app?vid=331f2b2b-288a-4317-9752-d8cc2c6dc0bf","ios":"levelo://app?vid=331f2b2b-288a-4317-9752-d8cc2c6dc0bf"},"vehicle_type_id":"4","last_reported":1727129355,"current_range_meters":9600,"station_id":"ce4bh492rcd13ifvqdug","pricing_plan_id":"cebpf4jnsgd1na2vs0mg"},{"bike_id":"695aad5b-d024-4f0e-ae46-a715fe638d1f","system_id":"levelo_inurba_marseille","lat":43.30884,"lon":5.3963,"is_reserved":false,"is_disabled":false,"rental_uris":{"android":"levelo://app?vid=695aad5b-d024-4f0e-ae46-a715fe638d1f","ios":"levelo://app?vid=695aad5b-d024-4f0e-ae46-a715fe638d1f"},"vehicle_type_id":"4","last_reported":1727129355,"current_range_meters":30000,"station_id":"ce4bh012rcd13ifvqcv0","pricing_plan_id":"cebpf4jnsgd1na2vs0mg"},{"bike_id":"36c416da-9158-44af-aa3a-06b103bea7bf","system_id":"levelo_inurba_marseille","lat":43.337444,"lon":5.374475,"is_reserved":false,"is_disabled":false,"rental_uris":{"android":"levelo://app?vid=36c416da-9158-44af-aa3a-06b103bea7bf","ios":"levelo://app?vid=36c416da-9158-44af-aa3a-06b103bea7bf"},"vehicle_type_id":"4","last_reported":1727129355,"current_range_meters":22000,"station_id":"","pricing_plan_id":"cebpf4jnsgd1na2vs0mg"},{"bike_id":"69b47e2b-bda0-4c38-b621-7a39e163b724","system_id":"levelo_inurba_marseille","lat":43.29053,"lon":5.35908,"is_reserved":false,"is_disabled":false,"rental_uris":{"android":"levelo://app?vid=69b47e2b-bda0-4c38-b621-7a39e163b724","ios":"levelo://app?vid=69b47e2b-bda0-4c38-b621-7a39e163b724"},"vehicle_type_id":"4","last_reported":1727129355,"current_range_meters":18000,"station_id":"ce4bha92rcd13ifvqeg0","pricing_plan_id":"cebpf4jnsgd1na2vs0mg"},{"bike_id":"705754a9-8db5-4905-a726-ce16bab725f2","system_id":"levelo_inurba_marseille","lat":43.28728,"lon":5.3608,"is_reserved":false,"is_disabled":false,"rental_uris":{"android":"levelo://app?vid=705754a9-8db5-4905-a726-ce16bab725f2","ios":"levelo://app?vid=705754a9-8db5-4905-a726-ce16bab725f2"},"vehicle_type_id":"4","last_reported":1727129355,"current_range_meters":4400,"station_id":"cki0cbj6b192h4jlfktg","pricing_plan_id":"cebpf4jnsgd1na2vs0mg"},{"bike_id":"518d06cf-dc29-4699-9d32-9d3b18d804a9","system_id":"levelo_inurba_marseille","lat":43.28269,"lon":5.3506,"is_reserved":false,"is_disabled":false,"rental_uris":{"android":"levelo://app?vid=518d06cf-dc29-4699-9d32-9d3b18d804a9","ios":"levelo://app?vid=518d06cf-dc29-4699-9d32-9d3b18d804a9"},"vehicle_type_id":"4","last_reported":1727129355,"current_range_meters":36800,"station_id":"ce4bhbp2rcd13ifvqerg","pricing_plan_id":"cebpf4jnsgd1na2vs0mg"},{"bike_id":"8b71f704-7b9a-430f-bacd-8e6c45ee02b1","system_id":"levelo_inurba_marseille","lat":43.29898,"lon":5.43667,"is_reserved":false,"is_disabled":false,"rental_uris":{"android":"levelo://app?vid=8b71f704-7b9a-430f-bacd-8e6c45ee02b1","ios":"levelo://app?vid=8b71f704-7b9a-430f-bacd-8e6c45ee02b1"},"vehicle_type_id":"4","last_reported":1727129355,"current_range_meters":28400,"station_id":"ce4bhpp2rcd13ifvqhfg","pricing_plan_id":"cebpf4jnsgd1na2vs0mg"},{"bike_id":"ae2cb518-dc3d-4204-839c-ebf3a10a9627","system_id":"levelo_inurba_marseille","lat":43.299,"lon":5.43664,"is_reserved":false,"is_disabled":false,"rental_uris":{"android":"levelo://app?vid=ae2cb518-dc3d-4204-839c-ebf3a10a9627","ios":"levelo://app?vid=ae2cb518-dc3d-4204-839c-ebf3a10a9627"},"vehicle_type_id":"4","last_reported":1727129355,"current_range_meters":8000,"station_id":"ce4bhpp2rcd13ifvqhfg","pricing_plan_id":"cebpf4jnsgd1na2vs0mg"},{"bike_id":"149b26ed-a813-4c7b-873e-974f4887237c","system_id":"levelo_inurba_marseille","lat":43.28667,"lon":5.36348,"is_reserved":false,"is_disabled":false,"rental_uris":{"android":"levelo://app?vid=149b26ed-a813-4c7b-873e-974f4887237c","ios":"levelo://app?vid=149b26ed-a813-4c7b-873e-974f4887237c"},"vehicle_type_id":"4","last_reported":1727129355,"current_range_meters":38800,"station_id":"ce4bhah2rcd13ifvqej0","pricing_plan_id":"cebpf4jnsgd1na2vs0mg"},{"bike_id":"d5f5db2f-2c3d-4046-a044-391b3f72b76d","system_id":"levelo_inurba_marseille","lat":43.32366,"lon":5.38881,"is_reserved":false,"is_disabled":false,"rental_uris":{"android":"levelo://app?vid=d5f5db2f-2c3d-4046-a044-391b3f72b76d","ios":"levelo://app?vid=d5f5db2f-2c3d-4046-a044-391b3f72b76d"},"vehicle_type_id":"4","last_reported":1727129355,"current_range_meters":19600,"station_id":"ce4bhqp2rcd13ifvqhog","pricing_plan_id":"cebpf4jnsgd1na2vs0mg"},{"bike_id":"94576bef-1880-4696-97ad-1a3c62b80871","system_id":"levelo_inurba_marseille","lat":43.31268,"lon":5.40172,"is_reserved":false,"is_disabled":false,"rental_uris":{"android":"levelo://app?vid=94576bef-1880-4696-97ad-1a3c62b80871","ios":"levelo://app?vid=94576bef-1880-4696-97ad-1a3c62b80871"},"vehicle_type_id":"4","last_reported":1727129355,"current_range_meters":25600,"station_id":"ce4bh092rcd13ifvqd30","pricing_plan_id":"cebpf4jnsgd1na2vs0mg"},{"bike_id":"5abf3738-3056-45d0-ad36-b5f63eb6c7bd","system_id":"levelo_inurba_marseille","lat":43.31717,"lon":5.43696,"is_reserved":false,"is_disabled":false,"rental_uris":{"android":"levelo://app?vid=5abf3738-3056-45d0-ad36-b5f63eb6c7bd","ios":"levelo://app?vid=5abf3738-3056-45d0-ad36-b5f63eb6c7bd"},"vehicle_type_id":"4","last_reported":1727129355,"current_range_meters":19200,"station_id":"ce4bhp92rcd13ifvqhcg","pricing_plan_id":"cebpf4jnsgd1na2vs0mg"},{"bike_id":"6e942756-6f8b-4979-89fc-ce9bf3b8c787","system_id":"levelo_inurba_marseille","lat":43.28152,"lon":5.42642,"is_reserved":false,"is_disabled":false,"rental_uris":{"android":"levelo://app?vid=6e942756-6f8b-4979-89fc-ce9bf3b8c787","ios":"levelo://app?vid=6e942756-6f8b-4979-89fc-ce9bf3b8c787"},"vehicle_type_id":"4","last_reported":1727129355,"current_range_meters":8400,"station_id":"ce4bhnh2rcd13ifvqgug","pricing_plan_id":"cebpf4jnsgd1na2vs0mg"},{"bike_id":"13e5798c-54fe-493c-b8e9-efaf9c6baa3e","system_id":"levelo_inurba_marseille","lat":43.28352,"lon":5.38111,"is_reserved":false,"is_disabled":false,"rental_uris":{"android":"levelo://app?vid=13e5798c-54fe-493c-b8e9-efaf9c6baa3e","ios":"levelo://app?vid=13e5798c-54fe-493c-b8e9-efaf9c6baa3e"},"vehicle_type_id":"4","last_reported":1727129355,"current_range_meters":38800,"station_id":"ce4bh412rcd13ifvqdr0","pricing_plan_id":"cebpf4jnsgd1na2vs0mg"},{"bike_id":"ad6dcd37-dd45-4aed-b7e0-83a69504887f","system_id":"levelo_inurba_marseille","lat":43.31116,"lon":5.37764,"is_reserved":false,"is_disabled":false,"rental_uris":{"android":"levelo://app?vid=ad6dcd37-dd45-4aed-b7e0-83a69504887f","ios":"levelo://app?vid=ad6dcd37-dd45-4aed-b7e0-83a69504887f"},"vehicle_type_id":"4","last_reported":1727129355,"current_range_meters":38000,"station_id":"ce4bgt92rcd13ifvqcg0","pricing_plan_id":"cebpf4jnsgd1na2vs0mg"},{"bike_id":"14e2b4d7-15c7-44a0-b5cd-f0d7c3aeb754","system_id":"levelo_inurba_marseille","lat":43.23062,"lon":5.35496,"is_reserved":false,"is_disabled":false,"rental_uris":{"android":"levelo://app?vid=14e2b4d7-15c7-44a0-b5cd-f0d7c3aeb754","ios":"levelo://app?vid=14e2b4d7-15c7-44a0-b5cd-f0d7c3aeb754"},"vehicle_type_id":"4","last_reported":1727129355,"current_range_meters":38800,"station_id":"cpo3342slgdg3j2ifvpg","pricing_plan_id":"cebpf4jnsgd1na2vs0mg"},{"bike_id":"db1de5a4-3e82-4159-b084-9011fd5c09b6","system_id":"levelo_inurba_marseille","lat":43.3122,"lon":5.36858,"is_reserved":false,"is_disabled":false,"rental_uris":{"android":"levelo://app?vid=db1de5a4-3e82-4159-b084-9011fd5c09b6","ios":"levelo://app?vid=db1de5a4-3e82-4159-b084-9011fd5c09b6"},"vehicle_type_id":"4","last_reported":1727129355,"current_range_meters":29600,"station_id":"ce4bgl92rcd13ifvqbq0","pricing_plan_id":"cebpf4jnsgd1na2vs0mg"},{"bike_id":"37600934-b748-4e47-8e8e-ed9903a7d50e","system_id":"levelo_inurba_marseille","lat":43.299582,"lon":5.413242,"is_reserved":false,"is_disabled":false,"rental_uris":{"android":"levelo://app?vid=37600934-b748-4e47-8e8e-ed9903a7d50e","ios":"levelo://app?vid=37600934-b748-4e47-8e8e-ed9903a7d50e"},"vehicle_type_id":"4","last_reported":1727129355,"current_range_meters":17200,"station_id":"ce4bhp12rcd13ifvqh9g","pricing_plan_id":"cebpf4jnsgd1na2vs0mg"},{"bike_id":"2df36696-7216-40f5-b66e-cbe4ccac6e06","system_id":"levelo_inurba_marseille","lat":43.31326,"lon":5.39691,"is_reserved":false,"is_disabled":false,"rental_uris":{"android":"levelo://app?vid=2df36696-7216-40f5-b66e-cbe4ccac6e06","ios":"levelo://app?vid=2df36696-7216-40f5-b66e-cbe4ccac6e06"},"vehicle_type_id":"4","last_reported":1727129355,"current_range_meters":8000,"station_id":"ce4bgvp2rcd13ifvqcu0","pricing_plan_id":"cebpf4jnsgd1na2vs0mg"},{"bike_id":"bc7057cf-d45d-4fdb-8cda-4aabcd98acd7","system_id":"levelo_inurba_marseille","lat":43.30878,"lon":5.39636,"is_reserved":false,"is_disabled":false,"rental_uris":{"android":"levelo://app?vid=bc7057cf-d45d-4fdb-8cda-4aabcd98acd7","ios":"levelo://app?vid=bc7057cf-d45d-4fdb-8cda-4aabcd98acd7"},"vehicle_type_id":"4","last_reported":1727129355,"current_range_meters":26800,"station_id":"ce4bh012rcd13ifvqcv0","pricing_plan_id":"cebpf4jnsgd1na2vs0mg"},{"bike_id":"820c9c82-3096-4a28-be07-c905ef87c796","system_id":"levelo_inurba_marseille","lat":43.291963,"lon":5.393199,"is_reserved":false,"is_disabled":false,"rental_uris":{"android":"levelo://app?vid=820c9c82-3096-4a28-be07-c905ef87c796","ios":"levelo://app?vid=820c9c82-3096-4a28-be07-c905ef87c796"},"vehicle_type_id":"4","last_reported":1727129355,"current_range_meters":32000,"station_id":"ce4bh192rcd13ifvqdd0","pricing_plan_id":"cebpf4jnsgd1na2vs0mg"},{"bike_id":"08567dec-3780-4e86-b270-87786a078387","system_id":"levelo_inurba_marseille","lat":43.23962,"lon":5.36631,"is_reserved":false,"is_disabled":false,"rental_uris":{"android":"levelo://app?vid=08567dec-3780-4e86-b270-87786a078387","ios":"levelo://app?vid=08567dec-3780-4e86-b270-87786a078387"},"vehicle_type_id":"4","last_reported":1727129355,"current_range_meters":38800,"station_id":"ce4bhi12rcd13ifvqfp0","pricing_plan_id":"cebpf4jnsgd1na2vs0mg"},{"bike_id":"4a921609-b873-4d64-8107-fc9e7d02bfb7","system_id":"levelo_inurba_marseille","lat":43.28658,"lon":5.36354,"is_reserved":false,"is_disabled":false,"rental_uris":{"android":"levelo://app?vid=4a921609-b873-4d64-8107-fc9e7d02bfb7","ios":"levelo://app?vid=4a921609-b873-4d64-8107-fc9e7d02bfb7"},"vehicle_type_id":"4","last_reported":1727129355,"current_range_meters":10800,"station_id":"ce4bhah2rcd13ifvqej0","pricing_plan_id":"cebpf4jnsgd1na2vs0mg"},{"bike_id":"4311ad07-fe17-44e4-8154-398daa141b11","system_id":"levelo_inurba_marseille","lat":43.31169,"lon":5.38712,"is_reserved":false,"is_disabled":false,"rental_uris":{"android":"levelo://app?vid=4311ad07-fe17-44e4-8154-398daa141b11","ios":"levelo://app?vid=4311ad07-fe17-44e4-8154-398daa141b11"},"vehicle_type_id":"4","last_reported":1727129355,"current_range_meters":24000,"station_id":"ce4bgv12rcd13ifvqcp0","pricing_plan_id":"cebpf4jnsgd1na2vs0mg"},{"bike_id":"c7923aaa-b6ba-4fdb-b087-5e25a988d85a","system_id":"levelo_inurba_marseille","lat":43.32299,"lon":5.38269,"is_reserved":false,"is_disabled":false,"rental_uris":{"android":"levelo://app?vid=c7923aaa-b6ba-4fdb-b087-5e25a988d85a","ios":"levelo://app?vid=c7923aaa-b6ba-4fdb-b087-5e25a988d85a"},"vehicle_type_id":"4","last_reported":1727129355,"current_range_meters":22800,"station_id":"ce4bhr12rcd13ifvqhqg","pricing_plan_id":"cebpf4jnsgd1na2vs0mg"},{"bike_id":"6dc5605e-09f8-4fbc-9de5-5257297ecd3c","system_id":"levelo_inurba_marseille","lat":43.28361,"lon":5.38638,"is_reserved":false,"is_disabled":false,"rental_uris":{"android":"levelo://app?vid=6dc5605e-09f8-4fbc-9de5-5257297ecd3c","ios":"levelo://app?vid=6dc5605e-09f8-4fbc-9de5-5257297ecd3c"},"vehicle_type_id":"4","last_reported":1727129355,"current_range_meters":24000,"station_id":"ce4bh492rcd13ifvqdvg","pricing_plan_id":"cebpf4jnsgd1na2vs0mg"},{"bike_id":"8de257a6-527f-4f56-9966-7ef317a791a4","system_id":"levelo_inurba_marseille","lat":43.23197,"lon":5.35553,"is_reserved":false,"is_disabled":false,"rental_uris":{"android":"levelo://app?vid=8de257a6-527f-4f56-9966-7ef317a791a4","ios":"levelo://app?vid=8de257a6-527f-4f56-9966-7ef317a791a4"},"vehicle_type_id":"4","last_reported":1727129355,"current_range_meters":21600,"station_id":"ce4bhu92rcd13ifvqi70","pricing_plan_id":"cebpf4jnsgd1na2vs0mg"},{"bike_id":"39b0113d-7075-417f-be9c-135964556a2b","system_id":"levelo_inurba_marseille","lat":43.30192,"lon":5.36618,"is_reserved":false,"is_disabled":false,"rental_uris":{"android":"levelo://app?vid=39b0113d-7075-417f-be9c-135964556a2b","ios":"levelo://app?vid=39b0113d-7075-417f-be9c-135964556a2b"},"vehicle_type_id":"4","last_reported":1727129355,"current_range_meters":24400,"station_id":"ce4bgrh2rcd13ifvqc8g","pricing_plan_id":"cebpf4jnsgd1na2vs0mg"},{"bike_id":"afc32db5-7aad-4081-80d2-6d75246265f1","system_id":"levelo_inurba_marseille","lat":43.29625,"lon":5.3717,"is_reserved":false,"is_disabled":false,"rental_uris":{"android":"levelo://app?vid=afc32db5-7aad-4081-80d2-6d75246265f1","ios":"levelo://app?vid=afc32db5-7aad-4081-80d2-6d75246265f1"},"vehicle_type_id":"4","last_reported":1727129355,"current_range_meters":26000,"station_id":"ce4bgnh2rcd13ifvqc0g","pricing_plan_id":"cebpf4jnsgd1na2vs0mg"},{"bike_id":"8e57875d-47df-4003-a4ed-7ca82be29146","system_id":"levelo_inurba_marseille","lat":43.30646,"lon":5.40099,"is_reserved":false,"is_disabled":false,"rental_uris":{"android":"levelo://app?vid=8e57875d-47df-4003-a4ed-7ca82be29146","ios":"levelo://app?vid=8e57875d-47df-4003-a4ed-7ca82be29146"},"vehicle_type_id":"4","last_reported":1727129355,"current_range_meters":32000,"station_id":"ce4bh112rcd13ifvqda0","pricing_plan_id":"cebpf4jnsgd1na2vs0mg"},{"bike_id":"118c6c57-3f6b-4df6-a589-d569a7829f38","system_id":"levelo_inurba_marseille","lat":43.32551,"lon":5.41448,"is_reserved":false,"is_disabled":false,"rental_uris":{"android":"levelo://app?vid=118c6c57-3f6b-4df6-a589-d569a7829f38","ios":"levelo://app?vid=118c6c57-3f6b-4df6-a589-d569a7829f38"},"vehicle_type_id":"4","last_reported":1727129355,"current_range_meters":22400,"station_id":"ce4bhq12rcd13ifvqhhg","pricing_plan_id":"cebpf4jnsgd1na2vs0mg"},{"bike_id":"80e593fc-7480-466c-a9ef-6d5ddec9f9c5","system_id":"levelo_inurba_marseille","lat":43.30575,"lon":5.3746,"is_reserved":false,"is_disabled":false,"rental_uris":{"android":"levelo://app?vid=80e593fc-7480-466c-a9ef-6d5ddec9f9c5","ios":"levelo://app?vid=80e593fc-7480-466c-a9ef-6d5ddec9f9c5"},"vehicle_type_id":"4","last_reported":1727129355,"current_range_meters":9600,"station_id":"","pricing_plan_id":"cebpf4jnsgd1na2vs0mg"},{"bike_id":"148e3ed6-025c-48fc-82b6-91ff6dd9a576","system_id":"levelo_inurba_marseille","lat":43.23961,"lon":5.36633,"is_reserved":false,"is_disabled":false,"rental_uris":{"android":"levelo://app?vid=148e3ed6-025c-48fc-82b6-91ff6dd9a576","ios":"levelo://app?vid=148e3ed6-025c-48fc-82b6-91ff6dd9a576"},"vehicle_type_id":"4","last_reported":1727129355,"current_range_meters":38800,"station_id":"ce4bhi12rcd13ifvqfp0","pricing_plan_id":"cebpf4jnsgd1na2vs0mg"},{"bike_id":"3f3847c2-52eb-4cc8-b7cc-80cc2474fa97","system_id":"levelo_inurba_marseille","lat":43.28447,"lon":5.39178,"is_reserved":false,"is_disabled":false,"rental_uris":{"android":"levelo://app?vid=3f3847c2-52eb-4cc8-b7cc-80cc2474fa97","ios":"levelo://app?vid=3f3847c2-52eb-4cc8-b7cc-80cc2474fa97"},"vehicle_type_id":"4","last_reported":1727129355,"current_range_meters":36000,"station_id":"ce4bhoh2rcd13ifvqh5g","pricing_plan_id":"cebpf4jnsgd1na2vs0mg"},{"bike_id":"cb727063-4ad7-4998-ab85-6258b1be7c68","system_id":"levelo_inurba_marseille","lat":43.29844,"lon":5.36268,"is_reserved":false,"is_disabled":false,"rental_uris":{"android":"levelo://app?vid=cb727063-4ad7-4998-ab85-6258b1be7c68","ios":"levelo://app?vid=cb727063-4ad7-4998-ab85-6258b1be7c68"},"vehicle_type_id":"4","last_reported":1727129355,"current_range_meters":8800,"station_id":"ce4bgpp2rcd13ifvqc3g","pricing_plan_id":"cebpf4jnsgd1na2vs0mg"},{"bike_id":"e5746f04-9596-403b-aec0-62ed7fd19d68","system_id":"levelo_inurba_marseille","lat":43.30956,"lon":5.39067,"is_reserved":false,"is_disabled":false,"rental_uris":{"android":"levelo://app?vid=e5746f04-9596-403b-aec0-62ed7fd19d68","ios":"levelo://app?vid=e5746f04-9596-403b-aec0-62ed7fd19d68"},"vehicle_type_id":"4","last_reported":1727129355,"current_range_meters":8400,"station_id":"ce4bgup2rcd13ifvqco0","pricing_plan_id":"cebpf4jnsgd1na2vs0mg"},{"bike_id":"0d7668b2-eb7e-4d71-9f70-62a7c1a58164","system_id":"levelo_inurba_marseille","lat":43.22931,"lon":5.35373,"is_reserved":false,"is_disabled":false,"rental_uris":{"android":"levelo://app?vid=0d7668b2-eb7e-4d71-9f70-62a7c1a58164","ios":"levelo://app?vid=0d7668b2-eb7e-4d71-9f70-62a7c1a58164"},"vehicle_type_id":"4","last_reported":1727129355,"current_range_meters":38800,"station_id":"cpo3532slgdg3j2ikp40","pricing_plan_id":"cebpf4jnsgd1na2vs0mg"},{"bike_id":"f80a31ef-11c3-4d9d-b7a5-06d8709818f5","system_id":"levelo_inurba_marseille","lat":43.284149,"lon":5.384721,"is_reserved":false,"is_disabled":false,"rental_uris":{"android":"levelo://app?vid=f80a31ef-11c3-4d9d-b7a5-06d8709818f5","ios":"levelo://app?vid=f80a31ef-11c3-4d9d-b7a5-06d8709818f5"},"vehicle_type_id":"4","last_reported":1727129355,"current_range_meters":38000,"station_id":"ce4bh512rcd13ifvqe3g","pricing_plan_id":"cebpf4jnsgd1na2vs0mg"},{"bike_id":"5233d860-f58e-4e7f-9139-8faba3081bec","system_id":"levelo_inurba_marseille","lat":43.26046,"lon":5.387,"is_reserved":false,"is_disabled":false,"rental_uris":{"android":"levelo://app?vid=5233d860-f58e-4e7f-9139-8faba3081bec","ios":"levelo://app?vid=5233d860-f58e-4e7f-9139-8faba3081bec"},"vehicle_type_id":"4","last_reported":1727129355,"current_range_meters":8400,"station_id":"","pricing_plan_id":"cebpf4jnsgd1na2vs0mg"},{"bike_id":"58303e57-93a3-4fdc-991c-679ff5c0befe","system_id":"levelo_inurba_marseille","lat":43.28036,"lon":5.36955,"is_reserved":false,"is_disabled":false,"rental_uris":{"android":"levelo://app?vid=58303e57-93a3-4fdc-991c-679ff5c0befe","ios":"levelo://app?vid=58303e57-93a3-4fdc-991c-679ff5c0befe"},"vehicle_type_id":"4","last_reported":1727129355,"current_range_meters":38000,"station_id":"ce4bha12rcd13ifvqef0","pricing_plan_id":"cebpf4jnsgd1na2vs0mg"},{"bike_id":"2ece3bb3-5776-42d8-a3ec-7c3c120df5c0","system_id":"levelo_inurba_marseille","lat":43.29515,"lon":5.39404,"is_reserved":false,"is_disabled":false,"rental_uris":{"android":"levelo://app?vid=2ece3bb3-5776-42d8-a3ec-7c3c120df5c0","ios":"levelo://app?vid=2ece3bb3-5776-42d8-a3ec-7c3c120df5c0"},"vehicle_type_id":"4","last_reported":1727129355,"current_range_meters":38800,"station_id":"ce4bh292rcd13ifvqdf0","pricing_plan_id":"cebpf4jnsgd1na2vs0mg"},{"bike_id":"e4f1bd4b-2c54-4410-8f0b-9757b1f1a501","system_id":"levelo_inurba_marseille","lat":43.24548,"lon":5.39522,"is_reserved":false,"is_disabled":false,"rental_uris":{"android":"levelo://app?vid=e4f1bd4b-2c54-4410-8f0b-9757b1f1a501","ios":"levelo://app?vid=e4f1bd4b-2c54-4410-8f0b-9757b1f1a501"},"vehicle_type_id":"4","last_reported":1727129355,"current_range_meters":15200,"station_id":"ce4bhlp2rcd13ifvqgjg","pricing_plan_id":"cebpf4jnsgd1na2vs0mg"},{"bike_id":"fe943c2f-921a-4ab5-9704-6951cc5e13b9","system_id":"levelo_inurba_marseille","lat":43.30253,"lon":5.40056,"is_reserved":false,"is_disabled":false,"rental_uris":{"android":"levelo://app?vid=fe943c2f-921a-4ab5-9704-6951cc5e13b9","ios":"levelo://app?vid=fe943c2f-921a-4ab5-9704-6951cc5e13b9"},"vehicle_type_id":"4","last_reported":1727129355,"current_range_meters":38800,"station_id":"ce4bgvh2rcd13ifvqcs0","pricing_plan_id":"cebpf4jnsgd1na2vs0mg"},{"bike_id":"c0bf08f8-39b8-43bf-8302-ac2a4dd5ad58","system_id":"levelo_inurba_marseille","lat":43.29554,"lon":5.42287,"is_reserved":false,"is_disabled":false,"rental_uris":{"android":"levelo://app?vid=c0bf08f8-39b8-43bf-8302-ac2a4dd5ad58","ios":"levelo://app?vid=c0bf08f8-39b8-43bf-8302-ac2a4dd5ad58"},"vehicle_type_id":"4","last_reported":1727129355,"current_range_meters":25600,"station_id":"ce4bhph2rcd13ifvqhdg","pricing_plan_id":"cebpf4jnsgd1na2vs0mg"},{"bike_id":"26902fd9-a37a-4ff8-9e97-b9adaf460ead","system_id":"levelo_inurba_marseille","lat":43.30784,"lon":5.37648,"is_reserved":false,"is_disabled":false,"rental_uris":{"android":"levelo://app?vid=26902fd9-a37a-4ff8-9e97-b9adaf460ead","ios":"levelo://app?vid=26902fd9-a37a-4ff8-9e97-b9adaf460ead"},"vehicle_type_id":"4","last_reported":1727129355,"current_range_meters":22400,"station_id":"ce4bgv92rcd13ifvqcq0","pricing_plan_id":"cebpf4jnsgd1na2vs0mg"},{"bike_id":"60db3ab6-942f-4a97-8d9f-476471a5fa0c","system_id":"levelo_inurba_marseille","lat":43.26933,"lon":5.38909,"is_reserved":false,"is_disabled":false,"rental_uris":{"android":"levelo://app?vid=60db3ab6-942f-4a97-8d9f-476471a5fa0c","ios":"levelo://app?vid=60db3ab6-942f-4a97-8d9f-476471a5fa0c"},"vehicle_type_id":"4","last_reported":1727129355,"current_range_meters":14000,"station_id":"ce4bhhh2rcd13ifvqfl0","pricing_plan_id":"cebpf4jnsgd1na2vs0mg"},{"bike_id":"0bbd42ca-5d6a-4f37-905e-48992a9cd523","system_id":"levelo_inurba_marseille","lat":43.26943,"lon":5.38635,"is_reserved":false,"is_disabled":false,"rental_uris":{"android":"levelo://app?vid=0bbd42ca-5d6a-4f37-905e-48992a9cd523","ios":"levelo://app?vid=0bbd42ca-5d6a-4f37-905e-48992a9cd523"},"vehicle_type_id":"4","last_reported":1727129355,"current_range_meters":38800,"station_id":"ce4bhh92rcd13ifvqfh0","pricing_plan_id":"cebpf4jnsgd1na2vs0mg"},{"bike_id":"a263889c-8095-4eb6-8022-728868db3ba6","system_id":"levelo_inurba_marseille","lat":43.24552,"lon":5.39523,"is_reserved":false,"is_disabled":false,"rental_uris":{"android":"levelo://app?vid=a263889c-8095-4eb6-8022-728868db3ba6","ios":"levelo://app?vid=a263889c-8095-4eb6-8022-728868db3ba6"},"vehicle_type_id":"4","last_reported":1727129355,"current_range_meters":12400,"station_id":"ce4bhlp2rcd13ifvqgjg","pricing_plan_id":"cebpf4jnsgd1na2vs0mg"},{"bike_id":"8ffb3a40-6d13-48fd-bba5-2e7d441abd74","system_id":"levelo_inurba_marseille","lat":43.31173,"lon":5.38714,"is_reserved":false,"is_disabled":false,"rental_uris":{"android":"levelo://app?vid=8ffb3a40-6d13-48fd-bba5-2e7d441abd74","ios":"levelo://app?vid=8ffb3a40-6d13-48fd-bba5-2e7d441abd74"},"vehicle_type_id":"4","last_reported":1727129355,"current_range_meters":2000,"station_id":"ce4bgv12rcd13ifvqcp0","pricing_plan_id":"cebpf4jnsgd1na2vs0mg"},{"bike_id":"07c14650-ae6a-4e16-ab1f-44817d12d49f","system_id":"levelo_inurba_marseille","lat":43.33029,"lon":5.39038,"is_reserved":false,"is_disabled":false,"rental_uris":{"android":"levelo://app?vid=07c14650-ae6a-4e16-ab1f-44817d12d49f","ios":"levelo://app?vid=07c14650-ae6a-4e16-ab1f-44817d12d49f"},"vehicle_type_id":"4","last_reported":1727129355,"current_range_meters":38400,"station_id":"ce4bhr92rcd13ifvqhrg","pricing_plan_id":"cebpf4jnsgd1na2vs0mg"},{"bike_id":"31b21eee-9ced-4000-91b2-ae4ed366066c","system_id":"levelo_inurba_marseille","lat":43.31328,"lon":5.39687,"is_reserved":false,"is_disabled":false,"rental_uris":{"android":"levelo://app?vid=31b21eee-9ced-4000-91b2-ae4ed366066c","ios":"levelo://app?vid=31b21eee-9ced-4000-91b2-ae4ed366066c"},"vehicle_type_id":"4","last_reported":1727129355,"current_range_meters":28800,"station_id":"ce4bgvp2rcd13ifvqcu0","pricing_plan_id":"cebpf4jnsgd1na2vs0mg"},{"bike_id":"905cbc60-a60c-4721-9845-1765bd2211c4","system_id":"levelo_inurba_marseille","lat":43.28704,"lon":5.37387,"is_reserved":false,"is_disabled":false,"rental_uris":{"android":"levelo://app?vid=905cbc60-a60c-4721-9845-1765bd2211c4","ios":"levelo://app?vid=905cbc60-a60c-4721-9845-1765bd2211c4"},"vehicle_type_id":"4","last_reported":1727129355,"current_range_meters":40000,"station_id":"ce4bh3p2rcd13ifvqdq0","pricing_plan_id":"cebpf4jnsgd1na2vs0mg"},{"bike_id":"141e6558-2c69-4aa6-af94-57835dd362e9","system_id":"levelo_inurba_marseille","lat":43.30206,"lon":5.36611,"is_reserved":false,"is_disabled":false,"rental_uris":{"android":"levelo://app?vid=141e6558-2c69-4aa6-af94-57835dd362e9","ios":"levelo://app?vid=141e6558-2c69-4aa6-af94-57835dd362e9"},"vehicle_type_id":"4","last_reported":1727129355,"current_range_meters":16800,"station_id":"ce4bgrh2rcd13ifvqc8g","pricing_plan_id":"cebpf4jnsgd1na2vs0mg"},{"bike_id":"800c26a6-e02c-463c-b3a6-d11e44aae34d","system_id":"levelo_inurba_marseille","lat":43.29069,"lon":5.3717,"is_reserved":false,"is_disabled":false,"rental_uris":{"android":"levelo://app?vid=800c26a6-e02c-463c-b3a6-d11e44aae34d","ios":"levelo://app?vid=800c26a6-e02c-463c-b3a6-d11e44aae34d"},"vehicle_type_id":"4","last_reported":1727129355,"current_range_meters":22800,"station_id":"ce4bh5p2rcd13ifvqe4g","pricing_plan_id":"cebpf4jnsgd1na2vs0mg"},{"bike_id":"729a7eee-bcf8-4897-b93a-b2ea3ca3b6d1","system_id":"levelo_inurba_marseille","lat":43.23959,"lon":5.36637,"is_reserved":false,"is_disabled":false,"rental_uris":{"android":"levelo://app?vid=729a7eee-bcf8-4897-b93a-b2ea3ca3b6d1","ios":"levelo://app?vid=729a7eee-bcf8-4897-b93a-b2ea3ca3b6d1"},"vehicle_type_id":"4","last_reported":1727129355,"current_range_meters":38000,"station_id":"ce4bhi12rcd13ifvqfp0","pricing_plan_id":"cebpf4jnsgd1na2vs0mg"},{"bike_id":"652c9ca2-ae64-4fe9-b2ab-74dbee41dfd0","system_id":"levelo_inurba_marseille","lat":43.29797,"lon":5.3935,"is_reserved":false,"is_disabled":false,"rental_uris":{"android":"levelo://app?vid=652c9ca2-ae64-4fe9-b2ab-74dbee41dfd0","ios":"levelo://app?vid=652c9ca2-ae64-4fe9-b2ab-74dbee41dfd0"},"vehicle_type_id":"4","last_reported":1727129355,"current_range_meters":17600,"station_id":"chh1huq6cuj3fo74tm60","pricing_plan_id":"cebpf4jnsgd1na2vs0mg"},{"bike_id":"f746166f-78db-4a12-82d0-ede18a412051","system_id":"levelo_inurba_marseille","lat":43.26562,"lon":5.38998,"is_reserved":false,"is_disabled":false,"rental_uris":{"android":"levelo://app?vid=f746166f-78db-4a12-82d0-ede18a412051","ios":"levelo://app?vid=f746166f-78db-4a12-82d0-ede18a412051"},"vehicle_type_id":"4","last_reported":1727129355,"current_range_meters":38800,"station_id":"ce4bhe12rcd13ifvqf30","pricing_plan_id":"cebpf4jnsgd1na2vs0mg"},{"bike_id":"b461ccab-fcd5-46ed-ac4e-ce0d087012e9","system_id":"levelo_inurba_marseille","lat":43.26942,"lon":5.40254,"is_reserved":false,"is_disabled":false,"rental_uris":{"android":"levelo://app?vid=b461ccab-fcd5-46ed-ac4e-ce0d087012e9","ios":"levelo://app?vid=b461ccab-fcd5-46ed-ac4e-ce0d087012e9"},"vehicle_type_id":"4","last_reported":1727129355,"current_range_meters":34000,"station_id":"cjm6bp8fraef2m0cb0m0","pricing_plan_id":"cebpf4jnsgd1na2vs0mg"},{"bike_id":"ac0a21bc-81f6-4774-9a26-ec490f05aaeb","system_id":"levelo_inurba_marseille","lat":43.29549,"lon":5.42283,"is_reserved":false,"is_disabled":false,"rental_uris":{"android":"levelo://app?vid=ac0a21bc-81f6-4774-9a26-ec490f05aaeb","ios":"levelo://app?vid=ac0a21bc-81f6-4774-9a26-ec490f05aaeb"},"vehicle_type_id":"4","last_reported":1727129355,"current_range_meters":39200,"station_id":"ce4bhph2rcd13ifvqhdg","pricing_plan_id":"cebpf4jnsgd1na2vs0mg"},{"bike_id":"02507c8a-f7ec-4e88-86d6-987f221b2f49","system_id":"levelo_inurba_marseille","lat":43.287,"lon":5.37388,"is_reserved":false,"is_disabled":false,"rental_uris":{"android":"levelo://app?vid=02507c8a-f7ec-4e88-86d6-987f221b2f49","ios":"levelo://app?vid=02507c8a-f7ec-4e88-86d6-987f221b2f49"},"vehicle_type_id":"4","last_reported":1727129355,"current_range_meters":6800,"station_id":"ce4bh3p2rcd13ifvqdq0","pricing_plan_id":"cebpf4jnsgd1na2vs0mg"},{"bike_id":"f318827e-1229-4f8b-81b5-56d1f3f443de","system_id":"levelo_inurba_marseille","lat":43.29302,"lon":5.3746,"is_reserved":false,"is_disabled":false,"rental_uris":{"android":"levelo://app?vid=f318827e-1229-4f8b-81b5-56d1f3f443de","ios":"levelo://app?vid=f318827e-1229-4f8b-81b5-56d1f3f443de"},"vehicle_type_id":"4","last_reported":1727129355,"current_range_meters":38000,"station_id":"ce4bgi12rcd13ifvqb70","pricing_plan_id":"cebpf4jnsgd1na2vs0mg"},{"bike_id":"945ca46a-3d4d-442b-9a12-f93c541192c0","system_id":"levelo_inurba_marseille","lat":43.29041,"lon":5.37555,"is_reserved":false,"is_disabled":false,"rental_uris":{"android":"levelo://app?vid=945ca46a-3d4d-442b-9a12-f93c541192c0","ios":"levelo://app?vid=945ca46a-3d4d-442b-9a12-f93c541192c0"},"vehicle_type_id":"4","last_reported":1727129355,"current_range_meters":38000,"station_id":"ce4bh692rcd13ifvqe90","pricing_plan_id":"cebpf4jnsgd1na2vs0mg"},{"bike_id":"715c4804-6a86-4398-98ec-b57358573177","system_id":"levelo_inurba_marseille","lat":43.22929,"lon":5.35374,"is_reserved":false,"is_disabled":false,"rental_uris":{"android":"levelo://app?vid=715c4804-6a86-4398-98ec-b57358573177","ios":"levelo://app?vid=715c4804-6a86-4398-98ec-b57358573177"},"vehicle_type_id":"4","last_reported":1727129355,"current_range_meters":33600,"station_id":"cpo3532slgdg3j2ikp40","pricing_plan_id":"cebpf4jnsgd1na2vs0mg"},{"bike_id":"7ee68eb0-c4b3-4c61-8c9e-5a9ce1d7ca82","system_id":"levelo_inurba_marseille","lat":43.29457,"lon":5.3976,"is_reserved":false,"is_disabled":false,"rental_uris":{"android":"levelo://app?vid=7ee68eb0-c4b3-4c61-8c9e-5a9ce1d7ca82","ios":"levelo://app?vid=7ee68eb0-c4b3-4c61-8c9e-5a9ce1d7ca82"},"vehicle_type_id":"4","last_reported":1727129355,"current_range_meters":36800,"station_id":"ce4bh3h2rcd13ifvqdo0","pricing_plan_id":"cebpf4jnsgd1na2vs0mg"},{"bike_id":"ba2542eb-4a30-47aa-b57a-68ac954d789a","system_id":"levelo_inurba_marseille","lat":43.232,"lon":5.3556,"is_reserved":false,"is_disabled":false,"rental_uris":{"android":"levelo://app?vid=ba2542eb-4a30-47aa-b57a-68ac954d789a","ios":"levelo://app?vid=ba2542eb-4a30-47aa-b57a-68ac954d789a"},"vehicle_type_id":"4","last_reported":1727129355,"current_range_meters":16400,"station_id":"ce4bhu92rcd13ifvqi70","pricing_plan_id":"cebpf4jnsgd1na2vs0mg"},{"bike_id":"659b91b7-6dd8-4ec1-9f23-c9ffa2a71178","system_id":"levelo_inurba_marseille","lat":43.31502,"lon":5.37314,"is_reserved":false,"is_disabled":false,"rental_uris":{"android":"levelo://app?vid=659b91b7-6dd8-4ec1-9f23-c9ffa2a71178","ios":"levelo://app?vid=659b91b7-6dd8-4ec1-9f23-c9ffa2a71178"},"vehicle_type_id":"4","last_reported":1727129355,"current_range_meters":38800,"station_id":"ce4bgt12rcd13ifvqcd0","pricing_plan_id":"cebpf4jnsgd1na2vs0mg"},{"bike_id":"8212986c-093b-4785-923c-58dc38d91294","system_id":"levelo_inurba_marseille","lat":43.2872,"lon":5.37936,"is_reserved":false,"is_disabled":false,"rental_uris":{"android":"levelo://app?vid=8212986c-093b-4785-923c-58dc38d91294","ios":"levelo://app?vid=8212986c-093b-4785-923c-58dc38d91294"},"vehicle_type_id":"4","last_reported":1727129355,"current_range_meters":38800,"station_id":"ce4bh9p2rcd13ifvqec0","pricing_plan_id":"cebpf4jnsgd1na2vs0mg"},{"bike_id":"76bab56a-8a47-4c2c-a864-d6bb2a624ab4","system_id":"levelo_inurba_marseille","lat":43.31256,"lon":5.40159,"is_reserved":false,"is_disabled":false,"rental_uris":{"android":"levelo://app?vid=76bab56a-8a47-4c2c-a864-d6bb2a624ab4","ios":"levelo://app?vid=76bab56a-8a47-4c2c-a864-d6bb2a624ab4"},"vehicle_type_id":"4","last_reported":1727129355,"current_range_meters":9200,"station_id":"ce4bh092rcd13ifvqd30","pricing_plan_id":"cebpf4jnsgd1na2vs0mg"},{"bike_id":"46044cf7-6456-4535-a62d-bdbcc4ac46f0","system_id":"levelo_inurba_marseille","lat":43.27916,"lon":5.39572,"is_reserved":false,"is_disabled":false,"rental_uris":{"android":"levelo://app?vid=46044cf7-6456-4535-a62d-bdbcc4ac46f0","ios":"levelo://app?vid=46044cf7-6456-4535-a62d-bdbcc4ac46f0"},"vehicle_type_id":"4","last_reported":1727129355,"current_range_meters":16000,"station_id":"ce4bhf92rcd13ifvqf40","pricing_plan_id":"cebpf4jnsgd1na2vs0mg"},{"bike_id":"2c5228b9-8b0f-4a80-9c17-02dbe75bf871","system_id":"levelo_inurba_marseille","lat":43.30416,"lon":5.41286,"is_reserved":false,"is_disabled":false,"rental_uris":{"android":"levelo://app?vid=2c5228b9-8b0f-4a80-9c17-02dbe75bf871","ios":"levelo://app?vid=2c5228b9-8b0f-4a80-9c17-02dbe75bf871"},"vehicle_type_id":"4","last_reported":1727129355,"current_range_meters":11600,"station_id":"ce4bhop2rcd13ifvqh8g","pricing_plan_id":"cebpf4jnsgd1na2vs0mg"},{"bike_id":"0d6b075e-1ec2-45fc-b73a-94b7e83a4e69","system_id":"levelo_inurba_marseille","lat":43.25583,"lon":5.38232,"is_reserved":false,"is_disabled":false,"rental_uris":{"android":"levelo://app?vid=0d6b075e-1ec2-45fc-b73a-94b7e83a4e69","ios":"levelo://app?vid=0d6b075e-1ec2-45fc-b73a-94b7e83a4e69"},"vehicle_type_id":"4","last_reported":1727129355,"current_range_meters":32800,"station_id":"ce4bhih2rcd13ifvqfs0","pricing_plan_id":"cebpf4jnsgd1na2vs0mg"},{"bike_id":"18150e14-65f6-4479-8795-d96d38cb4be3","system_id":"levelo_inurba_marseille","lat":43.28464,"lon":5.3589,"is_reserved":false,"is_disabled":false,"rental_uris":{"android":"levelo://app?vid=18150e14-65f6-4479-8795-d96d38cb4be3","ios":"levelo://app?vid=18150e14-65f6-4479-8795-d96d38cb4be3"},"vehicle_type_id":"4","last_reported":1727129355,"current_range_meters":37600,"station_id":"ce4bhah2rcd13ifvqei0","pricing_plan_id":"cebpf4jnsgd1na2vs0mg"},{"bike_id":"3e696652-37cd-47da-93b7-589f45c1a332","system_id":"levelo_inurba_marseille","lat":43.30934,"lon":5.40147,"is_reserved":false,"is_disabled":false,"rental_uris":{"android":"levelo://app?vid=3e696652-37cd-47da-93b7-589f45c1a332","ios":"levelo://app?vid=3e696652-37cd-47da-93b7-589f45c1a332"},"vehicle_type_id":"4","last_reported":1727129355,"current_range_meters":37600,"station_id":"ce4bgvp2rcd13ifvqct0","pricing_plan_id":"cebpf4jnsgd1na2vs0mg"},{"bike_id":"98913b7e-c49f-44af-aecd-0f4ee8a6bf7e","system_id":"levelo_inurba_marseille","lat":43.24807,"lon":5.37463,"is_reserved":false,"is_disabled":false,"rental_uris":{"android":"levelo://app?vid=98913b7e-c49f-44af-aecd-0f4ee8a6bf7e","ios":"levelo://app?vid=98913b7e-c49f-44af-aecd-0f4ee8a6bf7e"},"vehicle_type_id":"4","last_reported":1727129355,"current_range_meters":28400,"station_id":"ce4bhgh2rcd13ifvqfb0","pricing_plan_id":"cebpf4jnsgd1na2vs0mg"},{"bike_id":"b510ad97-af80-4516-b624-2399b846f5f5","system_id":"levelo_inurba_marseille","lat":43.28436,"lon":5.39183,"is_reserved":false,"is_disabled":false,"rental_uris":{"android":"levelo://app?vid=b510ad97-af80-4516-b624-2399b846f5f5","ios":"levelo://app?vid=b510ad97-af80-4516-b624-2399b846f5f5"},"vehicle_type_id":"4","last_reported":1727129355,"current_range_meters":20400,"station_id":"ce4bhoh2rcd13ifvqh5g","pricing_plan_id":"cebpf4jnsgd1na2vs0mg"},{"bike_id":"5fb540ac-8f91-4336-a127-da844b6c90f9","system_id":"levelo_inurba_marseille","lat":43.232,"lon":5.35557,"is_reserved":false,"is_disabled":false,"rental_uris":{"android":"levelo://app?vid=5fb540ac-8f91-4336-a127-da844b6c90f9","ios":"levelo://app?vid=5fb540ac-8f91-4336-a127-da844b6c90f9"},"vehicle_type_id":"4","last_reported":1727129355,"current_range_meters":8000,"station_id":"ce4bhu92rcd13ifvqi70","pricing_plan_id":"cebpf4jnsgd1na2vs0mg"},{"bike_id":"b5742723-09c0-40e4-b8f9-7598fb8c8f18","system_id":"levelo_inurba_marseille","lat":43.29555,"lon":5.42294,"is_reserved":false,"is_disabled":false,"rental_uris":{"android":"levelo://app?vid=b5742723-09c0-40e4-b8f9-7598fb8c8f18","ios":"levelo://app?vid=b5742723-09c0-40e4-b8f9-7598fb8c8f18"},"vehicle_type_id":"4","last_reported":1727129355,"current_range_meters":38800,"station_id":"ce4bhph2rcd13ifvqhdg","pricing_plan_id":"cebpf4jnsgd1na2vs0mg"},{"bike_id":"145cbcd5-fc67-4b82-b57e-a55874aa762d","system_id":"levelo_inurba_marseille","lat":43.23185,"lon":5.39981,"is_reserved":false,"is_disabled":false,"rental_uris":{"android":"levelo://app?vid=145cbcd5-fc67-4b82-b57e-a55874aa762d","ios":"levelo://app?vid=145cbcd5-fc67-4b82-b57e-a55874aa762d"},"vehicle_type_id":"4","last_reported":1727129355,"current_range_meters":12400,"station_id":"ce4bhn12rcd13ifvqgqg","pricing_plan_id":"cebpf4jnsgd1na2vs0mg"},{"bike_id":"22561989-9522-4e3a-beea-d2b901c841aa","system_id":"levelo_inurba_marseille","lat":43.288391,"lon":5.393211,"is_reserved":false,"is_disabled":false,"rental_uris":{"android":"levelo://app?vid=22561989-9522-4e3a-beea-d2b901c841aa","ios":"levelo://app?vid=22561989-9522-4e3a-beea-d2b901c841aa"},"vehicle_type_id":"4","last_reported":1727129355,"current_range_meters":37600,"station_id":"ce4bh2p2rcd13ifvqdi0","pricing_plan_id":"cebpf4jnsgd1na2vs0mg"},{"bike_id":"17730596-b00e-4f0e-b46a-cc1e0080d9c2","system_id":"levelo_inurba_marseille","lat":43.23199,"lon":5.35558,"is_reserved":false,"is_disabled":false,"rental_uris":{"android":"levelo://app?vid=17730596-b00e-4f0e-b46a-cc1e0080d9c2","ios":"levelo://app?vid=17730596-b00e-4f0e-b46a-cc1e0080d9c2"},"vehicle_type_id":"4","last_reported":1727129355,"current_range_meters":38800,"station_id":"ce4bhu92rcd13ifvqi70","pricing_plan_id":"cebpf4jnsgd1na2vs0mg"},{"bike_id":"1ec9d979-31c8-444b-aabe-92b02e1cfc1d","system_id":"levelo_inurba_marseille","lat":43.34138,"lon":5.40908,"is_reserved":false,"is_disabled":false,"rental_uris":{"android":"levelo://app?vid=1ec9d979-31c8-444b-aabe-92b02e1cfc1d","ios":"levelo://app?vid=1ec9d979-31c8-444b-aabe-92b02e1cfc1d"},"vehicle_type_id":"4","last_reported":1727129355,"current_range_meters":38800,"station_id":"ce4bhqh2rcd13ifvqhlg","pricing_plan_id":"cebpf4jnsgd1na2vs0mg"},{"bike_id":"7cab1740-db28-4688-b73e-7c58b4fa5f6f","system_id":"levelo_inurba_marseille","lat":43.31276,"lon":5.40169,"is_reserved":false,"is_disabled":false,"rental_uris":{"android":"levelo://app?vid=7cab1740-db28-4688-b73e-7c58b4fa5f6f","ios":"levelo://app?vid=7cab1740-db28-4688-b73e-7c58b4fa5f6f"},"vehicle_type_id":"4","last_reported":1727129355,"current_range_meters":35200,"station_id":"ce4bh092rcd13ifvqd30","pricing_plan_id":"cebpf4jnsgd1na2vs0mg"},{"bike_id":"b778ab85-5f86-495e-88e3-9d7d80f03689","system_id":"levelo_inurba_marseille","lat":43.29806,"lon":5.40408,"is_reserved":false,"is_disabled":false,"rental_uris":{"android":"levelo://app?vid=b778ab85-5f86-495e-88e3-9d7d80f03689","ios":"levelo://app?vid=b778ab85-5f86-495e-88e3-9d7d80f03689"},"vehicle_type_id":"4","last_reported":1727129355,"current_range_meters":29600,"station_id":"ce4bh112rcd13ifvqd90","pricing_plan_id":"cebpf4jnsgd1na2vs0mg"},{"bike_id":"952ef04a-8db9-4927-a99b-652ded863c36","system_id":"levelo_inurba_marseille","lat":43.33586,"lon":5.41032,"is_reserved":false,"is_disabled":false,"rental_uris":{"android":"levelo://app?vid=952ef04a-8db9-4927-a99b-652ded863c36","ios":"levelo://app?vid=952ef04a-8db9-4927-a99b-652ded863c36"},"vehicle_type_id":"4","last_reported":1727129355,"current_range_meters":36400,"station_id":"ce4bhqh2rcd13ifvqhmg","pricing_plan_id":"cebpf4jnsgd1na2vs0mg"},{"bike_id":"b0cc51f5-ea81-4b3f-89c4-2c1e965788ac","system_id":"levelo_inurba_marseille","lat":43.30642,"lon":5.40069,"is_reserved":false,"is_disabled":false,"rental_uris":{"android":"levelo://app?vid=b0cc51f5-ea81-4b3f-89c4-2c1e965788ac","ios":"levelo://app?vid=b0cc51f5-ea81-4b3f-89c4-2c1e965788ac"},"vehicle_type_id":"4","last_reported":1727129355,"current_range_meters":28800,"station_id":"ce4bh112rcd13ifvqda0","pricing_plan_id":"cebpf4jnsgd1na2vs0mg"},{"bike_id":"9a2086ab-9ac9-463b-9a35-dc32842e3d31","system_id":"levelo_inurba_marseille","lat":43.30968,"lon":5.39032,"is_reserved":false,"is_disabled":false,"rental_uris":{"android":"levelo://app?vid=9a2086ab-9ac9-463b-9a35-dc32842e3d31","ios":"levelo://app?vid=9a2086ab-9ac9-463b-9a35-dc32842e3d31"},"vehicle_type_id":"4","last_reported":1727129355,"current_range_meters":38800,"station_id":"ce4bgup2rcd13ifvqco0","pricing_plan_id":"cebpf4jnsgd1na2vs0mg"},{"bike_id":"804b6157-1679-4b6f-b7f0-c0d1584dac0c","system_id":"levelo_inurba_marseille","lat":43.30805,"lon":5.38144,"is_reserved":false,"is_disabled":false,"rental_uris":{"android":"levelo://app?vid=804b6157-1679-4b6f-b7f0-c0d1584dac0c","ios":"levelo://app?vid=804b6157-1679-4b6f-b7f0-c0d1584dac0c"},"vehicle_type_id":"4","last_reported":1727129355,"current_range_meters":28800,"station_id":"ce4bgt12rcd13ifvqce0","pricing_plan_id":"cebpf4jnsgd1na2vs0mg"},{"bike_id":"d57284ff-6c76-4ec6-af75-46933dc94b7e","system_id":"levelo_inurba_marseille","lat":43.31252,"lon":5.40169,"is_reserved":false,"is_disabled":false,"rental_uris":{"android":"levelo://app?vid=d57284ff-6c76-4ec6-af75-46933dc94b7e","ios":"levelo://app?vid=d57284ff-6c76-4ec6-af75-46933dc94b7e"},"vehicle_type_id":"4","last_reported":1727129355,"current_range_meters":38800,"station_id":"ce4bh092rcd13ifvqd30","pricing_plan_id":"cebpf4jnsgd1na2vs0mg"},{"bike_id":"a3dbee8b-6b63-494c-96ee-8da50f3e08c9","system_id":"levelo_inurba_marseille","lat":43.2873,"lon":5.36077,"is_reserved":false,"is_disabled":false,"rental_uris":{"android":"levelo://app?vid=a3dbee8b-6b63-494c-96ee-8da50f3e08c9","ios":"levelo://app?vid=a3dbee8b-6b63-494c-96ee-8da50f3e08c9"},"vehicle_type_id":"4","last_reported":1727129355,"current_range_meters":6800,"station_id":"cki0cbj6b192h4jlfktg","pricing_plan_id":"cebpf4jnsgd1na2vs0mg"},{"bike_id":"cbe0b644-f15a-448b-9ea3-a9cae94072b0","system_id":"levelo_inurba_marseille","lat":43.284638,"lon":5.380383,"is_reserved":false,"is_disabled":false,"rental_uris":{"android":"levelo://app?vid=cbe0b644-f15a-448b-9ea3-a9cae94072b0","ios":"levelo://app?vid=cbe0b644-f15a-448b-9ea3-a9cae94072b0"},"vehicle_type_id":"4","last_reported":1727129355,"current_range_meters":38800,"station_id":"","pricing_plan_id":"cebpf4jnsgd1na2vs0mg"},{"bike_id":"3985d11c-af0a-4e76-820b-ef3ed63957fe","system_id":"levelo_inurba_marseille","lat":43.32364,"lon":5.38888,"is_reserved":false,"is_disabled":false,"rental_uris":{"android":"levelo://app?vid=3985d11c-af0a-4e76-820b-ef3ed63957fe","ios":"levelo://app?vid=3985d11c-af0a-4e76-820b-ef3ed63957fe"},"vehicle_type_id":"4","last_reported":1727129355,"current_range_meters":27200,"station_id":"ce4bhqp2rcd13ifvqhog","pricing_plan_id":"cebpf4jnsgd1na2vs0mg"},{"bike_id":"f0cce526-e2de-4da6-b09d-68979bda1c97","system_id":"levelo_inurba_marseille","lat":43.28704,"lon":5.37376,"is_reserved":false,"is_disabled":false,"rental_uris":{"android":"levelo://app?vid=f0cce526-e2de-4da6-b09d-68979bda1c97","ios":"levelo://app?vid=f0cce526-e2de-4da6-b09d-68979bda1c97"},"vehicle_type_id":"4","last_reported":1727129355,"current_range_meters":9200,"station_id":"ce4bh3p2rcd13ifvqdq0","pricing_plan_id":"cebpf4jnsgd1na2vs0mg"},{"bike_id":"bd41257b-2321-4600-9038-9e22743d2783","system_id":"levelo_inurba_marseille","lat":43.29626,"lon":5.37171,"is_reserved":false,"is_disabled":false,"rental_uris":{"android":"levelo://app?vid=bd41257b-2321-4600-9038-9e22743d2783","ios":"levelo://app?vid=bd41257b-2321-4600-9038-9e22743d2783"},"vehicle_type_id":"4","last_reported":1727129355,"current_range_meters":36400,"station_id":"ce4bgnh2rcd13ifvqc0g","pricing_plan_id":"cebpf4jnsgd1na2vs0mg"},{"bike_id":"37f37a11-85dc-438a-ada9-be88b71deb6a","system_id":"levelo_inurba_marseille","lat":43.29897,"lon":5.43661,"is_reserved":false,"is_disabled":false,"rental_uris":{"android":"levelo://app?vid=37f37a11-85dc-438a-ada9-be88b71deb6a","ios":"levelo://app?vid=37f37a11-85dc-438a-ada9-be88b71deb6a"},"vehicle_type_id":"4","last_reported":1727129355,"current_range_meters":38800,"station_id":"ce4bhpp2rcd13ifvqhfg","pricing_plan_id":"cebpf4jnsgd1na2vs0mg"},{"bike_id":"51371b2e-8bf5-497c-8f7e-fb7894e8e067","system_id":"levelo_inurba_marseille","lat":43.2955,"lon":5.42292,"is_reserved":false,"is_disabled":false,"rental_uris":{"android":"levelo://app?vid=51371b2e-8bf5-497c-8f7e-fb7894e8e067","ios":"levelo://app?vid=51371b2e-8bf5-497c-8f7e-fb7894e8e067"},"vehicle_type_id":"4","last_reported":1727129355,"current_range_meters":38800,"station_id":"ce4bhph2rcd13ifvqhdg","pricing_plan_id":"cebpf4jnsgd1na2vs0mg"},{"bike_id":"1a6dc438-b378-4226-a2cf-11e3018ca659","system_id":"levelo_inurba_marseille","lat":43.31368,"lon":5.38496,"is_reserved":false,"is_disabled":false,"rental_uris":{"android":"levelo://app?vid=1a6dc438-b378-4226-a2cf-11e3018ca659","ios":"levelo://app?vid=1a6dc438-b378-4226-a2cf-11e3018ca659"},"vehicle_type_id":"4","last_reported":1727129355,"current_range_meters":22400,"station_id":"ce4bgt92rcd13ifvqcf0","pricing_plan_id":"cebpf4jnsgd1na2vs0mg"},{"bike_id":"3415e891-dfba-4b75-bbcb-a5387e2dbd27","system_id":"levelo_inurba_marseille","lat":43.3054,"lon":5.38425,"is_reserved":false,"is_disabled":false,"rental_uris":{"android":"levelo://app?vid=3415e891-dfba-4b75-bbcb-a5387e2dbd27","ios":"levelo://app?vid=3415e891-dfba-4b75-bbcb-a5387e2dbd27"},"vehicle_type_id":"4","last_reported":1727129355,"current_range_meters":22800,"station_id":"ce4bgg92rcd13ifvqb30","pricing_plan_id":"cebpf4jnsgd1na2vs0mg"},{"bike_id":"3cda9349-2e12-4344-aa0d-37eb925476b4","system_id":"levelo_inurba_marseille","lat":43.30425,"lon":5.41281,"is_reserved":false,"is_disabled":false,"rental_uris":{"android":"levelo://app?vid=3cda9349-2e12-4344-aa0d-37eb925476b4","ios":"levelo://app?vid=3cda9349-2e12-4344-aa0d-37eb925476b4"},"vehicle_type_id":"4","last_reported":1727129355,"current_range_meters":38800,"station_id":"ce4bhop2rcd13ifvqh8g","pricing_plan_id":"cebpf4jnsgd1na2vs0mg"},{"bike_id":"c32c9f99-2785-472b-a64b-1235b0b8e4b2","system_id":"levelo_inurba_marseille","lat":43.23962,"lon":5.36638,"is_reserved":false,"is_disabled":false,"rental_uris":{"android":"levelo://app?vid=c32c9f99-2785-472b-a64b-1235b0b8e4b2","ios":"levelo://app?vid=c32c9f99-2785-472b-a64b-1235b0b8e4b2"},"vehicle_type_id":"4","last_reported":1727129355,"current_range_meters":37600,"station_id":"ce4bhi12rcd13ifvqfp0","pricing_plan_id":"cebpf4jnsgd1na2vs0mg"},{"bike_id":"90dcb292-958d-438d-8e09-0da2ae62170b","system_id":"levelo_inurba_marseille","lat":43.3042,"lon":5.38895,"is_reserved":false,"is_disabled":false,"rental_uris":{"android":"levelo://app?vid=90dcb292-958d-438d-8e09-0da2ae62170b","ios":"levelo://app?vid=90dcb292-958d-438d-8e09-0da2ae62170b"},"vehicle_type_id":"4","last_reported":1727129355,"current_range_meters":10800,"station_id":"ce4bgk12rcd13ifvqbi0","pricing_plan_id":"cebpf4jnsgd1na2vs0mg"},{"bike_id":"bd77a9c8-eafb-42c7-8280-250ccfa9c948","system_id":"levelo_inurba_marseille","lat":43.31175,"lon":5.38718,"is_reserved":false,"is_disabled":false,"rental_uris":{"android":"levelo://app?vid=bd77a9c8-eafb-42c7-8280-250ccfa9c948","ios":"levelo://app?vid=bd77a9c8-eafb-42c7-8280-250ccfa9c948"},"vehicle_type_id":"4","last_reported":1727129355,"current_range_meters":34800,"station_id":"ce4bgv12rcd13ifvqcp0","pricing_plan_id":"cebpf4jnsgd1na2vs0mg"},{"bike_id":"7e4c7599-5af1-41ab-83d0-48c77f2e12ad","system_id":"levelo_inurba_marseille","lat":43.29811,"lon":5.4041,"is_reserved":false,"is_disabled":false,"rental_uris":{"android":"levelo://app?vid=7e4c7599-5af1-41ab-83d0-48c77f2e12ad","ios":"levelo://app?vid=7e4c7599-5af1-41ab-83d0-48c77f2e12ad"},"vehicle_type_id":"4","last_reported":1727129355,"current_range_meters":8000,"station_id":"ce4bh112rcd13ifvqd90","pricing_plan_id":"cebpf4jnsgd1na2vs0mg"},{"bike_id":"0521b879-2f32-4fbe-bcf0-f35aa1202c38","system_id":"levelo_inurba_marseille","lat":43.30324,"lon":5.40446,"is_reserved":false,"is_disabled":false,"rental_uris":{"android":"levelo://app?vid=0521b879-2f32-4fbe-bcf0-f35aa1202c38","ios":"levelo://app?vid=0521b879-2f32-4fbe-bcf0-f35aa1202c38"},"vehicle_type_id":"4","last_reported":1727129355,"current_range_meters":28000,"station_id":"ce4bh012rcd13ifvqd10","pricing_plan_id":"cebpf4jnsgd1na2vs0mg"},{"bike_id":"ab63bd3a-f93b-4370-9200-d22b0dc4222c","system_id":"levelo_inurba_marseille","lat":43.30641,"lon":5.40072,"is_reserved":false,"is_disabled":false,"rental_uris":{"android":"levelo://app?vid=ab63bd3a-f93b-4370-9200-d22b0dc4222c","ios":"levelo://app?vid=ab63bd3a-f93b-4370-9200-d22b0dc4222c"},"vehicle_type_id":"4","last_reported":1727129355,"current_range_meters":35600,"station_id":"ce4bh112rcd13ifvqda0","pricing_plan_id":"cebpf4jnsgd1na2vs0mg"},{"bike_id":"73621f33-2cd2-4afb-bb74-9d52dc5217f2","system_id":"levelo_inurba_marseille","lat":43.30646,"lon":5.40073,"is_reserved":false,"is_disabled":false,"rental_uris":{"android":"levelo://app?vid=73621f33-2cd2-4afb-bb74-9d52dc5217f2","ios":"levelo://app?vid=73621f33-2cd2-4afb-bb74-9d52dc5217f2"},"vehicle_type_id":"4","last_reported":1727129355,"current_range_meters":28800,"station_id":"ce4bh112rcd13ifvqda0","pricing_plan_id":"cebpf4jnsgd1na2vs0mg"},{"bike_id":"eb495c6d-567d-475e-b5fc-f703d58aea9e","system_id":"levelo_inurba_marseille","lat":43.33611,"lon":5.41027,"is_reserved":false,"is_disabled":false,"rental_uris":{"android":"levelo://app?vid=eb495c6d-567d-475e-b5fc-f703d58aea9e","ios":"levelo://app?vid=eb495c6d-567d-475e-b5fc-f703d58aea9e"},"vehicle_type_id":"4","last_reported":1727129355,"current_range_meters":37600,"station_id":"ce4bhqh2rcd13ifvqhmg","pricing_plan_id":"cebpf4jnsgd1na2vs0mg"},{"bike_id":"91a1da69-60ac-4c20-9acf-259d147d6543","system_id":"levelo_inurba_marseille","lat":43.30054,"lon":5.39876,"is_reserved":false,"is_disabled":false,"rental_uris":{"android":"levelo://app?vid=91a1da69-60ac-4c20-9acf-259d147d6543","ios":"levelo://app?vid=91a1da69-60ac-4c20-9acf-259d147d6543"},"vehicle_type_id":"4","last_reported":1727129355,"current_range_meters":25600,"station_id":"ce4bh0h2rcd13ifvqd50","pricing_plan_id":"cebpf4jnsgd1na2vs0mg"},{"bike_id":"175b9e8b-0fe1-49ce-8722-b30a3594071e","system_id":"levelo_inurba_marseille","lat":43.291656,"lon":5.371535,"is_reserved":false,"is_disabled":false,"rental_uris":{"android":"levelo://app?vid=175b9e8b-0fe1-49ce-8722-b30a3594071e","ios":"levelo://app?vid=175b9e8b-0fe1-49ce-8722-b30a3594071e"},"vehicle_type_id":"4","last_reported":1727129355,"current_range_meters":34000,"station_id":"ce4bha92rcd13ifvqeh0","pricing_plan_id":"cebpf4jnsgd1na2vs0mg"},{"bike_id":"632d7fee-ca6d-463c-b899-8b7dc188542f","system_id":"levelo_inurba_marseille","lat":43.2927,"lon":5.384405,"is_reserved":false,"is_disabled":false,"rental_uris":{"android":"levelo://app?vid=632d7fee-ca6d-463c-b899-8b7dc188542f","ios":"levelo://app?vid=632d7fee-ca6d-463c-b899-8b7dc188542f"},"vehicle_type_id":"4","last_reported":1727129355,"current_range_meters":36800,"station_id":"ce4bh0h2rcd13ifvqd50","pricing_plan_id":"cebpf4jnsgd1na2vs0mg"},{"bike_id":"ff758b27-3f6a-4a37-b90c-e54d6269c8a1","system_id":"levelo_inurba_marseille","lat":43.23963,"lon":5.36633,"is_reserved":false,"is_disabled":false,"rental_uris":{"android":"levelo://app?vid=ff758b27-3f6a-4a37-b90c-e54d6269c8a1","ios":"levelo://app?vid=ff758b27-3f6a-4a37-b90c-e54d6269c8a1"},"vehicle_type_id":"4","last_reported":1727129355,"current_range_meters":38000,"station_id":"ce4bhi12rcd13ifvqfp0","pricing_plan_id":"cebpf4jnsgd1na2vs0mg"},{"bike_id":"9c37ee6e-5989-4039-a604-eca72c74603d","system_id":"levelo_inurba_marseille","lat":43.30787,"lon":5.37654,"is_reserved":false,"is_disabled":false,"rental_uris":{"android":"levelo://app?vid=9c37ee6e-5989-4039-a604-eca72c74603d","ios":"levelo://app?vid=9c37ee6e-5989-4039-a604-eca72c74603d"},"vehicle_type_id":"4","last_reported":1727129355,"current_range_meters":36800,"station_id":"ce4bgv92rcd13ifvqcq0","pricing_plan_id":"cebpf4jnsgd1na2vs0mg"},{"bike_id":"dc2f7424-087b-4383-89a1-634cf32e2922","system_id":"levelo_inurba_marseille","lat":43.22935,"lon":5.35384,"is_reserved":false,"is_disabled":false,"rental_uris":{"android":"levelo://app?vid=dc2f7424-087b-4383-89a1-634cf32e2922","ios":"levelo://app?vid=dc2f7424-087b-4383-89a1-634cf32e2922"},"vehicle_type_id":"4","last_reported":1727129355,"current_range_meters":38800,"station_id":"cpo3532slgdg3j2ikp40","pricing_plan_id":"cebpf4jnsgd1na2vs0mg"},{"bike_id":"58e33c8b-15e8-4fe9-8eb0-d10e00ab0152","system_id":"levelo_inurba_marseille","lat":43.307678,"lon":5.392291,"is_reserved":false,"is_disabled":false,"rental_uris":{"android":"levelo://app?vid=58e33c8b-15e8-4fe9-8eb0-d10e00ab0152","ios":"levelo://app?vid=58e33c8b-15e8-4fe9-8eb0-d10e00ab0152"},"vehicle_type_id":"4","last_reported":1727129355,"current_range_meters":37600,"station_id":"ce4bgup2rcd13ifvqco0","pricing_plan_id":"cebpf4jnsgd1na2vs0mg"},{"bike_id":"ad989f92-c3cb-4e26-8b59-0f3881799abe","system_id":"levelo_inurba_marseille","lat":43.32335,"lon":5.40623,"is_reserved":false,"is_disabled":false,"rental_uris":{"android":"levelo://app?vid=ad989f92-c3cb-4e26-8b59-0f3881799abe","ios":"levelo://app?vid=ad989f92-c3cb-4e26-8b59-0f3881799abe"},"vehicle_type_id":"4","last_reported":1727129355,"current_range_meters":38800,"station_id":"ce4bhq92rcd13ifvqhjg","pricing_plan_id":"cebpf4jnsgd1na2vs0mg"},{"bike_id":"c33ac870-cb94-44c7-8f5e-5243712930b4","system_id":"levelo_inurba_marseille","lat":43.31168,"lon":5.38722,"is_reserved":false,"is_disabled":false,"rental_uris":{"android":"levelo://app?vid=c33ac870-cb94-44c7-8f5e-5243712930b4","ios":"levelo://app?vid=c33ac870-cb94-44c7-8f5e-5243712930b4"},"vehicle_type_id":"4","last_reported":1727129355,"current_range_meters":38800,"station_id":"ce4bgv12rcd13ifvqcp0","pricing_plan_id":"cebpf4jnsgd1na2vs0mg"},{"bike_id":"1c83a74f-3b48-452b-aaa9-0fd460a96a02","system_id":"levelo_inurba_marseille","lat":43.26499,"lon":5.39545,"is_reserved":false,"is_disabled":false,"rental_uris":{"android":"levelo://app?vid=1c83a74f-3b48-452b-aaa9-0fd460a96a02","ios":"levelo://app?vid=1c83a74f-3b48-452b-aaa9-0fd460a96a02"},"vehicle_type_id":"4","last_reported":1727129355,"current_range_meters":8400,"station_id":"ce4bhi12rcd13ifvqfq0","pricing_plan_id":"cebpf4jnsgd1na2vs0mg"},{"bike_id":"c959ca8d-ba53-4b69-b028-aa3156c88619","system_id":"levelo_inurba_marseille","lat":43.28384,"lon":5.38626,"is_reserved":false,"is_disabled":false,"rental_uris":{"android":"levelo://app?vid=c959ca8d-ba53-4b69-b028-aa3156c88619","ios":"levelo://app?vid=c959ca8d-ba53-4b69-b028-aa3156c88619"},"vehicle_type_id":"4","last_reported":1727129355,"current_range_meters":34000,"station_id":"","pricing_plan_id":"cebpf4jnsgd1na2vs0mg"},{"bike_id":"fa2de602-7697-46dd-b736-88594b37c215","system_id":"levelo_inurba_marseille","lat":43.28409,"lon":5.37525,"is_reserved":false,"is_disabled":false,"rental_uris":{"android":"levelo://app?vid=fa2de602-7697-46dd-b736-88594b37c215","ios":"levelo://app?vid=fa2de602-7697-46dd-b736-88594b37c215"},"vehicle_type_id":"4","last_reported":1727129355,"current_range_meters":34000,"station_id":"ce4bh412rcd13ifvqds0","pricing_plan_id":"cebpf4jnsgd1na2vs0mg"},{"bike_id":"99b23c29-19c3-45f6-a684-fed021e776d5","system_id":"levelo_inurba_marseille","lat":43.31768,"lon":5.39016,"is_reserved":false,"is_disabled":false,"rental_uris":{"android":"levelo://app?vid=99b23c29-19c3-45f6-a684-fed021e776d5","ios":"levelo://app?vid=99b23c29-19c3-45f6-a684-fed021e776d5"},"vehicle_type_id":"4","last_reported":1727129355,"current_range_meters":23200,"station_id":"ce4bhqp2rcd13ifvqhng","pricing_plan_id":"cebpf4jnsgd1na2vs0mg"},{"bike_id":"b2df7e59-7731-4655-9dc2-8249cfa600cf","system_id":"levelo_inurba_marseille","lat":43.279,"lon":5.38008,"is_reserved":false,"is_disabled":false,"rental_uris":{"android":"levelo://app?vid=b2df7e59-7731-4655-9dc2-8249cfa600cf","ios":"levelo://app?vid=b2df7e59-7731-4655-9dc2-8249cfa600cf"},"vehicle_type_id":"4","last_reported":1727129355,"current_range_meters":39200,"station_id":"ce4bhf92rcd13ifvqf50","pricing_plan_id":"cebpf4jnsgd1na2vs0mg"},{"bike_id":"3785dde0-2c0e-4db7-9928-e64d1a6fa5f8","system_id":"levelo_inurba_marseille","lat":43.31071,"lon":5.38353,"is_reserved":false,"is_disabled":false,"rental_uris":{"android":"levelo://app?vid=3785dde0-2c0e-4db7-9928-e64d1a6fa5f8","ios":"levelo://app?vid=3785dde0-2c0e-4db7-9928-e64d1a6fa5f8"},"vehicle_type_id":"4","last_reported":1727129355,"current_range_meters":38800,"station_id":"ce4bgv92rcd13ifvqcr0","pricing_plan_id":"cebpf4jnsgd1na2vs0mg"},{"bike_id":"a2c8ed06-94c0-4417-862a-16507ef42481","system_id":"levelo_inurba_marseille","lat":43.33725,"lon":5.39187,"is_reserved":false,"is_disabled":false,"rental_uris":{"android":"levelo://app?vid=a2c8ed06-94c0-4417-862a-16507ef42481","ios":"levelo://app?vid=a2c8ed06-94c0-4417-862a-16507ef42481"},"vehicle_type_id":"4","last_reported":1727129355,"current_range_meters":38000,"station_id":"ce4bhr92rcd13ifvqhsg","pricing_plan_id":"cebpf4jnsgd1na2vs0mg"},{"bike_id":"b77e35ca-9f06-48eb-90c5-57eebec9837a","system_id":"levelo_inurba_marseille","lat":43.25721,"lon":5.41115,"is_reserved":false,"is_disabled":false,"rental_uris":{"android":"levelo://app?vid=b77e35ca-9f06-48eb-90c5-57eebec9837a","ios":"levelo://app?vid=b77e35ca-9f06-48eb-90c5-57eebec9837a"},"vehicle_type_id":"4","last_reported":1727129355,"current_range_meters":37600,"station_id":"ce4bhkp2rcd13ifvqgd0","pricing_plan_id":"cebpf4jnsgd1na2vs0mg"},{"bike_id":"71e3eaf6-911a-4212-97d8-c6c24063f9ba","system_id":"levelo_inurba_marseille","lat":43.2509,"lon":5.39514,"is_reserved":false,"is_disabled":false,"rental_uris":{"android":"levelo://app?vid=71e3eaf6-911a-4212-97d8-c6c24063f9ba","ios":"levelo://app?vid=71e3eaf6-911a-4212-97d8-c6c24063f9ba"},"vehicle_type_id":"4","last_reported":1727129355,"current_range_meters":10000,"station_id":"ce4bhm12rcd13ifvqgkg","pricing_plan_id":"cebpf4jnsgd1na2vs0mg"},{"bike_id":"d2ceb862-bfbe-4f8a-9ef5-c41155a750b8","system_id":"levelo_inurba_marseille","lat":43.32368,"lon":5.38886,"is_reserved":false,"is_disabled":false,"rental_uris":{"android":"levelo://app?vid=d2ceb862-bfbe-4f8a-9ef5-c41155a750b8","ios":"levelo://app?vid=d2ceb862-bfbe-4f8a-9ef5-c41155a750b8"},"vehicle_type_id":"4","last_reported":1727129355,"current_range_meters":24400,"station_id":"ce4bhqp2rcd13ifvqhog","pricing_plan_id":"cebpf4jnsgd1na2vs0mg"},{"bike_id":"fa690805-233a-4a70-a9f3-33f1b67cdb1f","system_id":"levelo_inurba_marseille","lat":43.32293,"lon":5.38271,"is_reserved":false,"is_disabled":false,"rental_uris":{"android":"levelo://app?vid=fa690805-233a-4a70-a9f3-33f1b67cdb1f","ios":"levelo://app?vid=fa690805-233a-4a70-a9f3-33f1b67cdb1f"},"vehicle_type_id":"4","last_reported":1727129355,"current_range_meters":36400,"station_id":"ce4bhr12rcd13ifvqhqg","pricing_plan_id":"cebpf4jnsgd1na2vs0mg"},{"bike_id":"3c33410a-08d2-4408-bcfa-fa218f26da5f","system_id":"levelo_inurba_marseille","lat":43.30785,"lon":5.37655,"is_reserved":false,"is_disabled":false,"rental_uris":{"android":"levelo://app?vid=3c33410a-08d2-4408-bcfa-fa218f26da5f","ios":"levelo://app?vid=3c33410a-08d2-4408-bcfa-fa218f26da5f"},"vehicle_type_id":"4","last_reported":1727129355,"current_range_meters":38800,"station_id":"ce4bgv92rcd13ifvqcq0","pricing_plan_id":"cebpf4jnsgd1na2vs0mg"},{"bike_id":"bb3b144c-fb39-42f9-a97c-1871a799982e","system_id":"levelo_inurba_marseille","lat":43.24661,"lon":5.3817,"is_reserved":false,"is_disabled":false,"rental_uris":{"android":"levelo://app?vid=bb3b144c-fb39-42f9-a97c-1871a799982e","ios":"levelo://app?vid=bb3b144c-fb39-42f9-a97c-1871a799982e"},"vehicle_type_id":"4","last_reported":1727129355,"current_range_meters":39200,"station_id":"ce4bhih2rcd13ifvqfr0","pricing_plan_id":"cebpf4jnsgd1na2vs0mg"},{"bike_id":"e86bb56b-8257-4a34-a96d-205fd2a4397b","system_id":"levelo_inurba_marseille","lat":43.27502,"lon":5.4245,"is_reserved":false,"is_disabled":false,"rental_uris":{"android":"levelo://app?vid=e86bb56b-8257-4a34-a96d-205fd2a4397b","ios":"levelo://app?vid=e86bb56b-8257-4a34-a96d-205fd2a4397b"},"vehicle_type_id":"4","last_reported":1727129355,"current_range_meters":39200,"station_id":"ce4bhn92rcd13ifvqgrg","pricing_plan_id":"cebpf4jnsgd1na2vs0mg"},{"bike_id":"0c778444-8058-4019-a3a4-04596b693b6d","system_id":"levelo_inurba_marseille","lat":43.30541,"lon":5.38424,"is_reserved":false,"is_disabled":false,"rental_uris":{"android":"levelo://app?vid=0c778444-8058-4019-a3a4-04596b693b6d","ios":"levelo://app?vid=0c778444-8058-4019-a3a4-04596b693b6d"},"vehicle_type_id":"4","last_reported":1727129355,"current_range_meters":16000,"station_id":"ce4bgg92rcd13ifvqb30","pricing_plan_id":"cebpf4jnsgd1na2vs0mg"},{"bike_id":"a9b8bd2e-0211-4ab7-8e43-9b1810cd1d96","system_id":"levelo_inurba_marseille","lat":43.26559,"lon":5.37286,"is_reserved":false,"is_disabled":false,"rental_uris":{"android":"levelo://app?vid=a9b8bd2e-0211-4ab7-8e43-9b1810cd1d96","ios":"levelo://app?vid=a9b8bd2e-0211-4ab7-8e43-9b1810cd1d96"},"vehicle_type_id":"4","last_reported":1727129355,"current_range_meters":8400,"station_id":"ce4bhg12rcd13ifvqf70","pricing_plan_id":"cebpf4jnsgd1na2vs0mg"},{"bike_id":"f811878b-9953-4368-9f07-3aceb071006e","system_id":"levelo_inurba_marseille","lat":43.29798,"lon":5.3935,"is_reserved":false,"is_disabled":false,"rental_uris":{"android":"levelo://app?vid=f811878b-9953-4368-9f07-3aceb071006e","ios":"levelo://app?vid=f811878b-9953-4368-9f07-3aceb071006e"},"vehicle_type_id":"4","last_reported":1727129355,"current_range_meters":24800,"station_id":"chh1huq6cuj3fo74tm60","pricing_plan_id":"cebpf4jnsgd1na2vs0mg"},{"bike_id":"62da3a04-90c4-45dd-80a8-c28cc0ebcba9","system_id":"levelo_inurba_marseille","lat":43.30549,"lon":5.36536,"is_reserved":false,"is_disabled":false,"rental_uris":{"android":"levelo://app?vid=62da3a04-90c4-45dd-80a8-c28cc0ebcba9","ios":"levelo://app?vid=62da3a04-90c4-45dd-80a8-c28cc0ebcba9"},"vehicle_type_id":"4","last_reported":1727129355,"current_range_meters":15200,"station_id":"ce4bgs12rcd13ifvqcag","pricing_plan_id":"cebpf4jnsgd1na2vs0mg"},{"bike_id":"789d713b-bcdd-4a94-814d-05f2d19e5f16","system_id":"levelo_inurba_marseille","lat":43.2587,"lon":5.39894,"is_reserved":false,"is_disabled":false,"rental_uris":{"android":"levelo://app?vid=789d713b-bcdd-4a94-814d-05f2d19e5f16","ios":"levelo://app?vid=789d713b-bcdd-4a94-814d-05f2d19e5f16"},"vehicle_type_id":"4","last_reported":1727129355,"current_range_meters":8800,"station_id":"ce4bhl92rcd13ifvqghg","pricing_plan_id":"cebpf4jnsgd1na2vs0mg"},{"bike_id":"7eacd0ae-7015-4504-8187-36e3b5fe6fb0","system_id":"levelo_inurba_marseille","lat":43.27069,"lon":5.42284,"is_reserved":false,"is_disabled":false,"rental_uris":{"android":"levelo://app?vid=7eacd0ae-7015-4504-8187-36e3b5fe6fb0","ios":"levelo://app?vid=7eacd0ae-7015-4504-8187-36e3b5fe6fb0"},"vehicle_type_id":"4","last_reported":1727129355,"current_range_meters":27200,"station_id":"ce4bhk92rcd13ifvqgb0","pricing_plan_id":"cebpf4jnsgd1na2vs0mg"},{"bike_id":"9baed0ec-f8bc-46c0-9362-e81d135afcae","system_id":"levelo_inurba_marseille","lat":43.2921,"lon":5.39313,"is_reserved":false,"is_disabled":false,"rental_uris":{"android":"levelo://app?vid=9baed0ec-f8bc-46c0-9362-e81d135afcae","ios":"levelo://app?vid=9baed0ec-f8bc-46c0-9362-e81d135afcae"},"vehicle_type_id":"4","last_reported":1727129355,"current_range_meters":6400,"station_id":"ce4bh192rcd13ifvqdd0","pricing_plan_id":"cebpf4jnsgd1na2vs0mg"},{"bike_id":"b8547ac2-7dc8-4a2d-bbf7-748f0c45aaad","system_id":"levelo_inurba_marseille","lat":43.31357,"lon":5.38506,"is_reserved":false,"is_disabled":false,"rental_uris":{"android":"levelo://app?vid=b8547ac2-7dc8-4a2d-bbf7-748f0c45aaad","ios":"levelo://app?vid=b8547ac2-7dc8-4a2d-bbf7-748f0c45aaad"},"vehicle_type_id":"4","last_reported":1727129355,"current_range_meters":38800,"station_id":"ce4bgt92rcd13ifvqcf0","pricing_plan_id":"cebpf4jnsgd1na2vs0mg"},{"bike_id":"8f292934-62db-4e45-8525-d903798075c3","system_id":"levelo_inurba_marseille","lat":43.32657,"lon":5.40995,"is_reserved":false,"is_disabled":false,"rental_uris":{"android":"levelo://app?vid=8f292934-62db-4e45-8525-d903798075c3","ios":"levelo://app?vid=8f292934-62db-4e45-8525-d903798075c3"},"vehicle_type_id":"4","last_reported":1727129355,"current_range_meters":38800,"station_id":"ce4bhpp2rcd13ifvqhgg","pricing_plan_id":"cebpf4jnsgd1na2vs0mg"},{"bike_id":"92538727-8770-4a78-adcf-165b4009e758","system_id":"levelo_inurba_marseille","lat":43.28696,"lon":5.37397,"is_reserved":false,"is_disabled":false,"rental_uris":{"android":"levelo://app?vid=92538727-8770-4a78-adcf-165b4009e758","ios":"levelo://app?vid=92538727-8770-4a78-adcf-165b4009e758"},"vehicle_type_id":"4","last_reported":1727129355,"current_range_meters":37600,"station_id":"ce4bh3p2rcd13ifvqdq0","pricing_plan_id":"cebpf4jnsgd1na2vs0mg"},{"bike_id":"fc2877fe-6b6a-4d27-921a-68d4f2b8e619","system_id":"levelo_inurba_marseille","lat":43.27497,"lon":5.42449,"is_reserved":false,"is_disabled":false,"rental_uris":{"android":"levelo://app?vid=fc2877fe-6b6a-4d27-921a-68d4f2b8e619","ios":"levelo://app?vid=fc2877fe-6b6a-4d27-921a-68d4f2b8e619"},"vehicle_type_id":"4","last_reported":1727129355,"current_range_meters":21600,"station_id":"ce4bhn92rcd13ifvqgrg","pricing_plan_id":"cebpf4jnsgd1na2vs0mg"},{"bike_id":"09188ae7-92d9-42da-8144-7c1a508bbbd6","system_id":"levelo_inurba_marseille","lat":43.32555,"lon":5.4145,"is_reserved":false,"is_disabled":false,"rental_uris":{"android":"levelo://app?vid=09188ae7-92d9-42da-8144-7c1a508bbbd6","ios":"levelo://app?vid=09188ae7-92d9-42da-8144-7c1a508bbbd6"},"vehicle_type_id":"4","last_reported":1727129355,"current_range_meters":38800,"station_id":"ce4bhq12rcd13ifvqhhg","pricing_plan_id":"cebpf4jnsgd1na2vs0mg"},{"bike_id":"40ec77eb-6257-4910-b338-910ef8290bad","system_id":"levelo_inurba_marseille","lat":43.28105,"lon":5.40632,"is_reserved":false,"is_disabled":false,"rental_uris":{"android":"levelo://app?vid=40ec77eb-6257-4910-b338-910ef8290bad","ios":"levelo://app?vid=40ec77eb-6257-4910-b338-910ef8290bad"},"vehicle_type_id":"4","last_reported":1727129355,"current_range_meters":8000,"station_id":"","pricing_plan_id":"cebpf4jnsgd1na2vs0mg"},{"bike_id":"7f33ee24-6dc8-4f6a-8d61-d524e9cb4107","system_id":"levelo_inurba_marseille","lat":43.30642,"lon":5.40077,"is_reserved":false,"is_disabled":false,"rental_uris":{"android":"levelo://app?vid=7f33ee24-6dc8-4f6a-8d61-d524e9cb4107","ios":"levelo://app?vid=7f33ee24-6dc8-4f6a-8d61-d524e9cb4107"},"vehicle_type_id":"4","last_reported":1727129355,"current_range_meters":38400,"station_id":"ce4bh112rcd13ifvqda0","pricing_plan_id":"cebpf4jnsgd1na2vs0mg"},{"bike_id":"d61703e7-1b3f-4560-96d8-d7eaf9f2fee9","system_id":"levelo_inurba_marseille","lat":43.27917,"lon":5.38,"is_reserved":false,"is_disabled":false,"rental_uris":{"android":"levelo://app?vid=d61703e7-1b3f-4560-96d8-d7eaf9f2fee9","ios":"levelo://app?vid=d61703e7-1b3f-4560-96d8-d7eaf9f2fee9"},"vehicle_type_id":"4","last_reported":1727129355,"current_range_meters":28000,"station_id":"ce4bhf92rcd13ifvqf50","pricing_plan_id":"cebpf4jnsgd1na2vs0mg"},{"bike_id":"b0f4d08d-9574-447c-9f76-6a11e8a82ce4","system_id":"levelo_inurba_marseille","lat":43.31332,"lon":5.39692,"is_reserved":false,"is_disabled":false,"rental_uris":{"android":"levelo://app?vid=b0f4d08d-9574-447c-9f76-6a11e8a82ce4","ios":"levelo://app?vid=b0f4d08d-9574-447c-9f76-6a11e8a82ce4"},"vehicle_type_id":"4","last_reported":1727129355,"current_range_meters":39200,"station_id":"ce4bgvp2rcd13ifvqcu0","pricing_plan_id":"cebpf4jnsgd1na2vs0mg"},{"bike_id":"ed1f0c4b-c2ec-4633-9b10-9782357e4a7c","system_id":"levelo_inurba_marseille","lat":43.30803,"lon":5.43529,"is_reserved":false,"is_disabled":false,"rental_uris":{"android":"levelo://app?vid=ed1f0c4b-c2ec-4633-9b10-9782357e4a7c","ios":"levelo://app?vid=ed1f0c4b-c2ec-4633-9b10-9782357e4a7c"},"vehicle_type_id":"4","last_reported":1727129355,"current_range_meters":11200,"station_id":"ce4bhph2rcd13ifvqheg","pricing_plan_id":"cebpf4jnsgd1na2vs0mg"},{"bike_id":"0074696f-e649-4639-9210-689b92842bdc","system_id":"levelo_inurba_marseille","lat":43.308,"lon":5.43523,"is_reserved":false,"is_disabled":false,"rental_uris":{"android":"levelo://app?vid=0074696f-e649-4639-9210-689b92842bdc","ios":"levelo://app?vid=0074696f-e649-4639-9210-689b92842bdc"},"vehicle_type_id":"4","last_reported":1727129355,"current_range_meters":38800,"station_id":"ce4bhph2rcd13ifvqheg","pricing_plan_id":"cebpf4jnsgd1na2vs0mg"},{"bike_id":"e0763ebe-394d-414c-bdb2-88918df37928","system_id":"levelo_inurba_marseille","lat":43.28349,"lon":5.38108,"is_reserved":false,"is_disabled":false,"rental_uris":{"android":"levelo://app?vid=e0763ebe-394d-414c-bdb2-88918df37928","ios":"levelo://app?vid=e0763ebe-394d-414c-bdb2-88918df37928"},"vehicle_type_id":"4","last_reported":1727129355,"current_range_meters":16800,"station_id":"ce4bh412rcd13ifvqdr0","pricing_plan_id":"cebpf4jnsgd1na2vs0mg"},{"bike_id":"877753fc-658d-4c7a-bbb8-46de59f59494","system_id":"levelo_inurba_marseille","lat":43.33026,"lon":5.39045,"is_reserved":false,"is_disabled":false,"rental_uris":{"android":"levelo://app?vid=877753fc-658d-4c7a-bbb8-46de59f59494","ios":"levelo://app?vid=877753fc-658d-4c7a-bbb8-46de59f59494"},"vehicle_type_id":"4","last_reported":1727129355,"current_range_meters":38800,"station_id":"ce4bhr92rcd13ifvqhrg","pricing_plan_id":"cebpf4jnsgd1na2vs0mg"},{"bike_id":"bdc81b1d-71a7-4466-89af-891658648cdc","system_id":"levelo_inurba_marseille","lat":43.29853,"lon":5.36284,"is_reserved":false,"is_disabled":false,"rental_uris":{"android":"levelo://app?vid=bdc81b1d-71a7-4466-89af-891658648cdc","ios":"levelo://app?vid=bdc81b1d-71a7-4466-89af-891658648cdc"},"vehicle_type_id":"4","last_reported":1727129355,"current_range_meters":38800,"station_id":"ce4bgpp2rcd13ifvqc3g","pricing_plan_id":"cebpf4jnsgd1na2vs0mg"},{"bike_id":"9aed3560-36f9-4715-b999-ab2a44522ead","system_id":"levelo_inurba_marseille","lat":43.30877,"lon":5.39632,"is_reserved":false,"is_disabled":false,"rental_uris":{"android":"levelo://app?vid=9aed3560-36f9-4715-b999-ab2a44522ead","ios":"levelo://app?vid=9aed3560-36f9-4715-b999-ab2a44522ead"},"vehicle_type_id":"4","last_reported":1727129355,"current_range_meters":11200,"station_id":"ce4bh012rcd13ifvqcv0","pricing_plan_id":"cebpf4jnsgd1na2vs0mg"},