{"last_updated":1721239847,"ttl":30,"version":"2.2","data":{"bikes":[{"bike_id":"1696aeee-31e0-4b35-9a4a-ecddf2097809","system_id":"levelo_inurba_marseille","lat":43.30952,"lon":5.36867,"is_reserved":false,"is_disabled":false,"rental_uris":{"android":"levelo://app?vid=1696aeee-31e0-4b35-9a4a-ecddf2097809","ios":"levelo://app?vid=1696aeee-31e0-4b35-9a4a-ecddf2097809"},"vehicle_type_id":"4","last_reported":1721239847,"current_range_meters":0,"station_id":"","pricing_plan_id":"cebpf4jnsgd1na2vs0mg"},{"bike_id":"330a3984-5d07-4469-9af1-5e5a51f68fff","system_id":"levelo_inurba_marseille","lat":43.309076,"lon":5.368465,"is_reserved":false,"is_disabled":false,"rental_uris":{"android":"levelo://app?vid=330a3984-5d07-4469-9af1-5e5a51f68fff","ios":"levelo://app?vid=330a3984-5d07-4469-9af1-5e5a51f68fff"},"vehicle_type_id":"4","last_reported":1721239847,"current_range_meters":13200,"station_id":"ce4bgn92rcd13ifvqbvg","pricing_plan_id":"cebpf4jnsgd1na2vs0mg"},{"bike_id":"d714158c-23a5-45ef-9f96-87d5ff473f7e","system_id":"levelo_inurba_marseille","lat":43.309039,"lon":5.371797,"is_reserved":false,"is_disabled":false,"rental_uris":{"android":"levelo://app?vid=d714158c-23a5-45ef-9f96-87d5ff473f7e","ios":"levelo://app?vid=d714158c-23a5-45ef-9f96-87d5ff473f7e"},"vehicle_type_id":"4","last_reported":1721239847,"current_range_meters":26800,"station_id":"ce4bguh2rcd13ifvqckg","pricing_plan_id":"cebpf4jnsgd1na2vs0mg"},{"bike_id":"30d083f3-ce1b-4901-a64a-99a0fa4d1ef1","system_id":"levelo_inurba_marseille","lat":43.314811,"lon":5.373104,"is_reserved":false,"is_disabled":false,"rental_uris":{"android":"levelo://app?vid=30d083f3-ce1b-4901-a64a-99a0fa4d1ef1","ios":"levelo://app?vid=30d083f3-ce1b-4901-a64a-99a0fa4d1ef1"},"vehicle_type_id":"4","last_reported":1721239847,"current_range_meters":23200,"station_id":"ce4bgt12rcd13ifvqcd0","pricing_plan_id":"cebpf4jnsgd1na2vs0mg"},{"bike_id":"97cce109-e2db-492e-98a7-13ebe8aa5059","system_id":"levelo_inurba_marseille","lat":43.30537,"lon":5.367345,"is_reserved":false,"is_disabled":false,"rental_uris":{"android":"levelo://app?vid=97cce109-e2db-492e-98a7-13ebe8aa5059","ios":"levelo://app?vid=97cce109-e2db-492e-98a7-13ebe8aa5059"},"vehicle_type_id":"4","last_reported":1721239847,"current_range_meters":24800,"station_id":"ce4bgrp2rcd13ifvqc9g","pricing_plan_id":"cebpf4jnsgd1na2vs0mg"},{"bike_id":"6d42970a-bdf3-4620-8d19-174886cb5a2d","system_id":"levelo_inurba_marseille","lat":43.30609,"lon":5.37219,"is_reserved":false,"is_disabled":false,"rental_uris":{"android":"levelo://app?vid=6d42970a-bdf3-4620-8d19-174886cb5a2d","ios":"levelo://app?vid=6d42970a-bdf3-4620-8d19-174886cb5a2d"},"vehicle_type_id":"4","last_reported":1721239847,"current_range_meters":31200,"station_id":"","pricing_plan_id":"cebpf4jnsgd1na2vs0mg"},{"bike_id":"7572575c-fdae-42f2-a4cd-545eb84ce459","system_id":"levelo_inurba_marseille","lat":43.305989,"lon":5.37225,"is_reserved":false,"is_disabled":false,"rental_uris":{"android":"levelo://app?vid=7572575c-fdae-42f2-a4cd-545eb84ce459","ios":"levelo://app?vid=7572575c-fdae-42f2-a4cd-545eb84ce459"},"vehicle_type_id":"4","last_reported":1721239847,"current_range_meters":31200,"station_id":"ce4bgqh2rcd13ifvqc4g","pricing_plan_id":"cebpf4jnsgd1na2vs0mg"},{"bike_id":"60435820-ed9b-415e-a042-3f1bf70050c6","system_id":"levelo_inurba_marseille","lat":43.305989,"lon":5.37225,"is_reserved":false,"is_disabled":false,"rental_uris":{"android":"levelo://app?vid=60435820-ed9b-415e-a042-3f1bf70050c6","ios":"levelo://app?vid=60435820-ed9b-415e-a042-3f1bf70050c6"},"vehicle_type_id":"4","last_reported":1721239847,"current_range_meters":16800,"station_id":"ce4bgqh2rcd13ifvqc4g","pricing_plan_id":"cebpf4jnsgd1na2vs0mg"},{"bike_id":"bdab1d25-54e9-48f0-b7a7-d454c2a77a76","system_id":"levelo_inurba_marseille","lat":43.319094,"lon":5.373206,"is_reserved":false,"is_disabled":false,"rental_uris":{"android":"levelo://app?vid=bdab1d25-54e9-48f0-b7a7-d454c2a77a76","ios":"levelo://app?vid=bdab1d25-54e9-48f0-b7a7-d454c2a77a76"},"vehicle_type_id":"4","last_reported":1721239847,"current_range_meters":11600,"station_id":"","pricing_plan_id":"cebpf4jnsgd1na2vs0mg"},{"bike_id":"cacb5908-e6d6-432f-94f3-efb8b6421e81","system_id":"levelo_inurba_marseille","lat":43.311131,"lon":5.377651,"is_reserved":false,"is_disabled":false,"rental_uris":{"android":"levelo://app?vid=cacb5908-e6d6-432f-94f3-efb8b6421e81","ios":"levelo://app?vid=cacb5908-e6d6-432f-94f3-efb8b6421e81"},"vehicle_type_id":"4","last_reported":1721239847,"current_range_meters":4000,"station_id":"ce4bgt92rcd13ifvqcg0","pricing_plan_id":"cebpf4jnsgd1na2vs0mg"},{"bike_id":"7c92a134-a85f-4f48-abc3-4cd138a98531","system_id":"levelo_inurba_marseille","lat":43.311131,"lon":5.377651,"is_reserved":false,"is_disabled":false,"rental_uris":{"android":"levelo://app?vid=7c92a134-a85f-4f48-abc3-4cd138a98531","ios":"levelo://app?vid=7c92a134-a85f-4f48-abc3-4cd138a98531"},"vehicle_type_id":"4","last_reported":1721239847,"current_range_meters":0,"station_id":"ce4bgt92rcd13ifvqcg0","pricing_plan_id":"cebpf4jnsgd1na2vs0mg"},{"bike_id":"e0191194-f5f9-40a4-9a47-73c4123ecb22","system_id":"levelo_inurba_marseille","lat":43.311131,"lon":5.377651,"is_reserved":false,"is_disabled":false,"rental_uris":{"android":"levelo://app?vid=e0191194-f5f9-40a4-9a47-73c4123ecb22","ios":"levelo://app?vid=e0191194-f5f9-40a4-9a47-73c4123ecb22"},"vehicle_type_id":"4","last_reported":1721239847,"current_range_meters":0,"station_id":"ce4bgt92rcd13ifvqcg0","pricing_plan_id":"cebpf4jnsgd1na2vs0mg"},{"bike_id":"76a89c27-3edd-4fd3-80e9-042f2d528cbe","system_id":"levelo_inurba_marseille","lat":43.311125,"lon":5.377624,"is_reserved":false,"is_disabled":false,"rental_uris":{"android":"levelo://app?vid=76a89c27-3edd-4fd3-80e9-042f2d528cbe","ios":"levelo://app?vid=76a89c27-3edd-4fd3-80e9-042f2d528cbe"},"vehicle_type_id":"4","last_reported":1721239847,"current_range_meters":22400,"station_id":"ce4bgt92rcd13ifvqcg0","pricing_plan_id":"cebpf4jnsgd1na2vs0mg"},{"bike_id":"f08e0388-86e1-4474-9c89-7b92b902d9a2","system_id":"levelo_inurba_marseille","lat":43.30469,"lon":5.36536,"is_reserved":false,"is_disabled":false,"rental_uris":{"android":"levelo://app?vid=f08e0388-86e1-4474-9c89-7b92b902d9a2","ios":"levelo://app?vid=f08e0388-86e1-4474-9c89-7b92b902d9a2"},"vehicle_type_id":"4","last_reported":1721239847,"current_range_meters":0,"station_id":"","pricing_plan_id":"cebpf4jnsgd1na2vs0mg"},{"bike_id":"31f368ec-0eb3-43b9-b777-3ec1e6dc5fa9","system_id":"levelo_inurba_marseille","lat":43.31179,"lon":5.37985,"is_reserved":false,"is_disabled":false,"rental_uris":{"android":"levelo://app?vid=31f368ec-0eb3-43b9-b777-3ec1e6dc5fa9","ios":"levelo://app?vid=31f368ec-0eb3-43b9-b777-3ec1e6dc5fa9"},"vehicle_type_id":"4","last_reported":1721239847,"current_range_meters":8800,"station_id":"","pricing_plan_id":"cebpf4jnsgd1na2vs0mg"},{"bike_id":"484f9f9f-0454-486c-acff-9dbeb0b757ba","system_id":"levelo_inurba_marseille","lat":43.31506,"lon":5.38058,"is_reserved":false,"is_disabled":false,"rental_uris":{"android":"levelo://app?vid=484f9f9f-0454-486c-acff-9dbeb0b757ba","ios":"levelo://app?vid=484f9f9f-0454-486c-acff-9dbeb0b757ba"},"vehicle_type_id":"4","last_reported":1721239847,"current_range_meters":2400,"station_id":"ce4bhsp2rcd13ifvqi50","pricing_plan_id":"cebpf4jnsgd1na2vs0mg"},{"bike_id":"9c3cf123-dfd0-43e9-85c6-aee6b85af80b","system_id":"levelo_inurba_marseille","lat":43.30238,"lon":5.36977,"is_reserved":false,"is_disabled":false,"rental_uris":{"android":"levelo://app?vid=9c3cf123-dfd0-43e9-85c6-aee6b85af80b","ios":"levelo://app?vid=9c3cf123-dfd0-43e9-85c6-aee6b85af80b"},"vehicle_type_id":"4","last_reported":1721239847,"current_range_meters":0,"station_id":"","pricing_plan_id":"cebpf4jnsgd1na2vs0mg"},{"bike_id":"530d402d-bce2-427d-acd9-e0e91d4ff71b","system_id":"levelo_inurba_marseille","lat":43.31451,"lon":5.381267,"is_reserved":false,"is_disabled":false,"rental_uris":{"android":"levelo://app?vid=530d402d-bce2-427d-acd9-e0e91d4ff71b","ios":"levelo://app?vid=530d402d-bce2-427d-acd9-e0e91d4ff71b"},"vehicle_type_id":"4","last_reported":1721239847,"current_range_meters":13200,"station_id":"","pricing_plan_id":"cebpf4jnsgd1na2vs0mg"},{"bike_id":"e87ef2aa-4589-4604-bd25-1bfc3a640307","system_id":"levelo_inurba_marseille","lat":43.301939,"lon":5.366286,"is_reserved":false,"is_disabled":false,"rental_uris":{"android":"levelo://app?vid=e87ef2aa-4589-4604-bd25-1bfc3a640307","ios":"levelo://app?vid=e87ef2aa-4589-4604-bd25-1bfc3a640307"},"vehicle_type_id":"4","last_reported":1721239847,"current_range_meters":25200,"station_id":"ce4bgrh2rcd13ifvqc8g","pricing_plan_id":"cebpf4jnsgd1na2vs0mg"},{"bike_id":"94606a5d-5ce9-450d-a479-6ec470c3d6f0","system_id":"levelo_inurba_marseille","lat":43.301939,"lon":5.366286,"is_reserved":false,"is_disabled":false,"rental_uris":{"android":"levelo://app?vid=94606a5d-5ce9-450d-a479-6ec470c3d6f0","ios":"levelo://app?vid=94606a5d-5ce9-450d-a479-6ec470c3d6f0"},"vehicle_type_id":"4","last_reported":1721239847,"current_range_meters":14400,"station_id":"ce4bgrh2rcd13ifvqc8g","pricing_plan_id":"cebpf4jnsgd1na2vs0mg"},{"bike_id":"c834768d-b63b-4569-b892-39b07b4f3d51","system_id":"levelo_inurba_marseille","lat":43.308012,"lon":5.381511,"is_reserved":false,"is_disabled":false,"rental_uris":{"android":"levelo://app?vid=c834768d-b63b-4569-b892-39b07b4f3d51","ios":"levelo://app?vid=c834768d-b63b-4569-b892-39b07b4f3d51"},"vehicle_type_id":"4","last_reported":1721239847,"current_range_meters":1200,"station_id":"ce4bgt12rcd13ifvqce0","pricing_plan_id":"cebpf4jnsgd1na2vs0mg"},{"bike_id":"b96dd447-cdf0-4202-a6b7-72a1cdd99cfe","system_id":"levelo_inurba_marseille","lat":43.30464,"lon":5.37897,"is_reserved":false,"is_disabled":false,"rental_uris":{"android":"levelo://app?vid=b96dd447-cdf0-4202-a6b7-72a1cdd99cfe","ios":"levelo://app?vid=b96dd447-cdf0-4202-a6b7-72a1cdd99cfe"},"vehicle_type_id":"4","last_reported":1721239847,"current_range_meters":31200,"station_id":"ce4bgup2rcd13ifvqcn0","pricing_plan_id":"cebpf4jnsgd1na2vs0mg"},{"bike_id":"70eb194d-0584-43b6-b400-d71dc51c2b57","system_id":"levelo_inurba_marseille","lat":43.304606,"lon":5.379026,"is_reserved":false,"is_disabled":false,"rental_uris":{"android":"levelo://app?vid=70eb194d-0584-43b6-b400-d71dc51c2b57","ios":"levelo://app?vid=70eb194d-0584-43b6-b400-d71dc51c2b57"},"vehicle_type_id":"4","last_reported":1721239847,"current_range_meters":26800,"station_id":"ce4bgup2rcd13ifvqcn0","pricing_plan_id":"cebpf4jnsgd1na2vs0mg"},{"bike_id":"3d79ffdb-cf89-428f-b3f9-b52fbaa6aef2","system_id":"levelo_inurba_marseille","lat":43.304606,"lon":5.379026,"is_reserved":false,"is_disabled":false,"rental_uris":{"android":"levelo://app?vid=3d79ffdb-cf89-428f-b3f9-b52fbaa6aef2","ios":"levelo://app?vid=3d79ffdb-cf89-428f-b3f9-b52fbaa6aef2"},"vehicle_type_id":"4","last_reported":1721239847,"current_range_meters":0,"station_id":"ce4bgup2rcd13ifvqcn0","pricing_plan_id":"cebpf4jnsgd1na2vs0mg"},{"bike_id":"4a4a26e5-2961-476d-8f4b-a818fc735256","system_id":"levelo_inurba_marseille","lat":43.324771,"lon":5.36557,"is_reserved":false,"is_disabled":false,"rental_uris":{"android":"levelo://app?vid=4a4a26e5-2961-476d-8f4b-a818fc735256","ios":"levelo://app?vid=4a4a26e5-2961-476d-8f4b-a818fc735256"},"vehicle_type_id":"4","last_reported":1721239847,"current_range_meters":24000,"station_id":"ce4bhs12rcd13ifvqhvg","pricing_plan_id":"cebpf4jnsgd1na2vs0mg"},{"bike_id":"ed6518d3-2dad-47df-817c-a42834444454","system_id":"levelo_inurba_marseille","lat":43.324771,"lon":5.36557,"is_reserved":false,"is_disabled":false,"rental_uris":{"android":"levelo://app?vid=ed6518d3-2dad-47df-817c-a42834444454","ios":"levelo://app?vid=ed6518d3-2dad-47df-817c-a42834444454"},"vehicle_type_id":"4","last_reported":1721239847,"current_range_meters":5200,"station_id":"ce4bhs12rcd13ifvqhvg","pricing_plan_id":"cebpf4jnsgd1na2vs0mg"},{"bike_id":"340d3208-b738-4560-8315-0839a3f3494b","system_id":"levelo_inurba_marseille","lat":43.324771,"lon":5.36557,"is_reserved":false,"is_disabled":false,"rental_uris":{"android":"levelo://app?vid=340d3208-b738-4560-8315-0839a3f3494b","ios":"levelo://app?vid=340d3208-b738-4560-8315-0839a3f3494b"},"vehicle_type_id":"4","last_reported":1721239847,"current_range_meters":22800,"station_id":"ce4bhs12rcd13ifvqhvg","pricing_plan_id":"cebpf4jnsgd1na2vs0mg"},{"bike_id":"6319d8c5-5eb2-4f38-ba95-694d50572082","system_id":"levelo_inurba_marseille","lat":43.324771,"lon":5.36557,"is_reserved":false,"is_disabled":false,"rental_uris":{"android":"levelo://app?vid=6319d8c5-5eb2-4f38-ba95-694d50572082","ios":"levelo://app?vid=6319d8c5-5eb2-4f38-ba95-694d50572082"},"vehicle_type_id":"4","last_reported":1721239847,"current_range_meters":10800,"station_id":"ce4bhs12rcd13ifvqhvg","pricing_plan_id":"cebpf4jnsgd1na2vs0mg"},{"bike_id":"b681a1fe-959f-400e-9253-8466b026f65f","system_id":"levelo_inurba_marseille","lat":43.32491,"lon":5.3657,"is_reserved":false,"is_disabled":false,"rental_uris":{"android":"levelo://app?vid=b681a1fe-959f-400e-9253-8466b026f65f","ios":"levelo://app?vid=b681a1fe-959f-400e-9253-8466b026f65f"},"vehicle_type_id":"4","last_reported":1721239847,"current_range_meters":11200,"station_id":"ce4bhs12rcd13ifvqhvg","pricing_plan_id":"cebpf4jnsgd1na2vs0mg"},{"bike_id":"33bb5c3b-f762-4440-ac3c-febba6f0d84e","system_id":"levelo_inurba_marseille","lat":43.310804,"lon":5.38359,"is_reserved":false,"is_disabled":false,"rental_uris":{"android":"levelo://app?vid=33bb5c3b-f762-4440-ac3c-febba6f0d84e","ios":"levelo://app?vid=33bb5c3b-f762-4440-ac3c-febba6f0d84e"},"vehicle_type_id":"4","last_reported":1721239847,"current_range_meters":2800,"station_id":"ce4bgv92rcd13ifvqcr0","pricing_plan_id":"cebpf4jnsgd1na2vs0mg"},{"bike_id":"fa2c9e92-dc9b-42bb-a521-7b5f2ded3807","system_id":"levelo_inurba_marseille","lat":43.31073,"lon":5.3836,"is_reserved":false,"is_disabled":false,"rental_uris":{"android":"levelo://app?vid=fa2c9e92-dc9b-42bb-a521-7b5f2ded3807","ios":"levelo://app?vid=fa2c9e92-dc9b-42bb-a521-7b5f2ded3807"},"vehicle_type_id":"4","last_reported":1721239847,"current_range_meters":0,"station_id":"ce4bgv92rcd13ifvqcr0","pricing_plan_id":"cebpf4jnsgd1na2vs0mg"},{"bike_id":"58ada7ea-794a-42e5-8167-eca5539f8b8b","system_id":"levelo_inurba_marseille","lat":43.3028,"lon":5.3769,"is_reserved":false,"is_disabled":false,"rental_uris":{"android":"levelo://app?vid=58ada7ea-794a-42e5-8167-eca5539f8b8b","ios":"levelo://app?vid=58ada7ea-794a-42e5-8167-eca5539f8b8b"},"vehicle_type_id":"4","last_reported":1721239847,"current_range_meters":31200,"station_id":"ce4bguh2rcd13ifvqcj0","pricing_plan_id":"cebpf4jnsgd1na2vs0mg"},{"bike_id":"a11f0860-b8d2-4c21-8e29-7e584840f9ed","system_id":"levelo_inurba_marseille","lat":43.30282,"lon":5.37699,"is_reserved":false,"is_disabled":false,"rental_uris":{"android":"levelo://app?vid=a11f0860-b8d2-4c21-8e29-7e584840f9ed","ios":"levelo://app?vid=a11f0860-b8d2-4c21-8e29-7e584840f9ed"},"vehicle_type_id":"4","last_reported":1721239847,"current_range_meters":5200,"station_id":"ce4bguh2rcd13ifvqcj0","pricing_plan_id":"cebpf4jnsgd1na2vs0mg"},{"bike_id":"dbc0d85f-655b-47c6-8d7c-d229c639c61e","system_id":"levelo_inurba_marseille","lat":43.310804,"lon":5.38359,"is_reserved":false,"is_disabled":false,"rental_uris":{"android":"levelo://app?vid=dbc0d85f-655b-47c6-8d7c-d229c639c61e","ios":"levelo://app?vid=dbc0d85f-655b-47c6-8d7c-d229c639c61e"},"vehicle_type_id":"4","last_reported":1721239847,"current_range_meters":0,"station_id":"ce4bgv92rcd13ifvqcr0","pricing_plan_id":"cebpf4jnsgd1na2vs0mg"},{"bike_id":"cd316205-ed14-4d89-b690-93bb5ec29808","system_id":"levelo_inurba_marseille","lat":43.302784,"lon":5.377158,"is_reserved":false,"is_disabled":false,"rental_uris":{"android":"levelo://app?vid=cd316205-ed14-4d89-b690-93bb5ec29808","ios":"levelo://app?vid=cd316205-ed14-4d89-b690-93bb5ec29808"},"vehicle_type_id":"4","last_reported":1721239847,"current_range_meters":31200,"station_id":"ce4bguh2rcd13ifvqcj0","pricing_plan_id":"cebpf4jnsgd1na2vs0mg"},{"bike_id":"1a5b117f-14e0-4ca0-98b0-3801fdd27118","system_id":"levelo_inurba_marseille","lat":43.30143,"lon":5.37413,"is_reserved":false,"is_disabled":false,"rental_uris":{"android":"levelo://app?vid=1a5b117f-14e0-4ca0-98b0-3801fdd27118","ios":"levelo://app?vid=1a5b117f-14e0-4ca0-98b0-3801fdd27118"},"vehicle_type_id":"4","last_reported":1721239847,"current_range_meters":21600,"station_id":"ce4bgs92rcd13ifvqcc0","pricing_plan_id":"cebpf4jnsgd1na2vs0mg"},{"bike_id":"e756f090-f91e-4ccd-9c1a-f4146a04673a","system_id":"levelo_inurba_marseille","lat":43.319935,"lon":5.381699,"is_reserved":false,"is_disabled":false,"rental_uris":{"android":"levelo://app?vid=e756f090-f91e-4ccd-9c1a-f4146a04673a","ios":"levelo://app?vid=e756f090-f91e-4ccd-9c1a-f4146a04673a"},"vehicle_type_id":"4","last_reported":1721239847,"current_range_meters":3200,"station_id":"ce4bhr12rcd13ifvqhpg","pricing_plan_id":"cebpf4jnsgd1na2vs0mg"},{"bike_id":"2a2d5ac6-81ad-40f3-990e-3f21d908beda","system_id":"levelo_inurba_marseille","lat":43.313564,"lon":5.384891,"is_reserved":false,"is_disabled":false,"rental_uris":{"android":"levelo://app?vid=2a2d5ac6-81ad-40f3-990e-3f21d908beda","ios":"levelo://app?vid=2a2d5ac6-81ad-40f3-990e-3f21d908beda"},"vehicle_type_id":"4","last_reported":1721239847,"current_range_meters":27200,"station_id":"ce4bgqh2rcd13ifvqc5g","pricing_plan_id":"cebpf4jnsgd1na2vs0mg"},{"bike_id":"e0e32974-a49e-4210-9248-0f1c7cc6e0e4","system_id":"levelo_inurba_marseille","lat":43.313653,"lon":5.38493,"is_reserved":false,"is_disabled":false,"rental_uris":{"android":"levelo://app?vid=e0e32974-a49e-4210-9248-0f1c7cc6e0e4","ios":"levelo://app?vid=e0e32974-a49e-4210-9248-0f1c7cc6e0e4"},"vehicle_type_id":"4","last_reported":1721239847,"current_range_meters":0,"station_id":"ce4bgt92rcd13ifvqcf0","pricing_plan_id":"cebpf4jnsgd1na2vs0mg"},{"bike_id":"f994afcc-4262-4ac5-a4ea-323821e7fa2e","system_id":"levelo_inurba_marseille","lat":43.299724,"lon":5.371829,"is_reserved":false,"is_disabled":false,"rental_uris":{"android":"levelo://app?vid=f994afcc-4262-4ac5-a4ea-323821e7fa2e","ios":"levelo://app?vid=f994afcc-4262-4ac5-a4ea-323821e7fa2e"},"vehicle_type_id":"4","last_reported":1721239847,"current_range_meters":31200,"station_id":"ce4bgr92rcd13ifvqc7g","pricing_plan_id":"cebpf4jnsgd1na2vs0mg"},{"bike_id":"b09cbb0e-dee1-456b-a6e6-4c7d59462d46","system_id":"levelo_inurba_marseille","lat":43.299222,"lon":5.365554,"is_reserved":false,"is_disabled":false,"rental_uris":{"android":"levelo://app?vid=b09cbb0e-dee1-456b-a6e6-4c7d59462d46","ios":"levelo://app?vid=b09cbb0e-dee1-456b-a6e6-4c7d59462d46"},"vehicle_type_id":"4","last_reported":1721239847,"current_range_meters":2000,"station_id":"ce4bgm92rcd13ifvqbr0","pricing_plan_id":"cebpf4jnsgd1na2vs0mg"},{"bike_id":"dac95db2-c7e6-4e5a-8fb7-7164bf6e21c6","system_id":"levelo_inurba_marseille","lat":43.299724,"lon":5.371829,"is_reserved":false,"is_disabled":false,"rental_uris":{"android":"levelo://app?vid=dac95db2-c7e6-4e5a-8fb7-7164bf6e21c6","ios":"levelo://app?vid=dac95db2-c7e6-4e5a-8fb7-7164bf6e21c6"},"vehicle_type_id":"4","last_reported":1721239847,"current_range_meters":30800,"station_id":"ce4bgr92rcd13ifvqc7g","pricing_plan_id":"cebpf4jnsgd1na2vs0mg"},{"bike_id":"63472c86-e9e7-43e0-8dad-f8c5f331b548","system_id":"levelo_inurba_marseille","lat":43.299724,"lon":5.371829,"is_reserved":false,"is_disabled":false,"rental_uris":{"android":"levelo://app?vid=63472c86-e9e7-43e0-8dad-f8c5f331b548","ios":"levelo://app?vid=63472c86-e9e7-43e0-8dad-f8c5f331b548"},"vehicle_type_id":"4","last_reported":1721239847,"current_range_meters":31200,"station_id":"ce4bgr92rcd13ifvqc7g","pricing_plan_id":"cebpf4jnsgd1na2vs0mg"},{"bike_id":"4e02eee1-9d46-4387-9073-66591ca19f44","system_id":"levelo_inurba_marseille","lat":43.298433,"lon":5.362774,"is_reserved":false,"is_disabled":false,"rental_uris":{"android":"levelo://app?vid=4e02eee1-9d46-4387-9073-66591ca19f44","ios":"levelo://app?vid=4e02eee1-9d46-4387-9073-66591ca19f44"},"vehicle_type_id":"4","last_reported":1721239847,"current_range_meters":17600,"station_id":"ce4bgpp2rcd13ifvqc3g","pricing_plan_id":"cebpf4jnsgd1na2vs0mg"},{"bike_id":"bc0315ee-70bf-4e53-b199-5eacb5aca19c","system_id":"levelo_inurba_marseille","lat":43.298433,"lon":5.362774,"is_reserved":false,"is_disabled":false,"rental_uris":{"android":"levelo://app?vid=bc0315ee-70bf-4e53-b199-5eacb5aca19c","ios":"levelo://app?vid=bc0315ee-70bf-4e53-b199-5eacb5aca19c"},"vehicle_type_id":"4","last_reported":1721239847,"current_range_meters":15200,"station_id":"ce4bgpp2rcd13ifvqc3g","pricing_plan_id":"cebpf4jnsgd1na2vs0mg"},{"bike_id":"d23424af-3649-4ba7-ac70-a90ff3716b7d","system_id":"levelo_inurba_marseille","lat":43.299243,"lon":5.374807,"is_reserved":false,"is_disabled":false,"rental_uris":{"android":"levelo://app?vid=d23424af-3649-4ba7-ac70-a90ff3716b7d","ios":"levelo://app?vid=d23424af-3649-4ba7-ac70-a90ff3716b7d"},"vehicle_type_id":"4","last_reported":1721239847,"current_range_meters":7200,"station_id":"ce4bgjh2rcd13ifvqbg0","pricing_plan_id":"cebpf4jnsgd1na2vs0mg"},{"bike_id":"289bb819-bccb-45fd-8230-2d57b8557d3f","system_id":"levelo_inurba_marseille","lat":43.299243,"lon":5.37481,"is_reserved":false,"is_disabled":false,"rental_uris":{"android":"levelo://app?vid=289bb819-bccb-45fd-8230-2d57b8557d3f","ios":"levelo://app?vid=289bb819-bccb-45fd-8230-2d57b8557d3f"},"vehicle_type_id":"4","last_reported":1721239847,"current_range_meters":22000,"station_id":"ce4bgjh2rcd13ifvqbg0","pricing_plan_id":"cebpf4jnsgd1na2vs0mg"},{"bike_id":"f027a4aa-b7b7-4e48-87ac-82fb963e3403","system_id":"levelo_inurba_marseille","lat":43.297794,"lon":5.370888,"is_reserved":false,"is_disabled":false,"rental_uris":{"android":"levelo://app?vid=f027a4aa-b7b7-4e48-87ac-82fb963e3403","ios":"levelo://app?vid=f027a4aa-b7b7-4e48-87ac-82fb963e3403"},"vehicle_type_id":"4","last_reported":1721239847,"current_range_meters":800,"station_id":"ce4bgop2rcd13ifvqc1g","pricing_plan_id":"cebpf4jnsgd1na2vs0mg"},{"bike_id":"9de47216-396a-4527-b8a6-20602b2777da","system_id":"levelo_inurba_marseille","lat":43.297774,"lon":5.370875,"is_reserved":false,"is_disabled":false,"rental_uris":{"android":"levelo://app?vid=9de47216-396a-4527-b8a6-20602b2777da","ios":"levelo://app?vid=9de47216-396a-4527-b8a6-20602b2777da"},"vehicle_type_id":"4","last_reported":1721239847,"current_range_meters":6000,"station_id":"ce4bgop2rcd13ifvqc1g","pricing_plan_id":"cebpf4jnsgd1na2vs0mg"},{"bike_id":"1aa40f4b-ca9c-439f-879a-6093ee511f27","system_id":"levelo_inurba_marseille","lat":43.322872,"lon":5.382756,"is_reserved":false,"is_disabled":false,"rental_uris":{"android":"levelo://app?vid=1aa40f4b-ca9c-439f-879a-6093ee511f27","ios":"levelo://app?vid=1aa40f4b-ca9c-439f-879a-6093ee511f27"},"vehicle_type_id":"4","last_reported":1721239847,"current_range_meters":6800,"station_id":"ce4bhr12rcd13ifvqhqg","pricing_plan_id":"cebpf4jnsgd1na2vs0mg"},{"bike_id":"a17f5bdc-dd95-4cf9-baf3-dbd017b3a462","system_id":"levelo_inurba_marseille","lat":43.297163,"lon":5.365866,"is_reserved":false,"is_disabled":false,"rental_uris":{"android":"levelo://app?vid=a17f5bdc-dd95-4cf9-baf3-dbd017b3a462","ios":"levelo://app?vid=a17f5bdc-dd95-4cf9-baf3-dbd017b3a462"},"vehicle_type_id":"4","last_reported":1721239847,"current_range_meters":9600,"station_id":"ce4bgn12rcd13ifvqbt0","pricing_plan_id":"cebpf4jnsgd1na2vs0mg"},{"bike_id":"f282ac17-40da-4954-900d-3a0d7e2d18cf","system_id":"levelo_inurba_marseille","lat":43.2968,"lon":5.37291,"is_reserved":false,"is_disabled":false,"rental_uris":{"android":"levelo://app?vid=f282ac17-40da-4954-900d-3a0d7e2d18cf","ios":"levelo://app?vid=f282ac17-40da-4954-900d-3a0d7e2d18cf"},"vehicle_type_id":"4","last_reported":1721239847,"current_range_meters":26800,"station_id":"ce4bgk12rcd13ifvqbj0","pricing_plan_id":"cebpf4jnsgd1na2vs0mg"},{"bike_id":"2808477d-9f59-4e90-9089-cbbdfcc15345","system_id":"levelo_inurba_marseille","lat":43.31529,"lon":5.389447,"is_reserved":false,"is_disabled":false,"rental_uris":{"android":"levelo://app?vid=2808477d-9f59-4e90-9089-cbbdfcc15345","ios":"levelo://app?vid=2808477d-9f59-4e90-9089-cbbdfcc15345"},"vehicle_type_id":"4","last_reported":1721239847,"current_range_meters":4400,"station_id":"","pricing_plan_id":"cebpf4jnsgd1na2vs0mg"},{"bike_id":"7e9ab12e-47b9-45cb-9b12-2aede4c083f4","system_id":"levelo_inurba_marseille","lat":43.296131,"lon":5.370791,"is_reserved":false,"is_disabled":false,"rental_uris":{"android":"levelo://app?vid=7e9ab12e-47b9-45cb-9b12-2aede4c083f4","ios":"levelo://app?vid=7e9ab12e-47b9-45cb-9b12-2aede4c083f4"},"vehicle_type_id":"4","last_reported":1721239847,"current_range_meters":21600,"station_id":"ce4bgnh2rcd13ifvqc0g","pricing_plan_id":"cebpf4jnsgd1na2vs0mg"},{"bike_id":"55ef7a44-1ace-499c-9b45-0a1ed3a24b52","system_id":"levelo_inurba_marseille","lat":43.296131,"lon":5.370791,"is_reserved":false,"is_disabled":false,"rental_uris":{"android":"levelo://app?vid=55ef7a44-1ace-499c-9b45-0a1ed3a24b52","ios":"levelo://app?vid=55ef7a44-1ace-499c-9b45-0a1ed3a24b52"},"vehicle_type_id":"4","last_reported":1721239847,"current_range_meters":16000,"station_id":"ce4bgnh2rcd13ifvqc0g","pricing_plan_id":"cebpf4jnsgd1na2vs0mg"},{"bike_id":"24251f93-3d56-4bbc-8fd6-159ab9faa94f","system_id":"levelo_inurba_marseille","lat":43.29625,"lon":5.37162,"is_reserved":false,"is_disabled":false,"rental_uris":{"android":"levelo://app?vid=24251f93-3d56-4bbc-8fd6-159ab9faa94f","ios":"levelo://app?vid=24251f93-3d56-4bbc-8fd6-159ab9faa94f"},"vehicle_type_id":"4","last_reported":1721239847,"current_range_meters":28800,"station_id":"ce4bgnh2rcd13ifvqc0g","pricing_plan_id":"cebpf4jnsgd1na2vs0mg"},{"bike_id":"3695d83e-5386-4730-a17d-d3b13fe595a9","system_id":"levelo_inurba_marseille","lat":43.29573,"lon":5.367355,"is_reserved":false,"is_disabled":false,"rental_uris":{"android":"levelo://app?vid=3695d83e-5386-4730-a17d-d3b13fe595a9","ios":"levelo://app?vid=3695d83e-5386-4730-a17d-d3b13fe595a9"},"vehicle_type_id":"4","last_reported":1721239847,"current_range_meters":20800,"station_id":"ce4bgph2rcd13ifvqc2g","pricing_plan_id":"cebpf4jnsgd1na2vs0mg"},{"bike_id":"e3d6924e-d260-49ad-b4f9-6423bdef75c3","system_id":"levelo_inurba_marseille","lat":43.29573,"lon":5.367355,"is_reserved":false,"is_disabled":false,"rental_uris":{"android":"levelo://app?vid=e3d6924e-d260-49ad-b4f9-6423bdef75c3","ios":"levelo://app?vid=e3d6924e-d260-49ad-b4f9-6423bdef75c3"},"vehicle_type_id":"4","last_reported":1721239847,"current_range_meters":25600,"station_id":"ce4bgph2rcd13ifvqc2g","pricing_plan_id":"cebpf4jnsgd1na2vs0mg"},{"bike_id":"7265d28e-7db8-4585-9b6a-8567ba21a1cf","system_id":"levelo_inurba_marseille","lat":43.303857,"lon":5.386726,"is_reserved":false,"is_disabled":false,"rental_uris":{"android":"levelo://app?vid=7265d28e-7db8-4585-9b6a-8567ba21a1cf","ios":"levelo://app?vid=7265d28e-7db8-4585-9b6a-8567ba21a1cf"},"vehicle_type_id":"4","last_reported":1721239847,"current_range_meters":0,"station_id":"","pricing_plan_id":"cebpf4jnsgd1na2vs0mg"},{"bike_id":"24951d5b-ad87-4826-89f0-3c75ed5e7f8b","system_id":"levelo_inurba_marseille","lat":43.2991,"lon":5.38128,"is_reserved":false,"is_disabled":false,"rental_uris":{"android":"levelo://app?vid=24951d5b-ad87-4826-89f0-3c75ed5e7f8b","ios":"levelo://app?vid=24951d5b-ad87-4826-89f0-3c75ed5e7f8b"},"vehicle_type_id":"4","last_reported":1721239847,"current_range_meters":1200,"station_id":"ce4bgj12rcd13ifvqbc0","pricing_plan_id":"cebpf4jnsgd1na2vs0mg"},{"bike_id":"aadd74b9-507a-4b4c-ac04-d8e852b7fd90","system_id":"levelo_inurba_marseille","lat":43.299028,"lon":5.381509,"is_reserved":false,"is_disabled":false,"rental_uris":{"android":"levelo://app?vid=aadd74b9-507a-4b4c-ac04-d8e852b7fd90","ios":"levelo://app?vid=aadd74b9-507a-4b4c-ac04-d8e852b7fd90"},"vehicle_type_id":"4","last_reported":1721239847,"current_range_meters":0,"station_id":"ce4bgj12rcd13ifvqbc0","pricing_plan_id":"cebpf4jnsgd1na2vs0mg"},{"bike_id":"965ce440-edae-4609-9150-2e587b448e84","system_id":"levelo_inurba_marseille","lat":43.298037,"lon":5.381066,"is_reserved":false,"is_disabled":false,"rental_uris":{"android":"levelo://app?vid=965ce440-edae-4609-9150-2e587b448e84","ios":"levelo://app?vid=965ce440-edae-4609-9150-2e587b448e84"},"vehicle_type_id":"4","last_reported":1721239847,"current_range_meters":3200,"station_id":"ce4bgip2rcd13ifvqbb0","pricing_plan_id":"cebpf4jnsgd1na2vs0mg"},{"bike_id":"24da3a2a-683e-4edd-aaeb-907ad9610ca6","system_id":"levelo_inurba_marseille","lat":43.304274,"lon":5.388873,"is_reserved":false,"is_disabled":false,"rental_uris":{"android":"levelo://app?vid=24da3a2a-683e-4edd-aaeb-907ad9610ca6","ios":"levelo://app?vid=24da3a2a-683e-4edd-aaeb-907ad9610ca6"},"vehicle_type_id":"4","last_reported":1721239847,"current_range_meters":27200,"station_id":"ce4bgk12rcd13ifvqbi0","pricing_plan_id":"cebpf4jnsgd1na2vs0mg"},{"bike_id":"9f1d4573-5809-40b6-ac7c-0b4564a229a7","system_id":"levelo_inurba_marseille","lat":43.304278,"lon":5.388868,"is_reserved":false,"is_disabled":false,"rental_uris":{"android":"levelo://app?vid=9f1d4573-5809-40b6-ac7c-0b4564a229a7","ios":"levelo://app?vid=9f1d4573-5809-40b6-ac7c-0b4564a229a7"},"vehicle_type_id":"4","last_reported":1721239847,"current_range_meters":12000,"station_id":"ce4bgk12rcd13ifvqbi0","pricing_plan_id":"cebpf4jnsgd1na2vs0mg"},{"bike_id":"3904101d-5d17-4458-9446-2589df285d60","system_id":"levelo_inurba_marseille","lat":43.29783,"lon":5.38102,"is_reserved":false,"is_disabled":false,"rental_uris":{"android":"levelo://app?vid=3904101d-5d17-4458-9446-2589df285d60","ios":"levelo://app?vid=3904101d-5d17-4458-9446-2589df285d60"},"vehicle_type_id":"4","last_reported":1721239847,"current_range_meters":0,"station_id":"ce4bgip2rcd13ifvqbb0","pricing_plan_id":"cebpf4jnsgd1na2vs0mg"},{"bike_id":"78b31ca2-7865-4ceb-8a58-c34d97da5cec","system_id":"levelo_inurba_marseille","lat":43.295279,"lon":5.375048,"is_reserved":false,"is_disabled":false,"rental_uris":{"android":"levelo://app?vid=78b31ca2-7865-4ceb-8a58-c34d97da5cec","ios":"levelo://app?vid=78b31ca2-7865-4ceb-8a58-c34d97da5cec"},"vehicle_type_id":"4","last_reported":1721239847,"current_range_meters":20400,"station_id":"ce4bgkp2rcd13ifvqbmg","pricing_plan_id":"cebpf4jnsgd1na2vs0mg"},{"bike_id":"85892fa7-6a06-450e-aa8e-6f3e114aaf72","system_id":"levelo_inurba_marseille","lat":43.299717,"lon":5.384845,"is_reserved":false,"is_disabled":false,"rental_uris":{"android":"levelo://app?vid=85892fa7-6a06-450e-aa8e-6f3e114aaf72","ios":"levelo://app?vid=85892fa7-6a06-450e-aa8e-6f3e114aaf72"},"vehicle_type_id":"4","last_reported":1721239847,"current_range_meters":23200,"station_id":"ce4bgj92rcd13ifvqbd0","pricing_plan_id":"cebpf4jnsgd1na2vs0mg"},{"bike_id":"1671108c-cdfc-43a4-8611-5bedb6d6e522","system_id":"levelo_inurba_marseille","lat":43.299717,"lon":5.384845,"is_reserved":false,"is_disabled":false,"rental_uris":{"android":"levelo://app?vid=1671108c-cdfc-43a4-8611-5bedb6d6e522","ios":"levelo://app?vid=1671108c-cdfc-43a4-8611-5bedb6d6e522"},"vehicle_type_id":"4","last_reported":1721239847,"current_range_meters":8800,"station_id":"ce4bgj92rcd13ifvqbd0","pricing_plan_id":"cebpf4jnsgd1na2vs0mg"},{"bike_id":"b097be3e-bd13-4167-9063-ef0f8143ec46","system_id":"levelo_inurba_marseille","lat":43.295279,"lon":5.375048,"is_reserved":false,"is_disabled":false,"rental_uris":{"android":"levelo://app?vid=b097be3e-bd13-4167-9063-ef0f8143ec46","ios":"levelo://app?vid=b097be3e-bd13-4167-9063-ef0f8143ec46"},"vehicle_type_id":"4","last_reported":1721239847,"current_range_meters":1600,"station_id":"ce4bgkp2rcd13ifvqbmg","pricing_plan_id":"cebpf4jnsgd1na2vs0mg"},{"bike_id":"18491e9b-089a-423d-92a6-2224fb4ac1cb","system_id":"levelo_inurba_marseille","lat":43.30473,"lon":5.39011,"is_reserved":false,"is_disabled":false,"rental_uris":{"android":"levelo://app?vid=18491e9b-089a-423d-92a6-2224fb4ac1cb","ios":"levelo://app?vid=18491e9b-089a-423d-92a6-2224fb4ac1cb"},"vehicle_type_id":"4","last_reported":1721239847,"current_range_meters":14400,"station_id":"","pricing_plan_id":"cebpf4jnsgd1na2vs0mg"},{"bike_id":"239e0100-b84f-4d5b-85c7-945abfb4d8fa","system_id":"levelo_inurba_marseille","lat":43.29553,"lon":5.37723,"is_reserved":false,"is_disabled":false,"rental_uris":{"android":"levelo://app?vid=239e0100-b84f-4d5b-85c7-945abfb4d8fa","ios":"levelo://app?vid=239e0100-b84f-4d5b-85c7-945abfb4d8fa"},"vehicle_type_id":"4","last_reported":1721239847,"current_range_meters":0,"station_id":"","pricing_plan_id":"cebpf4jnsgd1na2vs0mg"},{"bike_id":"05fc53db-4b17-48f3-b0a3-83d9880202d0","system_id":"levelo_inurba_marseille","lat":43.301396,"lon":5.387812,"is_reserved":false,"is_disabled":false,"rental_uris":{"android":"levelo://app?vid=05fc53db-4b17-48f3-b0a3-83d9880202d0","ios":"levelo://app?vid=05fc53db-4b17-48f3-b0a3-83d9880202d0"},"vehicle_type_id":"4","last_reported":1721239847,"current_range_meters":0,"station_id":"ce4bghh2rcd13ifvqb60","pricing_plan_id":"cebpf4jnsgd1na2vs0mg"},{"bike_id":"46a8a078-9326-4078-b411-0755af9ae564","system_id":"levelo_inurba_marseille","lat":43.30145,"lon":5.38773,"is_reserved":false,"is_disabled":false,"rental_uris":{"android":"levelo://app?vid=46a8a078-9326-4078-b411-0755af9ae564","ios":"levelo://app?vid=46a8a078-9326-4078-b411-0755af9ae564"},"vehicle_type_id":"4","last_reported":1721239847,"current_range_meters":0,"station_id":"ce4bghh2rcd13ifvqb60","pricing_plan_id":"cebpf4jnsgd1na2vs0mg"},{"bike_id":"b162d109-b018-4472-af10-e4833d899ab2","system_id":"levelo_inurba_marseille","lat":43.32367,"lon":5.388836,"is_reserved":false,"is_disabled":false,"rental_uris":{"android":"levelo://app?vid=b162d109-b018-4472-af10-e4833d899ab2","ios":"levelo://app?vid=b162d109-b018-4472-af10-e4833d899ab2"},"vehicle_type_id":"4","last_reported":1721239847,"current_range_meters":400,"station_id":"ce4bhqp2rcd13ifvqhog","pricing_plan_id":"cebpf4jnsgd1na2vs0mg"},{"bike_id":"d38a2f2a-cf06-4761-a48d-394eeeb72269","system_id":"levelo_inurba_marseille","lat":43.32367,"lon":5.388836,"is_reserved":false,"is_disabled":false,"rental_uris":{"android":"levelo://app?vid=d38a2f2a-cf06-4761-a48d-394eeeb72269","ios":"levelo://app?vid=d38a2f2a-cf06-4761-a48d-394eeeb72269"},"vehicle_type_id":"4","last_reported":1721239847,"current_range_meters":11600,"station_id":"ce4bhqp2rcd13ifvqhog","pricing_plan_id":"cebpf4jnsgd1na2vs0mg"},{"bike_id":"5e3d4648-5478-405c-99fa-571024102e34","system_id":"levelo_inurba_marseille","lat":43.32367,"lon":5.388836,"is_reserved":false,"is_disabled":false,"rental_uris":{"android":"levelo://app?vid=5e3d4648-5478-405c-99fa-571024102e34","ios":"levelo://app?vid=5e3d4648-5478-405c-99fa-571024102e34"},"vehicle_type_id":"4","last_reported":1721239847,"current_range_meters":2800,"station_id":"ce4bhqp2rcd13ifvqhog","pricing_plan_id":"cebpf4jnsgd1na2vs0mg"},{"bike_id":"2aeaaab9-ad82-417d-8e44-8375dffaf90a","system_id":"levelo_inurba_marseille","lat":43.30747,"lon":5.39261,"is_reserved":false,"is_disabled":false,"rental_uris":{"android":"levelo://app?vid=2aeaaab9-ad82-417d-8e44-8375dffaf90a","ios":"levelo://app?vid=2aeaaab9-ad82-417d-8e44-8375dffaf90a"},"vehicle_type_id":"4","last_reported":1721239847,"current_range_meters":21600,"station_id":"","pricing_plan_id":"cebpf4jnsgd1na2vs0mg"},{"bike_id":"c6985fb5-e6c2-4943-b5c8-e7a955573e0a","system_id":"levelo_inurba_marseille","lat":43.29608,"lon":5.38096,"is_reserved":false,"is_disabled":false,"rental_uris":{"android":"levelo://app?vid=c6985fb5-e6c2-4943-b5c8-e7a955573e0a","ios":"levelo://app?vid=c6985fb5-e6c2-4943-b5c8-e7a955573e0a"},"vehicle_type_id":"4","last_reported":1721239847,"current_range_meters":4400,"station_id":"ce4bgl12rcd13ifvqbo0","pricing_plan_id":"cebpf4jnsgd1na2vs0mg"},{"bike_id":"f4622877-fb1f-4a18-b161-e2eb8553f2d7","system_id":"levelo_inurba_marseille","lat":43.29602,"lon":5.381084,"is_reserved":false,"is_disabled":false,"rental_uris":{"android":"levelo://app?vid=f4622877-fb1f-4a18-b161-e2eb8553f2d7","ios":"levelo://app?vid=f4622877-fb1f-4a18-b161-e2eb8553f2d7"},"vehicle_type_id":"4","last_reported":1721239847,"current_range_meters":0,"station_id":"ce4bgl12rcd13ifvqbo0","pricing_plan_id":"cebpf4jnsgd1na2vs0mg"},{"bike_id":"1e5f11b9-4657-4be1-9881-e0d6b8e8a4c5","system_id":"levelo_inurba_marseille","lat":43.29602,"lon":5.381084,"is_reserved":false,"is_disabled":false,"rental_uris":{"android":"levelo://app?vid=1e5f11b9-4657-4be1-9881-e0d6b8e8a4c5","ios":"levelo://app?vid=1e5f11b9-4657-4be1-9881-e0d6b8e8a4c5"},"vehicle_type_id":"4","last_reported":1721239847,"current_range_meters":0,"station_id":"ce4bgl12rcd13ifvqbo0","pricing_plan_id":"cebpf4jnsgd1na2vs0mg"},{"bike_id":"2ede9a5a-b07e-4308-88d2-96478bce5dba","system_id":"levelo_inurba_marseille","lat":43.293249,"lon":5.371578,"is_reserved":false,"is_disabled":false,"rental_uris":{"android":"levelo://app?vid=2ede9a5a-b07e-4308-88d2-96478bce5dba","ios":"levelo://app?vid=2ede9a5a-b07e-4308-88d2-96478bce5dba"},"vehicle_type_id":"4","last_reported":1721239847,"current_range_meters":27200,"station_id":"ce4bgh92rcd13ifvqb40","pricing_plan_id":"cebpf4jnsgd1na2vs0mg"},{"bike_id":"44be5e66-d691-42a2-b16d-a04e9fc00f16","system_id":"levelo_inurba_marseille","lat":43.29309,"lon":5.3719,"is_reserved":false,"is_disabled":false,"rental_uris":{"android":"levelo://app?vid=44be5e66-d691-42a2-b16d-a04e9fc00f16","ios":"levelo://app?vid=44be5e66-d691-42a2-b16d-a04e9fc00f16"},"vehicle_type_id":"4","last_reported":1721239847,"current_range_meters":30000,"station_id":"ce4bgh92rcd13ifvqb40","pricing_plan_id":"cebpf4jnsgd1na2vs0mg"},{"bike_id":"39cb0bdb-bba2-46df-b82d-919b22d30de9","system_id":"levelo_inurba_marseille","lat":43.29308,"lon":5.37188,"is_reserved":false,"is_disabled":false,"rental_uris":{"android":"levelo://app?vid=39cb0bdb-bba2-46df-b82d-919b22d30de9","ios":"levelo://app?vid=39cb0bdb-bba2-46df-b82d-919b22d30de9"},"vehicle_type_id":"4","last_reported":1721239847,"current_range_meters":23200,"station_id":"ce4bgh92rcd13ifvqb40","pricing_plan_id":"cebpf4jnsgd1na2vs0mg"},{"bike_id":"d1aae558-4ed5-4133-ad3d-a5206f9e0e76","system_id":"levelo_inurba_marseille","lat":43.29276,"lon":5.36843,"is_reserved":false,"is_disabled":false,"rental_uris":{"android":"levelo://app?vid=d1aae558-4ed5-4133-ad3d-a5206f9e0e76","ios":"levelo://app?vid=d1aae558-4ed5-4133-ad3d-a5206f9e0e76"},"vehicle_type_id":"4","last_reported":1721239847,"current_range_meters":16400,"station_id":"ce4bhbp2rcd13ifvqesg","pricing_plan_id":"cebpf4jnsgd1na2vs0mg"},{"bike_id":"06d0fe0f-fd86-4ad6-94ef-a27fad18971e","system_id":"levelo_inurba_marseille","lat":43.29276,"lon":5.368475,"is_reserved":false,"is_disabled":false,"rental_uris":{"android":"levelo://app?vid=06d0fe0f-fd86-4ad6-94ef-a27fad18971e","ios":"levelo://app?vid=06d0fe0f-fd86-4ad6-94ef-a27fad18971e"},"vehicle_type_id":"4","last_reported":1721239847,"current_range_meters":400,"station_id":"ce4bhbp2rcd13ifvqesg","pricing_plan_id":"cebpf4jnsgd1na2vs0mg"},{"bike_id":"1ef4ff4b-5381-48b6-9213-103c6942408b","system_id":"levelo_inurba_marseille","lat":43.293259,"lon":5.371586,"is_reserved":false,"is_disabled":false,"rental_uris":{"android":"levelo://app?vid=1ef4ff4b-5381-48b6-9213-103c6942408b","ios":"levelo://app?vid=1ef4ff4b-5381-48b6-9213-103c6942408b"},"vehicle_type_id":"4","last_reported":1721239847,"current_range_meters":400,"station_id":"ce4bgh92rcd13ifvqb40","pricing_plan_id":"cebpf4jnsgd1na2vs0mg"},{"bike_id":"d206ae0e-fe53-4e29-b12c-ea04d51d69c5","system_id":"levelo_inurba_marseille","lat":43.30236,"lon":5.39044,"is_reserved":false,"is_disabled":false,"rental_uris":{"android":"levelo://app?vid=d206ae0e-fe53-4e29-b12c-ea04d51d69c5","ios":"levelo://app?vid=d206ae0e-fe53-4e29-b12c-ea04d51d69c5"},"vehicle_type_id":"4","last_reported":1721239847,"current_range_meters":0,"station_id":"ce4bghh2rcd13ifvqb60","pricing_plan_id":"cebpf4jnsgd1na2vs0mg"},{"bike_id":"98ddc4e3-20cd-4613-bef1-b25afabd4dfd","system_id":"levelo_inurba_marseille","lat":43.29302,"lon":5.37163,"is_reserved":false,"is_disabled":false,"rental_uris":{"android":"levelo://app?vid=98ddc4e3-20cd-4613-bef1-b25afabd4dfd","ios":"levelo://app?vid=98ddc4e3-20cd-4613-bef1-b25afabd4dfd"},"vehicle_type_id":"4","last_reported":1721239847,"current_range_meters":0,"station_id":"ce4bgh92rcd13ifvqb40","pricing_plan_id":"cebpf4jnsgd1na2vs0mg"},{"bike_id":"bb5137a1-c148-4557-8dd0-0db7ee7fad89","system_id":"levelo_inurba_marseille","lat":43.29272,"lon":5.36836,"is_reserved":false,"is_disabled":false,"rental_uris":{"android":"levelo://app?vid=bb5137a1-c148-4557-8dd0-0db7ee7fad89","ios":"levelo://app?vid=bb5137a1-c148-4557-8dd0-0db7ee7fad89"},"vehicle_type_id":"4","last_reported":1721239847,"current_range_meters":0,"station_id":"ce4bhbp2rcd13ifvqesg","pricing_plan_id":"cebpf4jnsgd1na2vs0mg"},{"bike_id":"1bcd4200-ed31-4ce3-bf65-a12048f20f02","system_id":"levelo_inurba_marseille","lat":43.29272,"lon":5.36843,"is_reserved":false,"is_disabled":false,"rental_uris":{"android":"levelo://app?vid=1bcd4200-ed31-4ce3-bf65-a12048f20f02","ios":"levelo://app?vid=1bcd4200-ed31-4ce3-bf65-a12048f20f02"},"vehicle_type_id":"4","last_reported":1721239847,"current_range_meters":0,"station_id":"ce4bhbp2rcd13ifvqesg","pricing_plan_id":"cebpf4jnsgd1na2vs0mg"},{"bike_id":"12b8459a-6a87-4648-bb13-5fdd4422523f","system_id":"levelo_inurba_marseille","lat":43.293009,"lon":5.374584,"is_reserved":false,"is_disabled":false,"rental_uris":{"android":"levelo://app?vid=12b8459a-6a87-4648-bb13-5fdd4422523f","ios":"levelo://app?vid=12b8459a-6a87-4648-bb13-5fdd4422523f"},"vehicle_type_id":"4","last_reported":1721239847,"current_range_meters":20400,"station_id":"ce4bgi12rcd13ifvqb70","pricing_plan_id":"cebpf4jnsgd1na2vs0mg"},{"bike_id":"083f07b6-a228-4571-81c7-0877077213dc","system_id":"levelo_inurba_marseille","lat":43.29231,"lon":5.36345,"is_reserved":false,"is_disabled":false,"rental_uris":{"android":"levelo://app?vid=083f07b6-a228-4571-81c7-0877077213dc","ios":"levelo://app?vid=083f07b6-a228-4571-81c7-0877077213dc"},"vehicle_type_id":"4","last_reported":1721239847,"current_range_meters":11200,"station_id":"","pricing_plan_id":"cebpf4jnsgd1na2vs0mg"},{"bike_id":"e18dd9a6-2bd7-4bed-a925-a6a341419255","system_id":"levelo_inurba_marseille","lat":43.30314,"lon":5.39202,"is_reserved":false,"is_disabled":false,"rental_uris":{"android":"levelo://app?vid=e18dd9a6-2bd7-4bed-a925-a6a341419255","ios":"levelo://app?vid=e18dd9a6-2bd7-4bed-a925-a6a341419255"},"vehicle_type_id":"4","last_reported":1721239847,"current_range_meters":0,"station_id":"ce4bgkh2rcd13ifvqbk0","pricing_plan_id":"cebpf4jnsgd1na2vs0mg"},{"bike_id":"687489c7-ab2a-49c7-ac77-f536c5218a59","system_id":"levelo_inurba_marseille","lat":43.292311,"lon":5.360731,"is_reserved":false,"is_disabled":false,"rental_uris":{"android":"levelo://app?vid=687489c7-ab2a-49c7-ac77-f536c5218a59","ios":"levelo://app?vid=687489c7-ab2a-49c7-ac77-f536c5218a59"},"vehicle_type_id":"4","last_reported":1721239847,"current_range_meters":0,"station_id":"ce4bhbh2rcd13ifvqeqg","pricing_plan_id":"cebpf4jnsgd1na2vs0mg"},{"bike_id":"5ba80f40-d62d-429c-949b-1983f680443e","system_id":"levelo_inurba_marseille","lat":43.29231,"lon":5.36058,"is_reserved":false,"is_disabled":false,"rental_uris":{"android":"levelo://app?vid=5ba80f40-d62d-429c-949b-1983f680443e","ios":"levelo://app?vid=5ba80f40-d62d-429c-949b-1983f680443e"},"vehicle_type_id":"4","last_reported":1721239847,"current_range_meters":0,"station_id":"ce4bhbh2rcd13ifvqeqg","pricing_plan_id":"cebpf4jnsgd1na2vs0mg"},{"bike_id":"efa09a3d-0d43-42f5-b945-17d87c849d4b","system_id":"levelo_inurba_marseille","lat":43.292294,"lon":5.360624,"is_reserved":false,"is_disabled":false,"rental_uris":{"android":"levelo://app?vid=efa09a3d-0d43-42f5-b945-17d87c849d4b","ios":"levelo://app?vid=efa09a3d-0d43-42f5-b945-17d87c849d4b"},"vehicle_type_id":"4","last_reported":1721239847,"current_range_meters":0,"station_id":"","pricing_plan_id":"cebpf4jnsgd1na2vs0mg"},{"bike_id":"258899e2-8615-43a8-83ae-38f641300700","system_id":"levelo_inurba_marseille","lat":43.292311,"lon":5.360731,"is_reserved":false,"is_disabled":false,"rental_uris":{"android":"levelo://app?vid=258899e2-8615-43a8-83ae-38f641300700","ios":"levelo://app?vid=258899e2-8615-43a8-83ae-38f641300700"},"vehicle_type_id":"4","last_reported":1721239847,"current_range_meters":15200,"station_id":"ce4bhbh2rcd13ifvqeqg","pricing_plan_id":"cebpf4jnsgd1na2vs0mg"},{"bike_id":"435450ff-a996-4420-bcd9-af36d5838de5","system_id":"levelo_inurba_marseille","lat":43.292311,"lon":5.360731,"is_reserved":false,"is_disabled":false,"rental_uris":{"android":"levelo://app?vid=435450ff-a996-4420-bcd9-af36d5838de5","ios":"levelo://app?vid=435450ff-a996-4420-bcd9-af36d5838de5"},"vehicle_type_id":"4","last_reported":1721239847,"current_range_meters":9200,"station_id":"ce4bhbh2rcd13ifvqeqg","pricing_plan_id":"cebpf4jnsgd1na2vs0mg"},{"bike_id":"86860fd5-81a0-4bf0-9405-54623703c568","system_id":"levelo_inurba_marseille","lat":43.29347,"lon":5.37852,"is_reserved":false,"is_disabled":false,"rental_uris":{"android":"levelo://app?vid=86860fd5-81a0-4bf0-9405-54623703c568","ios":"levelo://app?vid=86860fd5-81a0-4bf0-9405-54623703c568"},"vehicle_type_id":"4","last_reported":1721239847,"current_range_meters":20800,"station_id":"ce4bgjh2rcd13ifvqbf0","pricing_plan_id":"cebpf4jnsgd1na2vs0mg"},{"bike_id":"ac463a3b-411d-4afe-9e58-d0b090da1880","system_id":"levelo_inurba_marseille","lat":43.292311,"lon":5.360731,"is_reserved":false,"is_disabled":false,"rental_uris":{"android":"levelo://app?vid=ac463a3b-411d-4afe-9e58-d0b090da1880","ios":"levelo://app?vid=ac463a3b-411d-4afe-9e58-d0b090da1880"},"vehicle_type_id":"4","last_reported":1721239847,"current_range_meters":28800,"station_id":"ce4bhbh2rcd13ifvqeqg","pricing_plan_id":"cebpf4jnsgd1na2vs0mg"},{"bike_id":"7b8c75b8-e5e1-438c-ae9d-2f55e710bc18","system_id":"levelo_inurba_marseille","lat":43.292005,"lon":5.357875,"is_reserved":false,"is_disabled":false,"rental_uris":{"android":"levelo://app?vid=7b8c75b8-e5e1-438c-ae9d-2f55e710bc18","ios":"levelo://app?vid=7b8c75b8-e5e1-438c-ae9d-2f55e710bc18"},"vehicle_type_id":"4","last_reported":1721239847,"current_range_meters":0,"station_id":"ce4bhb12rcd13ifvqel0","pricing_plan_id":"cebpf4jnsgd1na2vs0mg"},{"bike_id":"af32233a-d294-4bcf-90a3-37f84d1e5ae3","system_id":"levelo_inurba_marseille","lat":43.291994,"lon":5.357886,"is_reserved":false,"is_disabled":false,"rental_uris":{"android":"levelo://app?vid=af32233a-d294-4bcf-90a3-37f84d1e5ae3","ios":"levelo://app?vid=af32233a-d294-4bcf-90a3-37f84d1e5ae3"},"vehicle_type_id":"4","last_reported":1721239847,"current_range_meters":0,"station_id":"ce4bhb12rcd13ifvqel0","pricing_plan_id":"cebpf4jnsgd1na2vs0mg"},{"bike_id":"ba4fb6ad-d540-4b64-a98c-df089e5d9560","system_id":"levelo_inurba_marseille","lat":43.313291,"lon":5.396838,"is_reserved":false,"is_disabled":false,"rental_uris":{"android":"levelo://app?vid=ba4fb6ad-d540-4b64-a98c-df089e5d9560","ios":"levelo://app?vid=ba4fb6ad-d540-4b64-a98c-df089e5d9560"},"vehicle_type_id":"4","last_reported":1721239847,"current_range_meters":2000,"station_id":"ce4bgvp2rcd13ifvqcu0","pricing_plan_id":"cebpf4jnsgd1na2vs0mg"},{"bike_id":"7b418bed-8649-4f65-9ff7-8b7e34ef9974","system_id":"levelo_inurba_marseille","lat":43.313291,"lon":5.396838,"is_reserved":false,"is_disabled":false,"rental_uris":{"android":"levelo://app?vid=7b418bed-8649-4f65-9ff7-8b7e34ef9974","ios":"levelo://app?vid=7b418bed-8649-4f65-9ff7-8b7e34ef9974"},"vehicle_type_id":"4","last_reported":1721239847,"current_range_meters":21600,"station_id":"ce4bgvp2rcd13ifvqcu0","pricing_plan_id":"cebpf4jnsgd1na2vs0mg"},{"bike_id":"75993475-24b5-4431-bf7f-9760c1b261df","system_id":"levelo_inurba_marseille","lat":43.313291,"lon":5.396838,"is_reserved":false,"is_disabled":false,"rental_uris":{"android":"levelo://app?vid=75993475-24b5-4431-bf7f-9760c1b261df","ios":"levelo://app?vid=75993475-24b5-4431-bf7f-9760c1b261df"},"vehicle_type_id":"4","last_reported":1721239847,"current_range_meters":400,"station_id":"ce4bgvp2rcd13ifvqcu0","pricing_plan_id":"cebpf4jnsgd1na2vs0mg"},{"bike_id":"7f8ec734-561a-48c4-9edb-f7554df82270","system_id":"levelo_inurba_marseille","lat":43.309047,"lon":5.396551,"is_reserved":false,"is_disabled":false,"rental_uris":{"android":"levelo://app?vid=7f8ec734-561a-48c4-9edb-f7554df82270","ios":"levelo://app?vid=7f8ec734-561a-48c4-9edb-f7554df82270"},"vehicle_type_id":"4","last_reported":1721239847,"current_range_meters":9200,"station_id":"ce4bh012rcd13ifvqcv0","pricing_plan_id":"cebpf4jnsgd1na2vs0mg"},{"bike_id":"43dc8aee-a70b-4b6c-8eed-52a023e37278","system_id":"levelo_inurba_marseille","lat":43.309038,"lon":5.396546,"is_reserved":false,"is_disabled":false,"rental_uris":{"android":"levelo://app?vid=43dc8aee-a70b-4b6c-8eed-52a023e37278","ios":"levelo://app?vid=43dc8aee-a70b-4b6c-8eed-52a023e37278"},"vehicle_type_id":"4","last_reported":1721239847,"current_range_meters":2000,"station_id":"ce4bh012rcd13ifvqcv0","pricing_plan_id":"cebpf4jnsgd1na2vs0mg"},{"bike_id":"a09ff6a2-7703-432f-88bd-f5b1ba8ab86b","system_id":"levelo_inurba_marseille","lat":43.295327,"lon":5.38547,"is_reserved":false,"is_disabled":false,"rental_uris":{"android":"levelo://app?vid=a09ff6a2-7703-432f-88bd-f5b1ba8ab86b","ios":"levelo://app?vid=a09ff6a2-7703-432f-88bd-f5b1ba8ab86b"},"vehicle_type_id":"4","last_reported":1721239847,"current_range_meters":31200,"station_id":"","pricing_plan_id":"cebpf4jnsgd1na2vs0mg"},{"bike_id":"826de46e-4602-4218-9d11-db3bb92afd47","system_id":"levelo_inurba_marseille","lat":43.290779,"lon":5.371482,"is_reserved":false,"is_disabled":false,"rental_uris":{"android":"levelo://app?vid=826de46e-4602-4218-9d11-db3bb92afd47","ios":"levelo://app?vid=826de46e-4602-4218-9d11-db3bb92afd47"},"vehicle_type_id":"4","last_reported":1721239847,"current_range_meters":400,"station_id":"ce4bh5p2rcd13ifvqe4g","pricing_plan_id":"cebpf4jnsgd1na2vs0mg"},{"bike_id":"7daa8401-3b04-4a72-ac90-6d8ea14b4cef","system_id":"levelo_inurba_marseille","lat":43.30214,"lon":5.39467,"is_reserved":false,"is_disabled":false,"rental_uris":{"android":"levelo://app?vid=7daa8401-3b04-4a72-ac90-6d8ea14b4cef","ios":"levelo://app?vid=7daa8401-3b04-4a72-ac90-6d8ea14b4cef"},"vehicle_type_id":"4","last_reported":1721239847,"current_range_meters":0,"station_id":"ce4bh0p2rcd13ifvqd70","pricing_plan_id":"cebpf4jnsgd1na2vs0mg"},{"bike_id":"2ed978bc-ea75-4270-8c9d-e70edddc09ae","system_id":"levelo_inurba_marseille","lat":43.29055,"lon":5.3591,"is_reserved":false,"is_disabled":false,"rental_uris":{"android":"levelo://app?vid=2ed978bc-ea75-4270-8c9d-e70edddc09ae","ios":"levelo://app?vid=2ed978bc-ea75-4270-8c9d-e70edddc09ae"},"vehicle_type_id":"4","last_reported":1721239847,"current_range_meters":0,"station_id":"ce4bha92rcd13ifvqeg0","pricing_plan_id":"cebpf4jnsgd1na2vs0mg"},{"bike_id":"3e5a8b68-805b-44e1-9f29-e0b9ced8fe5d","system_id":"levelo_inurba_marseille","lat":43.290631,"lon":5.359244,"is_reserved":false,"is_disabled":false,"rental_uris":{"android":"levelo://app?vid=3e5a8b68-805b-44e1-9f29-e0b9ced8fe5d","ios":"levelo://app?vid=3e5a8b68-805b-44e1-9f29-e0b9ced8fe5d"},"vehicle_type_id":"4","last_reported":1721239847,"current_range_meters":0,"station_id":"ce4bha92rcd13ifvqeg0","pricing_plan_id":"cebpf4jnsgd1na2vs0mg"},{"bike_id":"2dbd316f-c243-4fde-b1d8-4def7d2f875c","system_id":"levelo_inurba_marseille","lat":43.294153,"lon":5.386305,"is_reserved":false,"is_disabled":false,"rental_uris":{"android":"levelo://app?vid=2dbd316f-c243-4fde-b1d8-4def7d2f875c","ios":"levelo://app?vid=2dbd316f-c243-4fde-b1d8-4def7d2f875c"},"vehicle_type_id":"4","last_reported":1721239847,"current_range_meters":0,"station_id":"ce4bh2h2rcd13ifvqdh0","pricing_plan_id":"cebpf4jnsgd1na2vs0mg"},{"bike_id":"79371576-e51a-49a0-ac5b-599f51bd08ed","system_id":"levelo_inurba_marseille","lat":43.28953,"lon":5.36635,"is_reserved":false,"is_disabled":false,"rental_uris":{"android":"levelo://app?vid=79371576-e51a-49a0-ac5b-599f51bd08ed","ios":"levelo://app?vid=79371576-e51a-49a0-ac5b-599f51bd08ed"},"vehicle_type_id":"4","last_reported":1721239847,"current_range_meters":31200,"station_id":"ce4bhap2rcd13ifvqek0","pricing_plan_id":"cebpf4jnsgd1na2vs0mg"},{"bike_id":"75080030-38ed-41e4-8633-0cf0ebaedcd4","system_id":"levelo_inurba_marseille","lat":43.28951,"lon":5.3664,"is_reserved":false,"is_disabled":false,"rental_uris":{"android":"levelo://app?vid=75080030-38ed-41e4-8633-0cf0ebaedcd4","ios":"levelo://app?vid=75080030-38ed-41e4-8633-0cf0ebaedcd4"},"vehicle_type_id":"4","last_reported":1721239847,"current_range_meters":31200,"station_id":"ce4bhap2rcd13ifvqek0","pricing_plan_id":"cebpf4jnsgd1na2vs0mg"},{"bike_id":"7ba10e71-bcae-45cf-bdde-18091c941862","system_id":"levelo_inurba_marseille","lat":43.294162,"lon":5.386292,"is_reserved":false,"is_disabled":false,"rental_uris":{"android":"levelo://app?vid=7ba10e71-bcae-45cf-bdde-18091c941862","ios":"levelo://app?vid=7ba10e71-bcae-45cf-bdde-18091c941862"},"vehicle_type_id":"4","last_reported":1721239847,"current_range_meters":22400,"station_id":"ce4bh2h2rcd13ifvqdh0","pricing_plan_id":"cebpf4jnsgd1na2vs0mg"},{"bike_id":"0885e4f1-dad4-437d-9229-8fa395d733eb","system_id":"levelo_inurba_marseille","lat":43.294162,"lon":5.386292,"is_reserved":false,"is_disabled":false,"rental_uris":{"android":"levelo://app?vid=0885e4f1-dad4-437d-9229-8fa395d733eb","ios":"levelo://app?vid=0885e4f1-dad4-437d-9229-8fa395d733eb"},"vehicle_type_id":"4","last_reported":1721239847,"current_range_meters":0,"station_id":"ce4bh2h2rcd13ifvqdh0","pricing_plan_id":"cebpf4jnsgd1na2vs0mg"},{"bike_id":"28ac11da-9ed0-4122-92f6-c7415bb242e9","system_id":"levelo_inurba_marseille","lat":43.28948,"lon":5.36625,"is_reserved":false,"is_disabled":false,"rental_uris":{"android":"levelo://app?vid=28ac11da-9ed0-4122-92f6-c7415bb242e9","ios":"levelo://app?vid=28ac11da-9ed0-4122-92f6-c7415bb242e9"},"vehicle_type_id":"4","last_reported":1721239847,"current_range_meters":4000,"station_id":"ce4bhap2rcd13ifvqek0","pricing_plan_id":"cebpf4jnsgd1na2vs0mg"},{"bike_id":"3d1ddc23-2e2b-4fc1-8ee4-1e6fb864e275","system_id":"levelo_inurba_marseille","lat":43.28947,"lon":5.36639,"is_reserved":false,"is_disabled":false,"rental_uris":{"android":"levelo://app?vid=3d1ddc23-2e2b-4fc1-8ee4-1e6fb864e275","ios":"levelo://app?vid=3d1ddc23-2e2b-4fc1-8ee4-1e6fb864e275"},"vehicle_type_id":"4","last_reported":1721239847,"current_range_meters":10000,"station_id":"ce4bhap2rcd13ifvqek0","pricing_plan_id":"cebpf4jnsgd1na2vs0mg"},{"bike_id":"687e7a85-92f8-4e50-856f-64334463da9c","system_id":"levelo_inurba_marseille","lat":43.294162,"lon":5.386292,"is_reserved":false,"is_disabled":false,"rental_uris":{"android":"levelo://app?vid=687e7a85-92f8-4e50-856f-64334463da9c","ios":"levelo://app?vid=687e7a85-92f8-4e50-856f-64334463da9c"},"vehicle_type_id":"4","last_reported":1721239847,"current_range_meters":3200,"station_id":"ce4bh2h2rcd13ifvqdh0","pricing_plan_id":"cebpf4jnsgd1na2vs0mg"},{"bike_id":"ad0a25a5-db8c-4822-9407-b1863fe117a1","system_id":"levelo_inurba_marseille","lat":43.289184,"lon":5.366408,"is_reserved":false,"is_disabled":false,"rental_uris":{"android":"levelo://app?vid=ad0a25a5-db8c-4822-9407-b1863fe117a1","ios":"levelo://app?vid=ad0a25a5-db8c-4822-9407-b1863fe117a1"},"vehicle_type_id":"4","last_reported":1721239847,"current_range_meters":10800,"station_id":"ce4bhap2rcd13ifvqek0","pricing_plan_id":"cebpf4jnsgd1na2vs0mg"},{"bike_id":"07f61786-d0c3-4fe7-a0a0-be331538a41d","system_id":"levelo_inurba_marseille","lat":43.289184,"lon":5.366408,"is_reserved":false,"is_disabled":false,"rental_uris":{"android":"levelo://app?vid=07f61786-d0c3-4fe7-a0a0-be331538a41d","ios":"levelo://app?vid=07f61786-d0c3-4fe7-a0a0-be331538a41d"},"vehicle_type_id":"4","last_reported":1721239847,"current_range_meters":3600,"station_id":"ce4bhap2rcd13ifvqek0","pricing_plan_id":"cebpf4jnsgd1na2vs0mg"},{"bike_id":"f782215c-94ce-4cda-acb4-0f677d03b21a","system_id":"levelo_inurba_marseille","lat":43.28941,"lon":5.36632,"is_reserved":false,"is_disabled":false,"rental_uris":{"android":"levelo://app?vid=f782215c-94ce-4cda-acb4-0f677d03b21a","ios":"levelo://app?vid=f782215c-94ce-4cda-acb4-0f677d03b21a"},"vehicle_type_id":"4","last_reported":1721239847,"current_range_meters":31200,"station_id":"ce4bhap2rcd13ifvqek0","pricing_plan_id":"cebpf4jnsgd1na2vs0mg"},{"bike_id":"9f2f1ed4-a115-4047-8a08-ebaab39bebfd","system_id":"levelo_inurba_marseille","lat":43.2894,"lon":5.36626,"is_reserved":false,"is_disabled":false,"rental_uris":{"android":"levelo://app?vid=9f2f1ed4-a115-4047-8a08-ebaab39bebfd","ios":"levelo://app?vid=9f2f1ed4-a115-4047-8a08-ebaab39bebfd"},"vehicle_type_id":"4","last_reported":1721239847,"current_range_meters":29600,"station_id":"ce4bhap2rcd13ifvqek0","pricing_plan_id":"cebpf4jnsgd1na2vs0mg"},{"bike_id":"dfefca78-f577-4270-955d-ff0b6d2e242d","system_id":"levelo_inurba_marseille","lat":43.28938,"lon":5.36636,"is_reserved":false,"is_disabled":false,"rental_uris":{"android":"levelo://app?vid=dfefca78-f577-4270-955d-ff0b6d2e242d","ios":"levelo://app?vid=dfefca78-f577-4270-955d-ff0b6d2e242d"},"vehicle_type_id":"4","last_reported":1721239847,"current_range_meters":31200,"station_id":"ce4bhap2rcd13ifvqek0","pricing_plan_id":"cebpf4jnsgd1na2vs0mg"},{"bike_id":"a4b76059-bf2c-4571-a4ac-1695c392b960","system_id":"levelo_inurba_marseille","lat":43.28934,"lon":5.36634,"is_reserved":false,"is_disabled":false,"rental_uris":{"android":"levelo://app?vid=a4b76059-bf2c-4571-a4ac-1695c392b960","ios":"levelo://app?vid=a4b76059-bf2c-4571-a4ac-1695c392b960"},"vehicle_type_id":"4","last_reported":1721239847,"current_range_meters":2400,"station_id":"ce4bhap2rcd13ifvqek0","pricing_plan_id":"cebpf4jnsgd1na2vs0mg"},{"bike_id":"eb69854d-d199-4f80-baee-fea037916b68","system_id":"levelo_inurba_marseille","lat":43.292644,"lon":5.384257,"is_reserved":false,"is_disabled":false,"rental_uris":{"android":"levelo://app?vid=eb69854d-d199-4f80-baee-fea037916b68","ios":"levelo://app?vid=eb69854d-d199-4f80-baee-fea037916b68"},"vehicle_type_id":"4","last_reported":1721239847,"current_range_meters":800,"station_id":"ce4bh692rcd13ifvqea0","pricing_plan_id":"cebpf4jnsgd1na2vs0mg"},{"bike_id":"41d1232d-0d2d-4cb1-99b3-c8afddeea1c7","system_id":"levelo_inurba_marseille","lat":43.292644,"lon":5.384257,"is_reserved":false,"is_disabled":false,"rental_uris":{"android":"levelo://app?vid=41d1232d-0d2d-4cb1-99b3-c8afddeea1c7","ios":"levelo://app?vid=41d1232d-0d2d-4cb1-99b3-c8afddeea1c7"},"vehicle_type_id":"4","last_reported":1721239847,"current_range_meters":0,"station_id":"ce4bh692rcd13ifvqea0","pricing_plan_id":"cebpf4jnsgd1na2vs0mg"},{"bike_id":"fbe652cc-af4d-4edd-8c7f-fa11b048f1ac","system_id":"levelo_inurba_marseille","lat":43.29268,"lon":5.3845,"is_reserved":false,"is_disabled":false,"rental_uris":{"android":"levelo://app?vid=fbe652cc-af4d-4edd-8c7f-fa11b048f1ac","ios":"levelo://app?vid=fbe652cc-af4d-4edd-8c7f-fa11b048f1ac"},"vehicle_type_id":"4","last_reported":1721239847,"current_range_meters":0,"station_id":"ce4bh692rcd13ifvqea0","pricing_plan_id":"cebpf4jnsgd1na2vs0mg"},{"bike_id":"bfa75973-5b2a-4864-a4c2-d32f8286e158","system_id":"levelo_inurba_marseille","lat":43.292644,"lon":5.384257,"is_reserved":false,"is_disabled":false,"rental_uris":{"android":"levelo://app?vid=bfa75973-5b2a-4864-a4c2-d32f8286e158","ios":"levelo://app?vid=bfa75973-5b2a-4864-a4c2-d32f8286e158"},"vehicle_type_id":"4","last_reported":1721239847,"current_range_meters":7600,"station_id":"ce4bh692rcd13ifvqea0","pricing_plan_id":"cebpf4jnsgd1na2vs0mg"},{"bike_id":"f329e7fb-bddc-4072-90bb-11f11f7d0138","system_id":"levelo_inurba_marseille","lat":43.304296,"lon":5.397513,"is_reserved":false,"is_disabled":false,"rental_uris":{"android":"levelo://app?vid=f329e7fb-bddc-4072-90bb-11f11f7d0138","ios":"levelo://app?vid=f329e7fb-bddc-4072-90bb-11f11f7d0138"},"vehicle_type_id":"4","last_reported":1721239847,"current_range_meters":0,"station_id":"ce4bh092rcd13ifvqd20","pricing_plan_id":"cebpf4jnsgd1na2vs0mg"},{"bike_id":"a5220252-b747-4884-92d5-03cf8d6d00e8","system_id":"levelo_inurba_marseille","lat":43.290103,"lon":5.356114,"is_reserved":false,"is_disabled":false,"rental_uris":{"android":"levelo://app?vid=a5220252-b747-4884-92d5-03cf8d6d00e8","ios":"levelo://app?vid=a5220252-b747-4884-92d5-03cf8d6d00e8"},"vehicle_type_id":"4","last_reported":1721239847,"current_range_meters":24000,"station_id":"ce4bhb92rcd13ifvqen0","pricing_plan_id":"cebpf4jnsgd1na2vs0mg"},{"bike_id":"36a709d5-0609-46bd-8e5d-5c7919a016fe","system_id":"levelo_inurba_marseille","lat":43.290104,"lon":5.356111,"is_reserved":false,"is_disabled":false,"rental_uris":{"android":"levelo://app?vid=36a709d5-0609-46bd-8e5d-5c7919a016fe","ios":"levelo://app?vid=36a709d5-0609-46bd-8e5d-5c7919a016fe"},"vehicle_type_id":"4","last_reported":1721239847,"current_range_meters":30800,"station_id":"ce4bhb92rcd13ifvqen0","pricing_plan_id":"cebpf4jnsgd1na2vs0mg"},{"bike_id":"57627437-0e40-4626-a0a1-fe408e2dd91b","system_id":"levelo_inurba_marseille","lat":43.290104,"lon":5.356111,"is_reserved":false,"is_disabled":false,"rental_uris":{"android":"levelo://app?vid=57627437-0e40-4626-a0a1-fe408e2dd91b","ios":"levelo://app?vid=57627437-0e40-4626-a0a1-fe408e2dd91b"},"vehicle_type_id":"4","last_reported":1721239847,"current_range_meters":12400,"station_id":"ce4bhb92rcd13ifvqen0","pricing_plan_id":"cebpf4jnsgd1na2vs0mg"},{"bike_id":"b8f56970-3fc9-4c33-838a-62a3200d772c","system_id":"levelo_inurba_marseille","lat":43.290104,"lon":5.356111,"is_reserved":false,"is_disabled":false,"rental_uris":{"android":"levelo://app?vid=b8f56970-3fc9-4c33-838a-62a3200d772c","ios":"levelo://app?vid=b8f56970-3fc9-4c33-838a-62a3200d772c"},"vehicle_type_id":"4","last_reported":1721239847,"current_range_meters":400,"station_id":"ce4bhb92rcd13ifvqen0","pricing_plan_id":"cebpf4jnsgd1na2vs0mg"},{"bike_id":"71b8c209-f026-4c81-a2a9-10811653c4e5","system_id":"levelo_inurba_marseille","lat":43.290104,"lon":5.356111,"is_reserved":false,"is_disabled":false,"rental_uris":{"android":"levelo://app?vid=71b8c209-f026-4c81-a2a9-10811653c4e5","ios":"levelo://app?vid=71b8c209-f026-4c81-a2a9-10811653c4e5"},"vehicle_type_id":"4","last_reported":1721239847,"current_range_meters":0,"station_id":"ce4bhb92rcd13ifvqen0","pricing_plan_id":"cebpf4jnsgd1na2vs0mg"},{"bike_id":"d1ef905b-e82d-4e3e-bb54-3589de55d90d","system_id":"levelo_inurba_marseille","lat":43.290104,"lon":5.356111,"is_reserved":false,"is_disabled":false,"rental_uris":{"android":"levelo://app?vid=d1ef905b-e82d-4e3e-bb54-3589de55d90d","ios":"levelo://app?vid=d1ef905b-e82d-4e3e-bb54-3589de55d90d"},"vehicle_type_id":"4","last_reported":1721239847,"current_range_meters":2000,"station_id":"ce4bhb92rcd13ifvqen0","pricing_plan_id":"cebpf4jnsgd1na2vs0mg"},{"bike_id":"4ff2cc0a-7a3a-4979-bdfc-628324f94311","system_id":"levelo_inurba_marseille","lat":43.290103,"lon":5.356114,"is_reserved":false,"is_disabled":false,"rental_uris":{"android":"levelo://app?vid=4ff2cc0a-7a3a-4979-bdfc-628324f94311","ios":"levelo://app?vid=4ff2cc0a-7a3a-4979-bdfc-628324f94311"},"vehicle_type_id":"4","last_reported":1721239847,"current_range_meters":28000,"station_id":"ce4bhb92rcd13ifvqen0","pricing_plan_id":"cebpf4jnsgd1na2vs0mg"},{"bike_id":"7f3d851d-3ced-4fec-b331-f84167f5b34d","system_id":"levelo_inurba_marseille","lat":43.290103,"lon":5.356114,"is_reserved":false,"is_disabled":false,"rental_uris":{"android":"levelo://app?vid=7f3d851d-3ced-4fec-b331-f84167f5b34d","ios":"levelo://app?vid=7f3d851d-3ced-4fec-b331-f84167f5b34d"},"vehicle_type_id":"4","last_reported":1721239847,"current_range_meters":12000,"station_id":"ce4bhb92rcd13ifvqen0","pricing_plan_id":"cebpf4jnsgd1na2vs0mg"},{"bike_id":"18329098-0a8e-4d9c-8f56-52e596fb4f62","system_id":"levelo_inurba_marseille","lat":43.290104,"lon":5.356111,"is_reserved":false,"is_disabled":false,"rental_uris":{"android":"levelo://app?vid=18329098-0a8e-4d9c-8f56-52e596fb4f62","ios":"levelo://app?vid=18329098-0a8e-4d9c-8f56-52e596fb4f62"},"vehicle_type_id":"4","last_reported":1721239847,"current_range_meters":0,"station_id":"ce4bhb92rcd13ifvqen0","pricing_plan_id":"cebpf4jnsgd1na2vs0mg"},{"bike_id":"4286de5e-549f-4c37-8389-fed3b442b7a0","system_id":"levelo_inurba_marseille","lat":43.290103,"lon":5.356114,"is_reserved":false,"is_disabled":false,"rental_uris":{"android":"levelo://app?vid=4286de5e-549f-4c37-8389-fed3b442b7a0","ios":"levelo://app?vid=4286de5e-549f-4c37-8389-fed3b442b7a0"},"vehicle_type_id":"4","last_reported":1721239847,"current_range_meters":31600,"station_id":"ce4bhb92rcd13ifvqen0","pricing_plan_id":"cebpf4jnsgd1na2vs0mg"},{"bike_id":"d35d2340-1a14-4240-88bd-fcc260745e02","system_id":"levelo_inurba_marseille","lat":43.290104,"lon":5.356111,"is_reserved":false,"is_disabled":false,"rental_uris":{"android":"levelo://app?vid=d35d2340-1a14-4240-88bd-fcc260745e02","ios":"levelo://app?vid=d35d2340-1a14-4240-88bd-fcc260745e02"},"vehicle_type_id":"4","last_reported":1721239847,"current_range_meters":0,"station_id":"ce4bhb92rcd13ifvqen0","pricing_plan_id":"cebpf4jnsgd1na2vs0mg"},{"bike_id":"edec61cc-a2e3-4c91-af9a-e4ef44a75269","system_id":"levelo_inurba_marseille","lat":43.29007,"lon":5.35613,"is_reserved":false,"is_disabled":false,"rental_uris":{"android":"levelo://app?vid=edec61cc-a2e3-4c91-af9a-e4ef44a75269","ios":"levelo://app?vid=edec61cc-a2e3-4c91-af9a-e4ef44a75269"},"vehicle_type_id":"4","last_reported":1721239847,"current_range_meters":27600,"station_id":"ce4bhb92rcd13ifvqen0","pricing_plan_id":"cebpf4jnsgd1na2vs0mg"},{"bike_id":"37286adf-8576-4dec-81ec-91c428566a9b","system_id":"levelo_inurba_marseille","lat":43.290103,"lon":5.356114,"is_reserved":false,"is_disabled":false,"rental_uris":{"android":"levelo://app?vid=37286adf-8576-4dec-81ec-91c428566a9b","ios":"levelo://app?vid=37286adf-8576-4dec-81ec-91c428566a9b"},"vehicle_type_id":"4","last_reported":1721239847,"current_range_meters":15600,"station_id":"ce4bhb92rcd13ifvqen0","pricing_plan_id":"cebpf4jnsgd1na2vs0mg"},{"bike_id":"064a4b6d-f58e-4313-b2ba-591b6f0faef2","system_id":"levelo_inurba_marseille","lat":43.290104,"lon":5.356111,"is_reserved":false,"is_disabled":false,"rental_uris":{"android":"levelo://app?vid=064a4b6d-f58e-4313-b2ba-591b6f0faef2","ios":"levelo://app?vid=064a4b6d-f58e-4313-b2ba-591b6f0faef2"},"vehicle_type_id":"4","last_reported":1721239847,"current_range_meters":2000,"station_id":"ce4bhb92rcd13ifvqen0","pricing_plan_id":"cebpf4jnsgd1na2vs0mg"},{"bike_id":"ac46a4c2-97af-4ead-885e-5b3d32155739","system_id":"levelo_inurba_marseille","lat":43.290104,"lon":5.356111,"is_reserved":false,"is_disabled":false,"rental_uris":{"android":"levelo://app?vid=ac46a4c2-97af-4ead-885e-5b3d32155739","ios":"levelo://app?vid=ac46a4c2-97af-4ead-885e-5b3d32155739"},"vehicle_type_id":"4","last_reported":1721239847,"current_range_meters":28800,"station_id":"ce4bhb92rcd13ifvqen0","pricing_plan_id":"cebpf4jnsgd1na2vs0mg"},{"bike_id":"ffd1cd2b-11b5-45c2-9d7a-d90420982be9","system_id":"levelo_inurba_marseille","lat":43.290103,"lon":5.356114,"is_reserved":false,"is_disabled":false,"rental_uris":{"android":"levelo://app?vid=ffd1cd2b-11b5-45c2-9d7a-d90420982be9","ios":"levelo://app?vid=ffd1cd2b-11b5-45c2-9d7a-d90420982be9"},"vehicle_type_id":"4","last_reported":1721239847,"current_range_meters":3600,"station_id":"ce4bhb92rcd13ifvqen0","pricing_plan_id":"cebpf4jnsgd1na2vs0mg"},{"bike_id":"e70593c7-cb01-4e23-a7bc-ce5ad226d14d","system_id":"levelo_inurba_marseille","lat":43.290104,"lon":5.356111,"is_reserved":false,"is_disabled":false,"rental_uris":{"android":"levelo://app?vid=e70593c7-cb01-4e23-a7bc-ce5ad226d14d","ios":"levelo://app?vid=e70593c7-cb01-4e23-a7bc-ce5ad226d14d"},"vehicle_type_id":"4","last_reported":1721239847,"current_range_meters":30800,"station_id":"ce4bhb92rcd13ifvqen0","pricing_plan_id":"cebpf4jnsgd1na2vs0mg"},{"bike_id":"92a88225-8269-4b35-8c7e-16f8147c4a12","system_id":"levelo_inurba_marseille","lat":43.290104,"lon":5.356111,"is_reserved":false,"is_disabled":false,"rental_uris":{"android":"levelo://app?vid=92a88225-8269-4b35-8c7e-16f8147c4a12","ios":"levelo://app?vid=92a88225-8269-4b35-8c7e-16f8147c4a12"},"vehicle_type_id":"4","last_reported":1721239847,"current_range_meters":6000,"station_id":"ce4bhb92rcd13ifvqen0","pricing_plan_id":"cebpf4jnsgd1na2vs0mg"},{"bike_id":"79f09aea-0469-47ec-a6cb-33dbcc915c3e","system_id":"levelo_inurba_marseille","lat":43.290104,"lon":5.356111,"is_reserved":false,"is_disabled":false,"rental_uris":{"android":"levelo://app?vid=79f09aea-0469-47ec-a6cb-33dbcc915c3e","ios":"levelo://app?vid=79f09aea-0469-47ec-a6cb-33dbcc915c3e"},"vehicle_type_id":"4","last_reported":1721239847,"current_range_meters":0,"station_id":"ce4bhb92rcd13ifvqen0","pricing_plan_id":"cebpf4jnsgd1na2vs0mg"},{"bike_id":"924175c1-ae03-41ad-b147-409b3130e039","system_id":"levelo_inurba_marseille","lat":43.290103,"lon":5.356114,"is_reserved":false,"is_disabled":false,"rental_uris":{"android":"levelo://app?vid=924175c1-ae03-41ad-b147-409b3130e039","ios":"levelo://app?vid=924175c1-ae03-41ad-b147-409b3130e039"},"vehicle_type_id":"4","last_reported":1721239847,"current_range_meters":6000,"station_id":"ce4bhb92rcd13ifvqen0","pricing_plan_id":"cebpf4jnsgd1na2vs0mg"},{"bike_id":"71f98999-8bb3-48ff-b8fc-2bf731e1afc2","system_id":"levelo_inurba_marseille","lat":43.290104,"lon":5.356111,"is_reserved":false,"is_disabled":false,"rental_uris":{"android":"levelo://app?vid=71f98999-8bb3-48ff-b8fc-2bf731e1afc2","ios":"levelo://app?vid=71f98999-8bb3-48ff-b8fc-2bf731e1afc2"},"vehicle_type_id":"4","last_reported":1721239847,"current_range_meters":8000,"station_id":"ce4bhb92rcd13ifvqen0","pricing_plan_id":"cebpf4jnsgd1na2vs0mg"},{"bike_id":"6ee34c40-5f81-4c97-ba4f-b5ae13154506","system_id":"levelo_inurba_marseille","lat":43.290103,"lon":5.356114,"is_reserved":false,"is_disabled":false,"rental_uris":{"android":"levelo://app?vid=6ee34c40-5f81-4c97-ba4f-b5ae13154506","ios":"levelo://app?vid=6ee34c40-5f81-4c97-ba4f-b5ae13154506"},"vehicle_type_id":"4","last_reported":1721239847,"current_range_meters":0,"station_id":"ce4bhb92rcd13ifvqen0","pricing_plan_id":"cebpf4jnsgd1na2vs0mg"},{"bike_id":"d07e0737-dd88-496a-83e5-3cfe0eda338c","system_id":"levelo_inurba_marseille","lat":43.290104,"lon":5.356111,"is_reserved":false,"is_disabled":false,"rental_uris":{"android":"levelo://app?vid=d07e0737-dd88-496a-83e5-3cfe0eda338c","ios":"levelo://app?vid=d07e0737-dd88-496a-83e5-3cfe0eda338c"},"vehicle_type_id":"4","last_reported":1721239847,"current_range_meters":0,"station_id":"ce4bhb92rcd13ifvqen0","pricing_plan_id":"cebpf4jnsgd1na2vs0mg"},{"bike_id":"e8b8d8af-fb22-4173-9fb5-ac217f10bbc3","system_id":"levelo_inurba_marseille","lat":43.29001,"lon":5.35613,"is_reserved":false,"is_disabled":false,"rental_uris":{"android":"levelo://app?vid=e8b8d8af-fb22-4173-9fb5-ac217f10bbc3","ios":"levelo://app?vid=e8b8d8af-fb22-4173-9fb5-ac217f10bbc3"},"vehicle_type_id":"4","last_reported":1721239847,"current_range_meters":30800,"station_id":"ce4bhb92rcd13ifvqen0","pricing_plan_id":"cebpf4jnsgd1na2vs0mg"},{"bike_id":"86d69b6b-7d44-41d6-93fb-2b878a6a5079","system_id":"levelo_inurba_marseille","lat":43.290995,"lon":5.381361,"is_reserved":false,"is_disabled":false,"rental_uris":{"android":"levelo://app?vid=86d69b6b-7d44-41d6-93fb-2b878a6a5079","ios":"levelo://app?vid=86d69b6b-7d44-41d6-93fb-2b878a6a5079"},"vehicle_type_id":"4","last_reported":1721239847,"current_range_meters":25600,"station_id":"ce4bh512rcd13ifvqe2g","pricing_plan_id":"cebpf4jnsgd1na2vs0mg"},{"bike_id":"ebf7ce24-ee38-43bf-883d-4a13385de2da","system_id":"levelo_inurba_marseille","lat":43.290039,"lon":5.355985,"is_reserved":false,"is_disabled":false,"rental_uris":{"android":"levelo://app?vid=ebf7ce24-ee38-43bf-883d-4a13385de2da","ios":"levelo://app?vid=ebf7ce24-ee38-43bf-883d-4a13385de2da"},"vehicle_type_id":"4","last_reported":1721239847,"current_range_meters":0,"station_id":"ce4bh512rcd13ifvqe3g","pricing_plan_id":"cebpf4jnsgd1na2vs0mg"},{"bike_id":"e723fb18-a06d-446f-8b43-06cc6dd050a7","system_id":"levelo_inurba_marseille","lat":43.290104,"lon":5.356111,"is_reserved":false,"is_disabled":false,"rental_uris":{"android":"levelo://app?vid=e723fb18-a06d-446f-8b43-06cc6dd050a7","ios":"levelo://app?vid=e723fb18-a06d-446f-8b43-06cc6dd050a7"},"vehicle_type_id":"4","last_reported":1721239847,"current_range_meters":21200,"station_id":"ce4bhb92rcd13ifvqen0","pricing_plan_id":"cebpf4jnsgd1na2vs0mg"},{"bike_id":"f10d8bb4-0400-4780-8c69-a3ae4412319a","system_id":"levelo_inurba_marseille","lat":43.297807,"lon":5.393533,"is_reserved":false,"is_disabled":false,"rental_uris":{"android":"levelo://app?vid=f10d8bb4-0400-4780-8c69-a3ae4412319a","ios":"levelo://app?vid=f10d8bb4-0400-4780-8c69-a3ae4412319a"},"vehicle_type_id":"4","last_reported":1721239847,"current_range_meters":14000,"station_id":"chh1huq6cuj3fo74tm60","pricing_plan_id":"cebpf4jnsgd1na2vs0mg"},{"bike_id":"e06f0c8d-3be5-452a-966c-426fd1323c06","system_id":"levelo_inurba_marseille","lat":43.295169,"lon":5.390426,"is_reserved":false,"is_disabled":false,"rental_uris":{"android":"levelo://app?vid=e06f0c8d-3be5-452a-966c-426fd1323c06","ios":"levelo://app?vid=e06f0c8d-3be5-452a-966c-426fd1323c06"},"vehicle_type_id":"4","last_reported":1721239847,"current_range_meters":400,"station_id":"ce4bh3p2rcd13ifvqdp0","pricing_plan_id":"cebpf4jnsgd1na2vs0mg"},{"bike_id":"9656452d-7ad7-4821-b438-08fe77b8d6e2","system_id":"levelo_inurba_marseille","lat":43.289741,"lon":5.378306,"is_reserved":false,"is_disabled":false,"rental_uris":{"android":"levelo://app?vid=9656452d-7ad7-4821-b438-08fe77b8d6e2","ios":"levelo://app?vid=9656452d-7ad7-4821-b438-08fe77b8d6e2"},"vehicle_type_id":"4","last_reported":1721239847,"current_range_meters":9600,"station_id":"ce4bh9p2rcd13ifvqed0","pricing_plan_id":"cebpf4jnsgd1na2vs0mg"},{"bike_id":"854bbd3b-2a45-4ae2-990f-2617f7d93b77","system_id":"levelo_inurba_marseille","lat":43.330442,"lon":5.389148,"is_reserved":false,"is_disabled":false,"rental_uris":{"android":"levelo://app?vid=854bbd3b-2a45-4ae2-990f-2617f7d93b77","ios":"levelo://app?vid=854bbd3b-2a45-4ae2-990f-2617f7d93b77"},"vehicle_type_id":"4","last_reported":1721239847,"current_range_meters":4800,"station_id":"ce4bhr92rcd13ifvqhrg","pricing_plan_id":"cebpf4jnsgd1na2vs0mg"},{"bike_id":"6541cf2d-c477-4840-8bcf-ce0c3782ee1f","system_id":"levelo_inurba_marseille","lat":43.295169,"lon":5.390426,"is_reserved":false,"is_disabled":false,"rental_uris":{"android":"levelo://app?vid=6541cf2d-c477-4840-8bcf-ce0c3782ee1f","ios":"levelo://app?vid=6541cf2d-c477-4840-8bcf-ce0c3782ee1f"},"vehicle_type_id":"4","last_reported":1721239847,"current_range_meters":19600,"station_id":"ce4bh3p2rcd13ifvqdp0","pricing_plan_id":"cebpf4jnsgd1na2vs0mg"},{"bike_id":"af29b126-5533-4925-9769-a72c81292a2b","system_id":"levelo_inurba_marseille","lat":43.33029,"lon":5.39045,"is_reserved":false,"is_disabled":false,"rental_uris":{"android":"levelo://app?vid=af29b126-5533-4925-9769-a72c81292a2b","ios":"levelo://app?vid=af29b126-5533-4925-9769-a72c81292a2b"},"vehicle_type_id":"4","last_reported":1721239847,"current_range_meters":0,"station_id":"ce4bhr92rcd13ifvqhrg","pricing_plan_id":"cebpf4jnsgd1na2vs0mg"},{"bike_id":"5c9b53f2-55c8-41eb-967b-b21f4ad892d8","system_id":"levelo_inurba_marseille","lat":43.295169,"lon":5.390426,"is_reserved":false,"is_disabled":false,"rental_uris":{"android":"levelo://app?vid=5c9b53f2-55c8-41eb-967b-b21f4ad892d8","ios":"levelo://app?vid=5c9b53f2-55c8-41eb-967b-b21f4ad892d8"},"vehicle_type_id":"4","last_reported":1721239847,"current_range_meters":6400,"station_id":"ce4bh3p2rcd13ifvqdp0","pricing_plan_id":"cebpf4jnsgd1na2vs0mg"},{"bike_id":"061fdc3f-1107-457d-bc7c-e885213cff75","system_id":"levelo_inurba_marseille","lat":43.323464,"lon":5.406297,"is_reserved":false,"is_disabled":false,"rental_uris":{"android":"levelo://app?vid=061fdc3f-1107-457d-bc7c-e885213cff75","ios":"levelo://app?vid=061fdc3f-1107-457d-bc7c-e885213cff75"},"vehicle_type_id":"4","last_reported":1721239847,"current_range_meters":400,"station_id":"ce4bhq92rcd13ifvqhjg","pricing_plan_id":"cebpf4jnsgd1na2vs0mg"},{"bike_id":"9228649e-4c22-4ed3-9b93-904f162d35df","system_id":"levelo_inurba_marseille","lat":43.28856,"lon":5.358371,"is_reserved":false,"is_disabled":false,"rental_uris":{"android":"levelo://app?vid=9228649e-4c22-4ed3-9b93-904f162d35df","ios":"levelo://app?vid=9228649e-4c22-4ed3-9b93-904f162d35df"},"vehicle_type_id":"4","last_reported":1721239847,"current_range_meters":21200,"station_id":"ce4bhb12rcd13ifvqem0","pricing_plan_id":"cebpf4jnsgd1na2vs0mg"},{"bike_id":"d1ef6f05-2aef-492f-9f5d-01d9724e46ac","system_id":"levelo_inurba_marseille","lat":43.28856,"lon":5.358371,"is_reserved":false,"is_disabled":false,"rental_uris":{"android":"levelo://app?vid=d1ef6f05-2aef-492f-9f5d-01d9724e46ac","ios":"levelo://app?vid=d1ef6f05-2aef-492f-9f5d-01d9724e46ac"},"vehicle_type_id":"4","last_reported":1721239847,"current_range_meters":800,"station_id":"ce4bhb12rcd13ifvqem0","pricing_plan_id":"cebpf4jnsgd1na2vs0mg"},{"bike_id":"eab41121-f9cc-4b9d-8b72-fff21286d956","system_id":"levelo_inurba_marseille","lat":43.28856,"lon":5.358371,"is_reserved":false,"is_disabled":false,"rental_uris":{"android":"levelo://app?vid=eab41121-f9cc-4b9d-8b72-fff21286d956","ios":"levelo://app?vid=eab41121-f9cc-4b9d-8b72-fff21286d956"},"vehicle_type_id":"4","last_reported":1721239847,"current_range_meters":4400,"station_id":"ce4bhb12rcd13ifvqem0","pricing_plan_id":"cebpf4jnsgd1na2vs0mg"},{"bike_id":"30438efa-6352-402d-8503-570df7bcba0c","system_id":"levelo_inurba_marseille","lat":43.28856,"lon":5.358371,"is_reserved":false,"is_disabled":false,"rental_uris":{"android":"levelo://app?vid=30438efa-6352-402d-8503-570df7bcba0c","ios":"levelo://app?vid=30438efa-6352-402d-8503-570df7bcba0c"},"vehicle_type_id":"4","last_reported":1721239847,"current_range_meters":27600,"station_id":"ce4bhb12rcd13ifvqem0","pricing_plan_id":"cebpf4jnsgd1na2vs0mg"},{"bike_id":"83e49c50-cdcc-449d-a4e5-19770c62cf37","system_id":"levelo_inurba_marseille","lat":43.28856,"lon":5.358371,"is_reserved":false,"is_disabled":false,"rental_uris":{"android":"levelo://app?vid=83e49c50-cdcc-449d-a4e5-19770c62cf37","ios":"levelo://app?vid=83e49c50-cdcc-449d-a4e5-19770c62cf37"},"vehicle_type_id":"4","last_reported":1721239847,"current_range_meters":5200,"station_id":"ce4bhb12rcd13ifvqem0","pricing_plan_id":"cebpf4jnsgd1na2vs0mg"},{"bike_id":"be7e6fc8-5441-42e4-8390-1e97481591bb","system_id":"levelo_inurba_marseille","lat":43.28856,"lon":5.358371,"is_reserved":false,"is_disabled":false,"rental_uris":{"android":"levelo://app?vid=be7e6fc8-5441-42e4-8390-1e97481591bb","ios":"levelo://app?vid=be7e6fc8-5441-42e4-8390-1e97481591bb"},"vehicle_type_id":"4","last_reported":1721239847,"current_range_meters":0,"station_id":"ce4bhb12rcd13ifvqem0","pricing_plan_id":"cebpf4jnsgd1na2vs0mg"},{"bike_id":"136a8749-c2ba-4e9a-8544-4b41408ca3d4","system_id":"levelo_inurba_marseille","lat":43.33749,"lon":5.37443,"is_reserved":false,"is_disabled":false,"rental_uris":{"android":"levelo://app?vid=136a8749-c2ba-4e9a-8544-4b41408ca3d4","ios":"levelo://app?vid=136a8749-c2ba-4e9a-8544-4b41408ca3d4"},"vehicle_type_id":"4","last_reported":1721239847,"current_range_meters":21200,"station_id":"","pricing_plan_id":"cebpf4jnsgd1na2vs0mg"},{"bike_id":"8d110055-f2dc-4581-9f36-be92f66c9d34","system_id":"levelo_inurba_marseille","lat":43.33755,"lon":5.37446,"is_reserved":false,"is_disabled":false,"rental_uris":{"android":"levelo://app?vid=8d110055-f2dc-4581-9f36-be92f66c9d34","ios":"levelo://app?vid=8d110055-f2dc-4581-9f36-be92f66c9d34"},"vehicle_type_id":"4","last_reported":1721239847,"current_range_meters":26400,"station_id":"","pricing_plan_id":"cebpf4jnsgd1na2vs0mg"},{"bike_id":"8391f7cc-1acd-4ec9-a3ef-60f9a479b64d","system_id":"levelo_inurba_marseille","lat":43.337572,"lon":5.374554,"is_reserved":false,"is_disabled":false,"rental_uris":{"android":"levelo://app?vid=8391f7cc-1acd-4ec9-a3ef-60f9a479b64d","ios":"levelo://app?vid=8391f7cc-1acd-4ec9-a3ef-60f9a479b64d"},"vehicle_type_id":"4","last_reported":1721239847,"current_range_meters":5600,"station_id":"","pricing_plan_id":"cebpf4jnsgd1na2vs0mg"},{"bike_id":"d178c787-21f1-4941-8ec7-154d892e7b32","system_id":"levelo_inurba_marseille","lat":43.3376,"lon":5.37452,"is_reserved":false,"is_disabled":false,"rental_uris":{"android":"levelo://app?vid=d178c787-21f1-4941-8ec7-154d892e7b32","ios":"levelo://app?vid=d178c787-21f1-4941-8ec7-154d892e7b32"},"vehicle_type_id":"4","last_reported":1721239847,"current_range_meters":4400,"station_id":"","pricing_plan_id":"cebpf4jnsgd1na2vs0mg"},{"bike_id":"dc7413c9-2729-41fb-b205-e9dd2eb7d0ca","system_id":"levelo_inurba_marseille","lat":43.30141,"lon":5.39851,"is_reserved":false,"is_disabled":false,"rental_uris":{"android":"levelo://app?vid=dc7413c9-2729-41fb-b205-e9dd2eb7d0ca","ios":"levelo://app?vid=dc7413c9-2729-41fb-b205-e9dd2eb7d0ca"},"vehicle_type_id":"4","last_reported":1721239847,"current_range_meters":0,"station_id":"ce4bh0h2rcd13ifvqd40","pricing_plan_id":"cebpf4jnsgd1na2vs0mg"},{"bike_id":"70d205a9-4012-4cd2-9903-6f0557283282","system_id":"levelo_inurba_marseille","lat":43.29874,"lon":5.39715,"is_reserved":false,"is_disabled":false,"rental_uris":{"android":"levelo://app?vid=70d205a9-4012-4cd2-9903-6f0557283282","ios":"levelo://app?vid=70d205a9-4012-4cd2-9903-6f0557283282"},"vehicle_type_id":"4","last_reported":1721239847,"current_range_meters":0,"station_id":"ce4bh0h2rcd13ifvqd50","pricing_plan_id":"cebpf4jnsgd1na2vs0mg"},{"bike_id":"f9225409-08db-47a5-8cdb-405afeaac4fe","system_id":"levelo_inurba_marseille","lat":43.286593,"lon":5.363346,"is_reserved":false,"is_disabled":false,"rental_uris":{"android":"levelo://app?vid=f9225409-08db-47a5-8cdb-405afeaac4fe","ios":"levelo://app?vid=f9225409-08db-47a5-8cdb-405afeaac4fe"},"vehicle_type_id":"4","last_reported":1721239847,"current_range_meters":19600,"station_id":"ce4bhah2rcd13ifvqej0","pricing_plan_id":"cebpf4jnsgd1na2vs0mg"},{"bike_id":"22a207b9-8016-49ea-997e-51c7a62b44ea","system_id":"levelo_inurba_marseille","lat":43.298681,"lon":5.397225,"is_reserved":false,"is_disabled":false,"rental_uris":{"android":"levelo://app?vid=22a207b9-8016-49ea-997e-51c7a62b44ea","ios":"levelo://app?vid=22a207b9-8016-49ea-997e-51c7a62b44ea"},"vehicle_type_id":"4","last_reported":1721239847,"current_range_meters":0,"station_id":"ce4bh0h2rcd13ifvqd50","pricing_plan_id":"cebpf4jnsgd1na2vs0mg"},{"bike_id":"0b1ab7f1-9614-448b-8f3f-012352c40a47","system_id":"levelo_inurba_marseille","lat":43.286961,"lon":5.373785,"is_reserved":false,"is_disabled":false,"rental_uris":{"android":"levelo://app?vid=0b1ab7f1-9614-448b-8f3f-012352c40a47","ios":"levelo://app?vid=0b1ab7f1-9614-448b-8f3f-012352c40a47"},"vehicle_type_id":"4","last_reported":1721239847,"current_range_meters":0,"station_id":"ce4bh3p2rcd13ifvqdq0","pricing_plan_id":"cebpf4jnsgd1na2vs0mg"},{"bike_id":"37ffc980-ec31-4b55-97d2-43b275914c96","system_id":"levelo_inurba_marseille","lat":43.286593,"lon":5.363346,"is_reserved":false,"is_disabled":false,"rental_uris":{"android":"levelo://app?vid=37ffc980-ec31-4b55-97d2-43b275914c96","ios":"levelo://app?vid=37ffc980-ec31-4b55-97d2-43b275914c96"},"vehicle_type_id":"4","last_reported":1721239847,"current_range_meters":31200,"station_id":"ce4bhah2rcd13ifvqej0","pricing_plan_id":"cebpf4jnsgd1na2vs0mg"},{"bike_id":"61790245-5a89-4624-9073-f729afa64e43","system_id":"levelo_inurba_marseille","lat":43.286591,"lon":5.363346,"is_reserved":false,"is_disabled":false,"rental_uris":{"android":"levelo://app?vid=61790245-5a89-4624-9073-f729afa64e43","ios":"levelo://app?vid=61790245-5a89-4624-9073-f729afa64e43"},"vehicle_type_id":"4","last_reported":1721239847,"current_range_meters":31200,"station_id":"ce4bhah2rcd13ifvqej0","pricing_plan_id":"cebpf4jnsgd1na2vs0mg"},{"bike_id":"9b96c68d-b766-4e43-b376-e6ba77dca245","system_id":"levelo_inurba_marseille","lat":43.286591,"lon":5.363346,"is_reserved":false,"is_disabled":false,"rental_uris":{"android":"levelo://app?vid=9b96c68d-b766-4e43-b376-e6ba77dca245","ios":"levelo://app?vid=9b96c68d-b766-4e43-b376-e6ba77dca245"},"vehicle_type_id":"4","last_reported":1721239847,"current_range_meters":31200,"station_id":"ce4bhah2rcd13ifvqej0","pricing_plan_id":"cebpf4jnsgd1na2vs0mg"},{"bike_id":"f2204b3f-4299-469c-b467-648cb51cdeb5","system_id":"levelo_inurba_marseille","lat":43.2902,"lon":5.38629,"is_reserved":false,"is_disabled":false,"rental_uris":{"android":"levelo://app?vid=f2204b3f-4299-469c-b467-648cb51cdeb5","ios":"levelo://app?vid=f2204b3f-4299-469c-b467-648cb51cdeb5"},"vehicle_type_id":"4","last_reported":1721239847,"current_range_meters":0,"station_id":"ce4bh4p2rcd13ifvqe0g","pricing_plan_id":"cebpf4jnsgd1na2vs0mg"},{"bike_id":"e912a41c-8933-460d-b94c-88b18c8d5078","system_id":"levelo_inurba_marseille","lat":43.28762,"lon":5.37929,"is_reserved":false,"is_disabled":false,"rental_uris":{"android":"levelo://app?vid=e912a41c-8933-460d-b94c-88b18c8d5078","ios":"levelo://app?vid=e912a41c-8933-460d-b94c-88b18c8d5078"},"vehicle_type_id":"4","last_reported":1721239847,"current_range_meters":23200,"station_id":"ce4bh9p2rcd13ifvqec0","pricing_plan_id":"cebpf4jnsgd1na2vs0mg"},{"bike_id":"53a97ccd-ab9d-416b-9266-79c2570b404a","system_id":"levelo_inurba_marseille","lat":43.286039,"lon":5.370681,"is_reserved":false,"is_disabled":false,"rental_uris":{"android":"levelo://app?vid=53a97ccd-ab9d-416b-9266-79c2570b404a","ios":"levelo://app?vid=53a97ccd-ab9d-416b-9266-79c2570b404a"},"vehicle_type_id":"4","last_reported":1721239847,"current_range_meters":7600,"station_id":"ce4bht12rcd13ifvqi60","pricing_plan_id":"cebpf4jnsgd1na2vs0mg"},{"bike_id":"c2368c4e-2dbb-4aaf-9890-c0c749744d85","system_id":"levelo_inurba_marseille","lat":43.28611,"lon":5.37071,"is_reserved":false,"is_disabled":false,"rental_uris":{"android":"levelo://app?vid=c2368c4e-2dbb-4aaf-9890-c0c749744d85","ios":"levelo://app?vid=c2368c4e-2dbb-4aaf-9890-c0c749744d85"},"vehicle_type_id":"4","last_reported":1721239847,"current_range_meters":3600,"station_id":"ce4bht12rcd13ifvqi60","pricing_plan_id":"cebpf4jnsgd1na2vs0mg"},{"bike_id":"53d7494c-42c6-4b17-a785-7c51da38de9a","system_id":"levelo_inurba_marseille","lat":43.286039,"lon":5.370679,"is_reserved":false,"is_disabled":false,"rental_uris":{"android":"levelo://app?vid=53d7494c-42c6-4b17-a785-7c51da38de9a","ios":"levelo://app?vid=53d7494c-42c6-4b17-a785-7c51da38de9a"},"vehicle_type_id":"4","last_reported":1721239847,"current_range_meters":15600,"station_id":"ce4bht12rcd13ifvqi60","pricing_plan_id":"cebpf4jnsgd1na2vs0mg"},{"bike_id":"39bb7ec9-0a9b-4c38-ae2a-fe72b22c2a9b","system_id":"levelo_inurba_marseille","lat":43.291994,"lon":5.392907,"is_reserved":false,"is_disabled":false,"rental_uris":{"android":"levelo://app?vid=39bb7ec9-0a9b-4c38-ae2a-fe72b22c2a9b","ios":"levelo://app?vid=39bb7ec9-0a9b-4c38-ae2a-fe72b22c2a9b"},"vehicle_type_id":"4","last_reported":1721239847,"current_range_meters":0,"station_id":"ce4bh192rcd13ifvqdd0","pricing_plan_id":"cebpf4jnsgd1na2vs0mg"},{"bike_id":"f9c4fb96-9b24-4555-aa29-5c8905d30fc3","system_id":"levelo_inurba_marseille","lat":43.291994,"lon":5.392907,"is_reserved":false,"is_disabled":false,"rental_uris":{"android":"levelo://app?vid=f9c4fb96-9b24-4555-aa29-5c8905d30fc3","ios":"levelo://app?vid=f9c4fb96-9b24-4555-aa29-5c8905d30fc3"},"vehicle_type_id":"4","last_reported":1721239847,"current_range_meters":0,"station_id":"ce4bh192rcd13ifvqdd0","pricing_plan_id":"cebpf4jnsgd1na2vs0mg"},{"bike_id":"6748c472-9b72-431f-b4e9-6f012b75bcf5","system_id":"levelo_inurba_marseille","lat":43.291994,"lon":5.392907,"is_reserved":false,"is_disabled":false,"rental_uris":{"android":"levelo://app?vid=6748c472-9b72-431f-b4e9-6f012b75bcf5","ios":"levelo://app?vid=6748c472-9b72-431f-b4e9-6f012b75bcf5"},"vehicle_type_id":"4","last_reported":1721239847,"current_range_meters":24800,"station_id":"ce4bh192rcd13ifvqdd0","pricing_plan_id":"cebpf4jnsgd1na2vs0mg"},{"bike_id":"2f588519-4210-4635-9035-358448ef2e60","system_id":"levelo_inurba_marseille","lat":43.284538,"lon":5.358657,"is_reserved":false,"is_disabled":false,"rental_uris":{"android":"levelo://app?vid=2f588519-4210-4635-9035-358448ef2e60","ios":"levelo://app?vid=2f588519-4210-4635-9035-358448ef2e60"},"vehicle_type_id":"4","last_reported":1721239847,"current_range_meters":3600,"station_id":"ce4bhah2rcd13ifvqei0","pricing_plan_id":"cebpf4jnsgd1na2vs0mg"},{"bike_id":"1e751032-8ff9-4c70-84a9-8b7d2b7cf3d9","system_id":"levelo_inurba_marseille","lat":43.294314,"lon":5.397498,"is_reserved":false,"is_disabled":false,"rental_uris":{"android":"levelo://app?vid=1e751032-8ff9-4c70-84a9-8b7d2b7cf3d9","ios":"levelo://app?vid=1e751032-8ff9-4c70-84a9-8b7d2b7cf3d9"},"vehicle_type_id":"4","last_reported":1721239847,"current_range_meters":8800,"station_id":"ce4bh3h2rcd13ifvqdo0","pricing_plan_id":"cebpf4jnsgd1na2vs0mg"},{"bike_id":"9f2320fe-c5c1-428f-a429-0af06477dab9","system_id":"levelo_inurba_marseille","lat":43.28461,"lon":5.35872,"is_reserved":false,"is_disabled":false,"rental_uris":{"android":"levelo://app?vid=9f2320fe-c5c1-428f-a429-0af06477dab9","ios":"levelo://app?vid=9f2320fe-c5c1-428f-a429-0af06477dab9"},"vehicle_type_id":"4","last_reported":1721239847,"current_range_meters":800,"station_id":"ce4bhah2rcd13ifvqei0","pricing_plan_id":"cebpf4jnsgd1na2vs0mg"},{"bike_id":"dabedd31-d205-4393-bf99-2b1c3e6ff614","system_id":"levelo_inurba_marseille","lat":43.294314,"lon":5.397498,"is_reserved":false,"is_disabled":false,"rental_uris":{"android":"levelo://app?vid=dabedd31-d205-4393-bf99-2b1c3e6ff614","ios":"levelo://app?vid=dabedd31-d205-4393-bf99-2b1c3e6ff614"},"vehicle_type_id":"4","last_reported":1721239847,"current_range_meters":1200,"station_id":"ce4bh3h2rcd13ifvqdo0","pricing_plan_id":"cebpf4jnsgd1na2vs0mg"},{"bike_id":"fec7aebc-48f4-427f-a341-8281149f63e4","system_id":"levelo_inurba_marseille","lat":43.283998,"lon":5.375062,"is_reserved":false,"is_disabled":false,"rental_uris":{"android":"levelo://app?vid=fec7aebc-48f4-427f-a341-8281149f63e4","ios":"levelo://app?vid=fec7aebc-48f4-427f-a341-8281149f63e4"},"vehicle_type_id":"4","last_reported":1721239847,"current_range_meters":4400,"station_id":"ce4bh412rcd13ifvqds0","pricing_plan_id":"cebpf4jnsgd1na2vs0mg"},{"bike_id":"110a0192-3442-4bd7-b44b-8a091d882284","system_id":"levelo_inurba_marseille","lat":43.28618,"lon":5.35116,"is_reserved":false,"is_disabled":false,"rental_uris":{"android":"levelo://app?vid=110a0192-3442-4bd7-b44b-8a091d882284","ios":"levelo://app?vid=110a0192-3442-4bd7-b44b-8a091d882284"},"vehicle_type_id":"4","last_reported":1721239847,"current_range_meters":0,"station_id":"ce4bhch2rcd13ifvqeug","pricing_plan_id":"cebpf4jnsgd1na2vs0mg"},{"bike_id":"caad40cf-b6f6-4b08-b888-4877710a70b8","system_id":"levelo_inurba_marseille","lat":43.28619,"lon":5.35112,"is_reserved":false,"is_disabled":false,"rental_uris":{"android":"levelo://app?vid=caad40cf-b6f6-4b08-b888-4877710a70b8","ios":"levelo://app?vid=caad40cf-b6f6-4b08-b888-4877710a70b8"},"vehicle_type_id":"4","last_reported":1721239847,"current_range_meters":0,"station_id":"ce4bhch2rcd13ifvqeug","pricing_plan_id":"cebpf4jnsgd1na2vs0mg"},{"bike_id":"3dee7549-3f2b-4e37-aea8-f64c2c726926","system_id":"levelo_inurba_marseille","lat":43.28617,"lon":5.35114,"is_reserved":false,"is_disabled":false,"rental_uris":{"android":"levelo://app?vid=3dee7549-3f2b-4e37-aea8-f64c2c726926","ios":"levelo://app?vid=3dee7549-3f2b-4e37-aea8-f64c2c726926"},"vehicle_type_id":"4","last_reported":1721239847,"current_range_meters":20000,"station_id":"","pricing_plan_id":"cebpf4jnsgd1na2vs0mg"},{"bike_id":"f0a11818-630b-41a4-ae02-892474084a80","system_id":"levelo_inurba_marseille","lat":43.285856,"lon":5.350771,"is_reserved":false,"is_disabled":false,"rental_uris":{"android":"levelo://app?vid=f0a11818-630b-41a4-ae02-892474084a80","ios":"levelo://app?vid=f0a11818-630b-41a4-ae02-892474084a80"},"vehicle_type_id":"4","last_reported":1721239847,"current_range_meters":0,"station_id":"ce4bhch2rcd13ifvqeug","pricing_plan_id":"cebpf4jnsgd1na2vs0mg"},{"bike_id":"ba4e38c2-e6c4-4802-bd14-123c46e1fb2d","system_id":"levelo_inurba_marseille","lat":43.283998,"lon":5.375062,"is_reserved":false,"is_disabled":false,"rental_uris":{"android":"levelo://app?vid=ba4e38c2-e6c4-4802-bd14-123c46e1fb2d","ios":"levelo://app?vid=ba4e38c2-e6c4-4802-bd14-123c46e1fb2d"},"vehicle_type_id":"4","last_reported":1721239847,"current_range_meters":12800,"station_id":"ce4bh412rcd13ifvqds0","pricing_plan_id":"cebpf4jnsgd1na2vs0mg"},{"bike_id":"15d0058f-25c7-45c6-aeb3-4f4d1040281d","system_id":"levelo_inurba_marseille","lat":43.283998,"lon":5.375062,"is_reserved":false,"is_disabled":false,"rental_uris":{"android":"levelo://app?vid=15d0058f-25c7-45c6-aeb3-4f4d1040281d","ios":"levelo://app?vid=15d0058f-25c7-45c6-aeb3-4f4d1040281d"},"vehicle_type_id":"4","last_reported":1721239847,"current_range_meters":0,"station_id":"ce4bh412rcd13ifvqds0","pricing_plan_id":"cebpf4jnsgd1na2vs0mg"},{"bike_id":"b89ba194-33a5-4c3f-9862-1c63a2cbb6c0","system_id":"levelo_inurba_marseille","lat":43.283998,"lon":5.375062,"is_reserved":false,"is_disabled":false,"rental_uris":{"android":"levelo://app?vid=b89ba194-33a5-4c3f-9862-1c63a2cbb6c0","ios":"levelo://app?vid=b89ba194-33a5-4c3f-9862-1c63a2cbb6c0"},"vehicle_type_id":"4","last_reported":1721239847,"current_range_meters":5200,"station_id":"ce4bh412rcd13ifvqds0","pricing_plan_id":"cebpf4jnsgd1na2vs0mg"},{"bike_id":"a8ac181d-8ad8-4d75-a7a3-0800073f5895","system_id":"levelo_inurba_marseille","lat":43.284086,"lon":5.375221,"is_reserved":false,"is_disabled":false,"rental_uris":{"android":"levelo://app?vid=a8ac181d-8ad8-4d75-a7a3-0800073f5895","ios":"levelo://app?vid=a8ac181d-8ad8-4d75-a7a3-0800073f5895"},"vehicle_type_id":"4","last_reported":1721239847,"current_range_meters":0,"station_id":"ce4bh412rcd13ifvqds0","pricing_plan_id":"cebpf4jnsgd1na2vs0mg"},{"bike_id":"c037cc70-7667-452c-9d3e-720f3dcab908","system_id":"levelo_inurba_marseille","lat":43.295713,"lon":5.399639,"is_reserved":false,"is_disabled":false,"rental_uris":{"android":"levelo://app?vid=c037cc70-7667-452c-9d3e-720f3dcab908","ios":"levelo://app?vid=c037cc70-7667-452c-9d3e-720f3dcab908"},"vehicle_type_id":"4","last_reported":1721239847,"current_range_meters":6000,"station_id":"ce4bh312rcd13ifvqdj0","pricing_plan_id":"cebpf4jnsgd1na2vs0mg"},{"bike_id":"dd5c870e-56bf-4c47-b867-dd9983e758b7","system_id":"levelo_inurba_marseille","lat":43.283998,"lon":5.375062,"is_reserved":false,"is_disabled":false,"rental_uris":{"android":"levelo://app?vid=dd5c870e-56bf-4c47-b867-dd9983e758b7","ios":"levelo://app?vid=dd5c870e-56bf-4c47-b867-dd9983e758b7"},"vehicle_type_id":"4","last_reported":1721239847,"current_range_meters":4000,"station_id":"ce4bh412rcd13ifvqds0","pricing_plan_id":"cebpf4jnsgd1na2vs0mg"},{"bike_id":"f4d8e43c-95c8-40fd-8e0e-3140f4f59cf7","system_id":"levelo_inurba_marseille","lat":43.283998,"lon":5.375062,"is_reserved":false,"is_disabled":false,"rental_uris":{"android":"levelo://app?vid=f4d8e43c-95c8-40fd-8e0e-3140f4f59cf7","ios":"levelo://app?vid=f4d8e43c-95c8-40fd-8e0e-3140f4f59cf7"},"vehicle_type_id":"4","last_reported":1721239847,"current_range_meters":800,"station_id":"ce4bh412rcd13ifvqds0","pricing_plan_id":"cebpf4jnsgd1na2vs0mg"},{"bike_id":"bf2896eb-aa36-4837-ba7e-1eb786b03e00","system_id":"levelo_inurba_marseille","lat":43.298037,"lon":5.381066,"is_reserved":false,"is_disabled":false,"rental_uris":{"android":"levelo://app?vid=bf2896eb-aa36-4837-ba7e-1eb786b03e00","ios":"levelo://app?vid=bf2896eb-aa36-4837-ba7e-1eb786b03e00"},"vehicle_type_id":"4","last_reported":1721239847,"current_range_meters":12000,"station_id":"ce4bgip2rcd13ifvqbb0","pricing_plan_id":"cebpf4jnsgd1na2vs0mg"},{"bike_id":"f70007fb-c27a-47e9-a125-70e5a338236d","system_id":"levelo_inurba_marseille","lat":43.286595,"lon":5.386795,"is_reserved":false,"is_disabled":false,"rental_uris":{"android":"levelo://app?vid=f70007fb-c27a-47e9-a125-70e5a338236d","ios":"levelo://app?vid=f70007fb-c27a-47e9-a125-70e5a338236d"},"vehicle_type_id":"4","last_reported":1721239847,"current_range_meters":3200,"station_id":"ce4bh492rcd13ifvqdug","pricing_plan_id":"cebpf4jnsgd1na2vs0mg"},{"bike_id":"6db7fe44-7a7a-469a-bfb1-cbfe604b20be","system_id":"levelo_inurba_marseille","lat":43.286595,"lon":5.386795,"is_reserved":false,"is_disabled":false,"rental_uris":{"android":"levelo://app?vid=6db7fe44-7a7a-469a-bfb1-cbfe604b20be","ios":"levelo://app?vid=6db7fe44-7a7a-469a-bfb1-cbfe604b20be"},"vehicle_type_id":"4","last_reported":1721239847,"current_range_meters":3600,"station_id":"ce4bh492rcd13ifvqdug","pricing_plan_id":"cebpf4jnsgd1na2vs0mg"},{"bike_id":"7d2e94ab-434a-4cbc-a8e6-234be2033eef","system_id":"levelo_inurba_marseille","lat":43.319179,"lon":5.407725,"is_reserved":false,"is_disabled":false,"rental_uris":{"android":"levelo://app?vid=7d2e94ab-434a-4cbc-a8e6-234be2033eef","ios":"levelo://app?vid=7d2e94ab-434a-4cbc-a8e6-234be2033eef"},"vehicle_type_id":"4","last_reported":1721239847,"current_range_meters":19600,"station_id":"ce4bhq12rcd13ifvqhig","pricing_plan_id":"cebpf4jnsgd1na2vs0mg"},{"bike_id":"709b707e-25fa-4432-8f64-fc53f950b8c6","system_id":"levelo_inurba_marseille","lat":43.319179,"lon":5.407725,"is_reserved":false,"is_disabled":false,"rental_uris":{"android":"levelo://app?vid=709b707e-25fa-4432-8f64-fc53f950b8c6","ios":"levelo://app?vid=709b707e-25fa-4432-8f64-fc53f950b8c6"},"vehicle_type_id":"4","last_reported":1721239847,"current_range_meters":10000,"station_id":"ce4bhq12rcd13ifvqhig","pricing_plan_id":"cebpf4jnsgd1na2vs0mg"},{"bike_id":"032268de-7410-4fc4-a3a3-b055a465bcf0","system_id":"levelo_inurba_marseille","lat":43.323464,"lon":5.406297,"is_reserved":false,"is_disabled":false,"rental_uris":{"android":"levelo://app?vid=032268de-7410-4fc4-a3a3-b055a465bcf0","ios":"levelo://app?vid=032268de-7410-4fc4-a3a3-b055a465bcf0"},"vehicle_type_id":"4","last_reported":1721239847,"current_range_meters":800,"station_id":"ce4bhq92rcd13ifvqhjg","pricing_plan_id":"cebpf4jnsgd1na2vs0mg"},{"bike_id":"3922fa2f-2511-4988-9c64-a82ec32d4781","system_id":"levelo_inurba_marseille","lat":43.28482,"lon":5.38419,"is_reserved":false,"is_disabled":false,"rental_uris":{"android":"levelo://app?vid=3922fa2f-2511-4988-9c64-a82ec32d4781","ios":"levelo://app?vid=3922fa2f-2511-4988-9c64-a82ec32d4781"},"vehicle_type_id":"4","last_reported":1721239847,"current_range_meters":0,"station_id":"ce4bh512rcd13ifvqe3g","pricing_plan_id":"cebpf4jnsgd1na2vs0mg"},{"bike_id":"bd6a5d31-0129-4ff8-86b2-4a364a1f2d31","system_id":"levelo_inurba_marseille","lat":43.288501,"lon":5.393087,"is_reserved":false,"is_disabled":false,"rental_uris":{"android":"levelo://app?vid=bd6a5d31-0129-4ff8-86b2-4a364a1f2d31","ios":"levelo://app?vid=bd6a5d31-0129-4ff8-86b2-4a364a1f2d31"},"vehicle_type_id":"4","last_reported":1721239847,"current_range_meters":0,"station_id":"ce4bh2p2rcd13ifvqdi0","pricing_plan_id":"cebpf4jnsgd1na2vs0mg"},{"bike_id":"9c3ecbb1-d1ad-47e2-b613-ee821589d076","system_id":"levelo_inurba_marseille","lat":43.283494,"lon":5.380945,"is_reserved":false,"is_disabled":false,"rental_uris":{"android":"levelo://app?vid=9c3ecbb1-d1ad-47e2-b613-ee821589d076","ios":"levelo://app?vid=9c3ecbb1-d1ad-47e2-b613-ee821589d076"},"vehicle_type_id":"4","last_reported":1721239847,"current_range_meters":5200,"station_id":"ce4bh412rcd13ifvqdr0","pricing_plan_id":"cebpf4jnsgd1na2vs0mg"},{"bike_id":"f96d6119-1f90-4ec6-9ae4-14c1e330c373","system_id":"levelo_inurba_marseille","lat":43.284776,"lon":5.385603,"is_reserved":false,"is_disabled":false,"rental_uris":{"android":"levelo://app?vid=f96d6119-1f90-4ec6-9ae4-14c1e330c373","ios":"levelo://app?vid=f96d6119-1f90-4ec6-9ae4-14c1e330c373"},"vehicle_type_id":"4","last_reported":1721239847,"current_range_meters":31200,"station_id":"ce4bh8p2rcd13ifvqeb0","pricing_plan_id":"cebpf4jnsgd1na2vs0mg"},{"bike_id":"472462ae-c944-40b5-a6eb-cf681c346d28","system_id":"levelo_inurba_marseille","lat":43.284776,"lon":5.385603,"is_reserved":false,"is_disabled":false,"rental_uris":{"android":"levelo://app?vid=472462ae-c944-40b5-a6eb-cf681c346d28","ios":"levelo://app?vid=472462ae-c944-40b5-a6eb-cf681c346d28"},"vehicle_type_id":"4","last_reported":1721239847,"current_range_meters":31200,"station_id":"ce4bh8p2rcd13ifvqeb0","pricing_plan_id":"cebpf4jnsgd1na2vs0mg"},