{"last_updated":1727291147,"ttl":60,"version":"2.2","data":{"bikes":[{"bike_id":"91ba5767-3df6-40eb-b206-1fba1d480306","system_id":"levelo_inurba_marseille","lat":43.29624,"lon":5.37727,"is_reserved":false,"is_disabled":false,"rental_uris":{"android":"levelo://app?vid=91ba5767-3df6-40eb-b206-1fba1d480306","ios":"levelo://app?vid=91ba5767-3df6-40eb-b206-1fba1d480306"},"vehicle_type_id":"4","last_reported":1727291147,"current_range_meters":40000,"station_id":"ce4bgi92rcd13ifvqb90","pricing_plan_id":"cebpf4jnsgd1na2vs0mg"},{"bike_id":"00016f13-b63c-43ff-ab5f-39da0fc9f78a","system_id":"levelo_inurba_marseille","lat":43.28454,"lon":5.35904,"is_reserved":false,"is_disabled":false,"rental_uris":{"android":"levelo://app?vid=00016f13-b63c-43ff-ab5f-39da0fc9f78a","ios":"levelo://app?vid=00016f13-b63c-43ff-ab5f-39da0fc9f78a"},"vehicle_type_id":"4","last_reported":1727291147,"current_range_meters":33200,"station_id":"ce4bhah2rcd13ifvqei0","pricing_plan_id":"cebpf4jnsgd1na2vs0mg"},{"bike_id":"ec2682e4-16c2-46ec-81dd-6e98415c88ba","system_id":"levelo_inurba_marseille","lat":43.29957,"lon":5.4132,"is_reserved":false,"is_disabled":false,"rental_uris":{"android":"levelo://app?vid=ec2682e4-16c2-46ec-81dd-6e98415c88ba","ios":"levelo://app?vid=ec2682e4-16c2-46ec-81dd-6e98415c88ba"},"vehicle_type_id":"4","last_reported":1727291147,"current_range_meters":37600,"station_id":"ce4bhp12rcd13ifvqh9g","pricing_plan_id":"cebpf4jnsgd1na2vs0mg"},{"bike_id":"bd46753b-4c9a-4376-83bc-9b183a6fcfcc","system_id":"levelo_inurba_marseille","lat":43.26207,"lon":5.37928,"is_reserved":false,"is_disabled":false,"rental_uris":{"android":"levelo://app?vid=bd46753b-4c9a-4376-83bc-9b183a6fcfcc","ios":"levelo://app?vid=bd46753b-4c9a-4376-83bc-9b183a6fcfcc"},"vehicle_type_id":"4","last_reported":1727291147,"current_range_meters":38800,"station_id":"ce4bhjp2rcd13ifvqg90","pricing_plan_id":"cebpf4jnsgd1na2vs0mg"},{"bike_id":"2e4ca0be-0189-4a8a-b00c-0294d63eb3d5","system_id":"levelo_inurba_marseille","lat":43.30426,"lon":5.41283,"is_reserved":false,"is_disabled":false,"rental_uris":{"android":"levelo://app?vid=2e4ca0be-0189-4a8a-b00c-0294d63eb3d5","ios":"levelo://app?vid=2e4ca0be-0189-4a8a-b00c-0294d63eb3d5"},"vehicle_type_id":"4","last_reported":1727291147,"current_range_meters":37600,"station_id":"ce4bhop2rcd13ifvqh8g","pricing_plan_id":"cebpf4jnsgd1na2vs0mg"},{"bike_id":"b32ecddb-4b13-40c6-9dd7-50d2496d143a","system_id":"levelo_inurba_marseille","lat":43.29031,"lon":5.3865,"is_reserved":false,"is_disabled":false,"rental_uris":{"android":"levelo://app?vid=b32ecddb-4b13-40c6-9dd7-50d2496d143a","ios":"levelo://app?vid=b32ecddb-4b13-40c6-9dd7-50d2496d143a"},"vehicle_type_id":"4","last_reported":1727291147,"current_range_meters":24400,"station_id":"ce4bh4p2rcd13ifvqe0g","pricing_plan_id":"cebpf4jnsgd1na2vs0mg"},{"bike_id":"d3ce0e04-dccf-4e83-9200-edab7a080f39","system_id":"levelo_inurba_marseille","lat":43.31323,"lon":5.39706,"is_reserved":false,"is_disabled":false,"rental_uris":{"android":"levelo://app?vid=d3ce0e04-dccf-4e83-9200-edab7a080f39","ios":"levelo://app?vid=d3ce0e04-dccf-4e83-9200-edab7a080f39"},"vehicle_type_id":"4","last_reported":1727291147,"current_range_meters":17600,"station_id":"ce4bgvp2rcd13ifvqcu0","pricing_plan_id":"cebpf4jnsgd1na2vs0mg"},{"bike_id":"45eba069-19b2-45c4-a67b-478acc0442e0","system_id":"levelo_inurba_marseille","lat":43.32666,"lon":5.40994,"is_reserved":false,"is_disabled":false,"rental_uris":{"android":"levelo://app?vid=45eba069-19b2-45c4-a67b-478acc0442e0","ios":"levelo://app?vid=45eba069-19b2-45c4-a67b-478acc0442e0"},"vehicle_type_id":"4","last_reported":1727291147,"current_range_meters":38800,"station_id":"ce4bhpp2rcd13ifvqhgg","pricing_plan_id":"cebpf4jnsgd1na2vs0mg"},{"bike_id":"42a38fb8-549c-4925-bfd5-059df21d4756","system_id":"levelo_inurba_marseille","lat":43.33025,"lon":5.39036,"is_reserved":false,"is_disabled":false,"rental_uris":{"android":"levelo://app?vid=42a38fb8-549c-4925-bfd5-059df21d4756","ios":"levelo://app?vid=42a38fb8-549c-4925-bfd5-059df21d4756"},"vehicle_type_id":"4","last_reported":1727291147,"current_range_meters":8400,"station_id":"ce4bhr92rcd13ifvqhrg","pricing_plan_id":"cebpf4jnsgd1na2vs0mg"},{"bike_id":"06d9a378-c2d5-4771-aa53-aebd3f2a3768","system_id":"levelo_inurba_marseille","lat":43.29253,"lon":5.38447,"is_reserved":false,"is_disabled":false,"rental_uris":{"android":"levelo://app?vid=06d9a378-c2d5-4771-aa53-aebd3f2a3768","ios":"levelo://app?vid=06d9a378-c2d5-4771-aa53-aebd3f2a3768"},"vehicle_type_id":"4","last_reported":1727291147,"current_range_meters":38800,"station_id":"ce4bh692rcd13ifvqea0","pricing_plan_id":"cebpf4jnsgd1na2vs0mg"},{"bike_id":"4d632d27-eae4-4c2c-9d04-d10857383d57","system_id":"levelo_inurba_marseille","lat":43.29529,"lon":5.38549,"is_reserved":false,"is_disabled":false,"rental_uris":{"android":"levelo://app?vid=4d632d27-eae4-4c2c-9d04-d10857383d57","ios":"levelo://app?vid=4d632d27-eae4-4c2c-9d04-d10857383d57"},"vehicle_type_id":"4","last_reported":1727291147,"current_range_meters":38800,"station_id":"ce4bgih2rcd13ifvqba0","pricing_plan_id":"cebpf4jnsgd1na2vs0mg"},{"bike_id":"bdf247ae-bc02-4762-979a-3a1ad75c6085","system_id":"levelo_inurba_marseille","lat":43.30801,"lon":5.43526,"is_reserved":false,"is_disabled":false,"rental_uris":{"android":"levelo://app?vid=bdf247ae-bc02-4762-979a-3a1ad75c6085","ios":"levelo://app?vid=bdf247ae-bc02-4762-979a-3a1ad75c6085"},"vehicle_type_id":"4","last_reported":1727291147,"current_range_meters":8400,"station_id":"ce4bhph2rcd13ifvqheg","pricing_plan_id":"cebpf4jnsgd1na2vs0mg"},{"bike_id":"92d54714-4bd7-4231-9388-5d39f05ece8b","system_id":"levelo_inurba_marseille","lat":43.290331,"lon":5.38656,"is_reserved":false,"is_disabled":false,"rental_uris":{"android":"levelo://app?vid=92d54714-4bd7-4231-9388-5d39f05ece8b","ios":"levelo://app?vid=92d54714-4bd7-4231-9388-5d39f05ece8b"},"vehicle_type_id":"4","last_reported":1727291147,"current_range_meters":20400,"station_id":"ce4bh4p2rcd13ifvqe0g","pricing_plan_id":"cebpf4jnsgd1na2vs0mg"},{"bike_id":"3b148ee1-68d4-4518-813a-cb6081c64a5f","system_id":"levelo_inurba_marseille","lat":43.32482,"lon":5.36568,"is_reserved":false,"is_disabled":false,"rental_uris":{"android":"levelo://app?vid=3b148ee1-68d4-4518-813a-cb6081c64a5f","ios":"levelo://app?vid=3b148ee1-68d4-4518-813a-cb6081c64a5f"},"vehicle_type_id":"4","last_reported":1727291147,"current_range_meters":14400,"station_id":"ce4bhs12rcd13ifvqhvg","pricing_plan_id":"cebpf4jnsgd1na2vs0mg"},{"bike_id":"37a643cb-1d05-42c1-abae-a78a2d184760","system_id":"levelo_inurba_marseille","lat":43.31071,"lon":5.38361,"is_reserved":false,"is_disabled":false,"rental_uris":{"android":"levelo://app?vid=37a643cb-1d05-42c1-abae-a78a2d184760","ios":"levelo://app?vid=37a643cb-1d05-42c1-abae-a78a2d184760"},"vehicle_type_id":"4","last_reported":1727291147,"current_range_meters":38800,"station_id":"ce4bgv92rcd13ifvqcr0","pricing_plan_id":"cebpf4jnsgd1na2vs0mg"},{"bike_id":"7737b815-6daf-41f0-8354-4b28ba75917f","system_id":"levelo_inurba_marseille","lat":43.30183,"lon":5.3984,"is_reserved":false,"is_disabled":false,"rental_uris":{"android":"levelo://app?vid=7737b815-6daf-41f0-8354-4b28ba75917f","ios":"levelo://app?vid=7737b815-6daf-41f0-8354-4b28ba75917f"},"vehicle_type_id":"4","last_reported":1727291147,"current_range_meters":16400,"station_id":"ce4bgvp2rcd13ifvqct0","pricing_plan_id":"cebpf4jnsgd1na2vs0mg"},{"bike_id":"98d4bd89-bfec-4ea1-8a10-3c61def8a794","system_id":"levelo_inurba_marseille","lat":43.30422,"lon":5.38901,"is_reserved":false,"is_disabled":false,"rental_uris":{"android":"levelo://app?vid=98d4bd89-bfec-4ea1-8a10-3c61def8a794","ios":"levelo://app?vid=98d4bd89-bfec-4ea1-8a10-3c61def8a794"},"vehicle_type_id":"4","last_reported":1727291147,"current_range_meters":38800,"station_id":"ce4bgk12rcd13ifvqbi0","pricing_plan_id":"cebpf4jnsgd1na2vs0mg"},{"bike_id":"9696a113-5e69-42c4-8dbf-f711b314d863","system_id":"levelo_inurba_marseille","lat":43.31502,"lon":5.37322,"is_reserved":false,"is_disabled":false,"rental_uris":{"android":"levelo://app?vid=9696a113-5e69-42c4-8dbf-f711b314d863","ios":"levelo://app?vid=9696a113-5e69-42c4-8dbf-f711b314d863"},"vehicle_type_id":"4","last_reported":1727291147,"current_range_meters":14800,"station_id":"ce4bgt12rcd13ifvqcd0","pricing_plan_id":"cebpf4jnsgd1na2vs0mg"},{"bike_id":"fd9bdf60-bbf1-4676-87d3-09bb10142d46","system_id":"levelo_inurba_marseille","lat":43.2603,"lon":5.37549,"is_reserved":false,"is_disabled":false,"rental_uris":{"android":"levelo://app?vid=fd9bdf60-bbf1-4676-87d3-09bb10142d46","ios":"levelo://app?vid=fd9bdf60-bbf1-4676-87d3-09bb10142d46"},"vehicle_type_id":"4","last_reported":1727291147,"current_range_meters":38000,"station_id":"ce4bhgh2rcd13ifvqfa0","pricing_plan_id":"cebpf4jnsgd1na2vs0mg"},{"bike_id":"a6ceaa53-b040-4bed-a5a4-04e99e38d93e","system_id":"levelo_inurba_marseille","lat":43.25719,"lon":5.41117,"is_reserved":false,"is_disabled":false,"rental_uris":{"android":"levelo://app?vid=a6ceaa53-b040-4bed-a5a4-04e99e38d93e","ios":"levelo://app?vid=a6ceaa53-b040-4bed-a5a4-04e99e38d93e"},"vehicle_type_id":"4","last_reported":1727291147,"current_range_meters":14800,"station_id":"ce4bhkp2rcd13ifvqgd0","pricing_plan_id":"cebpf4jnsgd1na2vs0mg"},{"bike_id":"867765e9-a89f-46a5-bfc9-6d3089251db5","system_id":"levelo_inurba_marseille","lat":43.30306,"lon":5.40228,"is_reserved":false,"is_disabled":false,"rental_uris":{"android":"levelo://app?vid=867765e9-a89f-46a5-bfc9-6d3089251db5","ios":"levelo://app?vid=867765e9-a89f-46a5-bfc9-6d3089251db5"},"vehicle_type_id":"4","last_reported":1727291147,"current_range_meters":36400,"station_id":"ce4bh612rcd13ifvqe6g","pricing_plan_id":"cebpf4jnsgd1na2vs0mg"},{"bike_id":"20c74529-731f-40b8-8ac9-a949096727e6","system_id":"levelo_inurba_marseille","lat":43.239699,"lon":5.366295,"is_reserved":false,"is_disabled":false,"rental_uris":{"android":"levelo://app?vid=20c74529-731f-40b8-8ac9-a949096727e6","ios":"levelo://app?vid=20c74529-731f-40b8-8ac9-a949096727e6"},"vehicle_type_id":"4","last_reported":1727291147,"current_range_meters":10000,"station_id":"ce4bhgp2rcd13ifvqfd0","pricing_plan_id":"cebpf4jnsgd1na2vs0mg"},{"bike_id":"67ea5e6a-7b71-4b5f-a92b-e6708a512df0","system_id":"levelo_inurba_marseille","lat":43.33025,"lon":5.39043,"is_reserved":false,"is_disabled":false,"rental_uris":{"android":"levelo://app?vid=67ea5e6a-7b71-4b5f-a92b-e6708a512df0","ios":"levelo://app?vid=67ea5e6a-7b71-4b5f-a92b-e6708a512df0"},"vehicle_type_id":"4","last_reported":1727291147,"current_range_meters":34800,"station_id":"ce4bhr92rcd13ifvqhrg","pricing_plan_id":"cebpf4jnsgd1na2vs0mg"},{"bike_id":"f2054fb1-1e8c-42c6-be9f-bbfe0f85dcc6","system_id":"levelo_inurba_marseille","lat":43.29555,"lon":5.42285,"is_reserved":false,"is_disabled":false,"rental_uris":{"android":"levelo://app?vid=f2054fb1-1e8c-42c6-be9f-bbfe0f85dcc6","ios":"levelo://app?vid=f2054fb1-1e8c-42c6-be9f-bbfe0f85dcc6"},"vehicle_type_id":"4","last_reported":1727291147,"current_range_meters":15200,"station_id":"ce4bhph2rcd13ifvqhdg","pricing_plan_id":"cebpf4jnsgd1na2vs0mg"},{"bike_id":"26f9e76f-02c8-4eb7-a8c5-f145697ef279","system_id":"levelo_inurba_marseille","lat":43.27995,"lon":5.4003,"is_reserved":false,"is_disabled":false,"rental_uris":{"android":"levelo://app?vid=26f9e76f-02c8-4eb7-a8c5-f145697ef279","ios":"levelo://app?vid=26f9e76f-02c8-4eb7-a8c5-f145697ef279"},"vehicle_type_id":"4","last_reported":1727291147,"current_range_meters":17600,"station_id":"ce4bho92rcd13ifvqh4g","pricing_plan_id":"cebpf4jnsgd1na2vs0mg"},{"bike_id":"7a8458d5-44ac-4f2e-abef-3f01eb31f7ca","system_id":"levelo_inurba_marseille","lat":43.337444,"lon":5.374475,"is_reserved":false,"is_disabled":false,"rental_uris":{"android":"levelo://app?vid=7a8458d5-44ac-4f2e-abef-3f01eb31f7ca","ios":"levelo://app?vid=7a8458d5-44ac-4f2e-abef-3f01eb31f7ca"},"vehicle_type_id":"4","last_reported":1727291147,"current_range_meters":24400,"station_id":"","pricing_plan_id":"cebpf4jnsgd1na2vs0mg"},{"bike_id":"41b9a237-ad2d-4e20-9ddd-a0e26c3d5a88","system_id":"levelo_inurba_marseille","lat":43.31172,"lon":5.38722,"is_reserved":false,"is_disabled":false,"rental_uris":{"android":"levelo://app?vid=41b9a237-ad2d-4e20-9ddd-a0e26c3d5a88","ios":"levelo://app?vid=41b9a237-ad2d-4e20-9ddd-a0e26c3d5a88"},"vehicle_type_id":"4","last_reported":1727291147,"current_range_meters":24400,"station_id":"ce4bgv12rcd13ifvqcp0","pricing_plan_id":"cebpf4jnsgd1na2vs0mg"},{"bike_id":"f52f2ee8-ad97-4e38-8c4a-86d1b1a559da","system_id":"levelo_inurba_marseille","lat":43.2978,"lon":5.3709,"is_reserved":false,"is_disabled":false,"rental_uris":{"android":"levelo://app?vid=f52f2ee8-ad97-4e38-8c4a-86d1b1a559da","ios":"levelo://app?vid=f52f2ee8-ad97-4e38-8c4a-86d1b1a559da"},"vehicle_type_id":"4","last_reported":1727291147,"current_range_meters":38800,"station_id":"ce4bgop2rcd13ifvqc1g","pricing_plan_id":"cebpf4jnsgd1na2vs0mg"},{"bike_id":"3c0e22fd-8cc3-4016-88b9-c067a08380fd","system_id":"levelo_inurba_marseille","lat":43.29955,"lon":5.41328,"is_reserved":false,"is_disabled":false,"rental_uris":{"android":"levelo://app?vid=3c0e22fd-8cc3-4016-88b9-c067a08380fd","ios":"levelo://app?vid=3c0e22fd-8cc3-4016-88b9-c067a08380fd"},"vehicle_type_id":"4","last_reported":1727291147,"current_range_meters":22400,"station_id":"ce4bhp12rcd13ifvqh9g","pricing_plan_id":"cebpf4jnsgd1na2vs0mg"},{"bike_id":"24ac4479-013e-489e-a41f-831b6781a344","system_id":"levelo_inurba_marseille","lat":43.29673,"lon":5.3729,"is_reserved":false,"is_disabled":false,"rental_uris":{"android":"levelo://app?vid=24ac4479-013e-489e-a41f-831b6781a344","ios":"levelo://app?vid=24ac4479-013e-489e-a41f-831b6781a344"},"vehicle_type_id":"4","last_reported":1727291147,"current_range_meters":36400,"station_id":"ce4bgk12rcd13ifvqbj0","pricing_plan_id":"cebpf4jnsgd1na2vs0mg"},{"bike_id":"59233330-600d-4e2b-84c8-7ab9dfe26a1f","system_id":"levelo_inurba_marseille","lat":43.24649,"lon":5.38905,"is_reserved":false,"is_disabled":false,"rental_uris":{"android":"levelo://app?vid=59233330-600d-4e2b-84c8-7ab9dfe26a1f","ios":"levelo://app?vid=59233330-600d-4e2b-84c8-7ab9dfe26a1f"},"vehicle_type_id":"4","last_reported":1727291147,"current_range_meters":12800,"station_id":"ce4bhg12rcd13ifvqf60","pricing_plan_id":"cebpf4jnsgd1na2vs0mg"},{"bike_id":"9d128452-2447-4cd4-acb6-7a266eb4c875","system_id":"levelo_inurba_marseille","lat":43.27378,"lon":5.36253,"is_reserved":false,"is_disabled":false,"rental_uris":{"android":"levelo://app?vid=9d128452-2447-4cd4-acb6-7a266eb4c875","ios":"levelo://app?vid=9d128452-2447-4cd4-acb6-7a266eb4c875"},"vehicle_type_id":"4","last_reported":1727291147,"current_range_meters":38800,"station_id":"ce4bhbh2rcd13ifvqeo0","pricing_plan_id":"cebpf4jnsgd1na2vs0mg"},{"bike_id":"7e88f0d3-56a1-427f-83c7-1a73ca8b9647","system_id":"levelo_inurba_marseille","lat":43.31282,"lon":5.4018,"is_reserved":false,"is_disabled":false,"rental_uris":{"android":"levelo://app?vid=7e88f0d3-56a1-427f-83c7-1a73ca8b9647","ios":"levelo://app?vid=7e88f0d3-56a1-427f-83c7-1a73ca8b9647"},"vehicle_type_id":"4","last_reported":1727291147,"current_range_meters":6400,"station_id":"ce4bh092rcd13ifvqd30","pricing_plan_id":"cebpf4jnsgd1na2vs0mg"},{"bike_id":"ed9d69a6-a921-4251-b073-fdfe53c8cdc2","system_id":"levelo_inurba_marseille","lat":43.24079,"lon":5.37761,"is_reserved":false,"is_disabled":false,"rental_uris":{"android":"levelo://app?vid=ed9d69a6-a921-4251-b073-fdfe53c8cdc2","ios":"levelo://app?vid=ed9d69a6-a921-4251-b073-fdfe53c8cdc2"},"vehicle_type_id":"4","last_reported":1727291147,"current_range_meters":38800,"station_id":"ce4bhnp2rcd13ifvqgvg","pricing_plan_id":"cebpf4jnsgd1na2vs0mg"},{"bike_id":"fa77213c-e232-40e9-9dd7-f6f59b1cadf6","system_id":"levelo_inurba_marseille","lat":43.27546,"lon":5.38429,"is_reserved":false,"is_disabled":false,"rental_uris":{"android":"levelo://app?vid=fa77213c-e232-40e9-9dd7-f6f59b1cadf6","ios":"levelo://app?vid=fa77213c-e232-40e9-9dd7-f6f59b1cadf6"},"vehicle_type_id":"4","last_reported":1727291147,"current_range_meters":5600,"station_id":"ce4bhh92rcd13ifvqfi0","pricing_plan_id":"cebpf4jnsgd1na2vs0mg"},{"bike_id":"0584c762-5a3e-43d6-bdf1-a062d563e4fe","system_id":"levelo_inurba_marseille","lat":43.28937,"lon":5.36639,"is_reserved":false,"is_disabled":false,"rental_uris":{"android":"levelo://app?vid=0584c762-5a3e-43d6-bdf1-a062d563e4fe","ios":"levelo://app?vid=0584c762-5a3e-43d6-bdf1-a062d563e4fe"},"vehicle_type_id":"4","last_reported":1727291147,"current_range_meters":38800,"station_id":"ce4bhap2rcd13ifvqek0","pricing_plan_id":"cebpf4jnsgd1na2vs0mg"},{"bike_id":"4c113923-aaa1-4dd4-b737-7c3de02f9b64","system_id":"levelo_inurba_marseille","lat":43.27904,"lon":5.38022,"is_reserved":false,"is_disabled":false,"rental_uris":{"android":"levelo://app?vid=4c113923-aaa1-4dd4-b737-7c3de02f9b64","ios":"levelo://app?vid=4c113923-aaa1-4dd4-b737-7c3de02f9b64"},"vehicle_type_id":"4","last_reported":1727291147,"current_range_meters":11200,"station_id":"ce4bhf92rcd13ifvqf50","pricing_plan_id":"cebpf4jnsgd1na2vs0mg"},{"bike_id":"0ffb1ef7-38df-43b4-a46a-a5fe6dd0f7c9","system_id":"levelo_inurba_marseille","lat":43.28578,"lon":5.39508,"is_reserved":false,"is_disabled":false,"rental_uris":{"android":"levelo://app?vid=0ffb1ef7-38df-43b4-a46a-a5fe6dd0f7c9","ios":"levelo://app?vid=0ffb1ef7-38df-43b4-a46a-a5fe6dd0f7c9"},"vehicle_type_id":"4","last_reported":1727291147,"current_range_meters":6800,"station_id":"ce4bh292rcd13ifvqdg0","pricing_plan_id":"cebpf4jnsgd1na2vs0mg"},{"bike_id":"7de5ca1e-fa2c-427e-813a-699af6c1acc2","system_id":"levelo_inurba_marseille","lat":43.31083,"lon":5.42433,"is_reserved":false,"is_disabled":false,"rental_uris":{"android":"levelo://app?vid=7de5ca1e-fa2c-427e-813a-699af6c1acc2","ios":"levelo://app?vid=7de5ca1e-fa2c-427e-813a-699af6c1acc2"},"vehicle_type_id":"4","last_reported":1727291147,"current_range_meters":30000,"station_id":"ce4bhp92rcd13ifvqhag","pricing_plan_id":"cebpf4jnsgd1na2vs0mg"},{"bike_id":"3d1d024a-c638-4aa3-a232-9b8739205d0d","system_id":"levelo_inurba_marseille","lat":43.27996,"lon":5.40018,"is_reserved":false,"is_disabled":false,"rental_uris":{"android":"levelo://app?vid=3d1d024a-c638-4aa3-a232-9b8739205d0d","ios":"levelo://app?vid=3d1d024a-c638-4aa3-a232-9b8739205d0d"},"vehicle_type_id":"4","last_reported":1727291147,"current_range_meters":7200,"station_id":"ce4bho92rcd13ifvqh4g","pricing_plan_id":"cebpf4jnsgd1na2vs0mg"},{"bike_id":"e0321300-37ad-4bce-a17c-4bf73cb9114f","system_id":"levelo_inurba_marseille","lat":43.29898,"lon":5.4367,"is_reserved":false,"is_disabled":false,"rental_uris":{"android":"levelo://app?vid=e0321300-37ad-4bce-a17c-4bf73cb9114f","ios":"levelo://app?vid=e0321300-37ad-4bce-a17c-4bf73cb9114f"},"vehicle_type_id":"4","last_reported":1727291147,"current_range_meters":38800,"station_id":"ce4bhpp2rcd13ifvqhfg","pricing_plan_id":"cebpf4jnsgd1na2vs0mg"},{"bike_id":"ca75d4bb-3ae0-47f5-b353-c625b0312dd2","system_id":"levelo_inurba_marseille","lat":43.29242,"lon":5.38456,"is_reserved":false,"is_disabled":false,"rental_uris":{"android":"levelo://app?vid=ca75d4bb-3ae0-47f5-b353-c625b0312dd2","ios":"levelo://app?vid=ca75d4bb-3ae0-47f5-b353-c625b0312dd2"},"vehicle_type_id":"4","last_reported":1727291147,"current_range_meters":28400,"station_id":"ce4bh692rcd13ifvqea0","pricing_plan_id":"cebpf4jnsgd1na2vs0mg"},{"bike_id":"6195e295-00d7-4cc0-933a-bcab6a6ed7a5","system_id":"levelo_inurba_marseille","lat":43.2942,"lon":5.38631,"is_reserved":false,"is_disabled":false,"rental_uris":{"android":"levelo://app?vid=6195e295-00d7-4cc0-933a-bcab6a6ed7a5","ios":"levelo://app?vid=6195e295-00d7-4cc0-933a-bcab6a6ed7a5"},"vehicle_type_id":"4","last_reported":1727291147,"current_range_meters":38000,"station_id":"ce4bh2h2rcd13ifvqdh0","pricing_plan_id":"cebpf4jnsgd1na2vs0mg"},{"bike_id":"79a05bb1-ccec-47f0-8ebd-1f95854549f8","system_id":"levelo_inurba_marseille","lat":43.31285,"lon":5.38042,"is_reserved":false,"is_disabled":false,"rental_uris":{"android":"levelo://app?vid=79a05bb1-ccec-47f0-8ebd-1f95854549f8","ios":"levelo://app?vid=79a05bb1-ccec-47f0-8ebd-1f95854549f8"},"vehicle_type_id":"4","last_reported":1727291147,"current_range_meters":9600,"station_id":"","pricing_plan_id":"cebpf4jnsgd1na2vs0mg"},{"bike_id":"79bcd95b-c98a-4a88-8c23-cb2457601db8","system_id":"levelo_inurba_marseille","lat":43.309815,"lon":5.390578,"is_reserved":false,"is_disabled":false,"rental_uris":{"android":"levelo://app?vid=79bcd95b-c98a-4a88-8c23-cb2457601db8","ios":"levelo://app?vid=79bcd95b-c98a-4a88-8c23-cb2457601db8"},"vehicle_type_id":"4","last_reported":1727291147,"current_range_meters":39200,"station_id":"ce4bgup2rcd13ifvqco0","pricing_plan_id":"cebpf4jnsgd1na2vs0mg"},{"bike_id":"19585351-59f9-48a2-845f-8c9e520def01","system_id":"levelo_inurba_marseille","lat":43.29249,"lon":5.3844,"is_reserved":false,"is_disabled":false,"rental_uris":{"android":"levelo://app?vid=19585351-59f9-48a2-845f-8c9e520def01","ios":"levelo://app?vid=19585351-59f9-48a2-845f-8c9e520def01"},"vehicle_type_id":"4","last_reported":1727291147,"current_range_meters":25200,"station_id":"ce4bh692rcd13ifvqea0","pricing_plan_id":"cebpf4jnsgd1na2vs0mg"},{"bike_id":"67131987-f8c0-4d58-87b0-f7f2feafa204","system_id":"levelo_inurba_marseille","lat":43.29852,"lon":5.36287,"is_reserved":false,"is_disabled":false,"rental_uris":{"android":"levelo://app?vid=67131987-f8c0-4d58-87b0-f7f2feafa204","ios":"levelo://app?vid=67131987-f8c0-4d58-87b0-f7f2feafa204"},"vehicle_type_id":"4","last_reported":1727291147,"current_range_meters":7200,"station_id":"ce4bgpp2rcd13ifvqc3g","pricing_plan_id":"cebpf4jnsgd1na2vs0mg"},{"bike_id":"be5a7ff4-feb7-4e1b-b351-1f994e8ccce1","system_id":"levelo_inurba_marseille","lat":43.2924,"lon":5.38443,"is_reserved":false,"is_disabled":false,"rental_uris":{"android":"levelo://app?vid=be5a7ff4-feb7-4e1b-b351-1f994e8ccce1","ios":"levelo://app?vid=be5a7ff4-feb7-4e1b-b351-1f994e8ccce1"},"vehicle_type_id":"4","last_reported":1727291147,"current_range_meters":17200,"station_id":"ce4bh692rcd13ifvqea0","pricing_plan_id":"cebpf4jnsgd1na2vs0mg"},{"bike_id":"354f8abe-267f-42f5-aa34-fe96777adbaa","system_id":"levelo_inurba_marseille","lat":43.28937,"lon":5.3638,"is_reserved":false,"is_disabled":false,"rental_uris":{"android":"levelo://app?vid=354f8abe-267f-42f5-aa34-fe96777adbaa","ios":"levelo://app?vid=354f8abe-267f-42f5-aa34-fe96777adbaa"},"vehicle_type_id":"4","last_reported":1727291147,"current_range_meters":19600,"station_id":"ce4bhc92rcd13ifvqetg","pricing_plan_id":"cebpf4jnsgd1na2vs0mg"},{"bike_id":"4a802511-d874-4f77-9d3d-4bb86693b327","system_id":"levelo_inurba_marseille","lat":43.29623,"lon":5.37171,"is_reserved":false,"is_disabled":false,"rental_uris":{"android":"levelo://app?vid=4a802511-d874-4f77-9d3d-4bb86693b327","ios":"levelo://app?vid=4a802511-d874-4f77-9d3d-4bb86693b327"},"vehicle_type_id":"4","last_reported":1727291147,"current_range_meters":37600,"station_id":"ce4bgnh2rcd13ifvqc0g","pricing_plan_id":"cebpf4jnsgd1na2vs0mg"},{"bike_id":"89857b51-1df9-40be-b4a5-eeb678f8a681","system_id":"levelo_inurba_marseille","lat":43.2396,"lon":5.3664,"is_reserved":false,"is_disabled":false,"rental_uris":{"android":"levelo://app?vid=89857b51-1df9-40be-b4a5-eeb678f8a681","ios":"levelo://app?vid=89857b51-1df9-40be-b4a5-eeb678f8a681"},"vehicle_type_id":"4","last_reported":1727291147,"current_range_meters":12800,"station_id":"ce4bhi12rcd13ifvqfp0","pricing_plan_id":"cebpf4jnsgd1na2vs0mg"},{"bike_id":"e008b475-7ef8-4dbb-8d48-be4853659333","system_id":"levelo_inurba_marseille","lat":43.30256,"lon":5.4008,"is_reserved":false,"is_disabled":false,"rental_uris":{"android":"levelo://app?vid=e008b475-7ef8-4dbb-8d48-be4853659333","ios":"levelo://app?vid=e008b475-7ef8-4dbb-8d48-be4853659333"},"vehicle_type_id":"4","last_reported":1727291147,"current_range_meters":39200,"station_id":"ce4bgvh2rcd13ifvqcs0","pricing_plan_id":"cebpf4jnsgd1na2vs0mg"},{"bike_id":"aa00b4d5-e1e0-4cf4-aaca-92c5768640ba","system_id":"levelo_inurba_marseille","lat":43.2956,"lon":5.42265,"is_reserved":false,"is_disabled":false,"rental_uris":{"android":"levelo://app?vid=aa00b4d5-e1e0-4cf4-aaca-92c5768640ba","ios":"levelo://app?vid=aa00b4d5-e1e0-4cf4-aaca-92c5768640ba"},"vehicle_type_id":"4","last_reported":1727291147,"current_range_meters":27200,"station_id":"ce4bhph2rcd13ifvqhdg","pricing_plan_id":"cebpf4jnsgd1na2vs0mg"},{"bike_id":"8fee2e2e-638a-45a0-861a-7a30f9f3016c","system_id":"levelo_inurba_marseille","lat":43.24996,"lon":5.38934,"is_reserved":false,"is_disabled":false,"rental_uris":{"android":"levelo://app?vid=8fee2e2e-638a-45a0-861a-7a30f9f3016c","ios":"levelo://app?vid=8fee2e2e-638a-45a0-861a-7a30f9f3016c"},"vehicle_type_id":"4","last_reported":1727291147,"current_range_meters":10800,"station_id":"ce4bhgp2rcd13ifvqfd0","pricing_plan_id":"cebpf4jnsgd1na2vs0mg"},{"bike_id":"b00f2248-27c1-4953-baf0-a58c1b6a48b1","system_id":"levelo_inurba_marseille","lat":43.32343,"lon":5.40619,"is_reserved":false,"is_disabled":false,"rental_uris":{"android":"levelo://app?vid=b00f2248-27c1-4953-baf0-a58c1b6a48b1","ios":"levelo://app?vid=b00f2248-27c1-4953-baf0-a58c1b6a48b1"},"vehicle_type_id":"4","last_reported":1727291147,"current_range_meters":37600,"station_id":"ce4bhq92rcd13ifvqhjg","pricing_plan_id":"cebpf4jnsgd1na2vs0mg"},{"bike_id":"8f9823fd-c564-4c4a-8fc7-0e7bfe5b5514","system_id":"levelo_inurba_marseille","lat":43.2942,"lon":5.38634,"is_reserved":false,"is_disabled":false,"rental_uris":{"android":"levelo://app?vid=8f9823fd-c564-4c4a-8fc7-0e7bfe5b5514","ios":"levelo://app?vid=8f9823fd-c564-4c4a-8fc7-0e7bfe5b5514"},"vehicle_type_id":"4","last_reported":1727291147,"current_range_meters":38800,"station_id":"ce4bh2h2rcd13ifvqdh0","pricing_plan_id":"cebpf4jnsgd1na2vs0mg"},{"bike_id":"b05c5c85-5f3f-4f8e-a747-4a76ec06c26c","system_id":"levelo_inurba_marseille","lat":43.3078,"lon":5.37655,"is_reserved":false,"is_disabled":false,"rental_uris":{"android":"levelo://app?vid=b05c5c85-5f3f-4f8e-a747-4a76ec06c26c","ios":"levelo://app?vid=b05c5c85-5f3f-4f8e-a747-4a76ec06c26c"},"vehicle_type_id":"4","last_reported":1727291147,"current_range_meters":19600,"station_id":"ce4bgv92rcd13ifvqcq0","pricing_plan_id":"cebpf4jnsgd1na2vs0mg"},{"bike_id":"65063097-6998-460f-ac17-9ddd6188ee3b","system_id":"levelo_inurba_marseille","lat":43.310685,"lon":5.383396,"is_reserved":false,"is_disabled":false,"rental_uris":{"android":"levelo://app?vid=65063097-6998-460f-ac17-9ddd6188ee3b","ios":"levelo://app?vid=65063097-6998-460f-ac17-9ddd6188ee3b"},"vehicle_type_id":"4","last_reported":1727291147,"current_range_meters":39200,"station_id":"ce4bgv92rcd13ifvqcr0","pricing_plan_id":"cebpf4jnsgd1na2vs0mg"},{"bike_id":"97bcd627-3f6f-426d-aa0e-9462a321b97f","system_id":"levelo_inurba_marseille","lat":43.29794,"lon":5.39345,"is_reserved":false,"is_disabled":false,"rental_uris":{"android":"levelo://app?vid=97bcd627-3f6f-426d-aa0e-9462a321b97f","ios":"levelo://app?vid=97bcd627-3f6f-426d-aa0e-9462a321b97f"},"vehicle_type_id":"4","last_reported":1727291147,"current_range_meters":16800,"station_id":"chh1huq6cuj3fo74tm60","pricing_plan_id":"cebpf4jnsgd1na2vs0mg"},{"bike_id":"aea34f61-35f4-41cd-ac94-53a2fc09bdab","system_id":"levelo_inurba_marseille","lat":43.292,"lon":5.39312,"is_reserved":false,"is_disabled":false,"rental_uris":{"android":"levelo://app?vid=aea34f61-35f4-41cd-ac94-53a2fc09bdab","ios":"levelo://app?vid=aea34f61-35f4-41cd-ac94-53a2fc09bdab"},"vehicle_type_id":"4","last_reported":1727291147,"current_range_meters":38400,"station_id":"ce4bh192rcd13ifvqdd0","pricing_plan_id":"cebpf4jnsgd1na2vs0mg"},{"bike_id":"38674e62-e768-405d-9590-89d89d7b7b0f","system_id":"levelo_inurba_marseille","lat":43.26065,"lon":5.394,"is_reserved":false,"is_disabled":false,"rental_uris":{"android":"levelo://app?vid=38674e62-e768-405d-9590-89d89d7b7b0f","ios":"levelo://app?vid=38674e62-e768-405d-9590-89d89d7b7b0f"},"vehicle_type_id":"4","last_reported":1727291147,"current_range_meters":38800,"station_id":"ce4bhh92rcd13ifvqfj0","pricing_plan_id":"cebpf4jnsgd1na2vs0mg"},{"bike_id":"6aeee1aa-489a-4cb7-9bbf-57c495c2e7ff","system_id":"levelo_inurba_marseille","lat":43.32365,"lon":5.38886,"is_reserved":false,"is_disabled":false,"rental_uris":{"android":"levelo://app?vid=6aeee1aa-489a-4cb7-9bbf-57c495c2e7ff","ios":"levelo://app?vid=6aeee1aa-489a-4cb7-9bbf-57c495c2e7ff"},"vehicle_type_id":"4","last_reported":1727291147,"current_range_meters":32400,"station_id":"ce4bhqp2rcd13ifvqhog","pricing_plan_id":"cebpf4jnsgd1na2vs0mg"},{"bike_id":"649f0c9d-aa73-4551-b826-cea9af7631ca","system_id":"levelo_inurba_marseille","lat":43.26558,"lon":5.37288,"is_reserved":false,"is_disabled":false,"rental_uris":{"android":"levelo://app?vid=649f0c9d-aa73-4551-b826-cea9af7631ca","ios":"levelo://app?vid=649f0c9d-aa73-4551-b826-cea9af7631ca"},"vehicle_type_id":"4","last_reported":1727291147,"current_range_meters":32800,"station_id":"ce4bhg12rcd13ifvqf70","pricing_plan_id":"cebpf4jnsgd1na2vs0mg"},{"bike_id":"a3f7c797-2788-4cea-aa51-2735e90fcd90","system_id":"levelo_inurba_marseille","lat":43.30795,"lon":5.4353,"is_reserved":false,"is_disabled":false,"rental_uris":{"android":"levelo://app?vid=a3f7c797-2788-4cea-aa51-2735e90fcd90","ios":"levelo://app?vid=a3f7c797-2788-4cea-aa51-2735e90fcd90"},"vehicle_type_id":"4","last_reported":1727291147,"current_range_meters":20000,"station_id":"ce4bhph2rcd13ifvqheg","pricing_plan_id":"cebpf4jnsgd1na2vs0mg"},{"bike_id":"d5008e57-55b6-48f7-ade9-968c9806062c","system_id":"levelo_inurba_marseille","lat":43.24075,"lon":5.37764,"is_reserved":false,"is_disabled":false,"rental_uris":{"android":"levelo://app?vid=d5008e57-55b6-48f7-ade9-968c9806062c","ios":"levelo://app?vid=d5008e57-55b6-48f7-ade9-968c9806062c"},"vehicle_type_id":"4","last_reported":1727291147,"current_range_meters":33600,"station_id":"ce4bhnp2rcd13ifvqgvg","pricing_plan_id":"cebpf4jnsgd1na2vs0mg"},{"bike_id":"7f66ea78-04e1-404a-9812-9bf088ece948","system_id":"levelo_inurba_marseille","lat":43.32342,"lon":5.40631,"is_reserved":false,"is_disabled":false,"rental_uris":{"android":"levelo://app?vid=7f66ea78-04e1-404a-9812-9bf088ece948","ios":"levelo://app?vid=7f66ea78-04e1-404a-9812-9bf088ece948"},"vehicle_type_id":"4","last_reported":1727291147,"current_range_meters":38800,"station_id":"ce4bhq92rcd13ifvqhjg","pricing_plan_id":"cebpf4jnsgd1na2vs0mg"},{"bike_id":"4211dc02-4006-4d7c-b9ad-3a2c8d84797f","system_id":"levelo_inurba_marseille","lat":43.23963,"lon":5.36646,"is_reserved":false,"is_disabled":false,"rental_uris":{"android":"levelo://app?vid=4211dc02-4006-4d7c-b9ad-3a2c8d84797f","ios":"levelo://app?vid=4211dc02-4006-4d7c-b9ad-3a2c8d84797f"},"vehicle_type_id":"4","last_reported":1727291147,"current_range_meters":26000,"station_id":"ce4bhi12rcd13ifvqfp0","pricing_plan_id":"cebpf4jnsgd1na2vs0mg"},{"bike_id":"5c93b95c-0549-41f0-a4a9-6211e260d1dc","system_id":"levelo_inurba_marseille","lat":43.31888,"lon":5.40743,"is_reserved":false,"is_disabled":false,"rental_uris":{"android":"levelo://app?vid=5c93b95c-0549-41f0-a4a9-6211e260d1dc","ios":"levelo://app?vid=5c93b95c-0549-41f0-a4a9-6211e260d1dc"},"vehicle_type_id":"4","last_reported":1727291147,"current_range_meters":6800,"station_id":"ce4bhq12rcd13ifvqhig","pricing_plan_id":"cebpf4jnsgd1na2vs0mg"},{"bike_id":"acc9fbbc-b941-4917-a385-e58d39d7cc02","system_id":"levelo_inurba_marseille","lat":43.2996,"lon":5.38489,"is_reserved":false,"is_disabled":false,"rental_uris":{"android":"levelo://app?vid=acc9fbbc-b941-4917-a385-e58d39d7cc02","ios":"levelo://app?vid=acc9fbbc-b941-4917-a385-e58d39d7cc02"},"vehicle_type_id":"4","last_reported":1727291147,"current_range_meters":19600,"station_id":"ce4bgj92rcd13ifvqbd0","pricing_plan_id":"cebpf4jnsgd1na2vs0mg"},{"bike_id":"1cfcb040-c9eb-40fa-90ac-23a6e8a27707","system_id":"levelo_inurba_marseille","lat":43.30888,"lon":5.37201,"is_reserved":false,"is_disabled":false,"rental_uris":{"android":"levelo://app?vid=1cfcb040-c9eb-40fa-90ac-23a6e8a27707","ios":"levelo://app?vid=1cfcb040-c9eb-40fa-90ac-23a6e8a27707"},"vehicle_type_id":"4","last_reported":1727291147,"current_range_meters":38000,"station_id":"ce4bguh2rcd13ifvqckg","pricing_plan_id":"cebpf4jnsgd1na2vs0mg"},{"bike_id":"6954fd7e-728c-4dac-9e64-3fa4e20ee438","system_id":"levelo_inurba_marseille","lat":43.33744,"lon":5.39196,"is_reserved":false,"is_disabled":false,"rental_uris":{"android":"levelo://app?vid=6954fd7e-728c-4dac-9e64-3fa4e20ee438","ios":"levelo://app?vid=6954fd7e-728c-4dac-9e64-3fa4e20ee438"},"vehicle_type_id":"4","last_reported":1727291147,"current_range_meters":30400,"station_id":"ce4bhr92rcd13ifvqhsg","pricing_plan_id":"cebpf4jnsgd1na2vs0mg"},{"bike_id":"17b6bf78-ec5a-482d-a03c-435e46bc5536","system_id":"levelo_inurba_marseille","lat":43.28339,"lon":5.38115,"is_reserved":false,"is_disabled":false,"rental_uris":{"android":"levelo://app?vid=17b6bf78-ec5a-482d-a03c-435e46bc5536","ios":"levelo://app?vid=17b6bf78-ec5a-482d-a03c-435e46bc5536"},"vehicle_type_id":"4","last_reported":1727291147,"current_range_meters":38800,"station_id":"ce4bh412rcd13ifvqdr0","pricing_plan_id":"cebpf4jnsgd1na2vs0mg"},{"bike_id":"4a311a61-46ca-4695-82c0-6b5a34218e2b","system_id":"levelo_inurba_marseille","lat":43.28565,"lon":5.39493,"is_reserved":false,"is_disabled":false,"rental_uris":{"android":"levelo://app?vid=4a311a61-46ca-4695-82c0-6b5a34218e2b","ios":"levelo://app?vid=4a311a61-46ca-4695-82c0-6b5a34218e2b"},"vehicle_type_id":"4","last_reported":1727291147,"current_range_meters":26800,"station_id":"ce4bh292rcd13ifvqdg0","pricing_plan_id":"cebpf4jnsgd1na2vs0mg"},{"bike_id":"cba95091-7984-4b96-9b49-853952a62f5f","system_id":"levelo_inurba_marseille","lat":43.2846,"lon":5.359,"is_reserved":false,"is_disabled":false,"rental_uris":{"android":"levelo://app?vid=cba95091-7984-4b96-9b49-853952a62f5f","ios":"levelo://app?vid=cba95091-7984-4b96-9b49-853952a62f5f"},"vehicle_type_id":"4","last_reported":1727291147,"current_range_meters":10000,"station_id":"ce4bhah2rcd13ifvqei0","pricing_plan_id":"cebpf4jnsgd1na2vs0mg"},{"bike_id":"f96bbdaa-5724-4aea-9670-aa0d06565628","system_id":"levelo_inurba_marseille","lat":43.28925,"lon":5.38402,"is_reserved":false,"is_disabled":false,"rental_uris":{"android":"levelo://app?vid=f96bbdaa-5724-4aea-9670-aa0d06565628","ios":"levelo://app?vid=f96bbdaa-5724-4aea-9670-aa0d06565628"},"vehicle_type_id":"4","last_reported":1727291147,"current_range_meters":16400,"station_id":"ce4bh612rcd13ifvqe6g","pricing_plan_id":"cebpf4jnsgd1na2vs0mg"},{"bike_id":"a75d11e4-5000-41f8-9ff2-fbd2a76366d5","system_id":"levelo_inurba_marseille","lat":43.33955,"lon":5.42093,"is_reserved":false,"is_disabled":false,"rental_uris":{"android":"levelo://app?vid=a75d11e4-5000-41f8-9ff2-fbd2a76366d5","ios":"levelo://app?vid=a75d11e4-5000-41f8-9ff2-fbd2a76366d5"},"vehicle_type_id":"4","last_reported":1727291147,"current_range_meters":18800,"station_id":"","pricing_plan_id":"cebpf4jnsgd1na2vs0mg"},{"bike_id":"eb4295bd-b8a8-4ac2-9163-2e0e81566b52","system_id":"levelo_inurba_marseille","lat":43.27378,"lon":5.36267,"is_reserved":false,"is_disabled":false,"rental_uris":{"android":"levelo://app?vid=eb4295bd-b8a8-4ac2-9163-2e0e81566b52","ios":"levelo://app?vid=eb4295bd-b8a8-4ac2-9163-2e0e81566b52"},"vehicle_type_id":"4","last_reported":1727291147,"current_range_meters":38800,"station_id":"ce4bhbh2rcd13ifvqeo0","pricing_plan_id":"cebpf4jnsgd1na2vs0mg"},{"bike_id":"7a6c7385-ef8c-4f76-bf5f-3c755ca54881","system_id":"levelo_inurba_marseille","lat":43.29023,"lon":5.38154,"is_reserved":false,"is_disabled":false,"rental_uris":{"android":"levelo://app?vid=7a6c7385-ef8c-4f76-bf5f-3c755ca54881","ios":"levelo://app?vid=7a6c7385-ef8c-4f76-bf5f-3c755ca54881"},"vehicle_type_id":"4","last_reported":1727291147,"current_range_meters":14000,"station_id":"ce4bh4p2rcd13ifvqe1g","pricing_plan_id":"cebpf4jnsgd1na2vs0mg"},{"bike_id":"4292bf2d-8ee3-4998-8d34-c7f6dd892820","system_id":"levelo_inurba_marseille","lat":43.24181,"lon":5.39739,"is_reserved":false,"is_disabled":false,"rental_uris":{"android":"levelo://app?vid=4292bf2d-8ee3-4998-8d34-c7f6dd892820","ios":"levelo://app?vid=4292bf2d-8ee3-4998-8d34-c7f6dd892820"},"vehicle_type_id":"4","last_reported":1727291147,"current_range_meters":8400,"station_id":"ce4bhn12rcd13ifvqgpg","pricing_plan_id":"cebpf4jnsgd1na2vs0mg"},{"bike_id":"6369fecb-b19b-4911-a293-bec483af8b9b","system_id":"levelo_inurba_marseille","lat":43.28932,"lon":5.36642,"is_reserved":false,"is_disabled":false,"rental_uris":{"android":"levelo://app?vid=6369fecb-b19b-4911-a293-bec483af8b9b","ios":"levelo://app?vid=6369fecb-b19b-4911-a293-bec483af8b9b"},"vehicle_type_id":"4","last_reported":1727291147,"current_range_meters":30400,"station_id":"ce4bhap2rcd13ifvqek0","pricing_plan_id":"cebpf4jnsgd1na2vs0mg"},{"bike_id":"2f2c48a7-330b-44c3-b52f-a01c344118c9","system_id":"levelo_inurba_marseille","lat":43.32286,"lon":5.38275,"is_reserved":false,"is_disabled":false,"rental_uris":{"android":"levelo://app?vid=2f2c48a7-330b-44c3-b52f-a01c344118c9","ios":"levelo://app?vid=2f2c48a7-330b-44c3-b52f-a01c344118c9"},"vehicle_type_id":"4","last_reported":1727291147,"current_range_meters":20400,"station_id":"ce4bhr12rcd13ifvqhqg","pricing_plan_id":"cebpf4jnsgd1na2vs0mg"},{"bike_id":"74375103-47ad-4333-a3e0-203c6a767c68","system_id":"levelo_inurba_marseille","lat":43.28276,"lon":5.35074,"is_reserved":false,"is_disabled":false,"rental_uris":{"android":"levelo://app?vid=74375103-47ad-4333-a3e0-203c6a767c68","ios":"levelo://app?vid=74375103-47ad-4333-a3e0-203c6a767c68"},"vehicle_type_id":"4","last_reported":1727291147,"current_range_meters":38800,"station_id":"ce4bhbp2rcd13ifvqerg","pricing_plan_id":"cebpf4jnsgd1na2vs0mg"},{"bike_id":"bcef4183-7291-4a6f-841a-59d31cc97f2d","system_id":"levelo_inurba_marseille","lat":43.30881,"lon":5.39658,"is_reserved":false,"is_disabled":false,"rental_uris":{"android":"levelo://app?vid=bcef4183-7291-4a6f-841a-59d31cc97f2d","ios":"levelo://app?vid=bcef4183-7291-4a6f-841a-59d31cc97f2d"},"vehicle_type_id":"4","last_reported":1727291147,"current_range_meters":39200,"station_id":"ce4bh012rcd13ifvqcv0","pricing_plan_id":"cebpf4jnsgd1na2vs0mg"},{"bike_id":"ef38c63c-7118-4a0a-9019-1efede9724e0","system_id":"levelo_inurba_marseille","lat":43.29255,"lon":5.3845,"is_reserved":false,"is_disabled":false,"rental_uris":{"android":"levelo://app?vid=ef38c63c-7118-4a0a-9019-1efede9724e0","ios":"levelo://app?vid=ef38c63c-7118-4a0a-9019-1efede9724e0"},"vehicle_type_id":"4","last_reported":1727291147,"current_range_meters":34800,"station_id":"ce4bh692rcd13ifvqea0","pricing_plan_id":"cebpf4jnsgd1na2vs0mg"},{"bike_id":"e5bd0fa9-5f87-41bf-b1c3-9068bc1e13e2","system_id":"levelo_inurba_marseille","lat":43.32361,"lon":5.38887,"is_reserved":false,"is_disabled":false,"rental_uris":{"android":"levelo://app?vid=e5bd0fa9-5f87-41bf-b1c3-9068bc1e13e2","ios":"levelo://app?vid=e5bd0fa9-5f87-41bf-b1c3-9068bc1e13e2"},"vehicle_type_id":"4","last_reported":1727291147,"current_range_meters":20800,"station_id":"ce4bhqp2rcd13ifvqhog","pricing_plan_id":"cebpf4jnsgd1na2vs0mg"},{"bike_id":"857e79c9-3a4f-40b7-b386-c329fae4b9e5","system_id":"levelo_inurba_marseille","lat":43.29415,"lon":5.38637,"is_reserved":false,"is_disabled":false,"rental_uris":{"android":"levelo://app?vid=857e79c9-3a4f-40b7-b386-c329fae4b9e5","ios":"levelo://app?vid=857e79c9-3a4f-40b7-b386-c329fae4b9e5"},"vehicle_type_id":"4","last_reported":1727291147,"current_range_meters":21600,"station_id":"ce4bh2h2rcd13ifvqdh0","pricing_plan_id":"cebpf4jnsgd1na2vs0mg"},{"bike_id":"66f14769-8a4d-4a8c-a7e9-150393aaaf7d","system_id":"levelo_inurba_marseille","lat":43.291,"lon":5.38138,"is_reserved":false,"is_disabled":false,"rental_uris":{"android":"levelo://app?vid=66f14769-8a4d-4a8c-a7e9-150393aaaf7d","ios":"levelo://app?vid=66f14769-8a4d-4a8c-a7e9-150393aaaf7d"},"vehicle_type_id":"4","last_reported":1727291147,"current_range_meters":5600,"station_id":"ce4bh512rcd13ifvqe2g","pricing_plan_id":"cebpf4jnsgd1na2vs0mg"},{"bike_id":"a45e9f79-9d87-4ae1-bb1b-a1720214dd8e","system_id":"levelo_inurba_marseille","lat":43.31329,"lon":5.39701,"is_reserved":false,"is_disabled":false,"rental_uris":{"android":"levelo://app?vid=a45e9f79-9d87-4ae1-bb1b-a1720214dd8e","ios":"levelo://app?vid=a45e9f79-9d87-4ae1-bb1b-a1720214dd8e"},"vehicle_type_id":"4","last_reported":1727291147,"current_range_meters":38800,"station_id":"ce4bgvp2rcd13ifvqcu0","pricing_plan_id":"cebpf4jnsgd1na2vs0mg"},{"bike_id":"c0719311-0832-424d-8543-84a11710a77e","system_id":"levelo_inurba_marseille","lat":43.29259,"lon":5.38452,"is_reserved":false,"is_disabled":false,"rental_uris":{"android":"levelo://app?vid=c0719311-0832-424d-8543-84a11710a77e","ios":"levelo://app?vid=c0719311-0832-424d-8543-84a11710a77e"},"vehicle_type_id":"4","last_reported":1727291147,"current_range_meters":13600,"station_id":"ce4bh692rcd13ifvqea0","pricing_plan_id":"cebpf4jnsgd1na2vs0mg"},{"bike_id":"fc9c5792-d459-492d-9e15-eeb2e88813b3","system_id":"levelo_inurba_marseille","lat":43.30082,"lon":5.39093,"is_reserved":false,"is_disabled":false,"rental_uris":{"android":"levelo://app?vid=fc9c5792-d459-492d-9e15-eeb2e88813b3","ios":"levelo://app?vid=fc9c5792-d459-492d-9e15-eeb2e88813b3"},"vehicle_type_id":"4","last_reported":1727291147,"current_range_meters":38400,"station_id":"ce4bh192rcd13ifvqdb0","pricing_plan_id":"cebpf4jnsgd1na2vs0mg"},{"bike_id":"f70dab8d-74ee-404f-a8c1-d461f4d5f06f","system_id":"levelo_inurba_marseille","lat":43.30421,"lon":5.41289,"is_reserved":false,"is_disabled":false,"rental_uris":{"android":"levelo://app?vid=f70dab8d-74ee-404f-a8c1-d461f4d5f06f","ios":"levelo://app?vid=f70dab8d-74ee-404f-a8c1-d461f4d5f06f"},"vehicle_type_id":"4","last_reported":1727291147,"current_range_meters":38800,"station_id":"ce4bhop2rcd13ifvqh8g","pricing_plan_id":"cebpf4jnsgd1na2vs0mg"},{"bike_id":"579ca450-e0c2-45fa-b5c3-22c592624e30","system_id":"levelo_inurba_marseille","lat":43.33026,"lon":5.39039,"is_reserved":false,"is_disabled":false,"rental_uris":{"android":"levelo://app?vid=579ca450-e0c2-45fa-b5c3-22c592624e30","ios":"levelo://app?vid=579ca450-e0c2-45fa-b5c3-22c592624e30"},"vehicle_type_id":"4","last_reported":1727291147,"current_range_meters":11200,"station_id":"ce4bhr92rcd13ifvqhrg","pricing_plan_id":"cebpf4jnsgd1na2vs0mg"},{"bike_id":"8a4e73ad-65e6-4330-a8e9-98d45e7d911f","system_id":"levelo_inurba_marseille","lat":43.32046,"lon":5.41571,"is_reserved":false,"is_disabled":false,"rental_uris":{"android":"levelo://app?vid=8a4e73ad-65e6-4330-a8e9-98d45e7d911f","ios":"levelo://app?vid=8a4e73ad-65e6-4330-a8e9-98d45e7d911f"},"vehicle_type_id":"4","last_reported":1727291147,"current_range_meters":30000,"station_id":"ce4bhq92rcd13ifvqhkg","pricing_plan_id":"cebpf4jnsgd1na2vs0mg"},{"bike_id":"9b33bcd9-9f5c-46fc-879c-7744bcd808ee","system_id":"levelo_inurba_marseille","lat":43.28156,"lon":5.42633,"is_reserved":false,"is_disabled":false,"rental_uris":{"android":"levelo://app?vid=9b33bcd9-9f5c-46fc-879c-7744bcd808ee","ios":"levelo://app?vid=9b33bcd9-9f5c-46fc-879c-7744bcd808ee"},"vehicle_type_id":"4","last_reported":1727291147,"current_range_meters":7200,"station_id":"ce4bhnh2rcd13ifvqgug","pricing_plan_id":"cebpf4jnsgd1na2vs0mg"},{"bike_id":"b7c5dc21-6061-4347-ac92-5b1cb8a73915","system_id":"levelo_inurba_marseille","lat":43.29867,"lon":5.38902,"is_reserved":false,"is_disabled":false,"rental_uris":{"android":"levelo://app?vid=b7c5dc21-6061-4347-ac92-5b1cb8a73915","ios":"levelo://app?vid=b7c5dc21-6061-4347-ac92-5b1cb8a73915"},"vehicle_type_id":"4","last_reported":1727291147,"current_range_meters":30000,"station_id":"ce4bh392rcd13ifvqdl0","pricing_plan_id":"cebpf4jnsgd1na2vs0mg"},{"bike_id":"f2ef5102-6b9b-41a6-9e50-e7b3a0230a29","system_id":"levelo_inurba_marseille","lat":43.28455,"lon":5.35892,"is_reserved":false,"is_disabled":false,"rental_uris":{"android":"levelo://app?vid=f2ef5102-6b9b-41a6-9e50-e7b3a0230a29","ios":"levelo://app?vid=f2ef5102-6b9b-41a6-9e50-e7b3a0230a29"},"vehicle_type_id":"4","last_reported":1727291147,"current_range_meters":5600,"station_id":"ce4bhah2rcd13ifvqei0","pricing_plan_id":"cebpf4jnsgd1na2vs0mg"},{"bike_id":"a2f975f3-f9b7-4805-acd3-ce19df2a6ccf","system_id":"levelo_inurba_marseille","lat":43.30591,"lon":5.37223,"is_reserved":false,"is_disabled":false,"rental_uris":{"android":"levelo://app?vid=a2f975f3-f9b7-4805-acd3-ce19df2a6ccf","ios":"levelo://app?vid=a2f975f3-f9b7-4805-acd3-ce19df2a6ccf"},"vehicle_type_id":"4","last_reported":1727291147,"current_range_meters":38800,"station_id":"ce4bgqh2rcd13ifvqc4g","pricing_plan_id":"cebpf4jnsgd1na2vs0mg"},{"bike_id":"c2bdf32c-f616-4cec-8d5e-330373c3c441","system_id":"levelo_inurba_marseille","lat":43.2439,"lon":5.37054,"is_reserved":false,"is_disabled":false,"rental_uris":{"android":"levelo://app?vid=c2bdf32c-f616-4cec-8d5e-330373c3c441","ios":"levelo://app?vid=c2bdf32c-f616-4cec-8d5e-330373c3c441"},"vehicle_type_id":"4","last_reported":1727291147,"current_range_meters":38800,"station_id":"ce4bhhh2rcd13ifvqfk0","pricing_plan_id":"cebpf4jnsgd1na2vs0mg"},{"bike_id":"be424af2-c7a0-4f74-bb40-baf4ad45e4c9","system_id":"levelo_inurba_marseille","lat":43.308917,"lon":5.396549,"is_reserved":false,"is_disabled":false,"rental_uris":{"android":"levelo://app?vid=be424af2-c7a0-4f74-bb40-baf4ad45e4c9","ios":"levelo://app?vid=be424af2-c7a0-4f74-bb40-baf4ad45e4c9"},"vehicle_type_id":"4","last_reported":1727291147,"current_range_meters":14800,"station_id":"ce4bh012rcd13ifvqcv0","pricing_plan_id":"cebpf4jnsgd1na2vs0mg"},{"bike_id":"d20b87a8-1ff0-4fbb-9a79-5be841e624b8","system_id":"levelo_inurba_marseille","lat":43.27991,"lon":5.41666,"is_reserved":false,"is_disabled":false,"rental_uris":{"android":"levelo://app?vid=d20b87a8-1ff0-4fbb-9a79-5be841e624b8","ios":"levelo://app?vid=d20b87a8-1ff0-4fbb-9a79-5be841e624b8"},"vehicle_type_id":"4","last_reported":1727291147,"current_range_meters":4800,"station_id":"ce4bho12rcd13ifvqh1g","pricing_plan_id":"cebpf4jnsgd1na2vs0mg"},{"bike_id":"553ffebd-ccf7-4a7c-86b4-9395eafe055b","system_id":"levelo_inurba_marseille","lat":43.31332,"lon":5.39698,"is_reserved":false,"is_disabled":false,"rental_uris":{"android":"levelo://app?vid=553ffebd-ccf7-4a7c-86b4-9395eafe055b","ios":"levelo://app?vid=553ffebd-ccf7-4a7c-86b4-9395eafe055b"},"vehicle_type_id":"4","last_reported":1727291147,"current_range_meters":38400,"station_id":"ce4bgvp2rcd13ifvqcu0","pricing_plan_id":"cebpf4jnsgd1na2vs0mg"},{"bike_id":"daee6ea0-9198-4ffb-909d-5f0295468f2d","system_id":"levelo_inurba_marseille","lat":43.28927,"lon":5.36383,"is_reserved":false,"is_disabled":false,"rental_uris":{"android":"levelo://app?vid=daee6ea0-9198-4ffb-909d-5f0295468f2d","ios":"levelo://app?vid=daee6ea0-9198-4ffb-909d-5f0295468f2d"},"vehicle_type_id":"4","last_reported":1727291147,"current_range_meters":9600,"station_id":"ce4bhc92rcd13ifvqetg","pricing_plan_id":"cebpf4jnsgd1na2vs0mg"},{"bike_id":"21bfd452-7f44-4b6c-84b7-4a64d27d33d6","system_id":"levelo_inurba_marseille","lat":43.30132,"lon":5.3879,"is_reserved":false,"is_disabled":false,"rental_uris":{"android":"levelo://app?vid=21bfd452-7f44-4b6c-84b7-4a64d27d33d6","ios":"levelo://app?vid=21bfd452-7f44-4b6c-84b7-4a64d27d33d6"},"vehicle_type_id":"4","last_reported":1727291147,"current_range_meters":4000,"station_id":"ce4bghh2rcd13ifvqb60","pricing_plan_id":"cebpf4jnsgd1na2vs0mg"},{"bike_id":"9d6da82d-c178-42a9-8398-55555317c0bd","system_id":"levelo_inurba_marseille","lat":43.25102,"lon":5.40324,"is_reserved":false,"is_disabled":false,"rental_uris":{"android":"levelo://app?vid=9d6da82d-c178-42a9-8398-55555317c0bd","ios":"levelo://app?vid=9d6da82d-c178-42a9-8398-55555317c0bd"},"vehicle_type_id":"4","last_reported":1727291147,"current_range_meters":6800,"station_id":"ce4bhlh2rcd13ifvqgig","pricing_plan_id":"cebpf4jnsgd1na2vs0mg"},{"bike_id":"44e904a3-5e29-4f9c-bcc1-ade86b44dbc6","system_id":"levelo_inurba_marseille","lat":43.27381,"lon":5.36262,"is_reserved":false,"is_disabled":false,"rental_uris":{"android":"levelo://app?vid=44e904a3-5e29-4f9c-bcc1-ade86b44dbc6","ios":"levelo://app?vid=44e904a3-5e29-4f9c-bcc1-ade86b44dbc6"},"vehicle_type_id":"4","last_reported":1727291147,"current_range_meters":38800,"station_id":"ce4bhbh2rcd13ifvqeo0","pricing_plan_id":"cebpf4jnsgd1na2vs0mg"},{"bike_id":"155fa6c7-f63a-4c37-aacb-29cacc447d39","system_id":"levelo_inurba_marseille","lat":43.29255,"lon":5.38444,"is_reserved":false,"is_disabled":false,"rental_uris":{"android":"levelo://app?vid=155fa6c7-f63a-4c37-aacb-29cacc447d39","ios":"levelo://app?vid=155fa6c7-f63a-4c37-aacb-29cacc447d39"},"vehicle_type_id":"4","last_reported":1727291147,"current_range_meters":8000,"station_id":"ce4bh692rcd13ifvqea0","pricing_plan_id":"cebpf4jnsgd1na2vs0mg"},{"bike_id":"1c49a05f-67c8-4c00-8e75-d9e27089a285","system_id":"levelo_inurba_marseille","lat":43.32478,"lon":5.36556,"is_reserved":false,"is_disabled":false,"rental_uris":{"android":"levelo://app?vid=1c49a05f-67c8-4c00-8e75-d9e27089a285","ios":"levelo://app?vid=1c49a05f-67c8-4c00-8e75-d9e27089a285"},"vehicle_type_id":"4","last_reported":1727291147,"current_range_meters":16000,"station_id":"ce4bhs12rcd13ifvqhvg","pricing_plan_id":"cebpf4jnsgd1na2vs0mg"},{"bike_id":"ed9cc89e-6a30-4ce0-83e9-055109171415","system_id":"levelo_inurba_marseille","lat":43.29253,"lon":5.38439,"is_reserved":false,"is_disabled":false,"rental_uris":{"android":"levelo://app?vid=ed9cc89e-6a30-4ce0-83e9-055109171415","ios":"levelo://app?vid=ed9cc89e-6a30-4ce0-83e9-055109171415"},"vehicle_type_id":"4","last_reported":1727291147,"current_range_meters":5600,"station_id":"ce4bh692rcd13ifvqea0","pricing_plan_id":"cebpf4jnsgd1na2vs0mg"},{"bike_id":"d14d52e5-75cc-4a1f-90ea-cce4ddff11b1","system_id":"levelo_inurba_marseille","lat":43.31195,"lon":5.38708,"is_reserved":false,"is_disabled":false,"rental_uris":{"android":"levelo://app?vid=d14d52e5-75cc-4a1f-90ea-cce4ddff11b1","ios":"levelo://app?vid=d14d52e5-75cc-4a1f-90ea-cce4ddff11b1"},"vehicle_type_id":"4","last_reported":1727291147,"current_range_meters":38800,"station_id":"ce4bgv12rcd13ifvqcp0","pricing_plan_id":"cebpf4jnsgd1na2vs0mg"},{"bike_id":"b575ad73-cda2-4203-8049-7ce79b1fee6c","system_id":"levelo_inurba_marseille","lat":43.29258,"lon":5.38446,"is_reserved":false,"is_disabled":false,"rental_uris":{"android":"levelo://app?vid=b575ad73-cda2-4203-8049-7ce79b1fee6c","ios":"levelo://app?vid=b575ad73-cda2-4203-8049-7ce79b1fee6c"},"vehicle_type_id":"4","last_reported":1727291147,"current_range_meters":8000,"station_id":"ce4bh692rcd13ifvqea0","pricing_plan_id":"cebpf4jnsgd1na2vs0mg"},{"bike_id":"47ba0401-8be6-4c89-8eef-6bff009d65b5","system_id":"levelo_inurba_marseille","lat":43.32288,"lon":5.38272,"is_reserved":false,"is_disabled":false,"rental_uris":{"android":"levelo://app?vid=47ba0401-8be6-4c89-8eef-6bff009d65b5","ios":"levelo://app?vid=47ba0401-8be6-4c89-8eef-6bff009d65b5"},"vehicle_type_id":"4","last_reported":1727291147,"current_range_meters":14800,"station_id":"ce4bhr12rcd13ifvqhqg","pricing_plan_id":"cebpf4jnsgd1na2vs0mg"},{"bike_id":"b793d92d-daf6-45b1-85d6-d929ca22d465","system_id":"levelo_inurba_marseille","lat":43.2903,"lon":5.38649,"is_reserved":false,"is_disabled":false,"rental_uris":{"android":"levelo://app?vid=b793d92d-daf6-45b1-85d6-d929ca22d465","ios":"levelo://app?vid=b793d92d-daf6-45b1-85d6-d929ca22d465"},"vehicle_type_id":"4","last_reported":1727291147,"current_range_meters":18800,"station_id":"ce4bh4p2rcd13ifvqe0g","pricing_plan_id":"cebpf4jnsgd1na2vs0mg"},{"bike_id":"64a56750-bb84-4478-9eb0-b6ec75f8dbb6","system_id":"levelo_inurba_marseille","lat":43.28446,"lon":5.39189,"is_reserved":false,"is_disabled":false,"rental_uris":{"android":"levelo://app?vid=64a56750-bb84-4478-9eb0-b6ec75f8dbb6","ios":"levelo://app?vid=64a56750-bb84-4478-9eb0-b6ec75f8dbb6"},"vehicle_type_id":"4","last_reported":1727291147,"current_range_meters":8800,"station_id":"ce4bhoh2rcd13ifvqh5g","pricing_plan_id":"cebpf4jnsgd1na2vs0mg"},{"bike_id":"34c5cc0d-b6ae-4dc6-8ec1-3cf3bf80b799","system_id":"levelo_inurba_marseille","lat":43.287706,"lon":5.362468,"is_reserved":false,"is_disabled":false,"rental_uris":{"android":"levelo://app?vid=34c5cc0d-b6ae-4dc6-8ec1-3cf3bf80b799","ios":"levelo://app?vid=34c5cc0d-b6ae-4dc6-8ec1-3cf3bf80b799"},"vehicle_type_id":"4","last_reported":1727291147,"current_range_meters":17600,"station_id":"cki0cbj6b192h4jlfktg","pricing_plan_id":"cebpf4jnsgd1na2vs0mg"},{"bike_id":"5f6c79fc-4a32-4034-b731-a210b1c8c48d","system_id":"levelo_inurba_marseille","lat":43.3047,"lon":5.36608,"is_reserved":false,"is_disabled":false,"rental_uris":{"android":"levelo://app?vid=5f6c79fc-4a32-4034-b731-a210b1c8c48d","ios":"levelo://app?vid=5f6c79fc-4a32-4034-b731-a210b1c8c48d"},"vehicle_type_id":"4","last_reported":1727291147,"current_range_meters":10000,"station_id":"ce4bgrp2rcd13ifvqc9g","pricing_plan_id":"cebpf4jnsgd1na2vs0mg"},{"bike_id":"d1e9e4db-bc77-4ac3-91d3-97528b238df6","system_id":"levelo_inurba_marseille","lat":43.24176,"lon":5.39727,"is_reserved":false,"is_disabled":false,"rental_uris":{"android":"levelo://app?vid=d1e9e4db-bc77-4ac3-91d3-97528b238df6","ios":"levelo://app?vid=d1e9e4db-bc77-4ac3-91d3-97528b238df6"},"vehicle_type_id":"4","last_reported":1727291147,"current_range_meters":38800,"station_id":"ce4bhn12rcd13ifvqgpg","pricing_plan_id":"cebpf4jnsgd1na2vs0mg"},{"bike_id":"0d3beab3-95ca-4827-9cde-d1f1e803002c","system_id":"levelo_inurba_marseille","lat":43.26694,"lon":5.38276,"is_reserved":false,"is_disabled":false,"rental_uris":{"android":"levelo://app?vid=0d3beab3-95ca-4827-9cde-d1f1e803002c","ios":"levelo://app?vid=0d3beab3-95ca-4827-9cde-d1f1e803002c"},"vehicle_type_id":"4","last_reported":1727291147,"current_range_meters":38800,"station_id":"ce4bhg92rcd13ifvqf90","pricing_plan_id":"cebpf4jnsgd1na2vs0mg"},{"bike_id":"63d9bcac-ec41-4f3e-95d3-efa76e558874","system_id":"levelo_inurba_marseille","lat":43.29417,"lon":5.38632,"is_reserved":false,"is_disabled":false,"rental_uris":{"android":"levelo://app?vid=63d9bcac-ec41-4f3e-95d3-efa76e558874","ios":"levelo://app?vid=63d9bcac-ec41-4f3e-95d3-efa76e558874"},"vehicle_type_id":"4","last_reported":1727291147,"current_range_meters":36400,"station_id":"ce4bh2h2rcd13ifvqdh0","pricing_plan_id":"cebpf4jnsgd1na2vs0mg"},{"bike_id":"3dbd4749-a24c-43cd-9def-67297f866862","system_id":"levelo_inurba_marseille","lat":43.32366,"lon":5.38878,"is_reserved":false,"is_disabled":false,"rental_uris":{"android":"levelo://app?vid=3dbd4749-a24c-43cd-9def-67297f866862","ios":"levelo://app?vid=3dbd4749-a24c-43cd-9def-67297f866862"},"vehicle_type_id":"4","last_reported":1727291147,"current_range_meters":14800,"station_id":"ce4bhqp2rcd13ifvqhog","pricing_plan_id":"cebpf4jnsgd1na2vs0mg"},{"bike_id":"18a052cd-2557-4072-ba19-24c6149d8795","system_id":"levelo_inurba_marseille","lat":43.32481,"lon":5.36561,"is_reserved":false,"is_disabled":false,"rental_uris":{"android":"levelo://app?vid=18a052cd-2557-4072-ba19-24c6149d8795","ios":"levelo://app?vid=18a052cd-2557-4072-ba19-24c6149d8795"},"vehicle_type_id":"4","last_reported":1727291147,"current_range_meters":22800,"station_id":"ce4bhs12rcd13ifvqhvg","pricing_plan_id":"cebpf4jnsgd1na2vs0mg"},{"bike_id":"b89f3c75-62ef-439a-891a-3e5717a4b61a","system_id":"levelo_inurba_marseille","lat":43.27933,"lon":5.37954,"is_reserved":false,"is_disabled":false,"rental_uris":{"android":"levelo://app?vid=b89f3c75-62ef-439a-891a-3e5717a4b61a","ios":"levelo://app?vid=b89f3c75-62ef-439a-891a-3e5717a4b61a"},"vehicle_type_id":"4","last_reported":1727291147,"current_range_meters":26800,"station_id":"","pricing_plan_id":"cebpf4jnsgd1na2vs0mg"},{"bike_id":"7823eef2-38a6-4e33-823d-6328e877baad","system_id":"levelo_inurba_marseille","lat":43.30332,"lon":5.4043,"is_reserved":false,"is_disabled":false,"rental_uris":{"android":"levelo://app?vid=7823eef2-38a6-4e33-823d-6328e877baad","ios":"levelo://app?vid=7823eef2-38a6-4e33-823d-6328e877baad"},"vehicle_type_id":"4","last_reported":1727291147,"current_range_meters":7200,"station_id":"ce4bh012rcd13ifvqd10","pricing_plan_id":"cebpf4jnsgd1na2vs0mg"},{"bike_id":"4878b63c-9ec3-4fd4-860a-12fbc092c96a","system_id":"levelo_inurba_marseille","lat":43.2867,"lon":5.36362,"is_reserved":false,"is_disabled":false,"rental_uris":{"android":"levelo://app?vid=4878b63c-9ec3-4fd4-860a-12fbc092c96a","ios":"levelo://app?vid=4878b63c-9ec3-4fd4-860a-12fbc092c96a"},"vehicle_type_id":"4","last_reported":1727291147,"current_range_meters":38800,"station_id":"ce4bhah2rcd13ifvqej0","pricing_plan_id":"cebpf4jnsgd1na2vs0mg"},{"bike_id":"1ac3389e-adb1-4d01-9a0a-5410f450353d","system_id":"levelo_inurba_marseille","lat":43.30545,"lon":5.36538,"is_reserved":false,"is_disabled":false,"rental_uris":{"android":"levelo://app?vid=1ac3389e-adb1-4d01-9a0a-5410f450353d","ios":"levelo://app?vid=1ac3389e-adb1-4d01-9a0a-5410f450353d"},"vehicle_type_id":"4","last_reported":1727291147,"current_range_meters":38800,"station_id":"ce4bgs12rcd13ifvqcag","pricing_plan_id":"cebpf4jnsgd1na2vs0mg"},{"bike_id":"aada4688-91cb-46ba-8b05-5a1c3330ad80","system_id":"levelo_inurba_marseille","lat":43.24179,"lon":5.39732,"is_reserved":false,"is_disabled":false,"rental_uris":{"android":"levelo://app?vid=aada4688-91cb-46ba-8b05-5a1c3330ad80","ios":"levelo://app?vid=aada4688-91cb-46ba-8b05-5a1c3330ad80"},"vehicle_type_id":"4","last_reported":1727291147,"current_range_meters":31200,"station_id":"ce4bhn12rcd13ifvqgpg","pricing_plan_id":"cebpf4jnsgd1na2vs0mg"},{"bike_id":"826404dd-207b-4c40-ad75-1828d56cd7e3","system_id":"levelo_inurba_marseille","lat":43.28104,"lon":5.37831,"is_reserved":false,"is_disabled":false,"rental_uris":{"android":"levelo://app?vid=826404dd-207b-4c40-ad75-1828d56cd7e3","ios":"levelo://app?vid=826404dd-207b-4c40-ad75-1828d56cd7e3"},"vehicle_type_id":"4","last_reported":1727291147,"current_range_meters":28400,"station_id":"ce4bha12rcd13ifvqee0","pricing_plan_id":"cebpf4jnsgd1na2vs0mg"},{"bike_id":"77c2a6e3-c37b-4c88-8599-dd5f8c2b76fc","system_id":"levelo_inurba_marseille","lat":43.30938,"lon":5.4014,"is_reserved":false,"is_disabled":false,"rental_uris":{"android":"levelo://app?vid=77c2a6e3-c37b-4c88-8599-dd5f8c2b76fc","ios":"levelo://app?vid=77c2a6e3-c37b-4c88-8599-dd5f8c2b76fc"},"vehicle_type_id":"4","last_reported":1727291147,"current_range_meters":8800,"station_id":"ce4bgvp2rcd13ifvqct0","pricing_plan_id":"cebpf4jnsgd1na2vs0mg"},{"bike_id":"cc02b8d8-429f-4a48-bc70-9b016a492c27","system_id":"levelo_inurba_marseille","lat":43.32477,"lon":5.36577,"is_reserved":false,"is_disabled":false,"rental_uris":{"android":"levelo://app?vid=cc02b8d8-429f-4a48-bc70-9b016a492c27","ios":"levelo://app?vid=cc02b8d8-429f-4a48-bc70-9b016a492c27"},"vehicle_type_id":"4","last_reported":1727291147,"current_range_meters":31200,"station_id":"ce4bhs12rcd13ifvqhvg","pricing_plan_id":"cebpf4jnsgd1na2vs0mg"},{"bike_id":"0cae4c5e-e8d0-4825-8c05-0e8dcf4f9b52","system_id":"levelo_inurba_marseille","lat":43.24667,"lon":5.38168,"is_reserved":false,"is_disabled":false,"rental_uris":{"android":"levelo://app?vid=0cae4c5e-e8d0-4825-8c05-0e8dcf4f9b52","ios":"levelo://app?vid=0cae4c5e-e8d0-4825-8c05-0e8dcf4f9b52"},"vehicle_type_id":"4","last_reported":1727291147,"current_range_meters":9600,"station_id":"ce4bhih2rcd13ifvqfr0","pricing_plan_id":"cebpf4jnsgd1na2vs0mg"},{"bike_id":"b8b1f28c-2096-4db6-b777-0d7782f8a97b","system_id":"levelo_inurba_marseille","lat":43.29049,"lon":5.37143,"is_reserved":false,"is_disabled":false,"rental_uris":{"android":"levelo://app?vid=b8b1f28c-2096-4db6-b777-0d7782f8a97b","ios":"levelo://app?vid=b8b1f28c-2096-4db6-b777-0d7782f8a97b"},"vehicle_type_id":"4","last_reported":1727291147,"current_range_meters":36000,"station_id":"ce4bh5p2rcd13ifvqe4g","pricing_plan_id":"cebpf4jnsgd1na2vs0mg"},{"bike_id":"8ea13faa-1a14-4687-bd6c-bd57baee94b4","system_id":"levelo_inurba_marseille","lat":43.28822,"lon":5.35853,"is_reserved":false,"is_disabled":false,"rental_uris":{"android":"levelo://app?vid=8ea13faa-1a14-4687-bd6c-bd57baee94b4","ios":"levelo://app?vid=8ea13faa-1a14-4687-bd6c-bd57baee94b4"},"vehicle_type_id":"4","last_reported":1727291147,"current_range_meters":20000,"station_id":"ce4bhb12rcd13ifvqem0","pricing_plan_id":"cebpf4jnsgd1na2vs0mg"},{"bike_id":"164c5150-fd82-49d7-aff9-b769aa561f0f","system_id":"levelo_inurba_marseille","lat":43.31997,"lon":5.38161,"is_reserved":false,"is_disabled":false,"rental_uris":{"android":"levelo://app?vid=164c5150-fd82-49d7-aff9-b769aa561f0f","ios":"levelo://app?vid=164c5150-fd82-49d7-aff9-b769aa561f0f"},"vehicle_type_id":"4","last_reported":1727291147,"current_range_meters":29600,"station_id":"ce4bhr12rcd13ifvqhpg","pricing_plan_id":"cebpf4jnsgd1na2vs0mg"},{"bike_id":"666cfbb3-1b46-4df5-a347-94d4c62ca70f","system_id":"levelo_inurba_marseille","lat":43.2408,"lon":5.37757,"is_reserved":false,"is_disabled":false,"rental_uris":{"android":"levelo://app?vid=666cfbb3-1b46-4df5-a347-94d4c62ca70f","ios":"levelo://app?vid=666cfbb3-1b46-4df5-a347-94d4c62ca70f"},"vehicle_type_id":"4","last_reported":1727291147,"current_range_meters":9600,"station_id":"ce4bhnp2rcd13ifvqgvg","pricing_plan_id":"cebpf4jnsgd1na2vs0mg"},{"bike_id":"5ece6534-697d-4101-8fbb-94c5df553a2d","system_id":"levelo_inurba_marseille","lat":43.24079,"lon":5.37758,"is_reserved":false,"is_disabled":false,"rental_uris":{"android":"levelo://app?vid=5ece6534-697d-4101-8fbb-94c5df553a2d","ios":"levelo://app?vid=5ece6534-697d-4101-8fbb-94c5df553a2d"},"vehicle_type_id":"4","last_reported":1727291147,"current_range_meters":36800,"station_id":"ce4bhnp2rcd13ifvqgvg","pricing_plan_id":"cebpf4jnsgd1na2vs0mg"},{"bike_id":"eced786f-34cd-4487-bfef-355bf03f14a6","system_id":"levelo_inurba_marseille","lat":43.29252,"lon":5.38451,"is_reserved":false,"is_disabled":false,"rental_uris":{"android":"levelo://app?vid=eced786f-34cd-4487-bfef-355bf03f14a6","ios":"levelo://app?vid=eced786f-34cd-4487-bfef-355bf03f14a6"},"vehicle_type_id":"4","last_reported":1727291147,"current_range_meters":38000,"station_id":"ce4bh692rcd13ifvqea0","pricing_plan_id":"cebpf4jnsgd1na2vs0mg"},{"bike_id":"a7bca3df-0344-4204-86d7-b742d4769839","system_id":"levelo_inurba_marseille","lat":43.30863,"lon":5.3685,"is_reserved":false,"is_disabled":false,"rental_uris":{"android":"levelo://app?vid=a7bca3df-0344-4204-86d7-b742d4769839","ios":"levelo://app?vid=a7bca3df-0344-4204-86d7-b742d4769839"},"vehicle_type_id":"4","last_reported":1727291147,"current_range_meters":26800,"station_id":"ce4bgn92rcd13ifvqbvg","pricing_plan_id":"cebpf4jnsgd1na2vs0mg"},{"bike_id":"da2b7ecb-30ed-4532-93eb-00da9bfc4ecb","system_id":"levelo_inurba_marseille","lat":43.29533,"lon":5.37507,"is_reserved":false,"is_disabled":false,"rental_uris":{"android":"levelo://app?vid=da2b7ecb-30ed-4532-93eb-00da9bfc4ecb","ios":"levelo://app?vid=da2b7ecb-30ed-4532-93eb-00da9bfc4ecb"},"vehicle_type_id":"4","last_reported":1727291147,"current_range_meters":29600,"station_id":"ce4bgkp2rcd13ifvqbmg","pricing_plan_id":"cebpf4jnsgd1na2vs0mg"},{"bike_id":"ede47059-7669-469e-afe7-df757b8a887b","system_id":"levelo_inurba_marseille","lat":43.30612,"lon":5.37219,"is_reserved":false,"is_disabled":false,"rental_uris":{"android":"levelo://app?vid=ede47059-7669-469e-afe7-df757b8a887b","ios":"levelo://app?vid=ede47059-7669-469e-afe7-df757b8a887b"},"vehicle_type_id":"4","last_reported":1727291147,"current_range_meters":38400,"station_id":"ce4bgqh2rcd13ifvqc4g","pricing_plan_id":"cebpf4jnsgd1na2vs0mg"},{"bike_id":"3394fef9-fad8-4da2-93e1-4a1dd14c1cf5","system_id":"levelo_inurba_marseille","lat":43.23957,"lon":5.36648,"is_reserved":false,"is_disabled":false,"rental_uris":{"android":"levelo://app?vid=3394fef9-fad8-4da2-93e1-4a1dd14c1cf5","ios":"levelo://app?vid=3394fef9-fad8-4da2-93e1-4a1dd14c1cf5"},"vehicle_type_id":"4","last_reported":1727291147,"current_range_meters":21600,"station_id":"ce4bhi12rcd13ifvqfp0","pricing_plan_id":"cebpf4jnsgd1na2vs0mg"},{"bike_id":"0ba19d1e-f9de-4bd6-8315-89e620ffead5","system_id":"levelo_inurba_marseille","lat":43.29789,"lon":5.39344,"is_reserved":false,"is_disabled":false,"rental_uris":{"android":"levelo://app?vid=0ba19d1e-f9de-4bd6-8315-89e620ffead5","ios":"levelo://app?vid=0ba19d1e-f9de-4bd6-8315-89e620ffead5"},"vehicle_type_id":"4","last_reported":1727291147,"current_range_meters":28800,"station_id":"chh1huq6cuj3fo74tm60","pricing_plan_id":"cebpf4jnsgd1na2vs0mg"},{"bike_id":"37ab63a5-b4f3-4798-a64f-faef0fcf35de","system_id":"levelo_inurba_marseille","lat":43.30467,"lon":5.3791,"is_reserved":false,"is_disabled":false,"rental_uris":{"android":"levelo://app?vid=37ab63a5-b4f3-4798-a64f-faef0fcf35de","ios":"levelo://app?vid=37ab63a5-b4f3-4798-a64f-faef0fcf35de"},"vehicle_type_id":"4","last_reported":1727291147,"current_range_meters":24800,"station_id":"ce4bgup2rcd13ifvqcn0","pricing_plan_id":"cebpf4jnsgd1na2vs0mg"},{"bike_id":"7827170f-fe53-4f76-acc5-1f9d10e67145","system_id":"levelo_inurba_marseille","lat":43.2293,"lon":5.35375,"is_reserved":false,"is_disabled":false,"rental_uris":{"android":"levelo://app?vid=7827170f-fe53-4f76-acc5-1f9d10e67145","ios":"levelo://app?vid=7827170f-fe53-4f76-acc5-1f9d10e67145"},"vehicle_type_id":"4","last_reported":1727291147,"current_range_meters":36800,"station_id":"cpo3532slgdg3j2ikp40","pricing_plan_id":"cebpf4jnsgd1na2vs0mg"},{"bike_id":"2dfddc36-7904-464e-872c-8f7ba9c1db5c","system_id":"levelo_inurba_marseille","lat":43.29421,"lon":5.38631,"is_reserved":false,"is_disabled":false,"rental_uris":{"android":"levelo://app?vid=2dfddc36-7904-464e-872c-8f7ba9c1db5c","ios":"levelo://app?vid=2dfddc36-7904-464e-872c-8f7ba9c1db5c"},"vehicle_type_id":"4","last_reported":1727291147,"current_range_meters":38800,"station_id":"ce4bh2h2rcd13ifvqdh0","pricing_plan_id":"cebpf4jnsgd1na2vs0mg"},{"bike_id":"d831a0c8-0bcd-4449-91a5-836df1a52d4b","system_id":"levelo_inurba_marseille","lat":43.30774,"lon":5.3726,"is_reserved":false,"is_disabled":false,"rental_uris":{"android":"levelo://app?vid=d831a0c8-0bcd-4449-91a5-836df1a52d4b","ios":"levelo://app?vid=d831a0c8-0bcd-4449-91a5-836df1a52d4b"},"vehicle_type_id":"4","last_reported":1727291147,"current_range_meters":9200,"station_id":"","pricing_plan_id":"cebpf4jnsgd1na2vs0mg"},{"bike_id":"9c6ab1ea-fc1c-43c3-a178-21b31104fc9e","system_id":"levelo_inurba_marseille","lat":43.29249,"lon":5.38441,"is_reserved":false,"is_disabled":false,"rental_uris":{"android":"levelo://app?vid=9c6ab1ea-fc1c-43c3-a178-21b31104fc9e","ios":"levelo://app?vid=9c6ab1ea-fc1c-43c3-a178-21b31104fc9e"},"vehicle_type_id":"4","last_reported":1727291147,"current_range_meters":21600,"station_id":"ce4bh692rcd13ifvqea0","pricing_plan_id":"cebpf4jnsgd1na2vs0mg"},{"bike_id":"419bb6d9-bb03-454a-b123-d730bb1a392c","system_id":"levelo_inurba_marseille","lat":43.29519,"lon":5.39408,"is_reserved":false,"is_disabled":false,"rental_uris":{"android":"levelo://app?vid=419bb6d9-bb03-454a-b123-d730bb1a392c","ios":"levelo://app?vid=419bb6d9-bb03-454a-b123-d730bb1a392c"},"vehicle_type_id":"4","last_reported":1727291147,"current_range_meters":14400,"station_id":"ce4bh292rcd13ifvqdf0","pricing_plan_id":"cebpf4jnsgd1na2vs0mg"},{"bike_id":"4a4bfd88-bdfc-4802-b3a8-e798e4274727","system_id":"levelo_inurba_marseille","lat":43.3229,"lon":5.38272,"is_reserved":false,"is_disabled":false,"rental_uris":{"android":"levelo://app?vid=4a4bfd88-bdfc-4802-b3a8-e798e4274727","ios":"levelo://app?vid=4a4bfd88-bdfc-4802-b3a8-e798e4274727"},"vehicle_type_id":"4","last_reported":1727291147,"current_range_meters":27600,"station_id":"ce4bhr12rcd13ifvqhqg","pricing_plan_id":"cebpf4jnsgd1na2vs0mg"},{"bike_id":"bd55e6da-73a1-41e6-a835-af1f9ba87efd","system_id":"levelo_inurba_marseille","lat":43.301,"lon":5.39085,"is_reserved":false,"is_disabled":false,"rental_uris":{"android":"levelo://app?vid=bd55e6da-73a1-41e6-a835-af1f9ba87efd","ios":"levelo://app?vid=bd55e6da-73a1-41e6-a835-af1f9ba87efd"},"vehicle_type_id":"4","last_reported":1727291147,"current_range_meters":37600,"station_id":"ce4bh192rcd13ifvqdb0","pricing_plan_id":"cebpf4jnsgd1na2vs0mg"},{"bike_id":"de8ff9a9-709a-4424-83ed-039925aabde2","system_id":"levelo_inurba_marseille","lat":43.24071,"lon":5.37763,"is_reserved":false,"is_disabled":false,"rental_uris":{"android":"levelo://app?vid=de8ff9a9-709a-4424-83ed-039925aabde2","ios":"levelo://app?vid=de8ff9a9-709a-4424-83ed-039925aabde2"},"vehicle_type_id":"4","last_reported":1727291147,"current_range_meters":16800,"station_id":"ce4bhnp2rcd13ifvqgvg","pricing_plan_id":"cebpf4jnsgd1na2vs0mg"},{"bike_id":"4660de8f-6b1d-4ec7-86e9-b37d4a58ce76","system_id":"levelo_inurba_marseille","lat":43.32293,"lon":5.38269,"is_reserved":false,"is_disabled":false,"rental_uris":{"android":"levelo://app?vid=4660de8f-6b1d-4ec7-86e9-b37d4a58ce76","ios":"levelo://app?vid=4660de8f-6b1d-4ec7-86e9-b37d4a58ce76"},"vehicle_type_id":"4","last_reported":1727291147,"current_range_meters":36400,"station_id":"ce4bhr12rcd13ifvqhqg","pricing_plan_id":"cebpf4jnsgd1na2vs0mg"},{"bike_id":"883c07b5-0a75-489d-906d-16f5b0d514a5","system_id":"levelo_inurba_marseille","lat":43.28078,"lon":5.39662,"is_reserved":false,"is_disabled":false,"rental_uris":{"android":"levelo://app?vid=883c07b5-0a75-489d-906d-16f5b0d514a5","ios":"levelo://app?vid=883c07b5-0a75-489d-906d-16f5b0d514a5"},"vehicle_type_id":"4","last_reported":1727291147,"current_range_meters":11200,"station_id":"ce4bho12rcd13ifvqh2g","pricing_plan_id":"cebpf4jnsgd1na2vs0mg"},{"bike_id":"0eabb683-9d75-4b0a-bd74-7995084ee68f","system_id":"levelo_inurba_marseille","lat":43.31497,"lon":5.37314,"is_reserved":false,"is_disabled":false,"rental_uris":{"android":"levelo://app?vid=0eabb683-9d75-4b0a-bd74-7995084ee68f","ios":"levelo://app?vid=0eabb683-9d75-4b0a-bd74-7995084ee68f"},"vehicle_type_id":"4","last_reported":1727291147,"current_range_meters":12000,"station_id":"ce4bgt12rcd13ifvqcd0","pricing_plan_id":"cebpf4jnsgd1na2vs0mg"},{"bike_id":"4fc0ef81-a692-4f7c-9d38-77b16cc04b2c","system_id":"levelo_inurba_marseille","lat":43.31757,"lon":5.39022,"is_reserved":false,"is_disabled":false,"rental_uris":{"android":"levelo://app?vid=4fc0ef81-a692-4f7c-9d38-77b16cc04b2c","ios":"levelo://app?vid=4fc0ef81-a692-4f7c-9d38-77b16cc04b2c"},"vehicle_type_id":"4","last_reported":1727291147,"current_range_meters":36400,"station_id":"ce4bhqp2rcd13ifvqhng","pricing_plan_id":"cebpf4jnsgd1na2vs0mg"},{"bike_id":"4362adf2-d28b-4cf2-9fcc-442904a18ed0","system_id":"levelo_inurba_marseille","lat":43.317149,"lon":5.377405,"is_reserved":false,"is_disabled":false,"rental_uris":{"android":"levelo://app?vid=4362adf2-d28b-4cf2-9fcc-442904a18ed0","ios":"levelo://app?vid=4362adf2-d28b-4cf2-9fcc-442904a18ed0"},"vehicle_type_id":"4","last_reported":1727291147,"current_range_meters":12400,"station_id":"ce4bgth2rcd13ifvqch0","pricing_plan_id":"cebpf4jnsgd1na2vs0mg"},{"bike_id":"51f4d75c-79c5-47e9-8fcd-05825786ca23","system_id":"levelo_inurba_marseille","lat":43.23183,"lon":5.39989,"is_reserved":false,"is_disabled":false,"rental_uris":{"android":"levelo://app?vid=51f4d75c-79c5-47e9-8fcd-05825786ca23","ios":"levelo://app?vid=51f4d75c-79c5-47e9-8fcd-05825786ca23"},"vehicle_type_id":"4","last_reported":1727291147,"current_range_meters":38800,"station_id":"ce4bhn12rcd13ifvqgqg","pricing_plan_id":"cebpf4jnsgd1na2vs0mg"},{"bike_id":"0701c551-2423-46e6-bb36-1fbd2e19330c","system_id":"levelo_inurba_marseille","lat":43.29072,"lon":5.38163,"is_reserved":false,"is_disabled":false,"rental_uris":{"android":"levelo://app?vid=0701c551-2423-46e6-bb36-1fbd2e19330c","ios":"levelo://app?vid=0701c551-2423-46e6-bb36-1fbd2e19330c"},"vehicle_type_id":"4","last_reported":1727291147,"current_range_meters":35600,"station_id":"ce4bh512rcd13ifvqe2g","pricing_plan_id":"cebpf4jnsgd1na2vs0mg"},{"bike_id":"07f7ebdc-2f7f-4baf-b240-b59bbbaa4305","system_id":"levelo_inurba_marseille","lat":43.28041,"lon":5.36943,"is_reserved":false,"is_disabled":false,"rental_uris":{"android":"levelo://app?vid=07f7ebdc-2f7f-4baf-b240-b59bbbaa4305","ios":"levelo://app?vid=07f7ebdc-2f7f-4baf-b240-b59bbbaa4305"},"vehicle_type_id":"4","last_reported":1727291147,"current_range_meters":37600,"station_id":"ce4bha12rcd13ifvqef0","pricing_plan_id":"cebpf4jnsgd1na2vs0mg"},{"bike_id":"e6eba78b-c552-4f78-8c6f-befa25421055","system_id":"levelo_inurba_marseille","lat":43.30416,"lon":5.38911,"is_reserved":false,"is_disabled":false,"rental_uris":{"android":"levelo://app?vid=e6eba78b-c552-4f78-8c6f-befa25421055","ios":"levelo://app?vid=e6eba78b-c552-4f78-8c6f-befa25421055"},"vehicle_type_id":"4","last_reported":1727291147,"current_range_meters":39200,"station_id":"ce4bgk12rcd13ifvqbi0","pricing_plan_id":"cebpf4jnsgd1na2vs0mg"},{"bike_id":"78792c13-6c92-4734-9766-e58c148f9e63","system_id":"levelo_inurba_marseille","lat":43.23966,"lon":5.36632,"is_reserved":false,"is_disabled":false,"rental_uris":{"android":"levelo://app?vid=78792c13-6c92-4734-9766-e58c148f9e63","ios":"levelo://app?vid=78792c13-6c92-4734-9766-e58c148f9e63"},"vehicle_type_id":"4","last_reported":1727291147,"current_range_meters":16400,"station_id":"ce4bhi12rcd13ifvqfp0","pricing_plan_id":"cebpf4jnsgd1na2vs0mg"},{"bike_id":"5e3bfa38-a5e1-486d-84a3-9aff49239e01","system_id":"levelo_inurba_marseille","lat":43.29419,"lon":5.38636,"is_reserved":false,"is_disabled":false,"rental_uris":{"android":"levelo://app?vid=5e3bfa38-a5e1-486d-84a3-9aff49239e01","ios":"levelo://app?vid=5e3bfa38-a5e1-486d-84a3-9aff49239e01"},"vehicle_type_id":"4","last_reported":1727291147,"current_range_meters":24400,"station_id":"ce4bh2h2rcd13ifvqdh0","pricing_plan_id":"cebpf4jnsgd1na2vs0mg"},{"bike_id":"eacf85af-8a01-4215-a893-a47edd8b42dd","system_id":"levelo_inurba_marseille","lat":43.25566,"lon":5.38237,"is_reserved":false,"is_disabled":false,"rental_uris":{"android":"levelo://app?vid=eacf85af-8a01-4215-a893-a47edd8b42dd","ios":"levelo://app?vid=eacf85af-8a01-4215-a893-a47edd8b42dd"},"vehicle_type_id":"4","last_reported":1727291147,"current_range_meters":10000,"station_id":"ce4bhih2rcd13ifvqfs0","pricing_plan_id":"cebpf4jnsgd1na2vs0mg"},{"bike_id":"8fe96af0-95e1-4690-afda-40f4e31d104e","system_id":"levelo_inurba_marseille","lat":43.31169,"lon":5.38721,"is_reserved":false,"is_disabled":false,"rental_uris":{"android":"levelo://app?vid=8fe96af0-95e1-4690-afda-40f4e31d104e","ios":"levelo://app?vid=8fe96af0-95e1-4690-afda-40f4e31d104e"},"vehicle_type_id":"4","last_reported":1727291147,"current_range_meters":8400,"station_id":"ce4bgv12rcd13ifvqcp0","pricing_plan_id":"cebpf4jnsgd1na2vs0mg"},{"bike_id":"3d160dae-6782-4e53-81e7-e40908ad46c5","system_id":"levelo_inurba_marseille","lat":43.31865,"lon":5.37429,"is_reserved":false,"is_disabled":false,"rental_uris":{"android":"levelo://app?vid=3d160dae-6782-4e53-81e7-e40908ad46c5","ios":"levelo://app?vid=3d160dae-6782-4e53-81e7-e40908ad46c5"},"vehicle_type_id":"4","last_reported":1727291147,"current_range_meters":34000,"station_id":"","pricing_plan_id":"cebpf4jnsgd1na2vs0mg"},{"bike_id":"6de022fc-6851-467a-8c07-3c458eaca8e2","system_id":"levelo_inurba_marseille","lat":43.23188,"lon":5.39992,"is_reserved":false,"is_disabled":false,"rental_uris":{"android":"levelo://app?vid=6de022fc-6851-467a-8c07-3c458eaca8e2","ios":"levelo://app?vid=6de022fc-6851-467a-8c07-3c458eaca8e2"},"vehicle_type_id":"4","last_reported":1727291147,"current_range_meters":9200,"station_id":"ce4bhn12rcd13ifvqgqg","pricing_plan_id":"cebpf4jnsgd1na2vs0mg"},{"bike_id":"1cafb7e2-bb2d-4cdd-850c-a35197648656","system_id":"levelo_inurba_marseille","lat":43.32286,"lon":5.38288,"is_reserved":false,"is_disabled":false,"rental_uris":{"android":"levelo://app?vid=1cafb7e2-bb2d-4cdd-850c-a35197648656","ios":"levelo://app?vid=1cafb7e2-bb2d-4cdd-850c-a35197648656"},"vehicle_type_id":"4","last_reported":1727291147,"current_range_meters":37600,"station_id":"ce4bhr12rcd13ifvqhqg","pricing_plan_id":"cebpf4jnsgd1na2vs0mg"},{"bike_id":"067a124e-6998-46ad-91fa-c2d33bec2ab3","system_id":"levelo_inurba_marseille","lat":43.30286,"lon":5.39222,"is_reserved":false,"is_disabled":false,"rental_uris":{"android":"levelo://app?vid=067a124e-6998-46ad-91fa-c2d33bec2ab3","ios":"levelo://app?vid=067a124e-6998-46ad-91fa-c2d33bec2ab3"},"vehicle_type_id":"4","last_reported":1727291147,"current_range_meters":34000,"station_id":"ce4bgkh2rcd13ifvqbk0","pricing_plan_id":"cebpf4jnsgd1na2vs0mg"},{"bike_id":"b5661cf7-d866-4078-abc8-5a49b4376b92","system_id":"levelo_inurba_marseille","lat":43.29973,"lon":5.38497,"is_reserved":false,"is_disabled":false,"rental_uris":{"android":"levelo://app?vid=b5661cf7-d866-4078-abc8-5a49b4376b92","ios":"levelo://app?vid=b5661cf7-d866-4078-abc8-5a49b4376b92"},"vehicle_type_id":"4","last_reported":1727291147,"current_range_meters":38800,"station_id":"ce4bgj92rcd13ifvqbd0","pricing_plan_id":"cebpf4jnsgd1na2vs0mg"},{"bike_id":"d2636eeb-b6cc-48de-b65d-5f2a1182bebb","system_id":"levelo_inurba_marseille","lat":43.29414,"lon":5.38621,"is_reserved":false,"is_disabled":false,"rental_uris":{"android":"levelo://app?vid=d2636eeb-b6cc-48de-b65d-5f2a1182bebb","ios":"levelo://app?vid=d2636eeb-b6cc-48de-b65d-5f2a1182bebb"},"vehicle_type_id":"4","last_reported":1727291147,"current_range_meters":16400,"station_id":"ce4bh2h2rcd13ifvqdh0","pricing_plan_id":"cebpf4jnsgd1na2vs0mg"},{"bike_id":"38bf0490-7118-4a85-b014-989b96e221e1","system_id":"levelo_inurba_marseille","lat":43.24069,"lon":5.37763,"is_reserved":false,"is_disabled":false,"rental_uris":{"android":"levelo://app?vid=38bf0490-7118-4a85-b014-989b96e221e1","ios":"levelo://app?vid=38bf0490-7118-4a85-b014-989b96e221e1"},"vehicle_type_id":"4","last_reported":1727291147,"current_range_meters":3600,"station_id":"ce4bhnp2rcd13ifvqgvg","pricing_plan_id":"cebpf4jnsgd1na2vs0mg"},{"bike_id":"df99573f-fc55-4e76-b178-5d7109f51b6b","system_id":"levelo_inurba_marseille","lat":43.25136,"lon":5.40325,"is_reserved":false,"is_disabled":false,"rental_uris":{"android":"levelo://app?vid=df99573f-fc55-4e76-b178-5d7109f51b6b","ios":"levelo://app?vid=df99573f-fc55-4e76-b178-5d7109f51b6b"},"vehicle_type_id":"4","last_reported":1727291147,"current_range_meters":22400,"station_id":"ce4bhlh2rcd13ifvqgig","pricing_plan_id":"cebpf4jnsgd1na2vs0mg"},{"bike_id":"13a2d74f-b05e-4479-855a-441b41bf7221","system_id":"levelo_inurba_marseille","lat":43.27968,"lon":5.38731,"is_reserved":false,"is_disabled":false,"rental_uris":{"android":"levelo://app?vid=13a2d74f-b05e-4479-855a-441b41bf7221","ios":"levelo://app?vid=13a2d74f-b05e-4479-855a-441b41bf7221"},"vehicle_type_id":"4","last_reported":1727291147,"current_range_meters":36800,"station_id":"ce4bhg12rcd13ifvqf80","pricing_plan_id":"cebpf4jnsgd1na2vs0mg"},{"bike_id":"99b1c289-f483-4167-87cc-04058221794b","system_id":"levelo_inurba_marseille","lat":43.27381,"lon":5.36259,"is_reserved":false,"is_disabled":false,"rental_uris":{"android":"levelo://app?vid=99b1c289-f483-4167-87cc-04058221794b","ios":"levelo://app?vid=99b1c289-f483-4167-87cc-04058221794b"},"vehicle_type_id":"4","last_reported":1727291147,"current_range_meters":38800,"station_id":"ce4bhbh2rcd13ifvqeo0","pricing_plan_id":"cebpf4jnsgd1na2vs0mg"},{"bike_id":"4bcf678c-a8a9-42a0-b586-4d0496bc652a","system_id":"levelo_inurba_marseille","lat":43.29578,"lon":5.37509,"is_reserved":false,"is_disabled":false,"rental_uris":{"android":"levelo://app?vid=4bcf678c-a8a9-42a0-b586-4d0496bc652a","ios":"levelo://app?vid=4bcf678c-a8a9-42a0-b586-4d0496bc652a"},"vehicle_type_id":"4","last_reported":1727291147,"current_range_meters":8800,"station_id":"ce4bgh92rcd13ifvqb50","pricing_plan_id":"cebpf4jnsgd1na2vs0mg"},{"bike_id":"8de2039a-9cad-429e-b467-c2021b211b1b","system_id":"levelo_inurba_marseille","lat":43.32049,"lon":5.41573,"is_reserved":false,"is_disabled":false,"rental_uris":{"android":"levelo://app?vid=8de2039a-9cad-429e-b467-c2021b211b1b","ios":"levelo://app?vid=8de2039a-9cad-429e-b467-c2021b211b1b"},"vehicle_type_id":"4","last_reported":1727291147,"current_range_meters":39200,"station_id":"ce4bhq92rcd13ifvqhkg","pricing_plan_id":"cebpf4jnsgd1na2vs0mg"},{"bike_id":"3ab75d53-6a7e-4b6a-85bc-da7cb0348b8e","system_id":"levelo_inurba_marseille","lat":43.25124,"lon":5.40328,"is_reserved":false,"is_disabled":false,"rental_uris":{"android":"levelo://app?vid=3ab75d53-6a7e-4b6a-85bc-da7cb0348b8e","ios":"levelo://app?vid=3ab75d53-6a7e-4b6a-85bc-da7cb0348b8e"},"vehicle_type_id":"4","last_reported":1727291147,"current_range_meters":16400,"station_id":"ce4bhlh2rcd13ifvqgig","pricing_plan_id":"cebpf4jnsgd1na2vs0mg"},{"bike_id":"bfefb91a-3f4d-4b87-ab75-925a26fa2bac","system_id":"levelo_inurba_marseille","lat":43.29439,"lon":5.38638,"is_reserved":false,"is_disabled":false,"rental_uris":{"android":"levelo://app?vid=bfefb91a-3f4d-4b87-ab75-925a26fa2bac","ios":"levelo://app?vid=bfefb91a-3f4d-4b87-ab75-925a26fa2bac"},"vehicle_type_id":"4","last_reported":1727291147,"current_range_meters":25600,"station_id":"ce4bh2h2rcd13ifvqdh0","pricing_plan_id":"cebpf4jnsgd1na2vs0mg"},{"bike_id":"d6855356-e979-4a89-ac1d-2d77da8747fc","system_id":"levelo_inurba_marseille","lat":43.25822,"lon":5.39438,"is_reserved":false,"is_disabled":false,"rental_uris":{"android":"levelo://app?vid=d6855356-e979-4a89-ac1d-2d77da8747fc","ios":"levelo://app?vid=d6855356-e979-4a89-ac1d-2d77da8747fc"},"vehicle_type_id":"4","last_reported":1727291147,"current_range_meters":6000,"station_id":"ce4bhip2rcd13ifvqft0","pricing_plan_id":"cebpf4jnsgd1na2vs0mg"},{"bike_id":"c04d5ab7-2ee1-44d1-ad18-6d9c28f4c465","system_id":"levelo_inurba_marseille","lat":43.28486,"lon":5.38411,"is_reserved":false,"is_disabled":false,"rental_uris":{"android":"levelo://app?vid=c04d5ab7-2ee1-44d1-ad18-6d9c28f4c465","ios":"levelo://app?vid=c04d5ab7-2ee1-44d1-ad18-6d9c28f4c465"},"vehicle_type_id":"4","last_reported":1727291147,"current_range_meters":19200,"station_id":"ce4bh512rcd13ifvqe3g","pricing_plan_id":"cebpf4jnsgd1na2vs0mg"},{"bike_id":"d3a61b6a-71e8-4c6c-8c6c-30262b2b9bc2","system_id":"levelo_inurba_marseille","lat":43.337444,"lon":5.374475,"is_reserved":false,"is_disabled":false,"rental_uris":{"android":"levelo://app?vid=d3a61b6a-71e8-4c6c-8c6c-30262b2b9bc2","ios":"levelo://app?vid=d3a61b6a-71e8-4c6c-8c6c-30262b2b9bc2"},"vehicle_type_id":"4","last_reported":1727291147,"current_range_meters":35200,"station_id":"","pricing_plan_id":"cebpf4jnsgd1na2vs0mg"},{"bike_id":"a36a07ac-2d7d-4905-be4a-0f24203a2b1c","system_id":"levelo_inurba_marseille","lat":43.31882,"lon":5.40739,"is_reserved":false,"is_disabled":false,"rental_uris":{"android":"levelo://app?vid=a36a07ac-2d7d-4905-be4a-0f24203a2b1c","ios":"levelo://app?vid=a36a07ac-2d7d-4905-be4a-0f24203a2b1c"},"vehicle_type_id":"4","last_reported":1727291147,"current_range_meters":11200,"station_id":"ce4bhq12rcd13ifvqhig","pricing_plan_id":"cebpf4jnsgd1na2vs0mg"},{"bike_id":"0af01501-f8ee-4920-b4ab-5aee2dde7e05","system_id":"levelo_inurba_marseille","lat":43.29417,"lon":5.38628,"is_reserved":false,"is_disabled":false,"rental_uris":{"android":"levelo://app?vid=0af01501-f8ee-4920-b4ab-5aee2dde7e05","ios":"levelo://app?vid=0af01501-f8ee-4920-b4ab-5aee2dde7e05"},"vehicle_type_id":"4","last_reported":1727291147,"current_range_meters":39200,"station_id":"ce4bh2h2rcd13ifvqdh0","pricing_plan_id":"cebpf4jnsgd1na2vs0mg"},{"bike_id":"0e7da16e-8460-4f16-bfbf-dc2602bdd145","system_id":"levelo_inurba_marseille","lat":43.31067,"lon":5.38357,"is_reserved":false,"is_disabled":false,"rental_uris":{"android":"levelo://app?vid=0e7da16e-8460-4f16-bfbf-dc2602bdd145","ios":"levelo://app?vid=0e7da16e-8460-4f16-bfbf-dc2602bdd145"},"vehicle_type_id":"4","last_reported":1727291147,"current_range_meters":21600,"station_id":"ce4bgv92rcd13ifvqcr0","pricing_plan_id":"cebpf4jnsgd1na2vs0mg"},{"bike_id":"3a2fb078-3ab4-4427-95ee-ff0c42a7a4d5","system_id":"levelo_inurba_marseille","lat":43.23179,"lon":5.39994,"is_reserved":false,"is_disabled":false,"rental_uris":{"android":"levelo://app?vid=3a2fb078-3ab4-4427-95ee-ff0c42a7a4d5","ios":"levelo://app?vid=3a2fb078-3ab4-4427-95ee-ff0c42a7a4d5"},"vehicle_type_id":"4","last_reported":1727291147,"current_range_meters":20000,"station_id":"ce4bhn12rcd13ifvqgqg","pricing_plan_id":"cebpf4jnsgd1na2vs0mg"},{"bike_id":"0cbdd9ee-1790-4ad9-890e-3ba825733dfc","system_id":"levelo_inurba_marseille","lat":43.23195,"lon":5.39962,"is_reserved":false,"is_disabled":false,"rental_uris":{"android":"levelo://app?vid=0cbdd9ee-1790-4ad9-890e-3ba825733dfc","ios":"levelo://app?vid=0cbdd9ee-1790-4ad9-890e-3ba825733dfc"},"vehicle_type_id":"4","last_reported":1727291147,"current_range_meters":25600,"station_id":"ce4bhn12rcd13ifvqgqg","pricing_plan_id":"cebpf4jnsgd1na2vs0mg"},{"bike_id":"05cdef6e-3358-4c0e-bca2-5c6d1e893be6","system_id":"levelo_inurba_marseille","lat":43.3244,"lon":5.40441,"is_reserved":false,"is_disabled":false,"rental_uris":{"android":"levelo://app?vid=05cdef6e-3358-4c0e-bca2-5c6d1e893be6","ios":"levelo://app?vid=05cdef6e-3358-4c0e-bca2-5c6d1e893be6"},"vehicle_type_id":"4","last_reported":1727291147,"current_range_meters":26000,"station_id":"","pricing_plan_id":"cebpf4jnsgd1na2vs0mg"},{"bike_id":"c42a7599-e113-40be-a99f-999c1ccadbc8","system_id":"levelo_inurba_marseille","lat":43.27908,"lon":5.38018,"is_reserved":false,"is_disabled":false,"rental_uris":{"android":"levelo://app?vid=c42a7599-e113-40be-a99f-999c1ccadbc8","ios":"levelo://app?vid=c42a7599-e113-40be-a99f-999c1ccadbc8"},"vehicle_type_id":"4","last_reported":1727291147,"current_range_meters":36400,"station_id":"ce4bhf92rcd13ifvqf50","pricing_plan_id":"cebpf4jnsgd1na2vs0mg"},{"bike_id":"b4ebb3b8-fa5f-4b31-99d7-9fdec65b9132","system_id":"levelo_inurba_marseille","lat":43.24389,"lon":5.37062,"is_reserved":false,"is_disabled":false,"rental_uris":{"android":"levelo://app?vid=b4ebb3b8-fa5f-4b31-99d7-9fdec65b9132","ios":"levelo://app?vid=b4ebb3b8-fa5f-4b31-99d7-9fdec65b9132"},"vehicle_type_id":"4","last_reported":1727291147,"current_range_meters":38800,"station_id":"ce4bhhh2rcd13ifvqfk0","pricing_plan_id":"cebpf4jnsgd1na2vs0mg"},{"bike_id":"a91e55d8-5e22-404a-9d48-a069cfbf453d","system_id":"levelo_inurba_marseille","lat":43.29251,"lon":5.38451,"is_reserved":false,"is_disabled":false,"rental_uris":{"android":"levelo://app?vid=a91e55d8-5e22-404a-9d48-a069cfbf453d","ios":"levelo://app?vid=a91e55d8-5e22-404a-9d48-a069cfbf453d"},"vehicle_type_id":"4","last_reported":1727291147,"current_range_meters":9600,"station_id":"ce4bh692rcd13ifvqea0","pricing_plan_id":"cebpf4jnsgd1na2vs0mg"},{"bike_id":"6cd67961-0e49-4001-8c10-59fe93aefdf9","system_id":"levelo_inurba_marseille","lat":43.32284,"lon":5.38275,"is_reserved":false,"is_disabled":false,"rental_uris":{"android":"levelo://app?vid=6cd67961-0e49-4001-8c10-59fe93aefdf9","ios":"levelo://app?vid=6cd67961-0e49-4001-8c10-59fe93aefdf9"},"vehicle_type_id":"4","last_reported":1727291147,"current_range_meters":35200,"station_id":"ce4bhr12rcd13ifvqhqg","pricing_plan_id":"cebpf4jnsgd1na2vs0mg"},{"bike_id":"b758bb5f-adae-4881-83e7-0e917c4e39a1","system_id":"levelo_inurba_marseille","lat":43.32001,"lon":5.3816,"is_reserved":false,"is_disabled":false,"rental_uris":{"android":"levelo://app?vid=b758bb5f-adae-4881-83e7-0e917c4e39a1","ios":"levelo://app?vid=b758bb5f-adae-4881-83e7-0e917c4e39a1"},"vehicle_type_id":"4","last_reported":1727291147,"current_range_meters":4800,"station_id":"ce4bhr12rcd13ifvqhpg","pricing_plan_id":"cebpf4jnsgd1na2vs0mg"},{"bike_id":"93bb9210-12eb-407c-bb6e-fb7d1cdc78e2","system_id":"levelo_inurba_marseille","lat":43.28268,"lon":5.3507,"is_reserved":false,"is_disabled":false,"rental_uris":{"android":"levelo://app?vid=93bb9210-12eb-407c-bb6e-fb7d1cdc78e2","ios":"levelo://app?vid=93bb9210-12eb-407c-bb6e-fb7d1cdc78e2"},"vehicle_type_id":"4","last_reported":1727291147,"current_range_meters":38800,"station_id":"ce4bhbp2rcd13ifvqerg","pricing_plan_id":"cebpf4jnsgd1na2vs0mg"},{"bike_id":"edaef6af-4daa-48ce-ab2f-498b09abccd3","system_id":"levelo_inurba_marseille","lat":43.30884,"lon":5.39645,"is_reserved":false,"is_disabled":false,"rental_uris":{"android":"levelo://app?vid=edaef6af-4daa-48ce-ab2f-498b09abccd3","ios":"levelo://app?vid=edaef6af-4daa-48ce-ab2f-498b09abccd3"},"vehicle_type_id":"4","last_reported":1727291147,"current_range_meters":38800,"station_id":"ce4bh012rcd13ifvqcv0","pricing_plan_id":"cebpf4jnsgd1na2vs0mg"},{"bike_id":"a14491db-e84d-406b-8e77-0f36bd7cb694","system_id":"levelo_inurba_marseille","lat":43.26067,"lon":5.39399,"is_reserved":false,"is_disabled":false,"rental_uris":{"android":"levelo://app?vid=a14491db-e84d-406b-8e77-0f36bd7cb694","ios":"levelo://app?vid=a14491db-e84d-406b-8e77-0f36bd7cb694"},"vehicle_type_id":"4","last_reported":1727291147,"current_range_meters":26000,"station_id":"ce4bhh92rcd13ifvqfj0","pricing_plan_id":"cebpf4jnsgd1na2vs0mg"},{"bike_id":"07030c9f-b220-4d67-b434-1d818d1c7394","system_id":"levelo_inurba_marseille","lat":43.29898,"lon":5.43663,"is_reserved":false,"is_disabled":false,"rental_uris":{"android":"levelo://app?vid=07030c9f-b220-4d67-b434-1d818d1c7394","ios":"levelo://app?vid=07030c9f-b220-4d67-b434-1d818d1c7394"},"vehicle_type_id":"4","last_reported":1727291147,"current_range_meters":38800,"station_id":"ce4bhpp2rcd13ifvqhfg","pricing_plan_id":"cebpf4jnsgd1na2vs0mg"},{"bike_id":"2d9ff969-962e-42bb-a3cb-1efee18b4344","system_id":"levelo_inurba_marseille","lat":43.30651,"lon":5.40102,"is_reserved":false,"is_disabled":false,"rental_uris":{"android":"levelo://app?vid=2d9ff969-962e-42bb-a3cb-1efee18b4344","ios":"levelo://app?vid=2d9ff969-962e-42bb-a3cb-1efee18b4344"},"vehicle_type_id":"4","last_reported":1727291147,"current_range_meters":22000,"station_id":"ce4bh112rcd13ifvqda0","pricing_plan_id":"cebpf4jnsgd1na2vs0mg"},{"bike_id":"ef71a54f-5b11-42e3-b92d-446cc02144dd","system_id":"levelo_inurba_marseille","lat":43.25826,"lon":5.39429,"is_reserved":false,"is_disabled":false,"rental_uris":{"android":"levelo://app?vid=ef71a54f-5b11-42e3-b92d-446cc02144dd","ios":"levelo://app?vid=ef71a54f-5b11-42e3-b92d-446cc02144dd"},"vehicle_type_id":"4","last_reported":1727291147,"current_range_meters":33600,"station_id":"ce4bhip2rcd13ifvqft0","pricing_plan_id":"cebpf4jnsgd1na2vs0mg"},{"bike_id":"f17dbafc-151f-485c-a428-c0c83c10c6c9","system_id":"levelo_inurba_marseille","lat":43.29156,"lon":5.43978,"is_reserved":false,"is_disabled":false,"rental_uris":{"android":"levelo://app?vid=f17dbafc-151f-485c-a428-c0c83c10c6c9","ios":"levelo://app?vid=f17dbafc-151f-485c-a428-c0c83c10c6c9"},"vehicle_type_id":"4","last_reported":1727291147,"current_range_meters":28400,"station_id":"","pricing_plan_id":"cebpf4jnsgd1na2vs0mg"},{"bike_id":"53a1cdd1-3f34-4638-a135-1e8e46e6a324","system_id":"levelo_inurba_marseille","lat":43.2906,"lon":5.37555,"is_reserved":false,"is_disabled":false,"rental_uris":{"android":"levelo://app?vid=53a1cdd1-3f34-4638-a135-1e8e46e6a324","ios":"levelo://app?vid=53a1cdd1-3f34-4638-a135-1e8e46e6a324"},"vehicle_type_id":"4","last_reported":1727291147,"current_range_meters":17200,"station_id":"","pricing_plan_id":"cebpf4jnsgd1na2vs0mg"},{"bike_id":"c0ce0031-ba4e-428f-9dc9-75c2bdddba3d","system_id":"levelo_inurba_marseille","lat":43.28452,"lon":5.35904,"is_reserved":false,"is_disabled":false,"rental_uris":{"android":"levelo://app?vid=c0ce0031-ba4e-428f-9dc9-75c2bdddba3d","ios":"levelo://app?vid=c0ce0031-ba4e-428f-9dc9-75c2bdddba3d"},"vehicle_type_id":"4","last_reported":1727291147,"current_range_meters":29600,"station_id":"ce4bhah2rcd13ifvqei0","pricing_plan_id":"cebpf4jnsgd1na2vs0mg"},{"bike_id":"277432c6-562f-4d2c-bb41-2f9049c91da3","system_id":"levelo_inurba_marseille","lat":43.28704,"lon":5.37392,"is_reserved":false,"is_disabled":false,"rental_uris":{"android":"levelo://app?vid=277432c6-562f-4d2c-bb41-2f9049c91da3","ios":"levelo://app?vid=277432c6-562f-4d2c-bb41-2f9049c91da3"},"vehicle_type_id":"4","last_reported":1727291147,"current_range_meters":11200,"station_id":"ce4bh3p2rcd13ifvqdq0","pricing_plan_id":"cebpf4jnsgd1na2vs0mg"},{"bike_id":"0177545c-44aa-43e3-ab3a-b6f1caf71434","system_id":"levelo_inurba_marseille","lat":43.29793,"lon":5.3935,"is_reserved":false,"is_disabled":false,"rental_uris":{"android":"levelo://app?vid=0177545c-44aa-43e3-ab3a-b6f1caf71434","ios":"levelo://app?vid=0177545c-44aa-43e3-ab3a-b6f1caf71434"},"vehicle_type_id":"4","last_reported":1727291147,"current_range_meters":20000,"station_id":"chh1huq6cuj3fo74tm60","pricing_plan_id":"cebpf4jnsgd1na2vs0mg"},{"bike_id":"f79045e6-69ec-4ae2-a829-427af7d13a8b","system_id":"levelo_inurba_marseille","lat":43.25008,"lon":5.38915,"is_reserved":false,"is_disabled":false,"rental_uris":{"android":"levelo://app?vid=f79045e6-69ec-4ae2-a829-427af7d13a8b","ios":"levelo://app?vid=f79045e6-69ec-4ae2-a829-427af7d13a8b"},"vehicle_type_id":"4","last_reported":1727291147,"current_range_meters":11200,"station_id":"ce4bhgp2rcd13ifvqfd0","pricing_plan_id":"cebpf4jnsgd1na2vs0mg"},{"bike_id":"146ee604-812e-479a-a4fc-78cdfc8d55c2","system_id":"levelo_inurba_marseille","lat":43.29919,"lon":5.38159,"is_reserved":false,"is_disabled":false,"rental_uris":{"android":"levelo://app?vid=146ee604-812e-479a-a4fc-78cdfc8d55c2","ios":"levelo://app?vid=146ee604-812e-479a-a4fc-78cdfc8d55c2"},"vehicle_type_id":"4","last_reported":1727291147,"current_range_meters":33600,"station_id":"ce4bgj12rcd13ifvqbc0","pricing_plan_id":"cebpf4jnsgd1na2vs0mg"},{"bike_id":"87443378-b578-4721-9b08-c0f57c6a030b","system_id":"levelo_inurba_marseille","lat":43.23174,"lon":5.39987,"is_reserved":false,"is_disabled":false,"rental_uris":{"android":"levelo://app?vid=87443378-b578-4721-9b08-c0f57c6a030b","ios":"levelo://app?vid=87443378-b578-4721-9b08-c0f57c6a030b"},"vehicle_type_id":"4","last_reported":1727291147,"current_range_meters":12800,"station_id":"ce4bhn12rcd13ifvqgqg","pricing_plan_id":"cebpf4jnsgd1na2vs0mg"},{"bike_id":"8425a020-dd6c-4fda-a352-f8354f835836","system_id":"levelo_inurba_marseille","lat":43.3171,"lon":5.37758,"is_reserved":false,"is_disabled":false,"rental_uris":{"android":"levelo://app?vid=8425a020-dd6c-4fda-a352-f8354f835836","ios":"levelo://app?vid=8425a020-dd6c-4fda-a352-f8354f835836"},"vehicle_type_id":"4","last_reported":1727291147,"current_range_meters":38800,"station_id":"ce4bgth2rcd13ifvqch0","pricing_plan_id":"cebpf4jnsgd1na2vs0mg"},{"bike_id":"70ea79f5-5903-4704-b598-0996cbbacc62","system_id":"levelo_inurba_marseille","lat":43.23199,"lon":5.35546,"is_reserved":false,"is_disabled":false,"rental_uris":{"android":"levelo://app?vid=70ea79f5-5903-4704-b598-0996cbbacc62","ios":"levelo://app?vid=70ea79f5-5903-4704-b598-0996cbbacc62"},"vehicle_type_id":"4","last_reported":1727291147,"current_range_meters":6400,"station_id":"ce4bhu92rcd13ifvqi70","pricing_plan_id":"cebpf4jnsgd1na2vs0mg"},{"bike_id":"7ab47c64-dc4f-48e1-b443-63e9389e9a37","system_id":"levelo_inurba_marseille","lat":43.31106,"lon":5.37775,"is_reserved":false,"is_disabled":false,"rental_uris":{"android":"levelo://app?vid=7ab47c64-dc4f-48e1-b443-63e9389e9a37","ios":"levelo://app?vid=7ab47c64-dc4f-48e1-b443-63e9389e9a37"},"vehicle_type_id":"4","last_reported":1727291147,"current_range_meters":19600,"station_id":"ce4bgt92rcd13ifvqcg0","pricing_plan_id":"cebpf4jnsgd1na2vs0mg"},{"bike_id":"6c545e03-8563-4f57-a637-5b7fcabd746e","system_id":"levelo_inurba_marseille","lat":43.31713,"lon":5.37748,"is_reserved":false,"is_disabled":false,"rental_uris":{"android":"levelo://app?vid=6c545e03-8563-4f57-a637-5b7fcabd746e","ios":"levelo://app?vid=6c545e03-8563-4f57-a637-5b7fcabd746e"},"vehicle_type_id":"4","last_reported":1727291147,"current_range_meters":26800,"station_id":"ce4bgth2rcd13ifvqch0","pricing_plan_id":"cebpf4jnsgd1na2vs0mg"},{"bike_id":"628f73e3-dd42-441f-b3b9-5f8306072389","system_id":"levelo_inurba_marseille","lat":43.29941,"lon":5.38642,"is_reserved":false,"is_disabled":false,"rental_uris":{"android":"levelo://app?vid=628f73e3-dd42-441f-b3b9-5f8306072389","ios":"levelo://app?vid=628f73e3-dd42-441f-b3b9-5f8306072389"},"vehicle_type_id":"4","last_reported":1727291147,"current_range_meters":24000,"station_id":"","pricing_plan_id":"cebpf4jnsgd1na2vs0mg"},{"bike_id":"807fc0e7-bbff-4b87-819e-db89e6078f7a","system_id":"levelo_inurba_marseille","lat":43.31753,"lon":5.3902,"is_reserved":false,"is_disabled":false,"rental_uris":{"android":"levelo://app?vid=807fc0e7-bbff-4b87-819e-db89e6078f7a","ios":"levelo://app?vid=807fc0e7-bbff-4b87-819e-db89e6078f7a"},"vehicle_type_id":"4","last_reported":1727291147,"current_range_meters":38400,"station_id":"ce4bhqp2rcd13ifvqhng","pricing_plan_id":"cebpf4jnsgd1na2vs0mg"},{"bike_id":"097d73aa-70bd-4aeb-b2ae-e70c7b07db02","system_id":"levelo_inurba_marseille","lat":43.25574,"lon":5.38236,"is_reserved":false,"is_disabled":false,"rental_uris":{"android":"levelo://app?vid=097d73aa-70bd-4aeb-b2ae-e70c7b07db02","ios":"levelo://app?vid=097d73aa-70bd-4aeb-b2ae-e70c7b07db02"},"vehicle_type_id":"4","last_reported":1727291147,"current_range_meters":38400,"station_id":"ce4bhih2rcd13ifvqfs0","pricing_plan_id":"cebpf4jnsgd1na2vs0mg"},{"bike_id":"ecc4d287-01b7-4bf7-ae7b-27ea0fdff278","system_id":"levelo_inurba_marseille","lat":43.29418,"lon":5.38625,"is_reserved":false,"is_disabled":false,"rental_uris":{"android":"levelo://app?vid=ecc4d287-01b7-4bf7-ae7b-27ea0fdff278","ios":"levelo://app?vid=ecc4d287-01b7-4bf7-ae7b-27ea0fdff278"},"vehicle_type_id":"4","last_reported":1727291147,"current_range_meters":19200,"station_id":"ce4bh2h2rcd13ifvqdh0","pricing_plan_id":"cebpf4jnsgd1na2vs0mg"},{"bike_id":"e774f3e7-51de-4a8d-802e-5346391a4802","system_id":"levelo_inurba_marseille","lat":43.27997,"lon":5.40029,"is_reserved":false,"is_disabled":false,"rental_uris":{"android":"levelo://app?vid=e774f3e7-51de-4a8d-802e-5346391a4802","ios":"levelo://app?vid=e774f3e7-51de-4a8d-802e-5346391a4802"},"vehicle_type_id":"4","last_reported":1727291147,"current_range_meters":17600,"station_id":"ce4bho92rcd13ifvqh4g","pricing_plan_id":"cebpf4jnsgd1na2vs0mg"},{"bike_id":"a83ca881-e7d6-4b00-8297-c11116a3b87d","system_id":"levelo_inurba_marseille","lat":43.30891,"lon":5.39636,"is_reserved":false,"is_disabled":false,"rental_uris":{"android":"levelo://app?vid=a83ca881-e7d6-4b00-8297-c11116a3b87d","ios":"levelo://app?vid=a83ca881-e7d6-4b00-8297-c11116a3b87d"},"vehicle_type_id":"4","last_reported":1727291147,"current_range_meters":38800,"station_id":"ce4bh012rcd13ifvqcv0","pricing_plan_id":"cebpf4jnsgd1na2vs0mg"},{"bike_id":"ed03d52d-af01-49ac-90e2-8e5d64b4e228","system_id":"levelo_inurba_marseille","lat":43.278229,"lon":5.407208,"is_reserved":false,"is_disabled":false,"rental_uris":{"android":"levelo://app?vid=ed03d52d-af01-49ac-90e2-8e5d64b4e228","ios":"levelo://app?vid=ed03d52d-af01-49ac-90e2-8e5d64b4e228"},"vehicle_type_id":"4","last_reported":1727291147,"current_range_meters":27600,"station_id":"ce4bh3p2rcd13ifvqdp0","pricing_plan_id":"cebpf4jnsgd1na2vs0mg"},{"bike_id":"c587ec48-63df-4b06-b13a-402ec54a62ec","system_id":"levelo_inurba_marseille","lat":43.29595,"lon":5.38111,"is_reserved":false,"is_disabled":false,"rental_uris":{"android":"levelo://app?vid=c587ec48-63df-4b06-b13a-402ec54a62ec","ios":"levelo://app?vid=c587ec48-63df-4b06-b13a-402ec54a62ec"},"vehicle_type_id":"4","last_reported":1727291147,"current_range_meters":38800,"station_id":"ce4bgl12rcd13ifvqbo0","pricing_plan_id":"cebpf4jnsgd1na2vs0mg"},{"bike_id":"067e43a1-ff5f-43c5-9724-bc6613c8eb6c","system_id":"levelo_inurba_marseille","lat":43.2926,"lon":5.38446,"is_reserved":false,"is_disabled":false,"rental_uris":{"android":"levelo://app?vid=067e43a1-ff5f-43c5-9724-bc6613c8eb6c","ios":"levelo://app?vid=067e43a1-ff5f-43c5-9724-bc6613c8eb6c"},"vehicle_type_id":"4","last_reported":1727291147,"current_range_meters":7200,"station_id":"ce4bh692rcd13ifvqea0","pricing_plan_id":"cebpf4jnsgd1na2vs0mg"},{"bike_id":"368f60ef-8a2b-4c5a-9d78-926aaf05206e","system_id":"levelo_inurba_marseille","lat":43.29962,"lon":5.38506,"is_reserved":false,"is_disabled":false,"rental_uris":{"android":"levelo://app?vid=368f60ef-8a2b-4c5a-9d78-926aaf05206e","ios":"levelo://app?vid=368f60ef-8a2b-4c5a-9d78-926aaf05206e"},"vehicle_type_id":"4","last_reported":1727291147,"current_range_meters":28800,"station_id":"ce4bgj92rcd13ifvqbd0","pricing_plan_id":"cebpf4jnsgd1na2vs0mg"},{"bike_id":"d09e65e8-8821-414a-8606-4134bc02168f","system_id":"levelo_inurba_marseille","lat":43.32294,"lon":5.38268,"is_reserved":false,"is_disabled":false,"rental_uris":{"android":"levelo://app?vid=d09e65e8-8821-414a-8606-4134bc02168f","ios":"levelo://app?vid=d09e65e8-8821-414a-8606-4134bc02168f"},"vehicle_type_id":"4","last_reported":1727291147,"current_range_meters":33200,"station_id":"ce4bhr12rcd13ifvqhqg","pricing_plan_id":"cebpf4jnsgd1na2vs0mg"},