{"last_updated":1761484572,"ttl":60,"version":"2.2","data":{"bikes":[{"bike_id":"1a6b0412-f231-42e2-a0df-68cb45a5ab8b","system_id":"levelo_inurba_marseille","lat":43.28482,"lon":5.3841,"is_reserved":false,"is_disabled":false,"rental_uris":{"android":"levelo://app?vid=1a6b0412-f231-42e2-a0df-68cb45a5ab8b","ios":"levelo://app?vid=1a6b0412-f231-42e2-a0df-68cb45a5ab8b"},"vehicle_type_id":"4","last_reported":1761484573,"current_range_meters":2800,"station_id":"ce4bh512rcd13ifvqe3g","pricing_plan_id":"cebpf4jnsgd1na2vs0mg"},{"bike_id":"ad67ed72-dfb8-4a17-a10a-9631d8ad4689","system_id":"levelo_inurba_marseille","lat":43.28265,"lon":5.35062,"is_reserved":false,"is_disabled":false,"rental_uris":{"android":"levelo://app?vid=ad67ed72-dfb8-4a17-a10a-9631d8ad4689","ios":"levelo://app?vid=ad67ed72-dfb8-4a17-a10a-9631d8ad4689"},"vehicle_type_id":"4","last_reported":1761484573,"current_range_meters":2800,"station_id":"ce4bhbp2rcd13ifvqerg","pricing_plan_id":"cebpf4jnsgd1na2vs0mg"},{"bike_id":"7658dc2e-fccd-4612-a51a-187b2c3dbbc9","system_id":"levelo_inurba_marseille","lat":43.273188,"lon":5.390682,"is_reserved":false,"is_disabled":false,"rental_uris":{"android":"levelo://app?vid=7658dc2e-fccd-4612-a51a-187b2c3dbbc9","ios":"levelo://app?vid=7658dc2e-fccd-4612-a51a-187b2c3dbbc9"},"vehicle_type_id":"4","last_reported":1761484573,"current_range_meters":3200,"station_id":"ce4bhgp2rcd13ifvqfe0","pricing_plan_id":"cebpf4jnsgd1na2vs0mg"},{"bike_id":"ff58bd28-5b35-4324-bfa9-6df9e28c4acf","system_id":"levelo_inurba_marseille","lat":43.27377,"lon":5.36253,"is_reserved":false,"is_disabled":false,"rental_uris":{"android":"levelo://app?vid=ff58bd28-5b35-4324-bfa9-6df9e28c4acf","ios":"levelo://app?vid=ff58bd28-5b35-4324-bfa9-6df9e28c4acf"},"vehicle_type_id":"4","last_reported":1761484573,"current_range_meters":3200,"station_id":"ce4bhbh2rcd13ifvqeo0","pricing_plan_id":"cebpf4jnsgd1na2vs0mg"},{"bike_id":"e92d6263-866c-4d4c-9d56-b6c2791f2d29","system_id":"levelo_inurba_marseille","lat":43.28566,"lon":5.39492,"is_reserved":false,"is_disabled":false,"rental_uris":{"android":"levelo://app?vid=e92d6263-866c-4d4c-9d56-b6c2791f2d29","ios":"levelo://app?vid=e92d6263-866c-4d4c-9d56-b6c2791f2d29"},"vehicle_type_id":"4","last_reported":1761484573,"current_range_meters":3600,"station_id":"ce4bh292rcd13ifvqdg0","pricing_plan_id":"cebpf4jnsgd1na2vs0mg"},{"bike_id":"4cc0edfc-ff46-4c96-9438-209e9afb380b","system_id":"levelo_inurba_marseille","lat":43.28295,"lon":5.37233,"is_reserved":false,"is_disabled":false,"rental_uris":{"android":"levelo://app?vid=4cc0edfc-ff46-4c96-9438-209e9afb380b","ios":"levelo://app?vid=4cc0edfc-ff46-4c96-9438-209e9afb380b"},"vehicle_type_id":"4","last_reported":1761484573,"current_range_meters":3600,"station_id":"","pricing_plan_id":"cebpf4jnsgd1na2vs0mg"},{"bike_id":"e35e1247-2ec0-4206-a360-6aaa534a130f","system_id":"levelo_inurba_marseille","lat":43.28428,"lon":5.48461,"is_reserved":false,"is_disabled":false,"rental_uris":{"android":"levelo://app?vid=e35e1247-2ec0-4206-a360-6aaa534a130f","ios":"levelo://app?vid=e35e1247-2ec0-4206-a360-6aaa534a130f"},"vehicle_type_id":"4","last_reported":1761484573,"current_range_meters":3600,"station_id":"st_d3svhcjqgbts73a3dn0g","pricing_plan_id":"cebpf4jnsgd1na2vs0mg"},{"bike_id":"c97e2da3-f938-4bb6-a99e-7041ad969b33","system_id":"levelo_inurba_marseille","lat":43.28583,"lon":5.39918,"is_reserved":false,"is_disabled":false,"rental_uris":{"android":"levelo://app?vid=c97e2da3-f938-4bb6-a99e-7041ad969b33","ios":"levelo://app?vid=c97e2da3-f938-4bb6-a99e-7041ad969b33"},"vehicle_type_id":"4","last_reported":1761484573,"current_range_meters":4400,"station_id":"","pricing_plan_id":"cebpf4jnsgd1na2vs0mg"},{"bike_id":"5f9debc0-c360-4a2e-b517-592e9a0c2818","system_id":"levelo_inurba_marseille","lat":43.32928,"lon":5.42757,"is_reserved":false,"is_disabled":false,"rental_uris":{"android":"levelo://app?vid=5f9debc0-c360-4a2e-b517-592e9a0c2818","ios":"levelo://app?vid=5f9debc0-c360-4a2e-b517-592e9a0c2818"},"vehicle_type_id":"4","last_reported":1761484573,"current_range_meters":4400,"station_id":"","pricing_plan_id":"cebpf4jnsgd1na2vs0mg"},{"bike_id":"41721be1-f9d5-49ed-b7ef-0a5032b9afd1","system_id":"levelo_inurba_marseille","lat":43.23153,"lon":5.43703,"is_reserved":false,"is_disabled":false,"rental_uris":{"android":"levelo://app?vid=41721be1-f9d5-49ed-b7ef-0a5032b9afd1","ios":"levelo://app?vid=41721be1-f9d5-49ed-b7ef-0a5032b9afd1"},"vehicle_type_id":"4","last_reported":1761484573,"current_range_meters":4400,"station_id":"ce4bhmp2rcd13ifvqgog","pricing_plan_id":"cebpf4jnsgd1na2vs0mg"},{"bike_id":"61c81ee8-ac52-438e-a2da-c954e80a6b9a","system_id":"levelo_inurba_marseille","lat":43.315613,"lon":5.380086,"is_reserved":false,"is_disabled":false,"rental_uris":{"android":"levelo://app?vid=61c81ee8-ac52-438e-a2da-c954e80a6b9a","ios":"levelo://app?vid=61c81ee8-ac52-438e-a2da-c954e80a6b9a"},"vehicle_type_id":"4","last_reported":1761484573,"current_range_meters":4800,"station_id":"ce4bhsp2rcd13ifvqi50","pricing_plan_id":"cebpf4jnsgd1na2vs0mg"},{"bike_id":"b51718ae-0fb1-4c56-b104-50a2b262aeb0","system_id":"levelo_inurba_marseille","lat":43.30532,"lon":5.36543,"is_reserved":false,"is_disabled":false,"rental_uris":{"android":"levelo://app?vid=b51718ae-0fb1-4c56-b104-50a2b262aeb0","ios":"levelo://app?vid=b51718ae-0fb1-4c56-b104-50a2b262aeb0"},"vehicle_type_id":"4","last_reported":1761484573,"current_range_meters":4800,"station_id":"ce4bgs12rcd13ifvqcag","pricing_plan_id":"cebpf4jnsgd1na2vs0mg"},{"bike_id":"a379a2d3-b186-4071-8f79-06f786725ab3","system_id":"levelo_inurba_marseille","lat":43.26685,"lon":5.38271,"is_reserved":false,"is_disabled":false,"rental_uris":{"android":"levelo://app?vid=a379a2d3-b186-4071-8f79-06f786725ab3","ios":"levelo://app?vid=a379a2d3-b186-4071-8f79-06f786725ab3"},"vehicle_type_id":"4","last_reported":1761484573,"current_range_meters":4800,"station_id":"ce4bhg92rcd13ifvqf90","pricing_plan_id":"cebpf4jnsgd1na2vs0mg"},{"bike_id":"6398fd05-47e5-41f8-95bf-116d17d1d757","system_id":"levelo_inurba_marseille","lat":43.292603,"lon":5.384447,"is_reserved":false,"is_disabled":false,"rental_uris":{"android":"levelo://app?vid=6398fd05-47e5-41f8-95bf-116d17d1d757","ios":"levelo://app?vid=6398fd05-47e5-41f8-95bf-116d17d1d757"},"vehicle_type_id":"4","last_reported":1761484573,"current_range_meters":5600,"station_id":"","pricing_plan_id":"cebpf4jnsgd1na2vs0mg"},{"bike_id":"6247cd31-6817-4c1a-a2ef-fc2a31a32a86","system_id":"levelo_inurba_marseille","lat":43.28726,"lon":5.36077,"is_reserved":false,"is_disabled":false,"rental_uris":{"android":"levelo://app?vid=6247cd31-6817-4c1a-a2ef-fc2a31a32a86","ios":"levelo://app?vid=6247cd31-6817-4c1a-a2ef-fc2a31a32a86"},"vehicle_type_id":"4","last_reported":1761484573,"current_range_meters":6000,"station_id":"cki0cbj6b192h4jlfktg","pricing_plan_id":"cebpf4jnsgd1na2vs0mg"},{"bike_id":"0645a5fa-ef7d-4956-86d8-6632e91f60af","system_id":"levelo_inurba_marseille","lat":43.28608,"lon":5.37055,"is_reserved":false,"is_disabled":false,"rental_uris":{"android":"levelo://app?vid=0645a5fa-ef7d-4956-86d8-6632e91f60af","ios":"levelo://app?vid=0645a5fa-ef7d-4956-86d8-6632e91f60af"},"vehicle_type_id":"4","last_reported":1761484573,"current_range_meters":6000,"station_id":"ce4bht12rcd13ifvqi60","pricing_plan_id":"cebpf4jnsgd1na2vs0mg"},{"bike_id":"4f5c5045-2f2c-4ab7-ad8b-eeba1d52fe66","system_id":"levelo_inurba_marseille","lat":43.31061,"lon":5.37454,"is_reserved":false,"is_disabled":false,"rental_uris":{"android":"levelo://app?vid=4f5c5045-2f2c-4ab7-ad8b-eeba1d52fe66","ios":"levelo://app?vid=4f5c5045-2f2c-4ab7-ad8b-eeba1d52fe66"},"vehicle_type_id":"4","last_reported":1761484573,"current_range_meters":6000,"station_id":"","pricing_plan_id":"cebpf4jnsgd1na2vs0mg"},{"bike_id":"12a635f0-60ba-4f83-a829-45aa27c4e8e2","system_id":"levelo_inurba_marseille","lat":43.29004,"lon":5.35611,"is_reserved":false,"is_disabled":false,"rental_uris":{"android":"levelo://app?vid=12a635f0-60ba-4f83-a829-45aa27c4e8e2","ios":"levelo://app?vid=12a635f0-60ba-4f83-a829-45aa27c4e8e2"},"vehicle_type_id":"4","last_reported":1761484573,"current_range_meters":6000,"station_id":"ce4bhb92rcd13ifvqen0","pricing_plan_id":"cebpf4jnsgd1na2vs0mg"},{"bike_id":"24a9c34f-dc45-4a94-b422-5a36de1641ca","system_id":"levelo_inurba_marseille","lat":43.27669,"lon":5.38887,"is_reserved":false,"is_disabled":false,"rental_uris":{"android":"levelo://app?vid=24a9c34f-dc45-4a94-b422-5a36de1641ca","ios":"levelo://app?vid=24a9c34f-dc45-4a94-b422-5a36de1641ca"},"vehicle_type_id":"4","last_reported":1761484573,"current_range_meters":6400,"station_id":"ce4bhi12rcd13ifvqfo0","pricing_plan_id":"cebpf4jnsgd1na2vs0mg"},{"bike_id":"fa063608-29c2-42ab-95b5-2fc82231eea9","system_id":"levelo_inurba_marseille","lat":43.21208,"lon":5.35056,"is_reserved":false,"is_disabled":false,"rental_uris":{"android":"levelo://app?vid=fa063608-29c2-42ab-95b5-2fc82231eea9","ios":"levelo://app?vid=fa063608-29c2-42ab-95b5-2fc82231eea9"},"vehicle_type_id":"4","last_reported":1761484573,"current_range_meters":6400,"station_id":"st_cvj6sg6p6f1abm77japg","pricing_plan_id":"cebpf4jnsgd1na2vs0mg"},{"bike_id":"b798b7f0-29d3-424d-8fdf-632ddf419df6","system_id":"levelo_inurba_marseille","lat":43.22565,"lon":5.41628,"is_reserved":false,"is_disabled":false,"rental_uris":{"android":"levelo://app?vid=b798b7f0-29d3-424d-8fdf-632ddf419df6","ios":"levelo://app?vid=b798b7f0-29d3-424d-8fdf-632ddf419df6"},"vehicle_type_id":"4","last_reported":1761484573,"current_range_meters":6400,"station_id":"st_d2o4gvlbi1j2169b742g","pricing_plan_id":"cebpf4jnsgd1na2vs0mg"},{"bike_id":"985fc688-8fb1-4b36-9e7d-b96ca55eba2a","system_id":"levelo_inurba_marseille","lat":43.26025,"lon":5.37553,"is_reserved":false,"is_disabled":false,"rental_uris":{"android":"levelo://app?vid=985fc688-8fb1-4b36-9e7d-b96ca55eba2a","ios":"levelo://app?vid=985fc688-8fb1-4b36-9e7d-b96ca55eba2a"},"vehicle_type_id":"4","last_reported":1761484573,"current_range_meters":6400,"station_id":"ce4bhgh2rcd13ifvqfa0","pricing_plan_id":"cebpf4jnsgd1na2vs0mg"},{"bike_id":"3ceb5144-9b9a-46d9-816c-321d47f3dfb5","system_id":"levelo_inurba_marseille","lat":43.3037,"lon":5.425,"is_reserved":false,"is_disabled":false,"rental_uris":{"android":"levelo://app?vid=3ceb5144-9b9a-46d9-816c-321d47f3dfb5","ios":"levelo://app?vid=3ceb5144-9b9a-46d9-816c-321d47f3dfb5"},"vehicle_type_id":"4","last_reported":1761484573,"current_range_meters":6800,"station_id":"ce4bhoh2rcd13ifvqh6g","pricing_plan_id":"cebpf4jnsgd1na2vs0mg"},{"bike_id":"2b08430f-3826-4249-8325-53b3985c5d73","system_id":"levelo_inurba_marseille","lat":43.278326,"lon":5.414816,"is_reserved":false,"is_disabled":false,"rental_uris":{"android":"levelo://app?vid=2b08430f-3826-4249-8325-53b3985c5d73","ios":"levelo://app?vid=2b08430f-3826-4249-8325-53b3985c5d73"},"vehicle_type_id":"4","last_reported":1761484573,"current_range_meters":6800,"station_id":"","pricing_plan_id":"cebpf4jnsgd1na2vs0mg"},{"bike_id":"50c984a5-58ba-4c44-b577-41bc4679b329","system_id":"levelo_inurba_marseille","lat":43.22575,"lon":5.41629,"is_reserved":false,"is_disabled":false,"rental_uris":{"android":"levelo://app?vid=50c984a5-58ba-4c44-b577-41bc4679b329","ios":"levelo://app?vid=50c984a5-58ba-4c44-b577-41bc4679b329"},"vehicle_type_id":"4","last_reported":1761484573,"current_range_meters":6800,"station_id":"st_d2o4gvlbi1j2169b742g","pricing_plan_id":"cebpf4jnsgd1na2vs0mg"},{"bike_id":"9887b574-954e-49a6-99e2-3a975508de1b","system_id":"levelo_inurba_marseille","lat":43.29371,"lon":5.37865,"is_reserved":false,"is_disabled":true,"rental_uris":{"android":"levelo://app?vid=9887b574-954e-49a6-99e2-3a975508de1b","ios":"levelo://app?vid=9887b574-954e-49a6-99e2-3a975508de1b"},"vehicle_type_id":"4","last_reported":1761484573,"current_range_meters":6800,"station_id":"ce4bgjh2rcd13ifvqbf0","pricing_plan_id":"cebpf4jnsgd1na2vs0mg"},{"bike_id":"e94f57f2-601c-4cad-a187-6e953770aa25","system_id":"levelo_inurba_marseille","lat":43.312228,"lon":5.3783,"is_reserved":false,"is_disabled":false,"rental_uris":{"android":"levelo://app?vid=e94f57f2-601c-4cad-a187-6e953770aa25","ios":"levelo://app?vid=e94f57f2-601c-4cad-a187-6e953770aa25"},"vehicle_type_id":"4","last_reported":1761484573,"current_range_meters":6800,"station_id":"","pricing_plan_id":"cebpf4jnsgd1na2vs0mg"},{"bike_id":"1bbbddfc-bfd1-4ff8-bdc1-c41eb5d39f8a","system_id":"levelo_inurba_marseille","lat":43.33606,"lon":5.4103,"is_reserved":false,"is_disabled":false,"rental_uris":{"android":"levelo://app?vid=1bbbddfc-bfd1-4ff8-bdc1-c41eb5d39f8a","ios":"levelo://app?vid=1bbbddfc-bfd1-4ff8-bdc1-c41eb5d39f8a"},"vehicle_type_id":"4","last_reported":1761484573,"current_range_meters":6800,"station_id":"ce4bhqh2rcd13ifvqhmg","pricing_plan_id":"cebpf4jnsgd1na2vs0mg"},{"bike_id":"cddf922e-3dbd-438a-88c4-2760593edffe","system_id":"levelo_inurba_marseille","lat":43.29561,"lon":5.37497,"is_reserved":false,"is_disabled":true,"rental_uris":{"android":"levelo://app?vid=cddf922e-3dbd-438a-88c4-2760593edffe","ios":"levelo://app?vid=cddf922e-3dbd-438a-88c4-2760593edffe"},"vehicle_type_id":"4","last_reported":1761484573,"current_range_meters":7200,"station_id":"ce4bgh92rcd13ifvqb50","pricing_plan_id":"cebpf4jnsgd1na2vs0mg"},{"bike_id":"a35a4922-b803-4cd9-8623-7e895c294787","system_id":"levelo_inurba_marseille","lat":43.29809,"lon":5.38221,"is_reserved":false,"is_disabled":true,"rental_uris":{"android":"levelo://app?vid=a35a4922-b803-4cd9-8623-7e895c294787","ios":"levelo://app?vid=a35a4922-b803-4cd9-8623-7e895c294787"},"vehicle_type_id":"4","last_reported":1761484573,"current_range_meters":7200,"station_id":"","pricing_plan_id":"cebpf4jnsgd1na2vs0mg"},{"bike_id":"0f7bd441-1c36-4307-83b8-95732da48e26","system_id":"levelo_inurba_marseille","lat":43.29007,"lon":5.356059,"is_reserved":false,"is_disabled":false,"rental_uris":{"android":"levelo://app?vid=0f7bd441-1c36-4307-83b8-95732da48e26","ios":"levelo://app?vid=0f7bd441-1c36-4307-83b8-95732da48e26"},"vehicle_type_id":"4","last_reported":1761484573,"current_range_meters":8000,"station_id":"ce4bhb92rcd13ifvqen0","pricing_plan_id":"cebpf4jnsgd1na2vs0mg"},{"bike_id":"447fe258-1143-4215-91fa-8a8095fbef03","system_id":"levelo_inurba_marseille","lat":43.27325,"lon":5.39078,"is_reserved":false,"is_disabled":false,"rental_uris":{"android":"levelo://app?vid=447fe258-1143-4215-91fa-8a8095fbef03","ios":"levelo://app?vid=447fe258-1143-4215-91fa-8a8095fbef03"},"vehicle_type_id":"4","last_reported":1761484573,"current_range_meters":8000,"station_id":"ce4bhgp2rcd13ifvqfe0","pricing_plan_id":"cebpf4jnsgd1na2vs0mg"},{"bike_id":"f3ca0409-8a39-49cd-a2e3-e4d12bc3554f","system_id":"levelo_inurba_marseille","lat":43.2917,"lon":5.37142,"is_reserved":false,"is_disabled":false,"rental_uris":{"android":"levelo://app?vid=f3ca0409-8a39-49cd-a2e3-e4d12bc3554f","ios":"levelo://app?vid=f3ca0409-8a39-49cd-a2e3-e4d12bc3554f"},"vehicle_type_id":"4","last_reported":1761484573,"current_range_meters":8000,"station_id":"ce4bha92rcd13ifvqeh0","pricing_plan_id":"cebpf4jnsgd1na2vs0mg"},{"bike_id":"a4907b23-38bb-43b3-8231-87a33e96b6b4","system_id":"levelo_inurba_marseille","lat":43.290085,"lon":5.356122,"is_reserved":false,"is_disabled":false,"rental_uris":{"android":"levelo://app?vid=a4907b23-38bb-43b3-8231-87a33e96b6b4","ios":"levelo://app?vid=a4907b23-38bb-43b3-8231-87a33e96b6b4"},"vehicle_type_id":"4","last_reported":1761484573,"current_range_meters":8000,"station_id":"ce4bhb92rcd13ifvqen0","pricing_plan_id":"cebpf4jnsgd1na2vs0mg"},{"bike_id":"f9621f83-90d1-4199-b7c9-dd27d6a9146f","system_id":"levelo_inurba_marseille","lat":43.282654,"lon":5.350636,"is_reserved":false,"is_disabled":false,"rental_uris":{"android":"levelo://app?vid=f9621f83-90d1-4199-b7c9-dd27d6a9146f","ios":"levelo://app?vid=f9621f83-90d1-4199-b7c9-dd27d6a9146f"},"vehicle_type_id":"4","last_reported":1761484573,"current_range_meters":8000,"station_id":"ce4bhbp2rcd13ifvqerg","pricing_plan_id":"cebpf4jnsgd1na2vs0mg"},{"bike_id":"51b614d1-6dfe-4e67-9a5e-bfd8acf52d94","system_id":"levelo_inurba_marseille","lat":43.30135,"lon":5.38785,"is_reserved":false,"is_disabled":true,"rental_uris":{"android":"levelo://app?vid=51b614d1-6dfe-4e67-9a5e-bfd8acf52d94","ios":"levelo://app?vid=51b614d1-6dfe-4e67-9a5e-bfd8acf52d94"},"vehicle_type_id":"4","last_reported":1761484573,"current_range_meters":8000,"station_id":"ce4bghh2rcd13ifvqb60","pricing_plan_id":"cebpf4jnsgd1na2vs0mg"},{"bike_id":"8be6a47c-9542-4fed-8109-f6d91a0f2b3f","system_id":"levelo_inurba_marseille","lat":43.29174,"lon":5.37161,"is_reserved":false,"is_disabled":false,"rental_uris":{"android":"levelo://app?vid=8be6a47c-9542-4fed-8109-f6d91a0f2b3f","ios":"levelo://app?vid=8be6a47c-9542-4fed-8109-f6d91a0f2b3f"},"vehicle_type_id":"4","last_reported":1761484573,"current_range_meters":8000,"station_id":"ce4bha92rcd13ifvqeh0","pricing_plan_id":"cebpf4jnsgd1na2vs0mg"},{"bike_id":"02211053-2a71-47a9-9934-eebc67dbcbe2","system_id":"levelo_inurba_marseille","lat":43.273704,"lon":5.362449,"is_reserved":false,"is_disabled":false,"rental_uris":{"android":"levelo://app?vid=02211053-2a71-47a9-9934-eebc67dbcbe2","ios":"levelo://app?vid=02211053-2a71-47a9-9934-eebc67dbcbe2"},"vehicle_type_id":"4","last_reported":1761484573,"current_range_meters":8000,"station_id":"ce4bhbh2rcd13ifvqeo0","pricing_plan_id":"cebpf4jnsgd1na2vs0mg"},{"bike_id":"9d964ec4-c537-4f1d-b21c-451d3f46b1bf","system_id":"levelo_inurba_marseille","lat":43.299,"lon":5.37881,"is_reserved":false,"is_disabled":false,"rental_uris":{"android":"levelo://app?vid=9d964ec4-c537-4f1d-b21c-451d3f46b1bf","ios":"levelo://app?vid=9d964ec4-c537-4f1d-b21c-451d3f46b1bf"},"vehicle_type_id":"4","last_reported":1761484573,"current_range_meters":8000,"station_id":"","pricing_plan_id":"cebpf4jnsgd1na2vs0mg"},{"bike_id":"d2620680-0272-447c-b56b-4795cb87cd3a","system_id":"levelo_inurba_marseille","lat":43.29882,"lon":5.38897,"is_reserved":false,"is_disabled":false,"rental_uris":{"android":"levelo://app?vid=d2620680-0272-447c-b56b-4795cb87cd3a","ios":"levelo://app?vid=d2620680-0272-447c-b56b-4795cb87cd3a"},"vehicle_type_id":"4","last_reported":1761484573,"current_range_meters":8000,"station_id":"ce4bh392rcd13ifvqdl0","pricing_plan_id":"cebpf4jnsgd1na2vs0mg"},{"bike_id":"b271dec7-e9c0-4031-a78b-d3a50b11d54a","system_id":"levelo_inurba_marseille","lat":43.28686,"lon":5.4126,"is_reserved":false,"is_disabled":false,"rental_uris":{"android":"levelo://app?vid=b271dec7-e9c0-4031-a78b-d3a50b11d54a","ios":"levelo://app?vid=b271dec7-e9c0-4031-a78b-d3a50b11d54a"},"vehicle_type_id":"4","last_reported":1761484573,"current_range_meters":8000,"station_id":"","pricing_plan_id":"cebpf4jnsgd1na2vs0mg"},{"bike_id":"175743a3-e465-473d-bf53-03580f3e263f","system_id":"levelo_inurba_marseille","lat":43.298337,"lon":5.386665,"is_reserved":false,"is_disabled":false,"rental_uris":{"android":"levelo://app?vid=175743a3-e465-473d-bf53-03580f3e263f","ios":"levelo://app?vid=175743a3-e465-473d-bf53-03580f3e263f"},"vehicle_type_id":"4","last_reported":1761484573,"current_range_meters":8400,"station_id":"ce4bgj92rcd13ifvqbd0","pricing_plan_id":"cebpf4jnsgd1na2vs0mg"},{"bike_id":"1a67005c-f3d7-4bdc-a8b2-e4adc7bdbc86","system_id":"levelo_inurba_marseille","lat":43.21747,"lon":5.34589,"is_reserved":false,"is_disabled":false,"rental_uris":{"android":"levelo://app?vid=1a67005c-f3d7-4bdc-a8b2-e4adc7bdbc86","ios":"levelo://app?vid=1a67005c-f3d7-4bdc-a8b2-e4adc7bdbc86"},"vehicle_type_id":"4","last_reported":1761484573,"current_range_meters":8400,"station_id":"st_cvj6r9ubvosntc0bgbag","pricing_plan_id":"cebpf4jnsgd1na2vs0mg"},{"bike_id":"dab36927-4328-48fa-bffb-145a737de07e","system_id":"levelo_inurba_marseille","lat":43.307986,"lon":5.435139,"is_reserved":false,"is_disabled":true,"rental_uris":{"android":"levelo://app?vid=dab36927-4328-48fa-bffb-145a737de07e","ios":"levelo://app?vid=dab36927-4328-48fa-bffb-145a737de07e"},"vehicle_type_id":"4","last_reported":1761484573,"current_range_meters":8800,"station_id":"ce4bhph2rcd13ifvqheg","pricing_plan_id":"cebpf4jnsgd1na2vs0mg"},{"bike_id":"43117888-69d1-4bc6-a73a-697554e4a08e","system_id":"levelo_inurba_marseille","lat":43.252543,"lon":5.378069,"is_reserved":false,"is_disabled":false,"rental_uris":{"android":"levelo://app?vid=43117888-69d1-4bc6-a73a-697554e4a08e","ios":"levelo://app?vid=43117888-69d1-4bc6-a73a-697554e4a08e"},"vehicle_type_id":"4","last_reported":1761484573,"current_range_meters":8800,"station_id":"","pricing_plan_id":"cebpf4jnsgd1na2vs0mg"},{"bike_id":"69880247-38f2-48e7-ab49-326f3d5eca30","system_id":"levelo_inurba_marseille","lat":43.21187,"lon":5.35078,"is_reserved":false,"is_disabled":true,"rental_uris":{"android":"levelo://app?vid=69880247-38f2-48e7-ab49-326f3d5eca30","ios":"levelo://app?vid=69880247-38f2-48e7-ab49-326f3d5eca30"},"vehicle_type_id":"4","last_reported":1761484573,"current_range_meters":8800,"station_id":"","pricing_plan_id":"cebpf4jnsgd1na2vs0mg"},{"bike_id":"5aba81af-85bc-4775-96f8-75523e34eb78","system_id":"levelo_inurba_marseille","lat":43.23173,"lon":5.39991,"is_reserved":false,"is_disabled":false,"rental_uris":{"android":"levelo://app?vid=5aba81af-85bc-4775-96f8-75523e34eb78","ios":"levelo://app?vid=5aba81af-85bc-4775-96f8-75523e34eb78"},"vehicle_type_id":"4","last_reported":1761484573,"current_range_meters":8800,"station_id":"ce4bhn12rcd13ifvqgqg","pricing_plan_id":"cebpf4jnsgd1na2vs0mg"},{"bike_id":"893005b0-00d4-4117-9804-1e0ebad6ec3d","system_id":"levelo_inurba_marseille","lat":43.30139,"lon":5.3877,"is_reserved":false,"is_disabled":false,"rental_uris":{"android":"levelo://app?vid=893005b0-00d4-4117-9804-1e0ebad6ec3d","ios":"levelo://app?vid=893005b0-00d4-4117-9804-1e0ebad6ec3d"},"vehicle_type_id":"4","last_reported":1761484573,"current_range_meters":8800,"station_id":"ce4bghh2rcd13ifvqb60","pricing_plan_id":"cebpf4jnsgd1na2vs0mg"},{"bike_id":"11ed3229-da96-464f-bee1-15ff06dff35a","system_id":"levelo_inurba_marseille","lat":43.21189,"lon":5.3507,"is_reserved":false,"is_disabled":false,"rental_uris":{"android":"levelo://app?vid=11ed3229-da96-464f-bee1-15ff06dff35a","ios":"levelo://app?vid=11ed3229-da96-464f-bee1-15ff06dff35a"},"vehicle_type_id":"4","last_reported":1761484573,"current_range_meters":9200,"station_id":"st_cvj6sg6p6f1abm77japg","pricing_plan_id":"cebpf4jnsgd1na2vs0mg"},{"bike_id":"6835731b-f168-4b36-8dfc-52896bcb9281","system_id":"levelo_inurba_marseille","lat":43.23061,"lon":5.35488,"is_reserved":false,"is_disabled":false,"rental_uris":{"android":"levelo://app?vid=6835731b-f168-4b36-8dfc-52896bcb9281","ios":"levelo://app?vid=6835731b-f168-4b36-8dfc-52896bcb9281"},"vehicle_type_id":"4","last_reported":1761484573,"current_range_meters":9200,"station_id":"cpo3342slgdg3j2ifvpg","pricing_plan_id":"cebpf4jnsgd1na2vs0mg"},{"bike_id":"8ccfbb85-30a5-4745-96f0-a706b72218a1","system_id":"levelo_inurba_marseille","lat":43.31424,"lon":5.38882,"is_reserved":false,"is_disabled":false,"rental_uris":{"android":"levelo://app?vid=8ccfbb85-30a5-4745-96f0-a706b72218a1","ios":"levelo://app?vid=8ccfbb85-30a5-4745-96f0-a706b72218a1"},"vehicle_type_id":"4","last_reported":1761484573,"current_range_meters":9600,"station_id":"","pricing_plan_id":"cebpf4jnsgd1na2vs0mg"},{"bike_id":"90309e2f-4739-4002-bf98-4828c1a268b3","system_id":"levelo_inurba_marseille","lat":43.3095,"lon":5.39053,"is_reserved":false,"is_disabled":false,"rental_uris":{"android":"levelo://app?vid=90309e2f-4739-4002-bf98-4828c1a268b3","ios":"levelo://app?vid=90309e2f-4739-4002-bf98-4828c1a268b3"},"vehicle_type_id":"4","last_reported":1761484573,"current_range_meters":9600,"station_id":"ce4bgup2rcd13ifvqco0","pricing_plan_id":"cebpf4jnsgd1na2vs0mg"},{"bike_id":"bf23f75a-4d9e-40a9-b5f0-e63339feffd3","system_id":"levelo_inurba_marseille","lat":43.27375,"lon":5.36259,"is_reserved":false,"is_disabled":false,"rental_uris":{"android":"levelo://app?vid=bf23f75a-4d9e-40a9-b5f0-e63339feffd3","ios":"levelo://app?vid=bf23f75a-4d9e-40a9-b5f0-e63339feffd3"},"vehicle_type_id":"4","last_reported":1761484573,"current_range_meters":9600,"station_id":"ce4bhbh2rcd13ifvqeo0","pricing_plan_id":"cebpf4jnsgd1na2vs0mg"},{"bike_id":"2fba19b5-8cf3-4496-9087-cff43e4ec788","system_id":"levelo_inurba_marseille","lat":43.29008,"lon":5.3562,"is_reserved":false,"is_disabled":false,"rental_uris":{"android":"levelo://app?vid=2fba19b5-8cf3-4496-9087-cff43e4ec788","ios":"levelo://app?vid=2fba19b5-8cf3-4496-9087-cff43e4ec788"},"vehicle_type_id":"4","last_reported":1761484573,"current_range_meters":10000,"station_id":"ce4bhb92rcd13ifvqen0","pricing_plan_id":"cebpf4jnsgd1na2vs0mg"},{"bike_id":"18bd4bee-bb91-4851-924b-be4e85684ff8","system_id":"levelo_inurba_marseille","lat":43.27938,"lon":5.41044,"is_reserved":false,"is_disabled":false,"rental_uris":{"android":"levelo://app?vid=18bd4bee-bb91-4851-924b-be4e85684ff8","ios":"levelo://app?vid=18bd4bee-bb91-4851-924b-be4e85684ff8"},"vehicle_type_id":"4","last_reported":1761484573,"current_range_meters":10000,"station_id":"ce4bhnp2rcd13ifvqh0g","pricing_plan_id":"cebpf4jnsgd1na2vs0mg"},{"bike_id":"ef02a016-e49e-4519-a705-e45df33a572f","system_id":"levelo_inurba_marseille","lat":43.2256,"lon":5.41627,"is_reserved":false,"is_disabled":false,"rental_uris":{"android":"levelo://app?vid=ef02a016-e49e-4519-a705-e45df33a572f","ios":"levelo://app?vid=ef02a016-e49e-4519-a705-e45df33a572f"},"vehicle_type_id":"4","last_reported":1761484573,"current_range_meters":10000,"station_id":"st_d2o4gvlbi1j2169b742g","pricing_plan_id":"cebpf4jnsgd1na2vs0mg"},{"bike_id":"fa38cc19-f535-4929-92cc-c16aed112447","system_id":"levelo_inurba_marseille","lat":43.28629,"lon":5.35075,"is_reserved":false,"is_disabled":false,"rental_uris":{"android":"levelo://app?vid=fa38cc19-f535-4929-92cc-c16aed112447","ios":"levelo://app?vid=fa38cc19-f535-4929-92cc-c16aed112447"},"vehicle_type_id":"4","last_reported":1761484573,"current_range_meters":10000,"station_id":"ce4bhch2rcd13ifvqeug","pricing_plan_id":"cebpf4jnsgd1na2vs0mg"},{"bike_id":"42d477a7-5e90-422a-972f-a1c1abf5dc41","system_id":"levelo_inurba_marseille","lat":43.278456,"lon":5.392098,"is_reserved":false,"is_disabled":false,"rental_uris":{"android":"levelo://app?vid=42d477a7-5e90-422a-972f-a1c1abf5dc41","ios":"levelo://app?vid=42d477a7-5e90-422a-972f-a1c1abf5dc41"},"vehicle_type_id":"4","last_reported":1761484573,"current_range_meters":10000,"station_id":"ce4bhjp2rcd13ifvqga0","pricing_plan_id":"cebpf4jnsgd1na2vs0mg"},{"bike_id":"d3145067-3ca0-4e72-b01a-ef78c0959aad","system_id":"levelo_inurba_marseille","lat":43.30235,"lon":5.40064,"is_reserved":false,"is_disabled":true,"rental_uris":{"android":"levelo://app?vid=d3145067-3ca0-4e72-b01a-ef78c0959aad","ios":"levelo://app?vid=d3145067-3ca0-4e72-b01a-ef78c0959aad"},"vehicle_type_id":"4","last_reported":1761484573,"current_range_meters":10000,"station_id":"ce4bgvh2rcd13ifvqcs0","pricing_plan_id":"cebpf4jnsgd1na2vs0mg"},{"bike_id":"ef471276-6af0-418d-a364-8296f6ae90db","system_id":"levelo_inurba_marseille","lat":43.32289,"lon":5.38267,"is_reserved":false,"is_disabled":false,"rental_uris":{"android":"levelo://app?vid=ef471276-6af0-418d-a364-8296f6ae90db","ios":"levelo://app?vid=ef471276-6af0-418d-a364-8296f6ae90db"},"vehicle_type_id":"4","last_reported":1761484573,"current_range_meters":10000,"station_id":"ce4bhr12rcd13ifvqhqg","pricing_plan_id":"cebpf4jnsgd1na2vs0mg"},{"bike_id":"81858322-e059-42cb-958d-3242c8aec9ff","system_id":"levelo_inurba_marseille","lat":43.28265,"lon":5.35058,"is_reserved":false,"is_disabled":false,"rental_uris":{"android":"levelo://app?vid=81858322-e059-42cb-958d-3242c8aec9ff","ios":"levelo://app?vid=81858322-e059-42cb-958d-3242c8aec9ff"},"vehicle_type_id":"4","last_reported":1761484573,"current_range_meters":10800,"station_id":"ce4bhbp2rcd13ifvqerg","pricing_plan_id":"cebpf4jnsgd1na2vs0mg"},{"bike_id":"5dd04910-101f-4654-853d-341f84b98945","system_id":"levelo_inurba_marseille","lat":43.28973,"lon":5.37212,"is_reserved":false,"is_disabled":false,"rental_uris":{"android":"levelo://app?vid=5dd04910-101f-4654-853d-341f84b98945","ios":"levelo://app?vid=5dd04910-101f-4654-853d-341f84b98945"},"vehicle_type_id":"4","last_reported":1761484573,"current_range_meters":10800,"station_id":"","pricing_plan_id":"cebpf4jnsgd1na2vs0mg"},{"bike_id":"6c5ab2d6-23ee-407f-9460-61364432f45c","system_id":"levelo_inurba_marseille","lat":43.30187,"lon":5.36596,"is_reserved":false,"is_disabled":false,"rental_uris":{"android":"levelo://app?vid=6c5ab2d6-23ee-407f-9460-61364432f45c","ios":"levelo://app?vid=6c5ab2d6-23ee-407f-9460-61364432f45c"},"vehicle_type_id":"4","last_reported":1761484573,"current_range_meters":10800,"station_id":"ce4bgrh2rcd13ifvqc8g","pricing_plan_id":"cebpf4jnsgd1na2vs0mg"},{"bike_id":"277f0bc1-4cdb-4e48-966c-c6257b9aa300","system_id":"levelo_inurba_marseille","lat":43.22562,"lon":5.4163,"is_reserved":false,"is_disabled":false,"rental_uris":{"android":"levelo://app?vid=277f0bc1-4cdb-4e48-966c-c6257b9aa300","ios":"levelo://app?vid=277f0bc1-4cdb-4e48-966c-c6257b9aa300"},"vehicle_type_id":"4","last_reported":1761484573,"current_range_meters":11200,"station_id":"st_d2o4gvlbi1j2169b742g","pricing_plan_id":"cebpf4jnsgd1na2vs0mg"},{"bike_id":"4e0d61f6-2e9e-47e0-a87b-8aaed781c8f5","system_id":"levelo_inurba_marseille","lat":43.330233,"lon":5.39035,"is_reserved":false,"is_disabled":false,"rental_uris":{"android":"levelo://app?vid=4e0d61f6-2e9e-47e0-a87b-8aaed781c8f5","ios":"levelo://app?vid=4e0d61f6-2e9e-47e0-a87b-8aaed781c8f5"},"vehicle_type_id":"4","last_reported":1761484573,"current_range_meters":11600,"station_id":"ce4bhr92rcd13ifvqhrg","pricing_plan_id":"cebpf4jnsgd1na2vs0mg"},{"bike_id":"4049abb6-d14e-43c8-ae57-81f6b077a3d2","system_id":"levelo_inurba_marseille","lat":43.21193,"lon":5.35077,"is_reserved":false,"is_disabled":false,"rental_uris":{"android":"levelo://app?vid=4049abb6-d14e-43c8-ae57-81f6b077a3d2","ios":"levelo://app?vid=4049abb6-d14e-43c8-ae57-81f6b077a3d2"},"vehicle_type_id":"4","last_reported":1761484573,"current_range_meters":11600,"station_id":"st_cvj6sg6p6f1abm77japg","pricing_plan_id":"cebpf4jnsgd1na2vs0mg"},{"bike_id":"4dfb27f1-1ec8-4a18-8190-801c75e3c7b3","system_id":"levelo_inurba_marseille","lat":43.21738,"lon":5.34666,"is_reserved":false,"is_disabled":false,"rental_uris":{"android":"levelo://app?vid=4dfb27f1-1ec8-4a18-8190-801c75e3c7b3","ios":"levelo://app?vid=4dfb27f1-1ec8-4a18-8190-801c75e3c7b3"},"vehicle_type_id":"4","last_reported":1761484573,"current_range_meters":11600,"station_id":"","pricing_plan_id":"cebpf4jnsgd1na2vs0mg"},{"bike_id":"d805a1b2-706e-44d6-bbfc-8e11f6e7f181","system_id":"levelo_inurba_marseille","lat":43.28263,"lon":5.3506,"is_reserved":false,"is_disabled":false,"rental_uris":{"android":"levelo://app?vid=d805a1b2-706e-44d6-bbfc-8e11f6e7f181","ios":"levelo://app?vid=d805a1b2-706e-44d6-bbfc-8e11f6e7f181"},"vehicle_type_id":"4","last_reported":1761484573,"current_range_meters":11600,"station_id":"ce4bhbp2rcd13ifvqerg","pricing_plan_id":"cebpf4jnsgd1na2vs0mg"},{"bike_id":"b8f009a7-0a3d-4467-8d9a-f71b82ca2784","system_id":"levelo_inurba_marseille","lat":43.22559,"lon":5.41633,"is_reserved":false,"is_disabled":false,"rental_uris":{"android":"levelo://app?vid=b8f009a7-0a3d-4467-8d9a-f71b82ca2784","ios":"levelo://app?vid=b8f009a7-0a3d-4467-8d9a-f71b82ca2784"},"vehicle_type_id":"4","last_reported":1761484573,"current_range_meters":12000,"station_id":"st_d2o4gvlbi1j2169b742g","pricing_plan_id":"cebpf4jnsgd1na2vs0mg"},{"bike_id":"bf526c33-28dd-4a6a-a10d-b02e3c57c12e","system_id":"levelo_inurba_marseille","lat":43.23964,"lon":5.3662,"is_reserved":false,"is_disabled":false,"rental_uris":{"android":"levelo://app?vid=bf526c33-28dd-4a6a-a10d-b02e3c57c12e","ios":"levelo://app?vid=bf526c33-28dd-4a6a-a10d-b02e3c57c12e"},"vehicle_type_id":"4","last_reported":1761484573,"current_range_meters":12000,"station_id":"ce4bhi12rcd13ifvqfp0","pricing_plan_id":"cebpf4jnsgd1na2vs0mg"},{"bike_id":"977a22cf-ba9b-4e94-be1e-7fa1c39e98f4","system_id":"levelo_inurba_marseille","lat":43.28616,"lon":5.3511,"is_reserved":false,"is_disabled":false,"rental_uris":{"android":"levelo://app?vid=977a22cf-ba9b-4e94-be1e-7fa1c39e98f4","ios":"levelo://app?vid=977a22cf-ba9b-4e94-be1e-7fa1c39e98f4"},"vehicle_type_id":"4","last_reported":1761484573,"current_range_meters":12000,"station_id":"ce4bhch2rcd13ifvqeug","pricing_plan_id":"cebpf4jnsgd1na2vs0mg"},{"bike_id":"be4cd705-75e1-440a-9521-e84edba3bc9e","system_id":"levelo_inurba_marseille","lat":43.21185,"lon":5.3509,"is_reserved":false,"is_disabled":false,"rental_uris":{"android":"levelo://app?vid=be4cd705-75e1-440a-9521-e84edba3bc9e","ios":"levelo://app?vid=be4cd705-75e1-440a-9521-e84edba3bc9e"},"vehicle_type_id":"4","last_reported":1761484573,"current_range_meters":12000,"station_id":"st_cvj6sg6p6f1abm77japg","pricing_plan_id":"cebpf4jnsgd1na2vs0mg"},{"bike_id":"86bb99a4-3bed-453c-bdfd-4fd969cec0ce","system_id":"levelo_inurba_marseille","lat":43.26056,"lon":5.39391,"is_reserved":false,"is_disabled":false,"rental_uris":{"android":"levelo://app?vid=86bb99a4-3bed-453c-bdfd-4fd969cec0ce","ios":"levelo://app?vid=86bb99a4-3bed-453c-bdfd-4fd969cec0ce"},"vehicle_type_id":"4","last_reported":1761484573,"current_range_meters":12400,"station_id":"ce4bhh92rcd13ifvqfj0","pricing_plan_id":"cebpf4jnsgd1na2vs0mg"},{"bike_id":"231548a1-8513-4cc2-815b-681367315f5d","system_id":"levelo_inurba_marseille","lat":43.24637,"lon":5.43331,"is_reserved":false,"is_disabled":false,"rental_uris":{"android":"levelo://app?vid=231548a1-8513-4cc2-815b-681367315f5d","ios":"levelo://app?vid=231548a1-8513-4cc2-815b-681367315f5d"},"vehicle_type_id":"4","last_reported":1761484573,"current_range_meters":12400,"station_id":"","pricing_plan_id":"cebpf4jnsgd1na2vs0mg"},{"bike_id":"aca77c45-e072-41a8-935a-6b076a3a4e80","system_id":"levelo_inurba_marseille","lat":43.30648,"lon":5.40096,"is_reserved":false,"is_disabled":false,"rental_uris":{"android":"levelo://app?vid=aca77c45-e072-41a8-935a-6b076a3a4e80","ios":"levelo://app?vid=aca77c45-e072-41a8-935a-6b076a3a4e80"},"vehicle_type_id":"4","last_reported":1761484573,"current_range_meters":12400,"station_id":"ce4bh112rcd13ifvqda0","pricing_plan_id":"cebpf4jnsgd1na2vs0mg"},{"bike_id":"8ebf8648-f74d-4a91-aad7-475f2daa23c8","system_id":"levelo_inurba_marseille","lat":43.31685,"lon":5.40474,"is_reserved":false,"is_disabled":false,"rental_uris":{"android":"levelo://app?vid=8ebf8648-f74d-4a91-aad7-475f2daa23c8","ios":"levelo://app?vid=8ebf8648-f74d-4a91-aad7-475f2daa23c8"},"vehicle_type_id":"4","last_reported":1761484573,"current_range_meters":12400,"station_id":"ce4bh012rcd13ifvqd00","pricing_plan_id":"cebpf4jnsgd1na2vs0mg"},{"bike_id":"02930108-cfad-493f-af8b-238903456eb8","system_id":"levelo_inurba_marseille","lat":43.29002,"lon":5.35618,"is_reserved":false,"is_disabled":false,"rental_uris":{"android":"levelo://app?vid=02930108-cfad-493f-af8b-238903456eb8","ios":"levelo://app?vid=02930108-cfad-493f-af8b-238903456eb8"},"vehicle_type_id":"4","last_reported":1761484573,"current_range_meters":12400,"station_id":"ce4bhb92rcd13ifvqen0","pricing_plan_id":"cebpf4jnsgd1na2vs0mg"},{"bike_id":"8bcb4ed9-da39-47be-9778-9a31069ddf2a","system_id":"levelo_inurba_marseille","lat":43.30185,"lon":5.36604,"is_reserved":false,"is_disabled":false,"rental_uris":{"android":"levelo://app?vid=8bcb4ed9-da39-47be-9778-9a31069ddf2a","ios":"levelo://app?vid=8bcb4ed9-da39-47be-9778-9a31069ddf2a"},"vehicle_type_id":"4","last_reported":1761484573,"current_range_meters":12400,"station_id":"ce4bgrh2rcd13ifvqc8g","pricing_plan_id":"cebpf4jnsgd1na2vs0mg"},{"bike_id":"e554754d-8a93-4578-ba6a-2e061722759e","system_id":"levelo_inurba_marseille","lat":43.281223,"lon":5.378581,"is_reserved":false,"is_disabled":false,"rental_uris":{"android":"levelo://app?vid=e554754d-8a93-4578-ba6a-2e061722759e","ios":"levelo://app?vid=e554754d-8a93-4578-ba6a-2e061722759e"},"vehicle_type_id":"4","last_reported":1761484573,"current_range_meters":12400,"station_id":"ce4bha12rcd13ifvqee0","pricing_plan_id":"cebpf4jnsgd1na2vs0mg"},{"bike_id":"a1718590-6759-4382-8f49-dd7c2e904bfd","system_id":"levelo_inurba_marseille","lat":43.21189,"lon":5.3507,"is_reserved":false,"is_disabled":false,"rental_uris":{"android":"levelo://app?vid=a1718590-6759-4382-8f49-dd7c2e904bfd","ios":"levelo://app?vid=a1718590-6759-4382-8f49-dd7c2e904bfd"},"vehicle_type_id":"4","last_reported":1761484573,"current_range_meters":12400,"station_id":"st_cvj6sg6p6f1abm77japg","pricing_plan_id":"cebpf4jnsgd1na2vs0mg"},{"bike_id":"45590a6b-966e-4533-b809-efc51cc9687d","system_id":"levelo_inurba_marseille","lat":43.3108,"lon":5.42434,"is_reserved":false,"is_disabled":false,"rental_uris":{"android":"levelo://app?vid=45590a6b-966e-4533-b809-efc51cc9687d","ios":"levelo://app?vid=45590a6b-966e-4533-b809-efc51cc9687d"},"vehicle_type_id":"4","last_reported":1761484573,"current_range_meters":12800,"station_id":"ce4bhp92rcd13ifvqhag","pricing_plan_id":"cebpf4jnsgd1na2vs0mg"},{"bike_id":"9b247209-9ef4-4d5d-a983-93e8ffdc732d","system_id":"levelo_inurba_marseille","lat":43.30371,"lon":5.42487,"is_reserved":false,"is_disabled":false,"rental_uris":{"android":"levelo://app?vid=9b247209-9ef4-4d5d-a983-93e8ffdc732d","ios":"levelo://app?vid=9b247209-9ef4-4d5d-a983-93e8ffdc732d"},"vehicle_type_id":"4","last_reported":1761484573,"current_range_meters":12800,"station_id":"ce4bhoh2rcd13ifvqh6g","pricing_plan_id":"cebpf4jnsgd1na2vs0mg"},{"bike_id":"ef8701f2-8b95-4d10-ada3-a8b00599d2dc","system_id":"levelo_inurba_marseille","lat":43.29746,"lon":5.37926,"is_reserved":false,"is_disabled":false,"rental_uris":{"android":"levelo://app?vid=ef8701f2-8b95-4d10-ada3-a8b00599d2dc","ios":"levelo://app?vid=ef8701f2-8b95-4d10-ada3-a8b00599d2dc"},"vehicle_type_id":"4","last_reported":1761484573,"current_range_meters":12800,"station_id":"","pricing_plan_id":"cebpf4jnsgd1na2vs0mg"},{"bike_id":"41d45b45-3a52-4b5a-b2b3-1e62d5490ada","system_id":"levelo_inurba_marseille","lat":43.28535,"lon":5.44099,"is_reserved":false,"is_disabled":false,"rental_uris":{"android":"levelo://app?vid=41d45b45-3a52-4b5a-b2b3-1e62d5490ada","ios":"levelo://app?vid=41d45b45-3a52-4b5a-b2b3-1e62d5490ada"},"vehicle_type_id":"4","last_reported":1761484573,"current_range_meters":12800,"station_id":"st_d3j3df2ikq2c7380ej80","pricing_plan_id":"cebpf4jnsgd1na2vs0mg"},{"bike_id":"2af2ea3c-ce40-401c-a5d3-156218138db7","system_id":"levelo_inurba_marseille","lat":43.27619,"lon":5.36103,"is_reserved":false,"is_disabled":false,"rental_uris":{"android":"levelo://app?vid=2af2ea3c-ce40-401c-a5d3-156218138db7","ios":"levelo://app?vid=2af2ea3c-ce40-401c-a5d3-156218138db7"},"vehicle_type_id":"4","last_reported":1761484573,"current_range_meters":12800,"station_id":"ce4bgj92rcd13ifvqbe0","pricing_plan_id":"cebpf4jnsgd1na2vs0mg"},{"bike_id":"79128d6f-9ae5-4420-8922-eab5ce40e69e","system_id":"levelo_inurba_marseille","lat":43.272034,"lon":5.391892,"is_reserved":false,"is_disabled":false,"rental_uris":{"android":"levelo://app?vid=79128d6f-9ae5-4420-8922-eab5ce40e69e","ios":"levelo://app?vid=79128d6f-9ae5-4420-8922-eab5ce40e69e"},"vehicle_type_id":"4","last_reported":1761484573,"current_range_meters":12800,"station_id":"","pricing_plan_id":"cebpf4jnsgd1na2vs0mg"},{"bike_id":"c0b81f28-bbba-4247-a74b-c55a34b31846","system_id":"levelo_inurba_marseille","lat":43.33258,"lon":5.41086,"is_reserved":false,"is_disabled":false,"rental_uris":{"android":"levelo://app?vid=c0b81f28-bbba-4247-a74b-c55a34b31846","ios":"levelo://app?vid=c0b81f28-bbba-4247-a74b-c55a34b31846"},"vehicle_type_id":"4","last_reported":1761484573,"current_range_meters":13600,"station_id":"","pricing_plan_id":"cebpf4jnsgd1na2vs0mg"},{"bike_id":"9e83dc36-0288-47ce-863a-762352d61e9d","system_id":"levelo_inurba_marseille","lat":43.26915,"lon":5.40281,"is_reserved":false,"is_disabled":false,"rental_uris":{"android":"levelo://app?vid=9e83dc36-0288-47ce-863a-762352d61e9d","ios":"levelo://app?vid=9e83dc36-0288-47ce-863a-762352d61e9d"},"vehicle_type_id":"4","last_reported":1761484573,"current_range_meters":13600,"station_id":"cjm6bp8fraef2m0cb0m0","pricing_plan_id":"cebpf4jnsgd1na2vs0mg"},{"bike_id":"89f07d19-a106-4d9b-843d-34e48a41d2b3","system_id":"levelo_inurba_marseille","lat":43.21742,"lon":5.34606,"is_reserved":false,"is_disabled":false,"rental_uris":{"android":"levelo://app?vid=89f07d19-a106-4d9b-843d-34e48a41d2b3","ios":"levelo://app?vid=89f07d19-a106-4d9b-843d-34e48a41d2b3"},"vehicle_type_id":"4","last_reported":1761484573,"current_range_meters":13600,"station_id":"st_cvj6r9ubvosntc0bgbag","pricing_plan_id":"cebpf4jnsgd1na2vs0mg"},{"bike_id":"519e0b3d-7937-453d-b258-eaf4c8651077","system_id":"levelo_inurba_marseille","lat":43.29765,"lon":5.3855,"is_reserved":false,"is_disabled":false,"rental_uris":{"android":"levelo://app?vid=519e0b3d-7937-453d-b258-eaf4c8651077","ios":"levelo://app?vid=519e0b3d-7937-453d-b258-eaf4c8651077"},"vehicle_type_id":"4","last_reported":1761484573,"current_range_meters":13600,"station_id":"","pricing_plan_id":"cebpf4jnsgd1na2vs0mg"},{"bike_id":"3da36b46-32f0-4723-8f3b-8cba39a84287","system_id":"levelo_inurba_marseille","lat":43.243873,"lon":5.370461,"is_reserved":false,"is_disabled":false,"rental_uris":{"android":"levelo://app?vid=3da36b46-32f0-4723-8f3b-8cba39a84287","ios":"levelo://app?vid=3da36b46-32f0-4723-8f3b-8cba39a84287"},"vehicle_type_id":"4","last_reported":1761484573,"current_range_meters":13600,"station_id":"ce4bhhh2rcd13ifvqfk0","pricing_plan_id":"cebpf4jnsgd1na2vs0mg"},{"bike_id":"e4ccce50-4824-4895-aa8c-033835526f23","system_id":"levelo_inurba_marseille","lat":43.31876,"lon":5.39981,"is_reserved":false,"is_disabled":false,"rental_uris":{"android":"levelo://app?vid=e4ccce50-4824-4895-aa8c-033835526f23","ios":"levelo://app?vid=e4ccce50-4824-4895-aa8c-033835526f23"},"vehicle_type_id":"4","last_reported":1761484573,"current_range_meters":13600,"station_id":"","pricing_plan_id":"cebpf4jnsgd1na2vs0mg"},{"bike_id":"886d8fc8-cf83-4fc0-96ff-f2a5da42f6d4","system_id":"levelo_inurba_marseille","lat":43.279876,"lon":5.387293,"is_reserved":false,"is_disabled":false,"rental_uris":{"android":"levelo://app?vid=886d8fc8-cf83-4fc0-96ff-f2a5da42f6d4","ios":"levelo://app?vid=886d8fc8-cf83-4fc0-96ff-f2a5da42f6d4"},"vehicle_type_id":"4","last_reported":1761484573,"current_range_meters":14000,"station_id":"ce4bhg12rcd13ifvqf80","pricing_plan_id":"cebpf4jnsgd1na2vs0mg"},{"bike_id":"e4348395-9925-409c-b893-6721ae01e920","system_id":"levelo_inurba_marseille","lat":43.23154,"lon":5.43704,"is_reserved":false,"is_disabled":false,"rental_uris":{"android":"levelo://app?vid=e4348395-9925-409c-b893-6721ae01e920","ios":"levelo://app?vid=e4348395-9925-409c-b893-6721ae01e920"},"vehicle_type_id":"4","last_reported":1761484573,"current_range_meters":14000,"station_id":"ce4bhmp2rcd13ifvqgog","pricing_plan_id":"cebpf4jnsgd1na2vs0mg"},{"bike_id":"804dbda5-2784-4e57-879b-8ddc8a13c73c","system_id":"levelo_inurba_marseille","lat":43.29608,"lon":5.40567,"is_reserved":false,"is_disabled":false,"rental_uris":{"android":"levelo://app?vid=804dbda5-2784-4e57-879b-8ddc8a13c73c","ios":"levelo://app?vid=804dbda5-2784-4e57-879b-8ddc8a13c73c"},"vehicle_type_id":"4","last_reported":1761484573,"current_range_meters":14000,"station_id":"ce4bh0h2rcd13ifvqd60","pricing_plan_id":"cebpf4jnsgd1na2vs0mg"},{"bike_id":"fc3a01d2-48d4-4d0b-956d-960ce8ffe553","system_id":"levelo_inurba_marseille","lat":43.28417,"lon":5.34976,"is_reserved":false,"is_disabled":false,"rental_uris":{"android":"levelo://app?vid=fc3a01d2-48d4-4d0b-956d-960ce8ffe553","ios":"levelo://app?vid=fc3a01d2-48d4-4d0b-956d-960ce8ffe553"},"vehicle_type_id":"4","last_reported":1761484573,"current_range_meters":14000,"station_id":"ce4bhbh2rcd13ifvqepg","pricing_plan_id":"cebpf4jnsgd1na2vs0mg"},{"bike_id":"de5cece4-6186-4ccb-b70e-a25e8bd3fc86","system_id":"levelo_inurba_marseille","lat":43.337444,"lon":5.374475,"is_reserved":false,"is_disabled":false,"rental_uris":{"android":"levelo://app?vid=de5cece4-6186-4ccb-b70e-a25e8bd3fc86","ios":"levelo://app?vid=de5cece4-6186-4ccb-b70e-a25e8bd3fc86"},"vehicle_type_id":"4","last_reported":1761484573,"current_range_meters":14000,"station_id":"","pricing_plan_id":"cebpf4jnsgd1na2vs0mg"},{"bike_id":"bf725e26-be18-4372-84c1-2e0a157f0fbb","system_id":"levelo_inurba_marseille","lat":43.26937,"lon":5.40253,"is_reserved":false,"is_disabled":false,"rental_uris":{"android":"levelo://app?vid=bf725e26-be18-4372-84c1-2e0a157f0fbb","ios":"levelo://app?vid=bf725e26-be18-4372-84c1-2e0a157f0fbb"},"vehicle_type_id":"4","last_reported":1761484573,"current_range_meters":14400,"station_id":"cjm6bp8fraef2m0cb0m0","pricing_plan_id":"cebpf4jnsgd1na2vs0mg"},{"bike_id":"46b0db6c-35c8-470b-a45d-db7e7afa9bfd","system_id":"levelo_inurba_marseille","lat":43.28408,"lon":5.37528,"is_reserved":false,"is_disabled":true,"rental_uris":{"android":"levelo://app?vid=46b0db6c-35c8-470b-a45d-db7e7afa9bfd","ios":"levelo://app?vid=46b0db6c-35c8-470b-a45d-db7e7afa9bfd"},"vehicle_type_id":"4","last_reported":1761484573,"current_range_meters":14400,"station_id":"ce4bh412rcd13ifvqds0","pricing_plan_id":"cebpf4jnsgd1na2vs0mg"},{"bike_id":"2f73b242-8fc1-457e-8b02-a66288d14819","system_id":"levelo_inurba_marseille","lat":43.27371,"lon":5.36256,"is_reserved":false,"is_disabled":false,"rental_uris":{"android":"levelo://app?vid=2f73b242-8fc1-457e-8b02-a66288d14819","ios":"levelo://app?vid=2f73b242-8fc1-457e-8b02-a66288d14819"},"vehicle_type_id":"4","last_reported":1761484573,"current_range_meters":14400,"station_id":"ce4bhbh2rcd13ifvqeo0","pricing_plan_id":"cebpf4jnsgd1na2vs0mg"},{"bike_id":"a99a57c1-c44d-4c55-bff2-d49811315912","system_id":"levelo_inurba_marseille","lat":43.29304,"lon":5.37463,"is_reserved":false,"is_disabled":false,"rental_uris":{"android":"levelo://app?vid=a99a57c1-c44d-4c55-bff2-d49811315912","ios":"levelo://app?vid=a99a57c1-c44d-4c55-bff2-d49811315912"},"vehicle_type_id":"4","last_reported":1761484573,"current_range_meters":14400,"station_id":"ce4bgi12rcd13ifvqb70","pricing_plan_id":"cebpf4jnsgd1na2vs0mg"},{"bike_id":"67f8857f-0853-46d2-b9ef-96c5ce2639bc","system_id":"levelo_inurba_marseille","lat":43.23062,"lon":5.35481,"is_reserved":false,"is_disabled":false,"rental_uris":{"android":"levelo://app?vid=67f8857f-0853-46d2-b9ef-96c5ce2639bc","ios":"levelo://app?vid=67f8857f-0853-46d2-b9ef-96c5ce2639bc"},"vehicle_type_id":"4","last_reported":1761484573,"current_range_meters":14400,"station_id":"cpo3342slgdg3j2ifvpg","pricing_plan_id":"cebpf4jnsgd1na2vs0mg"},{"bike_id":"18807f26-dd1c-4b8c-b305-f66819bf3aa2","system_id":"levelo_inurba_marseille","lat":43.309489,"lon":5.390413,"is_reserved":false,"is_disabled":false,"rental_uris":{"android":"levelo://app?vid=18807f26-dd1c-4b8c-b305-f66819bf3aa2","ios":"levelo://app?vid=18807f26-dd1c-4b8c-b305-f66819bf3aa2"},"vehicle_type_id":"4","last_reported":1761484573,"current_range_meters":14400,"station_id":"ce4bgup2rcd13ifvqco0","pricing_plan_id":"cebpf4jnsgd1na2vs0mg"},{"bike_id":"0bbe50f2-d99c-4abf-8af9-1582a4db25c7","system_id":"levelo_inurba_marseille","lat":43.23155,"lon":5.43704,"is_reserved":false,"is_disabled":false,"rental_uris":{"android":"levelo://app?vid=0bbe50f2-d99c-4abf-8af9-1582a4db25c7","ios":"levelo://app?vid=0bbe50f2-d99c-4abf-8af9-1582a4db25c7"},"vehicle_type_id":"4","last_reported":1761484573,"current_range_meters":14400,"station_id":"ce4bhmp2rcd13ifvqgog","pricing_plan_id":"cebpf4jnsgd1na2vs0mg"},{"bike_id":"e5aafa61-e384-4c69-800b-fe726c41fdc6","system_id":"levelo_inurba_marseille","lat":43.299687,"lon":5.384921,"is_reserved":false,"is_disabled":true,"rental_uris":{"android":"levelo://app?vid=e5aafa61-e384-4c69-800b-fe726c41fdc6","ios":"levelo://app?vid=e5aafa61-e384-4c69-800b-fe726c41fdc6"},"vehicle_type_id":"4","last_reported":1761484573,"current_range_meters":14400,"station_id":"ce4bgj92rcd13ifvqbd0","pricing_plan_id":"cebpf4jnsgd1na2vs0mg"},{"bike_id":"c124d4a0-9e47-48ec-ad7a-ea36eb6e5d35","system_id":"levelo_inurba_marseille","lat":43.24382,"lon":5.37069,"is_reserved":false,"is_disabled":false,"rental_uris":{"android":"levelo://app?vid=c124d4a0-9e47-48ec-ad7a-ea36eb6e5d35","ios":"levelo://app?vid=c124d4a0-9e47-48ec-ad7a-ea36eb6e5d35"},"vehicle_type_id":"4","last_reported":1761484573,"current_range_meters":14400,"station_id":"ce4bhhh2rcd13ifvqfk0","pricing_plan_id":"cebpf4jnsgd1na2vs0mg"},{"bike_id":"ca772d75-34f2-4f9d-a5b0-630f8e1a3fbb","system_id":"levelo_inurba_marseille","lat":43.24162,"lon":5.36404,"is_reserved":false,"is_disabled":false,"rental_uris":{"android":"levelo://app?vid=ca772d75-34f2-4f9d-a5b0-630f8e1a3fbb","ios":"levelo://app?vid=ca772d75-34f2-4f9d-a5b0-630f8e1a3fbb"},"vehicle_type_id":"4","last_reported":1761484573,"current_range_meters":14400,"station_id":"cpo36qri1sfpv3e86is0","pricing_plan_id":"cebpf4jnsgd1na2vs0mg"},{"bike_id":"6f36a359-fa50-49f5-98a5-a2b2c4892adc","system_id":"levelo_inurba_marseille","lat":43.231995,"lon":5.355491,"is_reserved":false,"is_disabled":false,"rental_uris":{"android":"levelo://app?vid=6f36a359-fa50-49f5-98a5-a2b2c4892adc","ios":"levelo://app?vid=6f36a359-fa50-49f5-98a5-a2b2c4892adc"},"vehicle_type_id":"4","last_reported":1761484573,"current_range_meters":14800,"station_id":"ce4bhu92rcd13ifvqi70","pricing_plan_id":"cebpf4jnsgd1na2vs0mg"},{"bike_id":"476ede32-cfdc-42f2-8cc1-233e266f9923","system_id":"levelo_inurba_marseille","lat":43.295699,"lon":5.37555,"is_reserved":false,"is_disabled":false,"rental_uris":{"android":"levelo://app?vid=476ede32-cfdc-42f2-8cc1-233e266f9923","ios":"levelo://app?vid=476ede32-cfdc-42f2-8cc1-233e266f9923"},"vehicle_type_id":"4","last_reported":1761484573,"current_range_meters":14800,"station_id":"","pricing_plan_id":"cebpf4jnsgd1na2vs0mg"},{"bike_id":"ee63d3c4-f9ad-48dd-a91b-8e565e473a00","system_id":"levelo_inurba_marseille","lat":43.30118,"lon":5.43106,"is_reserved":false,"is_disabled":false,"rental_uris":{"android":"levelo://app?vid=ee63d3c4-f9ad-48dd-a91b-8e565e473a00","ios":"levelo://app?vid=ee63d3c4-f9ad-48dd-a91b-8e565e473a00"},"vehicle_type_id":"4","last_reported":1761484573,"current_range_meters":14800,"station_id":"st_d3js3co5814s73ftftug","pricing_plan_id":"cebpf4jnsgd1na2vs0mg"},{"bike_id":"8847af5d-c1ad-4d8d-a5c1-273c3b41c105","system_id":"levelo_inurba_marseille","lat":43.322527,"lon":5.419614,"is_reserved":false,"is_disabled":false,"rental_uris":{"android":"levelo://app?vid=8847af5d-c1ad-4d8d-a5c1-273c3b41c105","ios":"levelo://app?vid=8847af5d-c1ad-4d8d-a5c1-273c3b41c105"},"vehicle_type_id":"4","last_reported":1761484573,"current_range_meters":14800,"station_id":"","pricing_plan_id":"cebpf4jnsgd1na2vs0mg"},{"bike_id":"12342a70-3181-4aca-ac69-870f175e840e","system_id":"levelo_inurba_marseille","lat":43.25014,"lon":5.38933,"is_reserved":false,"is_disabled":false,"rental_uris":{"android":"levelo://app?vid=12342a70-3181-4aca-ac69-870f175e840e","ios":"levelo://app?vid=12342a70-3181-4aca-ac69-870f175e840e"},"vehicle_type_id":"4","last_reported":1761484573,"current_range_meters":14800,"station_id":"ce4bhgp2rcd13ifvqfd0","pricing_plan_id":"cebpf4jnsgd1na2vs0mg"},{"bike_id":"84f32eee-7c08-4b6d-921e-9111fdb0e39e","system_id":"levelo_inurba_marseille","lat":43.287179,"lon":5.379409,"is_reserved":false,"is_disabled":false,"rental_uris":{"android":"levelo://app?vid=84f32eee-7c08-4b6d-921e-9111fdb0e39e","ios":"levelo://app?vid=84f32eee-7c08-4b6d-921e-9111fdb0e39e"},"vehicle_type_id":"4","last_reported":1761484573,"current_range_meters":14800,"station_id":"ce4bh9p2rcd13ifvqec0","pricing_plan_id":"cebpf4jnsgd1na2vs0mg"},{"bike_id":"c30b896b-b143-4c55-8442-45bde7694535","system_id":"levelo_inurba_marseille","lat":43.30789,"lon":5.37641,"is_reserved":false,"is_disabled":false,"rental_uris":{"android":"levelo://app?vid=c30b896b-b143-4c55-8442-45bde7694535","ios":"levelo://app?vid=c30b896b-b143-4c55-8442-45bde7694535"},"vehicle_type_id":"4","last_reported":1761484573,"current_range_meters":14800,"station_id":"ce4bgv92rcd13ifvqcq0","pricing_plan_id":"cebpf4jnsgd1na2vs0mg"},{"bike_id":"d4f50ddc-6163-45a3-80f3-267c8f931017","system_id":"levelo_inurba_marseille","lat":43.312221,"lon":5.368577,"is_reserved":false,"is_disabled":false,"rental_uris":{"android":"levelo://app?vid=d4f50ddc-6163-45a3-80f3-267c8f931017","ios":"levelo://app?vid=d4f50ddc-6163-45a3-80f3-267c8f931017"},"vehicle_type_id":"4","last_reported":1761484573,"current_range_meters":14800,"station_id":"ce4bgl92rcd13ifvqbq0","pricing_plan_id":"cebpf4jnsgd1na2vs0mg"},{"bike_id":"12cefd40-c26f-402c-b50f-33cfb17b8e9f","system_id":"levelo_inurba_marseille","lat":43.30013,"lon":5.37671,"is_reserved":false,"is_disabled":false,"rental_uris":{"android":"levelo://app?vid=12cefd40-c26f-402c-b50f-33cfb17b8e9f","ios":"levelo://app?vid=12cefd40-c26f-402c-b50f-33cfb17b8e9f"},"vehicle_type_id":"4","last_reported":1761484573,"current_range_meters":15200,"station_id":"","pricing_plan_id":"cebpf4jnsgd1na2vs0mg"},{"bike_id":"7972169b-80a8-473e-b4f4-65b804e4b17c","system_id":"levelo_inurba_marseille","lat":43.2722,"lon":5.39174,"is_reserved":false,"is_disabled":false,"rental_uris":{"android":"levelo://app?vid=7972169b-80a8-473e-b4f4-65b804e4b17c","ios":"levelo://app?vid=7972169b-80a8-473e-b4f4-65b804e4b17c"},"vehicle_type_id":"4","last_reported":1761484573,"current_range_meters":15200,"station_id":"ce4bhhp2rcd13ifvqfm0","pricing_plan_id":"cebpf4jnsgd1na2vs0mg"},{"bike_id":"6ee611b3-bf13-495e-a0dc-dfd1a8718271","system_id":"levelo_inurba_marseille","lat":43.2982,"lon":5.44062,"is_reserved":false,"is_disabled":false,"rental_uris":{"android":"levelo://app?vid=6ee611b3-bf13-495e-a0dc-dfd1a8718271","ios":"levelo://app?vid=6ee611b3-bf13-495e-a0dc-dfd1a8718271"},"vehicle_type_id":"4","last_reported":1761484573,"current_range_meters":15200,"station_id":"st_d3jp68qikq2c7381ktn0","pricing_plan_id":"cebpf4jnsgd1na2vs0mg"},{"bike_id":"d1b63d6e-9992-4b8e-bfd5-825235b1f5fe","system_id":"levelo_inurba_marseille","lat":43.27911,"lon":5.38009,"is_reserved":false,"is_disabled":false,"rental_uris":{"android":"levelo://app?vid=d1b63d6e-9992-4b8e-bfd5-825235b1f5fe","ios":"levelo://app?vid=d1b63d6e-9992-4b8e-bfd5-825235b1f5fe"},"vehicle_type_id":"4","last_reported":1761484573,"current_range_meters":15200,"station_id":"ce4bhf92rcd13ifvqf50","pricing_plan_id":"cebpf4jnsgd1na2vs0mg"},{"bike_id":"64b75b4a-3497-4861-8cc2-90dd62cd9f5e","system_id":"levelo_inurba_marseille","lat":43.29449,"lon":5.43351,"is_reserved":false,"is_disabled":false,"rental_uris":{"android":"levelo://app?vid=64b75b4a-3497-4861-8cc2-90dd62cd9f5e","ios":"levelo://app?vid=64b75b4a-3497-4861-8cc2-90dd62cd9f5e"},"vehicle_type_id":"4","last_reported":1761484573,"current_range_meters":15200,"station_id":"","pricing_plan_id":"cebpf4jnsgd1na2vs0mg"},{"bike_id":"8d922c2e-fd1c-4861-a7c8-82dfdd23c009","system_id":"levelo_inurba_marseille","lat":43.2418,"lon":5.36395,"is_reserved":false,"is_disabled":false,"rental_uris":{"android":"levelo://app?vid=8d922c2e-fd1c-4861-a7c8-82dfdd23c009","ios":"levelo://app?vid=8d922c2e-fd1c-4861-a7c8-82dfdd23c009"},"vehicle_type_id":"4","last_reported":1761484573,"current_range_meters":15200,"station_id":"cpo36qri1sfpv3e86is0","pricing_plan_id":"cebpf4jnsgd1na2vs0mg"},{"bike_id":"c7858707-1847-4267-91d2-23743ea49121","system_id":"levelo_inurba_marseille","lat":43.27375,"lon":5.36255,"is_reserved":false,"is_disabled":false,"rental_uris":{"android":"levelo://app?vid=c7858707-1847-4267-91d2-23743ea49121","ios":"levelo://app?vid=c7858707-1847-4267-91d2-23743ea49121"},"vehicle_type_id":"4","last_reported":1761484573,"current_range_meters":16000,"station_id":"ce4bhbh2rcd13ifvqeo0","pricing_plan_id":"cebpf4jnsgd1na2vs0mg"},{"bike_id":"ea8b34dd-0c58-44f0-9a89-bc2f04875322","system_id":"levelo_inurba_marseille","lat":43.28416,"lon":5.34985,"is_reserved":false,"is_disabled":false,"rental_uris":{"android":"levelo://app?vid=ea8b34dd-0c58-44f0-9a89-bc2f04875322","ios":"levelo://app?vid=ea8b34dd-0c58-44f0-9a89-bc2f04875322"},"vehicle_type_id":"4","last_reported":1761484573,"current_range_meters":16000,"station_id":"ce4bhbh2rcd13ifvqepg","pricing_plan_id":"cebpf4jnsgd1na2vs0mg"},{"bike_id":"961f92ed-d032-4279-b5eb-2783921e653f","system_id":"levelo_inurba_marseille","lat":43.29528,"lon":5.38558,"is_reserved":false,"is_disabled":false,"rental_uris":{"android":"levelo://app?vid=961f92ed-d032-4279-b5eb-2783921e653f","ios":"levelo://app?vid=961f92ed-d032-4279-b5eb-2783921e653f"},"vehicle_type_id":"4","last_reported":1761484573,"current_range_meters":16000,"station_id":"ce4bgih2rcd13ifvqba0","pricing_plan_id":"cebpf4jnsgd1na2vs0mg"},{"bike_id":"ffd13ce5-8f79-40f7-bfc8-0243e89f122b","system_id":"levelo_inurba_marseille","lat":43.243859,"lon":5.370621,"is_reserved":false,"is_disabled":false,"rental_uris":{"android":"levelo://app?vid=ffd13ce5-8f79-40f7-bfc8-0243e89f122b","ios":"levelo://app?vid=ffd13ce5-8f79-40f7-bfc8-0243e89f122b"},"vehicle_type_id":"4","last_reported":1761484573,"current_range_meters":16000,"station_id":"ce4bhhh2rcd13ifvqfk0","pricing_plan_id":"cebpf4jnsgd1na2vs0mg"},{"bike_id":"317107fa-306d-4b8d-9380-a16cd06486ce","system_id":"levelo_inurba_marseille","lat":43.284547,"lon":5.358951,"is_reserved":false,"is_disabled":true,"rental_uris":{"android":"levelo://app?vid=317107fa-306d-4b8d-9380-a16cd06486ce","ios":"levelo://app?vid=317107fa-306d-4b8d-9380-a16cd06486ce"},"vehicle_type_id":"4","last_reported":1761484573,"current_range_meters":16000,"station_id":"ce4bhah2rcd13ifvqei0","pricing_plan_id":"cebpf4jnsgd1na2vs0mg"},{"bike_id":"d290b727-6836-4e17-bb70-fa6919fa7378","system_id":"levelo_inurba_marseille","lat":43.25514,"lon":5.37645,"is_reserved":false,"is_disabled":false,"rental_uris":{"android":"levelo://app?vid=d290b727-6836-4e17-bb70-fa6919fa7378","ios":"levelo://app?vid=d290b727-6836-4e17-bb70-fa6919fa7378"},"vehicle_type_id":"4","last_reported":1761484573,"current_range_meters":16400,"station_id":"ce4bhh12rcd13ifvqff0","pricing_plan_id":"cebpf4jnsgd1na2vs0mg"},{"bike_id":"86e7851a-d26b-4dd2-a79a-5c0b676cd8a4","system_id":"levelo_inurba_marseille","lat":43.28415,"lon":5.349698,"is_reserved":false,"is_disabled":false,"rental_uris":{"android":"levelo://app?vid=86e7851a-d26b-4dd2-a79a-5c0b676cd8a4","ios":"levelo://app?vid=86e7851a-d26b-4dd2-a79a-5c0b676cd8a4"},"vehicle_type_id":"4","last_reported":1761484573,"current_range_meters":16400,"station_id":"ce4bhbh2rcd13ifvqepg","pricing_plan_id":"cebpf4jnsgd1na2vs0mg"},{"bike_id":"4e5fded7-b6e1-4700-a677-e7f5a1ecfa9e","system_id":"levelo_inurba_marseille","lat":43.29621,"lon":5.37167,"is_reserved":false,"is_disabled":false,"rental_uris":{"android":"levelo://app?vid=4e5fded7-b6e1-4700-a677-e7f5a1ecfa9e","ios":"levelo://app?vid=4e5fded7-b6e1-4700-a677-e7f5a1ecfa9e"},"vehicle_type_id":"4","last_reported":1761484573,"current_range_meters":16400,"station_id":"ce4bgnh2rcd13ifvqc0g","pricing_plan_id":"cebpf4jnsgd1na2vs0mg"},{"bike_id":"ca8c5fef-8841-4e27-bf56-b75f84bec5da","system_id":"levelo_inurba_marseille","lat":43.23727,"lon":5.36713,"is_reserved":false,"is_disabled":false,"rental_uris":{"android":"levelo://app?vid=ca8c5fef-8841-4e27-bf56-b75f84bec5da","ios":"levelo://app?vid=ca8c5fef-8841-4e27-bf56-b75f84bec5da"},"vehicle_type_id":"4","last_reported":1761484573,"current_range_meters":16400,"station_id":"st_d3nk18o9ro0c73en2l3g","pricing_plan_id":"cebpf4jnsgd1na2vs0mg"},{"bike_id":"7a1877e8-1310-4142-900d-3cea9a2ef65f","system_id":"levelo_inurba_marseille","lat":43.29471,"lon":5.43302,"is_reserved":false,"is_disabled":false,"rental_uris":{"android":"levelo://app?vid=7a1877e8-1310-4142-900d-3cea9a2ef65f","ios":"levelo://app?vid=7a1877e8-1310-4142-900d-3cea9a2ef65f"},"vehicle_type_id":"4","last_reported":1761484573,"current_range_meters":16400,"station_id":"st_d3j5ugp08ojc73fj9d10","pricing_plan_id":"cebpf4jnsgd1na2vs0mg"},{"bike_id":"581c2c91-7d98-48bf-a68c-51510c923c19","system_id":"levelo_inurba_marseille","lat":43.29847,"lon":5.36276,"is_reserved":false,"is_disabled":false,"rental_uris":{"android":"levelo://app?vid=581c2c91-7d98-48bf-a68c-51510c923c19","ios":"levelo://app?vid=581c2c91-7d98-48bf-a68c-51510c923c19"},"vehicle_type_id":"4","last_reported":1761484573,"current_range_meters":16400,"station_id":"ce4bgpp2rcd13ifvqc3g","pricing_plan_id":"cebpf4jnsgd1na2vs0mg"},{"bike_id":"526cddf7-e629-4e01-a3fa-d060ef7dfdd4","system_id":"levelo_inurba_marseille","lat":43.24656,"lon":5.3889,"is_reserved":false,"is_disabled":false,"rental_uris":{"android":"levelo://app?vid=526cddf7-e629-4e01-a3fa-d060ef7dfdd4","ios":"levelo://app?vid=526cddf7-e629-4e01-a3fa-d060ef7dfdd4"},"vehicle_type_id":"4","last_reported":1761484573,"current_range_meters":16400,"station_id":"ce4bhg12rcd13ifvqf60","pricing_plan_id":"cebpf4jnsgd1na2vs0mg"},{"bike_id":"acba8ee8-e14f-4d4e-8436-f1768b410a6d","system_id":"levelo_inurba_marseille","lat":43.30602,"lon":5.372216,"is_reserved":false,"is_disabled":false,"rental_uris":{"android":"levelo://app?vid=acba8ee8-e14f-4d4e-8436-f1768b410a6d","ios":"levelo://app?vid=acba8ee8-e14f-4d4e-8436-f1768b410a6d"},"vehicle_type_id":"4","last_reported":1761484573,"current_range_meters":16400,"station_id":"ce4bgqh2rcd13ifvqc4g","pricing_plan_id":"cebpf4jnsgd1na2vs0mg"},{"bike_id":"ad166e8d-320f-47c2-bfd9-9e014a946d21","system_id":"levelo_inurba_marseille","lat":43.27766,"lon":5.40731,"is_reserved":false,"is_disabled":true,"rental_uris":{"android":"levelo://app?vid=ad166e8d-320f-47c2-bfd9-9e014a946d21","ios":"levelo://app?vid=ad166e8d-320f-47c2-bfd9-9e014a946d21"},"vehicle_type_id":"4","last_reported":1761484573,"current_range_meters":16400,"station_id":"","pricing_plan_id":"cebpf4jnsgd1na2vs0mg"},{"bike_id":"baa93571-061d-4d98-a7c4-ab842c53f2f8","system_id":"levelo_inurba_marseille","lat":43.301388,"lon":5.385022,"is_reserved":false,"is_disabled":false,"rental_uris":{"android":"levelo://app?vid=baa93571-061d-4d98-a7c4-ab842c53f2f8","ios":"levelo://app?vid=baa93571-061d-4d98-a7c4-ab842c53f2f8"},"vehicle_type_id":"4","last_reported":1761484573,"current_range_meters":16800,"station_id":"","pricing_plan_id":"cebpf4jnsgd1na2vs0mg"},{"bike_id":"de0ca7a8-116a-46c8-8c50-6b445a473423","system_id":"levelo_inurba_marseille","lat":43.28865,"lon":5.42513,"is_reserved":false,"is_disabled":false,"rental_uris":{"android":"levelo://app?vid=de0ca7a8-116a-46c8-8c50-6b445a473423","ios":"levelo://app?vid=de0ca7a8-116a-46c8-8c50-6b445a473423"},"vehicle_type_id":"4","last_reported":1761484573,"current_range_meters":16800,"station_id":"st_d3b462108ojc7389ooeg","pricing_plan_id":"cebpf4jnsgd1na2vs0mg"},{"bike_id":"87578ce7-70d9-46b0-9453-e71fca95c783","system_id":"levelo_inurba_marseille","lat":43.28269,"lon":5.350622,"is_reserved":false,"is_disabled":false,"rental_uris":{"android":"levelo://app?vid=87578ce7-70d9-46b0-9453-e71fca95c783","ios":"levelo://app?vid=87578ce7-70d9-46b0-9453-e71fca95c783"},"vehicle_type_id":"4","last_reported":1761484573,"current_range_meters":16800,"station_id":"ce4bhbp2rcd13ifvqerg","pricing_plan_id":"cebpf4jnsgd1na2vs0mg"},{"bike_id":"8e3d0e08-b97d-4968-869d-5fbe6eb8c3f7","system_id":"levelo_inurba_marseille","lat":43.248133,"lon":5.374613,"is_reserved":false,"is_disabled":false,"rental_uris":{"android":"levelo://app?vid=8e3d0e08-b97d-4968-869d-5fbe6eb8c3f7","ios":"levelo://app?vid=8e3d0e08-b97d-4968-869d-5fbe6eb8c3f7"},"vehicle_type_id":"4","last_reported":1761484573,"current_range_meters":16800,"station_id":"ce4bhgh2rcd13ifvqfb0","pricing_plan_id":"cebpf4jnsgd1na2vs0mg"},{"bike_id":"53619b52-f6a4-4a36-9715-aa47e9e64dbc","system_id":"levelo_inurba_marseille","lat":43.29268,"lon":5.38436,"is_reserved":false,"is_disabled":true,"rental_uris":{"android":"levelo://app?vid=53619b52-f6a4-4a36-9715-aa47e9e64dbc","ios":"levelo://app?vid=53619b52-f6a4-4a36-9715-aa47e9e64dbc"},"vehicle_type_id":"4","last_reported":1761484573,"current_range_meters":16800,"station_id":"ce4bh692rcd13ifvqea0","pricing_plan_id":"cebpf4jnsgd1na2vs0mg"},{"bike_id":"a100fbc0-a18b-4350-8b9b-67f14f56ea4c","system_id":"levelo_inurba_marseille","lat":43.22566,"lon":5.41624,"is_reserved":false,"is_disabled":false,"rental_uris":{"android":"levelo://app?vid=a100fbc0-a18b-4350-8b9b-67f14f56ea4c","ios":"levelo://app?vid=a100fbc0-a18b-4350-8b9b-67f14f56ea4c"},"vehicle_type_id":"4","last_reported":1761484573,"current_range_meters":16800,"station_id":"st_d2o4gvlbi1j2169b742g","pricing_plan_id":"cebpf4jnsgd1na2vs0mg"},{"bike_id":"89b1bff5-0757-4392-800c-9eb1ac007e45","system_id":"levelo_inurba_marseille","lat":43.30889,"lon":5.37185,"is_reserved":false,"is_disabled":false,"rental_uris":{"android":"levelo://app?vid=89b1bff5-0757-4392-800c-9eb1ac007e45","ios":"levelo://app?vid=89b1bff5-0757-4392-800c-9eb1ac007e45"},"vehicle_type_id":"4","last_reported":1761484573,"current_range_meters":16800,"station_id":"ce4bguh2rcd13ifvqckg","pricing_plan_id":"cebpf4jnsgd1na2vs0mg"},{"bike_id":"280ec58b-9211-404c-b4d5-55b5769f09ba","system_id":"levelo_inurba_marseille","lat":43.25718,"lon":5.41111,"is_reserved":false,"is_disabled":false,"rental_uris":{"android":"levelo://app?vid=280ec58b-9211-404c-b4d5-55b5769f09ba","ios":"levelo://app?vid=280ec58b-9211-404c-b4d5-55b5769f09ba"},"vehicle_type_id":"4","last_reported":1761484573,"current_range_meters":16800,"station_id":"ce4bhkp2rcd13ifvqgd0","pricing_plan_id":"cebpf4jnsgd1na2vs0mg"},{"bike_id":"b35f3e1c-9c25-4f13-98b2-1c7e1858271c","system_id":"levelo_inurba_marseille","lat":43.22561,"lon":5.41619,"is_reserved":false,"is_disabled":false,"rental_uris":{"android":"levelo://app?vid=b35f3e1c-9c25-4f13-98b2-1c7e1858271c","ios":"levelo://app?vid=b35f3e1c-9c25-4f13-98b2-1c7e1858271c"},"vehicle_type_id":"4","last_reported":1761484573,"current_range_meters":17200,"station_id":"st_d2o4gvlbi1j2169b742g","pricing_plan_id":"cebpf4jnsgd1na2vs0mg"},{"bike_id":"73e3d00c-eed9-4474-8470-2701da8f5335","system_id":"levelo_inurba_marseille","lat":43.257354,"lon":5.410347,"is_reserved":false,"is_disabled":false,"rental_uris":{"android":"levelo://app?vid=73e3d00c-eed9-4474-8470-2701da8f5335","ios":"levelo://app?vid=73e3d00c-eed9-4474-8470-2701da8f5335"},"vehicle_type_id":"4","last_reported":1761484573,"current_range_meters":17200,"station_id":"","pricing_plan_id":"cebpf4jnsgd1na2vs0mg"},{"bike_id":"fc26556a-205b-433f-a204-281f7cbbcdcb","system_id":"levelo_inurba_marseille","lat":43.30415,"lon":5.39755,"is_reserved":false,"is_disabled":false,"rental_uris":{"android":"levelo://app?vid=fc26556a-205b-433f-a204-281f7cbbcdcb","ios":"levelo://app?vid=fc26556a-205b-433f-a204-281f7cbbcdcb"},"vehicle_type_id":"4","last_reported":1761484573,"current_range_meters":17200,"station_id":"ce4bh092rcd13ifvqd20","pricing_plan_id":"cebpf4jnsgd1na2vs0mg"},{"bike_id":"b24feb4e-fea7-4f4d-ba39-06518c9e11b5","system_id":"levelo_inurba_marseille","lat":43.26558,"lon":5.37289,"is_reserved":false,"is_disabled":false,"rental_uris":{"android":"levelo://app?vid=b24feb4e-fea7-4f4d-ba39-06518c9e11b5","ios":"levelo://app?vid=b24feb4e-fea7-4f4d-ba39-06518c9e11b5"},"vehicle_type_id":"4","last_reported":1761484573,"current_range_meters":17200,"station_id":"ce4bhg12rcd13ifvqf70","pricing_plan_id":"cebpf4jnsgd1na2vs0mg"},{"bike_id":"ce15d64c-7bd4-4017-a01a-0dc353c2995b","system_id":"levelo_inurba_marseille","lat":43.281307,"lon":5.350284,"is_reserved":false,"is_disabled":false,"rental_uris":{"android":"levelo://app?vid=ce15d64c-7bd4-4017-a01a-0dc353c2995b","ios":"levelo://app?vid=ce15d64c-7bd4-4017-a01a-0dc353c2995b"},"vehicle_type_id":"4","last_reported":1761484573,"current_range_meters":17200,"station_id":"","pricing_plan_id":"cebpf4jnsgd1na2vs0mg"},{"bike_id":"c6a34468-59bd-4385-b5cf-b4eb9dc2a7f7","system_id":"levelo_inurba_marseille","lat":43.3372,"lon":5.39187,"is_reserved":false,"is_disabled":false,"rental_uris":{"android":"levelo://app?vid=c6a34468-59bd-4385-b5cf-b4eb9dc2a7f7","ios":"levelo://app?vid=c6a34468-59bd-4385-b5cf-b4eb9dc2a7f7"},"vehicle_type_id":"4","last_reported":1761484573,"current_range_meters":17600,"station_id":"ce4bhr92rcd13ifvqhsg","pricing_plan_id":"cebpf4jnsgd1na2vs0mg"},{"bike_id":"676f8664-d227-4500-9fd5-444b3baa24fd","system_id":"levelo_inurba_marseille","lat":43.2175,"lon":5.34612,"is_reserved":false,"is_disabled":false,"rental_uris":{"android":"levelo://app?vid=676f8664-d227-4500-9fd5-444b3baa24fd","ios":"levelo://app?vid=676f8664-d227-4500-9fd5-444b3baa24fd"},"vehicle_type_id":"4","last_reported":1761484573,"current_range_meters":17600,"station_id":"st_cvj6r9ubvosntc0bgbag","pricing_plan_id":"cebpf4jnsgd1na2vs0mg"},{"bike_id":"36d7fbc3-e4e1-4b61-8e94-e74b2c6446ca","system_id":"levelo_inurba_marseille","lat":43.25512,"lon":5.37642,"is_reserved":false,"is_disabled":true,"rental_uris":{"android":"levelo://app?vid=36d7fbc3-e4e1-4b61-8e94-e74b2c6446ca","ios":"levelo://app?vid=36d7fbc3-e4e1-4b61-8e94-e74b2c6446ca"},"vehicle_type_id":"4","last_reported":1761484573,"current_range_meters":17600,"station_id":"ce4bhh12rcd13ifvqff0","pricing_plan_id":"cebpf4jnsgd1na2vs0mg"},{"bike_id":"775f54bc-fe55-43ca-96a6-16dad853b39a","system_id":"levelo_inurba_marseille","lat":43.25859,"lon":5.3991,"is_reserved":false,"is_disabled":false,"rental_uris":{"android":"levelo://app?vid=775f54bc-fe55-43ca-96a6-16dad853b39a","ios":"levelo://app?vid=775f54bc-fe55-43ca-96a6-16dad853b39a"},"vehicle_type_id":"4","last_reported":1761484573,"current_range_meters":17600,"station_id":"ce4bhl92rcd13ifvqghg","pricing_plan_id":"cebpf4jnsgd1na2vs0mg"},{"bike_id":"e8875dd7-113a-4656-954c-c70d846454f9","system_id":"levelo_inurba_marseille","lat":43.26797,"lon":5.40267,"is_reserved":false,"is_disabled":false,"rental_uris":{"android":"levelo://app?vid=e8875dd7-113a-4656-954c-c70d846454f9","ios":"levelo://app?vid=e8875dd7-113a-4656-954c-c70d846454f9"},"vehicle_type_id":"4","last_reported":1761484573,"current_range_meters":17600,"station_id":"ce501612rcd8frsf0b60","pricing_plan_id":"cebpf4jnsgd1na2vs0mg"},{"bike_id":"a5291efe-5925-40eb-8125-78e2bb6716d1","system_id":"levelo_inurba_marseille","lat":43.288867,"lon":5.360079,"is_reserved":false,"is_disabled":false,"rental_uris":{"android":"levelo://app?vid=a5291efe-5925-40eb-8125-78e2bb6716d1","ios":"levelo://app?vid=a5291efe-5925-40eb-8125-78e2bb6716d1"},"vehicle_type_id":"4","last_reported":1761484573,"current_range_meters":17600,"station_id":"ce4bha92rcd13ifvqeg0","pricing_plan_id":"cebpf4jnsgd1na2vs0mg"},{"bike_id":"52362110-04ea-4f87-94ca-f66a7b528c2a","system_id":"levelo_inurba_marseille","lat":43.25074,"lon":5.39515,"is_reserved":false,"is_disabled":false,"rental_uris":{"android":"levelo://app?vid=52362110-04ea-4f87-94ca-f66a7b528c2a","ios":"levelo://app?vid=52362110-04ea-4f87-94ca-f66a7b528c2a"},"vehicle_type_id":"4","last_reported":1761484573,"current_range_meters":17600,"station_id":"ce4bhm12rcd13ifvqgkg","pricing_plan_id":"cebpf4jnsgd1na2vs0mg"},{"bike_id":"a48b1273-fad1-4445-b7ab-2b8a3c1aa422","system_id":"levelo_inurba_marseille","lat":43.28936,"lon":5.3664,"is_reserved":false,"is_disabled":false,"rental_uris":{"android":"levelo://app?vid=a48b1273-fad1-4445-b7ab-2b8a3c1aa422","ios":"levelo://app?vid=a48b1273-fad1-4445-b7ab-2b8a3c1aa422"},"vehicle_type_id":"4","last_reported":1761484573,"current_range_meters":17600,"station_id":"ce4bhap2rcd13ifvqek0","pricing_plan_id":"cebpf4jnsgd1na2vs0mg"},{"bike_id":"cd86477e-ac30-4f64-a41e-bdea53e0b78b","system_id":"levelo_inurba_marseille","lat":43.21195,"lon":5.35059,"is_reserved":false,"is_disabled":false,"rental_uris":{"android":"levelo://app?vid=cd86477e-ac30-4f64-a41e-bdea53e0b78b","ios":"levelo://app?vid=cd86477e-ac30-4f64-a41e-bdea53e0b78b"},"vehicle_type_id":"4","last_reported":1761484573,"current_range_meters":17600,"station_id":"st_cvj6sg6p6f1abm77japg","pricing_plan_id":"cebpf4jnsgd1na2vs0mg"},{"bike_id":"60fe6520-86d2-419c-ae24-b64e627f6ed3","system_id":"levelo_inurba_marseille","lat":43.24678,"lon":5.38155,"is_reserved":false,"is_disabled":false,"rental_uris":{"android":"levelo://app?vid=60fe6520-86d2-419c-ae24-b64e627f6ed3","ios":"levelo://app?vid=60fe6520-86d2-419c-ae24-b64e627f6ed3"},"vehicle_type_id":"4","last_reported":1761484573,"current_range_meters":18000,"station_id":"ce4bhih2rcd13ifvqfr0","pricing_plan_id":"cebpf4jnsgd1na2vs0mg"},{"bike_id":"184db0a9-9e94-473a-b71f-ec7e0d3e883c","system_id":"levelo_inurba_marseille","lat":43.29856,"lon":5.36263,"is_reserved":false,"is_disabled":false,"rental_uris":{"android":"levelo://app?vid=184db0a9-9e94-473a-b71f-ec7e0d3e883c","ios":"levelo://app?vid=184db0a9-9e94-473a-b71f-ec7e0d3e883c"},"vehicle_type_id":"4","last_reported":1761484573,"current_range_meters":18000,"station_id":"ce4bgpp2rcd13ifvqc3g","pricing_plan_id":"cebpf4jnsgd1na2vs0mg"},{"bike_id":"d4e17282-5bf4-4156-807e-cc7cc723a61b","system_id":"levelo_inurba_marseille","lat":43.270622,"lon":5.402562,"is_reserved":false,"is_disabled":false,"rental_uris":{"android":"levelo://app?vid=d4e17282-5bf4-4156-807e-cc7cc723a61b","ios":"levelo://app?vid=d4e17282-5bf4-4156-807e-cc7cc723a61b"},"vehicle_type_id":"4","last_reported":1761484573,"current_range_meters":18000,"station_id":"ce4bhk92rcd13ifvqgc0","pricing_plan_id":"cebpf4jnsgd1na2vs0mg"},{"bike_id":"7165d414-e8a5-415f-8a72-9e3295be2a67","system_id":"levelo_inurba_marseille","lat":43.31029,"lon":5.37901,"is_reserved":false,"is_disabled":false,"rental_uris":{"android":"levelo://app?vid=7165d414-e8a5-415f-8a72-9e3295be2a67","ios":"levelo://app?vid=7165d414-e8a5-415f-8a72-9e3295be2a67"},"vehicle_type_id":"4","last_reported":1761484573,"current_range_meters":18000,"station_id":"","pricing_plan_id":"cebpf4jnsgd1na2vs0mg"},{"bike_id":"b9ae3ff8-1fd5-421b-a8a3-72ad80cdae9e","system_id":"levelo_inurba_marseille","lat":43.26558,"lon":5.3902,"is_reserved":false,"is_disabled":false,"rental_uris":{"android":"levelo://app?vid=b9ae3ff8-1fd5-421b-a8a3-72ad80cdae9e","ios":"levelo://app?vid=b9ae3ff8-1fd5-421b-a8a3-72ad80cdae9e"},"vehicle_type_id":"4","last_reported":1761484573,"current_range_meters":18000,"station_id":"ce4bhe12rcd13ifvqf30","pricing_plan_id":"cebpf4jnsgd1na2vs0mg"},{"bike_id":"f6f41915-49e3-4fb8-8c5c-96d42e084e15","system_id":"levelo_inurba_marseille","lat":43.32022,"lon":5.37133,"is_reserved":false,"is_disabled":false,"rental_uris":{"android":"levelo://app?vid=f6f41915-49e3-4fb8-8c5c-96d42e084e15","ios":"levelo://app?vid=f6f41915-49e3-4fb8-8c5c-96d42e084e15"},"vehicle_type_id":"4","last_reported":1761484573,"current_range_meters":18000,"station_id":"","pricing_plan_id":"cebpf4jnsgd1na2vs0mg"},{"bike_id":"9f7f56b7-9464-4dc9-a294-b7b58932e15d","system_id":"levelo_inurba_marseille","lat":43.23155,"lon":5.43701,"is_reserved":false,"is_disabled":false,"rental_uris":{"android":"levelo://app?vid=9f7f56b7-9464-4dc9-a294-b7b58932e15d","ios":"levelo://app?vid=9f7f56b7-9464-4dc9-a294-b7b58932e15d"},"vehicle_type_id":"4","last_reported":1761484573,"current_range_meters":18000,"station_id":"ce4bhmp2rcd13ifvqgog","pricing_plan_id":"cebpf4jnsgd1na2vs0mg"},{"bike_id":"b79da681-8218-4df2-9ffe-668dcfa5a9f9","system_id":"levelo_inurba_marseille","lat":43.27206,"lon":5.39171,"is_reserved":false,"is_disabled":false,"rental_uris":{"android":"levelo://app?vid=b79da681-8218-4df2-9ffe-668dcfa5a9f9","ios":"levelo://app?vid=b79da681-8218-4df2-9ffe-668dcfa5a9f9"},"vehicle_type_id":"4","last_reported":1761484573,"current_range_meters":18800,"station_id":"ce4bhhp2rcd13ifvqfm0","pricing_plan_id":"cebpf4jnsgd1na2vs0mg"},{"bike_id":"79f9cde6-2fc1-438e-a896-83f6555a03e6","system_id":"levelo_inurba_marseille","lat":43.32104,"lon":5.36768,"is_reserved":false,"is_disabled":false,"rental_uris":{"android":"levelo://app?vid=79f9cde6-2fc1-438e-a896-83f6555a03e6","ios":"levelo://app?vid=79f9cde6-2fc1-438e-a896-83f6555a03e6"},"vehicle_type_id":"4","last_reported":1761484573,"current_range_meters":18800,"station_id":"ce4bhrh2rcd13ifvqhug","pricing_plan_id":"cebpf4jnsgd1na2vs0mg"},{"bike_id":"94aaf935-55ff-4431-b612-265a39fb330c","system_id":"levelo_inurba_marseille","lat":43.29021,"lon":5.38635,"is_reserved":false,"is_disabled":true,"rental_uris":{"android":"levelo://app?vid=94aaf935-55ff-4431-b612-265a39fb330c","ios":"levelo://app?vid=94aaf935-55ff-4431-b612-265a39fb330c"},"vehicle_type_id":"4","last_reported":1761484573,"current_range_meters":18800,"station_id":"ce4bh4p2rcd13ifvqe0g","pricing_plan_id":"cebpf4jnsgd1na2vs0mg"},{"bike_id":"26c48375-1e6e-43b2-9750-bd0ef6e16469","system_id":"levelo_inurba_marseille","lat":43.2256,"lon":5.4163,"is_reserved":false,"is_disabled":false,"rental_uris":{"android":"levelo://app?vid=26c48375-1e6e-43b2-9750-bd0ef6e16469","ios":"levelo://app?vid=26c48375-1e6e-43b2-9750-bd0ef6e16469"},"vehicle_type_id":"4","last_reported":1761484573,"current_range_meters":18800,"station_id":"st_d2o4gvlbi1j2169b742g","pricing_plan_id":"cebpf4jnsgd1na2vs0mg"},{"bike_id":"0e3a1375-1454-4101-915f-2208001d5e2b","system_id":"levelo_inurba_marseille","lat":43.302522,"lon":5.400664,"is_reserved":false,"is_disabled":true,"rental_uris":{"android":"levelo://app?vid=0e3a1375-1454-4101-915f-2208001d5e2b","ios":"levelo://app?vid=0e3a1375-1454-4101-915f-2208001d5e2b"},"vehicle_type_id":"4","last_reported":1761484573,"current_range_meters":18800,"station_id":"ce4bgvh2rcd13ifvqcs0","pricing_plan_id":"cebpf4jnsgd1na2vs0mg"},{"bike_id":"7cd06c8e-20e0-4a7b-bdd0-d1a902d0086a","system_id":"levelo_inurba_marseille","lat":43.26258,"lon":5.40296,"is_reserved":false,"is_disabled":false,"rental_uris":{"android":"levelo://app?vid=7cd06c8e-20e0-4a7b-bdd0-d1a902d0086a","ios":"levelo://app?vid=7cd06c8e-20e0-4a7b-bdd0-d1a902d0086a"},"vehicle_type_id":"4","last_reported":1761484573,"current_range_meters":18800,"station_id":"","pricing_plan_id":"cebpf4jnsgd1na2vs0mg"},{"bike_id":"5bc341ac-0911-4356-8f26-d97bf79e1968","system_id":"levelo_inurba_marseille","lat":43.24061,"lon":5.37772,"is_reserved":false,"is_disabled":false,"rental_uris":{"android":"levelo://app?vid=5bc341ac-0911-4356-8f26-d97bf79e1968","ios":"levelo://app?vid=5bc341ac-0911-4356-8f26-d97bf79e1968"},"vehicle_type_id":"4","last_reported":1761484573,"current_range_meters":18800,"station_id":"ce4bhnp2rcd13ifvqgvg","pricing_plan_id":"cebpf4jnsgd1na2vs0mg"},{"bike_id":"441ac4f8-457e-402c-8884-722d9ed8028b","system_id":"levelo_inurba_marseille","lat":43.32365,"lon":5.38885,"is_reserved":false,"is_disabled":false,"rental_uris":{"android":"levelo://app?vid=441ac4f8-457e-402c-8884-722d9ed8028b","ios":"levelo://app?vid=441ac4f8-457e-402c-8884-722d9ed8028b"},"vehicle_type_id":"4","last_reported":1761484573,"current_range_meters":18800,"station_id":"ce4bhqp2rcd13ifvqhog","pricing_plan_id":"cebpf4jnsgd1na2vs0mg"},{"bike_id":"2dfd9b11-625b-4458-a8f4-6bd58937bfec","system_id":"levelo_inurba_marseille","lat":43.21746,"lon":5.34611,"is_reserved":false,"is_disabled":false,"rental_uris":{"android":"levelo://app?vid=2dfd9b11-625b-4458-a8f4-6bd58937bfec","ios":"levelo://app?vid=2dfd9b11-625b-4458-a8f4-6bd58937bfec"},"vehicle_type_id":"4","last_reported":1761484573,"current_range_meters":18800,"station_id":"st_cvj6r9ubvosntc0bgbag","pricing_plan_id":"cebpf4jnsgd1na2vs0mg"},{"bike_id":"a2bad930-a962-4400-9b02-97a75d0aa250","system_id":"levelo_inurba_marseille","lat":43.26556,"lon":5.37281,"is_reserved":false,"is_disabled":false,"rental_uris":{"android":"levelo://app?vid=a2bad930-a962-4400-9b02-97a75d0aa250","ios":"levelo://app?vid=a2bad930-a962-4400-9b02-97a75d0aa250"},"vehicle_type_id":"4","last_reported":1761484573,"current_range_meters":18800,"station_id":"ce4bhg12rcd13ifvqf70","pricing_plan_id":"cebpf4jnsgd1na2vs0mg"},{"bike_id":"b8f166a5-94a7-40e9-8955-4919e6134ff5","system_id":"levelo_inurba_marseille","lat":43.29848,"lon":5.36276,"is_reserved":false,"is_disabled":false,"rental_uris":{"android":"levelo://app?vid=b8f166a5-94a7-40e9-8955-4919e6134ff5","ios":"levelo://app?vid=b8f166a5-94a7-40e9-8955-4919e6134ff5"},"vehicle_type_id":"4","last_reported":1761484573,"current_range_meters":19200,"station_id":"ce4bgpp2rcd13ifvqc3g","pricing_plan_id":"cebpf4jnsgd1na2vs0mg"},{"bike_id":"e07f9d90-9960-4c5e-a2cd-a8272499efd4","system_id":"levelo_inurba_marseille","lat":43.211924,"lon":5.350698,"is_reserved":false,"is_disabled":false,"rental_uris":{"android":"levelo://app?vid=e07f9d90-9960-4c5e-a2cd-a8272499efd4","ios":"levelo://app?vid=e07f9d90-9960-4c5e-a2cd-a8272499efd4"},"vehicle_type_id":"4","last_reported":1761484573,"current_range_meters":19200,"station_id":"st_cvj6sg6p6f1abm77japg","pricing_plan_id":"cebpf4jnsgd1na2vs0mg"},{"bike_id":"83106217-f024-4381-9607-50194d3370ce","system_id":"levelo_inurba_marseille","lat":43.24169,"lon":5.3639,"is_reserved":false,"is_disabled":false,"rental_uris":{"android":"levelo://app?vid=83106217-f024-4381-9607-50194d3370ce","ios":"levelo://app?vid=83106217-f024-4381-9607-50194d3370ce"},"vehicle_type_id":"4","last_reported":1761484573,"current_range_meters":19200,"station_id":"cpo36qri1sfpv3e86is0","pricing_plan_id":"cebpf4jnsgd1na2vs0mg"},{"bike_id":"a8fad160-0c27-4c26-aac4-5372839fdd97","system_id":"levelo_inurba_marseille","lat":43.31706,"lon":5.37752,"is_reserved":false,"is_disabled":false,"rental_uris":{"android":"levelo://app?vid=a8fad160-0c27-4c26-aac4-5372839fdd97","ios":"levelo://app?vid=a8fad160-0c27-4c26-aac4-5372839fdd97"},"vehicle_type_id":"4","last_reported":1761484573,"current_range_meters":19200,"station_id":"ce4bgth2rcd13ifvqch0","pricing_plan_id":"cebpf4jnsgd1na2vs0mg"},{"bike_id":"e92a5181-3093-4535-adde-2230374de0aa","system_id":"levelo_inurba_marseille","lat":43.31358,"lon":5.37679,"is_reserved":false,"is_disabled":false,"rental_uris":{"android":"levelo://app?vid=e92a5181-3093-4535-adde-2230374de0aa","ios":"levelo://app?vid=e92a5181-3093-4535-adde-2230374de0aa"},"vehicle_type_id":"4","last_reported":1761484573,"current_range_meters":19200,"station_id":"","pricing_plan_id":"cebpf4jnsgd1na2vs0mg"},{"bike_id":"da945370-32c7-4765-8b8c-dadee680d38e","system_id":"levelo_inurba_marseille","lat":43.34058,"lon":5.40415,"is_reserved":false,"is_disabled":false,"rental_uris":{"android":"levelo://app?vid=da945370-32c7-4765-8b8c-dadee680d38e","ios":"levelo://app?vid=da945370-32c7-4765-8b8c-dadee680d38e"},"vehicle_type_id":"4","last_reported":1761484573,"current_range_meters":19200,"station_id":"","pricing_plan_id":"cebpf4jnsgd1na2vs0mg"},{"bike_id":"019a2624-fd73-47d1-83e6-ea7ce57df09e","system_id":"levelo_inurba_marseille","lat":43.29707,"lon":5.37688,"is_reserved":false,"is_disabled":false,"rental_uris":{"android":"levelo://app?vid=019a2624-fd73-47d1-83e6-ea7ce57df09e","ios":"levelo://app?vid=019a2624-fd73-47d1-83e6-ea7ce57df09e"},"vehicle_type_id":"4","last_reported":1761484573,"current_range_meters":19200,"station_id":"ce4bgkh2rcd13ifvqbl0","pricing_plan_id":"cebpf4jnsgd1na2vs0mg"},{"bike_id":"8eda5691-fae3-4546-9279-41af6a461647","system_id":"levelo_inurba_marseille","lat":43.28269,"lon":5.35067,"is_reserved":false,"is_disabled":false,"rental_uris":{"android":"levelo://app?vid=8eda5691-fae3-4546-9279-41af6a461647","ios":"levelo://app?vid=8eda5691-fae3-4546-9279-41af6a461647"},"vehicle_type_id":"4","last_reported":1761484573,"current_range_meters":19200,"station_id":"ce4bhbp2rcd13ifvqerg","pricing_plan_id":"cebpf4jnsgd1na2vs0mg"},{"bike_id":"e9a626e2-92eb-4399-a4ed-09b0b72a3e62","system_id":"levelo_inurba_marseille","lat":43.21187,"lon":5.35065,"is_reserved":false,"is_disabled":false,"rental_uris":{"android":"levelo://app?vid=e9a626e2-92eb-4399-a4ed-09b0b72a3e62","ios":"levelo://app?vid=e9a626e2-92eb-4399-a4ed-09b0b72a3e62"},"vehicle_type_id":"4","last_reported":1761484573,"current_range_meters":19200,"station_id":"st_cvj6sg6p6f1abm77japg","pricing_plan_id":"cebpf4jnsgd1na2vs0mg"},{"bike_id":"b83891d3-7971-45ae-9af3-651a6e6209e2","system_id":"levelo_inurba_marseille","lat":43.231908,"lon":5.355762,"is_reserved":false,"is_disabled":false,"rental_uris":{"android":"levelo://app?vid=b83891d3-7971-45ae-9af3-651a6e6209e2","ios":"levelo://app?vid=b83891d3-7971-45ae-9af3-651a6e6209e2"},"vehicle_type_id":"4","last_reported":1761484573,"current_range_meters":19600,"station_id":"ce4bhu92rcd13ifvqi70","pricing_plan_id":"cebpf4jnsgd1na2vs0mg"},{"bike_id":"fc415666-0eee-42cf-ad7e-559eb9802048","system_id":"levelo_inurba_marseille","lat":43.31097,"lon":5.37487,"is_reserved":false,"is_disabled":false,"rental_uris":{"android":"levelo://app?vid=fc415666-0eee-42cf-ad7e-559eb9802048","ios":"levelo://app?vid=fc415666-0eee-42cf-ad7e-559eb9802048"},"vehicle_type_id":"4","last_reported":1761484573,"current_range_meters":19600,"station_id":"","pricing_plan_id":"cebpf4jnsgd1na2vs0mg"},{"bike_id":"5f2fe5bb-4590-4582-b9b9-e47dcfac7766","system_id":"levelo_inurba_marseille","lat":43.27055,"lon":5.40259,"is_reserved":false,"is_disabled":false,"rental_uris":{"android":"levelo://app?vid=5f2fe5bb-4590-4582-b9b9-e47dcfac7766","ios":"levelo://app?vid=5f2fe5bb-4590-4582-b9b9-e47dcfac7766"},"vehicle_type_id":"4","last_reported":1761484573,"current_range_meters":19600,"station_id":"ce4bhk92rcd13ifvqgc0","pricing_plan_id":"cebpf4jnsgd1na2vs0mg"},{"bike_id":"8991515f-566d-4fed-8c44-89ba6001664a","system_id":"levelo_inurba_marseille","lat":43.2605,"lon":5.39396,"is_reserved":false,"is_disabled":false,"rental_uris":{"android":"levelo://app?vid=8991515f-566d-4fed-8c44-89ba6001664a","ios":"levelo://app?vid=8991515f-566d-4fed-8c44-89ba6001664a"},"vehicle_type_id":"4","last_reported":1761484573,"current_range_meters":19600,"station_id":"ce4bhh92rcd13ifvqfj0","pricing_plan_id":"cebpf4jnsgd1na2vs0mg"},{"bike_id":"93ef566c-0909-48d1-8deb-d11c9c5aea5b","system_id":"levelo_inurba_marseille","lat":43.32358,"lon":5.36733,"is_reserved":false,"is_disabled":false,"rental_uris":{"android":"levelo://app?vid=93ef566c-0909-48d1-8deb-d11c9c5aea5b","ios":"levelo://app?vid=93ef566c-0909-48d1-8deb-d11c9c5aea5b"},"vehicle_type_id":"4","last_reported":1761484573,"current_range_meters":19600,"station_id":"ce4bhsh2rcd13ifvqi2g","pricing_plan_id":"cebpf4jnsgd1na2vs0mg"},{"bike_id":"3cf85983-f9eb-4988-b083-d49e5e6b1c1f","system_id":"levelo_inurba_marseille","lat":43.28703,"lon":5.37392,"is_reserved":false,"is_disabled":false,"rental_uris":{"android":"levelo://app?vid=3cf85983-f9eb-4988-b083-d49e5e6b1c1f","ios":"levelo://app?vid=3cf85983-f9eb-4988-b083-d49e5e6b1c1f"},"vehicle_type_id":"4","last_reported":1761484573,"current_range_meters":19600,"station_id":"ce4bh3p2rcd13ifvqdq0","pricing_plan_id":"cebpf4jnsgd1na2vs0mg"},{"bike_id":"26a33dcf-50de-4561-a5e9-8254886f89ed","system_id":"levelo_inurba_marseille","lat":43.2433,"lon":5.39207,"is_reserved":false,"is_disabled":false,"rental_uris":{"android":"levelo://app?vid=26a33dcf-50de-4561-a5e9-8254886f89ed","ios":"levelo://app?vid=26a33dcf-50de-4561-a5e9-8254886f89ed"},"vehicle_type_id":"4","last_reported":1761484573,"current_range_meters":19600,"station_id":"","pricing_plan_id":"cebpf4jnsgd1na2vs0mg"},{"bike_id":"9d8ebc8c-f00c-42c5-a2de-7f9b8c36d074","system_id":"levelo_inurba_marseille","lat":43.2669,"lon":5.3828,"is_reserved":false,"is_disabled":false,"rental_uris":{"android":"levelo://app?vid=9d8ebc8c-f00c-42c5-a2de-7f9b8c36d074","ios":"levelo://app?vid=9d8ebc8c-f00c-42c5-a2de-7f9b8c36d074"},"vehicle_type_id":"4","last_reported":1761484573,"current_range_meters":19600,"station_id":"ce4bhg92rcd13ifvqf90","pricing_plan_id":"cebpf4jnsgd1na2vs0mg"},{"bike_id":"74440bb7-72c3-4ad8-9dec-9a57ed6d17c9","system_id":"levelo_inurba_marseille","lat":43.323579,"lon":5.388906,"is_reserved":false,"is_disabled":false,"rental_uris":{"android":"levelo://app?vid=74440bb7-72c3-4ad8-9dec-9a57ed6d17c9","ios":"levelo://app?vid=74440bb7-72c3-4ad8-9dec-9a57ed6d17c9"},"vehicle_type_id":"4","last_reported":1761484573,"current_range_meters":19600,"station_id":"ce4bhqp2rcd13ifvqhog","pricing_plan_id":"cebpf4jnsgd1na2vs0mg"},{"bike_id":"fdc43030-5704-454e-ad42-cd94061c06a1","system_id":"levelo_inurba_marseille","lat":43.321004,"lon":5.367704,"is_reserved":false,"is_disabled":false,"rental_uris":{"android":"levelo://app?vid=fdc43030-5704-454e-ad42-cd94061c06a1","ios":"levelo://app?vid=fdc43030-5704-454e-ad42-cd94061c06a1"},"vehicle_type_id":"4","last_reported":1761484573,"current_range_meters":19600,"station_id":"ce4bhrh2rcd13ifvqhug","pricing_plan_id":"cebpf4jnsgd1na2vs0mg"},{"bike_id":"27c98bd7-effc-4b21-8aac-55f8ad6cb942","system_id":"levelo_inurba_marseille","lat":43.28263,"lon":5.35055,"is_reserved":false,"is_disabled":false,"rental_uris":{"android":"levelo://app?vid=27c98bd7-effc-4b21-8aac-55f8ad6cb942","ios":"levelo://app?vid=27c98bd7-effc-4b21-8aac-55f8ad6cb942"},"vehicle_type_id":"4","last_reported":1761484573,"current_range_meters":20000,"station_id":"ce4bhbp2rcd13ifvqerg","pricing_plan_id":"cebpf4jnsgd1na2vs0mg"},{"bike_id":"1a17ca6c-2b9b-4e73-b76d-539b00005301","system_id":"levelo_inurba_marseille","lat":43.243931,"lon":5.370596,"is_reserved":false,"is_disabled":false,"rental_uris":{"android":"levelo://app?vid=1a17ca6c-2b9b-4e73-b76d-539b00005301","ios":"levelo://app?vid=1a17ca6c-2b9b-4e73-b76d-539b00005301"},"vehicle_type_id":"4","last_reported":1761484573,"current_range_meters":20000,"station_id":"ce4bhhh2rcd13ifvqfk0","pricing_plan_id":"cebpf4jnsgd1na2vs0mg"},{"bike_id":"3cf954f8-897c-4098-b7a1-1e4490c2b26a","system_id":"levelo_inurba_marseille","lat":43.25827,"lon":5.39432,"is_reserved":false,"is_disabled":false,"rental_uris":{"android":"levelo://app?vid=3cf954f8-897c-4098-b7a1-1e4490c2b26a","ios":"levelo://app?vid=3cf954f8-897c-4098-b7a1-1e4490c2b26a"},"vehicle_type_id":"4","last_reported":1761484573,"current_range_meters":20000,"station_id":"ce4bhip2rcd13ifvqft0","pricing_plan_id":"cebpf4jnsgd1na2vs0mg"},{"bike_id":"2cb7aaf9-afb8-4bc9-afef-78f63f8d2679","system_id":"levelo_inurba_marseille","lat":43.292929,"lon":5.374491,"is_reserved":false,"is_disabled":false,"rental_uris":{"android":"levelo://app?vid=2cb7aaf9-afb8-4bc9-afef-78f63f8d2679","ios":"levelo://app?vid=2cb7aaf9-afb8-4bc9-afef-78f63f8d2679"},"vehicle_type_id":"4","last_reported":1761484573,"current_range_meters":20000,"station_id":"ce4bgi12rcd13ifvqb70","pricing_plan_id":"cebpf4jnsgd1na2vs0mg"},{"bike_id":"f1875d0f-b239-4abc-ba84-3f75c251c7fb","system_id":"levelo_inurba_marseille","lat":43.25414,"lon":5.3599,"is_reserved":false,"is_disabled":false,"rental_uris":{"android":"levelo://app?vid=f1875d0f-b239-4abc-ba84-3f75c251c7fb","ios":"levelo://app?vid=f1875d0f-b239-4abc-ba84-3f75c251c7fb"},"vehicle_type_id":"4","last_reported":1761484573,"current_range_meters":20000,"station_id":"","pricing_plan_id":"cebpf4jnsgd1na2vs0mg"},{"bike_id":"a3742816-3b43-434e-9db0-9ab9379fa4b3","system_id":"levelo_inurba_marseille","lat":43.27393,"lon":5.3627,"is_reserved":false,"is_disabled":true,"rental_uris":{"android":"levelo://app?vid=a3742816-3b43-434e-9db0-9ab9379fa4b3","ios":"levelo://app?vid=a3742816-3b43-434e-9db0-9ab9379fa4b3"},"vehicle_type_id":"4","last_reported":1761484573,"current_range_meters":20400,"station_id":"ce4bhbh2rcd13ifvqeo0","pricing_plan_id":"cebpf4jnsgd1na2vs0mg"},{"bike_id":"c8a7e962-ee68-4051-8280-c63f1624235b","system_id":"levelo_inurba_marseille","lat":43.21751,"lon":5.34607,"is_reserved":false,"is_disabled":false,"rental_uris":{"android":"levelo://app?vid=c8a7e962-ee68-4051-8280-c63f1624235b","ios":"levelo://app?vid=c8a7e962-ee68-4051-8280-c63f1624235b"},"vehicle_type_id":"4","last_reported":1761484573,"current_range_meters":20400,"station_id":"st_cvj6r9ubvosntc0bgbag","pricing_plan_id":"cebpf4jnsgd1na2vs0mg"},{"bike_id":"2649c927-8f7c-4b1f-a9cc-7a6b261268e1","system_id":"levelo_inurba_marseille","lat":43.28418,"lon":5.35032,"is_reserved":false,"is_disabled":false,"rental_uris":{"android":"levelo://app?vid=2649c927-8f7c-4b1f-a9cc-7a6b261268e1","ios":"levelo://app?vid=2649c927-8f7c-4b1f-a9cc-7a6b261268e1"},"vehicle_type_id":"4","last_reported":1761484573,"current_range_meters":20400,"station_id":"ce4bhbh2rcd13ifvqepg","pricing_plan_id":"cebpf4jnsgd1na2vs0mg"},{"bike_id":"5837d1ef-6ff3-4b6b-9d0b-6fb51011d077","system_id":"levelo_inurba_marseille","lat":43.27435,"lon":5.39406,"is_reserved":false,"is_disabled":true,"rental_uris":{"android":"levelo://app?vid=5837d1ef-6ff3-4b6b-9d0b-6fb51011d077","ios":"levelo://app?vid=5837d1ef-6ff3-4b6b-9d0b-6fb51011d077"},"vehicle_type_id":"4","last_reported":1761484573,"current_range_meters":20400,"station_id":"ce4bhdp2rcd13ifvqf20","pricing_plan_id":"cebpf4jnsgd1na2vs0mg"},{"bike_id":"a3100ff0-76ab-498b-bebf-b9c52f3d2538","system_id":"levelo_inurba_marseille","lat":43.28476,"lon":5.48392,"is_reserved":false,"is_disabled":false,"rental_uris":{"android":"levelo://app?vid=a3100ff0-76ab-498b-bebf-b9c52f3d2538","ios":"levelo://app?vid=a3100ff0-76ab-498b-bebf-b9c52f3d2538"},"vehicle_type_id":"4","last_reported":1761484573,"current_range_meters":20400,"station_id":"","pricing_plan_id":"cebpf4jnsgd1na2vs0mg"},{"bike_id":"2508b611-ebc5-48d6-8412-ab3f25b207c7","system_id":"levelo_inurba_marseille","lat":43.24157,"lon":5.36415,"is_reserved":false,"is_disabled":false,"rental_uris":{"android":"levelo://app?vid=2508b611-ebc5-48d6-8412-ab3f25b207c7","ios":"levelo://app?vid=2508b611-ebc5-48d6-8412-ab3f25b207c7"},"vehicle_type_id":"4","last_reported":1761484573,"current_range_meters":20400,"station_id":"cpo36qri1sfpv3e86is0","pricing_plan_id":"cebpf4jnsgd1na2vs0mg"},{"bike_id":"924c497b-3d4b-407f-b960-f7336e7b46d0","system_id":"levelo_inurba_marseille","lat":43.22555,"lon":5.41642,"is_reserved":false,"is_disabled":false,"rental_uris":{"android":"levelo://app?vid=924c497b-3d4b-407f-b960-f7336e7b46d0","ios":"levelo://app?vid=924c497b-3d4b-407f-b960-f7336e7b46d0"},"vehicle_type_id":"4","last_reported":1761484573,"current_range_meters":20400,"station_id":"st_d2o4gvlbi1j2169b742g","pricing_plan_id":"cebpf4jnsgd1na2vs0mg"},{"bike_id":"21dbf7f2-eb19-4663-b1c0-879822879492","system_id":"levelo_inurba_marseille","lat":43.337619,"lon":5.374425,"is_reserved":false,"is_disabled":false,"rental_uris":{"android":"levelo://app?vid=21dbf7f2-eb19-4663-b1c0-879822879492","ios":"levelo://app?vid=21dbf7f2-eb19-4663-b1c0-879822879492"},"vehicle_type_id":"4","last_reported":1761484573,"current_range_meters":20400,"station_id":"","pricing_plan_id":"cebpf4jnsgd1na2vs0mg"},{"bike_id":"3e511328-7ddb-4a7c-b2bb-07bc0cf49a41","system_id":"levelo_inurba_marseille","lat":43.28409,"lon":5.34999,"is_reserved":false,"is_disabled":false,"rental_uris":{"android":"levelo://app?vid=3e511328-7ddb-4a7c-b2bb-07bc0cf49a41","ios":"levelo://app?vid=3e511328-7ddb-4a7c-b2bb-07bc0cf49a41"},"vehicle_type_id":"4","last_reported":1761484573,"current_range_meters":20800,"station_id":"ce4bhbh2rcd13ifvqepg","pricing_plan_id":"cebpf4jnsgd1na2vs0mg"},{"bike_id":"8f4db126-6522-4e8e-aa27-fbcfd6a36bb1","system_id":"levelo_inurba_marseille","lat":43.22921,"lon":5.35387,"is_reserved":false,"is_disabled":false,"rental_uris":{"android":"levelo://app?vid=8f4db126-6522-4e8e-aa27-fbcfd6a36bb1","ios":"levelo://app?vid=8f4db126-6522-4e8e-aa27-fbcfd6a36bb1"},"vehicle_type_id":"4","last_reported":1761484573,"current_range_meters":20800,"station_id":"cpo3532slgdg3j2ikp40","pricing_plan_id":"cebpf4jnsgd1na2vs0mg"},{"bike_id":"37d435e1-d45d-46a5-a7ea-84b9314a54ae","system_id":"levelo_inurba_marseille","lat":43.24386,"lon":5.37074,"is_reserved":false,"is_disabled":false,"rental_uris":{"android":"levelo://app?vid=37d435e1-d45d-46a5-a7ea-84b9314a54ae","ios":"levelo://app?vid=37d435e1-d45d-46a5-a7ea-84b9314a54ae"},"vehicle_type_id":"4","last_reported":1761484573,"current_range_meters":20800,"station_id":"ce4bhhh2rcd13ifvqfk0","pricing_plan_id":"cebpf4jnsgd1na2vs0mg"},{"bike_id":"bb3d6f43-fe8d-4027-a7f4-02cf8b0450bf","system_id":"levelo_inurba_marseille","lat":43.28845,"lon":5.35858,"is_reserved":false,"is_disabled":true,"rental_uris":{"android":"levelo://app?vid=bb3d6f43-fe8d-4027-a7f4-02cf8b0450bf","ios":"levelo://app?vid=bb3d6f43-fe8d-4027-a7f4-02cf8b0450bf"},"vehicle_type_id":"4","last_reported":1761484573,"current_range_meters":20800,"station_id":"ce4bhb12rcd13ifvqem0","pricing_plan_id":"cebpf4jnsgd1na2vs0mg"},{"bike_id":"d8012be7-2d67-429e-8fe9-23f1d381fd7b","system_id":"levelo_inurba_marseille","lat":43.30302,"lon":5.36899,"is_reserved":false,"is_disabled":false,"rental_uris":{"android":"levelo://app?vid=d8012be7-2d67-429e-8fe9-23f1d381fd7b","ios":"levelo://app?vid=d8012be7-2d67-429e-8fe9-23f1d381fd7b"},"vehicle_type_id":"4","last_reported":1761484573,"current_range_meters":20800,"station_id":"ce4bgqh2rcd13ifvqc5g","pricing_plan_id":"cebpf4jnsgd1na2vs0mg"},{"bike_id":"99f954c5-9fe4-44f0-9935-cc2acafeb896","system_id":"levelo_inurba_marseille","lat":43.23787,"lon":5.36625,"is_reserved":false,"is_disabled":false,"rental_uris":{"android":"levelo://app?vid=99f954c5-9fe4-44f0-9935-cc2acafeb896","ios":"levelo://app?vid=99f954c5-9fe4-44f0-9935-cc2acafeb896"},"vehicle_type_id":"4","last_reported":1761484573,"current_range_meters":20800,"station_id":"st_d3nk18o9ro0c73en2l3g","pricing_plan_id":"cebpf4jnsgd1na2vs0mg"},{"bike_id":"85d89aac-fd8c-43a7-8a86-c4ba84caaeb1","system_id":"levelo_inurba_marseille","lat":43.22563,"lon":5.41623,"is_reserved":false,"is_disabled":false,"rental_uris":{"android":"levelo://app?vid=85d89aac-fd8c-43a7-8a86-c4ba84caaeb1","ios":"levelo://app?vid=85d89aac-fd8c-43a7-8a86-c4ba84caaeb1"},"vehicle_type_id":"4","last_reported":1761484573,"current_range_meters":20800,"station_id":"st_d2o4gvlbi1j2169b742g","pricing_plan_id":"cebpf4jnsgd1na2vs0mg"},{"bike_id":"596e07e5-ee28-4f19-90c1-99ddc246077a","system_id":"levelo_inurba_marseille","lat":43.297615,"lon":5.427843,"is_reserved":false,"is_disabled":false,"rental_uris":{"android":"levelo://app?vid=596e07e5-ee28-4f19-90c1-99ddc246077a","ios":"levelo://app?vid=596e07e5-ee28-4f19-90c1-99ddc246077a"},"vehicle_type_id":"4","last_reported":1761484573,"current_range_meters":20800,"station_id":"st_d3md5207bmas73dh9klg","pricing_plan_id":"cebpf4jnsgd1na2vs0mg"},{"bike_id":"9e3bab18-be07-4364-8ab7-78e0c82dc2a9","system_id":"levelo_inurba_marseille","lat":43.24387,"lon":5.37054,"is_reserved":false,"is_disabled":false,"rental_uris":{"android":"levelo://app?vid=9e3bab18-be07-4364-8ab7-78e0c82dc2a9","ios":"levelo://app?vid=9e3bab18-be07-4364-8ab7-78e0c82dc2a9"},"vehicle_type_id":"4","last_reported":1761484573,"current_range_meters":20800,"station_id":"ce4bhhh2rcd13ifvqfk0","pricing_plan_id":"cebpf4jnsgd1na2vs0mg"},{"bike_id":"ba8a3ea0-ae66-4959-9d52-42ac8d54d114","system_id":"levelo_inurba_marseille","lat":43.27211,"lon":5.39184,"is_reserved":false,"is_disabled":false,"rental_uris":{"android":"levelo://app?vid=ba8a3ea0-ae66-4959-9d52-42ac8d54d114","ios":"levelo://app?vid=ba8a3ea0-ae66-4959-9d52-42ac8d54d114"},"vehicle_type_id":"4","last_reported":1761484573,"current_range_meters":20800,"station_id":"ce4bhhp2rcd13ifvqfm0","pricing_plan_id":"cebpf4jnsgd1na2vs0mg"},{"bike_id":"b689a5bf-875d-4ab1-9212-a71e85899faa","system_id":"levelo_inurba_marseille","lat":43.29762,"lon":5.4278,"is_reserved":false,"is_disabled":false,"rental_uris":{"android":"levelo://app?vid=b689a5bf-875d-4ab1-9212-a71e85899faa","ios":"levelo://app?vid=b689a5bf-875d-4ab1-9212-a71e85899faa"},"vehicle_type_id":"4","last_reported":1761484573,"current_range_meters":21600,"station_id":"st_d3md5207bmas73dh9klg","pricing_plan_id":"cebpf4jnsgd1na2vs0mg"},{"bike_id":"628ab342-7107-40d5-94e1-6304d4a53ed7","system_id":"levelo_inurba_marseille","lat":43.25328,"lon":5.4218,"is_reserved":false,"is_disabled":false,"rental_uris":{"android":"levelo://app?vid=628ab342-7107-40d5-94e1-6304d4a53ed7","ios":"levelo://app?vid=628ab342-7107-40d5-94e1-6304d4a53ed7"},"vehicle_type_id":"4","last_reported":1761484573,"current_range_meters":21600,"station_id":"st_d2m65c5bi1j21697t3ng","pricing_plan_id":"cebpf4jnsgd1na2vs0mg"},{"bike_id":"86899d85-900c-4e31-aca5-e3179484d889","system_id":"levelo_inurba_marseille","lat":43.27828,"lon":5.39202,"is_reserved":false,"is_disabled":false,"rental_uris":{"android":"levelo://app?vid=86899d85-900c-4e31-aca5-e3179484d889","ios":"levelo://app?vid=86899d85-900c-4e31-aca5-e3179484d889"},"vehicle_type_id":"4","last_reported":1761484573,"current_range_meters":21600,"station_id":"ce4bhjp2rcd13ifvqga0","pricing_plan_id":"cebpf4jnsgd1na2vs0mg"},{"bike_id":"7dedefa1-25c6-4a38-8958-1ade319ec23b","system_id":"levelo_inurba_marseille","lat":43.32357,"lon":5.38896,"is_reserved":false,"is_disabled":false,"rental_uris":{"android":"levelo://app?vid=7dedefa1-25c6-4a38-8958-1ade319ec23b","ios":"levelo://app?vid=7dedefa1-25c6-4a38-8958-1ade319ec23b"},"vehicle_type_id":"4","last_reported":1761484573,"current_range_meters":21600,"station_id":"ce4bhqp2rcd13ifvqhog","pricing_plan_id":"cebpf4jnsgd1na2vs0mg"},