{"last_updated":1712077585,"ttl":30,"version":"2.2","data":{"bikes":[{"bike_id":"5816363e-bfea-4b84-ab1f-9d6b3eeea11e","system_id":"levelo_inurba_marseille","lat":43.31341,"lon":5.367098,"is_reserved":false,"is_disabled":false,"rental_uris":{"android":"levelo://app?vid=5816363e-bfea-4b84-ab1f-9d6b3eeea11e","ios":"levelo://app?vid=5816363e-bfea-4b84-ab1f-9d6b3eeea11e"},"vehicle_type_id":"4","last_reported":1712077585,"current_range_meters":17600,"station_id":"ce4bgr92rcd13ifvqc6g","pricing_plan_id":"cebpf4jnsgd1na2vs0mg"},{"bike_id":"6f06c729-cae9-4267-a7fa-00a41576008b","system_id":"levelo_inurba_marseille","lat":43.313391,"lon":5.36706,"is_reserved":false,"is_disabled":false,"rental_uris":{"android":"levelo://app?vid=6f06c729-cae9-4267-a7fa-00a41576008b","ios":"levelo://app?vid=6f06c729-cae9-4267-a7fa-00a41576008b"},"vehicle_type_id":"4","last_reported":1712077585,"current_range_meters":12400,"station_id":"ce4bgr92rcd13ifvqc6g","pricing_plan_id":"cebpf4jnsgd1na2vs0mg"},{"bike_id":"043b926d-586b-438a-a438-891ba263d131","system_id":"levelo_inurba_marseille","lat":43.312239,"lon":5.368562,"is_reserved":false,"is_disabled":false,"rental_uris":{"android":"levelo://app?vid=043b926d-586b-438a-a438-891ba263d131","ios":"levelo://app?vid=043b926d-586b-438a-a438-891ba263d131"},"vehicle_type_id":"4","last_reported":1712077585,"current_range_meters":24000,"station_id":"ce4bgl92rcd13ifvqbq0","pricing_plan_id":"cebpf4jnsgd1na2vs0mg"},{"bike_id":"1448b365-0761-4e1b-b08f-54d0e8277e57","system_id":"levelo_inurba_marseille","lat":43.312239,"lon":5.368562,"is_reserved":false,"is_disabled":false,"rental_uris":{"android":"levelo://app?vid=1448b365-0761-4e1b-b08f-54d0e8277e57","ios":"levelo://app?vid=1448b365-0761-4e1b-b08f-54d0e8277e57"},"vehicle_type_id":"4","last_reported":1712077585,"current_range_meters":2000,"station_id":"ce4bgl92rcd13ifvqbq0","pricing_plan_id":"cebpf4jnsgd1na2vs0mg"},{"bike_id":"0f51a0b4-9e7f-4648-8c92-8b149096933f","system_id":"levelo_inurba_marseille","lat":43.31209,"lon":5.37015,"is_reserved":false,"is_disabled":false,"rental_uris":{"android":"levelo://app?vid=0f51a0b4-9e7f-4648-8c92-8b149096933f","ios":"levelo://app?vid=0f51a0b4-9e7f-4648-8c92-8b149096933f"},"vehicle_type_id":"4","last_reported":1712077585,"current_range_meters":0,"station_id":"","pricing_plan_id":"cebpf4jnsgd1na2vs0mg"},{"bike_id":"27c142f2-d4e3-45e2-9d67-cc2b38eac608","system_id":"levelo_inurba_marseille","lat":43.314811,"lon":5.373103,"is_reserved":false,"is_disabled":false,"rental_uris":{"android":"levelo://app?vid=27c142f2-d4e3-45e2-9d67-cc2b38eac608","ios":"levelo://app?vid=27c142f2-d4e3-45e2-9d67-cc2b38eac608"},"vehicle_type_id":"4","last_reported":1712077585,"current_range_meters":3600,"station_id":"ce4bgt12rcd13ifvqcd0","pricing_plan_id":"cebpf4jnsgd1na2vs0mg"},{"bike_id":"a4734c36-538d-475c-9315-8a731d67fdd8","system_id":"levelo_inurba_marseille","lat":43.31498,"lon":5.37307,"is_reserved":false,"is_disabled":false,"rental_uris":{"android":"levelo://app?vid=a4734c36-538d-475c-9315-8a731d67fdd8","ios":"levelo://app?vid=a4734c36-538d-475c-9315-8a731d67fdd8"},"vehicle_type_id":"4","last_reported":1712077585,"current_range_meters":24400,"station_id":"ce4bgt12rcd13ifvqcd0","pricing_plan_id":"cebpf4jnsgd1na2vs0mg"},{"bike_id":"65df1c92-3628-488b-bae0-cd01e7848f67","system_id":"levelo_inurba_marseille","lat":43.315,"lon":5.37306,"is_reserved":false,"is_disabled":false,"rental_uris":{"android":"levelo://app?vid=65df1c92-3628-488b-bae0-cd01e7848f67","ios":"levelo://app?vid=65df1c92-3628-488b-bae0-cd01e7848f67"},"vehicle_type_id":"4","last_reported":1712077585,"current_range_meters":25200,"station_id":"ce4bgt12rcd13ifvqcd0","pricing_plan_id":"cebpf4jnsgd1na2vs0mg"},{"bike_id":"8ff4b42d-53bf-442f-96c1-2ebac7ea41b1","system_id":"levelo_inurba_marseille","lat":43.31676,"lon":5.37479,"is_reserved":false,"is_disabled":false,"rental_uris":{"android":"levelo://app?vid=8ff4b42d-53bf-442f-96c1-2ebac7ea41b1","ios":"levelo://app?vid=8ff4b42d-53bf-442f-96c1-2ebac7ea41b1"},"vehicle_type_id":"4","last_reported":1712077585,"current_range_meters":26400,"station_id":"","pricing_plan_id":"cebpf4jnsgd1na2vs0mg"},{"bike_id":"a7241513-d978-408e-ad60-b1919c2346b7","system_id":"levelo_inurba_marseille","lat":43.305712,"lon":5.365641,"is_reserved":false,"is_disabled":false,"rental_uris":{"android":"levelo://app?vid=a7241513-d978-408e-ad60-b1919c2346b7","ios":"levelo://app?vid=a7241513-d978-408e-ad60-b1919c2346b7"},"vehicle_type_id":"4","last_reported":1712077585,"current_range_meters":1200,"station_id":"ce4bgs12rcd13ifvqcag","pricing_plan_id":"cebpf4jnsgd1na2vs0mg"},{"bike_id":"dbac2c0a-fa07-41c8-93d3-c2b403b91e47","system_id":"levelo_inurba_marseille","lat":43.30595,"lon":5.37224,"is_reserved":false,"is_disabled":false,"rental_uris":{"android":"levelo://app?vid=dbac2c0a-fa07-41c8-93d3-c2b403b91e47","ios":"levelo://app?vid=dbac2c0a-fa07-41c8-93d3-c2b403b91e47"},"vehicle_type_id":"4","last_reported":1712077585,"current_range_meters":0,"station_id":"ce4bgqh2rcd13ifvqc4g","pricing_plan_id":"cebpf4jnsgd1na2vs0mg"},{"bike_id":"c573b6ee-cbb0-4c64-8b0d-fd2ee695e614","system_id":"levelo_inurba_marseille","lat":43.311131,"lon":5.377651,"is_reserved":false,"is_disabled":false,"rental_uris":{"android":"levelo://app?vid=c573b6ee-cbb0-4c64-8b0d-fd2ee695e614","ios":"levelo://app?vid=c573b6ee-cbb0-4c64-8b0d-fd2ee695e614"},"vehicle_type_id":"4","last_reported":1712077585,"current_range_meters":0,"station_id":"ce4bgt92rcd13ifvqcg0","pricing_plan_id":"cebpf4jnsgd1na2vs0mg"},{"bike_id":"50abf9f7-c387-4c3a-8504-db0f3c1963dc","system_id":"levelo_inurba_marseille","lat":43.311205,"lon":5.377705,"is_reserved":false,"is_disabled":false,"rental_uris":{"android":"levelo://app?vid=50abf9f7-c387-4c3a-8504-db0f3c1963dc","ios":"levelo://app?vid=50abf9f7-c387-4c3a-8504-db0f3c1963dc"},"vehicle_type_id":"4","last_reported":1712077585,"current_range_meters":17200,"station_id":"ce4bgt92rcd13ifvqcg0","pricing_plan_id":"cebpf4jnsgd1na2vs0mg"},{"bike_id":"6babfb9d-b3b2-4e46-be9b-afc72633cd5e","system_id":"levelo_inurba_marseille","lat":43.307945,"lon":5.376487,"is_reserved":false,"is_disabled":false,"rental_uris":{"android":"levelo://app?vid=6babfb9d-b3b2-4e46-be9b-afc72633cd5e","ios":"levelo://app?vid=6babfb9d-b3b2-4e46-be9b-afc72633cd5e"},"vehicle_type_id":"4","last_reported":1712077585,"current_range_meters":2400,"station_id":"ce4bgv92rcd13ifvqcq0","pricing_plan_id":"cebpf4jnsgd1na2vs0mg"},{"bike_id":"b210bf74-a57b-45a8-9943-bb0315e9ff6a","system_id":"levelo_inurba_marseille","lat":43.307945,"lon":5.376487,"is_reserved":false,"is_disabled":false,"rental_uris":{"android":"levelo://app?vid=b210bf74-a57b-45a8-9943-bb0315e9ff6a","ios":"levelo://app?vid=b210bf74-a57b-45a8-9943-bb0315e9ff6a"},"vehicle_type_id":"4","last_reported":1712077585,"current_range_meters":400,"station_id":"ce4bgv92rcd13ifvqcq0","pricing_plan_id":"cebpf4jnsgd1na2vs0mg"},{"bike_id":"16c3fc23-aba5-4b08-81a5-88daf15cc5b6","system_id":"levelo_inurba_marseille","lat":43.30786,"lon":5.37653,"is_reserved":false,"is_disabled":false,"rental_uris":{"android":"levelo://app?vid=16c3fc23-aba5-4b08-81a5-88daf15cc5b6","ios":"levelo://app?vid=16c3fc23-aba5-4b08-81a5-88daf15cc5b6"},"vehicle_type_id":"4","last_reported":1712077585,"current_range_meters":0,"station_id":"ce4bgv92rcd13ifvqcq0","pricing_plan_id":"cebpf4jnsgd1na2vs0mg"},{"bike_id":"bcbb8011-75a8-4669-913e-297e59694985","system_id":"levelo_inurba_marseille","lat":43.31081,"lon":5.37838,"is_reserved":false,"is_disabled":false,"rental_uris":{"android":"levelo://app?vid=bcbb8011-75a8-4669-913e-297e59694985","ios":"levelo://app?vid=bcbb8011-75a8-4669-913e-297e59694985"},"vehicle_type_id":"4","last_reported":1712077585,"current_range_meters":25200,"station_id":"","pricing_plan_id":"cebpf4jnsgd1na2vs0mg"},{"bike_id":"ceba887b-7a20-458c-baab-11ce1172ace6","system_id":"levelo_inurba_marseille","lat":43.317075,"lon":5.377367,"is_reserved":false,"is_disabled":false,"rental_uris":{"android":"levelo://app?vid=ceba887b-7a20-458c-baab-11ce1172ace6","ios":"levelo://app?vid=ceba887b-7a20-458c-baab-11ce1172ace6"},"vehicle_type_id":"4","last_reported":1712077585,"current_range_meters":9600,"station_id":"ce4bgth2rcd13ifvqch0","pricing_plan_id":"cebpf4jnsgd1na2vs0mg"},{"bike_id":"bbfed310-f5ca-41c8-bf3a-f83cd6959697","system_id":"levelo_inurba_marseille","lat":43.313254,"lon":5.37881,"is_reserved":false,"is_disabled":false,"rental_uris":{"android":"levelo://app?vid=bbfed310-f5ca-41c8-bf3a-f83cd6959697","ios":"levelo://app?vid=bbfed310-f5ca-41c8-bf3a-f83cd6959697"},"vehicle_type_id":"4","last_reported":1712077585,"current_range_meters":16000,"station_id":"","pricing_plan_id":"cebpf4jnsgd1na2vs0mg"},{"bike_id":"b4c79772-15a7-4a86-a5de-b813496792e8","system_id":"levelo_inurba_marseille","lat":43.317075,"lon":5.377367,"is_reserved":false,"is_disabled":false,"rental_uris":{"android":"levelo://app?vid=b4c79772-15a7-4a86-a5de-b813496792e8","ios":"levelo://app?vid=b4c79772-15a7-4a86-a5de-b813496792e8"},"vehicle_type_id":"4","last_reported":1712077585,"current_range_meters":12400,"station_id":"ce4bgth2rcd13ifvqch0","pricing_plan_id":"cebpf4jnsgd1na2vs0mg"},{"bike_id":"b2565e2b-bf64-4d7e-be18-dd8c182a83d1","system_id":"levelo_inurba_marseille","lat":43.30307,"lon":5.36894,"is_reserved":false,"is_disabled":false,"rental_uris":{"android":"levelo://app?vid=b2565e2b-bf64-4d7e-be18-dd8c182a83d1","ios":"levelo://app?vid=b2565e2b-bf64-4d7e-be18-dd8c182a83d1"},"vehicle_type_id":"4","last_reported":1712077585,"current_range_meters":0,"station_id":"ce4bgqh2rcd13ifvqc5g","pricing_plan_id":"cebpf4jnsgd1na2vs0mg"},{"bike_id":"aa19af23-de95-4fbc-95fe-543a08b7d805","system_id":"levelo_inurba_marseille","lat":43.317075,"lon":5.377367,"is_reserved":false,"is_disabled":false,"rental_uris":{"android":"levelo://app?vid=aa19af23-de95-4fbc-95fe-543a08b7d805","ios":"levelo://app?vid=aa19af23-de95-4fbc-95fe-543a08b7d805"},"vehicle_type_id":"4","last_reported":1712077585,"current_range_meters":23600,"station_id":"ce4bgth2rcd13ifvqch0","pricing_plan_id":"cebpf4jnsgd1na2vs0mg"},{"bike_id":"c8a90013-c0b3-4983-a1bd-7b5d8981e5c9","system_id":"levelo_inurba_marseille","lat":43.30301,"lon":5.36902,"is_reserved":false,"is_disabled":false,"rental_uris":{"android":"levelo://app?vid=c8a90013-c0b3-4983-a1bd-7b5d8981e5c9","ios":"levelo://app?vid=c8a90013-c0b3-4983-a1bd-7b5d8981e5c9"},"vehicle_type_id":"4","last_reported":1712077585,"current_range_meters":0,"station_id":"ce4bgqh2rcd13ifvqc5g","pricing_plan_id":"cebpf4jnsgd1na2vs0mg"},{"bike_id":"7ac03c25-a697-41af-b613-735eb711e491","system_id":"levelo_inurba_marseille","lat":43.301939,"lon":5.366286,"is_reserved":false,"is_disabled":false,"rental_uris":{"android":"levelo://app?vid=7ac03c25-a697-41af-b613-735eb711e491","ios":"levelo://app?vid=7ac03c25-a697-41af-b613-735eb711e491"},"vehicle_type_id":"4","last_reported":1712077585,"current_range_meters":26400,"station_id":"ce4bgrh2rcd13ifvqc8g","pricing_plan_id":"cebpf4jnsgd1na2vs0mg"},{"bike_id":"13ccf061-ae0d-4580-b6ef-432f090c7d6d","system_id":"levelo_inurba_marseille","lat":43.315289,"lon":5.380349,"is_reserved":false,"is_disabled":false,"rental_uris":{"android":"levelo://app?vid=13ccf061-ae0d-4580-b6ef-432f090c7d6d","ios":"levelo://app?vid=13ccf061-ae0d-4580-b6ef-432f090c7d6d"},"vehicle_type_id":"4","last_reported":1712077585,"current_range_meters":10800,"station_id":"ce4bhsp2rcd13ifvqi50","pricing_plan_id":"cebpf4jnsgd1na2vs0mg"},{"bike_id":"fe9e76ac-b153-44bf-b970-2ede499fefff","system_id":"levelo_inurba_marseille","lat":43.315293,"lon":5.380349,"is_reserved":false,"is_disabled":false,"rental_uris":{"android":"levelo://app?vid=fe9e76ac-b153-44bf-b970-2ede499fefff","ios":"levelo://app?vid=fe9e76ac-b153-44bf-b970-2ede499fefff"},"vehicle_type_id":"4","last_reported":1712077585,"current_range_meters":0,"station_id":"ce4bhsp2rcd13ifvqi50","pricing_plan_id":"cebpf4jnsgd1na2vs0mg"},{"bike_id":"7f4e3c3b-ccdd-4768-b56c-e9314864c6fa","system_id":"levelo_inurba_marseille","lat":43.315293,"lon":5.380349,"is_reserved":false,"is_disabled":false,"rental_uris":{"android":"levelo://app?vid=7f4e3c3b-ccdd-4768-b56c-e9314864c6fa","ios":"levelo://app?vid=7f4e3c3b-ccdd-4768-b56c-e9314864c6fa"},"vehicle_type_id":"4","last_reported":1712077585,"current_range_meters":31200,"station_id":"ce4bhsp2rcd13ifvqi50","pricing_plan_id":"cebpf4jnsgd1na2vs0mg"},{"bike_id":"1179b424-e642-4cc9-8eef-6573e93ba9dd","system_id":"levelo_inurba_marseille","lat":43.302957,"lon":5.372327,"is_reserved":false,"is_disabled":false,"rental_uris":{"android":"levelo://app?vid=1179b424-e642-4cc9-8eef-6573e93ba9dd","ios":"levelo://app?vid=1179b424-e642-4cc9-8eef-6573e93ba9dd"},"vehicle_type_id":"4","last_reported":1712077585,"current_range_meters":10800,"station_id":"","pricing_plan_id":"cebpf4jnsgd1na2vs0mg"},{"bike_id":"b9f99a98-4a5f-46a8-9286-10bb4b4d0416","system_id":"levelo_inurba_marseille","lat":43.292311,"lon":5.360731,"is_reserved":false,"is_disabled":false,"rental_uris":{"android":"levelo://app?vid=b9f99a98-4a5f-46a8-9286-10bb4b4d0416","ios":"levelo://app?vid=b9f99a98-4a5f-46a8-9286-10bb4b4d0416"},"vehicle_type_id":"4","last_reported":1712077585,"current_range_meters":17200,"station_id":"ce4bhbh2rcd13ifvqeqg","pricing_plan_id":"cebpf4jnsgd1na2vs0mg"},{"bike_id":"ed47b871-243e-47f9-b7ae-7a38f79e677b","system_id":"levelo_inurba_marseille","lat":43.301939,"lon":5.366286,"is_reserved":false,"is_disabled":false,"rental_uris":{"android":"levelo://app?vid=ed47b871-243e-47f9-b7ae-7a38f79e677b","ios":"levelo://app?vid=ed47b871-243e-47f9-b7ae-7a38f79e677b"},"vehicle_type_id":"4","last_reported":1712077585,"current_range_meters":14800,"station_id":"ce4bgrh2rcd13ifvqc8g","pricing_plan_id":"cebpf4jnsgd1na2vs0mg"},{"bike_id":"ce5e4b9c-9850-47b7-9958-d84d142f59cf","system_id":"levelo_inurba_marseille","lat":43.323519,"lon":5.365296,"is_reserved":false,"is_disabled":false,"rental_uris":{"android":"levelo://app?vid=ce5e4b9c-9850-47b7-9958-d84d142f59cf","ios":"levelo://app?vid=ce5e4b9c-9850-47b7-9958-d84d142f59cf"},"vehicle_type_id":"4","last_reported":1712077585,"current_range_meters":0,"station_id":"","pricing_plan_id":"cebpf4jnsgd1na2vs0mg"},{"bike_id":"d5ca5c68-e73c-4055-be44-b1d1b980bd9f","system_id":"levelo_inurba_marseille","lat":43.301939,"lon":5.366286,"is_reserved":false,"is_disabled":false,"rental_uris":{"android":"levelo://app?vid=d5ca5c68-e73c-4055-be44-b1d1b980bd9f","ios":"levelo://app?vid=d5ca5c68-e73c-4055-be44-b1d1b980bd9f"},"vehicle_type_id":"4","last_reported":1712077585,"current_range_meters":6000,"station_id":"ce4bgrh2rcd13ifvqc8g","pricing_plan_id":"cebpf4jnsgd1na2vs0mg"},{"bike_id":"7566cced-9477-46fd-8652-2846e1df1d57","system_id":"levelo_inurba_marseille","lat":43.308012,"lon":5.381511,"is_reserved":false,"is_disabled":false,"rental_uris":{"android":"levelo://app?vid=7566cced-9477-46fd-8652-2846e1df1d57","ios":"levelo://app?vid=7566cced-9477-46fd-8652-2846e1df1d57"},"vehicle_type_id":"4","last_reported":1712077585,"current_range_meters":17600,"station_id":"ce4bgt12rcd13ifvqce0","pricing_plan_id":"cebpf4jnsgd1na2vs0mg"},{"bike_id":"23d67e3d-2eb4-4afa-8d00-778817d4d23d","system_id":"levelo_inurba_marseille","lat":43.308012,"lon":5.381511,"is_reserved":false,"is_disabled":false,"rental_uris":{"android":"levelo://app?vid=23d67e3d-2eb4-4afa-8d00-778817d4d23d","ios":"levelo://app?vid=23d67e3d-2eb4-4afa-8d00-778817d4d23d"},"vehicle_type_id":"4","last_reported":1712077585,"current_range_meters":7600,"station_id":"ce4bgt12rcd13ifvqce0","pricing_plan_id":"cebpf4jnsgd1na2vs0mg"},{"bike_id":"94d790bf-bc7b-4d5c-8cbb-cb3c5e4469ff","system_id":"levelo_inurba_marseille","lat":43.30498,"lon":5.37897,"is_reserved":false,"is_disabled":false,"rental_uris":{"android":"levelo://app?vid=94d790bf-bc7b-4d5c-8cbb-cb3c5e4469ff","ios":"levelo://app?vid=94d790bf-bc7b-4d5c-8cbb-cb3c5e4469ff"},"vehicle_type_id":"4","last_reported":1712077585,"current_range_meters":12800,"station_id":"ce4bgup2rcd13ifvqcn0","pricing_plan_id":"cebpf4jnsgd1na2vs0mg"},{"bike_id":"af0246ea-8eba-4fd0-9f75-c67773edfbaf","system_id":"levelo_inurba_marseille","lat":43.304606,"lon":5.379026,"is_reserved":false,"is_disabled":false,"rental_uris":{"android":"levelo://app?vid=af0246ea-8eba-4fd0-9f75-c67773edfbaf","ios":"levelo://app?vid=af0246ea-8eba-4fd0-9f75-c67773edfbaf"},"vehicle_type_id":"4","last_reported":1712077585,"current_range_meters":0,"station_id":"ce4bgup2rcd13ifvqcn0","pricing_plan_id":"cebpf4jnsgd1na2vs0mg"},{"bike_id":"e610abe7-c836-4294-8fa6-9cd4b8018ddd","system_id":"levelo_inurba_marseille","lat":43.304606,"lon":5.379026,"is_reserved":false,"is_disabled":false,"rental_uris":{"android":"levelo://app?vid=e610abe7-c836-4294-8fa6-9cd4b8018ddd","ios":"levelo://app?vid=e610abe7-c836-4294-8fa6-9cd4b8018ddd"},"vehicle_type_id":"4","last_reported":1712077585,"current_range_meters":0,"station_id":"ce4bgup2rcd13ifvqcn0","pricing_plan_id":"cebpf4jnsgd1na2vs0mg"},{"bike_id":"fda266fe-93ec-48aa-970d-59ae0834bb5a","system_id":"levelo_inurba_marseille","lat":43.322872,"lon":5.382756,"is_reserved":false,"is_disabled":false,"rental_uris":{"android":"levelo://app?vid=fda266fe-93ec-48aa-970d-59ae0834bb5a","ios":"levelo://app?vid=fda266fe-93ec-48aa-970d-59ae0834bb5a"},"vehicle_type_id":"4","last_reported":1712077585,"current_range_meters":14000,"station_id":"ce4bhr12rcd13ifvqhqg","pricing_plan_id":"cebpf4jnsgd1na2vs0mg"},{"bike_id":"98972a58-297f-4242-8310-6e5d5c68557e","system_id":"levelo_inurba_marseille","lat":43.304606,"lon":5.379026,"is_reserved":false,"is_disabled":false,"rental_uris":{"android":"levelo://app?vid=98972a58-297f-4242-8310-6e5d5c68557e","ios":"levelo://app?vid=98972a58-297f-4242-8310-6e5d5c68557e"},"vehicle_type_id":"4","last_reported":1712077585,"current_range_meters":0,"station_id":"ce4bgup2rcd13ifvqcn0","pricing_plan_id":"cebpf4jnsgd1na2vs0mg"},{"bike_id":"70a7d68c-9186-4691-8902-c6ca81a6d853","system_id":"levelo_inurba_marseille","lat":43.324771,"lon":5.36557,"is_reserved":false,"is_disabled":false,"rental_uris":{"android":"levelo://app?vid=70a7d68c-9186-4691-8902-c6ca81a6d853","ios":"levelo://app?vid=70a7d68c-9186-4691-8902-c6ca81a6d853"},"vehicle_type_id":"4","last_reported":1712077585,"current_range_meters":16400,"station_id":"ce4bhs12rcd13ifvqhvg","pricing_plan_id":"cebpf4jnsgd1na2vs0mg"},{"bike_id":"5ba7fcb4-dac2-42b9-adce-d152a348f68f","system_id":"levelo_inurba_marseille","lat":43.324771,"lon":5.36557,"is_reserved":false,"is_disabled":false,"rental_uris":{"android":"levelo://app?vid=5ba7fcb4-dac2-42b9-adce-d152a348f68f","ios":"levelo://app?vid=5ba7fcb4-dac2-42b9-adce-d152a348f68f"},"vehicle_type_id":"4","last_reported":1712077585,"current_range_meters":24000,"station_id":"ce4bhs12rcd13ifvqhvg","pricing_plan_id":"cebpf4jnsgd1na2vs0mg"},{"bike_id":"5169cbe8-075b-4bf8-b26b-9f69982223ca","system_id":"levelo_inurba_marseille","lat":43.324771,"lon":5.36557,"is_reserved":false,"is_disabled":false,"rental_uris":{"android":"levelo://app?vid=5169cbe8-075b-4bf8-b26b-9f69982223ca","ios":"levelo://app?vid=5169cbe8-075b-4bf8-b26b-9f69982223ca"},"vehicle_type_id":"4","last_reported":1712077585,"current_range_meters":7600,"station_id":"ce4bhs12rcd13ifvqhvg","pricing_plan_id":"cebpf4jnsgd1na2vs0mg"},{"bike_id":"06d35941-25c5-4dc2-b3b3-b8d456e10b46","system_id":"levelo_inurba_marseille","lat":43.324771,"lon":5.36557,"is_reserved":false,"is_disabled":false,"rental_uris":{"android":"levelo://app?vid=06d35941-25c5-4dc2-b3b3-b8d456e10b46","ios":"levelo://app?vid=06d35941-25c5-4dc2-b3b3-b8d456e10b46"},"vehicle_type_id":"4","last_reported":1712077585,"current_range_meters":9200,"station_id":"ce4bhs12rcd13ifvqhvg","pricing_plan_id":"cebpf4jnsgd1na2vs0mg"},{"bike_id":"5eadb6e8-1ca1-4c06-9849-de0f8a589a69","system_id":"levelo_inurba_marseille","lat":43.324815,"lon":5.365755,"is_reserved":false,"is_disabled":false,"rental_uris":{"android":"levelo://app?vid=5eadb6e8-1ca1-4c06-9849-de0f8a589a69","ios":"levelo://app?vid=5eadb6e8-1ca1-4c06-9849-de0f8a589a69"},"vehicle_type_id":"4","last_reported":1712077585,"current_range_meters":0,"station_id":"ce4bhs12rcd13ifvqhvg","pricing_plan_id":"cebpf4jnsgd1na2vs0mg"},{"bike_id":"401bc7b5-9ce9-443b-a290-c2f943b6888e","system_id":"levelo_inurba_marseille","lat":43.324771,"lon":5.36557,"is_reserved":false,"is_disabled":false,"rental_uris":{"android":"levelo://app?vid=401bc7b5-9ce9-443b-a290-c2f943b6888e","ios":"levelo://app?vid=401bc7b5-9ce9-443b-a290-c2f943b6888e"},"vehicle_type_id":"4","last_reported":1712077585,"current_range_meters":20400,"station_id":"ce4bhs12rcd13ifvqhvg","pricing_plan_id":"cebpf4jnsgd1na2vs0mg"},{"bike_id":"0a26af90-7fac-4d66-a660-bf7294f59a96","system_id":"levelo_inurba_marseille","lat":43.324825,"lon":5.365727,"is_reserved":false,"is_disabled":false,"rental_uris":{"android":"levelo://app?vid=0a26af90-7fac-4d66-a660-bf7294f59a96","ios":"levelo://app?vid=0a26af90-7fac-4d66-a660-bf7294f59a96"},"vehicle_type_id":"4","last_reported":1712077585,"current_range_meters":27600,"station_id":"ce4bhs12rcd13ifvqhvg","pricing_plan_id":"cebpf4jnsgd1na2vs0mg"},{"bike_id":"cdbf7076-7e1c-4277-9d57-17692054ed98","system_id":"levelo_inurba_marseille","lat":43.324829,"lon":5.365789,"is_reserved":false,"is_disabled":false,"rental_uris":{"android":"levelo://app?vid=cdbf7076-7e1c-4277-9d57-17692054ed98","ios":"levelo://app?vid=cdbf7076-7e1c-4277-9d57-17692054ed98"},"vehicle_type_id":"4","last_reported":1712077585,"current_range_meters":22000,"station_id":"ce4bhs12rcd13ifvqhvg","pricing_plan_id":"cebpf4jnsgd1na2vs0mg"},{"bike_id":"8379505a-b10f-401a-beb1-5671c297c8a4","system_id":"levelo_inurba_marseille","lat":43.32486,"lon":5.36579,"is_reserved":false,"is_disabled":false,"rental_uris":{"android":"levelo://app?vid=8379505a-b10f-401a-beb1-5671c297c8a4","ios":"levelo://app?vid=8379505a-b10f-401a-beb1-5671c297c8a4"},"vehicle_type_id":"4","last_reported":1712077585,"current_range_meters":22000,"station_id":"ce4bhs12rcd13ifvqhvg","pricing_plan_id":"cebpf4jnsgd1na2vs0mg"},{"bike_id":"eb7211ce-a779-4eee-ac25-b38a59c1809f","system_id":"levelo_inurba_marseille","lat":43.310804,"lon":5.38359,"is_reserved":false,"is_disabled":false,"rental_uris":{"android":"levelo://app?vid=eb7211ce-a779-4eee-ac25-b38a59c1809f","ios":"levelo://app?vid=eb7211ce-a779-4eee-ac25-b38a59c1809f"},"vehicle_type_id":"4","last_reported":1712077585,"current_range_meters":7200,"station_id":"ce4bgv92rcd13ifvqcr0","pricing_plan_id":"cebpf4jnsgd1na2vs0mg"},{"bike_id":"2230467c-c185-413d-b528-b009cc8541bb","system_id":"levelo_inurba_marseille","lat":43.301429,"lon":5.37413,"is_reserved":false,"is_disabled":false,"rental_uris":{"android":"levelo://app?vid=2230467c-c185-413d-b528-b009cc8541bb","ios":"levelo://app?vid=2230467c-c185-413d-b528-b009cc8541bb"},"vehicle_type_id":"4","last_reported":1712077585,"current_range_meters":0,"station_id":"ce4bgs92rcd13ifvqcc0","pricing_plan_id":"cebpf4jnsgd1na2vs0mg"},{"bike_id":"67ea23c8-1c69-4f02-9d98-1f5fb72cf589","system_id":"levelo_inurba_marseille","lat":43.319935,"lon":5.381699,"is_reserved":false,"is_disabled":false,"rental_uris":{"android":"levelo://app?vid=67ea23c8-1c69-4f02-9d98-1f5fb72cf589","ios":"levelo://app?vid=67ea23c8-1c69-4f02-9d98-1f5fb72cf589"},"vehicle_type_id":"4","last_reported":1712077585,"current_range_meters":27600,"station_id":"ce4bhr12rcd13ifvqhpg","pricing_plan_id":"cebpf4jnsgd1na2vs0mg"},{"bike_id":"a9f09da4-0d9d-4a3e-a365-5c809023081c","system_id":"levelo_inurba_marseille","lat":43.276179,"lon":5.361009,"is_reserved":false,"is_disabled":false,"rental_uris":{"android":"levelo://app?vid=a9f09da4-0d9d-4a3e-a365-5c809023081c","ios":"levelo://app?vid=a9f09da4-0d9d-4a3e-a365-5c809023081c"},"vehicle_type_id":"4","last_reported":1712077585,"current_range_meters":4000,"station_id":"ce4bgj92rcd13ifvqbe0","pricing_plan_id":"cebpf4jnsgd1na2vs0mg"},{"bike_id":"7b12b26d-44a5-4d25-9d41-3c600a9881a7","system_id":"levelo_inurba_marseille","lat":43.301429,"lon":5.37413,"is_reserved":false,"is_disabled":false,"rental_uris":{"android":"levelo://app?vid=7b12b26d-44a5-4d25-9d41-3c600a9881a7","ios":"levelo://app?vid=7b12b26d-44a5-4d25-9d41-3c600a9881a7"},"vehicle_type_id":"4","last_reported":1712077585,"current_range_meters":24800,"station_id":"ce4bgs92rcd13ifvqcc0","pricing_plan_id":"cebpf4jnsgd1na2vs0mg"},{"bike_id":"c649632b-c356-4334-a633-36a582d86ecc","system_id":"levelo_inurba_marseille","lat":43.319935,"lon":5.381699,"is_reserved":false,"is_disabled":false,"rental_uris":{"android":"levelo://app?vid=c649632b-c356-4334-a633-36a582d86ecc","ios":"levelo://app?vid=c649632b-c356-4334-a633-36a582d86ecc"},"vehicle_type_id":"4","last_reported":1712077585,"current_range_meters":0,"station_id":"ce4bhr12rcd13ifvqhpg","pricing_plan_id":"cebpf4jnsgd1na2vs0mg"},{"bike_id":"0d6f945e-7770-4337-8703-1ba27d7c88d5","system_id":"levelo_inurba_marseille","lat":43.319935,"lon":5.381699,"is_reserved":false,"is_disabled":false,"rental_uris":{"android":"levelo://app?vid=0d6f945e-7770-4337-8703-1ba27d7c88d5","ios":"levelo://app?vid=0d6f945e-7770-4337-8703-1ba27d7c88d5"},"vehicle_type_id":"4","last_reported":1712077585,"current_range_meters":19600,"station_id":"ce4bhr12rcd13ifvqhpg","pricing_plan_id":"cebpf4jnsgd1na2vs0mg"},{"bike_id":"23aae6e8-c2b2-4169-af11-303fd8701769","system_id":"levelo_inurba_marseille","lat":43.319935,"lon":5.381699,"is_reserved":false,"is_disabled":false,"rental_uris":{"android":"levelo://app?vid=23aae6e8-c2b2-4169-af11-303fd8701769","ios":"levelo://app?vid=23aae6e8-c2b2-4169-af11-303fd8701769"},"vehicle_type_id":"4","last_reported":1712077585,"current_range_meters":18000,"station_id":"ce4bhr12rcd13ifvqhpg","pricing_plan_id":"cebpf4jnsgd1na2vs0mg"},{"bike_id":"90967822-0d01-4979-ab6f-bdd1bbae9452","system_id":"levelo_inurba_marseille","lat":43.319935,"lon":5.381699,"is_reserved":false,"is_disabled":false,"rental_uris":{"android":"levelo://app?vid=90967822-0d01-4979-ab6f-bdd1bbae9452","ios":"levelo://app?vid=90967822-0d01-4979-ab6f-bdd1bbae9452"},"vehicle_type_id":"4","last_reported":1712077585,"current_range_meters":2800,"station_id":"ce4bhr12rcd13ifvqhpg","pricing_plan_id":"cebpf4jnsgd1na2vs0mg"},{"bike_id":"3f09dcd5-9771-474b-919f-94b1480626d2","system_id":"levelo_inurba_marseille","lat":43.319935,"lon":5.381699,"is_reserved":false,"is_disabled":false,"rental_uris":{"android":"levelo://app?vid=3f09dcd5-9771-474b-919f-94b1480626d2","ios":"levelo://app?vid=3f09dcd5-9771-474b-919f-94b1480626d2"},"vehicle_type_id":"4","last_reported":1712077585,"current_range_meters":27600,"station_id":"ce4bhr12rcd13ifvqhpg","pricing_plan_id":"cebpf4jnsgd1na2vs0mg"},{"bike_id":"859c7a2b-027b-4cc8-94d1-ed3e7c20a9f0","system_id":"levelo_inurba_marseille","lat":43.31361,"lon":5.38487,"is_reserved":false,"is_disabled":false,"rental_uris":{"android":"levelo://app?vid=859c7a2b-027b-4cc8-94d1-ed3e7c20a9f0","ios":"levelo://app?vid=859c7a2b-027b-4cc8-94d1-ed3e7c20a9f0"},"vehicle_type_id":"4","last_reported":1712077585,"current_range_meters":16400,"station_id":"ce4bgt92rcd13ifvqcf0","pricing_plan_id":"cebpf4jnsgd1na2vs0mg"},{"bike_id":"239559c2-def1-4f5c-979e-eb3b83cd8b0d","system_id":"levelo_inurba_marseille","lat":43.299724,"lon":5.371829,"is_reserved":false,"is_disabled":false,"rental_uris":{"android":"levelo://app?vid=239559c2-def1-4f5c-979e-eb3b83cd8b0d","ios":"levelo://app?vid=239559c2-def1-4f5c-979e-eb3b83cd8b0d"},"vehicle_type_id":"4","last_reported":1712077585,"current_range_meters":0,"station_id":"ce4bgr92rcd13ifvqc7g","pricing_plan_id":"cebpf4jnsgd1na2vs0mg"},{"bike_id":"100d573a-d537-4958-8a69-e9b80679f966","system_id":"levelo_inurba_marseille","lat":43.299222,"lon":5.365554,"is_reserved":false,"is_disabled":false,"rental_uris":{"android":"levelo://app?vid=100d573a-d537-4958-8a69-e9b80679f966","ios":"levelo://app?vid=100d573a-d537-4958-8a69-e9b80679f966"},"vehicle_type_id":"4","last_reported":1712077585,"current_range_meters":0,"station_id":"ce4bgm92rcd13ifvqbr0","pricing_plan_id":"cebpf4jnsgd1na2vs0mg"},{"bike_id":"5a6b65de-6d7c-463e-ad1a-915996bb2ac6","system_id":"levelo_inurba_marseille","lat":43.299222,"lon":5.365554,"is_reserved":false,"is_disabled":false,"rental_uris":{"android":"levelo://app?vid=5a6b65de-6d7c-463e-ad1a-915996bb2ac6","ios":"levelo://app?vid=5a6b65de-6d7c-463e-ad1a-915996bb2ac6"},"vehicle_type_id":"4","last_reported":1712077585,"current_range_meters":0,"station_id":"ce4bgm92rcd13ifvqbr0","pricing_plan_id":"cebpf4jnsgd1na2vs0mg"},{"bike_id":"99d8d575-3405-45c9-8115-d718a8431de2","system_id":"levelo_inurba_marseille","lat":43.299724,"lon":5.371829,"is_reserved":false,"is_disabled":false,"rental_uris":{"android":"levelo://app?vid=99d8d575-3405-45c9-8115-d718a8431de2","ios":"levelo://app?vid=99d8d575-3405-45c9-8115-d718a8431de2"},"vehicle_type_id":"4","last_reported":1712077585,"current_range_meters":0,"station_id":"ce4bgr92rcd13ifvqc7g","pricing_plan_id":"cebpf4jnsgd1na2vs0mg"},{"bike_id":"e89ad0d0-46d9-4e96-8f21-1d13905d1f32","system_id":"levelo_inurba_marseille","lat":43.30218,"lon":5.37995,"is_reserved":false,"is_disabled":false,"rental_uris":{"android":"levelo://app?vid=e89ad0d0-46d9-4e96-8f21-1d13905d1f32","ios":"levelo://app?vid=e89ad0d0-46d9-4e96-8f21-1d13905d1f32"},"vehicle_type_id":"4","last_reported":1712077585,"current_range_meters":9600,"station_id":"","pricing_plan_id":"cebpf4jnsgd1na2vs0mg"},{"bike_id":"594a174d-c66b-45a1-8187-996f97e071b2","system_id":"levelo_inurba_marseille","lat":43.305364,"lon":5.384119,"is_reserved":false,"is_disabled":false,"rental_uris":{"android":"levelo://app?vid=594a174d-c66b-45a1-8187-996f97e071b2","ios":"levelo://app?vid=594a174d-c66b-45a1-8187-996f97e071b2"},"vehicle_type_id":"4","last_reported":1712077585,"current_range_meters":12800,"station_id":"ce4bgg92rcd13ifvqb30","pricing_plan_id":"cebpf4jnsgd1na2vs0mg"},{"bike_id":"a31e70be-3443-407e-b809-cf6f5975038b","system_id":"levelo_inurba_marseille","lat":43.305364,"lon":5.384119,"is_reserved":false,"is_disabled":false,"rental_uris":{"android":"levelo://app?vid=a31e70be-3443-407e-b809-cf6f5975038b","ios":"levelo://app?vid=a31e70be-3443-407e-b809-cf6f5975038b"},"vehicle_type_id":"4","last_reported":1712077585,"current_range_meters":12800,"station_id":"ce4bgg92rcd13ifvqb30","pricing_plan_id":"cebpf4jnsgd1na2vs0mg"},{"bike_id":"6c5f5e29-f8f9-44b9-86f7-d9b0222ab0ee","system_id":"levelo_inurba_marseille","lat":43.298433,"lon":5.362774,"is_reserved":false,"is_disabled":false,"rental_uris":{"android":"levelo://app?vid=6c5f5e29-f8f9-44b9-86f7-d9b0222ab0ee","ios":"levelo://app?vid=6c5f5e29-f8f9-44b9-86f7-d9b0222ab0ee"},"vehicle_type_id":"4","last_reported":1712077585,"current_range_meters":5200,"station_id":"ce4bgpp2rcd13ifvqc3g","pricing_plan_id":"cebpf4jnsgd1na2vs0mg"},{"bike_id":"d58760f9-f017-48ca-a194-975712dc4ceb","system_id":"levelo_inurba_marseille","lat":43.298433,"lon":5.362774,"is_reserved":false,"is_disabled":false,"rental_uris":{"android":"levelo://app?vid=d58760f9-f017-48ca-a194-975712dc4ceb","ios":"levelo://app?vid=d58760f9-f017-48ca-a194-975712dc4ceb"},"vehicle_type_id":"4","last_reported":1712077585,"current_range_meters":23600,"station_id":"ce4bgpp2rcd13ifvqc3g","pricing_plan_id":"cebpf4jnsgd1na2vs0mg"},{"bike_id":"bcc43a83-9e3a-469f-8dcd-cdff568c8d64","system_id":"levelo_inurba_marseille","lat":43.299243,"lon":5.374807,"is_reserved":false,"is_disabled":false,"rental_uris":{"android":"levelo://app?vid=bcc43a83-9e3a-469f-8dcd-cdff568c8d64","ios":"levelo://app?vid=bcc43a83-9e3a-469f-8dcd-cdff568c8d64"},"vehicle_type_id":"4","last_reported":1712077585,"current_range_meters":2800,"station_id":"ce4bgjh2rcd13ifvqbg0","pricing_plan_id":"cebpf4jnsgd1na2vs0mg"},{"bike_id":"7d10d81d-a0f6-4c7b-b3ae-082e81ab69bf","system_id":"levelo_inurba_marseille","lat":43.311722,"lon":5.387247,"is_reserved":false,"is_disabled":false,"rental_uris":{"android":"levelo://app?vid=7d10d81d-a0f6-4c7b-b3ae-082e81ab69bf","ios":"levelo://app?vid=7d10d81d-a0f6-4c7b-b3ae-082e81ab69bf"},"vehicle_type_id":"4","last_reported":1712077585,"current_range_meters":4000,"station_id":"ce4bgv12rcd13ifvqcp0","pricing_plan_id":"cebpf4jnsgd1na2vs0mg"},{"bike_id":"1fe13e07-40aa-486e-ab2e-0274285492a0","system_id":"levelo_inurba_marseille","lat":43.297794,"lon":5.370888,"is_reserved":false,"is_disabled":false,"rental_uris":{"android":"levelo://app?vid=1fe13e07-40aa-486e-ab2e-0274285492a0","ios":"levelo://app?vid=1fe13e07-40aa-486e-ab2e-0274285492a0"},"vehicle_type_id":"4","last_reported":1712077585,"current_range_meters":20000,"station_id":"ce4bgop2rcd13ifvqc1g","pricing_plan_id":"cebpf4jnsgd1na2vs0mg"},{"bike_id":"c68f42d7-5ceb-4280-a4f1-873166ae8525","system_id":"levelo_inurba_marseille","lat":43.322872,"lon":5.382756,"is_reserved":false,"is_disabled":false,"rental_uris":{"android":"levelo://app?vid=c68f42d7-5ceb-4280-a4f1-873166ae8525","ios":"levelo://app?vid=c68f42d7-5ceb-4280-a4f1-873166ae8525"},"vehicle_type_id":"4","last_reported":1712077585,"current_range_meters":26000,"station_id":"ce4bhr12rcd13ifvqhqg","pricing_plan_id":"cebpf4jnsgd1na2vs0mg"},{"bike_id":"353ac126-27b4-449b-8dd4-072aa441f091","system_id":"levelo_inurba_marseille","lat":43.322872,"lon":5.382756,"is_reserved":false,"is_disabled":false,"rental_uris":{"android":"levelo://app?vid=353ac126-27b4-449b-8dd4-072aa441f091","ios":"levelo://app?vid=353ac126-27b4-449b-8dd4-072aa441f091"},"vehicle_type_id":"4","last_reported":1712077585,"current_range_meters":6800,"station_id":"ce4bhr12rcd13ifvqhqg","pricing_plan_id":"cebpf4jnsgd1na2vs0mg"},{"bike_id":"dedc4631-51f8-4916-a749-c45ed77872be","system_id":"levelo_inurba_marseille","lat":43.322872,"lon":5.382756,"is_reserved":false,"is_disabled":false,"rental_uris":{"android":"levelo://app?vid=dedc4631-51f8-4916-a749-c45ed77872be","ios":"levelo://app?vid=dedc4631-51f8-4916-a749-c45ed77872be"},"vehicle_type_id":"4","last_reported":1712077585,"current_range_meters":12800,"station_id":"ce4bhr12rcd13ifvqhqg","pricing_plan_id":"cebpf4jnsgd1na2vs0mg"},{"bike_id":"10099c05-c94c-45d3-97e9-a6b3aab30da2","system_id":"levelo_inurba_marseille","lat":43.322872,"lon":5.382756,"is_reserved":false,"is_disabled":false,"rental_uris":{"android":"levelo://app?vid=10099c05-c94c-45d3-97e9-a6b3aab30da2","ios":"levelo://app?vid=10099c05-c94c-45d3-97e9-a6b3aab30da2"},"vehicle_type_id":"4","last_reported":1712077585,"current_range_meters":5600,"station_id":"ce4bhr12rcd13ifvqhqg","pricing_plan_id":"cebpf4jnsgd1na2vs0mg"},{"bike_id":"786f7bc4-d5f6-4900-9781-7e7f69506d8d","system_id":"levelo_inurba_marseille","lat":43.322872,"lon":5.382756,"is_reserved":false,"is_disabled":false,"rental_uris":{"android":"levelo://app?vid=786f7bc4-d5f6-4900-9781-7e7f69506d8d","ios":"levelo://app?vid=786f7bc4-d5f6-4900-9781-7e7f69506d8d"},"vehicle_type_id":"4","last_reported":1712077585,"current_range_meters":18400,"station_id":"ce4bhr12rcd13ifvqhqg","pricing_plan_id":"cebpf4jnsgd1na2vs0mg"},{"bike_id":"5ed1088d-e0ad-4614-a220-0449cb3d1e58","system_id":"levelo_inurba_marseille","lat":43.322872,"lon":5.382756,"is_reserved":false,"is_disabled":false,"rental_uris":{"android":"levelo://app?vid=5ed1088d-e0ad-4614-a220-0449cb3d1e58","ios":"levelo://app?vid=5ed1088d-e0ad-4614-a220-0449cb3d1e58"},"vehicle_type_id":"4","last_reported":1712077585,"current_range_meters":7200,"station_id":"ce4bhr12rcd13ifvqhqg","pricing_plan_id":"cebpf4jnsgd1na2vs0mg"},{"bike_id":"daad3144-008d-4c70-83c5-cbb99de5cc8c","system_id":"levelo_inurba_marseille","lat":43.322872,"lon":5.382756,"is_reserved":false,"is_disabled":false,"rental_uris":{"android":"levelo://app?vid=daad3144-008d-4c70-83c5-cbb99de5cc8c","ios":"levelo://app?vid=daad3144-008d-4c70-83c5-cbb99de5cc8c"},"vehicle_type_id":"4","last_reported":1712077585,"current_range_meters":8800,"station_id":"ce4bhr12rcd13ifvqhqg","pricing_plan_id":"cebpf4jnsgd1na2vs0mg"},{"bike_id":"6db4ba56-cdbd-44f6-826d-1abf96302385","system_id":"levelo_inurba_marseille","lat":43.322872,"lon":5.382756,"is_reserved":false,"is_disabled":false,"rental_uris":{"android":"levelo://app?vid=6db4ba56-cdbd-44f6-826d-1abf96302385","ios":"levelo://app?vid=6db4ba56-cdbd-44f6-826d-1abf96302385"},"vehicle_type_id":"4","last_reported":1712077585,"current_range_meters":31200,"station_id":"ce4bhr12rcd13ifvqhqg","pricing_plan_id":"cebpf4jnsgd1na2vs0mg"},{"bike_id":"df549830-026d-4bd2-bc0e-c58ca6f5f3bc","system_id":"levelo_inurba_marseille","lat":43.322872,"lon":5.382756,"is_reserved":false,"is_disabled":false,"rental_uris":{"android":"levelo://app?vid=df549830-026d-4bd2-bc0e-c58ca6f5f3bc","ios":"levelo://app?vid=df549830-026d-4bd2-bc0e-c58ca6f5f3bc"},"vehicle_type_id":"4","last_reported":1712077585,"current_range_meters":17600,"station_id":"ce4bhr12rcd13ifvqhqg","pricing_plan_id":"cebpf4jnsgd1na2vs0mg"},{"bike_id":"af91ee66-ebec-4e5f-b566-646a8b5863b7","system_id":"levelo_inurba_marseille","lat":43.322872,"lon":5.382756,"is_reserved":false,"is_disabled":false,"rental_uris":{"android":"levelo://app?vid=af91ee66-ebec-4e5f-b566-646a8b5863b7","ios":"levelo://app?vid=af91ee66-ebec-4e5f-b566-646a8b5863b7"},"vehicle_type_id":"4","last_reported":1712077585,"current_range_meters":12000,"station_id":"ce4bhr12rcd13ifvqhqg","pricing_plan_id":"cebpf4jnsgd1na2vs0mg"},{"bike_id":"38dd02e2-be83-46f6-ab52-569edc0eeb5e","system_id":"levelo_inurba_marseille","lat":43.322872,"lon":5.382756,"is_reserved":false,"is_disabled":false,"rental_uris":{"android":"levelo://app?vid=38dd02e2-be83-46f6-ab52-569edc0eeb5e","ios":"levelo://app?vid=38dd02e2-be83-46f6-ab52-569edc0eeb5e"},"vehicle_type_id":"4","last_reported":1712077585,"current_range_meters":6000,"station_id":"ce4bhr12rcd13ifvqhqg","pricing_plan_id":"cebpf4jnsgd1na2vs0mg"},{"bike_id":"74273bea-3575-4550-b555-5ff5cb6fb480","system_id":"levelo_inurba_marseille","lat":43.322872,"lon":5.382756,"is_reserved":false,"is_disabled":false,"rental_uris":{"android":"levelo://app?vid=74273bea-3575-4550-b555-5ff5cb6fb480","ios":"levelo://app?vid=74273bea-3575-4550-b555-5ff5cb6fb480"},"vehicle_type_id":"4","last_reported":1712077585,"current_range_meters":12000,"station_id":"ce4bhr12rcd13ifvqhqg","pricing_plan_id":"cebpf4jnsgd1na2vs0mg"},{"bike_id":"de12cf6f-0c86-46dd-bd65-f2b071c66edc","system_id":"levelo_inurba_marseille","lat":43.322872,"lon":5.382756,"is_reserved":false,"is_disabled":false,"rental_uris":{"android":"levelo://app?vid=de12cf6f-0c86-46dd-bd65-f2b071c66edc","ios":"levelo://app?vid=de12cf6f-0c86-46dd-bd65-f2b071c66edc"},"vehicle_type_id":"4","last_reported":1712077585,"current_range_meters":30000,"station_id":"ce4bhr12rcd13ifvqhqg","pricing_plan_id":"cebpf4jnsgd1na2vs0mg"},{"bike_id":"d37c795c-1932-41e3-a7e6-30b504a26e64","system_id":"levelo_inurba_marseille","lat":43.297163,"lon":5.365866,"is_reserved":false,"is_disabled":false,"rental_uris":{"android":"levelo://app?vid=d37c795c-1932-41e3-a7e6-30b504a26e64","ios":"levelo://app?vid=d37c795c-1932-41e3-a7e6-30b504a26e64"},"vehicle_type_id":"4","last_reported":1712077585,"current_range_meters":8800,"station_id":"ce4bgn12rcd13ifvqbt0","pricing_plan_id":"cebpf4jnsgd1na2vs0mg"},{"bike_id":"068a1ebf-082d-4193-a7b6-dff7ef124d37","system_id":"levelo_inurba_marseille","lat":43.297163,"lon":5.365866,"is_reserved":false,"is_disabled":false,"rental_uris":{"android":"levelo://app?vid=068a1ebf-082d-4193-a7b6-dff7ef124d37","ios":"levelo://app?vid=068a1ebf-082d-4193-a7b6-dff7ef124d37"},"vehicle_type_id":"4","last_reported":1712077585,"current_range_meters":27600,"station_id":"ce4bgn12rcd13ifvqbt0","pricing_plan_id":"cebpf4jnsgd1na2vs0mg"},{"bike_id":"cfc9dc23-b7c5-4c17-990c-7b9959e0c997","system_id":"levelo_inurba_marseille","lat":43.323873,"lon":5.384291,"is_reserved":false,"is_disabled":false,"rental_uris":{"android":"levelo://app?vid=cfc9dc23-b7c5-4c17-990c-7b9959e0c997","ios":"levelo://app?vid=cfc9dc23-b7c5-4c17-990c-7b9959e0c997"},"vehicle_type_id":"4","last_reported":1712077585,"current_range_meters":3600,"station_id":"ce4bhqp2rcd13ifvqhog","pricing_plan_id":"cebpf4jnsgd1na2vs0mg"},{"bike_id":"7c599bbb-e1e3-46f2-8293-3261a453d88a","system_id":"levelo_inurba_marseille","lat":43.317557,"lon":5.390173,"is_reserved":false,"is_disabled":false,"rental_uris":{"android":"levelo://app?vid=7c599bbb-e1e3-46f2-8293-3261a453d88a","ios":"levelo://app?vid=7c599bbb-e1e3-46f2-8293-3261a453d88a"},"vehicle_type_id":"4","last_reported":1712077585,"current_range_meters":6000,"station_id":"ce4bhqp2rcd13ifvqhng","pricing_plan_id":"cebpf4jnsgd1na2vs0mg"},{"bike_id":"7a4fe6aa-f196-4a92-a2c3-f3dcbb35ae11","system_id":"levelo_inurba_marseille","lat":43.29719,"lon":5.37683,"is_reserved":false,"is_disabled":false,"rental_uris":{"android":"levelo://app?vid=7a4fe6aa-f196-4a92-a2c3-f3dcbb35ae11","ios":"levelo://app?vid=7a4fe6aa-f196-4a92-a2c3-f3dcbb35ae11"},"vehicle_type_id":"4","last_reported":1712077585,"current_range_meters":0,"station_id":"ce4bgkh2rcd13ifvqbl0","pricing_plan_id":"cebpf4jnsgd1na2vs0mg"},{"bike_id":"a86dc009-4280-4ed2-a662-f75f3c8c535a","system_id":"levelo_inurba_marseille","lat":43.309304,"lon":5.390012,"is_reserved":false,"is_disabled":false,"rental_uris":{"android":"levelo://app?vid=a86dc009-4280-4ed2-a662-f75f3c8c535a","ios":"levelo://app?vid=a86dc009-4280-4ed2-a662-f75f3c8c535a"},"vehicle_type_id":"4","last_reported":1712077585,"current_range_meters":0,"station_id":"ce4bgup2rcd13ifvqco0","pricing_plan_id":"cebpf4jnsgd1na2vs0mg"},{"bike_id":"5f42efc3-8b8d-42df-9ad7-bd9d50fee049","system_id":"levelo_inurba_marseille","lat":43.299028,"lon":5.381509,"is_reserved":false,"is_disabled":false,"rental_uris":{"android":"levelo://app?vid=5f42efc3-8b8d-42df-9ad7-bd9d50fee049","ios":"levelo://app?vid=5f42efc3-8b8d-42df-9ad7-bd9d50fee049"},"vehicle_type_id":"4","last_reported":1712077585,"current_range_meters":13600,"station_id":"ce4bgj12rcd13ifvqbc0","pricing_plan_id":"cebpf4jnsgd1na2vs0mg"},{"bike_id":"782d5b81-f441-4b8e-a252-4c970686f868","system_id":"levelo_inurba_marseille","lat":43.299028,"lon":5.381509,"is_reserved":false,"is_disabled":false,"rental_uris":{"android":"levelo://app?vid=782d5b81-f441-4b8e-a252-4c970686f868","ios":"levelo://app?vid=782d5b81-f441-4b8e-a252-4c970686f868"},"vehicle_type_id":"4","last_reported":1712077585,"current_range_meters":16400,"station_id":"ce4bgj12rcd13ifvqbc0","pricing_plan_id":"cebpf4jnsgd1na2vs0mg"},{"bike_id":"e05dc724-69a8-47a7-8917-09f780a1b1f6","system_id":"levelo_inurba_marseille","lat":43.299028,"lon":5.381509,"is_reserved":false,"is_disabled":false,"rental_uris":{"android":"levelo://app?vid=e05dc724-69a8-47a7-8917-09f780a1b1f6","ios":"levelo://app?vid=e05dc724-69a8-47a7-8917-09f780a1b1f6"},"vehicle_type_id":"4","last_reported":1712077585,"current_range_meters":400,"station_id":"ce4bgj12rcd13ifvqbc0","pricing_plan_id":"cebpf4jnsgd1na2vs0mg"},{"bike_id":"b739b765-85df-407c-981c-c8f1b788b853","system_id":"levelo_inurba_marseille","lat":43.308012,"lon":5.381511,"is_reserved":false,"is_disabled":false,"rental_uris":{"android":"levelo://app?vid=b739b765-85df-407c-981c-c8f1b788b853","ios":"levelo://app?vid=b739b765-85df-407c-981c-c8f1b788b853"},"vehicle_type_id":"4","last_reported":1712077585,"current_range_meters":16400,"station_id":"ce4bgt12rcd13ifvqce0","pricing_plan_id":"cebpf4jnsgd1na2vs0mg"},{"bike_id":"8add71f6-ffce-4644-927c-b1b23e702182","system_id":"levelo_inurba_marseille","lat":43.299028,"lon":5.381509,"is_reserved":false,"is_disabled":false,"rental_uris":{"android":"levelo://app?vid=8add71f6-ffce-4644-927c-b1b23e702182","ios":"levelo://app?vid=8add71f6-ffce-4644-927c-b1b23e702182"},"vehicle_type_id":"4","last_reported":1712077585,"current_range_meters":1600,"station_id":"ce4bgj12rcd13ifvqbc0","pricing_plan_id":"cebpf4jnsgd1na2vs0mg"},{"bike_id":"0a2d34d7-8e81-41bb-b30f-e77eaeed6e59","system_id":"levelo_inurba_marseille","lat":43.31754,"lon":5.39007,"is_reserved":false,"is_disabled":false,"rental_uris":{"android":"levelo://app?vid=0a2d34d7-8e81-41bb-b30f-e77eaeed6e59","ios":"levelo://app?vid=0a2d34d7-8e81-41bb-b30f-e77eaeed6e59"},"vehicle_type_id":"4","last_reported":1712077585,"current_range_meters":2000,"station_id":"ce4bhqp2rcd13ifvqhng","pricing_plan_id":"cebpf4jnsgd1na2vs0mg"},{"bike_id":"0bd9dd29-14ed-4125-8098-5a1e8562c868","system_id":"levelo_inurba_marseille","lat":43.317557,"lon":5.390173,"is_reserved":false,"is_disabled":false,"rental_uris":{"android":"levelo://app?vid=0bd9dd29-14ed-4125-8098-5a1e8562c868","ios":"levelo://app?vid=0bd9dd29-14ed-4125-8098-5a1e8562c868"},"vehicle_type_id":"4","last_reported":1712077585,"current_range_meters":18400,"station_id":"ce4bhqp2rcd13ifvqhng","pricing_plan_id":"cebpf4jnsgd1na2vs0mg"},{"bike_id":"7a292f50-0d04-4cba-83c1-8987ac750120","system_id":"levelo_inurba_marseille","lat":43.31751,"lon":5.39018,"is_reserved":false,"is_disabled":false,"rental_uris":{"android":"levelo://app?vid=7a292f50-0d04-4cba-83c1-8987ac750120","ios":"levelo://app?vid=7a292f50-0d04-4cba-83c1-8987ac750120"},"vehicle_type_id":"4","last_reported":1712077585,"current_range_meters":5200,"station_id":"ce4bhqp2rcd13ifvqhng","pricing_plan_id":"cebpf4jnsgd1na2vs0mg"},{"bike_id":"71a6aad5-6e59-4ffd-9d71-7f2e048f4755","system_id":"levelo_inurba_marseille","lat":43.317557,"lon":5.390173,"is_reserved":false,"is_disabled":false,"rental_uris":{"android":"levelo://app?vid=71a6aad5-6e59-4ffd-9d71-7f2e048f4755","ios":"levelo://app?vid=71a6aad5-6e59-4ffd-9d71-7f2e048f4755"},"vehicle_type_id":"4","last_reported":1712077585,"current_range_meters":20800,"station_id":"ce4bhqp2rcd13ifvqhng","pricing_plan_id":"cebpf4jnsgd1na2vs0mg"},{"bike_id":"ca3883d6-7ba7-41cd-85f7-e47e54e29827","system_id":"levelo_inurba_marseille","lat":43.31752,"lon":5.3902,"is_reserved":false,"is_disabled":false,"rental_uris":{"android":"levelo://app?vid=ca3883d6-7ba7-41cd-85f7-e47e54e29827","ios":"levelo://app?vid=ca3883d6-7ba7-41cd-85f7-e47e54e29827"},"vehicle_type_id":"4","last_reported":1712077585,"current_range_meters":12800,"station_id":"ce4bhqp2rcd13ifvqhng","pricing_plan_id":"cebpf4jnsgd1na2vs0mg"},{"bike_id":"95df7383-4e22-4383-b032-2afbdafc9af3","system_id":"levelo_inurba_marseille","lat":43.297523,"lon":5.379113,"is_reserved":false,"is_disabled":false,"rental_uris":{"android":"levelo://app?vid=95df7383-4e22-4383-b032-2afbdafc9af3","ios":"levelo://app?vid=95df7383-4e22-4383-b032-2afbdafc9af3"},"vehicle_type_id":"4","last_reported":1712077585,"current_range_meters":18400,"station_id":"","pricing_plan_id":"cebpf4jnsgd1na2vs0mg"},{"bike_id":"65007f04-8707-4d7b-a2eb-97118f58ea02","system_id":"levelo_inurba_marseille","lat":43.31756,"lon":5.39023,"is_reserved":false,"is_disabled":false,"rental_uris":{"android":"levelo://app?vid=65007f04-8707-4d7b-a2eb-97118f58ea02","ios":"levelo://app?vid=65007f04-8707-4d7b-a2eb-97118f58ea02"},"vehicle_type_id":"4","last_reported":1712077585,"current_range_meters":5600,"station_id":"ce4bhqp2rcd13ifvqhng","pricing_plan_id":"cebpf4jnsgd1na2vs0mg"},{"bike_id":"ff0337df-162e-40a2-8236-aed88f45a96c","system_id":"levelo_inurba_marseille","lat":43.317595,"lon":5.390235,"is_reserved":false,"is_disabled":false,"rental_uris":{"android":"levelo://app?vid=ff0337df-162e-40a2-8236-aed88f45a96c","ios":"levelo://app?vid=ff0337df-162e-40a2-8236-aed88f45a96c"},"vehicle_type_id":"4","last_reported":1712077585,"current_range_meters":4400,"station_id":"ce4bhqp2rcd13ifvqhng","pricing_plan_id":"cebpf4jnsgd1na2vs0mg"},{"bike_id":"18ab9ef4-f0ac-4c0d-acf8-2bfe0a379e33","system_id":"levelo_inurba_marseille","lat":43.298037,"lon":5.381066,"is_reserved":false,"is_disabled":false,"rental_uris":{"android":"levelo://app?vid=18ab9ef4-f0ac-4c0d-acf8-2bfe0a379e33","ios":"levelo://app?vid=18ab9ef4-f0ac-4c0d-acf8-2bfe0a379e33"},"vehicle_type_id":"4","last_reported":1712077585,"current_range_meters":9200,"station_id":"ce4bgip2rcd13ifvqbb0","pricing_plan_id":"cebpf4jnsgd1na2vs0mg"},{"bike_id":"609ab156-dc2d-4953-ace8-dc7ccc3d4eb4","system_id":"levelo_inurba_marseille","lat":43.29578,"lon":5.37503,"is_reserved":false,"is_disabled":false,"rental_uris":{"android":"levelo://app?vid=609ab156-dc2d-4953-ace8-dc7ccc3d4eb4","ios":"levelo://app?vid=609ab156-dc2d-4953-ace8-dc7ccc3d4eb4"},"vehicle_type_id":"4","last_reported":1712077585,"current_range_meters":0,"station_id":"ce4bgh92rcd13ifvqb50","pricing_plan_id":"cebpf4jnsgd1na2vs0mg"},{"bike_id":"3f4b63ab-fd2b-4262-8af8-076c74269122","system_id":"levelo_inurba_marseille","lat":43.304356,"lon":5.388818,"is_reserved":false,"is_disabled":false,"rental_uris":{"android":"levelo://app?vid=3f4b63ab-fd2b-4262-8af8-076c74269122","ios":"levelo://app?vid=3f4b63ab-fd2b-4262-8af8-076c74269122"},"vehicle_type_id":"4","last_reported":1712077585,"current_range_meters":0,"station_id":"ce4bgk12rcd13ifvqbi0","pricing_plan_id":"cebpf4jnsgd1na2vs0mg"},{"bike_id":"b08d53aa-0ad1-4274-9c47-cb928656d6d5","system_id":"levelo_inurba_marseille","lat":43.30433,"lon":5.3888,"is_reserved":false,"is_disabled":false,"rental_uris":{"android":"levelo://app?vid=b08d53aa-0ad1-4274-9c47-cb928656d6d5","ios":"levelo://app?vid=b08d53aa-0ad1-4274-9c47-cb928656d6d5"},"vehicle_type_id":"4","last_reported":1712077585,"current_range_meters":22400,"station_id":"ce4bgk12rcd13ifvqbi0","pricing_plan_id":"cebpf4jnsgd1na2vs0mg"},{"bike_id":"087f8b56-ecde-41bc-aaa9-36a18ec122fd","system_id":"levelo_inurba_marseille","lat":43.30438,"lon":5.38886,"is_reserved":false,"is_disabled":false,"rental_uris":{"android":"levelo://app?vid=087f8b56-ecde-41bc-aaa9-36a18ec122fd","ios":"levelo://app?vid=087f8b56-ecde-41bc-aaa9-36a18ec122fd"},"vehicle_type_id":"4","last_reported":1712077585,"current_range_meters":0,"station_id":"ce4bgk12rcd13ifvqbi0","pricing_plan_id":"cebpf4jnsgd1na2vs0mg"},{"bike_id":"b539d920-bfac-4fbb-948a-814eb2e19d2e","system_id":"levelo_inurba_marseille","lat":43.30432,"lon":5.38883,"is_reserved":false,"is_disabled":false,"rental_uris":{"android":"levelo://app?vid=b539d920-bfac-4fbb-948a-814eb2e19d2e","ios":"levelo://app?vid=b539d920-bfac-4fbb-948a-814eb2e19d2e"},"vehicle_type_id":"4","last_reported":1712077585,"current_range_meters":9200,"station_id":"ce4bgk12rcd13ifvqbi0","pricing_plan_id":"cebpf4jnsgd1na2vs0mg"},{"bike_id":"da44c586-fe6f-4ccc-8dc6-37ad772d277c","system_id":"levelo_inurba_marseille","lat":43.304278,"lon":5.388868,"is_reserved":false,"is_disabled":false,"rental_uris":{"android":"levelo://app?vid=da44c586-fe6f-4ccc-8dc6-37ad772d277c","ios":"levelo://app?vid=da44c586-fe6f-4ccc-8dc6-37ad772d277c"},"vehicle_type_id":"4","last_reported":1712077585,"current_range_meters":0,"station_id":"ce4bgk12rcd13ifvqbi0","pricing_plan_id":"cebpf4jnsgd1na2vs0mg"},{"bike_id":"1ff24214-b330-46d8-8456-5b0476e22327","system_id":"levelo_inurba_marseille","lat":43.298037,"lon":5.381066,"is_reserved":false,"is_disabled":false,"rental_uris":{"android":"levelo://app?vid=1ff24214-b330-46d8-8456-5b0476e22327","ios":"levelo://app?vid=1ff24214-b330-46d8-8456-5b0476e22327"},"vehicle_type_id":"4","last_reported":1712077585,"current_range_meters":11600,"station_id":"ce4bgip2rcd13ifvqbb0","pricing_plan_id":"cebpf4jnsgd1na2vs0mg"},{"bike_id":"180cb203-1bcb-4fac-b892-52d664f21473","system_id":"levelo_inurba_marseille","lat":43.296263,"lon":5.377094,"is_reserved":false,"is_disabled":false,"rental_uris":{"android":"levelo://app?vid=180cb203-1bcb-4fac-b892-52d664f21473","ios":"levelo://app?vid=180cb203-1bcb-4fac-b892-52d664f21473"},"vehicle_type_id":"4","last_reported":1712077585,"current_range_meters":29200,"station_id":"ce4bgi92rcd13ifvqb90","pricing_plan_id":"cebpf4jnsgd1na2vs0mg"},{"bike_id":"83b23be8-5fcd-430c-b5b4-12e092f2bf21","system_id":"levelo_inurba_marseille","lat":43.299724,"lon":5.384848,"is_reserved":false,"is_disabled":false,"rental_uris":{"android":"levelo://app?vid=83b23be8-5fcd-430c-b5b4-12e092f2bf21","ios":"levelo://app?vid=83b23be8-5fcd-430c-b5b4-12e092f2bf21"},"vehicle_type_id":"4","last_reported":1712077585,"current_range_meters":19600,"station_id":"ce4bgj92rcd13ifvqbd0","pricing_plan_id":"cebpf4jnsgd1na2vs0mg"},{"bike_id":"9945f17d-b365-4e73-b627-f7db6f432100","system_id":"levelo_inurba_marseille","lat":43.299707,"lon":5.384859,"is_reserved":false,"is_disabled":false,"rental_uris":{"android":"levelo://app?vid=9945f17d-b365-4e73-b627-f7db6f432100","ios":"levelo://app?vid=9945f17d-b365-4e73-b627-f7db6f432100"},"vehicle_type_id":"4","last_reported":1712077585,"current_range_meters":0,"station_id":"ce4bgj92rcd13ifvqbd0","pricing_plan_id":"cebpf4jnsgd1na2vs0mg"},{"bike_id":"a02380fb-e740-481f-9048-19464a4db5ea","system_id":"levelo_inurba_marseille","lat":43.29972,"lon":5.38491,"is_reserved":false,"is_disabled":false,"rental_uris":{"android":"levelo://app?vid=a02380fb-e740-481f-9048-19464a4db5ea","ios":"levelo://app?vid=a02380fb-e740-481f-9048-19464a4db5ea"},"vehicle_type_id":"4","last_reported":1712077585,"current_range_meters":1200,"station_id":"ce4bgj92rcd13ifvqbd0","pricing_plan_id":"cebpf4jnsgd1na2vs0mg"},{"bike_id":"37c95a63-d788-4ec6-8bc6-1c88e958d4db","system_id":"levelo_inurba_marseille","lat":43.299724,"lon":5.384848,"is_reserved":false,"is_disabled":false,"rental_uris":{"android":"levelo://app?vid=37c95a63-d788-4ec6-8bc6-1c88e958d4db","ios":"levelo://app?vid=37c95a63-d788-4ec6-8bc6-1c88e958d4db"},"vehicle_type_id":"4","last_reported":1712077585,"current_range_meters":0,"station_id":"ce4bgj92rcd13ifvqbd0","pricing_plan_id":"cebpf4jnsgd1na2vs0mg"},{"bike_id":"f08ada23-6c29-460e-9987-f642aba3f5f8","system_id":"levelo_inurba_marseille","lat":43.30642,"lon":5.401031,"is_reserved":false,"is_disabled":false,"rental_uris":{"android":"levelo://app?vid=f08ada23-6c29-460e-9987-f642aba3f5f8","ios":"levelo://app?vid=f08ada23-6c29-460e-9987-f642aba3f5f8"},"vehicle_type_id":"4","last_reported":1712077585,"current_range_meters":12800,"station_id":"ce4bh112rcd13ifvqda0","pricing_plan_id":"cebpf4jnsgd1na2vs0mg"},{"bike_id":"d6724126-690a-4423-9b16-40b988d3a2f8","system_id":"levelo_inurba_marseille","lat":43.29964,"lon":5.38498,"is_reserved":false,"is_disabled":false,"rental_uris":{"android":"levelo://app?vid=d6724126-690a-4423-9b16-40b988d3a2f8","ios":"levelo://app?vid=d6724126-690a-4423-9b16-40b988d3a2f8"},"vehicle_type_id":"4","last_reported":1712077585,"current_range_meters":0,"station_id":"ce4bgj92rcd13ifvqbd0","pricing_plan_id":"cebpf4jnsgd1na2vs0mg"},{"bike_id":"03b19981-9529-48f0-96ea-76e8935ef749","system_id":"levelo_inurba_marseille","lat":43.295169,"lon":5.390426,"is_reserved":false,"is_disabled":false,"rental_uris":{"android":"levelo://app?vid=03b19981-9529-48f0-96ea-76e8935ef749","ios":"levelo://app?vid=03b19981-9529-48f0-96ea-76e8935ef749"},"vehicle_type_id":"4","last_reported":1712077585,"current_range_meters":25200,"station_id":"ce4bh3p2rcd13ifvqdp0","pricing_plan_id":"cebpf4jnsgd1na2vs0mg"},{"bike_id":"55b0b6c6-6e1d-4bad-8b5b-49739c4fb2be","system_id":"levelo_inurba_marseille","lat":43.299707,"lon":5.384859,"is_reserved":false,"is_disabled":false,"rental_uris":{"android":"levelo://app?vid=55b0b6c6-6e1d-4bad-8b5b-49739c4fb2be","ios":"levelo://app?vid=55b0b6c6-6e1d-4bad-8b5b-49739c4fb2be"},"vehicle_type_id":"4","last_reported":1712077585,"current_range_meters":0,"station_id":"ce4bgj92rcd13ifvqbd0","pricing_plan_id":"cebpf4jnsgd1na2vs0mg"},{"bike_id":"22d48d63-6b4a-447c-b913-1d419ae917f6","system_id":"levelo_inurba_marseille","lat":43.296528,"lon":5.380913,"is_reserved":false,"is_disabled":false,"rental_uris":{"android":"levelo://app?vid=22d48d63-6b4a-447c-b913-1d419ae917f6","ios":"levelo://app?vid=22d48d63-6b4a-447c-b913-1d419ae917f6"},"vehicle_type_id":"4","last_reported":1712077585,"current_range_meters":0,"station_id":"","pricing_plan_id":"cebpf4jnsgd1na2vs0mg"},{"bike_id":"ec28d969-fbf9-427a-8233-b6bd5718c23f","system_id":"levelo_inurba_marseille","lat":43.32359,"lon":5.38877,"is_reserved":false,"is_disabled":false,"rental_uris":{"android":"levelo://app?vid=ec28d969-fbf9-427a-8233-b6bd5718c23f","ios":"levelo://app?vid=ec28d969-fbf9-427a-8233-b6bd5718c23f"},"vehicle_type_id":"4","last_reported":1712077585,"current_range_meters":5600,"station_id":"ce4bhqp2rcd13ifvqhog","pricing_plan_id":"cebpf4jnsgd1na2vs0mg"},{"bike_id":"eb32ceb2-da9c-416b-b73e-26be742f1e74","system_id":"levelo_inurba_marseille","lat":43.32363,"lon":5.38881,"is_reserved":false,"is_disabled":false,"rental_uris":{"android":"levelo://app?vid=eb32ceb2-da9c-416b-b73e-26be742f1e74","ios":"levelo://app?vid=eb32ceb2-da9c-416b-b73e-26be742f1e74"},"vehicle_type_id":"4","last_reported":1712077585,"current_range_meters":4000,"station_id":"ce4bhqp2rcd13ifvqhog","pricing_plan_id":"cebpf4jnsgd1na2vs0mg"},{"bike_id":"907dbd5d-c21c-4a69-9ccc-cacb9df34ad3","system_id":"levelo_inurba_marseille","lat":43.32363,"lon":5.38883,"is_reserved":false,"is_disabled":false,"rental_uris":{"android":"levelo://app?vid=907dbd5d-c21c-4a69-9ccc-cacb9df34ad3","ios":"levelo://app?vid=907dbd5d-c21c-4a69-9ccc-cacb9df34ad3"},"vehicle_type_id":"4","last_reported":1712077585,"current_range_meters":3200,"station_id":"ce4bhqp2rcd13ifvqhog","pricing_plan_id":"cebpf4jnsgd1na2vs0mg"},{"bike_id":"f2a0c78f-44d5-4a08-8f93-7ac45bef0672","system_id":"levelo_inurba_marseille","lat":43.32368,"lon":5.3888,"is_reserved":false,"is_disabled":false,"rental_uris":{"android":"levelo://app?vid=f2a0c78f-44d5-4a08-8f93-7ac45bef0672","ios":"levelo://app?vid=f2a0c78f-44d5-4a08-8f93-7ac45bef0672"},"vehicle_type_id":"4","last_reported":1712077585,"current_range_meters":19600,"station_id":"ce4bhqp2rcd13ifvqhog","pricing_plan_id":"cebpf4jnsgd1na2vs0mg"},{"bike_id":"aa8e755a-9cb2-497e-ad32-c91d1e59c768","system_id":"levelo_inurba_marseille","lat":43.29529,"lon":5.385581,"is_reserved":false,"is_disabled":false,"rental_uris":{"android":"levelo://app?vid=aa8e755a-9cb2-497e-ad32-c91d1e59c768","ios":"levelo://app?vid=aa8e755a-9cb2-497e-ad32-c91d1e59c768"},"vehicle_type_id":"4","last_reported":1712077585,"current_range_meters":25200,"station_id":"ce4bgih2rcd13ifvqba0","pricing_plan_id":"cebpf4jnsgd1na2vs0mg"},{"bike_id":"98875af4-dcb3-4d03-8aa4-5aa5cbd117b1","system_id":"levelo_inurba_marseille","lat":43.32368,"lon":5.38883,"is_reserved":false,"is_disabled":false,"rental_uris":{"android":"levelo://app?vid=98875af4-dcb3-4d03-8aa4-5aa5cbd117b1","ios":"levelo://app?vid=98875af4-dcb3-4d03-8aa4-5aa5cbd117b1"},"vehicle_type_id":"4","last_reported":1712077585,"current_range_meters":5200,"station_id":"ce4bhqp2rcd13ifvqhog","pricing_plan_id":"cebpf4jnsgd1na2vs0mg"},{"bike_id":"02a037e3-10f6-4ee3-9988-c5f231baffb1","system_id":"levelo_inurba_marseille","lat":43.323671,"lon":5.38884,"is_reserved":false,"is_disabled":false,"rental_uris":{"android":"levelo://app?vid=02a037e3-10f6-4ee3-9988-c5f231baffb1","ios":"levelo://app?vid=02a037e3-10f6-4ee3-9988-c5f231baffb1"},"vehicle_type_id":"4","last_reported":1712077585,"current_range_meters":8400,"station_id":"ce4bhqp2rcd13ifvqhog","pricing_plan_id":"cebpf4jnsgd1na2vs0mg"},{"bike_id":"a38421ac-a944-4283-8cd8-f098f4f8ee6d","system_id":"levelo_inurba_marseille","lat":43.32366,"lon":5.3889,"is_reserved":false,"is_disabled":false,"rental_uris":{"android":"levelo://app?vid=a38421ac-a944-4283-8cd8-f098f4f8ee6d","ios":"levelo://app?vid=a38421ac-a944-4283-8cd8-f098f4f8ee6d"},"vehicle_type_id":"4","last_reported":1712077585,"current_range_meters":0,"station_id":"ce4bhqp2rcd13ifvqhog","pricing_plan_id":"cebpf4jnsgd1na2vs0mg"},{"bike_id":"c841a719-af38-4f16-8c6e-09f44bfdc5ca","system_id":"levelo_inurba_marseille","lat":43.32377,"lon":5.38883,"is_reserved":false,"is_disabled":false,"rental_uris":{"android":"levelo://app?vid=c841a719-af38-4f16-8c6e-09f44bfdc5ca","ios":"levelo://app?vid=c841a719-af38-4f16-8c6e-09f44bfdc5ca"},"vehicle_type_id":"4","last_reported":1712077585,"current_range_meters":15600,"station_id":"ce4bhqp2rcd13ifvqhog","pricing_plan_id":"cebpf4jnsgd1na2vs0mg"},{"bike_id":"cddb8456-cfcb-4b23-ba32-937baa681100","system_id":"levelo_inurba_marseille","lat":43.29602,"lon":5.381084,"is_reserved":false,"is_disabled":false,"rental_uris":{"android":"levelo://app?vid=cddb8456-cfcb-4b23-ba32-937baa681100","ios":"levelo://app?vid=cddb8456-cfcb-4b23-ba32-937baa681100"},"vehicle_type_id":"4","last_reported":1712077585,"current_range_meters":2400,"station_id":"ce4bgl12rcd13ifvqbo0","pricing_plan_id":"cebpf4jnsgd1na2vs0mg"},{"bike_id":"d91d0f8c-459c-442e-ba63-e86f8ed1d910","system_id":"levelo_inurba_marseille","lat":43.29602,"lon":5.381084,"is_reserved":false,"is_disabled":false,"rental_uris":{"android":"levelo://app?vid=d91d0f8c-459c-442e-ba63-e86f8ed1d910","ios":"levelo://app?vid=d91d0f8c-459c-442e-ba63-e86f8ed1d910"},"vehicle_type_id":"4","last_reported":1712077585,"current_range_meters":800,"station_id":"ce4bgl12rcd13ifvqbo0","pricing_plan_id":"cebpf4jnsgd1na2vs0mg"},{"bike_id":"83699062-4489-4a33-b7cc-7f42d7c38b16","system_id":"levelo_inurba_marseille","lat":43.29602,"lon":5.381084,"is_reserved":false,"is_disabled":false,"rental_uris":{"android":"levelo://app?vid=83699062-4489-4a33-b7cc-7f42d7c38b16","ios":"levelo://app?vid=83699062-4489-4a33-b7cc-7f42d7c38b16"},"vehicle_type_id":"4","last_reported":1712077585,"current_range_meters":22400,"station_id":"ce4bgl12rcd13ifvqbo0","pricing_plan_id":"cebpf4jnsgd1na2vs0mg"},{"bike_id":"f32c0d52-db7c-4771-b12d-58a019cdbbf6","system_id":"levelo_inurba_marseille","lat":43.292749,"lon":5.368402,"is_reserved":false,"is_disabled":false,"rental_uris":{"android":"levelo://app?vid=f32c0d52-db7c-4771-b12d-58a019cdbbf6","ios":"levelo://app?vid=f32c0d52-db7c-4771-b12d-58a019cdbbf6"},"vehicle_type_id":"4","last_reported":1712077585,"current_range_meters":4000,"station_id":"ce4bhbp2rcd13ifvqesg","pricing_plan_id":"cebpf4jnsgd1na2vs0mg"},{"bike_id":"8897eb70-dd78-43ed-882c-abf3589b874b","system_id":"levelo_inurba_marseille","lat":43.296263,"lon":5.40601,"is_reserved":false,"is_disabled":false,"rental_uris":{"android":"levelo://app?vid=8897eb70-dd78-43ed-882c-abf3589b874b","ios":"levelo://app?vid=8897eb70-dd78-43ed-882c-abf3589b874b"},"vehicle_type_id":"4","last_reported":1712077585,"current_range_meters":6000,"station_id":"ce4bh0h2rcd13ifvqd60","pricing_plan_id":"cebpf4jnsgd1na2vs0mg"},{"bike_id":"b941582b-0a9b-4ba0-8cc2-63037cf62397","system_id":"levelo_inurba_marseille","lat":43.29275,"lon":5.3684,"is_reserved":false,"is_disabled":false,"rental_uris":{"android":"levelo://app?vid=b941582b-0a9b-4ba0-8cc2-63037cf62397","ios":"levelo://app?vid=b941582b-0a9b-4ba0-8cc2-63037cf62397"},"vehicle_type_id":"4","last_reported":1712077585,"current_range_meters":0,"station_id":"ce4bhbp2rcd13ifvqesg","pricing_plan_id":"cebpf4jnsgd1na2vs0mg"},{"bike_id":"feac3957-bf2b-4fe1-a2c8-58d78336cbe0","system_id":"levelo_inurba_marseille","lat":43.293259,"lon":5.371586,"is_reserved":false,"is_disabled":false,"rental_uris":{"android":"levelo://app?vid=feac3957-bf2b-4fe1-a2c8-58d78336cbe0","ios":"levelo://app?vid=feac3957-bf2b-4fe1-a2c8-58d78336cbe0"},"vehicle_type_id":"4","last_reported":1712077585,"current_range_meters":5600,"station_id":"ce4bgh92rcd13ifvqb40","pricing_plan_id":"cebpf4jnsgd1na2vs0mg"},{"bike_id":"c6795bd1-d157-4a63-bf3a-c182b74ce4db","system_id":"levelo_inurba_marseille","lat":43.29486,"lon":5.37956,"is_reserved":false,"is_disabled":false,"rental_uris":{"android":"levelo://app?vid=c6795bd1-d157-4a63-bf3a-c182b74ce4db","ios":"levelo://app?vid=c6795bd1-d157-4a63-bf3a-c182b74ce4db"},"vehicle_type_id":"4","last_reported":1712077585,"current_range_meters":2400,"station_id":"","pricing_plan_id":"cebpf4jnsgd1na2vs0mg"},{"bike_id":"f13b2579-a7ef-4b3a-bb64-a6015e7e9a66","system_id":"levelo_inurba_marseille","lat":43.29546,"lon":5.38163,"is_reserved":false,"is_disabled":false,"rental_uris":{"android":"levelo://app?vid=f13b2579-a7ef-4b3a-bb64-a6015e7e9a66","ios":"levelo://app?vid=f13b2579-a7ef-4b3a-bb64-a6015e7e9a66"},"vehicle_type_id":"4","last_reported":1712077585,"current_range_meters":21200,"station_id":"","pricing_plan_id":"cebpf4jnsgd1na2vs0mg"},{"bike_id":"db1e9a52-d10d-476e-9450-4b8073e61f6c","system_id":"levelo_inurba_marseille","lat":43.293009,"lon":5.374584,"is_reserved":false,"is_disabled":false,"rental_uris":{"android":"levelo://app?vid=db1e9a52-d10d-476e-9450-4b8073e61f6c","ios":"levelo://app?vid=db1e9a52-d10d-476e-9450-4b8073e61f6c"},"vehicle_type_id":"4","last_reported":1712077585,"current_range_meters":2800,"station_id":"ce4bgi12rcd13ifvqb70","pricing_plan_id":"cebpf4jnsgd1na2vs0mg"},{"bike_id":"89dec5dc-b6ee-4f64-8707-c2b7acaf5d1c","system_id":"levelo_inurba_marseille","lat":43.330442,"lon":5.389148,"is_reserved":false,"is_disabled":false,"rental_uris":{"android":"levelo://app?vid=89dec5dc-b6ee-4f64-8707-c2b7acaf5d1c","ios":"levelo://app?vid=89dec5dc-b6ee-4f64-8707-c2b7acaf5d1c"},"vehicle_type_id":"4","last_reported":1712077585,"current_range_meters":8400,"station_id":"ce4bhr92rcd13ifvqhrg","pricing_plan_id":"cebpf4jnsgd1na2vs0mg"},{"bike_id":"5c86f370-fe4e-4b48-8c7c-55778f1ea4e0","system_id":"levelo_inurba_marseille","lat":43.305994,"lon":5.393687,"is_reserved":false,"is_disabled":false,"rental_uris":{"android":"levelo://app?vid=5c86f370-fe4e-4b48-8c7c-55778f1ea4e0","ios":"levelo://app?vid=5c86f370-fe4e-4b48-8c7c-55778f1ea4e0"},"vehicle_type_id":"4","last_reported":1712077585,"current_range_meters":1200,"station_id":"ce4bh0p2rcd13ifvqd80","pricing_plan_id":"cebpf4jnsgd1na2vs0mg"},{"bike_id":"8f5dd46e-7d37-4f12-8720-8d4f07e523bc","system_id":"levelo_inurba_marseille","lat":43.292967,"lon":5.374666,"is_reserved":false,"is_disabled":false,"rental_uris":{"android":"levelo://app?vid=8f5dd46e-7d37-4f12-8720-8d4f07e523bc","ios":"levelo://app?vid=8f5dd46e-7d37-4f12-8720-8d4f07e523bc"},"vehicle_type_id":"4","last_reported":1712077585,"current_range_meters":1600,"station_id":"","pricing_plan_id":"cebpf4jnsgd1na2vs0mg"},{"bike_id":"1afc0bc9-938a-4ab9-b0f7-ce59880d41ea","system_id":"levelo_inurba_marseille","lat":43.303002,"lon":5.392142,"is_reserved":false,"is_disabled":false,"rental_uris":{"android":"levelo://app?vid=1afc0bc9-938a-4ab9-b0f7-ce59880d41ea","ios":"levelo://app?vid=1afc0bc9-938a-4ab9-b0f7-ce59880d41ea"},"vehicle_type_id":"4","last_reported":1712077585,"current_range_meters":1600,"station_id":"ce4bgkh2rcd13ifvqbk0","pricing_plan_id":"cebpf4jnsgd1na2vs0mg"},{"bike_id":"5f387dde-3a43-474f-a91f-e8de89f9d5e4","system_id":"levelo_inurba_marseille","lat":43.303055,"lon":5.392083,"is_reserved":false,"is_disabled":false,"rental_uris":{"android":"levelo://app?vid=5f387dde-3a43-474f-a91f-e8de89f9d5e4","ios":"levelo://app?vid=5f387dde-3a43-474f-a91f-e8de89f9d5e4"},"vehicle_type_id":"4","last_reported":1712077585,"current_range_meters":0,"station_id":"ce4bgkh2rcd13ifvqbk0","pricing_plan_id":"cebpf4jnsgd1na2vs0mg"},{"bike_id":"a3c9943f-1bc9-4968-839d-0649f12a728a","system_id":"levelo_inurba_marseille","lat":43.303002,"lon":5.392142,"is_reserved":false,"is_disabled":false,"rental_uris":{"android":"levelo://app?vid=a3c9943f-1bc9-4968-839d-0649f12a728a","ios":"levelo://app?vid=a3c9943f-1bc9-4968-839d-0649f12a728a"},"vehicle_type_id":"4","last_reported":1712077585,"current_range_meters":22800,"station_id":"ce4bgkh2rcd13ifvqbk0","pricing_plan_id":"cebpf4jnsgd1na2vs0mg"},{"bike_id":"1f6b509d-1b52-4692-9845-f4a734570585","system_id":"levelo_inurba_marseille","lat":43.303071,"lon":5.392113,"is_reserved":false,"is_disabled":false,"rental_uris":{"android":"levelo://app?vid=1f6b509d-1b52-4692-9845-f4a734570585","ios":"levelo://app?vid=1f6b509d-1b52-4692-9845-f4a734570585"},"vehicle_type_id":"4","last_reported":1712077585,"current_range_meters":0,"station_id":"ce4bgkh2rcd13ifvqbk0","pricing_plan_id":"cebpf4jnsgd1na2vs0mg"},{"bike_id":"c975e813-d7d3-4c87-bd06-5dfd23811302","system_id":"levelo_inurba_marseille","lat":43.302998,"lon":5.392073,"is_reserved":false,"is_disabled":false,"rental_uris":{"android":"levelo://app?vid=c975e813-d7d3-4c87-bd06-5dfd23811302","ios":"levelo://app?vid=c975e813-d7d3-4c87-bd06-5dfd23811302"},"vehicle_type_id":"4","last_reported":1712077585,"current_range_meters":0,"station_id":"ce4bgkh2rcd13ifvqbk0","pricing_plan_id":"cebpf4jnsgd1na2vs0mg"},{"bike_id":"ef225298-4d16-46ed-8c6c-e46e53a9a24d","system_id":"levelo_inurba_marseille","lat":43.302992,"lon":5.392136,"is_reserved":false,"is_disabled":false,"rental_uris":{"android":"levelo://app?vid=ef225298-4d16-46ed-8c6c-e46e53a9a24d","ios":"levelo://app?vid=ef225298-4d16-46ed-8c6c-e46e53a9a24d"},"vehicle_type_id":"4","last_reported":1712077585,"current_range_meters":2000,"station_id":"ce4bgkh2rcd13ifvqbk0","pricing_plan_id":"cebpf4jnsgd1na2vs0mg"},{"bike_id":"46c49d98-ca5b-4763-a769-246c69d37db2","system_id":"levelo_inurba_marseille","lat":43.29378,"lon":5.37863,"is_reserved":false,"is_disabled":false,"rental_uris":{"android":"levelo://app?vid=46c49d98-ca5b-4763-a769-246c69d37db2","ios":"levelo://app?vid=46c49d98-ca5b-4763-a769-246c69d37db2"},"vehicle_type_id":"4","last_reported":1712077585,"current_range_meters":5600,"station_id":"ce4bgjh2rcd13ifvqbf0","pricing_plan_id":"cebpf4jnsgd1na2vs0mg"},{"bike_id":"d62693f8-f881-4ecb-b073-735de9b60e39","system_id":"levelo_inurba_marseille","lat":43.2936,"lon":5.37835,"is_reserved":false,"is_disabled":false,"rental_uris":{"android":"levelo://app?vid=d62693f8-f881-4ecb-b073-735de9b60e39","ios":"levelo://app?vid=d62693f8-f881-4ecb-b073-735de9b60e39"},"vehicle_type_id":"4","last_reported":1712077585,"current_range_meters":400,"station_id":"ce4bgjh2rcd13ifvqbf0","pricing_plan_id":"cebpf4jnsgd1na2vs0mg"},{"bike_id":"a5cd7527-0435-4e29-b9ae-b1146ff2d758","system_id":"levelo_inurba_marseille","lat":43.2936,"lon":5.37835,"is_reserved":false,"is_disabled":false,"rental_uris":{"android":"levelo://app?vid=a5cd7527-0435-4e29-b9ae-b1146ff2d758","ios":"levelo://app?vid=a5cd7527-0435-4e29-b9ae-b1146ff2d758"},"vehicle_type_id":"4","last_reported":1712077585,"current_range_meters":1200,"station_id":"ce4bgjh2rcd13ifvqbf0","pricing_plan_id":"cebpf4jnsgd1na2vs0mg"},{"bike_id":"d04f711d-764d-4982-97d8-879b4dad4f7c","system_id":"levelo_inurba_marseille","lat":43.300852,"lon":5.390859,"is_reserved":false,"is_disabled":false,"rental_uris":{"android":"levelo://app?vid=d04f711d-764d-4982-97d8-879b4dad4f7c","ios":"levelo://app?vid=d04f711d-764d-4982-97d8-879b4dad4f7c"},"vehicle_type_id":"4","last_reported":1712077585,"current_range_meters":10000,"station_id":"ce4bh192rcd13ifvqdb0","pricing_plan_id":"cebpf4jnsgd1na2vs0mg"},{"bike_id":"b0102155-fe37-4412-aac1-ef0397656252","system_id":"levelo_inurba_marseille","lat":43.292311,"lon":5.360731,"is_reserved":false,"is_disabled":false,"rental_uris":{"android":"levelo://app?vid=b0102155-fe37-4412-aac1-ef0397656252","ios":"levelo://app?vid=b0102155-fe37-4412-aac1-ef0397656252"},"vehicle_type_id":"4","last_reported":1712077585,"current_range_meters":4800,"station_id":"ce4bhbh2rcd13ifvqeqg","pricing_plan_id":"cebpf4jnsgd1na2vs0mg"},{"bike_id":"af39a0a7-870b-4c2a-a667-1e2612fb1936","system_id":"levelo_inurba_marseille","lat":43.292311,"lon":5.360731,"is_reserved":false,"is_disabled":false,"rental_uris":{"android":"levelo://app?vid=af39a0a7-870b-4c2a-a667-1e2612fb1936","ios":"levelo://app?vid=af39a0a7-870b-4c2a-a667-1e2612fb1936"},"vehicle_type_id":"4","last_reported":1712077585,"current_range_meters":19600,"station_id":"ce4bhbh2rcd13ifvqeqg","pricing_plan_id":"cebpf4jnsgd1na2vs0mg"},{"bike_id":"d5df74b2-64fb-42f9-8eb3-a5aba811a18c","system_id":"levelo_inurba_marseille","lat":43.292311,"lon":5.360731,"is_reserved":false,"is_disabled":false,"rental_uris":{"android":"levelo://app?vid=d5df74b2-64fb-42f9-8eb3-a5aba811a18c","ios":"levelo://app?vid=d5df74b2-64fb-42f9-8eb3-a5aba811a18c"},"vehicle_type_id":"4","last_reported":1712077585,"current_range_meters":5600,"station_id":"ce4bhbh2rcd13ifvqeqg","pricing_plan_id":"cebpf4jnsgd1na2vs0mg"},{"bike_id":"d79338ea-e968-4a55-87df-b7605e50503f","system_id":"levelo_inurba_marseille","lat":43.298764,"lon":5.388973,"is_reserved":false,"is_disabled":false,"rental_uris":{"android":"levelo://app?vid=d79338ea-e968-4a55-87df-b7605e50503f","ios":"levelo://app?vid=d79338ea-e968-4a55-87df-b7605e50503f"},"vehicle_type_id":"4","last_reported":1712077585,"current_range_meters":18800,"station_id":"ce4bh392rcd13ifvqdl0","pricing_plan_id":"cebpf4jnsgd1na2vs0mg"},{"bike_id":"d2ba58af-faf7-4c34-a644-3b300a64da1b","system_id":"levelo_inurba_marseille","lat":43.291671,"lon":5.371575,"is_reserved":false,"is_disabled":false,"rental_uris":{"android":"levelo://app?vid=d2ba58af-faf7-4c34-a644-3b300a64da1b","ios":"levelo://app?vid=d2ba58af-faf7-4c34-a644-3b300a64da1b"},"vehicle_type_id":"4","last_reported":1712077585,"current_range_meters":4400,"station_id":"ce4bha92rcd13ifvqeh0","pricing_plan_id":"cebpf4jnsgd1na2vs0mg"},{"bike_id":"3f5d1f58-95d6-4d88-8944-8ee19871741a","system_id":"levelo_inurba_marseille","lat":43.298764,"lon":5.388973,"is_reserved":false,"is_disabled":false,"rental_uris":{"android":"levelo://app?vid=3f5d1f58-95d6-4d88-8944-8ee19871741a","ios":"levelo://app?vid=3f5d1f58-95d6-4d88-8944-8ee19871741a"},"vehicle_type_id":"4","last_reported":1712077585,"current_range_meters":9600,"station_id":"ce4bh392rcd13ifvqdl0","pricing_plan_id":"cebpf4jnsgd1na2vs0mg"},{"bike_id":"bc98610a-eadf-4e98-a072-69bb08ad160c","system_id":"levelo_inurba_marseille","lat":43.291671,"lon":5.371575,"is_reserved":false,"is_disabled":false,"rental_uris":{"android":"levelo://app?vid=bc98610a-eadf-4e98-a072-69bb08ad160c","ios":"levelo://app?vid=bc98610a-eadf-4e98-a072-69bb08ad160c"},"vehicle_type_id":"4","last_reported":1712077585,"current_range_meters":8800,"station_id":"ce4bha92rcd13ifvqeh0","pricing_plan_id":"cebpf4jnsgd1na2vs0mg"},{"bike_id":"6931491b-23de-4065-b472-2364d117246e","system_id":"levelo_inurba_marseille","lat":43.291671,"lon":5.371575,"is_reserved":false,"is_disabled":false,"rental_uris":{"android":"levelo://app?vid=6931491b-23de-4065-b472-2364d117246e","ios":"levelo://app?vid=6931491b-23de-4065-b472-2364d117246e"},"vehicle_type_id":"4","last_reported":1712077585,"current_range_meters":24400,"station_id":"ce4bha92rcd13ifvqeh0","pricing_plan_id":"cebpf4jnsgd1na2vs0mg"},{"bike_id":"d5257aa9-34cc-4974-8600-732753464ab5","system_id":"levelo_inurba_marseille","lat":43.291671,"lon":5.371575,"is_reserved":false,"is_disabled":false,"rental_uris":{"android":"levelo://app?vid=d5257aa9-34cc-4974-8600-732753464ab5","ios":"levelo://app?vid=d5257aa9-34cc-4974-8600-732753464ab5"},"vehicle_type_id":"4","last_reported":1712077585,"current_range_meters":7200,"station_id":"ce4bha92rcd13ifvqeh0","pricing_plan_id":"cebpf4jnsgd1na2vs0mg"},{"bike_id":"d53d4d0b-fd06-4f95-820d-f24307c6db04","system_id":"levelo_inurba_marseille","lat":43.29529,"lon":5.385581,"is_reserved":false,"is_disabled":false,"rental_uris":{"android":"levelo://app?vid=d53d4d0b-fd06-4f95-820d-f24307c6db04","ios":"levelo://app?vid=d53d4d0b-fd06-4f95-820d-f24307c6db04"},"vehicle_type_id":"4","last_reported":1712077585,"current_range_meters":15200,"station_id":"ce4bgih2rcd13ifvqba0","pricing_plan_id":"cebpf4jnsgd1na2vs0mg"},{"bike_id":"edc730db-3f71-484a-9d5c-1c9721964e43","system_id":"levelo_inurba_marseille","lat":43.29529,"lon":5.385581,"is_reserved":false,"is_disabled":false,"rental_uris":{"android":"levelo://app?vid=edc730db-3f71-484a-9d5c-1c9721964e43","ios":"levelo://app?vid=edc730db-3f71-484a-9d5c-1c9721964e43"},"vehicle_type_id":"4","last_reported":1712077585,"current_range_meters":18800,"station_id":"ce4bgih2rcd13ifvqba0","pricing_plan_id":"cebpf4jnsgd1na2vs0mg"},{"bike_id":"f6ecc86b-a868-4c0f-b990-d0b26921f598","system_id":"levelo_inurba_marseille","lat":43.291994,"lon":5.357886,"is_reserved":false,"is_disabled":false,"rental_uris":{"android":"levelo://app?vid=f6ecc86b-a868-4c0f-b990-d0b26921f598","ios":"levelo://app?vid=f6ecc86b-a868-4c0f-b990-d0b26921f598"},"vehicle_type_id":"4","last_reported":1712077585,"current_range_meters":1200,"station_id":"ce4bhb12rcd13ifvqel0","pricing_plan_id":"cebpf4jnsgd1na2vs0mg"},{"bike_id":"9a3c9ba1-b14c-4ab9-b3b3-ff0cb9588538","system_id":"levelo_inurba_marseille","lat":43.291988,"lon":5.358064,"is_reserved":false,"is_disabled":false,"rental_uris":{"android":"levelo://app?vid=9a3c9ba1-b14c-4ab9-b3b3-ff0cb9588538","ios":"levelo://app?vid=9a3c9ba1-b14c-4ab9-b3b3-ff0cb9588538"},"vehicle_type_id":"4","last_reported":1712077585,"current_range_meters":5200,"station_id":"ce4bhb12rcd13ifvqel0","pricing_plan_id":"cebpf4jnsgd1na2vs0mg"},{"bike_id":"421b2001-4e40-4f47-a4e2-8ee8717c2231","system_id":"levelo_inurba_marseille","lat":43.291994,"lon":5.357886,"is_reserved":false,"is_disabled":false,"rental_uris":{"android":"levelo://app?vid=421b2001-4e40-4f47-a4e2-8ee8717c2231","ios":"levelo://app?vid=421b2001-4e40-4f47-a4e2-8ee8717c2231"},"vehicle_type_id":"4","last_reported":1712077585,"current_range_meters":29600,"station_id":"ce4bhb12rcd13ifvqel0","pricing_plan_id":"cebpf4jnsgd1na2vs0mg"},{"bike_id":"a6863b7c-3866-430f-a841-9b20c8cfa2c1","system_id":"levelo_inurba_marseille","lat":43.29529,"lon":5.385581,"is_reserved":false,"is_disabled":false,"rental_uris":{"android":"levelo://app?vid=a6863b7c-3866-430f-a841-9b20c8cfa2c1","ios":"levelo://app?vid=a6863b7c-3866-430f-a841-9b20c8cfa2c1"},"vehicle_type_id":"4","last_reported":1712077585,"current_range_meters":11600,"station_id":"ce4bgih2rcd13ifvqba0","pricing_plan_id":"cebpf4jnsgd1na2vs0mg"},{"bike_id":"3cbdba4a-7307-4047-8c34-716a00604c6f","system_id":"levelo_inurba_marseille","lat":43.31326,"lon":5.39684,"is_reserved":false,"is_disabled":false,"rental_uris":{"android":"levelo://app?vid=3cbdba4a-7307-4047-8c34-716a00604c6f","ios":"levelo://app?vid=3cbdba4a-7307-4047-8c34-716a00604c6f"},"vehicle_type_id":"4","last_reported":1712077585,"current_range_meters":6800,"station_id":"ce4bgvp2rcd13ifvqcu0","pricing_plan_id":"cebpf4jnsgd1na2vs0mg"},{"bike_id":"721f2b86-6811-43d6-b23e-e378fd714d55","system_id":"levelo_inurba_marseille","lat":43.313291,"lon":5.396838,"is_reserved":false,"is_disabled":false,"rental_uris":{"android":"levelo://app?vid=721f2b86-6811-43d6-b23e-e378fd714d55","ios":"levelo://app?vid=721f2b86-6811-43d6-b23e-e378fd714d55"},"vehicle_type_id":"4","last_reported":1712077585,"current_range_meters":7200,"station_id":"ce4bgvp2rcd13ifvqcu0","pricing_plan_id":"cebpf4jnsgd1na2vs0mg"},{"bike_id":"e83b9e87-e538-4ba0-bf54-e84b66a5f15e","system_id":"levelo_inurba_marseille","lat":43.291994,"lon":5.357886,"is_reserved":false,"is_disabled":false,"rental_uris":{"android":"levelo://app?vid=e83b9e87-e538-4ba0-bf54-e84b66a5f15e","ios":"levelo://app?vid=e83b9e87-e538-4ba0-bf54-e84b66a5f15e"},"vehicle_type_id":"4","last_reported":1712077585,"current_range_meters":27200,"station_id":"ce4bhb12rcd13ifvqel0","pricing_plan_id":"cebpf4jnsgd1na2vs0mg"},{"bike_id":"1fd13ad8-e31b-4b92-9c5b-dfe29af3c346","system_id":"levelo_inurba_marseille","lat":43.3133,"lon":5.39689,"is_reserved":false,"is_disabled":false,"rental_uris":{"android":"levelo://app?vid=1fd13ad8-e31b-4b92-9c5b-dfe29af3c346","ios":"levelo://app?vid=1fd13ad8-e31b-4b92-9c5b-dfe29af3c346"},"vehicle_type_id":"4","last_reported":1712077585,"current_range_meters":18800,"station_id":"ce4bgvp2rcd13ifvqcu0","pricing_plan_id":"cebpf4jnsgd1na2vs0mg"},{"bike_id":"3ca75e2e-e340-46b6-91ae-5a43ed6622cd","system_id":"levelo_inurba_marseille","lat":43.31334,"lon":5.39689,"is_reserved":false,"is_disabled":false,"rental_uris":{"android":"levelo://app?vid=3ca75e2e-e340-46b6-91ae-5a43ed6622cd","ios":"levelo://app?vid=3ca75e2e-e340-46b6-91ae-5a43ed6622cd"},"vehicle_type_id":"4","last_reported":1712077585,"current_range_meters":27600,"station_id":"ce4bgvp2rcd13ifvqcu0","pricing_plan_id":"cebpf4jnsgd1na2vs0mg"},{"bike_id":"d85d1275-479d-4f3e-a92b-0c930c8434ef","system_id":"levelo_inurba_marseille","lat":43.29195,"lon":5.35786,"is_reserved":false,"is_disabled":false,"rental_uris":{"android":"levelo://app?vid=d85d1275-479d-4f3e-a92b-0c930c8434ef","ios":"levelo://app?vid=d85d1275-479d-4f3e-a92b-0c930c8434ef"},"vehicle_type_id":"4","last_reported":1712077585,"current_range_meters":0,"station_id":"ce4bhb12rcd13ifvqel0","pricing_plan_id":"cebpf4jnsgd1na2vs0mg"},{"bike_id":"1c2bb0ff-c8d7-417f-b88d-8ac7b81709ef","system_id":"levelo_inurba_marseille","lat":43.313291,"lon":5.396838,"is_reserved":false,"is_disabled":false,"rental_uris":{"android":"levelo://app?vid=1c2bb0ff-c8d7-417f-b88d-8ac7b81709ef","ios":"levelo://app?vid=1c2bb0ff-c8d7-417f-b88d-8ac7b81709ef"},"vehicle_type_id":"4","last_reported":1712077585,"current_range_meters":16000,"station_id":"ce4bgvp2rcd13ifvqcu0","pricing_plan_id":"cebpf4jnsgd1na2vs0mg"},{"bike_id":"8d7a2a89-69e0-49c2-8183-f74dbc9f4305","system_id":"levelo_inurba_marseille","lat":43.313291,"lon":5.396838,"is_reserved":false,"is_disabled":false,"rental_uris":{"android":"levelo://app?vid=8d7a2a89-69e0-49c2-8183-f74dbc9f4305","ios":"levelo://app?vid=8d7a2a89-69e0-49c2-8183-f74dbc9f4305"},"vehicle_type_id":"4","last_reported":1712077585,"current_range_meters":24400,"station_id":"ce4bgvp2rcd13ifvqcu0","pricing_plan_id":"cebpf4jnsgd1na2vs0mg"},{"bike_id":"d67aeca3-46e5-4b6b-aba7-3f31f0f2c2de","system_id":"levelo_inurba_marseille","lat":43.313291,"lon":5.396838,"is_reserved":false,"is_disabled":false,"rental_uris":{"android":"levelo://app?vid=d67aeca3-46e5-4b6b-aba7-3f31f0f2c2de","ios":"levelo://app?vid=d67aeca3-46e5-4b6b-aba7-3f31f0f2c2de"},"vehicle_type_id":"4","last_reported":1712077585,"current_range_meters":26400,"station_id":"ce4bgvp2rcd13ifvqcu0","pricing_plan_id":"cebpf4jnsgd1na2vs0mg"},{"bike_id":"f131713f-04a9-4c9d-b6ad-0b3fc6fab4b0","system_id":"levelo_inurba_marseille","lat":43.313291,"lon":5.396838,"is_reserved":false,"is_disabled":false,"rental_uris":{"android":"levelo://app?vid=f131713f-04a9-4c9d-b6ad-0b3fc6fab4b0","ios":"levelo://app?vid=f131713f-04a9-4c9d-b6ad-0b3fc6fab4b0"},"vehicle_type_id":"4","last_reported":1712077585,"current_range_meters":19600,"station_id":"ce4bgvp2rcd13ifvqcu0","pricing_plan_id":"cebpf4jnsgd1na2vs0mg"},{"bike_id":"19678103-1bc1-46f8-ae27-256c14c6a433","system_id":"levelo_inurba_marseille","lat":43.29192,"lon":5.3579,"is_reserved":false,"is_disabled":false,"rental_uris":{"android":"levelo://app?vid=19678103-1bc1-46f8-ae27-256c14c6a433","ios":"levelo://app?vid=19678103-1bc1-46f8-ae27-256c14c6a433"},"vehicle_type_id":"4","last_reported":1712077585,"current_range_meters":19600,"station_id":"ce4bhb12rcd13ifvqel0","pricing_plan_id":"cebpf4jnsgd1na2vs0mg"},{"bike_id":"dfdb3a87-ebe7-4fd4-bb76-b85442708836","system_id":"levelo_inurba_marseille","lat":43.309047,"lon":5.396551,"is_reserved":false,"is_disabled":false,"rental_uris":{"android":"levelo://app?vid=dfdb3a87-ebe7-4fd4-bb76-b85442708836","ios":"levelo://app?vid=dfdb3a87-ebe7-4fd4-bb76-b85442708836"},"vehicle_type_id":"4","last_reported":1712077585,"current_range_meters":2800,"station_id":"ce4bh012rcd13ifvqcv0","pricing_plan_id":"cebpf4jnsgd1na2vs0mg"},{"bike_id":"13b207df-75e4-436f-859d-90ccead4b023","system_id":"levelo_inurba_marseille","lat":43.313291,"lon":5.396838,"is_reserved":false,"is_disabled":false,"rental_uris":{"android":"levelo://app?vid=13b207df-75e4-436f-859d-90ccead4b023","ios":"levelo://app?vid=13b207df-75e4-436f-859d-90ccead4b023"},"vehicle_type_id":"4","last_reported":1712077585,"current_range_meters":9200,"station_id":"ce4bgvp2rcd13ifvqcu0","pricing_plan_id":"cebpf4jnsgd1na2vs0mg"},{"bike_id":"6bca1787-c433-4c04-84b1-98e43dfdd3d2","system_id":"levelo_inurba_marseille","lat":43.313291,"lon":5.396838,"is_reserved":false,"is_disabled":false,"rental_uris":{"android":"levelo://app?vid=6bca1787-c433-4c04-84b1-98e43dfdd3d2","ios":"levelo://app?vid=6bca1787-c433-4c04-84b1-98e43dfdd3d2"},"vehicle_type_id":"4","last_reported":1712077585,"current_range_meters":8800,"station_id":"ce4bgvp2rcd13ifvqcu0","pricing_plan_id":"cebpf4jnsgd1na2vs0mg"},{"bike_id":"6975a647-121a-42ae-8ba7-8e23b9f17f17","system_id":"levelo_inurba_marseille","lat":43.313291,"lon":5.396838,"is_reserved":false,"is_disabled":false,"rental_uris":{"android":"levelo://app?vid=6975a647-121a-42ae-8ba7-8e23b9f17f17","ios":"levelo://app?vid=6975a647-121a-42ae-8ba7-8e23b9f17f17"},"vehicle_type_id":"4","last_reported":1712077585,"current_range_meters":30400,"station_id":"ce4bgvp2rcd13ifvqcu0","pricing_plan_id":"cebpf4jnsgd1na2vs0mg"},{"bike_id":"027f70ff-55c0-49b8-b085-afc8aa0947c8","system_id":"levelo_inurba_marseille","lat":43.31327,"lon":5.39694,"is_reserved":false,"is_disabled":false,"rental_uris":{"android":"levelo://app?vid=027f70ff-55c0-49b8-b085-afc8aa0947c8","ios":"levelo://app?vid=027f70ff-55c0-49b8-b085-afc8aa0947c8"},"vehicle_type_id":"4","last_reported":1712077585,"current_range_meters":16800,"station_id":"ce4bgvp2rcd13ifvqcu0","pricing_plan_id":"cebpf4jnsgd1na2vs0mg"},{"bike_id":"758c9e68-3e93-4580-818e-2d8c206f3e1e","system_id":"levelo_inurba_marseille","lat":43.313291,"lon":5.396838,"is_reserved":false,"is_disabled":false,"rental_uris":{"android":"levelo://app?vid=758c9e68-3e93-4580-818e-2d8c206f3e1e","ios":"levelo://app?vid=758c9e68-3e93-4580-818e-2d8c206f3e1e"},"vehicle_type_id":"4","last_reported":1712077585,"current_range_meters":18800,"station_id":"ce4bgvp2rcd13ifvqcu0","pricing_plan_id":"cebpf4jnsgd1na2vs0mg"},{"bike_id":"4720acab-ba49-4257-90cd-05c452f06ab1","system_id":"levelo_inurba_marseille","lat":43.313291,"lon":5.396838,"is_reserved":false,"is_disabled":false,"rental_uris":{"android":"levelo://app?vid=4720acab-ba49-4257-90cd-05c452f06ab1","ios":"levelo://app?vid=4720acab-ba49-4257-90cd-05c452f06ab1"},"vehicle_type_id":"4","last_reported":1712077585,"current_range_meters":22800,"station_id":"ce4bgvp2rcd13ifvqcu0","pricing_plan_id":"cebpf4jnsgd1na2vs0mg"},{"bike_id":"ececb7a5-40cf-4cc8-ae9e-093e5952cb8f","system_id":"levelo_inurba_marseille","lat":43.313291,"lon":5.396838,"is_reserved":false,"is_disabled":false,"rental_uris":{"android":"levelo://app?vid=ececb7a5-40cf-4cc8-ae9e-093e5952cb8f","ios":"levelo://app?vid=ececb7a5-40cf-4cc8-ae9e-093e5952cb8f"},"vehicle_type_id":"4","last_reported":1712077585,"current_range_meters":31200,"station_id":"ce4bgvp2rcd13ifvqcu0","pricing_plan_id":"cebpf4jnsgd1na2vs0mg"},{"bike_id":"5b28664a-7d76-41ba-b52f-2783544a572f","system_id":"levelo_inurba_marseille","lat":43.313291,"lon":5.396838,"is_reserved":false,"is_disabled":false,"rental_uris":{"android":"levelo://app?vid=5b28664a-7d76-41ba-b52f-2783544a572f","ios":"levelo://app?vid=5b28664a-7d76-41ba-b52f-2783544a572f"},"vehicle_type_id":"4","last_reported":1712077585,"current_range_meters":21600,"station_id":"ce4bgvp2rcd13ifvqcu0","pricing_plan_id":"cebpf4jnsgd1na2vs0mg"},{"bike_id":"f282480c-ddfd-431f-b3f2-9176c05bdfe4","system_id":"levelo_inurba_marseille","lat":43.309038,"lon":5.396546,"is_reserved":false,"is_disabled":false,"rental_uris":{"android":"levelo://app?vid=f282480c-ddfd-431f-b3f2-9176c05bdfe4","ios":"levelo://app?vid=f282480c-ddfd-431f-b3f2-9176c05bdfe4"},"vehicle_type_id":"4","last_reported":1712077585,"current_range_meters":400,"station_id":"ce4bh012rcd13ifvqcv0","pricing_plan_id":"cebpf4jnsgd1na2vs0mg"},{"bike_id":"99654399-76cf-4409-9468-ea259b648927","system_id":"levelo_inurba_marseille","lat":43.313291,"lon":5.396838,"is_reserved":false,"is_disabled":false,"rental_uris":{"android":"levelo://app?vid=99654399-76cf-4409-9468-ea259b648927","ios":"levelo://app?vid=99654399-76cf-4409-9468-ea259b648927"},"vehicle_type_id":"4","last_reported":1712077585,"current_range_meters":30000,"station_id":"ce4bgvp2rcd13ifvqcu0","pricing_plan_id":"cebpf4jnsgd1na2vs0mg"},{"bike_id":"ae3435e1-c124-459a-a4f5-91df86b495a9","system_id":"levelo_inurba_marseille","lat":43.313285,"lon":5.397028,"is_reserved":false,"is_disabled":false,"rental_uris":{"android":"levelo://app?vid=ae3435e1-c124-459a-a4f5-91df86b495a9","ios":"levelo://app?vid=ae3435e1-c124-459a-a4f5-91df86b495a9"},"vehicle_type_id":"4","last_reported":1712077585,"current_range_meters":14400,"station_id":"ce4bgvp2rcd13ifvqcu0","pricing_plan_id":"cebpf4jnsgd1na2vs0mg"},{"bike_id":"53884061-11c8-433e-b5a4-53baeb63bec8","system_id":"levelo_inurba_marseille","lat":43.29529,"lon":5.385581,"is_reserved":false,"is_disabled":false,"rental_uris":{"android":"levelo://app?vid=53884061-11c8-433e-b5a4-53baeb63bec8","ios":"levelo://app?vid=53884061-11c8-433e-b5a4-53baeb63bec8"},"vehicle_type_id":"4","last_reported":1712077585,"current_range_meters":18000,"station_id":"ce4bgih2rcd13ifvqba0","pricing_plan_id":"cebpf4jnsgd1na2vs0mg"},{"bike_id":"9e3528b7-5809-4441-bb56-cdceba43a3e2","system_id":"levelo_inurba_marseille","lat":43.29529,"lon":5.385581,"is_reserved":false,"is_disabled":false,"rental_uris":{"android":"levelo://app?vid=9e3528b7-5809-4441-bb56-cdceba43a3e2","ios":"levelo://app?vid=9e3528b7-5809-4441-bb56-cdceba43a3e2"},"vehicle_type_id":"4","last_reported":1712077585,"current_range_meters":8000,"station_id":"ce4bgih2rcd13ifvqba0","pricing_plan_id":"cebpf4jnsgd1na2vs0mg"},{"bike_id":"bcb77f84-8b64-4742-9709-2b2a1346eec8","system_id":"levelo_inurba_marseille","lat":43.29529,"lon":5.385581,"is_reserved":false,"is_disabled":false,"rental_uris":{"android":"levelo://app?vid=bcb77f84-8b64-4742-9709-2b2a1346eec8","ios":"levelo://app?vid=bcb77f84-8b64-4742-9709-2b2a1346eec8"},"vehicle_type_id":"4","last_reported":1712077585,"current_range_meters":21600,"station_id":"ce4bgih2rcd13ifvqba0","pricing_plan_id":"cebpf4jnsgd1na2vs0mg"},{"bike_id":"e2898edc-3b01-4a51-94bd-acb0cfd833aa","system_id":"levelo_inurba_marseille","lat":43.29529,"lon":5.385581,"is_reserved":false,"is_disabled":false,"rental_uris":{"android":"levelo://app?vid=e2898edc-3b01-4a51-94bd-acb0cfd833aa","ios":"levelo://app?vid=e2898edc-3b01-4a51-94bd-acb0cfd833aa"},"vehicle_type_id":"4","last_reported":1712077585,"current_range_meters":9600,"station_id":"ce4bgih2rcd13ifvqba0","pricing_plan_id":"cebpf4jnsgd1na2vs0mg"},{"bike_id":"170e414e-31e2-4501-b5bd-1b3bb6fefd68","system_id":"levelo_inurba_marseille","lat":43.29529,"lon":5.385581,"is_reserved":false,"is_disabled":false,"rental_uris":{"android":"levelo://app?vid=170e414e-31e2-4501-b5bd-1b3bb6fefd68","ios":"levelo://app?vid=170e414e-31e2-4501-b5bd-1b3bb6fefd68"},"vehicle_type_id":"4","last_reported":1712077585,"current_range_meters":800,"station_id":"ce4bgih2rcd13ifvqba0","pricing_plan_id":"cebpf4jnsgd1na2vs0mg"},{"bike_id":"d8b1e8a9-daa7-4c99-955d-c4a47be9ec8c","system_id":"levelo_inurba_marseille","lat":43.29529,"lon":5.385581,"is_reserved":false,"is_disabled":false,"rental_uris":{"android":"levelo://app?vid=d8b1e8a9-daa7-4c99-955d-c4a47be9ec8c","ios":"levelo://app?vid=d8b1e8a9-daa7-4c99-955d-c4a47be9ec8c"},"vehicle_type_id":"4","last_reported":1712077585,"current_range_meters":31200,"station_id":"ce4bgih2rcd13ifvqba0","pricing_plan_id":"cebpf4jnsgd1na2vs0mg"},{"bike_id":"6ed46935-3475-4628-80a6-6d6bfe069ef0","system_id":"levelo_inurba_marseille","lat":43.29529,"lon":5.385581,"is_reserved":false,"is_disabled":false,"rental_uris":{"android":"levelo://app?vid=6ed46935-3475-4628-80a6-6d6bfe069ef0","ios":"levelo://app?vid=6ed46935-3475-4628-80a6-6d6bfe069ef0"},"vehicle_type_id":"4","last_reported":1712077585,"current_range_meters":18000,"station_id":"ce4bgih2rcd13ifvqba0","pricing_plan_id":"cebpf4jnsgd1na2vs0mg"},{"bike_id":"5eb26f75-f98d-4d37-87cc-b5090867a7d7","system_id":"levelo_inurba_marseille","lat":43.29529,"lon":5.385581,"is_reserved":false,"is_disabled":false,"rental_uris":{"android":"levelo://app?vid=5eb26f75-f98d-4d37-87cc-b5090867a7d7","ios":"levelo://app?vid=5eb26f75-f98d-4d37-87cc-b5090867a7d7"},"vehicle_type_id":"4","last_reported":1712077585,"current_range_meters":24400,"station_id":"ce4bgih2rcd13ifvqba0","pricing_plan_id":"cebpf4jnsgd1na2vs0mg"},{"bike_id":"df6e6a25-e983-4786-81ab-4e5668669891","system_id":"levelo_inurba_marseille","lat":43.29529,"lon":5.385581,"is_reserved":false,"is_disabled":false,"rental_uris":{"android":"levelo://app?vid=df6e6a25-e983-4786-81ab-4e5668669891","ios":"levelo://app?vid=df6e6a25-e983-4786-81ab-4e5668669891"},"vehicle_type_id":"4","last_reported":1712077585,"current_range_meters":21600,"station_id":"ce4bgih2rcd13ifvqba0","pricing_plan_id":"cebpf4jnsgd1na2vs0mg"},{"bike_id":"65a4207f-9f07-42a0-bcc3-352a417ed400","system_id":"levelo_inurba_marseille","lat":43.29529,"lon":5.385581,"is_reserved":false,"is_disabled":false,"rental_uris":{"android":"levelo://app?vid=65a4207f-9f07-42a0-bcc3-352a417ed400","ios":"levelo://app?vid=65a4207f-9f07-42a0-bcc3-352a417ed400"},"vehicle_type_id":"4","last_reported":1712077585,"current_range_meters":26000,"station_id":"ce4bgih2rcd13ifvqba0","pricing_plan_id":"cebpf4jnsgd1na2vs0mg"},{"bike_id":"a47e2c6e-b48c-4d1e-8d4a-140a573b2ae2","system_id":"levelo_inurba_marseille","lat":43.29529,"lon":5.385581,"is_reserved":false,"is_disabled":false,"rental_uris":{"android":"levelo://app?vid=a47e2c6e-b48c-4d1e-8d4a-140a573b2ae2","ios":"levelo://app?vid=a47e2c6e-b48c-4d1e-8d4a-140a573b2ae2"},"vehicle_type_id":"4","last_reported":1712077585,"current_range_meters":23200,"station_id":"ce4bgih2rcd13ifvqba0","pricing_plan_id":"cebpf4jnsgd1na2vs0mg"},{"bike_id":"4f21347a-342a-4a31-8661-244c2fb5ab44","system_id":"levelo_inurba_marseille","lat":43.29529,"lon":5.385581,"is_reserved":false,"is_disabled":false,"rental_uris":{"android":"levelo://app?vid=4f21347a-342a-4a31-8661-244c2fb5ab44","ios":"levelo://app?vid=4f21347a-342a-4a31-8661-244c2fb5ab44"},"vehicle_type_id":"4","last_reported":1712077585,"current_range_meters":17600,"station_id":"ce4bgih2rcd13ifvqba0","pricing_plan_id":"cebpf4jnsgd1na2vs0mg"},{"bike_id":"3b05aa18-c3a0-4bee-ac64-2d43ff25bfff","system_id":"levelo_inurba_marseille","lat":43.29529,"lon":5.385581,"is_reserved":false,"is_disabled":false,"rental_uris":{"android":"levelo://app?vid=3b05aa18-c3a0-4bee-ac64-2d43ff25bfff","ios":"levelo://app?vid=3b05aa18-c3a0-4bee-ac64-2d43ff25bfff"},"vehicle_type_id":"4","last_reported":1712077585,"current_range_meters":0,"station_id":"ce4bgih2rcd13ifvqba0","pricing_plan_id":"cebpf4jnsgd1na2vs0mg"},{"bike_id":"0e388c5b-6018-40a0-8c36-2e6b40578bd2","system_id":"levelo_inurba_marseille","lat":43.290779,"lon":5.371482,"is_reserved":false,"is_disabled":false,"rental_uris":{"android":"levelo://app?vid=0e388c5b-6018-40a0-8c36-2e6b40578bd2","ios":"levelo://app?vid=0e388c5b-6018-40a0-8c36-2e6b40578bd2"},"vehicle_type_id":"4","last_reported":1712077585,"current_range_meters":24000,"station_id":"ce4bh5p2rcd13ifvqe4g","pricing_plan_id":"cebpf4jnsgd1na2vs0mg"},{"bike_id":"00d8f0cd-c82e-4364-8f85-b5d17d2c4765","system_id":"levelo_inurba_marseille","lat":43.290779,"lon":5.371482,"is_reserved":false,"is_disabled":false,"rental_uris":{"android":"levelo://app?vid=00d8f0cd-c82e-4364-8f85-b5d17d2c4765","ios":"levelo://app?vid=00d8f0cd-c82e-4364-8f85-b5d17d2c4765"},"vehicle_type_id":"4","last_reported":1712077585,"current_range_meters":24400,"station_id":"ce4bh5p2rcd13ifvqe4g","pricing_plan_id":"cebpf4jnsgd1na2vs0mg"},{"bike_id":"9fdb5f91-603b-4ba6-b0c2-50ffe0c12b22","system_id":"levelo_inurba_marseille","lat":43.290779,"lon":5.371482,"is_reserved":false,"is_disabled":false,"rental_uris":{"android":"levelo://app?vid=9fdb5f91-603b-4ba6-b0c2-50ffe0c12b22","ios":"levelo://app?vid=9fdb5f91-603b-4ba6-b0c2-50ffe0c12b22"},"vehicle_type_id":"4","last_reported":1712077585,"current_range_meters":16800,"station_id":"ce4bh5p2rcd13ifvqe4g","pricing_plan_id":"cebpf4jnsgd1na2vs0mg"},{"bike_id":"f7ee884e-c95b-4733-9507-c2089f581c6f","system_id":"levelo_inurba_marseille","lat":43.290779,"lon":5.371482,"is_reserved":false,"is_disabled":false,"rental_uris":{"android":"levelo://app?vid=f7ee884e-c95b-4733-9507-c2089f581c6f","ios":"levelo://app?vid=f7ee884e-c95b-4733-9507-c2089f581c6f"},"vehicle_type_id":"4","last_reported":1712077585,"current_range_meters":2800,"station_id":"ce4bh5p2rcd13ifvqe4g","pricing_plan_id":"cebpf4jnsgd1na2vs0mg"},{"bike_id":"9e8ad412-6770-42c4-ba22-b5bfb85b058f","system_id":"levelo_inurba_marseille","lat":43.289468,"lon":5.363719,"is_reserved":false,"is_disabled":false,"rental_uris":{"android":"levelo://app?vid=9e8ad412-6770-42c4-ba22-b5bfb85b058f","ios":"levelo://app?vid=9e8ad412-6770-42c4-ba22-b5bfb85b058f"},"vehicle_type_id":"4","last_reported":1712077585,"current_range_meters":4800,"station_id":"ce4bhc92rcd13ifvqetg","pricing_plan_id":"cebpf4jnsgd1na2vs0mg"},{"bike_id":"a25f3809-dc93-49b2-a435-29c5fa11d3d8","system_id":"levelo_inurba_marseille","lat":43.298681,"lon":5.397225,"is_reserved":false,"is_disabled":false,"rental_uris":{"android":"levelo://app?vid=a25f3809-dc93-49b2-a435-29c5fa11d3d8","ios":"levelo://app?vid=a25f3809-dc93-49b2-a435-29c5fa11d3d8"},"vehicle_type_id":"4","last_reported":1712077585,"current_range_meters":14400,"station_id":"ce4bh0h2rcd13ifvqd50","pricing_plan_id":"cebpf4jnsgd1na2vs0mg"},{"bike_id":"f6d32d62-5be4-4188-a0ff-fbfeb94efbbd","system_id":"levelo_inurba_marseille","lat":43.2948,"lon":5.386115,"is_reserved":false,"is_disabled":false,"rental_uris":{"android":"levelo://app?vid=f6d32d62-5be4-4188-a0ff-fbfeb94efbbd","ios":"levelo://app?vid=f6d32d62-5be4-4188-a0ff-fbfeb94efbbd"},"vehicle_type_id":"4","last_reported":1712077585,"current_range_meters":0,"station_id":"ce4bh2h2rcd13ifvqdh0","pricing_plan_id":"cebpf4jnsgd1na2vs0mg"},{"bike_id":"867dbe54-c325-4055-8aba-93a01713ca99","system_id":"levelo_inurba_marseille","lat":43.302008,"lon":5.394694,"is_reserved":false,"is_disabled":false,"rental_uris":{"android":"levelo://app?vid=867dbe54-c325-4055-8aba-93a01713ca99","ios":"levelo://app?vid=867dbe54-c325-4055-8aba-93a01713ca99"},"vehicle_type_id":"4","last_reported":1712077585,"current_range_meters":0,"station_id":"ce4bh0p2rcd13ifvqd70","pricing_plan_id":"cebpf4jnsgd1na2vs0mg"},{"bike_id":"3be8deda-52e5-4161-ad29-d1035a32ce85","system_id":"levelo_inurba_marseille","lat":43.30207,"lon":5.39469,"is_reserved":false,"is_disabled":false,"rental_uris":{"android":"levelo://app?vid=3be8deda-52e5-4161-ad29-d1035a32ce85","ios":"levelo://app?vid=3be8deda-52e5-4161-ad29-d1035a32ce85"},"vehicle_type_id":"4","last_reported":1712077585,"current_range_meters":4000,"station_id":"ce4bh0p2rcd13ifvqd70","pricing_plan_id":"cebpf4jnsgd1na2vs0mg"},{"bike_id":"8ea1bd59-7018-441f-abb1-e89330fef94e","system_id":"levelo_inurba_marseille","lat":43.290104,"lon":5.356111,"is_reserved":false,"is_disabled":false,"rental_uris":{"android":"levelo://app?vid=8ea1bd59-7018-441f-abb1-e89330fef94e","ios":"levelo://app?vid=8ea1bd59-7018-441f-abb1-e89330fef94e"},"vehicle_type_id":"4","last_reported":1712077585,"current_range_meters":0,"station_id":"ce4bhb92rcd13ifvqen0","pricing_plan_id":"cebpf4jnsgd1na2vs0mg"},{"bike_id":"ef08ee39-e11a-4bb6-91ed-b00875e07f8a","system_id":"levelo_inurba_marseille","lat":43.29529,"lon":5.385581,"is_reserved":false,"is_disabled":false,"rental_uris":{"android":"levelo://app?vid=ef08ee39-e11a-4bb6-91ed-b00875e07f8a","ios":"levelo://app?vid=ef08ee39-e11a-4bb6-91ed-b00875e07f8a"},"vehicle_type_id":"4","last_reported":1712077585,"current_range_meters":800,"station_id":"ce4bgih2rcd13ifvqba0","pricing_plan_id":"cebpf4jnsgd1na2vs0mg"},{"bike_id":"d85b135d-21a7-43a7-908c-667eaa124dd3","system_id":"levelo_inurba_marseille","lat":43.294551,"lon":5.38631,"is_reserved":false,"is_disabled":false,"rental_uris":{"android":"levelo://app?vid=d85b135d-21a7-43a7-908c-667eaa124dd3","ios":"levelo://app?vid=d85b135d-21a7-43a7-908c-667eaa124dd3"},"vehicle_type_id":"4","last_reported":1712077585,"current_range_meters":0,"station_id":"ce4bh0p2rcd13ifvqd70","pricing_plan_id":"cebpf4jnsgd1na2vs0mg"},{"bike_id":"b8cad90e-3538-4014-8dfd-a7292e90b634","system_id":"levelo_inurba_marseille","lat":43.294313,"lon":5.386089,"is_reserved":false,"is_disabled":false,"rental_uris":{"android":"levelo://app?vid=b8cad90e-3538-4014-8dfd-a7292e90b634","ios":"levelo://app?vid=b8cad90e-3538-4014-8dfd-a7292e90b634"},"vehicle_type_id":"4","last_reported":1712077585,"current_range_meters":10800,"station_id":"ce4bh2h2rcd13ifvqdh0","pricing_plan_id":"cebpf4jnsgd1na2vs0mg"},{"bike_id":"b0584631-4232-4144-a8a3-f9d3294a24a5","system_id":"levelo_inurba_marseille","lat":43.289624,"lon":5.366437,"is_reserved":false,"is_disabled":false,"rental_uris":{"android":"levelo://app?vid=b0584631-4232-4144-a8a3-f9d3294a24a5","ios":"levelo://app?vid=b0584631-4232-4144-a8a3-f9d3294a24a5"},"vehicle_type_id":"4","last_reported":1712077585,"current_range_meters":10400,"station_id":"ce4bhap2rcd13ifvqek0","pricing_plan_id":"cebpf4jnsgd1na2vs0mg"},{"bike_id":"18a26676-ae67-43c7-a3dc-5b293ddb58c0","system_id":"levelo_inurba_marseille","lat":43.29422,"lon":5.38616,"is_reserved":false,"is_disabled":false,"rental_uris":{"android":"levelo://app?vid=18a26676-ae67-43c7-a3dc-5b293ddb58c0","ios":"levelo://app?vid=18a26676-ae67-43c7-a3dc-5b293ddb58c0"},"vehicle_type_id":"4","last_reported":1712077585,"current_range_meters":24400,"station_id":"ce4bh2h2rcd13ifvqdh0","pricing_plan_id":"cebpf4jnsgd1na2vs0mg"},