{"last_updated":1744279866,"ttl":60,"version":"2.2","data":{"bikes":[{"bike_id":"46156e5f-25cc-45da-83c4-da2aa986f209","system_id":"levelo_inurba_marseille","lat":43.24704,"lon":5.41187,"is_reserved":false,"is_disabled":false,"rental_uris":{"android":"levelo://app?vid=46156e5f-25cc-45da-83c4-da2aa986f209","ios":"levelo://app?vid=46156e5f-25cc-45da-83c4-da2aa986f209"},"vehicle_type_id":"4","last_reported":1744279867,"current_range_meters":2800,"station_id":"","pricing_plan_id":"cebpf4jnsgd1na2vs0mg"},{"bike_id":"06122371-36c4-4072-8121-df72cdba9f39","system_id":"levelo_inurba_marseille","lat":43.25487,"lon":5.37657,"is_reserved":false,"is_disabled":false,"rental_uris":{"android":"levelo://app?vid=06122371-36c4-4072-8121-df72cdba9f39","ios":"levelo://app?vid=06122371-36c4-4072-8121-df72cdba9f39"},"vehicle_type_id":"4","last_reported":1744279867,"current_range_meters":2800,"station_id":"ce4bhh12rcd13ifvqff0","pricing_plan_id":"cebpf4jnsgd1na2vs0mg"},{"bike_id":"768e903f-f3e6-4581-9c8a-59e608429ee4","system_id":"levelo_inurba_marseille","lat":43.26689,"lon":5.38266,"is_reserved":false,"is_disabled":false,"rental_uris":{"android":"levelo://app?vid=768e903f-f3e6-4581-9c8a-59e608429ee4","ios":"levelo://app?vid=768e903f-f3e6-4581-9c8a-59e608429ee4"},"vehicle_type_id":"4","last_reported":1744279867,"current_range_meters":2800,"station_id":"ce4bhg92rcd13ifvqf90","pricing_plan_id":"cebpf4jnsgd1na2vs0mg"},{"bike_id":"2c3f49ca-a88d-4799-ae6d-bda38d40f4e9","system_id":"levelo_inurba_marseille","lat":43.29076,"lon":5.37162,"is_reserved":false,"is_disabled":false,"rental_uris":{"android":"levelo://app?vid=2c3f49ca-a88d-4799-ae6d-bda38d40f4e9","ios":"levelo://app?vid=2c3f49ca-a88d-4799-ae6d-bda38d40f4e9"},"vehicle_type_id":"4","last_reported":1744279867,"current_range_meters":3200,"station_id":"ce4bh5p2rcd13ifvqe4g","pricing_plan_id":"cebpf4jnsgd1na2vs0mg"},{"bike_id":"e22541c6-9140-4f51-89c8-f8557fbd8497","system_id":"levelo_inurba_marseille","lat":43.30177,"lon":5.36592,"is_reserved":false,"is_disabled":false,"rental_uris":{"android":"levelo://app?vid=e22541c6-9140-4f51-89c8-f8557fbd8497","ios":"levelo://app?vid=e22541c6-9140-4f51-89c8-f8557fbd8497"},"vehicle_type_id":"4","last_reported":1744279867,"current_range_meters":0,"station_id":"ce4bgrh2rcd13ifvqc8g","pricing_plan_id":"cebpf4jnsgd1na2vs0mg"},{"bike_id":"41b6c9a1-b1e8-4629-adb9-0117c46c7cc3","system_id":"levelo_inurba_marseille","lat":43.28154,"lon":5.42637,"is_reserved":false,"is_disabled":false,"rental_uris":{"android":"levelo://app?vid=41b6c9a1-b1e8-4629-adb9-0117c46c7cc3","ios":"levelo://app?vid=41b6c9a1-b1e8-4629-adb9-0117c46c7cc3"},"vehicle_type_id":"4","last_reported":1744279867,"current_range_meters":3600,"station_id":"ce4bhnh2rcd13ifvqgug","pricing_plan_id":"cebpf4jnsgd1na2vs0mg"},{"bike_id":"68d1cc33-0218-451e-8e10-d32225c21263","system_id":"levelo_inurba_marseille","lat":43.23156,"lon":5.43689,"is_reserved":false,"is_disabled":true,"rental_uris":{"android":"levelo://app?vid=68d1cc33-0218-451e-8e10-d32225c21263","ios":"levelo://app?vid=68d1cc33-0218-451e-8e10-d32225c21263"},"vehicle_type_id":"4","last_reported":1744279867,"current_range_meters":3600,"station_id":"ce4bhmp2rcd13ifvqgog","pricing_plan_id":"cebpf4jnsgd1na2vs0mg"},{"bike_id":"0a1ddc08-07d0-4b06-87b4-48210e3b698e","system_id":"levelo_inurba_marseille","lat":43.2315,"lon":5.43717,"is_reserved":false,"is_disabled":false,"rental_uris":{"android":"levelo://app?vid=0a1ddc08-07d0-4b06-87b4-48210e3b698e","ios":"levelo://app?vid=0a1ddc08-07d0-4b06-87b4-48210e3b698e"},"vehicle_type_id":"4","last_reported":1744279867,"current_range_meters":3600,"station_id":"ce4bhmp2rcd13ifvqgog","pricing_plan_id":"cebpf4jnsgd1na2vs0mg"},{"bike_id":"c40a2e2c-2a66-4aa2-81cf-c4ae98211b54","system_id":"levelo_inurba_marseille","lat":43.21748,"lon":5.34605,"is_reserved":false,"is_disabled":false,"rental_uris":{"android":"levelo://app?vid=c40a2e2c-2a66-4aa2-81cf-c4ae98211b54","ios":"levelo://app?vid=c40a2e2c-2a66-4aa2-81cf-c4ae98211b54"},"vehicle_type_id":"4","last_reported":1744279867,"current_range_meters":4000,"station_id":"st_cvj6r9ubvosntc0bgbag","pricing_plan_id":"cebpf4jnsgd1na2vs0mg"},{"bike_id":"83c23dd8-d315-428e-b915-6dfe0d42cef7","system_id":"levelo_inurba_marseille","lat":43.31333,"lon":5.36674,"is_reserved":false,"is_disabled":false,"rental_uris":{"android":"levelo://app?vid=83c23dd8-d315-428e-b915-6dfe0d42cef7","ios":"levelo://app?vid=83c23dd8-d315-428e-b915-6dfe0d42cef7"},"vehicle_type_id":"4","last_reported":1744279867,"current_range_meters":4000,"station_id":"ce4bgr92rcd13ifvqc6g","pricing_plan_id":"cebpf4jnsgd1na2vs0mg"},{"bike_id":"038afb61-b62b-4c5a-a922-15346ae0c0ed","system_id":"levelo_inurba_marseille","lat":43.290192,"lon":5.386263,"is_reserved":false,"is_disabled":false,"rental_uris":{"android":"levelo://app?vid=038afb61-b62b-4c5a-a922-15346ae0c0ed","ios":"levelo://app?vid=038afb61-b62b-4c5a-a922-15346ae0c0ed"},"vehicle_type_id":"4","last_reported":1744279867,"current_range_meters":4400,"station_id":"ce4bh392rcd13ifvqdl0","pricing_plan_id":"cebpf4jnsgd1na2vs0mg"},{"bike_id":"f8c59c6f-c732-4e8a-bdaf-a0d1c34c7ddb","system_id":"levelo_inurba_marseille","lat":43.30325,"lon":5.40431,"is_reserved":false,"is_disabled":false,"rental_uris":{"android":"levelo://app?vid=f8c59c6f-c732-4e8a-bdaf-a0d1c34c7ddb","ios":"levelo://app?vid=f8c59c6f-c732-4e8a-bdaf-a0d1c34c7ddb"},"vehicle_type_id":"4","last_reported":1744279867,"current_range_meters":4400,"station_id":"ce4bh012rcd13ifvqd10","pricing_plan_id":"cebpf4jnsgd1na2vs0mg"},{"bike_id":"80663e12-6b64-446d-88c9-20255bde1a8a","system_id":"levelo_inurba_marseille","lat":43.30894,"lon":5.396353,"is_reserved":false,"is_disabled":true,"rental_uris":{"android":"levelo://app?vid=80663e12-6b64-446d-88c9-20255bde1a8a","ios":"levelo://app?vid=80663e12-6b64-446d-88c9-20255bde1a8a"},"vehicle_type_id":"4","last_reported":1744279867,"current_range_meters":4800,"station_id":"ce4bh012rcd13ifvqcv0","pricing_plan_id":"cebpf4jnsgd1na2vs0mg"},{"bike_id":"bf0c585e-5b41-4721-a51a-71274899cf15","system_id":"levelo_inurba_marseille","lat":43.29665,"lon":5.37862,"is_reserved":false,"is_disabled":false,"rental_uris":{"android":"levelo://app?vid=bf0c585e-5b41-4721-a51a-71274899cf15","ios":"levelo://app?vid=bf0c585e-5b41-4721-a51a-71274899cf15"},"vehicle_type_id":"4","last_reported":1744279867,"current_range_meters":4800,"station_id":"","pricing_plan_id":"cebpf4jnsgd1na2vs0mg"},{"bike_id":"0623768f-905c-46e4-b1c3-3c8047db19e3","system_id":"levelo_inurba_marseille","lat":43.31335,"lon":5.39707,"is_reserved":false,"is_disabled":false,"rental_uris":{"android":"levelo://app?vid=0623768f-905c-46e4-b1c3-3c8047db19e3","ios":"levelo://app?vid=0623768f-905c-46e4-b1c3-3c8047db19e3"},"vehicle_type_id":"4","last_reported":1744279867,"current_range_meters":4800,"station_id":"ce4bgvp2rcd13ifvqcu0","pricing_plan_id":"cebpf4jnsgd1na2vs0mg"},{"bike_id":"feca3d9e-12e9-4a3a-8f8a-211aa953b3fa","system_id":"levelo_inurba_marseille","lat":43.29322,"lon":5.41157,"is_reserved":false,"is_disabled":false,"rental_uris":{"android":"levelo://app?vid=feca3d9e-12e9-4a3a-8f8a-211aa953b3fa","ios":"levelo://app?vid=feca3d9e-12e9-4a3a-8f8a-211aa953b3fa"},"vehicle_type_id":"4","last_reported":1744279867,"current_range_meters":4800,"station_id":"","pricing_plan_id":"cebpf4jnsgd1na2vs0mg"},{"bike_id":"97d9f5c7-5601-4024-8218-e080850705e4","system_id":"levelo_inurba_marseille","lat":43.28435,"lon":5.34992,"is_reserved":false,"is_disabled":true,"rental_uris":{"android":"levelo://app?vid=97d9f5c7-5601-4024-8218-e080850705e4","ios":"levelo://app?vid=97d9f5c7-5601-4024-8218-e080850705e4"},"vehicle_type_id":"4","last_reported":1744279867,"current_range_meters":4800,"station_id":"ce4bhbh2rcd13ifvqepg","pricing_plan_id":"cebpf4jnsgd1na2vs0mg"},{"bike_id":"1adcfecd-7da9-485c-b40f-e62ffc130e51","system_id":"levelo_inurba_marseille","lat":43.21751,"lon":5.34599,"is_reserved":false,"is_disabled":false,"rental_uris":{"android":"levelo://app?vid=1adcfecd-7da9-485c-b40f-e62ffc130e51","ios":"levelo://app?vid=1adcfecd-7da9-485c-b40f-e62ffc130e51"},"vehicle_type_id":"4","last_reported":1744279867,"current_range_meters":6000,"station_id":"st_cvj6r9ubvosntc0bgbag","pricing_plan_id":"cebpf4jnsgd1na2vs0mg"},{"bike_id":"758e8708-ecd2-494d-80c8-3ff8f0fbc44b","system_id":"levelo_inurba_marseille","lat":43.29992,"lon":5.41317,"is_reserved":false,"is_disabled":false,"rental_uris":{"android":"levelo://app?vid=758e8708-ecd2-494d-80c8-3ff8f0fbc44b","ios":"levelo://app?vid=758e8708-ecd2-494d-80c8-3ff8f0fbc44b"},"vehicle_type_id":"4","last_reported":1744279867,"current_range_meters":6000,"station_id":"ce4bhp12rcd13ifvqh9g","pricing_plan_id":"cebpf4jnsgd1na2vs0mg"},{"bike_id":"6c2db29b-072f-4a60-96e7-6780cadee1a9","system_id":"levelo_inurba_marseille","lat":43.29015,"lon":5.38141,"is_reserved":false,"is_disabled":false,"rental_uris":{"android":"levelo://app?vid=6c2db29b-072f-4a60-96e7-6780cadee1a9","ios":"levelo://app?vid=6c2db29b-072f-4a60-96e7-6780cadee1a9"},"vehicle_type_id":"4","last_reported":1744279867,"current_range_meters":6000,"station_id":"ce4bh4p2rcd13ifvqe1g","pricing_plan_id":"cebpf4jnsgd1na2vs0mg"},{"bike_id":"08f9c0c8-8b33-4578-8a03-20f44d582241","system_id":"levelo_inurba_marseille","lat":43.30539,"lon":5.3697,"is_reserved":false,"is_disabled":false,"rental_uris":{"android":"levelo://app?vid=08f9c0c8-8b33-4578-8a03-20f44d582241","ios":"levelo://app?vid=08f9c0c8-8b33-4578-8a03-20f44d582241"},"vehicle_type_id":"4","last_reported":1744279867,"current_range_meters":6000,"station_id":"","pricing_plan_id":"cebpf4jnsgd1na2vs0mg"},{"bike_id":"f9fde33d-3e05-4f24-9670-2ad2d1cacdc1","system_id":"levelo_inurba_marseille","lat":43.28827,"lon":5.37258,"is_reserved":false,"is_disabled":false,"rental_uris":{"android":"levelo://app?vid=f9fde33d-3e05-4f24-9670-2ad2d1cacdc1","ios":"levelo://app?vid=f9fde33d-3e05-4f24-9670-2ad2d1cacdc1"},"vehicle_type_id":"4","last_reported":1744279867,"current_range_meters":6000,"station_id":"","pricing_plan_id":"cebpf4jnsgd1na2vs0mg"},{"bike_id":"4a9a2a88-b7aa-410e-bfe8-10ac7056326d","system_id":"levelo_inurba_marseille","lat":43.28939,"lon":5.39642,"is_reserved":false,"is_disabled":true,"rental_uris":{"android":"levelo://app?vid=4a9a2a88-b7aa-410e-bfe8-10ac7056326d","ios":"levelo://app?vid=4a9a2a88-b7aa-410e-bfe8-10ac7056326d"},"vehicle_type_id":"4","last_reported":1744279867,"current_range_meters":6400,"station_id":"ce4bh3h2rcd13ifvqdn0","pricing_plan_id":"cebpf4jnsgd1na2vs0mg"},{"bike_id":"10790b2b-c447-40cf-871b-6bee3f31059c","system_id":"levelo_inurba_marseille","lat":43.31716,"lon":5.437,"is_reserved":false,"is_disabled":false,"rental_uris":{"android":"levelo://app?vid=10790b2b-c447-40cf-871b-6bee3f31059c","ios":"levelo://app?vid=10790b2b-c447-40cf-871b-6bee3f31059c"},"vehicle_type_id":"4","last_reported":1744279867,"current_range_meters":6800,"station_id":"ce4bhp92rcd13ifvqhcg","pricing_plan_id":"cebpf4jnsgd1na2vs0mg"},{"bike_id":"dabaf53f-3b51-48ae-986b-e8c37b4f2156","system_id":"levelo_inurba_marseille","lat":43.31537,"lon":5.38025,"is_reserved":false,"is_disabled":false,"rental_uris":{"android":"levelo://app?vid=dabaf53f-3b51-48ae-986b-e8c37b4f2156","ios":"levelo://app?vid=dabaf53f-3b51-48ae-986b-e8c37b4f2156"},"vehicle_type_id":"4","last_reported":1744279867,"current_range_meters":6800,"station_id":"ce4bhsp2rcd13ifvqi50","pricing_plan_id":"cebpf4jnsgd1na2vs0mg"},{"bike_id":"9d61f32f-66ee-46bf-9100-77078519204f","system_id":"levelo_inurba_marseille","lat":43.24815,"lon":5.37441,"is_reserved":false,"is_disabled":false,"rental_uris":{"android":"levelo://app?vid=9d61f32f-66ee-46bf-9100-77078519204f","ios":"levelo://app?vid=9d61f32f-66ee-46bf-9100-77078519204f"},"vehicle_type_id":"4","last_reported":1744279867,"current_range_meters":6400,"station_id":"ce4bhgh2rcd13ifvqfb0","pricing_plan_id":"cebpf4jnsgd1na2vs0mg"},{"bike_id":"15e7ee27-0a42-4513-8641-2f65b6e58371","system_id":"levelo_inurba_marseille","lat":43.25119,"lon":5.40312,"is_reserved":false,"is_disabled":false,"rental_uris":{"android":"levelo://app?vid=15e7ee27-0a42-4513-8641-2f65b6e58371","ios":"levelo://app?vid=15e7ee27-0a42-4513-8641-2f65b6e58371"},"vehicle_type_id":"4","last_reported":1744279867,"current_range_meters":6800,"station_id":"ce4bhlh2rcd13ifvqgig","pricing_plan_id":"cebpf4jnsgd1na2vs0mg"},{"bike_id":"841cc48f-644f-4c42-a397-236e943da4b4","system_id":"levelo_inurba_marseille","lat":43.270804,"lon":5.422816,"is_reserved":false,"is_disabled":false,"rental_uris":{"android":"levelo://app?vid=841cc48f-644f-4c42-a397-236e943da4b4","ios":"levelo://app?vid=841cc48f-644f-4c42-a397-236e943da4b4"},"vehicle_type_id":"4","last_reported":1744279867,"current_range_meters":6800,"station_id":"ce4bhk92rcd13ifvqgb0","pricing_plan_id":"cebpf4jnsgd1na2vs0mg"},{"bike_id":"f0bf4e59-5178-4232-9b12-802037eba459","system_id":"levelo_inurba_marseille","lat":43.31348,"lon":5.36698,"is_reserved":false,"is_disabled":false,"rental_uris":{"android":"levelo://app?vid=f0bf4e59-5178-4232-9b12-802037eba459","ios":"levelo://app?vid=f0bf4e59-5178-4232-9b12-802037eba459"},"vehicle_type_id":"4","last_reported":1744279867,"current_range_meters":7200,"station_id":"ce4bgr92rcd13ifvqc6g","pricing_plan_id":"cebpf4jnsgd1na2vs0mg"},{"bike_id":"6e9744df-a894-43cd-97a7-dc1cff75055b","system_id":"levelo_inurba_marseille","lat":43.27449,"lon":5.361263,"is_reserved":false,"is_disabled":false,"rental_uris":{"android":"levelo://app?vid=6e9744df-a894-43cd-97a7-dc1cff75055b","ios":"levelo://app?vid=6e9744df-a894-43cd-97a7-dc1cff75055b"},"vehicle_type_id":"4","last_reported":1744279867,"current_range_meters":7200,"station_id":"ce4bhb92rcd13ifvqen0","pricing_plan_id":"cebpf4jnsgd1na2vs0mg"},{"bike_id":"523f199e-c50d-4cd7-8cb0-ecd6da8f7fb1","system_id":"levelo_inurba_marseille","lat":43.31722,"lon":5.42394,"is_reserved":false,"is_disabled":false,"rental_uris":{"android":"levelo://app?vid=523f199e-c50d-4cd7-8cb0-ecd6da8f7fb1","ios":"levelo://app?vid=523f199e-c50d-4cd7-8cb0-ecd6da8f7fb1"},"vehicle_type_id":"4","last_reported":1744279867,"current_range_meters":8000,"station_id":"ce4bhp92rcd13ifvqhbg","pricing_plan_id":"cebpf4jnsgd1na2vs0mg"},{"bike_id":"a14f72ed-ad11-4871-a779-6f279cf67eeb","system_id":"levelo_inurba_marseille","lat":43.2175,"lon":5.34604,"is_reserved":false,"is_disabled":true,"rental_uris":{"android":"levelo://app?vid=a14f72ed-ad11-4871-a779-6f279cf67eeb","ios":"levelo://app?vid=a14f72ed-ad11-4871-a779-6f279cf67eeb"},"vehicle_type_id":"4","last_reported":1744279867,"current_range_meters":8000,"station_id":"ce4bhoh2rcd13ifvqh5g","pricing_plan_id":"cebpf4jnsgd1na2vs0mg"},{"bike_id":"0034db4b-efd6-4119-a358-80e858a45e83","system_id":"levelo_inurba_marseille","lat":43.31761,"lon":5.38906,"is_reserved":false,"is_disabled":false,"rental_uris":{"android":"levelo://app?vid=0034db4b-efd6-4119-a358-80e858a45e83","ios":"levelo://app?vid=0034db4b-efd6-4119-a358-80e858a45e83"},"vehicle_type_id":"4","last_reported":1744279867,"current_range_meters":8400,"station_id":"","pricing_plan_id":"cebpf4jnsgd1na2vs0mg"},{"bike_id":"cae1820a-2251-4399-9b7d-f4353b9e096d","system_id":"levelo_inurba_marseille","lat":43.25494,"lon":5.37653,"is_reserved":false,"is_disabled":false,"rental_uris":{"android":"levelo://app?vid=cae1820a-2251-4399-9b7d-f4353b9e096d","ios":"levelo://app?vid=cae1820a-2251-4399-9b7d-f4353b9e096d"},"vehicle_type_id":"4","last_reported":1744279867,"current_range_meters":8400,"station_id":"ce4bhh12rcd13ifvqff0","pricing_plan_id":"cebpf4jnsgd1na2vs0mg"},{"bike_id":"1bded073-d497-42d3-9fda-07daed6d7973","system_id":"levelo_inurba_marseille","lat":43.22501,"lon":5.34778,"is_reserved":false,"is_disabled":false,"rental_uris":{"android":"levelo://app?vid=1bded073-d497-42d3-9fda-07daed6d7973","ios":"levelo://app?vid=1bded073-d497-42d3-9fda-07daed6d7973"},"vehicle_type_id":"4","last_reported":1744279867,"current_range_meters":8800,"station_id":"st_cvj5dfep6f1abm77gieg","pricing_plan_id":"cebpf4jnsgd1na2vs0mg"},{"bike_id":"222eb0f1-d5d6-490e-8a72-ca095069236c","system_id":"levelo_inurba_marseille","lat":43.28083,"lon":5.39639,"is_reserved":false,"is_disabled":false,"rental_uris":{"android":"levelo://app?vid=222eb0f1-d5d6-490e-8a72-ca095069236c","ios":"levelo://app?vid=222eb0f1-d5d6-490e-8a72-ca095069236c"},"vehicle_type_id":"4","last_reported":1744279867,"current_range_meters":8400,"station_id":"ce4bho12rcd13ifvqh2g","pricing_plan_id":"cebpf4jnsgd1na2vs0mg"},{"bike_id":"01e31f15-bc9b-4d18-bebd-edf19bcedef2","system_id":"levelo_inurba_marseille","lat":43.28743,"lon":5.37934,"is_reserved":false,"is_disabled":true,"rental_uris":{"android":"levelo://app?vid=01e31f15-bc9b-4d18-bebd-edf19bcedef2","ios":"levelo://app?vid=01e31f15-bc9b-4d18-bebd-edf19bcedef2"},"vehicle_type_id":"4","last_reported":1744279867,"current_range_meters":8800,"station_id":"ce4bh9p2rcd13ifvqec0","pricing_plan_id":"cebpf4jnsgd1na2vs0mg"},{"bike_id":"8e3db607-961f-4786-9be2-1aa618df27a6","system_id":"levelo_inurba_marseille","lat":43.273681,"lon":5.362415,"is_reserved":false,"is_disabled":false,"rental_uris":{"android":"levelo://app?vid=8e3db607-961f-4786-9be2-1aa618df27a6","ios":"levelo://app?vid=8e3db607-961f-4786-9be2-1aa618df27a6"},"vehicle_type_id":"4","last_reported":1744279867,"current_range_meters":8800,"station_id":"ce4bhbh2rcd13ifvqeo0","pricing_plan_id":"cebpf4jnsgd1na2vs0mg"},{"bike_id":"4fc87ad3-7913-448c-92c6-79ce607a0366","system_id":"levelo_inurba_marseille","lat":43.27368,"lon":5.36256,"is_reserved":false,"is_disabled":false,"rental_uris":{"android":"levelo://app?vid=4fc87ad3-7913-448c-92c6-79ce607a0366","ios":"levelo://app?vid=4fc87ad3-7913-448c-92c6-79ce607a0366"},"vehicle_type_id":"4","last_reported":1744279867,"current_range_meters":9200,"station_id":"ce4bhbh2rcd13ifvqeo0","pricing_plan_id":"cebpf4jnsgd1na2vs0mg"},{"bike_id":"9f9af69f-a89e-4f78-8035-3b4b222d0779","system_id":"levelo_inurba_marseille","lat":43.29528,"lon":5.39033,"is_reserved":false,"is_disabled":false,"rental_uris":{"android":"levelo://app?vid=9f9af69f-a89e-4f78-8035-3b4b222d0779","ios":"levelo://app?vid=9f9af69f-a89e-4f78-8035-3b4b222d0779"},"vehicle_type_id":"4","last_reported":1744279867,"current_range_meters":9200,"station_id":"ce4bh3p2rcd13ifvqdp0","pricing_plan_id":"cebpf4jnsgd1na2vs0mg"},{"bike_id":"16301999-0171-49e0-a118-7a4dc1981351","system_id":"levelo_inurba_marseille","lat":43.22502,"lon":5.3478,"is_reserved":false,"is_disabled":false,"rental_uris":{"android":"levelo://app?vid=16301999-0171-49e0-a118-7a4dc1981351","ios":"levelo://app?vid=16301999-0171-49e0-a118-7a4dc1981351"},"vehicle_type_id":"4","last_reported":1744279867,"current_range_meters":9200,"station_id":"st_cvj5dfep6f1abm77gieg","pricing_plan_id":"cebpf4jnsgd1na2vs0mg"},{"bike_id":"5f30a5a4-de9f-499e-b151-b811ebb3b43a","system_id":"levelo_inurba_marseille","lat":43.31074,"lon":5.38339,"is_reserved":false,"is_disabled":true,"rental_uris":{"android":"levelo://app?vid=5f30a5a4-de9f-499e-b151-b811ebb3b43a","ios":"levelo://app?vid=5f30a5a4-de9f-499e-b151-b811ebb3b43a"},"vehicle_type_id":"4","last_reported":1744279867,"current_range_meters":9200,"station_id":"ce4bgv92rcd13ifvqcr0","pricing_plan_id":"cebpf4jnsgd1na2vs0mg"},{"bike_id":"762126b4-9add-4f94-94c8-8f9f5359a5d0","system_id":"levelo_inurba_marseille","lat":43.28615,"lon":5.37055,"is_reserved":false,"is_disabled":false,"rental_uris":{"android":"levelo://app?vid=762126b4-9add-4f94-94c8-8f9f5359a5d0","ios":"levelo://app?vid=762126b4-9add-4f94-94c8-8f9f5359a5d0"},"vehicle_type_id":"4","last_reported":1744279867,"current_range_meters":9200,"station_id":"ce4bht12rcd13ifvqi60","pricing_plan_id":"cebpf4jnsgd1na2vs0mg"},{"bike_id":"41d1a2e8-eceb-411d-b4ac-bd34e9b2937c","system_id":"levelo_inurba_marseille","lat":43.31531,"lon":5.38047,"is_reserved":false,"is_disabled":false,"rental_uris":{"android":"levelo://app?vid=41d1a2e8-eceb-411d-b4ac-bd34e9b2937c","ios":"levelo://app?vid=41d1a2e8-eceb-411d-b4ac-bd34e9b2937c"},"vehicle_type_id":"4","last_reported":1744279867,"current_range_meters":9200,"station_id":"ce4bhsp2rcd13ifvqi50","pricing_plan_id":"cebpf4jnsgd1na2vs0mg"},{"bike_id":"d1afc0fc-ecb5-4336-a85d-04a73a08fadb","system_id":"levelo_inurba_marseille","lat":43.21754,"lon":5.34592,"is_reserved":false,"is_disabled":false,"rental_uris":{"android":"levelo://app?vid=d1afc0fc-ecb5-4336-a85d-04a73a08fadb","ios":"levelo://app?vid=d1afc0fc-ecb5-4336-a85d-04a73a08fadb"},"vehicle_type_id":"4","last_reported":1744279867,"current_range_meters":9600,"station_id":"st_cvj6r9ubvosntc0bgbag","pricing_plan_id":"cebpf4jnsgd1na2vs0mg"},{"bike_id":"9fce7fb9-26b6-4832-9f96-ea1b75c489f0","system_id":"levelo_inurba_marseille","lat":43.21204,"lon":5.35081,"is_reserved":false,"is_disabled":false,"rental_uris":{"android":"levelo://app?vid=9fce7fb9-26b6-4832-9f96-ea1b75c489f0","ios":"levelo://app?vid=9fce7fb9-26b6-4832-9f96-ea1b75c489f0"},"vehicle_type_id":"4","last_reported":1744279867,"current_range_meters":9600,"station_id":"st_cvj6sg6p6f1abm77japg","pricing_plan_id":"cebpf4jnsgd1na2vs0mg"},{"bike_id":"3cfa414a-56ce-4678-b27b-88f21f1ddfeb","system_id":"levelo_inurba_marseille","lat":43.30297,"lon":5.377,"is_reserved":false,"is_disabled":false,"rental_uris":{"android":"levelo://app?vid=3cfa414a-56ce-4678-b27b-88f21f1ddfeb","ios":"levelo://app?vid=3cfa414a-56ce-4678-b27b-88f21f1ddfeb"},"vehicle_type_id":"4","last_reported":1744279867,"current_range_meters":9600,"station_id":"ce4bguh2rcd13ifvqcj0","pricing_plan_id":"cebpf4jnsgd1na2vs0mg"},{"bike_id":"49e8836a-430d-4c2d-a967-ad7f667a5605","system_id":"levelo_inurba_marseille","lat":43.31255,"lon":5.36929,"is_reserved":false,"is_disabled":false,"rental_uris":{"android":"levelo://app?vid=49e8836a-430d-4c2d-a967-ad7f667a5605","ios":"levelo://app?vid=49e8836a-430d-4c2d-a967-ad7f667a5605"},"vehicle_type_id":"4","last_reported":1744279867,"current_range_meters":9600,"station_id":"","pricing_plan_id":"cebpf4jnsgd1na2vs0mg"},{"bike_id":"680dc35d-f5f1-4cdc-899b-eabd55db9342","system_id":"levelo_inurba_marseille","lat":43.21192,"lon":5.35076,"is_reserved":false,"is_disabled":false,"rental_uris":{"android":"levelo://app?vid=680dc35d-f5f1-4cdc-899b-eabd55db9342","ios":"levelo://app?vid=680dc35d-f5f1-4cdc-899b-eabd55db9342"},"vehicle_type_id":"4","last_reported":1744279867,"current_range_meters":9600,"station_id":"ce4bhu92rcd13ifvqi70","pricing_plan_id":"cebpf4jnsgd1na2vs0mg"},{"bike_id":"c243072f-6bd2-4d94-ba83-04162cf2a05c","system_id":"levelo_inurba_marseille","lat":43.27203,"lon":5.40131,"is_reserved":false,"is_disabled":false,"rental_uris":{"android":"levelo://app?vid=c243072f-6bd2-4d94-ba83-04162cf2a05c","ios":"levelo://app?vid=c243072f-6bd2-4d94-ba83-04162cf2a05c"},"vehicle_type_id":"4","last_reported":1744279867,"current_range_meters":9600,"station_id":"","pricing_plan_id":"cebpf4jnsgd1na2vs0mg"},{"bike_id":"6b383df4-9571-4b6b-8882-b1538f985b7f","system_id":"levelo_inurba_marseille","lat":43.30534,"lon":5.36548,"is_reserved":false,"is_disabled":false,"rental_uris":{"android":"levelo://app?vid=6b383df4-9571-4b6b-8882-b1538f985b7f","ios":"levelo://app?vid=6b383df4-9571-4b6b-8882-b1538f985b7f"},"vehicle_type_id":"4","last_reported":1744279867,"current_range_meters":9600,"station_id":"ce4bgs12rcd13ifvqcag","pricing_plan_id":"cebpf4jnsgd1na2vs0mg"},{"bike_id":"a4f038a7-d97f-4e3b-af31-8faf64fa1f6b","system_id":"levelo_inurba_marseille","lat":43.24999,"lon":5.38941,"is_reserved":false,"is_disabled":false,"rental_uris":{"android":"levelo://app?vid=a4f038a7-d97f-4e3b-af31-8faf64fa1f6b","ios":"levelo://app?vid=a4f038a7-d97f-4e3b-af31-8faf64fa1f6b"},"vehicle_type_id":"4","last_reported":1744279867,"current_range_meters":10000,"station_id":"ce4bhgp2rcd13ifvqfd0","pricing_plan_id":"cebpf4jnsgd1na2vs0mg"},{"bike_id":"b4400bdd-cc5f-4c1e-8515-562fa8a05e05","system_id":"levelo_inurba_marseille","lat":43.26796,"lon":5.39397,"is_reserved":false,"is_disabled":false,"rental_uris":{"android":"levelo://app?vid=b4400bdd-cc5f-4c1e-8515-562fa8a05e05","ios":"levelo://app?vid=b4400bdd-cc5f-4c1e-8515-562fa8a05e05"},"vehicle_type_id":"4","last_reported":1744279867,"current_range_meters":9600,"station_id":"ce4bhh12rcd13ifvqfg0","pricing_plan_id":"cebpf4jnsgd1na2vs0mg"},{"bike_id":"122cdde6-9512-4fc1-b3dd-8da01087c3ed","system_id":"levelo_inurba_marseille","lat":43.21194,"lon":5.35076,"is_reserved":false,"is_disabled":false,"rental_uris":{"android":"levelo://app?vid=122cdde6-9512-4fc1-b3dd-8da01087c3ed","ios":"levelo://app?vid=122cdde6-9512-4fc1-b3dd-8da01087c3ed"},"vehicle_type_id":"4","last_reported":1744279867,"current_range_meters":10000,"station_id":"st_cvj6sg6p6f1abm77japg","pricing_plan_id":"cebpf4jnsgd1na2vs0mg"},{"bike_id":"3daf3483-c330-4563-ba63-4baa607346ed","system_id":"levelo_inurba_marseille","lat":43.30914,"lon":5.36851,"is_reserved":false,"is_disabled":false,"rental_uris":{"android":"levelo://app?vid=3daf3483-c330-4563-ba63-4baa607346ed","ios":"levelo://app?vid=3daf3483-c330-4563-ba63-4baa607346ed"},"vehicle_type_id":"4","last_reported":1744279867,"current_range_meters":10000,"station_id":"ce4bgn92rcd13ifvqbvg","pricing_plan_id":"cebpf4jnsgd1na2vs0mg"},{"bike_id":"c66e0227-8dab-43f7-959d-ad39878fa71f","system_id":"levelo_inurba_marseille","lat":43.23057,"lon":5.3549,"is_reserved":false,"is_disabled":false,"rental_uris":{"android":"levelo://app?vid=c66e0227-8dab-43f7-959d-ad39878fa71f","ios":"levelo://app?vid=c66e0227-8dab-43f7-959d-ad39878fa71f"},"vehicle_type_id":"4","last_reported":1744279867,"current_range_meters":10800,"station_id":"cpo3342slgdg3j2ifvpg","pricing_plan_id":"cebpf4jnsgd1na2vs0mg"},{"bike_id":"aeb5d532-a5df-474f-a469-24b81f00135c","system_id":"levelo_inurba_marseille","lat":43.30353,"lon":5.41871,"is_reserved":false,"is_disabled":true,"rental_uris":{"android":"levelo://app?vid=aeb5d532-a5df-474f-a469-24b81f00135c","ios":"levelo://app?vid=aeb5d532-a5df-474f-a469-24b81f00135c"},"vehicle_type_id":"4","last_reported":1744279867,"current_range_meters":10800,"station_id":"ce4bhop2rcd13ifvqh7g","pricing_plan_id":"cebpf4jnsgd1na2vs0mg"},{"bike_id":"ca159413-7c2e-4bb3-baea-d4b82dffcb16","system_id":"levelo_inurba_marseille","lat":43.27419,"lon":5.39411,"is_reserved":false,"is_disabled":false,"rental_uris":{"android":"levelo://app?vid=ca159413-7c2e-4bb3-baea-d4b82dffcb16","ios":"levelo://app?vid=ca159413-7c2e-4bb3-baea-d4b82dffcb16"},"vehicle_type_id":"4","last_reported":1744279867,"current_range_meters":10800,"station_id":"ce4bhdp2rcd13ifvqf20","pricing_plan_id":"cebpf4jnsgd1na2vs0mg"},{"bike_id":"b5a497b9-a79c-4434-bae5-ae0df984fca4","system_id":"levelo_inurba_marseille","lat":43.30926,"lon":5.36832,"is_reserved":false,"is_disabled":false,"rental_uris":{"android":"levelo://app?vid=b5a497b9-a79c-4434-bae5-ae0df984fca4","ios":"levelo://app?vid=b5a497b9-a79c-4434-bae5-ae0df984fca4"},"vehicle_type_id":"4","last_reported":1744279867,"current_range_meters":10800,"station_id":"ce4bgn92rcd13ifvqbvg","pricing_plan_id":"cebpf4jnsgd1na2vs0mg"},{"bike_id":"e6b27e51-7a6f-4c87-9cdb-e0dbaf392783","system_id":"levelo_inurba_marseille","lat":43.31003,"lon":5.39625,"is_reserved":false,"is_disabled":false,"rental_uris":{"android":"levelo://app?vid=e6b27e51-7a6f-4c87-9cdb-e0dbaf392783","ios":"levelo://app?vid=e6b27e51-7a6f-4c87-9cdb-e0dbaf392783"},"vehicle_type_id":"4","last_reported":1744279867,"current_range_meters":10800,"station_id":"","pricing_plan_id":"cebpf4jnsgd1na2vs0mg"},{"bike_id":"924a65d8-8ba7-467e-bfe9-bc400cc766dd","system_id":"levelo_inurba_marseille","lat":43.23192,"lon":5.35562,"is_reserved":false,"is_disabled":false,"rental_uris":{"android":"levelo://app?vid=924a65d8-8ba7-467e-bfe9-bc400cc766dd","ios":"levelo://app?vid=924a65d8-8ba7-467e-bfe9-bc400cc766dd"},"vehicle_type_id":"4","last_reported":1744279867,"current_range_meters":11200,"station_id":"ce4bhu92rcd13ifvqi70","pricing_plan_id":"cebpf4jnsgd1na2vs0mg"},{"bike_id":"5a0fa541-6fc2-4ae1-99ec-a2e2ec69a941","system_id":"levelo_inurba_marseille","lat":43.33022,"lon":5.4382,"is_reserved":false,"is_disabled":false,"rental_uris":{"android":"levelo://app?vid=5a0fa541-6fc2-4ae1-99ec-a2e2ec69a941","ios":"levelo://app?vid=5a0fa541-6fc2-4ae1-99ec-a2e2ec69a941"},"vehicle_type_id":"4","last_reported":1744279867,"current_range_meters":11200,"station_id":"","pricing_plan_id":"cebpf4jnsgd1na2vs0mg"},{"bike_id":"080020d5-b2f6-4571-bf33-09cd8705aa12","system_id":"levelo_inurba_marseille","lat":43.32658,"lon":5.40992,"is_reserved":false,"is_disabled":false,"rental_uris":{"android":"levelo://app?vid=080020d5-b2f6-4571-bf33-09cd8705aa12","ios":"levelo://app?vid=080020d5-b2f6-4571-bf33-09cd8705aa12"},"vehicle_type_id":"4","last_reported":1744279867,"current_range_meters":11200,"station_id":"ce4bhpp2rcd13ifvqhgg","pricing_plan_id":"cebpf4jnsgd1na2vs0mg"},{"bike_id":"3b6c803f-a6b4-4741-95d3-98bd77a6a3b1","system_id":"levelo_inurba_marseille","lat":43.30424,"lon":5.397428,"is_reserved":false,"is_disabled":false,"rental_uris":{"android":"levelo://app?vid=3b6c803f-a6b4-4741-95d3-98bd77a6a3b1","ios":"levelo://app?vid=3b6c803f-a6b4-4741-95d3-98bd77a6a3b1"},"vehicle_type_id":"4","last_reported":1744279867,"current_range_meters":11200,"station_id":"ce4bh092rcd13ifvqd20","pricing_plan_id":"cebpf4jnsgd1na2vs0mg"},{"bike_id":"bff67837-c676-4b88-9fdc-8db7fe587121","system_id":"levelo_inurba_marseille","lat":43.30227,"lon":5.40061,"is_reserved":false,"is_disabled":true,"rental_uris":{"android":"levelo://app?vid=bff67837-c676-4b88-9fdc-8db7fe587121","ios":"levelo://app?vid=bff67837-c676-4b88-9fdc-8db7fe587121"},"vehicle_type_id":"4","last_reported":1744279867,"current_range_meters":11200,"station_id":"ce4bgvh2rcd13ifvqcs0","pricing_plan_id":"cebpf4jnsgd1na2vs0mg"},{"bike_id":"a40fb72e-8255-4424-99de-175cbaec596f","system_id":"levelo_inurba_marseille","lat":43.29533,"lon":5.39028,"is_reserved":false,"is_disabled":false,"rental_uris":{"android":"levelo://app?vid=a40fb72e-8255-4424-99de-175cbaec596f","ios":"levelo://app?vid=a40fb72e-8255-4424-99de-175cbaec596f"},"vehicle_type_id":"4","last_reported":1744279867,"current_range_meters":11200,"station_id":"ce4bh3p2rcd13ifvqdp0","pricing_plan_id":"cebpf4jnsgd1na2vs0mg"},{"bike_id":"38bd5846-4047-46f2-8033-c82e1dd7339a","system_id":"levelo_inurba_marseille","lat":43.28848,"lon":5.39311,"is_reserved":false,"is_disabled":false,"rental_uris":{"android":"levelo://app?vid=38bd5846-4047-46f2-8033-c82e1dd7339a","ios":"levelo://app?vid=38bd5846-4047-46f2-8033-c82e1dd7339a"},"vehicle_type_id":"4","last_reported":1744279867,"current_range_meters":11600,"station_id":"ce4bh2p2rcd13ifvqdi0","pricing_plan_id":"cebpf4jnsgd1na2vs0mg"},{"bike_id":"e8e61ec0-24ba-41bc-af68-5ad4ae819140","system_id":"levelo_inurba_marseille","lat":43.21194,"lon":5.3507,"is_reserved":false,"is_disabled":false,"rental_uris":{"android":"levelo://app?vid=e8e61ec0-24ba-41bc-af68-5ad4ae819140","ios":"levelo://app?vid=e8e61ec0-24ba-41bc-af68-5ad4ae819140"},"vehicle_type_id":"4","last_reported":1744279867,"current_range_meters":11600,"station_id":"ce4bho12rcd13ifvqh1g","pricing_plan_id":"cebpf4jnsgd1na2vs0mg"},{"bike_id":"2af03918-443f-4c15-a5e0-1383bc7a7fa8","system_id":"levelo_inurba_marseille","lat":43.26197,"lon":5.37441,"is_reserved":false,"is_disabled":false,"rental_uris":{"android":"levelo://app?vid=2af03918-443f-4c15-a5e0-1383bc7a7fa8","ios":"levelo://app?vid=2af03918-443f-4c15-a5e0-1383bc7a7fa8"},"vehicle_type_id":"4","last_reported":1744279867,"current_range_meters":11600,"station_id":"ce4bhgp2rcd13ifvqfc0","pricing_plan_id":"cebpf4jnsgd1na2vs0mg"},{"bike_id":"800d5909-daea-44ff-a7cd-18c4fe90c5ad","system_id":"levelo_inurba_marseille","lat":43.22867,"lon":5.35274,"is_reserved":false,"is_disabled":false,"rental_uris":{"android":"levelo://app?vid=800d5909-daea-44ff-a7cd-18c4fe90c5ad","ios":"levelo://app?vid=800d5909-daea-44ff-a7cd-18c4fe90c5ad"},"vehicle_type_id":"4","last_reported":1744279867,"current_range_meters":12000,"station_id":"","pricing_plan_id":"cebpf4jnsgd1na2vs0mg"},{"bike_id":"664e5e3c-4dcd-40ae-9182-02be717b623a","system_id":"levelo_inurba_marseille","lat":43.30166,"lon":5.37367,"is_reserved":false,"is_disabled":false,"rental_uris":{"android":"levelo://app?vid=664e5e3c-4dcd-40ae-9182-02be717b623a","ios":"levelo://app?vid=664e5e3c-4dcd-40ae-9182-02be717b623a"},"vehicle_type_id":"4","last_reported":1744279867,"current_range_meters":11600,"station_id":"ce4bgs92rcd13ifvqcc0","pricing_plan_id":"cebpf4jnsgd1na2vs0mg"},{"bike_id":"dba033a5-5f48-45c4-ac87-fd4d7fd9b1e7","system_id":"levelo_inurba_marseille","lat":43.2738,"lon":5.36251,"is_reserved":false,"is_disabled":false,"rental_uris":{"android":"levelo://app?vid=dba033a5-5f48-45c4-ac87-fd4d7fd9b1e7","ios":"levelo://app?vid=dba033a5-5f48-45c4-ac87-fd4d7fd9b1e7"},"vehicle_type_id":"4","last_reported":1744279867,"current_range_meters":12000,"station_id":"ce4bhbh2rcd13ifvqeo0","pricing_plan_id":"cebpf4jnsgd1na2vs0mg"},{"bike_id":"1a3cd0ab-ec77-41b3-982c-74e5093499a8","system_id":"levelo_inurba_marseille","lat":43.30444,"lon":5.3889,"is_reserved":false,"is_disabled":true,"rental_uris":{"android":"levelo://app?vid=1a3cd0ab-ec77-41b3-982c-74e5093499a8","ios":"levelo://app?vid=1a3cd0ab-ec77-41b3-982c-74e5093499a8"},"vehicle_type_id":"4","last_reported":1744279867,"current_range_meters":12000,"station_id":"ce4bgk12rcd13ifvqbi0","pricing_plan_id":"cebpf4jnsgd1na2vs0mg"},{"bike_id":"35658e76-13de-4096-a253-522aa4fb80db","system_id":"levelo_inurba_marseille","lat":43.305474,"lon":5.365381,"is_reserved":false,"is_disabled":false,"rental_uris":{"android":"levelo://app?vid=35658e76-13de-4096-a253-522aa4fb80db","ios":"levelo://app?vid=35658e76-13de-4096-a253-522aa4fb80db"},"vehicle_type_id":"4","last_reported":1744279867,"current_range_meters":12400,"station_id":"ce4bgs12rcd13ifvqcag","pricing_plan_id":"cebpf4jnsgd1na2vs0mg"},{"bike_id":"8ef273ac-c689-4f24-a851-468efa4e0854","system_id":"levelo_inurba_marseille","lat":43.29023,"lon":5.36816,"is_reserved":false,"is_disabled":false,"rental_uris":{"android":"levelo://app?vid=8ef273ac-c689-4f24-a851-468efa4e0854","ios":"levelo://app?vid=8ef273ac-c689-4f24-a851-468efa4e0854"},"vehicle_type_id":"4","last_reported":1744279867,"current_range_meters":12000,"station_id":"","pricing_plan_id":"cebpf4jnsgd1na2vs0mg"},{"bike_id":"99260628-93ca-4816-84c2-7509aaf9aff8","system_id":"levelo_inurba_marseille","lat":43.31188,"lon":5.36885,"is_reserved":false,"is_disabled":false,"rental_uris":{"android":"levelo://app?vid=99260628-93ca-4816-84c2-7509aaf9aff8","ios":"levelo://app?vid=99260628-93ca-4816-84c2-7509aaf9aff8"},"vehicle_type_id":"4","last_reported":1744279867,"current_range_meters":12000,"station_id":"ce4bgl92rcd13ifvqbq0","pricing_plan_id":"cebpf4jnsgd1na2vs0mg"},{"bike_id":"71b146d7-c697-44d9-83ef-3d77fb357b0d","system_id":"levelo_inurba_marseille","lat":43.29367,"lon":5.3773,"is_reserved":false,"is_disabled":false,"rental_uris":{"android":"levelo://app?vid=71b146d7-c697-44d9-83ef-3d77fb357b0d","ios":"levelo://app?vid=71b146d7-c697-44d9-83ef-3d77fb357b0d"},"vehicle_type_id":"4","last_reported":1744279867,"current_range_meters":12400,"station_id":"","pricing_plan_id":"cebpf4jnsgd1na2vs0mg"},{"bike_id":"5047455d-c97a-4875-9440-a0dd56a0356d","system_id":"levelo_inurba_marseille","lat":43.32368,"lon":5.36764,"is_reserved":false,"is_disabled":false,"rental_uris":{"android":"levelo://app?vid=5047455d-c97a-4875-9440-a0dd56a0356d","ios":"levelo://app?vid=5047455d-c97a-4875-9440-a0dd56a0356d"},"vehicle_type_id":"4","last_reported":1744279867,"current_range_meters":12400,"station_id":"ce4bhsh2rcd13ifvqi2g","pricing_plan_id":"cebpf4jnsgd1na2vs0mg"},{"bike_id":"c1c7ca60-b5bb-4107-8f49-35ca01c60f71","system_id":"levelo_inurba_marseille","lat":43.29546,"lon":5.37487,"is_reserved":false,"is_disabled":false,"rental_uris":{"android":"levelo://app?vid=c1c7ca60-b5bb-4107-8f49-35ca01c60f71","ios":"levelo://app?vid=c1c7ca60-b5bb-4107-8f49-35ca01c60f71"},"vehicle_type_id":"4","last_reported":1744279867,"current_range_meters":12800,"station_id":"ce4bgkp2rcd13ifvqbmg","pricing_plan_id":"cebpf4jnsgd1na2vs0mg"},{"bike_id":"a7c3a0f9-fa44-4142-bbeb-0cac9979a26a","system_id":"levelo_inurba_marseille","lat":43.24166,"lon":5.36392,"is_reserved":false,"is_disabled":false,"rental_uris":{"android":"levelo://app?vid=a7c3a0f9-fa44-4142-bbeb-0cac9979a26a","ios":"levelo://app?vid=a7c3a0f9-fa44-4142-bbeb-0cac9979a26a"},"vehicle_type_id":"4","last_reported":1744279867,"current_range_meters":12800,"station_id":"cpo36qri1sfpv3e86is0","pricing_plan_id":"cebpf4jnsgd1na2vs0mg"},{"bike_id":"e653b132-9067-48ff-8a22-89a9e9e39c6f","system_id":"levelo_inurba_marseille","lat":43.27376,"lon":5.36263,"is_reserved":false,"is_disabled":false,"rental_uris":{"android":"levelo://app?vid=e653b132-9067-48ff-8a22-89a9e9e39c6f","ios":"levelo://app?vid=e653b132-9067-48ff-8a22-89a9e9e39c6f"},"vehicle_type_id":"4","last_reported":1744279867,"current_range_meters":12800,"station_id":"ce4bhbh2rcd13ifvqeo0","pricing_plan_id":"cebpf4jnsgd1na2vs0mg"},{"bike_id":"dbb4f828-a4ba-479b-bc32-29f94f6e0356","system_id":"levelo_inurba_marseille","lat":43.28731,"lon":5.37935,"is_reserved":false,"is_disabled":false,"rental_uris":{"android":"levelo://app?vid=dbb4f828-a4ba-479b-bc32-29f94f6e0356","ios":"levelo://app?vid=dbb4f828-a4ba-479b-bc32-29f94f6e0356"},"vehicle_type_id":"4","last_reported":1744279867,"current_range_meters":12800,"station_id":"ce4bh9p2rcd13ifvqec0","pricing_plan_id":"cebpf4jnsgd1na2vs0mg"},{"bike_id":"54fd9e7d-d49b-4d31-a45c-3c21ef19c991","system_id":"levelo_inurba_marseille","lat":43.3042,"lon":5.41298,"is_reserved":false,"is_disabled":false,"rental_uris":{"android":"levelo://app?vid=54fd9e7d-d49b-4d31-a45c-3c21ef19c991","ios":"levelo://app?vid=54fd9e7d-d49b-4d31-a45c-3c21ef19c991"},"vehicle_type_id":"4","last_reported":1744279867,"current_range_meters":13600,"station_id":"ce4bhop2rcd13ifvqh8g","pricing_plan_id":"cebpf4jnsgd1na2vs0mg"},{"bike_id":"8d897ab1-dc1e-4b83-af18-feccdd23db49","system_id":"levelo_inurba_marseille","lat":43.28157,"lon":5.42644,"is_reserved":false,"is_disabled":false,"rental_uris":{"android":"levelo://app?vid=8d897ab1-dc1e-4b83-af18-feccdd23db49","ios":"levelo://app?vid=8d897ab1-dc1e-4b83-af18-feccdd23db49"},"vehicle_type_id":"4","last_reported":1744279867,"current_range_meters":13600,"station_id":"ce4bhnh2rcd13ifvqgug","pricing_plan_id":"cebpf4jnsgd1na2vs0mg"},{"bike_id":"cb986afa-0706-475e-8f3c-11ee95eb1194","system_id":"levelo_inurba_marseille","lat":43.23142,"lon":5.43713,"is_reserved":false,"is_disabled":false,"rental_uris":{"android":"levelo://app?vid=cb986afa-0706-475e-8f3c-11ee95eb1194","ios":"levelo://app?vid=cb986afa-0706-475e-8f3c-11ee95eb1194"},"vehicle_type_id":"4","last_reported":1744279867,"current_range_meters":14000,"station_id":"ce4bhmp2rcd13ifvqgog","pricing_plan_id":"cebpf4jnsgd1na2vs0mg"},{"bike_id":"58a06d5c-23f8-466b-a88d-449307d0c901","system_id":"levelo_inurba_marseille","lat":43.31483,"lon":5.36773,"is_reserved":false,"is_disabled":false,"rental_uris":{"android":"levelo://app?vid=58a06d5c-23f8-466b-a88d-449307d0c901","ios":"levelo://app?vid=58a06d5c-23f8-466b-a88d-449307d0c901"},"vehicle_type_id":"4","last_reported":1744279867,"current_range_meters":14000,"station_id":"","pricing_plan_id":"cebpf4jnsgd1na2vs0mg"},{"bike_id":"3edddd02-919d-4186-b933-1d6a0628347a","system_id":"levelo_inurba_marseille","lat":43.2763,"lon":5.36105,"is_reserved":false,"is_disabled":true,"rental_uris":{"android":"levelo://app?vid=3edddd02-919d-4186-b933-1d6a0628347a","ios":"levelo://app?vid=3edddd02-919d-4186-b933-1d6a0628347a"},"vehicle_type_id":"4","last_reported":1744279867,"current_range_meters":14000,"station_id":"ce4bgj92rcd13ifvqbe0","pricing_plan_id":"cebpf4jnsgd1na2vs0mg"},{"bike_id":"e3c3a051-8134-4ed3-913b-374aa217874c","system_id":"levelo_inurba_marseille","lat":43.256115,"lon":5.405147,"is_reserved":false,"is_disabled":false,"rental_uris":{"android":"levelo://app?vid=e3c3a051-8134-4ed3-913b-374aa217874c","ios":"levelo://app?vid=e3c3a051-8134-4ed3-913b-374aa217874c"},"vehicle_type_id":"4","last_reported":1744279867,"current_range_meters":14400,"station_id":"","pricing_plan_id":"cebpf4jnsgd1na2vs0mg"},{"bike_id":"a20a6451-8d3a-4ff4-aba0-6a4367e7db94","system_id":"levelo_inurba_marseille","lat":43.21195,"lon":5.35076,"is_reserved":false,"is_disabled":false,"rental_uris":{"android":"levelo://app?vid=a20a6451-8d3a-4ff4-aba0-6a4367e7db94","ios":"levelo://app?vid=a20a6451-8d3a-4ff4-aba0-6a4367e7db94"},"vehicle_type_id":"4","last_reported":1744279867,"current_range_meters":14400,"station_id":"ce4bhbp2rcd13ifvqesg","pricing_plan_id":"cebpf4jnsgd1na2vs0mg"},{"bike_id":"f10eaa92-034b-466a-8ac9-20fcbdaff0ab","system_id":"levelo_inurba_marseille","lat":43.31361,"lon":5.36685,"is_reserved":false,"is_disabled":false,"rental_uris":{"android":"levelo://app?vid=f10eaa92-034b-466a-8ac9-20fcbdaff0ab","ios":"levelo://app?vid=f10eaa92-034b-466a-8ac9-20fcbdaff0ab"},"vehicle_type_id":"4","last_reported":1744279867,"current_range_meters":14400,"station_id":"ce4bgr92rcd13ifvqc6g","pricing_plan_id":"cebpf4jnsgd1na2vs0mg"},{"bike_id":"c7a0b639-1b85-44a3-b1ee-af4ecf90a377","system_id":"levelo_inurba_marseille","lat":43.31688,"lon":5.40467,"is_reserved":false,"is_disabled":false,"rental_uris":{"android":"levelo://app?vid=c7a0b639-1b85-44a3-b1ee-af4ecf90a377","ios":"levelo://app?vid=c7a0b639-1b85-44a3-b1ee-af4ecf90a377"},"vehicle_type_id":"4","last_reported":1744279867,"current_range_meters":14400,"station_id":"ce4bh012rcd13ifvqd00","pricing_plan_id":"cebpf4jnsgd1na2vs0mg"},{"bike_id":"4c199261-2bf0-4ff1-b24b-057c5ea63875","system_id":"levelo_inurba_marseille","lat":43.29922,"lon":5.37486,"is_reserved":false,"is_disabled":false,"rental_uris":{"android":"levelo://app?vid=4c199261-2bf0-4ff1-b24b-057c5ea63875","ios":"levelo://app?vid=4c199261-2bf0-4ff1-b24b-057c5ea63875"},"vehicle_type_id":"4","last_reported":1744279867,"current_range_meters":14400,"station_id":"ce4bgjh2rcd13ifvqbg0","pricing_plan_id":"cebpf4jnsgd1na2vs0mg"},{"bike_id":"6d76978a-2740-4f57-9972-fcce06d4c9a8","system_id":"levelo_inurba_marseille","lat":43.31327,"lon":5.36721,"is_reserved":false,"is_disabled":false,"rental_uris":{"android":"levelo://app?vid=6d76978a-2740-4f57-9972-fcce06d4c9a8","ios":"levelo://app?vid=6d76978a-2740-4f57-9972-fcce06d4c9a8"},"vehicle_type_id":"4","last_reported":1744279867,"current_range_meters":14800,"station_id":"ce4bgr92rcd13ifvqc6g","pricing_plan_id":"cebpf4jnsgd1na2vs0mg"},{"bike_id":"62a2a8b2-72f2-4ff5-840a-79c225275a0f","system_id":"levelo_inurba_marseille","lat":43.2971,"lon":5.377,"is_reserved":false,"is_disabled":false,"rental_uris":{"android":"levelo://app?vid=62a2a8b2-72f2-4ff5-840a-79c225275a0f","ios":"levelo://app?vid=62a2a8b2-72f2-4ff5-840a-79c225275a0f"},"vehicle_type_id":"4","last_reported":1744279867,"current_range_meters":14800,"station_id":"ce4bgkh2rcd13ifvqbl0","pricing_plan_id":"cebpf4jnsgd1na2vs0mg"},{"bike_id":"dea55ed2-9f9e-4d55-b98e-68a01c967c3a","system_id":"levelo_inurba_marseille","lat":43.30072,"lon":5.38005,"is_reserved":false,"is_disabled":false,"rental_uris":{"android":"levelo://app?vid=dea55ed2-9f9e-4d55-b98e-68a01c967c3a","ios":"levelo://app?vid=dea55ed2-9f9e-4d55-b98e-68a01c967c3a"},"vehicle_type_id":"4","last_reported":1744279867,"current_range_meters":14800,"station_id":"ce4bgjp2rcd13ifvqbh0","pricing_plan_id":"cebpf4jnsgd1na2vs0mg"},{"bike_id":"6cd8797c-72d8-421c-9083-62615efd7ad3","system_id":"levelo_inurba_marseille","lat":43.29274,"lon":5.36844,"is_reserved":false,"is_disabled":false,"rental_uris":{"android":"levelo://app?vid=6cd8797c-72d8-421c-9083-62615efd7ad3","ios":"levelo://app?vid=6cd8797c-72d8-421c-9083-62615efd7ad3"},"vehicle_type_id":"4","last_reported":1744279867,"current_range_meters":14800,"station_id":"ce4bhbp2rcd13ifvqesg","pricing_plan_id":"cebpf4jnsgd1na2vs0mg"},{"bike_id":"8fc75a06-b383-4356-9ce0-507c4c1bc08f","system_id":"levelo_inurba_marseille","lat":43.27067,"lon":5.42275,"is_reserved":false,"is_disabled":false,"rental_uris":{"android":"levelo://app?vid=8fc75a06-b383-4356-9ce0-507c4c1bc08f","ios":"levelo://app?vid=8fc75a06-b383-4356-9ce0-507c4c1bc08f"},"vehicle_type_id":"4","last_reported":1744279867,"current_range_meters":14800,"station_id":"ce4bhk92rcd13ifvqgb0","pricing_plan_id":"cebpf4jnsgd1na2vs0mg"},{"bike_id":"7c86ebaf-c9fe-4bc4-bc7c-bb16ccfd1fa7","system_id":"levelo_inurba_marseille","lat":43.27372,"lon":5.36245,"is_reserved":false,"is_disabled":false,"rental_uris":{"android":"levelo://app?vid=7c86ebaf-c9fe-4bc4-bc7c-bb16ccfd1fa7","ios":"levelo://app?vid=7c86ebaf-c9fe-4bc4-bc7c-bb16ccfd1fa7"},"vehicle_type_id":"4","last_reported":1744279867,"current_range_meters":14800,"station_id":"ce4bhbh2rcd13ifvqeo0","pricing_plan_id":"cebpf4jnsgd1na2vs0mg"},{"bike_id":"d1f92f28-9609-4256-bd4a-880c7b09d4e8","system_id":"levelo_inurba_marseille","lat":43.2933,"lon":5.41139,"is_reserved":false,"is_disabled":false,"rental_uris":{"android":"levelo://app?vid=d1f92f28-9609-4256-bd4a-880c7b09d4e8","ios":"levelo://app?vid=d1f92f28-9609-4256-bd4a-880c7b09d4e8"},"vehicle_type_id":"4","last_reported":1744279867,"current_range_meters":14800,"station_id":"","pricing_plan_id":"cebpf4jnsgd1na2vs0mg"},{"bike_id":"836b1fed-8d9c-4d34-9523-f79d4f444a60","system_id":"levelo_inurba_marseille","lat":43.2873,"lon":5.37936,"is_reserved":false,"is_disabled":false,"rental_uris":{"android":"levelo://app?vid=836b1fed-8d9c-4d34-9523-f79d4f444a60","ios":"levelo://app?vid=836b1fed-8d9c-4d34-9523-f79d4f444a60"},"vehicle_type_id":"4","last_reported":1744279867,"current_range_meters":14400,"station_id":"ce4bh9p2rcd13ifvqec0","pricing_plan_id":"cebpf4jnsgd1na2vs0mg"},{"bike_id":"237d2e66-cd30-4731-9af8-7a0689b2379c","system_id":"levelo_inurba_marseille","lat":43.29802,"lon":5.38099,"is_reserved":false,"is_disabled":false,"rental_uris":{"android":"levelo://app?vid=237d2e66-cd30-4731-9af8-7a0689b2379c","ios":"levelo://app?vid=237d2e66-cd30-4731-9af8-7a0689b2379c"},"vehicle_type_id":"4","last_reported":1744279867,"current_range_meters":15200,"station_id":"ce4bgip2rcd13ifvqbb0","pricing_plan_id":"cebpf4jnsgd1na2vs0mg"},{"bike_id":"6aea74ed-ea0d-40c2-9455-d10b07283bfc","system_id":"levelo_inurba_marseille","lat":43.241821,"lon":5.397156,"is_reserved":false,"is_disabled":false,"rental_uris":{"android":"levelo://app?vid=6aea74ed-ea0d-40c2-9455-d10b07283bfc","ios":"levelo://app?vid=6aea74ed-ea0d-40c2-9455-d10b07283bfc"},"vehicle_type_id":"4","last_reported":1744279867,"current_range_meters":15200,"station_id":"ce4bhn12rcd13ifvqgpg","pricing_plan_id":"cebpf4jnsgd1na2vs0mg"},{"bike_id":"d15b9c0e-f89f-4872-b188-98dfe10fe3b6","system_id":"levelo_inurba_marseille","lat":43.3057,"lon":5.36662,"is_reserved":false,"is_disabled":false,"rental_uris":{"android":"levelo://app?vid=d15b9c0e-f89f-4872-b188-98dfe10fe3b6","ios":"levelo://app?vid=d15b9c0e-f89f-4872-b188-98dfe10fe3b6"},"vehicle_type_id":"4","last_reported":1744279867,"current_range_meters":15200,"station_id":"ce4bgrp2rcd13ifvqc9g","pricing_plan_id":"cebpf4jnsgd1na2vs0mg"},{"bike_id":"f78bf8a8-b506-43e9-9fc4-9ec4cb688e82","system_id":"levelo_inurba_marseille","lat":43.32104,"lon":5.3677,"is_reserved":false,"is_disabled":false,"rental_uris":{"android":"levelo://app?vid=f78bf8a8-b506-43e9-9fc4-9ec4cb688e82","ios":"levelo://app?vid=f78bf8a8-b506-43e9-9fc4-9ec4cb688e82"},"vehicle_type_id":"4","last_reported":1744279867,"current_range_meters":16000,"station_id":"ce4bhrh2rcd13ifvqhug","pricing_plan_id":"cebpf4jnsgd1na2vs0mg"},{"bike_id":"1a8fb86a-a16f-4372-9f9e-b82551d343c8","system_id":"levelo_inurba_marseille","lat":43.31357,"lon":5.36694,"is_reserved":false,"is_disabled":false,"rental_uris":{"android":"levelo://app?vid=1a8fb86a-a16f-4372-9f9e-b82551d343c8","ios":"levelo://app?vid=1a8fb86a-a16f-4372-9f9e-b82551d343c8"},"vehicle_type_id":"4","last_reported":1744279867,"current_range_meters":16000,"station_id":"ce4bgr92rcd13ifvqc6g","pricing_plan_id":"cebpf4jnsgd1na2vs0mg"},{"bike_id":"87fdfca5-a785-44fa-b842-b5544514f00c","system_id":"levelo_inurba_marseille","lat":43.29535,"lon":5.37504,"is_reserved":false,"is_disabled":false,"rental_uris":{"android":"levelo://app?vid=87fdfca5-a785-44fa-b842-b5544514f00c","ios":"levelo://app?vid=87fdfca5-a785-44fa-b842-b5544514f00c"},"vehicle_type_id":"4","last_reported":1744279867,"current_range_meters":16000,"station_id":"ce4bgkp2rcd13ifvqbmg","pricing_plan_id":"cebpf4jnsgd1na2vs0mg"},{"bike_id":"9e822e95-4ea7-48d8-b009-628669aaaad9","system_id":"levelo_inurba_marseille","lat":43.23963,"lon":5.36623,"is_reserved":false,"is_disabled":false,"rental_uris":{"android":"levelo://app?vid=9e822e95-4ea7-48d8-b009-628669aaaad9","ios":"levelo://app?vid=9e822e95-4ea7-48d8-b009-628669aaaad9"},"vehicle_type_id":"4","last_reported":1744279867,"current_range_meters":15200,"station_id":"ce4bhi12rcd13ifvqfp0","pricing_plan_id":"cebpf4jnsgd1na2vs0mg"},{"bike_id":"c74893b0-7990-42e1-81ba-6333fadd7f5e","system_id":"levelo_inurba_marseille","lat":43.30534,"lon":5.36524,"is_reserved":false,"is_disabled":false,"rental_uris":{"android":"levelo://app?vid=c74893b0-7990-42e1-81ba-6333fadd7f5e","ios":"levelo://app?vid=c74893b0-7990-42e1-81ba-6333fadd7f5e"},"vehicle_type_id":"4","last_reported":1744279867,"current_range_meters":16000,"station_id":"ce4bgs12rcd13ifvqcag","pricing_plan_id":"cebpf4jnsgd1na2vs0mg"},{"bike_id":"083e46db-7202-4d81-a11b-6c85cd648e16","system_id":"levelo_inurba_marseille","lat":43.31784,"lon":5.38985,"is_reserved":false,"is_disabled":false,"rental_uris":{"android":"levelo://app?vid=083e46db-7202-4d81-a11b-6c85cd648e16","ios":"levelo://app?vid=083e46db-7202-4d81-a11b-6c85cd648e16"},"vehicle_type_id":"4","last_reported":1744279867,"current_range_meters":16000,"station_id":"ce4bhqp2rcd13ifvqhng","pricing_plan_id":"cebpf4jnsgd1na2vs0mg"},{"bike_id":"53d2413a-de46-4967-b219-c3851c5e719c","system_id":"levelo_inurba_marseille","lat":43.259405,"lon":5.409109,"is_reserved":false,"is_disabled":false,"rental_uris":{"android":"levelo://app?vid=53d2413a-de46-4967-b219-c3851c5e719c","ios":"levelo://app?vid=53d2413a-de46-4967-b219-c3851c5e719c"},"vehicle_type_id":"4","last_reported":1744279867,"current_range_meters":16000,"station_id":"ce4bhm92rcd13ifvqglg","pricing_plan_id":"cebpf4jnsgd1na2vs0mg"},{"bike_id":"69453b73-2d1a-4d69-a56c-2a033ab4613a","system_id":"levelo_inurba_marseille","lat":43.30547,"lon":5.36542,"is_reserved":false,"is_disabled":false,"rental_uris":{"android":"levelo://app?vid=69453b73-2d1a-4d69-a56c-2a033ab4613a","ios":"levelo://app?vid=69453b73-2d1a-4d69-a56c-2a033ab4613a"},"vehicle_type_id":"4","last_reported":1744279867,"current_range_meters":16000,"station_id":"ce4bgs12rcd13ifvqcag","pricing_plan_id":"cebpf4jnsgd1na2vs0mg"},{"bike_id":"548ed707-3e9c-42eb-8d69-3b29d9cb4a82","system_id":"levelo_inurba_marseille","lat":43.23157,"lon":5.43704,"is_reserved":false,"is_disabled":false,"rental_uris":{"android":"levelo://app?vid=548ed707-3e9c-42eb-8d69-3b29d9cb4a82","ios":"levelo://app?vid=548ed707-3e9c-42eb-8d69-3b29d9cb4a82"},"vehicle_type_id":"4","last_reported":1744279867,"current_range_meters":16400,"station_id":"ce4bhmp2rcd13ifvqgog","pricing_plan_id":"cebpf4jnsgd1na2vs0mg"},{"bike_id":"740ed816-09b2-41bd-867d-52a35d1745f1","system_id":"levelo_inurba_marseille","lat":43.2466,"lon":5.38177,"is_reserved":false,"is_disabled":true,"rental_uris":{"android":"levelo://app?vid=740ed816-09b2-41bd-867d-52a35d1745f1","ios":"levelo://app?vid=740ed816-09b2-41bd-867d-52a35d1745f1"},"vehicle_type_id":"4","last_reported":1744279867,"current_range_meters":16400,"station_id":"ce4bhih2rcd13ifvqfr0","pricing_plan_id":"cebpf4jnsgd1na2vs0mg"},{"bike_id":"8ee9f686-4549-4aad-af30-9017baadcb23","system_id":"levelo_inurba_marseille","lat":43.31446,"lon":5.376,"is_reserved":false,"is_disabled":false,"rental_uris":{"android":"levelo://app?vid=8ee9f686-4549-4aad-af30-9017baadcb23","ios":"levelo://app?vid=8ee9f686-4549-4aad-af30-9017baadcb23"},"vehicle_type_id":"4","last_reported":1744279867,"current_range_meters":16400,"station_id":"","pricing_plan_id":"cebpf4jnsgd1na2vs0mg"},{"bike_id":"ca2aeb25-ac4c-4db1-bf66-c0cbda75f085","system_id":"levelo_inurba_marseille","lat":43.25499,"lon":5.37651,"is_reserved":false,"is_disabled":false,"rental_uris":{"android":"levelo://app?vid=ca2aeb25-ac4c-4db1-bf66-c0cbda75f085","ios":"levelo://app?vid=ca2aeb25-ac4c-4db1-bf66-c0cbda75f085"},"vehicle_type_id":"4","last_reported":1744279867,"current_range_meters":16400,"station_id":"ce4bhh12rcd13ifvqff0","pricing_plan_id":"cebpf4jnsgd1na2vs0mg"},{"bike_id":"7928f85f-6603-4b62-a9f0-1785aa6fb49a","system_id":"levelo_inurba_marseille","lat":43.30783,"lon":5.37366,"is_reserved":false,"is_disabled":true,"rental_uris":{"android":"levelo://app?vid=7928f85f-6603-4b62-a9f0-1785aa6fb49a","ios":"levelo://app?vid=7928f85f-6603-4b62-a9f0-1785aa6fb49a"},"vehicle_type_id":"4","last_reported":1744279867,"current_range_meters":16400,"station_id":"","pricing_plan_id":"cebpf4jnsgd1na2vs0mg"},{"bike_id":"eab6cbfa-cb8e-47d7-b0d6-226ab7facec7","system_id":"levelo_inurba_marseille","lat":43.31709,"lon":5.42406,"is_reserved":false,"is_disabled":true,"rental_uris":{"android":"levelo://app?vid=eab6cbfa-cb8e-47d7-b0d6-226ab7facec7","ios":"levelo://app?vid=eab6cbfa-cb8e-47d7-b0d6-226ab7facec7"},"vehicle_type_id":"4","last_reported":1744279867,"current_range_meters":16400,"station_id":"ce4bhp92rcd13ifvqhbg","pricing_plan_id":"cebpf4jnsgd1na2vs0mg"},{"bike_id":"4c22cc69-15ea-4f4f-8fe9-2313938f7c43","system_id":"levelo_inurba_marseille","lat":43.29527,"lon":5.38543,"is_reserved":false,"is_disabled":false,"rental_uris":{"android":"levelo://app?vid=4c22cc69-15ea-4f4f-8fe9-2313938f7c43","ios":"levelo://app?vid=4c22cc69-15ea-4f4f-8fe9-2313938f7c43"},"vehicle_type_id":"4","last_reported":1744279867,"current_range_meters":16400,"station_id":"ce4bgih2rcd13ifvqba0","pricing_plan_id":"cebpf4jnsgd1na2vs0mg"},{"bike_id":"d1cd1b25-6432-4bde-87f0-3f927aac83c2","system_id":"levelo_inurba_marseille","lat":43.30524,"lon":5.36548,"is_reserved":false,"is_disabled":false,"rental_uris":{"android":"levelo://app?vid=d1cd1b25-6432-4bde-87f0-3f927aac83c2","ios":"levelo://app?vid=d1cd1b25-6432-4bde-87f0-3f927aac83c2"},"vehicle_type_id":"4","last_reported":1744279867,"current_range_meters":16400,"station_id":"ce4bgs12rcd13ifvqcag","pricing_plan_id":"cebpf4jnsgd1na2vs0mg"},{"bike_id":"3ed2cdff-7b68-4bb4-8a91-0a09828d802e","system_id":"levelo_inurba_marseille","lat":43.2509,"lon":5.39516,"is_reserved":false,"is_disabled":false,"rental_uris":{"android":"levelo://app?vid=3ed2cdff-7b68-4bb4-8a91-0a09828d802e","ios":"levelo://app?vid=3ed2cdff-7b68-4bb4-8a91-0a09828d802e"},"vehicle_type_id":"4","last_reported":1744279867,"current_range_meters":16800,"station_id":"ce4bhm12rcd13ifvqgkg","pricing_plan_id":"cebpf4jnsgd1na2vs0mg"},{"bike_id":"4b8ac1b7-5f53-4b59-ab52-4c9a17e8f238","system_id":"levelo_inurba_marseille","lat":43.25506,"lon":5.37649,"is_reserved":false,"is_disabled":false,"rental_uris":{"android":"levelo://app?vid=4b8ac1b7-5f53-4b59-ab52-4c9a17e8f238","ios":"levelo://app?vid=4b8ac1b7-5f53-4b59-ab52-4c9a17e8f238"},"vehicle_type_id":"4","last_reported":1744279867,"current_range_meters":16800,"station_id":"ce4bhh12rcd13ifvqff0","pricing_plan_id":"cebpf4jnsgd1na2vs0mg"},{"bike_id":"de4669ff-b9cc-43d6-95d6-96a615c4f6f1","system_id":"levelo_inurba_marseille","lat":43.21181,"lon":5.35078,"is_reserved":false,"is_disabled":false,"rental_uris":{"android":"levelo://app?vid=de4669ff-b9cc-43d6-95d6-96a615c4f6f1","ios":"levelo://app?vid=de4669ff-b9cc-43d6-95d6-96a615c4f6f1"},"vehicle_type_id":"4","last_reported":1744279867,"current_range_meters":16800,"station_id":"ce4bhbp2rcd13ifvqesg","pricing_plan_id":"cebpf4jnsgd1na2vs0mg"},{"bike_id":"edcc2472-e7bf-4e0c-91d2-956f1c779ee1","system_id":"levelo_inurba_marseille","lat":43.24178,"lon":5.39733,"is_reserved":false,"is_disabled":false,"rental_uris":{"android":"levelo://app?vid=edcc2472-e7bf-4e0c-91d2-956f1c779ee1","ios":"levelo://app?vid=edcc2472-e7bf-4e0c-91d2-956f1c779ee1"},"vehicle_type_id":"4","last_reported":1744279867,"current_range_meters":16800,"station_id":"ce4bhn12rcd13ifvqgpg","pricing_plan_id":"cebpf4jnsgd1na2vs0mg"},{"bike_id":"529198f5-b6e5-4b58-b616-4f567acfe349","system_id":"levelo_inurba_marseille","lat":43.26944,"lon":5.386433,"is_reserved":false,"is_disabled":false,"rental_uris":{"android":"levelo://app?vid=529198f5-b6e5-4b58-b616-4f567acfe349","ios":"levelo://app?vid=529198f5-b6e5-4b58-b616-4f567acfe349"},"vehicle_type_id":"4","last_reported":1744279867,"current_range_meters":16400,"station_id":"ce4bhh92rcd13ifvqfh0","pricing_plan_id":"cebpf4jnsgd1na2vs0mg"},{"bike_id":"59242871-87d2-4724-a154-c0b7da171930","system_id":"levelo_inurba_marseille","lat":43.29255,"lon":5.376264,"is_reserved":false,"is_disabled":false,"rental_uris":{"android":"levelo://app?vid=59242871-87d2-4724-a154-c0b7da171930","ios":"levelo://app?vid=59242871-87d2-4724-a154-c0b7da171930"},"vehicle_type_id":"4","last_reported":1744279867,"current_range_meters":16800,"station_id":"ce4bgi12rcd13ifvqb80","pricing_plan_id":"cebpf4jnsgd1na2vs0mg"},{"bike_id":"0922821c-4e1d-4817-9469-860e55f8f0d1","system_id":"levelo_inurba_marseille","lat":43.337444,"lon":5.374475,"is_reserved":false,"is_disabled":false,"rental_uris":{"android":"levelo://app?vid=0922821c-4e1d-4817-9469-860e55f8f0d1","ios":"levelo://app?vid=0922821c-4e1d-4817-9469-860e55f8f0d1"},"vehicle_type_id":"4","last_reported":1744279867,"current_range_meters":16800,"station_id":"","pricing_plan_id":"cebpf4jnsgd1na2vs0mg"},{"bike_id":"8ecbc85f-3b18-4c5e-a8da-e58b9aea0390","system_id":"levelo_inurba_marseille","lat":43.28418,"lon":5.34976,"is_reserved":false,"is_disabled":false,"rental_uris":{"android":"levelo://app?vid=8ecbc85f-3b18-4c5e-a8da-e58b9aea0390","ios":"levelo://app?vid=8ecbc85f-3b18-4c5e-a8da-e58b9aea0390"},"vehicle_type_id":"4","last_reported":1744279867,"current_range_meters":17200,"station_id":"ce4bhbh2rcd13ifvqepg","pricing_plan_id":"cebpf4jnsgd1na2vs0mg"},{"bike_id":"82b0970f-5b83-494d-bfae-10eaef91c913","system_id":"levelo_inurba_marseille","lat":43.31706,"lon":5.37727,"is_reserved":false,"is_disabled":false,"rental_uris":{"android":"levelo://app?vid=82b0970f-5b83-494d-bfae-10eaef91c913","ios":"levelo://app?vid=82b0970f-5b83-494d-bfae-10eaef91c913"},"vehicle_type_id":"4","last_reported":1744279867,"current_range_meters":16800,"station_id":"ce4bgth2rcd13ifvqch0","pricing_plan_id":"cebpf4jnsgd1na2vs0mg"},{"bike_id":"a4ddd049-3c97-46ea-b5c7-2455c80b0e34","system_id":"levelo_inurba_marseille","lat":43.28619,"lon":5.37065,"is_reserved":false,"is_disabled":false,"rental_uris":{"android":"levelo://app?vid=a4ddd049-3c97-46ea-b5c7-2455c80b0e34","ios":"levelo://app?vid=a4ddd049-3c97-46ea-b5c7-2455c80b0e34"},"vehicle_type_id":"4","last_reported":1744279867,"current_range_meters":17200,"station_id":"ce4bht12rcd13ifvqi60","pricing_plan_id":"cebpf4jnsgd1na2vs0mg"},{"bike_id":"5336beb7-2639-49ce-9068-8e72e61fc789","system_id":"levelo_inurba_marseille","lat":43.28721,"lon":5.39973,"is_reserved":false,"is_disabled":false,"rental_uris":{"android":"levelo://app?vid=5336beb7-2639-49ce-9068-8e72e61fc789","ios":"levelo://app?vid=5336beb7-2639-49ce-9068-8e72e61fc789"},"vehicle_type_id":"4","last_reported":1744279867,"current_range_meters":17200,"station_id":"ce4bho92rcd13ifvqh3g","pricing_plan_id":"cebpf4jnsgd1na2vs0mg"},{"bike_id":"604a4f83-0324-4dd2-8bc9-367cc0ebec93","system_id":"levelo_inurba_marseille","lat":43.29033,"lon":5.39955,"is_reserved":false,"is_disabled":false,"rental_uris":{"android":"levelo://app?vid=604a4f83-0324-4dd2-8bc9-367cc0ebec93","ios":"levelo://app?vid=604a4f83-0324-4dd2-8bc9-367cc0ebec93"},"vehicle_type_id":"4","last_reported":1744279867,"current_range_meters":17200,"station_id":"ce4bh392rcd13ifvqdm0","pricing_plan_id":"cebpf4jnsgd1na2vs0mg"},{"bike_id":"23718e9a-5ce7-4d28-99a5-8f754f56e13c","system_id":"levelo_inurba_marseille","lat":43.22503,"lon":5.34786,"is_reserved":false,"is_disabled":false,"rental_uris":{"android":"levelo://app?vid=23718e9a-5ce7-4d28-99a5-8f754f56e13c","ios":"levelo://app?vid=23718e9a-5ce7-4d28-99a5-8f754f56e13c"},"vehicle_type_id":"4","last_reported":1744279867,"current_range_meters":17600,"station_id":"","pricing_plan_id":"cebpf4jnsgd1na2vs0mg"},{"bike_id":"5b7d9bfc-4413-4706-9f25-394e2aa151fd","system_id":"levelo_inurba_marseille","lat":43.29261,"lon":5.37626,"is_reserved":false,"is_disabled":false,"rental_uris":{"android":"levelo://app?vid=5b7d9bfc-4413-4706-9f25-394e2aa151fd","ios":"levelo://app?vid=5b7d9bfc-4413-4706-9f25-394e2aa151fd"},"vehicle_type_id":"4","last_reported":1744279867,"current_range_meters":17600,"station_id":"ce4bgi12rcd13ifvqb80","pricing_plan_id":"cebpf4jnsgd1na2vs0mg"},{"bike_id":"761ab4c6-4800-4be8-a1fe-1b0640d4f959","system_id":"levelo_inurba_marseille","lat":43.32279,"lon":5.37682,"is_reserved":false,"is_disabled":false,"rental_uris":{"android":"levelo://app?vid=761ab4c6-4800-4be8-a1fe-1b0640d4f959","ios":"levelo://app?vid=761ab4c6-4800-4be8-a1fe-1b0640d4f959"},"vehicle_type_id":"4","last_reported":1744279867,"current_range_meters":17600,"station_id":"","pricing_plan_id":"cebpf4jnsgd1na2vs0mg"},{"bike_id":"d2991d92-f477-4b31-b207-530975b736c1","system_id":"levelo_inurba_marseille","lat":43.33024,"lon":5.39048,"is_reserved":false,"is_disabled":false,"rental_uris":{"android":"levelo://app?vid=d2991d92-f477-4b31-b207-530975b736c1","ios":"levelo://app?vid=d2991d92-f477-4b31-b207-530975b736c1"},"vehicle_type_id":"4","last_reported":1744279867,"current_range_meters":18800,"station_id":"ce4bhr92rcd13ifvqhrg","pricing_plan_id":"cebpf4jnsgd1na2vs0mg"},{"bike_id":"fcc96287-2e89-4316-9881-f408cc8611c9","system_id":"levelo_inurba_marseille","lat":43.31117,"lon":5.37748,"is_reserved":false,"is_disabled":false,"rental_uris":{"android":"levelo://app?vid=fcc96287-2e89-4316-9881-f408cc8611c9","ios":"levelo://app?vid=fcc96287-2e89-4316-9881-f408cc8611c9"},"vehicle_type_id":"4","last_reported":1744279867,"current_range_meters":17600,"station_id":"ce4bgt92rcd13ifvqcg0","pricing_plan_id":"cebpf4jnsgd1na2vs0mg"},{"bike_id":"83fc322c-7ead-4fc3-9063-d654dddf8231","system_id":"levelo_inurba_marseille","lat":43.2997,"lon":5.38495,"is_reserved":false,"is_disabled":false,"rental_uris":{"android":"levelo://app?vid=83fc322c-7ead-4fc3-9063-d654dddf8231","ios":"levelo://app?vid=83fc322c-7ead-4fc3-9063-d654dddf8231"},"vehicle_type_id":"4","last_reported":1744279867,"current_range_meters":18000,"station_id":"ce4bgj92rcd13ifvqbd0","pricing_plan_id":"cebpf4jnsgd1na2vs0mg"},{"bike_id":"b5ca0173-860f-4e09-8ae0-f89867ca9dd6","system_id":"levelo_inurba_marseille","lat":43.31862,"lon":5.37313,"is_reserved":false,"is_disabled":false,"rental_uris":{"android":"levelo://app?vid=b5ca0173-860f-4e09-8ae0-f89867ca9dd6","ios":"levelo://app?vid=b5ca0173-860f-4e09-8ae0-f89867ca9dd6"},"vehicle_type_id":"4","last_reported":1744279867,"current_range_meters":18000,"station_id":"","pricing_plan_id":"cebpf4jnsgd1na2vs0mg"},{"bike_id":"630ae79d-70f6-4f06-a76d-e79c5d557a7d","system_id":"levelo_inurba_marseille","lat":43.3136,"lon":5.36705,"is_reserved":false,"is_disabled":false,"rental_uris":{"android":"levelo://app?vid=630ae79d-70f6-4f06-a76d-e79c5d557a7d","ios":"levelo://app?vid=630ae79d-70f6-4f06-a76d-e79c5d557a7d"},"vehicle_type_id":"4","last_reported":1744279867,"current_range_meters":18000,"station_id":"ce4bgr92rcd13ifvqc6g","pricing_plan_id":"cebpf4jnsgd1na2vs0mg"},{"bike_id":"523003e6-3dbf-4128-b972-edf954e23c6a","system_id":"levelo_inurba_marseille","lat":43.29306,"lon":5.37455,"is_reserved":false,"is_disabled":false,"rental_uris":{"android":"levelo://app?vid=523003e6-3dbf-4128-b972-edf954e23c6a","ios":"levelo://app?vid=523003e6-3dbf-4128-b972-edf954e23c6a"},"vehicle_type_id":"4","last_reported":1744279867,"current_range_meters":18000,"station_id":"ce4bgi12rcd13ifvqb70","pricing_plan_id":"cebpf4jnsgd1na2vs0mg"},{"bike_id":"221b5d38-61dc-40aa-b23e-5b0391fc47a1","system_id":"levelo_inurba_marseille","lat":43.26242,"lon":5.40466,"is_reserved":false,"is_disabled":false,"rental_uris":{"android":"levelo://app?vid=221b5d38-61dc-40aa-b23e-5b0391fc47a1","ios":"levelo://app?vid=221b5d38-61dc-40aa-b23e-5b0391fc47a1"},"vehicle_type_id":"4","last_reported":1744279867,"current_range_meters":18000,"station_id":"ce4bhmh2rcd13ifvqgmg","pricing_plan_id":"cebpf4jnsgd1na2vs0mg"},{"bike_id":"94455896-0f19-4fae-bd72-9879f01fcd6e","system_id":"levelo_inurba_marseille","lat":43.29546,"lon":5.42275,"is_reserved":false,"is_disabled":true,"rental_uris":{"android":"levelo://app?vid=94455896-0f19-4fae-bd72-9879f01fcd6e","ios":"levelo://app?vid=94455896-0f19-4fae-bd72-9879f01fcd6e"},"vehicle_type_id":"4","last_reported":1744279867,"current_range_meters":18000,"station_id":"ce4bhph2rcd13ifvqhdg","pricing_plan_id":"cebpf4jnsgd1na2vs0mg"},{"bike_id":"9f88194e-ae6a-4273-9cc2-e1057466f644","system_id":"levelo_inurba_marseille","lat":43.30569,"lon":5.36688,"is_reserved":false,"is_disabled":false,"rental_uris":{"android":"levelo://app?vid=9f88194e-ae6a-4273-9cc2-e1057466f644","ios":"levelo://app?vid=9f88194e-ae6a-4273-9cc2-e1057466f644"},"vehicle_type_id":"4","last_reported":1744279867,"current_range_meters":18000,"station_id":"ce4bgrp2rcd13ifvqc9g","pricing_plan_id":"cebpf4jnsgd1na2vs0mg"},{"bike_id":"8e0980e7-f650-4478-82b2-cdec5bb55d65","system_id":"levelo_inurba_marseille","lat":43.2861,"lon":5.3706,"is_reserved":false,"is_disabled":false,"rental_uris":{"android":"levelo://app?vid=8e0980e7-f650-4478-82b2-cdec5bb55d65","ios":"levelo://app?vid=8e0980e7-f650-4478-82b2-cdec5bb55d65"},"vehicle_type_id":"4","last_reported":1744279867,"current_range_meters":18000,"station_id":"ce4bht12rcd13ifvqi60","pricing_plan_id":"cebpf4jnsgd1na2vs0mg"},{"bike_id":"182650a6-9433-4951-80ba-44b6e3878dab","system_id":"levelo_inurba_marseille","lat":43.30547,"lon":5.38405,"is_reserved":false,"is_disabled":true,"rental_uris":{"android":"levelo://app?vid=182650a6-9433-4951-80ba-44b6e3878dab","ios":"levelo://app?vid=182650a6-9433-4951-80ba-44b6e3878dab"},"vehicle_type_id":"4","last_reported":1744279867,"current_range_meters":18000,"station_id":"ce4bgg92rcd13ifvqb30","pricing_plan_id":"cebpf4jnsgd1na2vs0mg"},{"bike_id":"204e4ebf-dbf2-49a6-9c7f-bede59e102a8","system_id":"levelo_inurba_marseille","lat":43.30375,"lon":5.41892,"is_reserved":false,"is_disabled":false,"rental_uris":{"android":"levelo://app?vid=204e4ebf-dbf2-49a6-9c7f-bede59e102a8","ios":"levelo://app?vid=204e4ebf-dbf2-49a6-9c7f-bede59e102a8"},"vehicle_type_id":"4","last_reported":1744279867,"current_range_meters":18800,"station_id":"ce4bhop2rcd13ifvqh7g","pricing_plan_id":"cebpf4jnsgd1na2vs0mg"},{"bike_id":"df24b2af-0193-4480-b5ad-460121a42ef9","system_id":"levelo_inurba_marseille","lat":43.304165,"lon":5.412877,"is_reserved":false,"is_disabled":false,"rental_uris":{"android":"levelo://app?vid=df24b2af-0193-4480-b5ad-460121a42ef9","ios":"levelo://app?vid=df24b2af-0193-4480-b5ad-460121a42ef9"},"vehicle_type_id":"4","last_reported":1744279867,"current_range_meters":18000,"station_id":"ce4bhop2rcd13ifvqh8g","pricing_plan_id":"cebpf4jnsgd1na2vs0mg"},{"bike_id":"463b41fd-37bb-48c0-a6e4-12f737a3d7cf","system_id":"levelo_inurba_marseille","lat":43.26948,"lon":5.40293,"is_reserved":false,"is_disabled":true,"rental_uris":{"android":"levelo://app?vid=463b41fd-37bb-48c0-a6e4-12f737a3d7cf","ios":"levelo://app?vid=463b41fd-37bb-48c0-a6e4-12f737a3d7cf"},"vehicle_type_id":"4","last_reported":1744279867,"current_range_meters":18800,"station_id":"cjm6bp8fraef2m0cb0m0","pricing_plan_id":"cebpf4jnsgd1na2vs0mg"},{"bike_id":"aeb315f8-5663-4264-8421-f5acbb6ac33d","system_id":"levelo_inurba_marseille","lat":43.26221,"lon":5.40443,"is_reserved":false,"is_disabled":false,"rental_uris":{"android":"levelo://app?vid=aeb315f8-5663-4264-8421-f5acbb6ac33d","ios":"levelo://app?vid=aeb315f8-5663-4264-8421-f5acbb6ac33d"},"vehicle_type_id":"4","last_reported":1744279867,"current_range_meters":18800,"station_id":"ce4bhmh2rcd13ifvqgmg","pricing_plan_id":"cebpf4jnsgd1na2vs0mg"},{"bike_id":"1bc6279e-aae9-4cb3-a127-04219d10bf9d","system_id":"levelo_inurba_marseille","lat":43.301279,"lon":5.398567,"is_reserved":false,"is_disabled":false,"rental_uris":{"android":"levelo://app?vid=1bc6279e-aae9-4cb3-a127-04219d10bf9d","ios":"levelo://app?vid=1bc6279e-aae9-4cb3-a127-04219d10bf9d"},"vehicle_type_id":"4","last_reported":1744279867,"current_range_meters":18800,"station_id":"ce4bh0h2rcd13ifvqd40","pricing_plan_id":"cebpf4jnsgd1na2vs0mg"},{"bike_id":"35b36e91-763a-4885-8944-e030c3a30dcf","system_id":"levelo_inurba_marseille","lat":43.31218,"lon":5.36878,"is_reserved":false,"is_disabled":false,"rental_uris":{"android":"levelo://app?vid=35b36e91-763a-4885-8944-e030c3a30dcf","ios":"levelo://app?vid=35b36e91-763a-4885-8944-e030c3a30dcf"},"vehicle_type_id":"4","last_reported":1744279867,"current_range_meters":18800,"station_id":"ce4bgl92rcd13ifvqbq0","pricing_plan_id":"cebpf4jnsgd1na2vs0mg"},{"bike_id":"c7dbba1b-663a-4763-a29e-a4806dd3cb8a","system_id":"levelo_inurba_marseille","lat":43.28613,"lon":5.3707,"is_reserved":false,"is_disabled":false,"rental_uris":{"android":"levelo://app?vid=c7dbba1b-663a-4763-a29e-a4806dd3cb8a","ios":"levelo://app?vid=c7dbba1b-663a-4763-a29e-a4806dd3cb8a"},"vehicle_type_id":"4","last_reported":1744279867,"current_range_meters":18800,"station_id":"ce4bht12rcd13ifvqi60","pricing_plan_id":"cebpf4jnsgd1na2vs0mg"},{"bike_id":"d53a2e92-9083-47c0-b74b-108e45d6d36f","system_id":"levelo_inurba_marseille","lat":43.29972,"lon":5.38492,"is_reserved":false,"is_disabled":false,"rental_uris":{"android":"levelo://app?vid=d53a2e92-9083-47c0-b74b-108e45d6d36f","ios":"levelo://app?vid=d53a2e92-9083-47c0-b74b-108e45d6d36f"},"vehicle_type_id":"4","last_reported":1744279867,"current_range_meters":18000,"station_id":"ce4bgj92rcd13ifvqbd0","pricing_plan_id":"cebpf4jnsgd1na2vs0mg"},{"bike_id":"6f5a3fba-5124-42a7-b36e-1ce41590f370","system_id":"levelo_inurba_marseille","lat":43.32365,"lon":5.36752,"is_reserved":false,"is_disabled":false,"rental_uris":{"android":"levelo://app?vid=6f5a3fba-5124-42a7-b36e-1ce41590f370","ios":"levelo://app?vid=6f5a3fba-5124-42a7-b36e-1ce41590f370"},"vehicle_type_id":"4","last_reported":1744279867,"current_range_meters":18800,"station_id":"ce4bhsh2rcd13ifvqi2g","pricing_plan_id":"cebpf4jnsgd1na2vs0mg"},{"bike_id":"34616fe2-474b-4998-95c1-a06976c9c13c","system_id":"levelo_inurba_marseille","lat":43.23159,"lon":5.43705,"is_reserved":false,"is_disabled":false,"rental_uris":{"android":"levelo://app?vid=34616fe2-474b-4998-95c1-a06976c9c13c","ios":"levelo://app?vid=34616fe2-474b-4998-95c1-a06976c9c13c"},"vehicle_type_id":"4","last_reported":1744279867,"current_range_meters":18800,"station_id":"ce4bhmp2rcd13ifvqgog","pricing_plan_id":"cebpf4jnsgd1na2vs0mg"},{"bike_id":"0b73b15a-9d08-4a64-a420-9110a325b597","system_id":"levelo_inurba_marseille","lat":43.23133,"lon":5.43709,"is_reserved":false,"is_disabled":false,"rental_uris":{"android":"levelo://app?vid=0b73b15a-9d08-4a64-a420-9110a325b597","ios":"levelo://app?vid=0b73b15a-9d08-4a64-a420-9110a325b597"},"vehicle_type_id":"4","last_reported":1744279867,"current_range_meters":18800,"station_id":"ce4bhmp2rcd13ifvqgog","pricing_plan_id":"cebpf4jnsgd1na2vs0mg"},{"bike_id":"a84134a9-407a-4074-ade7-7f98f245d2b5","system_id":"levelo_inurba_marseille","lat":43.25,"lon":5.3892,"is_reserved":false,"is_disabled":false,"rental_uris":{"android":"levelo://app?vid=a84134a9-407a-4074-ade7-7f98f245d2b5","ios":"levelo://app?vid=a84134a9-407a-4074-ade7-7f98f245d2b5"},"vehicle_type_id":"4","last_reported":1744279867,"current_range_meters":18800,"station_id":"ce4bhgp2rcd13ifvqfd0","pricing_plan_id":"cebpf4jnsgd1na2vs0mg"},{"bike_id":"593cc697-220e-4df3-9f2b-b1793070fa32","system_id":"levelo_inurba_marseille","lat":43.30558,"lon":5.36519,"is_reserved":false,"is_disabled":false,"rental_uris":{"android":"levelo://app?vid=593cc697-220e-4df3-9f2b-b1793070fa32","ios":"levelo://app?vid=593cc697-220e-4df3-9f2b-b1793070fa32"},"vehicle_type_id":"4","last_reported":1744279867,"current_range_meters":19200,"station_id":"ce4bgs12rcd13ifvqcag","pricing_plan_id":"cebpf4jnsgd1na2vs0mg"},{"bike_id":"6a460b47-4558-43f5-ad6d-98dc7caa519c","system_id":"levelo_inurba_marseille","lat":43.29971,"lon":5.38496,"is_reserved":false,"is_disabled":false,"rental_uris":{"android":"levelo://app?vid=6a460b47-4558-43f5-ad6d-98dc7caa519c","ios":"levelo://app?vid=6a460b47-4558-43f5-ad6d-98dc7caa519c"},"vehicle_type_id":"4","last_reported":1744279867,"current_range_meters":19200,"station_id":"ce4bgj92rcd13ifvqbd0","pricing_plan_id":"cebpf4jnsgd1na2vs0mg"},{"bike_id":"94c7794a-6d48-406f-b5c8-69da2480bb40","system_id":"levelo_inurba_marseille","lat":43.31342,"lon":5.36736,"is_reserved":false,"is_disabled":false,"rental_uris":{"android":"levelo://app?vid=94c7794a-6d48-406f-b5c8-69da2480bb40","ios":"levelo://app?vid=94c7794a-6d48-406f-b5c8-69da2480bb40"},"vehicle_type_id":"4","last_reported":1744279867,"current_range_meters":19200,"station_id":"ce4bgr92rcd13ifvqc6g","pricing_plan_id":"cebpf4jnsgd1na2vs0mg"},{"bike_id":"89e18915-d30e-41cb-bb03-ba8ebbb23625","system_id":"levelo_inurba_marseille","lat":43.26683,"lon":5.38278,"is_reserved":false,"is_disabled":true,"rental_uris":{"android":"levelo://app?vid=89e18915-d30e-41cb-bb03-ba8ebbb23625","ios":"levelo://app?vid=89e18915-d30e-41cb-bb03-ba8ebbb23625"},"vehicle_type_id":"4","last_reported":1744279867,"current_range_meters":19200,"station_id":"ce4bhg92rcd13ifvqf90","pricing_plan_id":"cebpf4jnsgd1na2vs0mg"},{"bike_id":"00755629-ef7b-42fc-ba89-f99384474d44","system_id":"levelo_inurba_marseille","lat":43.25506,"lon":5.37648,"is_reserved":false,"is_disabled":false,"rental_uris":{"android":"levelo://app?vid=00755629-ef7b-42fc-ba89-f99384474d44","ios":"levelo://app?vid=00755629-ef7b-42fc-ba89-f99384474d44"},"vehicle_type_id":"4","last_reported":1744279867,"current_range_meters":19200,"station_id":"ce4bhh12rcd13ifvqff0","pricing_plan_id":"cebpf4jnsgd1na2vs0mg"},{"bike_id":"70333d08-b89a-4e2b-ae7b-375ce248ec2b","system_id":"levelo_inurba_marseille","lat":43.29303,"lon":5.37472,"is_reserved":false,"is_disabled":true,"rental_uris":{"android":"levelo://app?vid=70333d08-b89a-4e2b-ae7b-375ce248ec2b","ios":"levelo://app?vid=70333d08-b89a-4e2b-ae7b-375ce248ec2b"},"vehicle_type_id":"4","last_reported":1744279867,"current_range_meters":19200,"station_id":"","pricing_plan_id":"cebpf4jnsgd1na2vs0mg"},{"bike_id":"6d1f80b1-80e0-4012-99d1-3f8172cadb63","system_id":"levelo_inurba_marseille","lat":43.24169,"lon":5.3639,"is_reserved":false,"is_disabled":false,"rental_uris":{"android":"levelo://app?vid=6d1f80b1-80e0-4012-99d1-3f8172cadb63","ios":"levelo://app?vid=6d1f80b1-80e0-4012-99d1-3f8172cadb63"},"vehicle_type_id":"4","last_reported":1744279867,"current_range_meters":19200,"station_id":"cpo36qri1sfpv3e86is0","pricing_plan_id":"cebpf4jnsgd1na2vs0mg"},{"bike_id":"7e162cce-45fb-4756-a5d4-0d88fe0d397f","system_id":"levelo_inurba_marseille","lat":43.30152,"lon":5.37408,"is_reserved":false,"is_disabled":false,"rental_uris":{"android":"levelo://app?vid=7e162cce-45fb-4756-a5d4-0d88fe0d397f","ios":"levelo://app?vid=7e162cce-45fb-4756-a5d4-0d88fe0d397f"},"vehicle_type_id":"4","last_reported":1744279867,"current_range_meters":19200,"station_id":"ce4bgs92rcd13ifvqcc0","pricing_plan_id":"cebpf4jnsgd1na2vs0mg"},{"bike_id":"501fa997-908f-46c4-b868-f7df51633695","system_id":"levelo_inurba_marseille","lat":43.29499,"lon":5.37491,"is_reserved":false,"is_disabled":false,"rental_uris":{"android":"levelo://app?vid=501fa997-908f-46c4-b868-f7df51633695","ios":"levelo://app?vid=501fa997-908f-46c4-b868-f7df51633695"},"vehicle_type_id":"4","last_reported":1744279867,"current_range_meters":19600,"station_id":"ce4bgkp2rcd13ifvqbmg","pricing_plan_id":"cebpf4jnsgd1na2vs0mg"},{"bike_id":"ddfbc32f-3f73-4903-84fa-9a25db569e5f","system_id":"levelo_inurba_marseille","lat":43.29304,"lon":5.3744,"is_reserved":false,"is_disabled":false,"rental_uris":{"android":"levelo://app?vid=ddfbc32f-3f73-4903-84fa-9a25db569e5f","ios":"levelo://app?vid=ddfbc32f-3f73-4903-84fa-9a25db569e5f"},"vehicle_type_id":"4","last_reported":1744279867,"current_range_meters":19600,"station_id":"ce4bgi12rcd13ifvqb70","pricing_plan_id":"cebpf4jnsgd1na2vs0mg"},{"bike_id":"b1ee2f60-4328-4282-bd37-761fb5f2d37b","system_id":"levelo_inurba_marseille","lat":43.31334,"lon":5.36699,"is_reserved":false,"is_disabled":false,"rental_uris":{"android":"levelo://app?vid=b1ee2f60-4328-4282-bd37-761fb5f2d37b","ios":"levelo://app?vid=b1ee2f60-4328-4282-bd37-761fb5f2d37b"},"vehicle_type_id":"4","last_reported":1744279867,"current_range_meters":19600,"station_id":"ce4bgr92rcd13ifvqc6g","pricing_plan_id":"cebpf4jnsgd1na2vs0mg"},{"bike_id":"ad8253a1-48f9-4a09-891a-2d7866351f65","system_id":"levelo_inurba_marseille","lat":43.29248,"lon":5.37615,"is_reserved":false,"is_disabled":false,"rental_uris":{"android":"levelo://app?vid=ad8253a1-48f9-4a09-891a-2d7866351f65","ios":"levelo://app?vid=ad8253a1-48f9-4a09-891a-2d7866351f65"},"vehicle_type_id":"4","last_reported":1744279867,"current_range_meters":19600,"station_id":"ce4bgi12rcd13ifvqb80","pricing_plan_id":"cebpf4jnsgd1na2vs0mg"},{"bike_id":"74b26f4a-6d3d-4ac2-b681-1e6162ab2ff1","system_id":"levelo_inurba_marseille","lat":43.31276,"lon":5.36903,"is_reserved":false,"is_disabled":false,"rental_uris":{"android":"levelo://app?vid=74b26f4a-6d3d-4ac2-b681-1e6162ab2ff1","ios":"levelo://app?vid=74b26f4a-6d3d-4ac2-b681-1e6162ab2ff1"},"vehicle_type_id":"4","last_reported":1744279867,"current_range_meters":19600,"station_id":"","pricing_plan_id":"cebpf4jnsgd1na2vs0mg"},{"bike_id":"675a2941-75b6-4959-b303-6910d6997080","system_id":"levelo_inurba_marseille","lat":43.292868,"lon":5.374615,"is_reserved":false,"is_disabled":false,"rental_uris":{"android":"levelo://app?vid=675a2941-75b6-4959-b303-6910d6997080","ios":"levelo://app?vid=675a2941-75b6-4959-b303-6910d6997080"},"vehicle_type_id":"4","last_reported":1744279867,"current_range_meters":19600,"station_id":"ce4bgi12rcd13ifvqb70","pricing_plan_id":"cebpf4jnsgd1na2vs0mg"},{"bike_id":"1e4ff8df-5b01-4988-a0db-3b11e54f3e82","system_id":"levelo_inurba_marseille","lat":43.291644,"lon":5.393107,"is_reserved":false,"is_disabled":false,"rental_uris":{"android":"levelo://app?vid=1e4ff8df-5b01-4988-a0db-3b11e54f3e82","ios":"levelo://app?vid=1e4ff8df-5b01-4988-a0db-3b11e54f3e82"},"vehicle_type_id":"4","last_reported":1744279867,"current_range_meters":20000,"station_id":"ce4bh192rcd13ifvqdd0","pricing_plan_id":"cebpf4jnsgd1na2vs0mg"},{"bike_id":"25fb06f4-18a8-47b2-8f0c-a4e815a75645","system_id":"levelo_inurba_marseille","lat":43.33718,"lon":5.39177,"is_reserved":false,"is_disabled":false,"rental_uris":{"android":"levelo://app?vid=25fb06f4-18a8-47b2-8f0c-a4e815a75645","ios":"levelo://app?vid=25fb06f4-18a8-47b2-8f0c-a4e815a75645"},"vehicle_type_id":"4","last_reported":1744279867,"current_range_meters":20000,"station_id":"ce4bhr92rcd13ifvqhsg","pricing_plan_id":"cebpf4jnsgd1na2vs0mg"},{"bike_id":"8f31d9fc-d05f-45a8-b6fe-6c92512a2ecb","system_id":"levelo_inurba_marseille","lat":43.29966,"lon":5.38487,"is_reserved":false,"is_disabled":false,"rental_uris":{"android":"levelo://app?vid=8f31d9fc-d05f-45a8-b6fe-6c92512a2ecb","ios":"levelo://app?vid=8f31d9fc-d05f-45a8-b6fe-6c92512a2ecb"},"vehicle_type_id":"4","last_reported":1744279867,"current_range_meters":20000,"station_id":"ce4bgj92rcd13ifvqbd0","pricing_plan_id":"cebpf4jnsgd1na2vs0mg"},{"bike_id":"e61839bf-f681-4d70-a315-33f71f01e45f","system_id":"levelo_inurba_marseille","lat":43.30546,"lon":5.36704,"is_reserved":false,"is_disabled":false,"rental_uris":{"android":"levelo://app?vid=e61839bf-f681-4d70-a315-33f71f01e45f","ios":"levelo://app?vid=e61839bf-f681-4d70-a315-33f71f01e45f"},"vehicle_type_id":"4","last_reported":1744279867,"current_range_meters":20000,"station_id":"ce4bgrp2rcd13ifvqc9g","pricing_plan_id":"cebpf4jnsgd1na2vs0mg"},{"bike_id":"d41ae61a-63da-4c5b-9ca3-0fc5a06df94c","system_id":"levelo_inurba_marseille","lat":43.31209,"lon":5.36875,"is_reserved":false,"is_disabled":false,"rental_uris":{"android":"levelo://app?vid=d41ae61a-63da-4c5b-9ca3-0fc5a06df94c","ios":"levelo://app?vid=d41ae61a-63da-4c5b-9ca3-0fc5a06df94c"},"vehicle_type_id":"4","last_reported":1744279867,"current_range_meters":20400,"station_id":"ce4bgl92rcd13ifvqbq0","pricing_plan_id":"cebpf4jnsgd1na2vs0mg"},{"bike_id":"9cbfda8d-6bf8-4cf5-911b-a9361744031a","system_id":"levelo_inurba_marseille","lat":43.26808,"lon":5.40267,"is_reserved":false,"is_disabled":false,"rental_uris":{"android":"levelo://app?vid=9cbfda8d-6bf8-4cf5-911b-a9361744031a","ios":"levelo://app?vid=9cbfda8d-6bf8-4cf5-911b-a9361744031a"},"vehicle_type_id":"4","last_reported":1744279867,"current_range_meters":20400,"station_id":"ce501612rcd8frsf0b60","pricing_plan_id":"cebpf4jnsgd1na2vs0mg"},{"bike_id":"ef291804-1477-432e-b153-82ea15725418","system_id":"levelo_inurba_marseille","lat":43.33742,"lon":5.37454,"is_reserved":false,"is_disabled":false,"rental_uris":{"android":"levelo://app?vid=ef291804-1477-432e-b153-82ea15725418","ios":"levelo://app?vid=ef291804-1477-432e-b153-82ea15725418"},"vehicle_type_id":"4","last_reported":1744279867,"current_range_meters":20400,"station_id":"","pricing_plan_id":"cebpf4jnsgd1na2vs0mg"},{"bike_id":"8c58f2fa-99e1-41f8-bf90-9c1648b679b1","system_id":"levelo_inurba_marseille","lat":43.27295,"lon":5.41428,"is_reserved":false,"is_disabled":false,"rental_uris":{"android":"levelo://app?vid=8c58f2fa-99e1-41f8-bf90-9c1648b679b1","ios":"levelo://app?vid=8c58f2fa-99e1-41f8-bf90-9c1648b679b1"},"vehicle_type_id":"4","last_reported":1744279867,"current_range_meters":20400,"station_id":"","pricing_plan_id":"cebpf4jnsgd1na2vs0mg"},{"bike_id":"d43b77db-9bd3-4428-badc-36b3eeadc6b1","system_id":"levelo_inurba_marseille","lat":43.313536,"lon":5.367181,"is_reserved":false,"is_disabled":false,"rental_uris":{"android":"levelo://app?vid=d43b77db-9bd3-4428-badc-36b3eeadc6b1","ios":"levelo://app?vid=d43b77db-9bd3-4428-badc-36b3eeadc6b1"},"vehicle_type_id":"4","last_reported":1744279867,"current_range_meters":20400,"station_id":"","pricing_plan_id":"cebpf4jnsgd1na2vs0mg"},{"bike_id":"4c893399-b4ed-40ed-a49f-713da320f269","system_id":"levelo_inurba_marseille","lat":43.29861,"lon":5.37841,"is_reserved":false,"is_disabled":false,"rental_uris":{"android":"levelo://app?vid=4c893399-b4ed-40ed-a49f-713da320f269","ios":"levelo://app?vid=4c893399-b4ed-40ed-a49f-713da320f269"},"vehicle_type_id":"4","last_reported":1744279867,"current_range_meters":20800,"station_id":"","pricing_plan_id":"cebpf4jnsgd1na2vs0mg"},{"bike_id":"5d90b5b1-67ee-4758-86fe-ff9028754b93","system_id":"levelo_inurba_marseille","lat":43.31486,"lon":5.37296,"is_reserved":false,"is_disabled":false,"rental_uris":{"android":"levelo://app?vid=5d90b5b1-67ee-4758-86fe-ff9028754b93","ios":"levelo://app?vid=5d90b5b1-67ee-4758-86fe-ff9028754b93"},"vehicle_type_id":"4","last_reported":1744279867,"current_range_meters":20800,"station_id":"ce4bgt12rcd13ifvqcd0","pricing_plan_id":"cebpf4jnsgd1na2vs0mg"},{"bike_id":"d2c9336c-1483-494b-ac99-1d9319f39c2b","system_id":"levelo_inurba_marseille","lat":43.29805,"lon":5.38105,"is_reserved":false,"is_disabled":false,"rental_uris":{"android":"levelo://app?vid=d2c9336c-1483-494b-ac99-1d9319f39c2b","ios":"levelo://app?vid=d2c9336c-1483-494b-ac99-1d9319f39c2b"},"vehicle_type_id":"4","last_reported":1744279867,"current_range_meters":20800,"station_id":"ce4bgip2rcd13ifvqbb0","pricing_plan_id":"cebpf4jnsgd1na2vs0mg"},{"bike_id":"b0eb0ff1-56e7-44c0-a5ac-ce07f4fd7c9d","system_id":"levelo_inurba_marseille","lat":43.289392,"lon":5.36643,"is_reserved":false,"is_disabled":false,"rental_uris":{"android":"levelo://app?vid=b0eb0ff1-56e7-44c0-a5ac-ce07f4fd7c9d","ios":"levelo://app?vid=b0eb0ff1-56e7-44c0-a5ac-ce07f4fd7c9d"},"vehicle_type_id":"4","last_reported":1744279867,"current_range_meters":21600,"station_id":"ce4bgkp2rcd13ifvqbmg","pricing_plan_id":"cebpf4jnsgd1na2vs0mg"},{"bike_id":"3184e0b3-4ab8-4348-9679-fb84c43d9309","system_id":"levelo_inurba_marseille","lat":43.28422,"lon":5.34988,"is_reserved":false,"is_disabled":false,"rental_uris":{"android":"levelo://app?vid=3184e0b3-4ab8-4348-9679-fb84c43d9309","ios":"levelo://app?vid=3184e0b3-4ab8-4348-9679-fb84c43d9309"},"vehicle_type_id":"4","last_reported":1744279867,"current_range_meters":21600,"station_id":"ce4bhbh2rcd13ifvqepg","pricing_plan_id":"cebpf4jnsgd1na2vs0mg"},{"bike_id":"2b31347d-64f6-4358-bb5c-8015c0044236","system_id":"levelo_inurba_marseille","lat":43.27369,"lon":5.3626,"is_reserved":false,"is_disabled":false,"rental_uris":{"android":"levelo://app?vid=2b31347d-64f6-4358-bb5c-8015c0044236","ios":"levelo://app?vid=2b31347d-64f6-4358-bb5c-8015c0044236"},"vehicle_type_id":"4","last_reported":1744279867,"current_range_meters":21600,"station_id":"ce4bhbh2rcd13ifvqeo0","pricing_plan_id":"cebpf4jnsgd1na2vs0mg"},{"bike_id":"810aa4f5-89de-479b-9c7e-325c4eb9632e","system_id":"levelo_inurba_marseille","lat":43.292694,"lon":5.384478,"is_reserved":false,"is_disabled":false,"rental_uris":{"android":"levelo://app?vid=810aa4f5-89de-479b-9c7e-325c4eb9632e","ios":"levelo://app?vid=810aa4f5-89de-479b-9c7e-325c4eb9632e"},"vehicle_type_id":"4","last_reported":1744279867,"current_range_meters":21600,"station_id":"ce4bgjp2rcd13ifvqbh0","pricing_plan_id":"cebpf4jnsgd1na2vs0mg"},{"bike_id":"53fa9bb7-f303-40ea-bf9b-7e57a079e550","system_id":"levelo_inurba_marseille","lat":43.30521,"lon":5.36528,"is_reserved":false,"is_disabled":false,"rental_uris":{"android":"levelo://app?vid=53fa9bb7-f303-40ea-bf9b-7e57a079e550","ios":"levelo://app?vid=53fa9bb7-f303-40ea-bf9b-7e57a079e550"},"vehicle_type_id":"4","last_reported":1744279867,"current_range_meters":21600,"station_id":"ce4bgs12rcd13ifvqcag","pricing_plan_id":"cebpf4jnsgd1na2vs0mg"},{"bike_id":"789a06d7-f5ea-4a8b-bea9-981a0c59e6e6","system_id":"levelo_inurba_marseille","lat":43.29609,"lon":5.37727,"is_reserved":false,"is_disabled":false,"rental_uris":{"android":"levelo://app?vid=789a06d7-f5ea-4a8b-bea9-981a0c59e6e6","ios":"levelo://app?vid=789a06d7-f5ea-4a8b-bea9-981a0c59e6e6"},"vehicle_type_id":"4","last_reported":1744279867,"current_range_meters":20800,"station_id":"ce4bgi92rcd13ifvqb90","pricing_plan_id":"cebpf4jnsgd1na2vs0mg"},{"bike_id":"50e7f3fe-3488-4c61-81dc-6a997b82c29e","system_id":"levelo_inurba_marseille","lat":43.28422,"lon":5.34973,"is_reserved":false,"is_disabled":false,"rental_uris":{"android":"levelo://app?vid=50e7f3fe-3488-4c61-81dc-6a997b82c29e","ios":"levelo://app?vid=50e7f3fe-3488-4c61-81dc-6a997b82c29e"},"vehicle_type_id":"4","last_reported":1744279867,"current_range_meters":22000,"station_id":"ce4bhbh2rcd13ifvqepg","pricing_plan_id":"cebpf4jnsgd1na2vs0mg"},{"bike_id":"1836d540-69ba-4128-9dd4-d091e04e73e0","system_id":"levelo_inurba_marseille","lat":43.302006,"lon":5.370842,"is_reserved":false,"is_disabled":false,"rental_uris":{"android":"levelo://app?vid=1836d540-69ba-4128-9dd4-d091e04e73e0","ios":"levelo://app?vid=1836d540-69ba-4128-9dd4-d091e04e73e0"},"vehicle_type_id":"4","last_reported":1744279867,"current_range_meters":22000,"station_id":"ce4bgs12rcd13ifvqcag","pricing_plan_id":"cebpf4jnsgd1na2vs0mg"},{"bike_id":"e0dfc8c1-8dcd-41d4-8133-da2f372c0d0d","system_id":"levelo_inurba_marseille","lat":43.28673,"lon":5.38678,"is_reserved":false,"is_disabled":false,"rental_uris":{"android":"levelo://app?vid=e0dfc8c1-8dcd-41d4-8133-da2f372c0d0d","ios":"levelo://app?vid=e0dfc8c1-8dcd-41d4-8133-da2f372c0d0d"},"vehicle_type_id":"4","last_reported":1744279867,"current_range_meters":22000,"station_id":"ce4bh492rcd13ifvqdug","pricing_plan_id":"cebpf4jnsgd1na2vs0mg"},{"bike_id":"861250e0-02c7-4fb4-84da-c8fd6f2c98c8","system_id":"levelo_inurba_marseille","lat":43.241806,"lon":5.397255,"is_reserved":false,"is_disabled":false,"rental_uris":{"android":"levelo://app?vid=861250e0-02c7-4fb4-84da-c8fd6f2c98c8","ios":"levelo://app?vid=861250e0-02c7-4fb4-84da-c8fd6f2c98c8"},"vehicle_type_id":"4","last_reported":1744279867,"current_range_meters":21600,"station_id":"ce4bhn12rcd13ifvqgqg","pricing_plan_id":"cebpf4jnsgd1na2vs0mg"},{"bike_id":"5b77a833-8185-45c2-9fe3-07eb40df54ca","system_id":"levelo_inurba_marseille","lat":43.33995,"lon":5.38057,"is_reserved":false,"is_disabled":false,"rental_uris":{"android":"levelo://app?vid=5b77a833-8185-45c2-9fe3-07eb40df54ca","ios":"levelo://app?vid=5b77a833-8185-45c2-9fe3-07eb40df54ca"},"vehicle_type_id":"4","last_reported":1744279867,"current_range_meters":22000,"station_id":"","pricing_plan_id":"cebpf4jnsgd1na2vs0mg"},{"bike_id":"2feb1b09-c4f3-4035-9579-ba1875bd9156","system_id":"levelo_inurba_marseille","lat":43.29795,"lon":5.38096,"is_reserved":false,"is_disabled":false,"rental_uris":{"android":"levelo://app?vid=2feb1b09-c4f3-4035-9579-ba1875bd9156","ios":"levelo://app?vid=2feb1b09-c4f3-4035-9579-ba1875bd9156"},"vehicle_type_id":"4","last_reported":1744279867,"current_range_meters":22400,"station_id":"ce4bgip2rcd13ifvqbb0","pricing_plan_id":"cebpf4jnsgd1na2vs0mg"},{"bike_id":"3a9376b1-c4b9-4d0b-ad08-b074c0371836","system_id":"levelo_inurba_marseille","lat":43.2681,"lon":5.40267,"is_reserved":false,"is_disabled":false,"rental_uris":{"android":"levelo://app?vid=3a9376b1-c4b9-4d0b-ad08-b074c0371836","ios":"levelo://app?vid=3a9376b1-c4b9-4d0b-ad08-b074c0371836"},"vehicle_type_id":"4","last_reported":1744279867,"current_range_meters":22400,"station_id":"ce501612rcd8frsf0b60","pricing_plan_id":"cebpf4jnsgd1na2vs0mg"},{"bike_id":"c4b2988e-46ee-40d0-bf61-40850ebfbe2b","system_id":"levelo_inurba_marseille","lat":43.26069,"lon":5.39379,"is_reserved":false,"is_disabled":false,"rental_uris":{"android":"levelo://app?vid=c4b2988e-46ee-40d0-bf61-40850ebfbe2b","ios":"levelo://app?vid=c4b2988e-46ee-40d0-bf61-40850ebfbe2b"},"vehicle_type_id":"4","last_reported":1744279867,"current_range_meters":22400,"station_id":"ce4bhh92rcd13ifvqfj0","pricing_plan_id":"cebpf4jnsgd1na2vs0mg"},{"bike_id":"dfc7bc0f-098e-410d-9387-9ac7eb0e9122","system_id":"levelo_inurba_marseille","lat":43.30882,"lon":5.39646,"is_reserved":false,"is_disabled":false,"rental_uris":{"android":"levelo://app?vid=dfc7bc0f-098e-410d-9387-9ac7eb0e9122","ios":"levelo://app?vid=dfc7bc0f-098e-410d-9387-9ac7eb0e9122"},"vehicle_type_id":"4","last_reported":1744279867,"current_range_meters":22400,"station_id":"ce4bh012rcd13ifvqcv0","pricing_plan_id":"cebpf4jnsgd1na2vs0mg"},{"bike_id":"a7c5287a-f028-432e-9f97-44f76c5e4541","system_id":"levelo_inurba_marseille","lat":43.25003,"lon":5.38924,"is_reserved":false,"is_disabled":false,"rental_uris":{"android":"levelo://app?vid=a7c5287a-f028-432e-9f97-44f76c5e4541","ios":"levelo://app?vid=a7c5287a-f028-432e-9f97-44f76c5e4541"},"vehicle_type_id":"4","last_reported":1744279867,"current_range_meters":22400,"station_id":"ce4bhgp2rcd13ifvqfd0","pricing_plan_id":"cebpf4jnsgd1na2vs0mg"},{"bike_id":"194a523f-72f4-468f-8f9a-414bfe92eb4b","system_id":"levelo_inurba_marseille","lat":43.337444,"lon":5.374475,"is_reserved":false,"is_disabled":false,"rental_uris":{"android":"levelo://app?vid=194a523f-72f4-468f-8f9a-414bfe92eb4b","ios":"levelo://app?vid=194a523f-72f4-468f-8f9a-414bfe92eb4b"},"vehicle_type_id":"4","last_reported":1744279867,"current_range_meters":22400,"station_id":"","pricing_plan_id":"cebpf4jnsgd1na2vs0mg"},{"bike_id":"afabcd61-0ae7-4011-ae42-d486774f83ff","system_id":"levelo_inurba_marseille","lat":43.3379,"lon":5.37429,"is_reserved":false,"is_disabled":false,"rental_uris":{"android":"levelo://app?vid=afabcd61-0ae7-4011-ae42-d486774f83ff","ios":"levelo://app?vid=afabcd61-0ae7-4011-ae42-d486774f83ff"},"vehicle_type_id":"4","last_reported":1744279867,"current_range_meters":22400,"station_id":"","pricing_plan_id":"cebpf4jnsgd1na2vs0mg"},{"bike_id":"7e1b4596-58c9-4f5c-b304-08af8b98822f","system_id":"levelo_inurba_marseille","lat":43.25867,"lon":5.39895,"is_reserved":false,"is_disabled":false,"rental_uris":{"android":"levelo://app?vid=7e1b4596-58c9-4f5c-b304-08af8b98822f","ios":"levelo://app?vid=7e1b4596-58c9-4f5c-b304-08af8b98822f"},"vehicle_type_id":"4","last_reported":1744279867,"current_range_meters":22400,"station_id":"ce4bhl92rcd13ifvqghg","pricing_plan_id":"cebpf4jnsgd1na2vs0mg"},{"bike_id":"0d8bad6c-7fb1-4a08-8289-7c25fc2d369a","system_id":"levelo_inurba_marseille","lat":43.23964,"lon":5.36622,"is_reserved":false,"is_disabled":false,"rental_uris":{"android":"levelo://app?vid=0d8bad6c-7fb1-4a08-8289-7c25fc2d369a","ios":"levelo://app?vid=0d8bad6c-7fb1-4a08-8289-7c25fc2d369a"},"vehicle_type_id":"4","last_reported":1744279867,"current_range_meters":22800,"station_id":"ce4bhi12rcd13ifvqfp0","pricing_plan_id":"cebpf4jnsgd1na2vs0mg"},{"bike_id":"cdbbc7a8-5d99-4692-8f59-53f7a4eb09cc","system_id":"levelo_inurba_marseille","lat":43.32366,"lon":5.38882,"is_reserved":false,"is_disabled":false,"rental_uris":{"android":"levelo://app?vid=cdbbc7a8-5d99-4692-8f59-53f7a4eb09cc","ios":"levelo://app?vid=cdbbc7a8-5d99-4692-8f59-53f7a4eb09cc"},"vehicle_type_id":"4","last_reported":1744279867,"current_range_meters":22800,"station_id":"ce4bhqp2rcd13ifvqhog","pricing_plan_id":"cebpf4jnsgd1na2vs0mg"},{"bike_id":"59028b3c-07f6-4cb9-88f0-3a6c0b7e2a41","system_id":"levelo_inurba_marseille","lat":43.30884,"lon":5.37187,"is_reserved":false,"is_disabled":false,"rental_uris":{"android":"levelo://app?vid=59028b3c-07f6-4cb9-88f0-3a6c0b7e2a41","ios":"levelo://app?vid=59028b3c-07f6-4cb9-88f0-3a6c0b7e2a41"},"vehicle_type_id":"4","last_reported":1744279867,"current_range_meters":22800,"station_id":"ce4bguh2rcd13ifvqckg","pricing_plan_id":"cebpf4jnsgd1na2vs0mg"},{"bike_id":"f169b888-9417-402f-bebe-bdd2a451ebc7","system_id":"levelo_inurba_marseille","lat":43.30137,"lon":5.37415,"is_reserved":false,"is_disabled":false,"rental_uris":{"android":"levelo://app?vid=f169b888-9417-402f-bebe-bdd2a451ebc7","ios":"levelo://app?vid=f169b888-9417-402f-bebe-bdd2a451ebc7"},"vehicle_type_id":"4","last_reported":1744279867,"current_range_meters":22800,"station_id":"ce4bgs92rcd13ifvqcc0","pricing_plan_id":"cebpf4jnsgd1na2vs0mg"},{"bike_id":"7c4545c3-c1b1-465e-91cc-14a8c8097af0","system_id":"levelo_inurba_marseille","lat":43.30604,"lon":5.39351,"is_reserved":false,"is_disabled":true,"rental_uris":{"android":"levelo://app?vid=7c4545c3-c1b1-465e-91cc-14a8c8097af0","ios":"levelo://app?vid=7c4545c3-c1b1-465e-91cc-14a8c8097af0"},"vehicle_type_id":"4","last_reported":1744279867,"current_range_meters":22800,"station_id":"ce4bh0p2rcd13ifvqd80","pricing_plan_id":"cebpf4jnsgd1na2vs0mg"},{"bike_id":"d57e6e0c-d3ec-4a54-ad19-69120cb474a7","system_id":"levelo_inurba_marseille","lat":43.2407,"lon":5.37764,"is_reserved":false,"is_disabled":false,"rental_uris":{"android":"levelo://app?vid=d57e6e0c-d3ec-4a54-ad19-69120cb474a7","ios":"levelo://app?vid=d57e6e0c-d3ec-4a54-ad19-69120cb474a7"},"vehicle_type_id":"4","last_reported":1744279867,"current_range_meters":22800,"station_id":"ce4bhnp2rcd13ifvqgvg","pricing_plan_id":"cebpf4jnsgd1na2vs0mg"},{"bike_id":"32f1d97d-2f30-4e90-a4eb-07b22f582638","system_id":"levelo_inurba_marseille","lat":43.25936,"lon":5.40891,"is_reserved":false,"is_disabled":false,"rental_uris":{"android":"levelo://app?vid=32f1d97d-2f30-4e90-a4eb-07b22f582638","ios":"levelo://app?vid=32f1d97d-2f30-4e90-a4eb-07b22f582638"},"vehicle_type_id":"4","last_reported":1744279867,"current_range_meters":22800,"station_id":"ce4bhm92rcd13ifvqglg","pricing_plan_id":"cebpf4jnsgd1na2vs0mg"},{"bike_id":"8969c8ca-05ab-4b80-a6ce-e2e9227448df","system_id":"levelo_inurba_marseille","lat":43.26201,"lon":5.37459,"is_reserved":false,"is_disabled":false,"rental_uris":{"android":"levelo://app?vid=8969c8ca-05ab-4b80-a6ce-e2e9227448df","ios":"levelo://app?vid=8969c8ca-05ab-4b80-a6ce-e2e9227448df"},"vehicle_type_id":"4","last_reported":1744279867,"current_range_meters":22800,"station_id":"ce4bhgp2rcd13ifvqfc0","pricing_plan_id":"cebpf4jnsgd1na2vs0mg"},{"bike_id":"e4e89876-669a-41aa-9d9d-104b62ea50a2","system_id":"levelo_inurba_marseille","lat":43.29901,"lon":5.43666,"is_reserved":false,"is_disabled":false,"rental_uris":{"android":"levelo://app?vid=e4e89876-669a-41aa-9d9d-104b62ea50a2","ios":"levelo://app?vid=e4e89876-669a-41aa-9d9d-104b62ea50a2"},"vehicle_type_id":"4","last_reported":1744279867,"current_range_meters":22800,"station_id":"ce4bhpp2rcd13ifvqhfg","pricing_plan_id":"cebpf4jnsgd1na2vs0mg"},{"bike_id":"71501edb-57c7-4606-a4f6-dafc0271739d","system_id":"levelo_inurba_marseille","lat":43.31696,"lon":5.40453,"is_reserved":false,"is_disabled":false,"rental_uris":{"android":"levelo://app?vid=71501edb-57c7-4606-a4f6-dafc0271739d","ios":"levelo://app?vid=71501edb-57c7-4606-a4f6-dafc0271739d"},"vehicle_type_id":"4","last_reported":1744279867,"current_range_meters":22800,"station_id":"ce4bh012rcd13ifvqd00","pricing_plan_id":"cebpf4jnsgd1na2vs0mg"},{"bike_id":"8f1e94ea-5320-4a1f-9e2a-1b9aba693bef","system_id":"levelo_inurba_marseille","lat":43.25583,"lon":5.38233,"is_reserved":false,"is_disabled":true,"rental_uris":{"android":"levelo://app?vid=8f1e94ea-5320-4a1f-9e2a-1b9aba693bef","ios":"levelo://app?vid=8f1e94ea-5320-4a1f-9e2a-1b9aba693bef"},"vehicle_type_id":"4","last_reported":1744279867,"current_range_meters":22800,"station_id":"ce4bhih2rcd13ifvqfs0","pricing_plan_id":"cebpf4jnsgd1na2vs0mg"},{"bike_id":"79158e9b-3114-4267-a2d7-ac75293e462b","system_id":"levelo_inurba_marseille","lat":43.30206,"lon":5.39458,"is_reserved":false,"is_disabled":false,"rental_uris":{"android":"levelo://app?vid=79158e9b-3114-4267-a2d7-ac75293e462b","ios":"levelo://app?vid=79158e9b-3114-4267-a2d7-ac75293e462b"},"vehicle_type_id":"4","last_reported":1744279867,"current_range_meters":22800,"station_id":"ce4bh0p2rcd13ifvqd70","pricing_plan_id":"cebpf4jnsgd1na2vs0mg"},{"bike_id":"2dab0441-2d6e-4458-9acc-9dd331b69d05","system_id":"levelo_inurba_marseille","lat":43.31694,"lon":5.4047,"is_reserved":false,"is_disabled":false,"rental_uris":{"android":"levelo://app?vid=2dab0441-2d6e-4458-9acc-9dd331b69d05","ios":"levelo://app?vid=2dab0441-2d6e-4458-9acc-9dd331b69d05"},"vehicle_type_id":"4","last_reported":1744279867,"current_range_meters":23200,"station_id":"ce4bh012rcd13ifvqd00","pricing_plan_id":"cebpf4jnsgd1na2vs0mg"},{"bike_id":"0795ec89-d5ab-4f89-97ed-0c8fbca30856","system_id":"levelo_inurba_marseille","lat":43.291638,"lon":5.371474,"is_reserved":false,"is_disabled":false,"rental_uris":{"android":"levelo://app?vid=0795ec89-d5ab-4f89-97ed-0c8fbca30856","ios":"levelo://app?vid=0795ec89-d5ab-4f89-97ed-0c8fbca30856"},"vehicle_type_id":"4","last_reported":1744279867,"current_range_meters":22800,"station_id":"ce4bha92rcd13ifvqeh0","pricing_plan_id":"cebpf4jnsgd1na2vs0mg"},{"bike_id":"7b56648a-3bf4-46a2-bb34-950a331d35e9","system_id":"levelo_inurba_marseille","lat":43.29794,"lon":5.371,"is_reserved":false,"is_disabled":false,"rental_uris":{"android":"levelo://app?vid=7b56648a-3bf4-46a2-bb34-950a331d35e9","ios":"levelo://app?vid=7b56648a-3bf4-46a2-bb34-950a331d35e9"},"vehicle_type_id":"4","last_reported":1744279867,"current_range_meters":23200,"station_id":"ce4bgop2rcd13ifvqc1g","pricing_plan_id":"cebpf4jnsgd1na2vs0mg"},{"bike_id":"290e6993-1553-4319-806c-ab3d23fc79e6","system_id":"levelo_inurba_marseille","lat":43.26956,"lon":5.38626,"is_reserved":false,"is_disabled":false,"rental_uris":{"android":"levelo://app?vid=290e6993-1553-4319-806c-ab3d23fc79e6","ios":"levelo://app?vid=290e6993-1553-4319-806c-ab3d23fc79e6"},"vehicle_type_id":"4","last_reported":1744279867,"current_range_meters":22800,"station_id":"ce4bhh92rcd13ifvqfh0","pricing_plan_id":"cebpf4jnsgd1na2vs0mg"},{"bike_id":"5bf3f4a1-3271-4dad-9593-ab76c7ea5f4f","system_id":"levelo_inurba_marseille","lat":43.30552,"lon":5.36553,"is_reserved":false,"is_disabled":false,"rental_uris":{"android":"levelo://app?vid=5bf3f4a1-3271-4dad-9593-ab76c7ea5f4f","ios":"levelo://app?vid=5bf3f4a1-3271-4dad-9593-ab76c7ea5f4f"},"vehicle_type_id":"4","last_reported":1744279867,"current_range_meters":23200,"station_id":"ce4bgs12rcd13ifvqcag","pricing_plan_id":"cebpf4jnsgd1na2vs0mg"},{"bike_id":"a52d7977-ba45-464c-88c5-c9fa8f536b42","system_id":"levelo_inurba_marseille","lat":43.22503,"lon":5.347864,"is_reserved":false,"is_disabled":false,"rental_uris":{"android":"levelo://app?vid=a52d7977-ba45-464c-88c5-c9fa8f536b42","ios":"levelo://app?vid=a52d7977-ba45-464c-88c5-c9fa8f536b42"},"vehicle_type_id":"4","last_reported":1744279867,"current_range_meters":23200,"station_id":"st_cvj5dfep6f1abm77gieg","pricing_plan_id":"cebpf4jnsgd1na2vs0mg"},