{"last_updated":1722874194,"ttl":30,"version":"2.2","data":{"bikes":[{"bike_id":"519f1fad-6df0-46d8-99a1-2a8908792344","system_id":"levelo_inurba_marseille","lat":43.313391,"lon":5.36706,"is_reserved":false,"is_disabled":false,"rental_uris":{"android":"levelo://app?vid=519f1fad-6df0-46d8-99a1-2a8908792344","ios":"levelo://app?vid=519f1fad-6df0-46d8-99a1-2a8908792344"},"vehicle_type_id":"4","last_reported":1722874194,"current_range_meters":28400,"station_id":"ce4bgr92rcd13ifvqc6g","pricing_plan_id":"cebpf4jnsgd1na2vs0mg"},{"bike_id":"6981a7db-40d2-403b-831b-c2dcc55a3fe6","system_id":"levelo_inurba_marseille","lat":43.313532,"lon":5.367105,"is_reserved":false,"is_disabled":false,"rental_uris":{"android":"levelo://app?vid=6981a7db-40d2-403b-831b-c2dcc55a3fe6","ios":"levelo://app?vid=6981a7db-40d2-403b-831b-c2dcc55a3fe6"},"vehicle_type_id":"4","last_reported":1722874194,"current_range_meters":0,"station_id":"ce4bgr92rcd13ifvqc6g","pricing_plan_id":"cebpf4jnsgd1na2vs0mg"},{"bike_id":"87a0b384-460a-4972-bbda-a3bb591a06dd","system_id":"levelo_inurba_marseille","lat":43.31244,"lon":5.36848,"is_reserved":false,"is_disabled":false,"rental_uris":{"android":"levelo://app?vid=87a0b384-460a-4972-bbda-a3bb591a06dd","ios":"levelo://app?vid=87a0b384-460a-4972-bbda-a3bb591a06dd"},"vehicle_type_id":"4","last_reported":1722874194,"current_range_meters":0,"station_id":"ce4bgl92rcd13ifvqbq0","pricing_plan_id":"cebpf4jnsgd1na2vs0mg"},{"bike_id":"16322d6f-63b2-4df6-aa81-1e6187c87834","system_id":"levelo_inurba_marseille","lat":43.30922,"lon":5.37179,"is_reserved":false,"is_disabled":false,"rental_uris":{"android":"levelo://app?vid=16322d6f-63b2-4df6-aa81-1e6187c87834","ios":"levelo://app?vid=16322d6f-63b2-4df6-aa81-1e6187c87834"},"vehicle_type_id":"4","last_reported":1722874194,"current_range_meters":12400,"station_id":"ce4bguh2rcd13ifvqckg","pricing_plan_id":"cebpf4jnsgd1na2vs0mg"},{"bike_id":"243b6363-7364-4593-9a95-f36506489851","system_id":"levelo_inurba_marseille","lat":43.30937,"lon":5.374823,"is_reserved":false,"is_disabled":false,"rental_uris":{"android":"levelo://app?vid=243b6363-7364-4593-9a95-f36506489851","ios":"levelo://app?vid=243b6363-7364-4593-9a95-f36506489851"},"vehicle_type_id":"4","last_reported":1722874194,"current_range_meters":9200,"station_id":"","pricing_plan_id":"cebpf4jnsgd1na2vs0mg"},{"bike_id":"6e3fb7fc-4aa6-4a2e-a7a5-8b17d0aa8fe8","system_id":"levelo_inurba_marseille","lat":43.31596,"lon":5.37609,"is_reserved":false,"is_disabled":false,"rental_uris":{"android":"levelo://app?vid=6e3fb7fc-4aa6-4a2e-a7a5-8b17d0aa8fe8","ios":"levelo://app?vid=6e3fb7fc-4aa6-4a2e-a7a5-8b17d0aa8fe8"},"vehicle_type_id":"4","last_reported":1722874194,"current_range_meters":30000,"station_id":"","pricing_plan_id":"cebpf4jnsgd1na2vs0mg"},{"bike_id":"109302f5-73ae-4d43-95df-6737efbaa250","system_id":"levelo_inurba_marseille","lat":43.30526,"lon":5.36704,"is_reserved":false,"is_disabled":false,"rental_uris":{"android":"levelo://app?vid=109302f5-73ae-4d43-95df-6737efbaa250","ios":"levelo://app?vid=109302f5-73ae-4d43-95df-6737efbaa250"},"vehicle_type_id":"4","last_reported":1722874194,"current_range_meters":0,"station_id":"ce4bgrp2rcd13ifvqc9g","pricing_plan_id":"cebpf4jnsgd1na2vs0mg"},{"bike_id":"2d869e7f-9966-4aa8-a206-2144df88660d","system_id":"levelo_inurba_marseille","lat":43.305706,"lon":5.365654,"is_reserved":false,"is_disabled":false,"rental_uris":{"android":"levelo://app?vid=2d869e7f-9966-4aa8-a206-2144df88660d","ios":"levelo://app?vid=2d869e7f-9966-4aa8-a206-2144df88660d"},"vehicle_type_id":"4","last_reported":1722874194,"current_range_meters":0,"station_id":"ce4bgs12rcd13ifvqcag","pricing_plan_id":"cebpf4jnsgd1na2vs0mg"},{"bike_id":"d22bc3a2-c662-486d-a4fb-32b37c3a9097","system_id":"levelo_inurba_marseille","lat":43.305989,"lon":5.37225,"is_reserved":false,"is_disabled":false,"rental_uris":{"android":"levelo://app?vid=d22bc3a2-c662-486d-a4fb-32b37c3a9097","ios":"levelo://app?vid=d22bc3a2-c662-486d-a4fb-32b37c3a9097"},"vehicle_type_id":"4","last_reported":1722874194,"current_range_meters":25600,"station_id":"ce4bgqh2rcd13ifvqc4g","pricing_plan_id":"cebpf4jnsgd1na2vs0mg"},{"bike_id":"610fec8a-1022-4d49-ba69-4958acfccf31","system_id":"levelo_inurba_marseille","lat":43.311131,"lon":5.377651,"is_reserved":false,"is_disabled":false,"rental_uris":{"android":"levelo://app?vid=610fec8a-1022-4d49-ba69-4958acfccf31","ios":"levelo://app?vid=610fec8a-1022-4d49-ba69-4958acfccf31"},"vehicle_type_id":"4","last_reported":1722874194,"current_range_meters":8400,"station_id":"ce4bgt92rcd13ifvqcg0","pricing_plan_id":"cebpf4jnsgd1na2vs0mg"},{"bike_id":"4b058b7e-a14f-4fd3-9ef5-1a45d475c522","system_id":"levelo_inurba_marseille","lat":43.311125,"lon":5.377624,"is_reserved":false,"is_disabled":false,"rental_uris":{"android":"levelo://app?vid=4b058b7e-a14f-4fd3-9ef5-1a45d475c522","ios":"levelo://app?vid=4b058b7e-a14f-4fd3-9ef5-1a45d475c522"},"vehicle_type_id":"4","last_reported":1722874194,"current_range_meters":8400,"station_id":"ce4bgt92rcd13ifvqcg0","pricing_plan_id":"cebpf4jnsgd1na2vs0mg"},{"bike_id":"29752e75-7b0e-4512-a73c-8451050f46fa","system_id":"levelo_inurba_marseille","lat":43.304937,"lon":5.370892,"is_reserved":false,"is_disabled":false,"rental_uris":{"android":"levelo://app?vid=29752e75-7b0e-4512-a73c-8451050f46fa","ios":"levelo://app?vid=29752e75-7b0e-4512-a73c-8451050f46fa"},"vehicle_type_id":"4","last_reported":1722874194,"current_range_meters":12400,"station_id":"","pricing_plan_id":"cebpf4jnsgd1na2vs0mg"},{"bike_id":"6068aa4d-67ef-427a-a3e7-e936f05faaaa","system_id":"levelo_inurba_marseille","lat":43.30779,"lon":5.37642,"is_reserved":false,"is_disabled":false,"rental_uris":{"android":"levelo://app?vid=6068aa4d-67ef-427a-a3e7-e936f05faaaa","ios":"levelo://app?vid=6068aa4d-67ef-427a-a3e7-e936f05faaaa"},"vehicle_type_id":"4","last_reported":1722874194,"current_range_meters":0,"station_id":"ce4bgv92rcd13ifvqcq0","pricing_plan_id":"cebpf4jnsgd1na2vs0mg"},{"bike_id":"55b40a0d-610b-45ae-acca-689e31c65508","system_id":"levelo_inurba_marseille","lat":43.31886,"lon":5.377065,"is_reserved":false,"is_disabled":false,"rental_uris":{"android":"levelo://app?vid=55b40a0d-610b-45ae-acca-689e31c65508","ios":"levelo://app?vid=55b40a0d-610b-45ae-acca-689e31c65508"},"vehicle_type_id":"4","last_reported":1722874194,"current_range_meters":3200,"station_id":"","pricing_plan_id":"cebpf4jnsgd1na2vs0mg"},{"bike_id":"3ee23698-c91f-4230-b95d-702defa8a1bf","system_id":"levelo_inurba_marseille","lat":43.303046,"lon":5.368981,"is_reserved":false,"is_disabled":false,"rental_uris":{"android":"levelo://app?vid=3ee23698-c91f-4230-b95d-702defa8a1bf","ios":"levelo://app?vid=3ee23698-c91f-4230-b95d-702defa8a1bf"},"vehicle_type_id":"4","last_reported":1722874194,"current_range_meters":6000,"station_id":"ce4bgqh2rcd13ifvqc5g","pricing_plan_id":"cebpf4jnsgd1na2vs0mg"},{"bike_id":"08473635-1051-4350-be7c-32e263b24381","system_id":"levelo_inurba_marseille","lat":43.303046,"lon":5.368981,"is_reserved":false,"is_disabled":false,"rental_uris":{"android":"levelo://app?vid=08473635-1051-4350-be7c-32e263b24381","ios":"levelo://app?vid=08473635-1051-4350-be7c-32e263b24381"},"vehicle_type_id":"4","last_reported":1722874194,"current_range_meters":800,"station_id":"ce4bgqh2rcd13ifvqc5g","pricing_plan_id":"cebpf4jnsgd1na2vs0mg"},{"bike_id":"9ae47dff-5b2b-4c82-a129-aa4346c8cbb1","system_id":"levelo_inurba_marseille","lat":43.315289,"lon":5.380349,"is_reserved":false,"is_disabled":false,"rental_uris":{"android":"levelo://app?vid=9ae47dff-5b2b-4c82-a129-aa4346c8cbb1","ios":"levelo://app?vid=9ae47dff-5b2b-4c82-a129-aa4346c8cbb1"},"vehicle_type_id":"4","last_reported":1722874194,"current_range_meters":23600,"station_id":"ce4bhsp2rcd13ifvqi50","pricing_plan_id":"cebpf4jnsgd1na2vs0mg"},{"bike_id":"72fad462-4327-46e4-9432-681a1ae679c3","system_id":"levelo_inurba_marseille","lat":43.32475,"lon":5.36586,"is_reserved":false,"is_disabled":false,"rental_uris":{"android":"levelo://app?vid=72fad462-4327-46e4-9432-681a1ae679c3","ios":"levelo://app?vid=72fad462-4327-46e4-9432-681a1ae679c3"},"vehicle_type_id":"4","last_reported":1722874194,"current_range_meters":1200,"station_id":"ce4bhs12rcd13ifvqhvg","pricing_plan_id":"cebpf4jnsgd1na2vs0mg"},{"bike_id":"8ee106b3-7a7c-41a4-b99b-054964cf5637","system_id":"levelo_inurba_marseille","lat":43.324771,"lon":5.36557,"is_reserved":false,"is_disabled":false,"rental_uris":{"android":"levelo://app?vid=8ee106b3-7a7c-41a4-b99b-054964cf5637","ios":"levelo://app?vid=8ee106b3-7a7c-41a4-b99b-054964cf5637"},"vehicle_type_id":"4","last_reported":1722874194,"current_range_meters":31600,"station_id":"ce4bhs12rcd13ifvqhvg","pricing_plan_id":"cebpf4jnsgd1na2vs0mg"},{"bike_id":"0815e5d7-5fdf-4068-916f-0c994d34ce6f","system_id":"levelo_inurba_marseille","lat":43.324771,"lon":5.36557,"is_reserved":false,"is_disabled":false,"rental_uris":{"android":"levelo://app?vid=0815e5d7-5fdf-4068-916f-0c994d34ce6f","ios":"levelo://app?vid=0815e5d7-5fdf-4068-916f-0c994d34ce6f"},"vehicle_type_id":"4","last_reported":1722874194,"current_range_meters":31200,"station_id":"ce4bhs12rcd13ifvqhvg","pricing_plan_id":"cebpf4jnsgd1na2vs0mg"},{"bike_id":"7f5c65e1-256f-49b1-9665-186eac892610","system_id":"levelo_inurba_marseille","lat":43.324771,"lon":5.36557,"is_reserved":false,"is_disabled":false,"rental_uris":{"android":"levelo://app?vid=7f5c65e1-256f-49b1-9665-186eac892610","ios":"levelo://app?vid=7f5c65e1-256f-49b1-9665-186eac892610"},"vehicle_type_id":"4","last_reported":1722874194,"current_range_meters":19600,"station_id":"ce4bhs12rcd13ifvqhvg","pricing_plan_id":"cebpf4jnsgd1na2vs0mg"},{"bike_id":"54a395ca-c3e4-4dd5-9851-e9a156872832","system_id":"levelo_inurba_marseille","lat":43.324771,"lon":5.36557,"is_reserved":false,"is_disabled":false,"rental_uris":{"android":"levelo://app?vid=54a395ca-c3e4-4dd5-9851-e9a156872832","ios":"levelo://app?vid=54a395ca-c3e4-4dd5-9851-e9a156872832"},"vehicle_type_id":"4","last_reported":1722874194,"current_range_meters":31200,"station_id":"ce4bhs12rcd13ifvqhvg","pricing_plan_id":"cebpf4jnsgd1na2vs0mg"},{"bike_id":"134a19a9-f6e1-4f75-a95e-11eed967bd22","system_id":"levelo_inurba_marseille","lat":43.324771,"lon":5.36557,"is_reserved":false,"is_disabled":false,"rental_uris":{"android":"levelo://app?vid=134a19a9-f6e1-4f75-a95e-11eed967bd22","ios":"levelo://app?vid=134a19a9-f6e1-4f75-a95e-11eed967bd22"},"vehicle_type_id":"4","last_reported":1722874194,"current_range_meters":22000,"station_id":"ce4bhs12rcd13ifvqhvg","pricing_plan_id":"cebpf4jnsgd1na2vs0mg"},{"bike_id":"8720c5a0-b80d-45de-b6bb-a50099fcc8e8","system_id":"levelo_inurba_marseille","lat":43.324771,"lon":5.36557,"is_reserved":false,"is_disabled":false,"rental_uris":{"android":"levelo://app?vid=8720c5a0-b80d-45de-b6bb-a50099fcc8e8","ios":"levelo://app?vid=8720c5a0-b80d-45de-b6bb-a50099fcc8e8"},"vehicle_type_id":"4","last_reported":1722874194,"current_range_meters":0,"station_id":"ce4bhs12rcd13ifvqhvg","pricing_plan_id":"cebpf4jnsgd1na2vs0mg"},{"bike_id":"800124fe-30ad-4f54-9787-c15395f8a9a9","system_id":"levelo_inurba_marseille","lat":43.324771,"lon":5.36557,"is_reserved":false,"is_disabled":false,"rental_uris":{"android":"levelo://app?vid=800124fe-30ad-4f54-9787-c15395f8a9a9","ios":"levelo://app?vid=800124fe-30ad-4f54-9787-c15395f8a9a9"},"vehicle_type_id":"4","last_reported":1722874194,"current_range_meters":23200,"station_id":"ce4bhs12rcd13ifvqhvg","pricing_plan_id":"cebpf4jnsgd1na2vs0mg"},{"bike_id":"6c046a20-4a73-4566-ae3b-f168cf4c6b53","system_id":"levelo_inurba_marseille","lat":43.324771,"lon":5.36557,"is_reserved":false,"is_disabled":false,"rental_uris":{"android":"levelo://app?vid=6c046a20-4a73-4566-ae3b-f168cf4c6b53","ios":"levelo://app?vid=6c046a20-4a73-4566-ae3b-f168cf4c6b53"},"vehicle_type_id":"4","last_reported":1722874194,"current_range_meters":1600,"station_id":"ce4bhs12rcd13ifvqhvg","pricing_plan_id":"cebpf4jnsgd1na2vs0mg"},{"bike_id":"9bd0b47e-daaf-4f8e-8125-88c7315b1137","system_id":"levelo_inurba_marseille","lat":43.324771,"lon":5.36557,"is_reserved":false,"is_disabled":false,"rental_uris":{"android":"levelo://app?vid=9bd0b47e-daaf-4f8e-8125-88c7315b1137","ios":"levelo://app?vid=9bd0b47e-daaf-4f8e-8125-88c7315b1137"},"vehicle_type_id":"4","last_reported":1722874194,"current_range_meters":22000,"station_id":"ce4bhs12rcd13ifvqhvg","pricing_plan_id":"cebpf4jnsgd1na2vs0mg"},{"bike_id":"67236220-b290-4733-96c4-a8c424b17241","system_id":"levelo_inurba_marseille","lat":43.324771,"lon":5.36557,"is_reserved":false,"is_disabled":false,"rental_uris":{"android":"levelo://app?vid=67236220-b290-4733-96c4-a8c424b17241","ios":"levelo://app?vid=67236220-b290-4733-96c4-a8c424b17241"},"vehicle_type_id":"4","last_reported":1722874194,"current_range_meters":9600,"station_id":"ce4bhs12rcd13ifvqhvg","pricing_plan_id":"cebpf4jnsgd1na2vs0mg"},{"bike_id":"15a6455c-7c7e-4fa6-a52c-9e08aabc0a6b","system_id":"levelo_inurba_marseille","lat":43.324771,"lon":5.36557,"is_reserved":false,"is_disabled":false,"rental_uris":{"android":"levelo://app?vid=15a6455c-7c7e-4fa6-a52c-9e08aabc0a6b","ios":"levelo://app?vid=15a6455c-7c7e-4fa6-a52c-9e08aabc0a6b"},"vehicle_type_id":"4","last_reported":1722874194,"current_range_meters":31600,"station_id":"ce4bhs12rcd13ifvqhvg","pricing_plan_id":"cebpf4jnsgd1na2vs0mg"},{"bike_id":"e59842e6-65ae-4bcd-ae87-db816f11b6c5","system_id":"levelo_inurba_marseille","lat":43.324771,"lon":5.36557,"is_reserved":false,"is_disabled":false,"rental_uris":{"android":"levelo://app?vid=e59842e6-65ae-4bcd-ae87-db816f11b6c5","ios":"levelo://app?vid=e59842e6-65ae-4bcd-ae87-db816f11b6c5"},"vehicle_type_id":"4","last_reported":1722874194,"current_range_meters":31200,"station_id":"ce4bhs12rcd13ifvqhvg","pricing_plan_id":"cebpf4jnsgd1na2vs0mg"},{"bike_id":"c918ab66-bbef-40ae-bbc2-c91db810257a","system_id":"levelo_inurba_marseille","lat":43.324771,"lon":5.36557,"is_reserved":false,"is_disabled":false,"rental_uris":{"android":"levelo://app?vid=c918ab66-bbef-40ae-bbc2-c91db810257a","ios":"levelo://app?vid=c918ab66-bbef-40ae-bbc2-c91db810257a"},"vehicle_type_id":"4","last_reported":1722874194,"current_range_meters":0,"station_id":"ce4bhs12rcd13ifvqhvg","pricing_plan_id":"cebpf4jnsgd1na2vs0mg"},{"bike_id":"0fa3bca1-936c-4735-ac76-eea62a1b2047","system_id":"levelo_inurba_marseille","lat":43.324771,"lon":5.36557,"is_reserved":false,"is_disabled":false,"rental_uris":{"android":"levelo://app?vid=0fa3bca1-936c-4735-ac76-eea62a1b2047","ios":"levelo://app?vid=0fa3bca1-936c-4735-ac76-eea62a1b2047"},"vehicle_type_id":"4","last_reported":1722874194,"current_range_meters":21600,"station_id":"ce4bhs12rcd13ifvqhvg","pricing_plan_id":"cebpf4jnsgd1na2vs0mg"},{"bike_id":"c5057f61-f227-41fb-ae3b-5c78f21899a2","system_id":"levelo_inurba_marseille","lat":43.324771,"lon":5.36557,"is_reserved":false,"is_disabled":false,"rental_uris":{"android":"levelo://app?vid=c5057f61-f227-41fb-ae3b-5c78f21899a2","ios":"levelo://app?vid=c5057f61-f227-41fb-ae3b-5c78f21899a2"},"vehicle_type_id":"4","last_reported":1722874194,"current_range_meters":22000,"station_id":"ce4bhs12rcd13ifvqhvg","pricing_plan_id":"cebpf4jnsgd1na2vs0mg"},{"bike_id":"2c741a3e-7639-4b3e-9b1f-63ad679cabfd","system_id":"levelo_inurba_marseille","lat":43.324771,"lon":5.36557,"is_reserved":false,"is_disabled":false,"rental_uris":{"android":"levelo://app?vid=2c741a3e-7639-4b3e-9b1f-63ad679cabfd","ios":"levelo://app?vid=2c741a3e-7639-4b3e-9b1f-63ad679cabfd"},"vehicle_type_id":"4","last_reported":1722874194,"current_range_meters":6800,"station_id":"ce4bhs12rcd13ifvqhvg","pricing_plan_id":"cebpf4jnsgd1na2vs0mg"},{"bike_id":"2ac68bea-fedb-4c84-a662-64c51b476f3e","system_id":"levelo_inurba_marseille","lat":43.324771,"lon":5.36557,"is_reserved":false,"is_disabled":false,"rental_uris":{"android":"levelo://app?vid=2ac68bea-fedb-4c84-a662-64c51b476f3e","ios":"levelo://app?vid=2ac68bea-fedb-4c84-a662-64c51b476f3e"},"vehicle_type_id":"4","last_reported":1722874194,"current_range_meters":6800,"station_id":"ce4bhs12rcd13ifvqhvg","pricing_plan_id":"cebpf4jnsgd1na2vs0mg"},{"bike_id":"5449fcf0-72cf-42af-a49f-afb35adce1c8","system_id":"levelo_inurba_marseille","lat":43.319935,"lon":5.381699,"is_reserved":false,"is_disabled":false,"rental_uris":{"android":"levelo://app?vid=5449fcf0-72cf-42af-a49f-afb35adce1c8","ios":"levelo://app?vid=5449fcf0-72cf-42af-a49f-afb35adce1c8"},"vehicle_type_id":"4","last_reported":1722874194,"current_range_meters":30400,"station_id":"ce4bhr12rcd13ifvqhpg","pricing_plan_id":"cebpf4jnsgd1na2vs0mg"},{"bike_id":"11587759-380b-44de-8a81-cfd7e47946cd","system_id":"levelo_inurba_marseille","lat":43.319935,"lon":5.381699,"is_reserved":false,"is_disabled":false,"rental_uris":{"android":"levelo://app?vid=11587759-380b-44de-8a81-cfd7e47946cd","ios":"levelo://app?vid=11587759-380b-44de-8a81-cfd7e47946cd"},"vehicle_type_id":"4","last_reported":1722874194,"current_range_meters":31200,"station_id":"ce4bhr12rcd13ifvqhpg","pricing_plan_id":"cebpf4jnsgd1na2vs0mg"},{"bike_id":"91dd9a44-2fef-4d12-b505-32a63fba2bf5","system_id":"levelo_inurba_marseille","lat":43.313571,"lon":5.384829,"is_reserved":false,"is_disabled":false,"rental_uris":{"android":"levelo://app?vid=91dd9a44-2fef-4d12-b505-32a63fba2bf5","ios":"levelo://app?vid=91dd9a44-2fef-4d12-b505-32a63fba2bf5"},"vehicle_type_id":"4","last_reported":1722874194,"current_range_meters":31200,"station_id":"ce4bgt92rcd13ifvqcf0","pricing_plan_id":"cebpf4jnsgd1na2vs0mg"},{"bike_id":"9df064fa-7391-4d49-90fe-45da440a9b1a","system_id":"levelo_inurba_marseille","lat":43.3136,"lon":5.38497,"is_reserved":false,"is_disabled":false,"rental_uris":{"android":"levelo://app?vid=9df064fa-7391-4d49-90fe-45da440a9b1a","ios":"levelo://app?vid=9df064fa-7391-4d49-90fe-45da440a9b1a"},"vehicle_type_id":"4","last_reported":1722874194,"current_range_meters":0,"station_id":"ce4bgt92rcd13ifvqcf0","pricing_plan_id":"cebpf4jnsgd1na2vs0mg"},{"bike_id":"1f168c90-5ead-4590-a8d8-90b06c09034f","system_id":"levelo_inurba_marseille","lat":43.319935,"lon":5.381699,"is_reserved":false,"is_disabled":false,"rental_uris":{"android":"levelo://app?vid=1f168c90-5ead-4590-a8d8-90b06c09034f","ios":"levelo://app?vid=1f168c90-5ead-4590-a8d8-90b06c09034f"},"vehicle_type_id":"4","last_reported":1722874194,"current_range_meters":16800,"station_id":"ce4bhr12rcd13ifvqhpg","pricing_plan_id":"cebpf4jnsgd1na2vs0mg"},{"bike_id":"2f44e8b2-05dd-4584-970e-790d034fff7a","system_id":"levelo_inurba_marseille","lat":43.298433,"lon":5.362774,"is_reserved":false,"is_disabled":false,"rental_uris":{"android":"levelo://app?vid=2f44e8b2-05dd-4584-970e-790d034fff7a","ios":"levelo://app?vid=2f44e8b2-05dd-4584-970e-790d034fff7a"},"vehicle_type_id":"4","last_reported":1722874194,"current_range_meters":0,"station_id":"ce4bgpp2rcd13ifvqc3g","pricing_plan_id":"cebpf4jnsgd1na2vs0mg"},{"bike_id":"5a616541-8f59-4396-94c5-29e16d780d6e","system_id":"levelo_inurba_marseille","lat":43.299243,"lon":5.374807,"is_reserved":false,"is_disabled":false,"rental_uris":{"android":"levelo://app?vid=5a616541-8f59-4396-94c5-29e16d780d6e","ios":"levelo://app?vid=5a616541-8f59-4396-94c5-29e16d780d6e"},"vehicle_type_id":"4","last_reported":1722874194,"current_range_meters":1600,"station_id":"ce4bgjh2rcd13ifvqbg0","pricing_plan_id":"cebpf4jnsgd1na2vs0mg"},{"bike_id":"707f628e-2931-4de5-a698-19f9e004cd53","system_id":"levelo_inurba_marseille","lat":43.298433,"lon":5.362774,"is_reserved":false,"is_disabled":false,"rental_uris":{"android":"levelo://app?vid=707f628e-2931-4de5-a698-19f9e004cd53","ios":"levelo://app?vid=707f628e-2931-4de5-a698-19f9e004cd53"},"vehicle_type_id":"4","last_reported":1722874194,"current_range_meters":28800,"station_id":"ce4bgpp2rcd13ifvqc3g","pricing_plan_id":"cebpf4jnsgd1na2vs0mg"},{"bike_id":"3efbfecc-3b55-48c1-9699-0f06830fad83","system_id":"levelo_inurba_marseille","lat":43.299243,"lon":5.374807,"is_reserved":false,"is_disabled":false,"rental_uris":{"android":"levelo://app?vid=3efbfecc-3b55-48c1-9699-0f06830fad83","ios":"levelo://app?vid=3efbfecc-3b55-48c1-9699-0f06830fad83"},"vehicle_type_id":"4","last_reported":1722874194,"current_range_meters":7600,"station_id":"ce4bgjh2rcd13ifvqbg0","pricing_plan_id":"cebpf4jnsgd1na2vs0mg"},{"bike_id":"a8c7e126-53ef-46ff-b37c-09d792985626","system_id":"levelo_inurba_marseille","lat":43.300178,"lon":5.3774,"is_reserved":false,"is_disabled":false,"rental_uris":{"android":"levelo://app?vid=a8c7e126-53ef-46ff-b37c-09d792985626","ios":"levelo://app?vid=a8c7e126-53ef-46ff-b37c-09d792985626"},"vehicle_type_id":"4","last_reported":1722874194,"current_range_meters":18400,"station_id":"","pricing_plan_id":"cebpf4jnsgd1na2vs0mg"},{"bike_id":"9d834e45-18d1-4a01-8dc2-8674a461fa28","system_id":"levelo_inurba_marseille","lat":43.305364,"lon":5.384119,"is_reserved":false,"is_disabled":false,"rental_uris":{"android":"levelo://app?vid=9d834e45-18d1-4a01-8dc2-8674a461fa28","ios":"levelo://app?vid=9d834e45-18d1-4a01-8dc2-8674a461fa28"},"vehicle_type_id":"4","last_reported":1722874194,"current_range_meters":400,"station_id":"ce4bgg92rcd13ifvqb30","pricing_plan_id":"cebpf4jnsgd1na2vs0mg"},{"bike_id":"8d0ad665-5a18-48b3-9688-3a0f252a35ac","system_id":"levelo_inurba_marseille","lat":43.299243,"lon":5.37481,"is_reserved":false,"is_disabled":false,"rental_uris":{"android":"levelo://app?vid=8d0ad665-5a18-48b3-9688-3a0f252a35ac","ios":"levelo://app?vid=8d0ad665-5a18-48b3-9688-3a0f252a35ac"},"vehicle_type_id":"4","last_reported":1722874194,"current_range_meters":0,"station_id":"ce4bgjh2rcd13ifvqbg0","pricing_plan_id":"cebpf4jnsgd1na2vs0mg"},{"bike_id":"f56eb738-a982-4af2-a26f-dd40740e52b8","system_id":"levelo_inurba_marseille","lat":43.299243,"lon":5.37481,"is_reserved":false,"is_disabled":false,"rental_uris":{"android":"levelo://app?vid=f56eb738-a982-4af2-a26f-dd40740e52b8","ios":"levelo://app?vid=f56eb738-a982-4af2-a26f-dd40740e52b8"},"vehicle_type_id":"4","last_reported":1722874194,"current_range_meters":0,"station_id":"ce4bgjh2rcd13ifvqbg0","pricing_plan_id":"cebpf4jnsgd1na2vs0mg"},{"bike_id":"41aee2f5-8347-4520-a133-0fc2c5266cc9","system_id":"levelo_inurba_marseille","lat":43.322872,"lon":5.382756,"is_reserved":false,"is_disabled":false,"rental_uris":{"android":"levelo://app?vid=41aee2f5-8347-4520-a133-0fc2c5266cc9","ios":"levelo://app?vid=41aee2f5-8347-4520-a133-0fc2c5266cc9"},"vehicle_type_id":"4","last_reported":1722874194,"current_range_meters":31200,"station_id":"ce4bhr12rcd13ifvqhqg","pricing_plan_id":"cebpf4jnsgd1na2vs0mg"},{"bike_id":"b55a7b1e-7a86-4884-9cc7-674cb06ab583","system_id":"levelo_inurba_marseille","lat":43.322872,"lon":5.382756,"is_reserved":false,"is_disabled":false,"rental_uris":{"android":"levelo://app?vid=b55a7b1e-7a86-4884-9cc7-674cb06ab583","ios":"levelo://app?vid=b55a7b1e-7a86-4884-9cc7-674cb06ab583"},"vehicle_type_id":"4","last_reported":1722874194,"current_range_meters":28800,"station_id":"ce4bhr12rcd13ifvqhqg","pricing_plan_id":"cebpf4jnsgd1na2vs0mg"},{"bike_id":"d7d2b703-8aff-4222-aae0-7687a55a38c0","system_id":"levelo_inurba_marseille","lat":43.322872,"lon":5.382756,"is_reserved":false,"is_disabled":false,"rental_uris":{"android":"levelo://app?vid=d7d2b703-8aff-4222-aae0-7687a55a38c0","ios":"levelo://app?vid=d7d2b703-8aff-4222-aae0-7687a55a38c0"},"vehicle_type_id":"4","last_reported":1722874194,"current_range_meters":3600,"station_id":"ce4bhr12rcd13ifvqhqg","pricing_plan_id":"cebpf4jnsgd1na2vs0mg"},{"bike_id":"2dcf1c6c-23e0-432a-8fc6-76df1504e210","system_id":"levelo_inurba_marseille","lat":43.29573,"lon":5.367355,"is_reserved":false,"is_disabled":false,"rental_uris":{"android":"levelo://app?vid=2dcf1c6c-23e0-432a-8fc6-76df1504e210","ios":"levelo://app?vid=2dcf1c6c-23e0-432a-8fc6-76df1504e210"},"vehicle_type_id":"4","last_reported":1722874194,"current_range_meters":27200,"station_id":"ce4bgph2rcd13ifvqc2g","pricing_plan_id":"cebpf4jnsgd1na2vs0mg"},{"bike_id":"4fc77835-1937-493d-ad85-586d3b398f6d","system_id":"levelo_inurba_marseille","lat":43.29573,"lon":5.367355,"is_reserved":false,"is_disabled":false,"rental_uris":{"android":"levelo://app?vid=4fc77835-1937-493d-ad85-586d3b398f6d","ios":"levelo://app?vid=4fc77835-1937-493d-ad85-586d3b398f6d"},"vehicle_type_id":"4","last_reported":1722874194,"current_range_meters":9600,"station_id":"ce4bgph2rcd13ifvqc2g","pricing_plan_id":"cebpf4jnsgd1na2vs0mg"},{"bike_id":"aa3da95f-8b5d-475e-963e-54fa22caf8f7","system_id":"levelo_inurba_marseille","lat":43.29573,"lon":5.367355,"is_reserved":false,"is_disabled":false,"rental_uris":{"android":"levelo://app?vid=aa3da95f-8b5d-475e-963e-54fa22caf8f7","ios":"levelo://app?vid=aa3da95f-8b5d-475e-963e-54fa22caf8f7"},"vehicle_type_id":"4","last_reported":1722874194,"current_range_meters":14000,"station_id":"ce4bgph2rcd13ifvqc2g","pricing_plan_id":"cebpf4jnsgd1na2vs0mg"},{"bike_id":"c9a314dc-cbdc-4592-96f7-5bb13e6c327d","system_id":"levelo_inurba_marseille","lat":43.29573,"lon":5.367355,"is_reserved":false,"is_disabled":false,"rental_uris":{"android":"levelo://app?vid=c9a314dc-cbdc-4592-96f7-5bb13e6c327d","ios":"levelo://app?vid=c9a314dc-cbdc-4592-96f7-5bb13e6c327d"},"vehicle_type_id":"4","last_reported":1722874194,"current_range_meters":17200,"station_id":"ce4bgph2rcd13ifvqc2g","pricing_plan_id":"cebpf4jnsgd1na2vs0mg"},{"bike_id":"46a57557-f29e-4afa-a898-81a7bd751741","system_id":"levelo_inurba_marseille","lat":43.29573,"lon":5.367355,"is_reserved":false,"is_disabled":false,"rental_uris":{"android":"levelo://app?vid=46a57557-f29e-4afa-a898-81a7bd751741","ios":"levelo://app?vid=46a57557-f29e-4afa-a898-81a7bd751741"},"vehicle_type_id":"4","last_reported":1722874194,"current_range_meters":20400,"station_id":"ce4bgph2rcd13ifvqc2g","pricing_plan_id":"cebpf4jnsgd1na2vs0mg"},{"bike_id":"c1312878-67ad-4604-9880-682e1868c195","system_id":"levelo_inurba_marseille","lat":43.30958,"lon":5.39042,"is_reserved":false,"is_disabled":false,"rental_uris":{"android":"levelo://app?vid=c1312878-67ad-4604-9880-682e1868c195","ios":"levelo://app?vid=c1312878-67ad-4604-9880-682e1868c195"},"vehicle_type_id":"4","last_reported":1722874194,"current_range_meters":0,"station_id":"ce4bgup2rcd13ifvqco0","pricing_plan_id":"cebpf4jnsgd1na2vs0mg"},{"bike_id":"0fbeef58-4f76-4c9f-a0a3-a240a5d1c59f","system_id":"levelo_inurba_marseille","lat":43.317556,"lon":5.390129,"is_reserved":false,"is_disabled":false,"rental_uris":{"android":"levelo://app?vid=0fbeef58-4f76-4c9f-a0a3-a240a5d1c59f","ios":"levelo://app?vid=0fbeef58-4f76-4c9f-a0a3-a240a5d1c59f"},"vehicle_type_id":"4","last_reported":1722874194,"current_range_meters":0,"station_id":"ce4bhqp2rcd13ifvqhng","pricing_plan_id":"cebpf4jnsgd1na2vs0mg"},{"bike_id":"011e384e-f726-4a47-8659-36940a079f1d","system_id":"levelo_inurba_marseille","lat":43.317557,"lon":5.390173,"is_reserved":false,"is_disabled":false,"rental_uris":{"android":"levelo://app?vid=011e384e-f726-4a47-8659-36940a079f1d","ios":"levelo://app?vid=011e384e-f726-4a47-8659-36940a079f1d"},"vehicle_type_id":"4","last_reported":1722874194,"current_range_meters":6000,"station_id":"ce4bhqp2rcd13ifvqhng","pricing_plan_id":"cebpf4jnsgd1na2vs0mg"},{"bike_id":"a9aa97ac-de0f-439d-916a-5d3706a95543","system_id":"levelo_inurba_marseille","lat":43.29623,"lon":5.3771,"is_reserved":false,"is_disabled":false,"rental_uris":{"android":"levelo://app?vid=a9aa97ac-de0f-439d-916a-5d3706a95543","ios":"levelo://app?vid=a9aa97ac-de0f-439d-916a-5d3706a95543"},"vehicle_type_id":"4","last_reported":1722874194,"current_range_meters":0,"station_id":"ce4bgi92rcd13ifvqb90","pricing_plan_id":"cebpf4jnsgd1na2vs0mg"},{"bike_id":"f8d0b8b6-6017-42d9-bd84-c3f885ffc035","system_id":"levelo_inurba_marseille","lat":43.304274,"lon":5.388873,"is_reserved":false,"is_disabled":false,"rental_uris":{"android":"levelo://app?vid=f8d0b8b6-6017-42d9-bd84-c3f885ffc035","ios":"levelo://app?vid=f8d0b8b6-6017-42d9-bd84-c3f885ffc035"},"vehicle_type_id":"4","last_reported":1722874194,"current_range_meters":0,"station_id":"ce4bgk12rcd13ifvqbi0","pricing_plan_id":"cebpf4jnsgd1na2vs0mg"},{"bike_id":"5dc8b1ae-ea49-4743-84e5-5fe0218ee6a2","system_id":"levelo_inurba_marseille","lat":43.296277,"lon":5.377108,"is_reserved":false,"is_disabled":false,"rental_uris":{"android":"levelo://app?vid=5dc8b1ae-ea49-4743-84e5-5fe0218ee6a2","ios":"levelo://app?vid=5dc8b1ae-ea49-4743-84e5-5fe0218ee6a2"},"vehicle_type_id":"4","last_reported":1722874194,"current_range_meters":800,"station_id":"ce4bgi92rcd13ifvqb90","pricing_plan_id":"cebpf4jnsgd1na2vs0mg"},{"bike_id":"78edac2c-91d9-4eb6-8206-613890ac2e51","system_id":"levelo_inurba_marseille","lat":43.301396,"lon":5.387812,"is_reserved":false,"is_disabled":false,"rental_uris":{"android":"levelo://app?vid=78edac2c-91d9-4eb6-8206-613890ac2e51","ios":"levelo://app?vid=78edac2c-91d9-4eb6-8206-613890ac2e51"},"vehicle_type_id":"4","last_reported":1722874194,"current_range_meters":4400,"station_id":"ce4bghh2rcd13ifvqb60","pricing_plan_id":"cebpf4jnsgd1na2vs0mg"},{"bike_id":"4af8746b-232a-4953-a8b0-a279975607c6","system_id":"levelo_inurba_marseille","lat":43.301396,"lon":5.387812,"is_reserved":false,"is_disabled":false,"rental_uris":{"android":"levelo://app?vid=4af8746b-232a-4953-a8b0-a279975607c6","ios":"levelo://app?vid=4af8746b-232a-4953-a8b0-a279975607c6"},"vehicle_type_id":"4","last_reported":1722874194,"current_range_meters":27600,"station_id":"ce4bghh2rcd13ifvqb60","pricing_plan_id":"cebpf4jnsgd1na2vs0mg"},{"bike_id":"b9996817-d0c9-4e64-970d-206da09da7e6","system_id":"levelo_inurba_marseille","lat":43.32365,"lon":5.38881,"is_reserved":false,"is_disabled":false,"rental_uris":{"android":"levelo://app?vid=b9996817-d0c9-4e64-970d-206da09da7e6","ios":"levelo://app?vid=b9996817-d0c9-4e64-970d-206da09da7e6"},"vehicle_type_id":"4","last_reported":1722874194,"current_range_meters":0,"station_id":"ce4bhqp2rcd13ifvqhog","pricing_plan_id":"cebpf4jnsgd1na2vs0mg"},{"bike_id":"1450adbb-db9e-4ff1-a264-65e915d9e474","system_id":"levelo_inurba_marseille","lat":43.32367,"lon":5.388836,"is_reserved":false,"is_disabled":false,"rental_uris":{"android":"levelo://app?vid=1450adbb-db9e-4ff1-a264-65e915d9e474","ios":"levelo://app?vid=1450adbb-db9e-4ff1-a264-65e915d9e474"},"vehicle_type_id":"4","last_reported":1722874194,"current_range_meters":14800,"station_id":"ce4bhqp2rcd13ifvqhog","pricing_plan_id":"cebpf4jnsgd1na2vs0mg"},{"bike_id":"6ebcada7-b8fb-4f6e-9971-987b367c91cc","system_id":"levelo_inurba_marseille","lat":43.292762,"lon":5.368418,"is_reserved":false,"is_disabled":false,"rental_uris":{"android":"levelo://app?vid=6ebcada7-b8fb-4f6e-9971-987b367c91cc","ios":"levelo://app?vid=6ebcada7-b8fb-4f6e-9971-987b367c91cc"},"vehicle_type_id":"4","last_reported":1722874194,"current_range_meters":800,"station_id":"ce4bhbp2rcd13ifvqesg","pricing_plan_id":"cebpf4jnsgd1na2vs0mg"},{"bike_id":"db36fbcf-0634-4482-b296-3a6bc0a51567","system_id":"levelo_inurba_marseille","lat":43.292688,"lon":5.36845,"is_reserved":false,"is_disabled":false,"rental_uris":{"android":"levelo://app?vid=db36fbcf-0634-4482-b296-3a6bc0a51567","ios":"levelo://app?vid=db36fbcf-0634-4482-b296-3a6bc0a51567"},"vehicle_type_id":"4","last_reported":1722874194,"current_range_meters":0,"station_id":"ce4bhbp2rcd13ifvqesg","pricing_plan_id":"cebpf4jnsgd1na2vs0mg"},{"bike_id":"001444d1-57a2-4d0a-9753-6a4744836dd6","system_id":"levelo_inurba_marseille","lat":43.292749,"lon":5.368402,"is_reserved":false,"is_disabled":false,"rental_uris":{"android":"levelo://app?vid=001444d1-57a2-4d0a-9753-6a4744836dd6","ios":"levelo://app?vid=001444d1-57a2-4d0a-9753-6a4744836dd6"},"vehicle_type_id":"4","last_reported":1722874194,"current_range_meters":0,"station_id":"ce4bhbp2rcd13ifvqesg","pricing_plan_id":"cebpf4jnsgd1na2vs0mg"},{"bike_id":"b03ed3c0-4bf7-49c0-84bf-1679b907886c","system_id":"levelo_inurba_marseille","lat":43.305994,"lon":5.393687,"is_reserved":false,"is_disabled":false,"rental_uris":{"android":"levelo://app?vid=b03ed3c0-4bf7-49c0-84bf-1679b907886c","ios":"levelo://app?vid=b03ed3c0-4bf7-49c0-84bf-1679b907886c"},"vehicle_type_id":"4","last_reported":1722874194,"current_range_meters":22800,"station_id":"ce4bh0p2rcd13ifvqd80","pricing_plan_id":"cebpf4jnsgd1na2vs0mg"},{"bike_id":"9217e4b1-8b4e-4a42-8182-0f0e34a4406a","system_id":"levelo_inurba_marseille","lat":43.293681,"lon":5.378542,"is_reserved":false,"is_disabled":false,"rental_uris":{"android":"levelo://app?vid=9217e4b1-8b4e-4a42-8182-0f0e34a4406a","ios":"levelo://app?vid=9217e4b1-8b4e-4a42-8182-0f0e34a4406a"},"vehicle_type_id":"4","last_reported":1722874194,"current_range_meters":19200,"station_id":"","pricing_plan_id":"cebpf4jnsgd1na2vs0mg"},{"bike_id":"6d52fedd-a946-458d-9917-e4e1720a7056","system_id":"levelo_inurba_marseille","lat":43.292311,"lon":5.360731,"is_reserved":false,"is_disabled":false,"rental_uris":{"android":"levelo://app?vid=6d52fedd-a946-458d-9917-e4e1720a7056","ios":"levelo://app?vid=6d52fedd-a946-458d-9917-e4e1720a7056"},"vehicle_type_id":"4","last_reported":1722874194,"current_range_meters":15200,"station_id":"ce4bhbh2rcd13ifvqeqg","pricing_plan_id":"cebpf4jnsgd1na2vs0mg"},{"bike_id":"3df8e7f5-4011-470b-aaf1-eafcbefeb535","system_id":"levelo_inurba_marseille","lat":43.29876,"lon":5.38915,"is_reserved":false,"is_disabled":false,"rental_uris":{"android":"levelo://app?vid=3df8e7f5-4011-470b-aaf1-eafcbefeb535","ios":"levelo://app?vid=3df8e7f5-4011-470b-aaf1-eafcbefeb535"},"vehicle_type_id":"4","last_reported":1722874194,"current_range_meters":21200,"station_id":"ce4bh392rcd13ifvqdl0","pricing_plan_id":"cebpf4jnsgd1na2vs0mg"},{"bike_id":"0fa45311-495e-43ae-9259-674dbce054ae","system_id":"levelo_inurba_marseille","lat":43.290624,"lon":5.359245,"is_reserved":false,"is_disabled":false,"rental_uris":{"android":"levelo://app?vid=0fa45311-495e-43ae-9259-674dbce054ae","ios":"levelo://app?vid=0fa45311-495e-43ae-9259-674dbce054ae"},"vehicle_type_id":"4","last_reported":1722874194,"current_range_meters":9200,"station_id":"ce4bha92rcd13ifvqeg0","pricing_plan_id":"cebpf4jnsgd1na2vs0mg"},{"bike_id":"95d955ce-0718-412a-84c8-878e5524e742","system_id":"levelo_inurba_marseille","lat":43.309038,"lon":5.396546,"is_reserved":false,"is_disabled":false,"rental_uris":{"android":"levelo://app?vid=95d955ce-0718-412a-84c8-878e5524e742","ios":"levelo://app?vid=95d955ce-0718-412a-84c8-878e5524e742"},"vehicle_type_id":"4","last_reported":1722874194,"current_range_meters":0,"station_id":"ce4bh012rcd13ifvqcv0","pricing_plan_id":"cebpf4jnsgd1na2vs0mg"},{"bike_id":"a53676d7-dd83-41d2-8bee-4e20394ea88f","system_id":"levelo_inurba_marseille","lat":43.290848,"lon":5.366975,"is_reserved":false,"is_disabled":false,"rental_uris":{"android":"levelo://app?vid=a53676d7-dd83-41d2-8bee-4e20394ea88f","ios":"levelo://app?vid=a53676d7-dd83-41d2-8bee-4e20394ea88f"},"vehicle_type_id":"4","last_reported":1722874194,"current_range_meters":12000,"station_id":"","pricing_plan_id":"cebpf4jnsgd1na2vs0mg"},{"bike_id":"6d0086d3-d3dc-47b0-b6f4-a04e0aea45c6","system_id":"levelo_inurba_marseille","lat":43.294162,"lon":5.386292,"is_reserved":false,"is_disabled":false,"rental_uris":{"android":"levelo://app?vid=6d0086d3-d3dc-47b0-b6f4-a04e0aea45c6","ios":"levelo://app?vid=6d0086d3-d3dc-47b0-b6f4-a04e0aea45c6"},"vehicle_type_id":"4","last_reported":1722874194,"current_range_meters":400,"station_id":"ce4bh2h2rcd13ifvqdh0","pricing_plan_id":"cebpf4jnsgd1na2vs0mg"},{"bike_id":"5e02de71-d1e2-417f-adda-8cb6effaf716","system_id":"levelo_inurba_marseille","lat":43.294162,"lon":5.386292,"is_reserved":false,"is_disabled":false,"rental_uris":{"android":"levelo://app?vid=5e02de71-d1e2-417f-adda-8cb6effaf716","ios":"levelo://app?vid=5e02de71-d1e2-417f-adda-8cb6effaf716"},"vehicle_type_id":"4","last_reported":1722874194,"current_range_meters":1600,"station_id":"ce4bh2h2rcd13ifvqdh0","pricing_plan_id":"cebpf4jnsgd1na2vs0mg"},{"bike_id":"cf71b97a-c8c2-465c-bfe5-9e6f6da90cb1","system_id":"levelo_inurba_marseille","lat":43.294162,"lon":5.386292,"is_reserved":false,"is_disabled":false,"rental_uris":{"android":"levelo://app?vid=cf71b97a-c8c2-465c-bfe5-9e6f6da90cb1","ios":"levelo://app?vid=cf71b97a-c8c2-465c-bfe5-9e6f6da90cb1"},"vehicle_type_id":"4","last_reported":1722874194,"current_range_meters":1200,"station_id":"ce4bh2h2rcd13ifvqdh0","pricing_plan_id":"cebpf4jnsgd1na2vs0mg"},{"bike_id":"c5f47014-0614-4e27-9933-0523e2baf440","system_id":"levelo_inurba_marseille","lat":43.290327,"lon":5.375711,"is_reserved":false,"is_disabled":false,"rental_uris":{"android":"levelo://app?vid=c5f47014-0614-4e27-9933-0523e2baf440","ios":"levelo://app?vid=c5f47014-0614-4e27-9933-0523e2baf440"},"vehicle_type_id":"4","last_reported":1722874194,"current_range_meters":0,"station_id":"ce4bh692rcd13ifvqe90","pricing_plan_id":"cebpf4jnsgd1na2vs0mg"},{"bike_id":"1c9d41d5-a830-4011-a514-774fb1a49354","system_id":"levelo_inurba_marseille","lat":43.294162,"lon":5.386292,"is_reserved":false,"is_disabled":false,"rental_uris":{"android":"levelo://app?vid=1c9d41d5-a830-4011-a514-774fb1a49354","ios":"levelo://app?vid=1c9d41d5-a830-4011-a514-774fb1a49354"},"vehicle_type_id":"4","last_reported":1722874194,"current_range_meters":4400,"station_id":"ce4bh2h2rcd13ifvqdh0","pricing_plan_id":"cebpf4jnsgd1na2vs0mg"},{"bike_id":"3b9c28f2-171c-4d7d-ac64-b2bc30276db5","system_id":"levelo_inurba_marseille","lat":43.292644,"lon":5.384257,"is_reserved":false,"is_disabled":false,"rental_uris":{"android":"levelo://app?vid=3b9c28f2-171c-4d7d-ac64-b2bc30276db5","ios":"levelo://app?vid=3b9c28f2-171c-4d7d-ac64-b2bc30276db5"},"vehicle_type_id":"4","last_reported":1722874194,"current_range_meters":9600,"station_id":"ce4bh692rcd13ifvqea0","pricing_plan_id":"cebpf4jnsgd1na2vs0mg"},{"bike_id":"1de7e0ed-9659-45c6-9518-22de7cc65e4c","system_id":"levelo_inurba_marseille","lat":43.292642,"lon":5.384254,"is_reserved":false,"is_disabled":false,"rental_uris":{"android":"levelo://app?vid=1de7e0ed-9659-45c6-9518-22de7cc65e4c","ios":"levelo://app?vid=1de7e0ed-9659-45c6-9518-22de7cc65e4c"},"vehicle_type_id":"4","last_reported":1722874194,"current_range_meters":0,"station_id":"ce4bh692rcd13ifvqea0","pricing_plan_id":"cebpf4jnsgd1na2vs0mg"},{"bike_id":"62da236c-6572-4b1c-953e-1c409b5a1648","system_id":"levelo_inurba_marseille","lat":43.292644,"lon":5.384257,"is_reserved":false,"is_disabled":false,"rental_uris":{"android":"levelo://app?vid=62da236c-6572-4b1c-953e-1c409b5a1648","ios":"levelo://app?vid=62da236c-6572-4b1c-953e-1c409b5a1648"},"vehicle_type_id":"4","last_reported":1722874194,"current_range_meters":2800,"station_id":"ce4bh692rcd13ifvqea0","pricing_plan_id":"cebpf4jnsgd1na2vs0mg"},{"bike_id":"0345776d-84c6-4f57-9766-d205c41f2e12","system_id":"levelo_inurba_marseille","lat":43.292642,"lon":5.384254,"is_reserved":false,"is_disabled":false,"rental_uris":{"android":"levelo://app?vid=0345776d-84c6-4f57-9766-d205c41f2e12","ios":"levelo://app?vid=0345776d-84c6-4f57-9766-d205c41f2e12"},"vehicle_type_id":"4","last_reported":1722874194,"current_range_meters":10000,"station_id":"ce4bh692rcd13ifvqea0","pricing_plan_id":"cebpf4jnsgd1na2vs0mg"},{"bike_id":"df3067f4-7e54-4441-bfb4-f6d2d411ea1f","system_id":"levelo_inurba_marseille","lat":43.3042,"lon":5.39749,"is_reserved":false,"is_disabled":false,"rental_uris":{"android":"levelo://app?vid=df3067f4-7e54-4441-bfb4-f6d2d411ea1f","ios":"levelo://app?vid=df3067f4-7e54-4441-bfb4-f6d2d411ea1f"},"vehicle_type_id":"4","last_reported":1722874194,"current_range_meters":0,"station_id":"ce4bh092rcd13ifvqd20","pricing_plan_id":"cebpf4jnsgd1na2vs0mg"},{"bike_id":"c32d058f-565d-4b9b-a7d1-df719d02389c","system_id":"levelo_inurba_marseille","lat":43.292644,"lon":5.384257,"is_reserved":false,"is_disabled":false,"rental_uris":{"android":"levelo://app?vid=c32d058f-565d-4b9b-a7d1-df719d02389c","ios":"levelo://app?vid=c32d058f-565d-4b9b-a7d1-df719d02389c"},"vehicle_type_id":"4","last_reported":1722874194,"current_range_meters":0,"station_id":"ce4bh692rcd13ifvqea0","pricing_plan_id":"cebpf4jnsgd1na2vs0mg"},{"bike_id":"b32d4553-0af6-4d1a-a33f-b7a2b38ca87b","system_id":"levelo_inurba_marseille","lat":43.292644,"lon":5.384257,"is_reserved":false,"is_disabled":false,"rental_uris":{"android":"levelo://app?vid=b32d4553-0af6-4d1a-a33f-b7a2b38ca87b","ios":"levelo://app?vid=b32d4553-0af6-4d1a-a33f-b7a2b38ca87b"},"vehicle_type_id":"4","last_reported":1722874194,"current_range_meters":16400,"station_id":"ce4bh692rcd13ifvqea0","pricing_plan_id":"cebpf4jnsgd1na2vs0mg"},{"bike_id":"96843bf1-a4dd-41e6-8302-7c8f36db6e50","system_id":"levelo_inurba_marseille","lat":43.29253,"lon":5.384504,"is_reserved":false,"is_disabled":false,"rental_uris":{"android":"levelo://app?vid=96843bf1-a4dd-41e6-8302-7c8f36db6e50","ios":"levelo://app?vid=96843bf1-a4dd-41e6-8302-7c8f36db6e50"},"vehicle_type_id":"4","last_reported":1722874194,"current_range_meters":0,"station_id":"ce4bh692rcd13ifvqea0","pricing_plan_id":"cebpf4jnsgd1na2vs0mg"},{"bike_id":"7ccb5a50-1f2b-42c7-a1ed-f388b50eff05","system_id":"levelo_inurba_marseille","lat":43.292644,"lon":5.384257,"is_reserved":false,"is_disabled":false,"rental_uris":{"android":"levelo://app?vid=7ccb5a50-1f2b-42c7-a1ed-f388b50eff05","ios":"levelo://app?vid=7ccb5a50-1f2b-42c7-a1ed-f388b50eff05"},"vehicle_type_id":"4","last_reported":1722874194,"current_range_meters":1600,"station_id":"ce4bh692rcd13ifvqea0","pricing_plan_id":"cebpf4jnsgd1na2vs0mg"},{"bike_id":"38226d38-36bc-49d2-9ffa-ec9208dc9d5d","system_id":"levelo_inurba_marseille","lat":43.29008,"lon":5.35616,"is_reserved":false,"is_disabled":false,"rental_uris":{"android":"levelo://app?vid=38226d38-36bc-49d2-9ffa-ec9208dc9d5d","ios":"levelo://app?vid=38226d38-36bc-49d2-9ffa-ec9208dc9d5d"},"vehicle_type_id":"4","last_reported":1722874194,"current_range_meters":31200,"station_id":"ce4bhb92rcd13ifvqen0","pricing_plan_id":"cebpf4jnsgd1na2vs0mg"},{"bike_id":"9687804d-8069-4ac3-8408-264dba1b32e4","system_id":"levelo_inurba_marseille","lat":43.29006,"lon":5.35622,"is_reserved":false,"is_disabled":false,"rental_uris":{"android":"levelo://app?vid=9687804d-8069-4ac3-8408-264dba1b32e4","ios":"levelo://app?vid=9687804d-8069-4ac3-8408-264dba1b32e4"},"vehicle_type_id":"4","last_reported":1722874194,"current_range_meters":0,"station_id":"ce4bhb92rcd13ifvqen0","pricing_plan_id":"cebpf4jnsgd1na2vs0mg"},{"bike_id":"cfd44b4d-d4ee-463d-ab47-4f7acab42562","system_id":"levelo_inurba_marseille","lat":43.29007,"lon":5.35615,"is_reserved":false,"is_disabled":false,"rental_uris":{"android":"levelo://app?vid=cfd44b4d-d4ee-463d-ab47-4f7acab42562","ios":"levelo://app?vid=cfd44b4d-d4ee-463d-ab47-4f7acab42562"},"vehicle_type_id":"4","last_reported":1722874194,"current_range_meters":0,"station_id":"ce4bhb92rcd13ifvqen0","pricing_plan_id":"cebpf4jnsgd1na2vs0mg"},{"bike_id":"15642c67-1346-46e1-958f-fc4a178840d6","system_id":"levelo_inurba_marseille","lat":43.290103,"lon":5.356114,"is_reserved":false,"is_disabled":false,"rental_uris":{"android":"levelo://app?vid=15642c67-1346-46e1-958f-fc4a178840d6","ios":"levelo://app?vid=15642c67-1346-46e1-958f-fc4a178840d6"},"vehicle_type_id":"4","last_reported":1722874194,"current_range_meters":16000,"station_id":"ce4bhb92rcd13ifvqen0","pricing_plan_id":"cebpf4jnsgd1na2vs0mg"},{"bike_id":"5cab0652-b7b8-4edd-b098-93f4a432e9c6","system_id":"levelo_inurba_marseille","lat":43.29004,"lon":5.3561,"is_reserved":false,"is_disabled":false,"rental_uris":{"android":"levelo://app?vid=5cab0652-b7b8-4edd-b098-93f4a432e9c6","ios":"levelo://app?vid=5cab0652-b7b8-4edd-b098-93f4a432e9c6"},"vehicle_type_id":"4","last_reported":1722874194,"current_range_meters":0,"station_id":"ce4bhb92rcd13ifvqen0","pricing_plan_id":"cebpf4jnsgd1na2vs0mg"},{"bike_id":"72951a00-4276-492e-8dc1-651ba8f19da2","system_id":"levelo_inurba_marseille","lat":43.29,"lon":5.35622,"is_reserved":false,"is_disabled":false,"rental_uris":{"android":"levelo://app?vid=72951a00-4276-492e-8dc1-651ba8f19da2","ios":"levelo://app?vid=72951a00-4276-492e-8dc1-651ba8f19da2"},"vehicle_type_id":"4","last_reported":1722874194,"current_range_meters":0,"station_id":"ce4bhb92rcd13ifvqen0","pricing_plan_id":"cebpf4jnsgd1na2vs0mg"},{"bike_id":"e418874f-466a-4a41-9c9f-e9d05d5167b6","system_id":"levelo_inurba_marseille","lat":43.289959,"lon":5.355937,"is_reserved":false,"is_disabled":false,"rental_uris":{"android":"levelo://app?vid=e418874f-466a-4a41-9c9f-e9d05d5167b6","ios":"levelo://app?vid=e418874f-466a-4a41-9c9f-e9d05d5167b6"},"vehicle_type_id":"4","last_reported":1722874194,"current_range_meters":0,"station_id":"ce4bhb92rcd13ifvqen0","pricing_plan_id":"cebpf4jnsgd1na2vs0mg"},{"bike_id":"c3fac0f4-c8b6-4a7d-9371-818c20ee24d7","system_id":"levelo_inurba_marseille","lat":43.310476,"lon":5.400064,"is_reserved":false,"is_disabled":false,"rental_uris":{"android":"levelo://app?vid=c3fac0f4-c8b6-4a7d-9371-818c20ee24d7","ios":"levelo://app?vid=c3fac0f4-c8b6-4a7d-9371-818c20ee24d7"},"vehicle_type_id":"4","last_reported":1722874194,"current_range_meters":22000,"station_id":"","pricing_plan_id":"cebpf4jnsgd1na2vs0mg"},{"bike_id":"fff36b96-ed5a-4e4d-945e-68be1ca9ebb0","system_id":"levelo_inurba_marseille","lat":43.29531,"lon":5.3905,"is_reserved":false,"is_disabled":false,"rental_uris":{"android":"levelo://app?vid=fff36b96-ed5a-4e4d-945e-68be1ca9ebb0","ios":"levelo://app?vid=fff36b96-ed5a-4e4d-945e-68be1ca9ebb0"},"vehicle_type_id":"4","last_reported":1722874194,"current_range_meters":8800,"station_id":"ce4bh3p2rcd13ifvqdp0","pricing_plan_id":"cebpf4jnsgd1na2vs0mg"},{"bike_id":"9bab60c3-e765-4169-8194-8f995192541e","system_id":"levelo_inurba_marseille","lat":43.330442,"lon":5.389148,"is_reserved":false,"is_disabled":false,"rental_uris":{"android":"levelo://app?vid=9bab60c3-e765-4169-8194-8f995192541e","ios":"levelo://app?vid=9bab60c3-e765-4169-8194-8f995192541e"},"vehicle_type_id":"4","last_reported":1722874194,"current_range_meters":27600,"station_id":"ce4bhr92rcd13ifvqhrg","pricing_plan_id":"cebpf4jnsgd1na2vs0mg"},{"bike_id":"c781c4d1-46ee-4a64-b7e7-e91bfb2ae388","system_id":"levelo_inurba_marseille","lat":43.28964,"lon":5.37831,"is_reserved":false,"is_disabled":false,"rental_uris":{"android":"levelo://app?vid=c781c4d1-46ee-4a64-b7e7-e91bfb2ae388","ios":"levelo://app?vid=c781c4d1-46ee-4a64-b7e7-e91bfb2ae388"},"vehicle_type_id":"4","last_reported":1722874194,"current_range_meters":0,"station_id":"ce4bh9p2rcd13ifvqed0","pricing_plan_id":"cebpf4jnsgd1na2vs0mg"},{"bike_id":"e9b7bcbd-1125-45be-9c88-21215cc17359","system_id":"levelo_inurba_marseille","lat":43.29025,"lon":5.38127,"is_reserved":false,"is_disabled":false,"rental_uris":{"android":"levelo://app?vid=e9b7bcbd-1125-45be-9c88-21215cc17359","ios":"levelo://app?vid=e9b7bcbd-1125-45be-9c88-21215cc17359"},"vehicle_type_id":"4","last_reported":1722874194,"current_range_meters":0,"station_id":"ce4bh4p2rcd13ifvqe1g","pricing_plan_id":"cebpf4jnsgd1na2vs0mg"},{"bike_id":"2aa90d0e-dcf8-4ac7-9037-aa9e30facf9b","system_id":"levelo_inurba_marseille","lat":43.28856,"lon":5.358371,"is_reserved":false,"is_disabled":false,"rental_uris":{"android":"levelo://app?vid=2aa90d0e-dcf8-4ac7-9037-aa9e30facf9b","ios":"levelo://app?vid=2aa90d0e-dcf8-4ac7-9037-aa9e30facf9b"},"vehicle_type_id":"4","last_reported":1722874194,"current_range_meters":28400,"station_id":"ce4bhb12rcd13ifvqem0","pricing_plan_id":"cebpf4jnsgd1na2vs0mg"},{"bike_id":"10a7b0af-cce9-4b9e-bea8-4eb78ba59706","system_id":"levelo_inurba_marseille","lat":43.312609,"lon":5.401662,"is_reserved":false,"is_disabled":false,"rental_uris":{"android":"levelo://app?vid=10a7b0af-cce9-4b9e-bea8-4eb78ba59706","ios":"levelo://app?vid=10a7b0af-cce9-4b9e-bea8-4eb78ba59706"},"vehicle_type_id":"4","last_reported":1722874194,"current_range_meters":24400,"station_id":"ce4bh092rcd13ifvqd30","pricing_plan_id":"cebpf4jnsgd1na2vs0mg"},{"bike_id":"eb551123-7891-4b89-90f1-8c0ea5701c7d","system_id":"levelo_inurba_marseille","lat":43.28856,"lon":5.358371,"is_reserved":false,"is_disabled":false,"rental_uris":{"android":"levelo://app?vid=eb551123-7891-4b89-90f1-8c0ea5701c7d","ios":"levelo://app?vid=eb551123-7891-4b89-90f1-8c0ea5701c7d"},"vehicle_type_id":"4","last_reported":1722874194,"current_range_meters":3600,"station_id":"ce4bhb12rcd13ifvqem0","pricing_plan_id":"cebpf4jnsgd1na2vs0mg"},{"bike_id":"33dbf382-6fbe-46dd-9a26-42e1a0b0144b","system_id":"levelo_inurba_marseille","lat":43.28856,"lon":5.358371,"is_reserved":false,"is_disabled":false,"rental_uris":{"android":"levelo://app?vid=33dbf382-6fbe-46dd-9a26-42e1a0b0144b","ios":"levelo://app?vid=33dbf382-6fbe-46dd-9a26-42e1a0b0144b"},"vehicle_type_id":"4","last_reported":1722874194,"current_range_meters":10000,"station_id":"ce4bhb12rcd13ifvqem0","pricing_plan_id":"cebpf4jnsgd1na2vs0mg"},{"bike_id":"5bdcd11b-6601-4d86-a6bf-8d6de11031ad","system_id":"levelo_inurba_marseille","lat":43.312609,"lon":5.401662,"is_reserved":false,"is_disabled":false,"rental_uris":{"android":"levelo://app?vid=5bdcd11b-6601-4d86-a6bf-8d6de11031ad","ios":"levelo://app?vid=5bdcd11b-6601-4d86-a6bf-8d6de11031ad"},"vehicle_type_id":"4","last_reported":1722874194,"current_range_meters":16400,"station_id":"ce4bh092rcd13ifvqd30","pricing_plan_id":"cebpf4jnsgd1na2vs0mg"},{"bike_id":"ac75d8e5-5139-4e43-a64e-51e7994c2517","system_id":"levelo_inurba_marseille","lat":43.337444,"lon":5.374475,"is_reserved":false,"is_disabled":false,"rental_uris":{"android":"levelo://app?vid=ac75d8e5-5139-4e43-a64e-51e7994c2517","ios":"levelo://app?vid=ac75d8e5-5139-4e43-a64e-51e7994c2517"},"vehicle_type_id":"3","last_reported":1722874194,"current_range_meters":24800,"station_id":"","pricing_plan_id":"cebpf4jnsgd1na2vs0mg"},{"bike_id":"a14c5abc-c64e-4d67-b3a6-3494fec4e41c","system_id":"levelo_inurba_marseille","lat":43.287375,"lon":5.365333,"is_reserved":false,"is_disabled":false,"rental_uris":{"android":"levelo://app?vid=a14c5abc-c64e-4d67-b3a6-3494fec4e41c","ios":"levelo://app?vid=a14c5abc-c64e-4d67-b3a6-3494fec4e41c"},"vehicle_type_id":"4","last_reported":1722874194,"current_range_meters":19600,"station_id":"","pricing_plan_id":"cebpf4jnsgd1na2vs0mg"},{"bike_id":"23241e99-1df2-433f-a822-f99c239efbab","system_id":"levelo_inurba_marseille","lat":43.33753,"lon":5.37454,"is_reserved":false,"is_disabled":false,"rental_uris":{"android":"levelo://app?vid=23241e99-1df2-433f-a822-f99c239efbab","ios":"levelo://app?vid=23241e99-1df2-433f-a822-f99c239efbab"},"vehicle_type_id":"4","last_reported":1722874194,"current_range_meters":22800,"station_id":"","pricing_plan_id":"cebpf4jnsgd1na2vs0mg"},{"bike_id":"0c81b3c3-f342-4cec-be4b-42cd32773f29","system_id":"levelo_inurba_marseille","lat":43.337574,"lon":5.374593,"is_reserved":false,"is_disabled":false,"rental_uris":{"android":"levelo://app?vid=0c81b3c3-f342-4cec-be4b-42cd32773f29","ios":"levelo://app?vid=0c81b3c3-f342-4cec-be4b-42cd32773f29"},"vehicle_type_id":"4","last_reported":1722874194,"current_range_meters":29600,"station_id":"","pricing_plan_id":"cebpf4jnsgd1na2vs0mg"},{"bike_id":"824c0c64-d402-4a87-af8c-eab73c383895","system_id":"levelo_inurba_marseille","lat":43.30642,"lon":5.401031,"is_reserved":false,"is_disabled":false,"rental_uris":{"android":"levelo://app?vid=824c0c64-d402-4a87-af8c-eab73c383895","ios":"levelo://app?vid=824c0c64-d402-4a87-af8c-eab73c383895"},"vehicle_type_id":"4","last_reported":1722874194,"current_range_meters":0,"station_id":"ce4bh112rcd13ifvqda0","pricing_plan_id":"cebpf4jnsgd1na2vs0mg"},{"bike_id":"5915a242-760d-4a1d-abd8-1a0f662c2199","system_id":"levelo_inurba_marseille","lat":43.33764,"lon":5.37468,"is_reserved":false,"is_disabled":false,"rental_uris":{"android":"levelo://app?vid=5915a242-760d-4a1d-abd8-1a0f662c2199","ios":"levelo://app?vid=5915a242-760d-4a1d-abd8-1a0f662c2199"},"vehicle_type_id":"4","last_reported":1722874194,"current_range_meters":23600,"station_id":"","pricing_plan_id":"cebpf4jnsgd1na2vs0mg"},{"bike_id":"51636db5-2a8e-4f1d-8f9d-4a523d9de1bd","system_id":"levelo_inurba_marseille","lat":43.30642,"lon":5.401031,"is_reserved":false,"is_disabled":false,"rental_uris":{"android":"levelo://app?vid=51636db5-2a8e-4f1d-8f9d-4a523d9de1bd","ios":"levelo://app?vid=51636db5-2a8e-4f1d-8f9d-4a523d9de1bd"},"vehicle_type_id":"4","last_reported":1722874194,"current_range_meters":21600,"station_id":"ce4bh112rcd13ifvqda0","pricing_plan_id":"cebpf4jnsgd1na2vs0mg"},{"bike_id":"31cfa358-4301-46c5-af8a-74decda4b42e","system_id":"levelo_inurba_marseille","lat":43.33775,"lon":5.37478,"is_reserved":false,"is_disabled":false,"rental_uris":{"android":"levelo://app?vid=31cfa358-4301-46c5-af8a-74decda4b42e","ios":"levelo://app?vid=31cfa358-4301-46c5-af8a-74decda4b42e"},"vehicle_type_id":"4","last_reported":1722874194,"current_range_meters":29200,"station_id":"","pricing_plan_id":"cebpf4jnsgd1na2vs0mg"},{"bike_id":"f26aee90-3d47-4f67-9d39-a383b880aabf","system_id":"levelo_inurba_marseille","lat":43.28666,"lon":5.36353,"is_reserved":false,"is_disabled":false,"rental_uris":{"android":"levelo://app?vid=f26aee90-3d47-4f67-9d39-a383b880aabf","ios":"levelo://app?vid=f26aee90-3d47-4f67-9d39-a383b880aabf"},"vehicle_type_id":"4","last_reported":1722874194,"current_range_meters":27600,"station_id":"ce4bhah2rcd13ifvqej0","pricing_plan_id":"cebpf4jnsgd1na2vs0mg"},{"bike_id":"166e7eb3-7cff-49bf-bb88-e7fb2541e742","system_id":"levelo_inurba_marseille","lat":43.286591,"lon":5.363346,"is_reserved":false,"is_disabled":false,"rental_uris":{"android":"levelo://app?vid=166e7eb3-7cff-49bf-bb88-e7fb2541e742","ios":"levelo://app?vid=166e7eb3-7cff-49bf-bb88-e7fb2541e742"},"vehicle_type_id":"4","last_reported":1722874194,"current_range_meters":23200,"station_id":"ce4bhah2rcd13ifvqej0","pricing_plan_id":"cebpf4jnsgd1na2vs0mg"},{"bike_id":"00390715-8714-4f59-b876-c44c88943be2","system_id":"levelo_inurba_marseille","lat":43.286591,"lon":5.363346,"is_reserved":false,"is_disabled":false,"rental_uris":{"android":"levelo://app?vid=00390715-8714-4f59-b876-c44c88943be2","ios":"levelo://app?vid=00390715-8714-4f59-b876-c44c88943be2"},"vehicle_type_id":"4","last_reported":1722874194,"current_range_meters":8800,"station_id":"ce4bhah2rcd13ifvqej0","pricing_plan_id":"cebpf4jnsgd1na2vs0mg"},{"bike_id":"fe2ce5f6-d4d6-4189-9e61-8ac3b30bd546","system_id":"levelo_inurba_marseille","lat":43.286591,"lon":5.363346,"is_reserved":false,"is_disabled":false,"rental_uris":{"android":"levelo://app?vid=fe2ce5f6-d4d6-4189-9e61-8ac3b30bd546","ios":"levelo://app?vid=fe2ce5f6-d4d6-4189-9e61-8ac3b30bd546"},"vehicle_type_id":"4","last_reported":1722874194,"current_range_meters":800,"station_id":"ce4bhah2rcd13ifvqej0","pricing_plan_id":"cebpf4jnsgd1na2vs0mg"},{"bike_id":"913442f0-d338-4624-80fa-62654ecd0046","system_id":"levelo_inurba_marseille","lat":43.28702,"lon":5.37399,"is_reserved":false,"is_disabled":false,"rental_uris":{"android":"levelo://app?vid=913442f0-d338-4624-80fa-62654ecd0046","ios":"levelo://app?vid=913442f0-d338-4624-80fa-62654ecd0046"},"vehicle_type_id":"4","last_reported":1722874194,"current_range_meters":21600,"station_id":"ce4bh3p2rcd13ifvqdq0","pricing_plan_id":"cebpf4jnsgd1na2vs0mg"},{"bike_id":"ab45c2c2-0d08-42c4-9dc0-0136da3f3a9a","system_id":"levelo_inurba_marseille","lat":43.286591,"lon":5.363346,"is_reserved":false,"is_disabled":false,"rental_uris":{"android":"levelo://app?vid=ab45c2c2-0d08-42c4-9dc0-0136da3f3a9a","ios":"levelo://app?vid=ab45c2c2-0d08-42c4-9dc0-0136da3f3a9a"},"vehicle_type_id":"4","last_reported":1722874194,"current_range_meters":20800,"station_id":"ce4bhah2rcd13ifvqej0","pricing_plan_id":"cebpf4jnsgd1na2vs0mg"},{"bike_id":"15dab537-43ec-4a03-8e56-11653a857fd3","system_id":"levelo_inurba_marseille","lat":43.286961,"lon":5.373785,"is_reserved":false,"is_disabled":false,"rental_uris":{"android":"levelo://app?vid=15dab537-43ec-4a03-8e56-11653a857fd3","ios":"levelo://app?vid=15dab537-43ec-4a03-8e56-11653a857fd3"},"vehicle_type_id":"4","last_reported":1722874194,"current_range_meters":0,"station_id":"ce4bh3p2rcd13ifvqdq0","pricing_plan_id":"cebpf4jnsgd1na2vs0mg"},{"bike_id":"f3e32269-57ac-49f6-87ca-c2e999c6fe79","system_id":"levelo_inurba_marseille","lat":43.286593,"lon":5.363346,"is_reserved":false,"is_disabled":false,"rental_uris":{"android":"levelo://app?vid=f3e32269-57ac-49f6-87ca-c2e999c6fe79","ios":"levelo://app?vid=f3e32269-57ac-49f6-87ca-c2e999c6fe79"},"vehicle_type_id":"4","last_reported":1722874194,"current_range_meters":3200,"station_id":"ce4bhah2rcd13ifvqej0","pricing_plan_id":"cebpf4jnsgd1na2vs0mg"},{"bike_id":"e4d0e41a-de27-403b-9b2f-53b206f2bdf0","system_id":"levelo_inurba_marseille","lat":43.286593,"lon":5.363346,"is_reserved":false,"is_disabled":false,"rental_uris":{"android":"levelo://app?vid=e4d0e41a-de27-403b-9b2f-53b206f2bdf0","ios":"levelo://app?vid=e4d0e41a-de27-403b-9b2f-53b206f2bdf0"},"vehicle_type_id":"4","last_reported":1722874194,"current_range_meters":17200,"station_id":"ce4bhah2rcd13ifvqej0","pricing_plan_id":"cebpf4jnsgd1na2vs0mg"},{"bike_id":"9a330042-cfef-4e94-9bd2-203864b51852","system_id":"levelo_inurba_marseille","lat":43.286593,"lon":5.363346,"is_reserved":false,"is_disabled":false,"rental_uris":{"android":"levelo://app?vid=9a330042-cfef-4e94-9bd2-203864b51852","ios":"levelo://app?vid=9a330042-cfef-4e94-9bd2-203864b51852"},"vehicle_type_id":"4","last_reported":1722874194,"current_range_meters":23600,"station_id":"ce4bhah2rcd13ifvqej0","pricing_plan_id":"cebpf4jnsgd1na2vs0mg"},{"bike_id":"2426a9f8-fff2-43f7-87f2-67cec2a3ad67","system_id":"levelo_inurba_marseille","lat":43.286907,"lon":5.374267,"is_reserved":false,"is_disabled":false,"rental_uris":{"android":"levelo://app?vid=2426a9f8-fff2-43f7-87f2-67cec2a3ad67","ios":"levelo://app?vid=2426a9f8-fff2-43f7-87f2-67cec2a3ad67"},"vehicle_type_id":"4","last_reported":1722874194,"current_range_meters":11600,"station_id":"","pricing_plan_id":"cebpf4jnsgd1na2vs0mg"},{"bike_id":"dce610df-e3fc-41c3-ad32-5ab35838736a","system_id":"levelo_inurba_marseille","lat":43.290336,"lon":5.386425,"is_reserved":false,"is_disabled":false,"rental_uris":{"android":"levelo://app?vid=dce610df-e3fc-41c3-ad32-5ab35838736a","ios":"levelo://app?vid=dce610df-e3fc-41c3-ad32-5ab35838736a"},"vehicle_type_id":"4","last_reported":1722874194,"current_range_meters":23600,"station_id":"ce4bh4p2rcd13ifvqe0g","pricing_plan_id":"cebpf4jnsgd1na2vs0mg"},{"bike_id":"8a77054e-9457-4650-abe7-c57a71ce7ad6","system_id":"levelo_inurba_marseille","lat":43.302759,"lon":5.400793,"is_reserved":false,"is_disabled":false,"rental_uris":{"android":"levelo://app?vid=8a77054e-9457-4650-abe7-c57a71ce7ad6","ios":"levelo://app?vid=8a77054e-9457-4650-abe7-c57a71ce7ad6"},"vehicle_type_id":"4","last_reported":1722874194,"current_range_meters":24000,"station_id":"ce4bgvh2rcd13ifvqcs0","pricing_plan_id":"cebpf4jnsgd1na2vs0mg"},{"bike_id":"eed08693-6fae-480e-b817-e115ffb742d2","system_id":"levelo_inurba_marseille","lat":43.286211,"lon":5.379568,"is_reserved":false,"is_disabled":false,"rental_uris":{"android":"levelo://app?vid=eed08693-6fae-480e-b817-e115ffb742d2","ios":"levelo://app?vid=eed08693-6fae-480e-b817-e115ffb742d2"},"vehicle_type_id":"4","last_reported":1722874194,"current_range_meters":0,"station_id":"","pricing_plan_id":"cebpf4jnsgd1na2vs0mg"},{"bike_id":"9b7bfa55-6705-4427-aa06-40d98d1efe82","system_id":"levelo_inurba_marseille","lat":43.291994,"lon":5.392907,"is_reserved":false,"is_disabled":false,"rental_uris":{"android":"levelo://app?vid=9b7bfa55-6705-4427-aa06-40d98d1efe82","ios":"levelo://app?vid=9b7bfa55-6705-4427-aa06-40d98d1efe82"},"vehicle_type_id":"4","last_reported":1722874194,"current_range_meters":15200,"station_id":"ce4bh192rcd13ifvqdd0","pricing_plan_id":"cebpf4jnsgd1na2vs0mg"},{"bike_id":"b03f141e-c963-4fe4-b356-29180d9c3760","system_id":"levelo_inurba_marseille","lat":43.284534,"lon":5.358662,"is_reserved":false,"is_disabled":false,"rental_uris":{"android":"levelo://app?vid=b03f141e-c963-4fe4-b356-29180d9c3760","ios":"levelo://app?vid=b03f141e-c963-4fe4-b356-29180d9c3760"},"vehicle_type_id":"4","last_reported":1722874194,"current_range_meters":23600,"station_id":"ce4bhah2rcd13ifvqei0","pricing_plan_id":"cebpf4jnsgd1na2vs0mg"},{"bike_id":"86250324-107c-4928-8eb5-12bde1d322c8","system_id":"levelo_inurba_marseille","lat":43.283998,"lon":5.375062,"is_reserved":false,"is_disabled":false,"rental_uris":{"android":"levelo://app?vid=86250324-107c-4928-8eb5-12bde1d322c8","ios":"levelo://app?vid=86250324-107c-4928-8eb5-12bde1d322c8"},"vehicle_type_id":"4","last_reported":1722874194,"current_range_meters":2400,"station_id":"ce4bh412rcd13ifvqds0","pricing_plan_id":"cebpf4jnsgd1na2vs0mg"},{"bike_id":"170d85c5-6e0c-421a-95c1-212ce0039d7a","system_id":"levelo_inurba_marseille","lat":43.28455,"lon":5.35895,"is_reserved":false,"is_disabled":false,"rental_uris":{"android":"levelo://app?vid=170d85c5-6e0c-421a-95c1-212ce0039d7a","ios":"levelo://app?vid=170d85c5-6e0c-421a-95c1-212ce0039d7a"},"vehicle_type_id":"4","last_reported":1722874194,"current_range_meters":27200,"station_id":"ce4bhah2rcd13ifvqei0","pricing_plan_id":"cebpf4jnsgd1na2vs0mg"},{"bike_id":"a684b765-3112-470a-aa87-37bfc6b6fb83","system_id":"levelo_inurba_marseille","lat":43.33208,"lon":5.39656,"is_reserved":false,"is_disabled":false,"rental_uris":{"android":"levelo://app?vid=a684b765-3112-470a-aa87-37bfc6b6fb83","ios":"levelo://app?vid=a684b765-3112-470a-aa87-37bfc6b6fb83"},"vehicle_type_id":"4","last_reported":1722874194,"current_range_meters":15200,"station_id":"","pricing_plan_id":"cebpf4jnsgd1na2vs0mg"},{"bike_id":"21b6476f-6488-4ceb-a379-6d0ecc9c7c96","system_id":"levelo_inurba_marseille","lat":43.28617,"lon":5.35104,"is_reserved":false,"is_disabled":false,"rental_uris":{"android":"levelo://app?vid=21b6476f-6488-4ceb-a379-6d0ecc9c7c96","ios":"levelo://app?vid=21b6476f-6488-4ceb-a379-6d0ecc9c7c96"},"vehicle_type_id":"4","last_reported":1722874194,"current_range_meters":0,"station_id":"ce4bhch2rcd13ifvqeug","pricing_plan_id":"cebpf4jnsgd1na2vs0mg"},{"bike_id":"29641886-0cee-4b4b-89b9-8a8ed3b3bfad","system_id":"levelo_inurba_marseille","lat":43.28616,"lon":5.35105,"is_reserved":false,"is_disabled":false,"rental_uris":{"android":"levelo://app?vid=29641886-0cee-4b4b-89b9-8a8ed3b3bfad","ios":"levelo://app?vid=29641886-0cee-4b4b-89b9-8a8ed3b3bfad"},"vehicle_type_id":"4","last_reported":1722874194,"current_range_meters":31200,"station_id":"ce4bhch2rcd13ifvqeug","pricing_plan_id":"cebpf4jnsgd1na2vs0mg"},{"bike_id":"9a0df9f6-cb03-4ea2-80ae-def3185ce2b0","system_id":"levelo_inurba_marseille","lat":43.28615,"lon":5.35108,"is_reserved":false,"is_disabled":false,"rental_uris":{"android":"levelo://app?vid=9a0df9f6-cb03-4ea2-80ae-def3185ce2b0","ios":"levelo://app?vid=9a0df9f6-cb03-4ea2-80ae-def3185ce2b0"},"vehicle_type_id":"4","last_reported":1722874194,"current_range_meters":22800,"station_id":"ce4bhch2rcd13ifvqeug","pricing_plan_id":"cebpf4jnsgd1na2vs0mg"},{"bike_id":"ba79e504-3757-41da-8df6-e7b85e02e54a","system_id":"levelo_inurba_marseille","lat":43.28616,"lon":5.35104,"is_reserved":false,"is_disabled":false,"rental_uris":{"android":"levelo://app?vid=ba79e504-3757-41da-8df6-e7b85e02e54a","ios":"levelo://app?vid=ba79e504-3757-41da-8df6-e7b85e02e54a"},"vehicle_type_id":"4","last_reported":1722874194,"current_range_meters":12800,"station_id":"ce4bhch2rcd13ifvqeug","pricing_plan_id":"cebpf4jnsgd1na2vs0mg"},{"bike_id":"4694f22f-35f2-4176-a2ba-d9097944f7dd","system_id":"levelo_inurba_marseille","lat":43.28614,"lon":5.3511,"is_reserved":false,"is_disabled":false,"rental_uris":{"android":"levelo://app?vid=4694f22f-35f2-4176-a2ba-d9097944f7dd","ios":"levelo://app?vid=4694f22f-35f2-4176-a2ba-d9097944f7dd"},"vehicle_type_id":"4","last_reported":1722874194,"current_range_meters":9600,"station_id":"ce4bhch2rcd13ifvqeug","pricing_plan_id":"cebpf4jnsgd1na2vs0mg"},{"bike_id":"c6b13738-643e-4cea-a044-58af8aad54eb","system_id":"levelo_inurba_marseille","lat":43.28616,"lon":5.35101,"is_reserved":false,"is_disabled":false,"rental_uris":{"android":"levelo://app?vid=c6b13738-643e-4cea-a044-58af8aad54eb","ios":"levelo://app?vid=c6b13738-643e-4cea-a044-58af8aad54eb"},"vehicle_type_id":"4","last_reported":1722874194,"current_range_meters":13600,"station_id":"ce4bhch2rcd13ifvqeug","pricing_plan_id":"cebpf4jnsgd1na2vs0mg"},{"bike_id":"6ee456da-3ac4-4ca9-b1db-4cc8e703fbc4","system_id":"levelo_inurba_marseille","lat":43.286179,"lon":5.350939,"is_reserved":false,"is_disabled":false,"rental_uris":{"android":"levelo://app?vid=6ee456da-3ac4-4ca9-b1db-4cc8e703fbc4","ios":"levelo://app?vid=6ee456da-3ac4-4ca9-b1db-4cc8e703fbc4"},"vehicle_type_id":"4","last_reported":1722874194,"current_range_meters":30400,"station_id":"ce4bhch2rcd13ifvqeug","pricing_plan_id":"cebpf4jnsgd1na2vs0mg"},{"bike_id":"6bda14dc-95f8-4f24-8692-591aad1efa29","system_id":"levelo_inurba_marseille","lat":43.286129,"lon":5.35109,"is_reserved":false,"is_disabled":false,"rental_uris":{"android":"levelo://app?vid=6bda14dc-95f8-4f24-8692-591aad1efa29","ios":"levelo://app?vid=6bda14dc-95f8-4f24-8692-591aad1efa29"},"vehicle_type_id":"4","last_reported":1722874194,"current_range_meters":3600,"station_id":"ce4bhch2rcd13ifvqeug","pricing_plan_id":"cebpf4jnsgd1na2vs0mg"},{"bike_id":"dd77d68f-f83b-46dc-8c47-62d2cd142cc5","system_id":"levelo_inurba_marseille","lat":43.28616,"lon":5.35099,"is_reserved":false,"is_disabled":false,"rental_uris":{"android":"levelo://app?vid=dd77d68f-f83b-46dc-8c47-62d2cd142cc5","ios":"levelo://app?vid=dd77d68f-f83b-46dc-8c47-62d2cd142cc5"},"vehicle_type_id":"4","last_reported":1722874194,"current_range_meters":30400,"station_id":"ce4bhch2rcd13ifvqeug","pricing_plan_id":"cebpf4jnsgd1na2vs0mg"},{"bike_id":"fcbf5351-ddc5-43f0-842b-8fbdb9c5253b","system_id":"levelo_inurba_marseille","lat":43.286134,"lon":5.351068,"is_reserved":false,"is_disabled":false,"rental_uris":{"android":"levelo://app?vid=fcbf5351-ddc5-43f0-842b-8fbdb9c5253b","ios":"levelo://app?vid=fcbf5351-ddc5-43f0-842b-8fbdb9c5253b"},"vehicle_type_id":"4","last_reported":1722874194,"current_range_meters":16400,"station_id":"ce4bhch2rcd13ifvqeug","pricing_plan_id":"cebpf4jnsgd1na2vs0mg"},{"bike_id":"599f92d2-038c-4c13-a07c-3c47da1b6063","system_id":"levelo_inurba_marseille","lat":43.28615,"lon":5.35101,"is_reserved":false,"is_disabled":false,"rental_uris":{"android":"levelo://app?vid=599f92d2-038c-4c13-a07c-3c47da1b6063","ios":"levelo://app?vid=599f92d2-038c-4c13-a07c-3c47da1b6063"},"vehicle_type_id":"4","last_reported":1722874194,"current_range_meters":15600,"station_id":"ce4bhch2rcd13ifvqeug","pricing_plan_id":"cebpf4jnsgd1na2vs0mg"},{"bike_id":"ac8b5d41-5e40-429e-b74d-b6e1c95e82d2","system_id":"levelo_inurba_marseille","lat":43.28617,"lon":5.35094,"is_reserved":false,"is_disabled":false,"rental_uris":{"android":"levelo://app?vid=ac8b5d41-5e40-429e-b74d-b6e1c95e82d2","ios":"levelo://app?vid=ac8b5d41-5e40-429e-b74d-b6e1c95e82d2"},"vehicle_type_id":"4","last_reported":1722874194,"current_range_meters":25600,"station_id":"ce4bhch2rcd13ifvqeug","pricing_plan_id":"cebpf4jnsgd1na2vs0mg"},{"bike_id":"33a1b70f-f386-4260-82c5-64ab95cd9346","system_id":"levelo_inurba_marseille","lat":43.28613,"lon":5.35106,"is_reserved":false,"is_disabled":false,"rental_uris":{"android":"levelo://app?vid=33a1b70f-f386-4260-82c5-64ab95cd9346","ios":"levelo://app?vid=33a1b70f-f386-4260-82c5-64ab95cd9346"},"vehicle_type_id":"4","last_reported":1722874194,"current_range_meters":20400,"station_id":"ce4bhch2rcd13ifvqeug","pricing_plan_id":"cebpf4jnsgd1na2vs0mg"},{"bike_id":"d35d1036-ce85-4515-be92-312b97f6627c","system_id":"levelo_inurba_marseille","lat":43.28614,"lon":5.35102,"is_reserved":false,"is_disabled":false,"rental_uris":{"android":"levelo://app?vid=d35d1036-ce85-4515-be92-312b97f6627c","ios":"levelo://app?vid=d35d1036-ce85-4515-be92-312b97f6627c"},"vehicle_type_id":"4","last_reported":1722874194,"current_range_meters":31200,"station_id":"ce4bhch2rcd13ifvqeug","pricing_plan_id":"cebpf4jnsgd1na2vs0mg"},{"bike_id":"bd7e87ab-eef9-4ac9-b360-f9389d0ee23d","system_id":"levelo_inurba_marseille","lat":43.28615,"lon":5.35097,"is_reserved":false,"is_disabled":false,"rental_uris":{"android":"levelo://app?vid=bd7e87ab-eef9-4ac9-b360-f9389d0ee23d","ios":"levelo://app?vid=bd7e87ab-eef9-4ac9-b360-f9389d0ee23d"},"vehicle_type_id":"4","last_reported":1722874194,"current_range_meters":30800,"station_id":"ce4bhch2rcd13ifvqeug","pricing_plan_id":"cebpf4jnsgd1na2vs0mg"},{"bike_id":"f767e907-9566-4c89-86eb-bfa8524ac908","system_id":"levelo_inurba_marseille","lat":43.28615,"lon":5.35095,"is_reserved":false,"is_disabled":false,"rental_uris":{"android":"levelo://app?vid=f767e907-9566-4c89-86eb-bfa8524ac908","ios":"levelo://app?vid=f767e907-9566-4c89-86eb-bfa8524ac908"},"vehicle_type_id":"4","last_reported":1722874194,"current_range_meters":30400,"station_id":"ce4bhch2rcd13ifvqeug","pricing_plan_id":"cebpf4jnsgd1na2vs0mg"},{"bike_id":"ac6043f8-8c09-4d29-b978-ba7b053ac7fb","system_id":"levelo_inurba_marseille","lat":43.28612,"lon":5.35104,"is_reserved":false,"is_disabled":false,"rental_uris":{"android":"levelo://app?vid=ac6043f8-8c09-4d29-b978-ba7b053ac7fb","ios":"levelo://app?vid=ac6043f8-8c09-4d29-b978-ba7b053ac7fb"},"vehicle_type_id":"4","last_reported":1722874194,"current_range_meters":25600,"station_id":"ce4bhch2rcd13ifvqeug","pricing_plan_id":"cebpf4jnsgd1na2vs0mg"},{"bike_id":"df32d637-f1b4-4fc8-bb9e-e2ce481f06c5","system_id":"levelo_inurba_marseille","lat":43.28615,"lon":5.35094,"is_reserved":false,"is_disabled":false,"rental_uris":{"android":"levelo://app?vid=df32d637-f1b4-4fc8-bb9e-e2ce481f06c5","ios":"levelo://app?vid=df32d637-f1b4-4fc8-bb9e-e2ce481f06c5"},"vehicle_type_id":"4","last_reported":1722874194,"current_range_meters":30800,"station_id":"ce4bhch2rcd13ifvqeug","pricing_plan_id":"cebpf4jnsgd1na2vs0mg"},{"bike_id":"9271fb93-443e-4313-b442-0172892ec64d","system_id":"levelo_inurba_marseille","lat":43.28612,"lon":5.35102,"is_reserved":false,"is_disabled":false,"rental_uris":{"android":"levelo://app?vid=9271fb93-443e-4313-b442-0172892ec64d","ios":"levelo://app?vid=9271fb93-443e-4313-b442-0172892ec64d"},"vehicle_type_id":"4","last_reported":1722874194,"current_range_meters":8400,"station_id":"ce4bhch2rcd13ifvqeug","pricing_plan_id":"cebpf4jnsgd1na2vs0mg"},{"bike_id":"51825d23-9881-4546-b30d-4669c15301c4","system_id":"levelo_inurba_marseille","lat":43.286126,"lon":5.350986,"is_reserved":false,"is_disabled":false,"rental_uris":{"android":"levelo://app?vid=51825d23-9881-4546-b30d-4669c15301c4","ios":"levelo://app?vid=51825d23-9881-4546-b30d-4669c15301c4"},"vehicle_type_id":"4","last_reported":1722874194,"current_range_meters":30800,"station_id":"ce4bhch2rcd13ifvqeug","pricing_plan_id":"cebpf4jnsgd1na2vs0mg"},{"bike_id":"5a50a428-516c-4005-b8ae-ddcf8e41b908","system_id":"levelo_inurba_marseille","lat":43.285856,"lon":5.350771,"is_reserved":false,"is_disabled":false,"rental_uris":{"android":"levelo://app?vid=5a50a428-516c-4005-b8ae-ddcf8e41b908","ios":"levelo://app?vid=5a50a428-516c-4005-b8ae-ddcf8e41b908"},"vehicle_type_id":"4","last_reported":1722874194,"current_range_meters":23200,"station_id":"ce4bhch2rcd13ifvqeug","pricing_plan_id":"cebpf4jnsgd1na2vs0mg"},{"bike_id":"38c8c205-eded-4aef-a274-f9a843f24b6b","system_id":"levelo_inurba_marseille","lat":43.28402,"lon":5.37522,"is_reserved":false,"is_disabled":false,"rental_uris":{"android":"levelo://app?vid=38c8c205-eded-4aef-a274-f9a843f24b6b","ios":"levelo://app?vid=38c8c205-eded-4aef-a274-f9a843f24b6b"},"vehicle_type_id":"4","last_reported":1722874194,"current_range_meters":6000,"station_id":"ce4bh412rcd13ifvqds0","pricing_plan_id":"cebpf4jnsgd1na2vs0mg"},{"bike_id":"fa6b53bd-f771-4207-b9d5-042a2b8bd194","system_id":"levelo_inurba_marseille","lat":43.283998,"lon":5.375062,"is_reserved":false,"is_disabled":false,"rental_uris":{"android":"levelo://app?vid=fa6b53bd-f771-4207-b9d5-042a2b8bd194","ios":"levelo://app?vid=fa6b53bd-f771-4207-b9d5-042a2b8bd194"},"vehicle_type_id":"4","last_reported":1722874194,"current_range_meters":5200,"station_id":"ce4bh412rcd13ifvqds0","pricing_plan_id":"cebpf4jnsgd1na2vs0mg"},{"bike_id":"7b6792e3-4488-49ee-98cf-6fe4541e0f35","system_id":"levelo_inurba_marseille","lat":43.28398,"lon":5.3752,"is_reserved":false,"is_disabled":false,"rental_uris":{"android":"levelo://app?vid=7b6792e3-4488-49ee-98cf-6fe4541e0f35","ios":"levelo://app?vid=7b6792e3-4488-49ee-98cf-6fe4541e0f35"},"vehicle_type_id":"4","last_reported":1722874194,"current_range_meters":14400,"station_id":"ce4bh412rcd13ifvqds0","pricing_plan_id":"cebpf4jnsgd1na2vs0mg"},{"bike_id":"47a4bac7-2ac5-4486-b726-fc61703401b8","system_id":"levelo_inurba_marseille","lat":43.28398,"lon":5.37523,"is_reserved":false,"is_disabled":false,"rental_uris":{"android":"levelo://app?vid=47a4bac7-2ac5-4486-b726-fc61703401b8","ios":"levelo://app?vid=47a4bac7-2ac5-4486-b726-fc61703401b8"},"vehicle_type_id":"4","last_reported":1722874194,"current_range_meters":400,"station_id":"ce4bh412rcd13ifvqds0","pricing_plan_id":"cebpf4jnsgd1na2vs0mg"},{"bike_id":"12c9b174-e315-44f0-8349-96d9995365a1","system_id":"levelo_inurba_marseille","lat":43.286595,"lon":5.386795,"is_reserved":false,"is_disabled":false,"rental_uris":{"android":"levelo://app?vid=12c9b174-e315-44f0-8349-96d9995365a1","ios":"levelo://app?vid=12c9b174-e315-44f0-8349-96d9995365a1"},"vehicle_type_id":"4","last_reported":1722874194,"current_range_meters":6800,"station_id":"ce4bh492rcd13ifvqdug","pricing_plan_id":"cebpf4jnsgd1na2vs0mg"},{"bike_id":"511cf34d-ee5c-4147-95a1-b2621975ff00","system_id":"levelo_inurba_marseille","lat":43.28739,"lon":5.38899,"is_reserved":false,"is_disabled":false,"rental_uris":{"android":"levelo://app?vid=511cf34d-ee5c-4147-95a1-b2621975ff00","ios":"levelo://app?vid=511cf34d-ee5c-4147-95a1-b2621975ff00"},"vehicle_type_id":"4","last_reported":1722874194,"current_range_meters":0,"station_id":"","pricing_plan_id":"cebpf4jnsgd1na2vs0mg"},{"bike_id":"78a6c3c8-7828-40a9-8331-c36ab4bef352","system_id":"levelo_inurba_marseille","lat":43.323464,"lon":5.406297,"is_reserved":false,"is_disabled":false,"rental_uris":{"android":"levelo://app?vid=78a6c3c8-7828-40a9-8331-c36ab4bef352","ios":"levelo://app?vid=78a6c3c8-7828-40a9-8331-c36ab4bef352"},"vehicle_type_id":"4","last_reported":1722874194,"current_range_meters":31200,"station_id":"ce4bhq92rcd13ifvqhjg","pricing_plan_id":"cebpf4jnsgd1na2vs0mg"},{"bike_id":"c00abd0c-a2f8-4a07-854a-955a3b330951","system_id":"levelo_inurba_marseille","lat":43.33717,"lon":5.391857,"is_reserved":false,"is_disabled":false,"rental_uris":{"android":"levelo://app?vid=c00abd0c-a2f8-4a07-854a-955a3b330951","ios":"levelo://app?vid=c00abd0c-a2f8-4a07-854a-955a3b330951"},"vehicle_type_id":"4","last_reported":1722874194,"current_range_meters":4400,"station_id":"ce4bhr92rcd13ifvqhsg","pricing_plan_id":"cebpf4jnsgd1na2vs0mg"},{"bike_id":"8dcd7962-6e42-415f-846f-8d14c06e1834","system_id":"levelo_inurba_marseille","lat":43.33717,"lon":5.391857,"is_reserved":false,"is_disabled":false,"rental_uris":{"android":"levelo://app?vid=8dcd7962-6e42-415f-846f-8d14c06e1834","ios":"levelo://app?vid=8dcd7962-6e42-415f-846f-8d14c06e1834"},"vehicle_type_id":"4","last_reported":1722874194,"current_range_meters":0,"station_id":"ce4bhr92rcd13ifvqhsg","pricing_plan_id":"cebpf4jnsgd1na2vs0mg"},{"bike_id":"6fe68132-72b1-43c6-b303-064323d1ce2b","system_id":"levelo_inurba_marseille","lat":43.32339,"lon":5.40616,"is_reserved":false,"is_disabled":false,"rental_uris":{"android":"levelo://app?vid=6fe68132-72b1-43c6-b303-064323d1ce2b","ios":"levelo://app?vid=6fe68132-72b1-43c6-b303-064323d1ce2b"},"vehicle_type_id":"4","last_reported":1722874194,"current_range_meters":6000,"station_id":"ce4bhq92rcd13ifvqhjg","pricing_plan_id":"cebpf4jnsgd1na2vs0mg"},{"bike_id":"c69d30d4-37a4-4b2d-85d7-ea058e6e1a2e","system_id":"levelo_inurba_marseille","lat":43.323464,"lon":5.406297,"is_reserved":false,"is_disabled":false,"rental_uris":{"android":"levelo://app?vid=c69d30d4-37a4-4b2d-85d7-ea058e6e1a2e","ios":"levelo://app?vid=c69d30d4-37a4-4b2d-85d7-ea058e6e1a2e"},"vehicle_type_id":"4","last_reported":1722874194,"current_range_meters":29600,"station_id":"ce4bhq92rcd13ifvqhjg","pricing_plan_id":"cebpf4jnsgd1na2vs0mg"},{"bike_id":"86d6e256-4977-4f87-80ea-f66aee18c326","system_id":"levelo_inurba_marseille","lat":43.337168,"lon":5.391825,"is_reserved":false,"is_disabled":false,"rental_uris":{"android":"levelo://app?vid=86d6e256-4977-4f87-80ea-f66aee18c326","ios":"levelo://app?vid=86d6e256-4977-4f87-80ea-f66aee18c326"},"vehicle_type_id":"4","last_reported":1722874194,"current_range_meters":9600,"station_id":"ce4bhr92rcd13ifvqhsg","pricing_plan_id":"cebpf4jnsgd1na2vs0mg"},{"bike_id":"b9a31c21-0a1a-49af-b5aa-fab3108a2e21","system_id":"levelo_inurba_marseille","lat":43.33717,"lon":5.391857,"is_reserved":false,"is_disabled":false,"rental_uris":{"android":"levelo://app?vid=b9a31c21-0a1a-49af-b5aa-fab3108a2e21","ios":"levelo://app?vid=b9a31c21-0a1a-49af-b5aa-fab3108a2e21"},"vehicle_type_id":"4","last_reported":1722874194,"current_range_meters":20400,"station_id":"ce4bhr92rcd13ifvqhsg","pricing_plan_id":"cebpf4jnsgd1na2vs0mg"},{"bike_id":"419c4649-f007-415c-b1d5-0f554d6d9a8d","system_id":"levelo_inurba_marseille","lat":43.283494,"lon":5.380945,"is_reserved":false,"is_disabled":false,"rental_uris":{"android":"levelo://app?vid=419c4649-f007-415c-b1d5-0f554d6d9a8d","ios":"levelo://app?vid=419c4649-f007-415c-b1d5-0f554d6d9a8d"},"vehicle_type_id":"4","last_reported":1722874194,"current_range_meters":16400,"station_id":"ce4bh412rcd13ifvqdr0","pricing_plan_id":"cebpf4jnsgd1na2vs0mg"},{"bike_id":"3a34f52d-5ef3-494c-a732-841930ffed57","system_id":"levelo_inurba_marseille","lat":43.283494,"lon":5.380945,"is_reserved":false,"is_disabled":false,"rental_uris":{"android":"levelo://app?vid=3a34f52d-5ef3-494c-a732-841930ffed57","ios":"levelo://app?vid=3a34f52d-5ef3-494c-a732-841930ffed57"},"vehicle_type_id":"4","last_reported":1722874194,"current_range_meters":14000,"station_id":"ce4bh412rcd13ifvqdr0","pricing_plan_id":"cebpf4jnsgd1na2vs0mg"},{"bike_id":"ac93572a-061f-4dd2-ae07-4cd8c52be6a7","system_id":"levelo_inurba_marseille","lat":43.28429,"lon":5.34992,"is_reserved":false,"is_disabled":false,"rental_uris":{"android":"levelo://app?vid=ac93572a-061f-4dd2-ae07-4cd8c52be6a7","ios":"levelo://app?vid=ac93572a-061f-4dd2-ae07-4cd8c52be6a7"},"vehicle_type_id":"4","last_reported":1722874194,"current_range_meters":1600,"station_id":"ce4bhbh2rcd13ifvqepg","pricing_plan_id":"cebpf4jnsgd1na2vs0mg"},{"bike_id":"72f30431-51a6-4243-a30e-c55fbf691674","system_id":"levelo_inurba_marseille","lat":43.283498,"lon":5.380948,"is_reserved":false,"is_disabled":false,"rental_uris":{"android":"levelo://app?vid=72f30431-51a6-4243-a30e-c55fbf691674","ios":"levelo://app?vid=72f30431-51a6-4243-a30e-c55fbf691674"},"vehicle_type_id":"4","last_reported":1722874194,"current_range_meters":8800,"station_id":"ce4bh412rcd13ifvqdr0","pricing_plan_id":"cebpf4jnsgd1na2vs0mg"},{"bike_id":"eae37cff-8a6d-4191-aa88-bec5eb7c86b7","system_id":"levelo_inurba_marseille","lat":43.28423,"lon":5.34993,"is_reserved":false,"is_disabled":false,"rental_uris":{"android":"levelo://app?vid=eae37cff-8a6d-4191-aa88-bec5eb7c86b7","ios":"levelo://app?vid=eae37cff-8a6d-4191-aa88-bec5eb7c86b7"},"vehicle_type_id":"4","last_reported":1722874194,"current_range_meters":10000,"station_id":"ce4bhbh2rcd13ifvqepg","pricing_plan_id":"cebpf4jnsgd1na2vs0mg"},{"bike_id":"51bb6bda-81f6-4827-ae3d-0538edc9f004","system_id":"levelo_inurba_marseille","lat":43.284231,"lon":5.34984,"is_reserved":false,"is_disabled":false,"rental_uris":{"android":"levelo://app?vid=51bb6bda-81f6-4827-ae3d-0538edc9f004","ios":"levelo://app?vid=51bb6bda-81f6-4827-ae3d-0538edc9f004"},"vehicle_type_id":"4","last_reported":1722874194,"current_range_meters":23600,"station_id":"ce4bhbh2rcd13ifvqepg","pricing_plan_id":"cebpf4jnsgd1na2vs0mg"},{"bike_id":"965eece4-6fe9-492c-81bb-3171ef594272","system_id":"levelo_inurba_marseille","lat":43.284201,"lon":5.349928,"is_reserved":false,"is_disabled":false,"rental_uris":{"android":"levelo://app?vid=965eece4-6fe9-492c-81bb-3171ef594272","ios":"levelo://app?vid=965eece4-6fe9-492c-81bb-3171ef594272"},"vehicle_type_id":"4","last_reported":1722874194,"current_range_meters":28400,"station_id":"ce4bhbh2rcd13ifvqepg","pricing_plan_id":"cebpf4jnsgd1na2vs0mg"},{"bike_id":"b5c1f676-d1c7-451c-aa7a-8e205b119022","system_id":"levelo_inurba_marseille","lat":43.28424,"lon":5.3498,"is_reserved":false,"is_disabled":false,"rental_uris":{"android":"levelo://app?vid=b5c1f676-d1c7-451c-aa7a-8e205b119022","ios":"levelo://app?vid=b5c1f676-d1c7-451c-aa7a-8e205b119022"},"vehicle_type_id":"4","last_reported":1722874194,"current_range_meters":8800,"station_id":"ce4bhbh2rcd13ifvqepg","pricing_plan_id":"cebpf4jnsgd1na2vs0mg"},{"bike_id":"84fccdb8-b0dc-46ee-a8f5-ac407a548b07","system_id":"levelo_inurba_marseille","lat":43.28419,"lon":5.34994,"is_reserved":false,"is_disabled":false,"rental_uris":{"android":"levelo://app?vid=84fccdb8-b0dc-46ee-a8f5-ac407a548b07","ios":"levelo://app?vid=84fccdb8-b0dc-46ee-a8f5-ac407a548b07"},"vehicle_type_id":"4","last_reported":1722874194,"current_range_meters":6800,"station_id":"ce4bhbh2rcd13ifvqepg","pricing_plan_id":"cebpf4jnsgd1na2vs0mg"},{"bike_id":"6721d4f6-a1c0-4e03-b38c-fa7d1722db5b","system_id":"levelo_inurba_marseille","lat":43.284217,"lon":5.349697,"is_reserved":false,"is_disabled":false,"rental_uris":{"android":"levelo://app?vid=6721d4f6-a1c0-4e03-b38c-fa7d1722db5b","ios":"levelo://app?vid=6721d4f6-a1c0-4e03-b38c-fa7d1722db5b"},"vehicle_type_id":"4","last_reported":1722874194,"current_range_meters":7200,"station_id":"ce4bhbh2rcd13ifvqepg","pricing_plan_id":"cebpf4jnsgd1na2vs0mg"},{"bike_id":"195202bf-da44-4f70-88e9-01c6a709a3e3","system_id":"levelo_inurba_marseille","lat":43.28422,"lon":5.34984,"is_reserved":false,"is_disabled":false,"rental_uris":{"android":"levelo://app?vid=195202bf-da44-4f70-88e9-01c6a709a3e3","ios":"levelo://app?vid=195202bf-da44-4f70-88e9-01c6a709a3e3"},"vehicle_type_id":"4","last_reported":1722874194,"current_range_meters":30800,"station_id":"ce4bhbh2rcd13ifvqepg","pricing_plan_id":"cebpf4jnsgd1na2vs0mg"},{"bike_id":"d08ec3bf-f848-4032-99c3-5c898e4e33a9","system_id":"levelo_inurba_marseille","lat":43.284217,"lon":5.349697,"is_reserved":false,"is_disabled":false,"rental_uris":{"android":"levelo://app?vid=d08ec3bf-f848-4032-99c3-5c898e4e33a9","ios":"levelo://app?vid=d08ec3bf-f848-4032-99c3-5c898e4e33a9"},"vehicle_type_id":"4","last_reported":1722874194,"current_range_meters":30800,"station_id":"ce4bhbh2rcd13ifvqepg","pricing_plan_id":"cebpf4jnsgd1na2vs0mg"},{"bike_id":"99f64830-b414-4e4e-912a-c606a9e49b74","system_id":"levelo_inurba_marseille","lat":43.2842,"lon":5.3499,"is_reserved":false,"is_disabled":false,"rental_uris":{"android":"levelo://app?vid=99f64830-b414-4e4e-912a-c606a9e49b74","ios":"levelo://app?vid=99f64830-b414-4e4e-912a-c606a9e49b74"},"vehicle_type_id":"4","last_reported":1722874194,"current_range_meters":31200,"station_id":"ce4bhbh2rcd13ifvqepg","pricing_plan_id":"cebpf4jnsgd1na2vs0mg"},{"bike_id":"a041b529-0e83-43c4-8da1-641afc79043e","system_id":"levelo_inurba_marseille","lat":43.284199,"lon":5.349903,"is_reserved":false,"is_disabled":false,"rental_uris":{"android":"levelo://app?vid=a041b529-0e83-43c4-8da1-641afc79043e","ios":"levelo://app?vid=a041b529-0e83-43c4-8da1-641afc79043e"},"vehicle_type_id":"4","last_reported":1722874194,"current_range_meters":30400,"station_id":"ce4bhbh2rcd13ifvqepg","pricing_plan_id":"cebpf4jnsgd1na2vs0mg"},{"bike_id":"2fc47f4d-32d8-45c9-9469-800715999aed","system_id":"levelo_inurba_marseille","lat":43.284193,"lon":5.349919,"is_reserved":false,"is_disabled":false,"rental_uris":{"android":"levelo://app?vid=2fc47f4d-32d8-45c9-9469-800715999aed","ios":"levelo://app?vid=2fc47f4d-32d8-45c9-9469-800715999aed"},"vehicle_type_id":"4","last_reported":1722874194,"current_range_meters":19200,"station_id":"ce4bhbh2rcd13ifvqepg","pricing_plan_id":"cebpf4jnsgd1na2vs0mg"},{"bike_id":"078bad6b-68e4-4221-af57-6d31ef26869a","system_id":"levelo_inurba_marseille","lat":43.28419,"lon":5.349916,"is_reserved":false,"is_disabled":false,"rental_uris":{"android":"levelo://app?vid=078bad6b-68e4-4221-af57-6d31ef26869a","ios":"levelo://app?vid=078bad6b-68e4-4221-af57-6d31ef26869a"},"vehicle_type_id":"4","last_reported":1722874194,"current_range_meters":12000,"station_id":"ce4bhbh2rcd13ifvqepg","pricing_plan_id":"cebpf4jnsgd1na2vs0mg"},{"bike_id":"7769b344-bb90-4daa-af98-45698ca66820","system_id":"levelo_inurba_marseille","lat":43.284217,"lon":5.349697,"is_reserved":false,"is_disabled":false,"rental_uris":{"android":"levelo://app?vid=7769b344-bb90-4daa-af98-45698ca66820","ios":"levelo://app?vid=7769b344-bb90-4daa-af98-45698ca66820"},"vehicle_type_id":"4","last_reported":1722874194,"current_range_meters":21600,"station_id":"ce4bhbh2rcd13ifvqepg","pricing_plan_id":"cebpf4jnsgd1na2vs0mg"},{"bike_id":"89b77dee-54d8-4db4-aa55-d7413b5b401a","system_id":"levelo_inurba_marseille","lat":43.284217,"lon":5.349697,"is_reserved":false,"is_disabled":false,"rental_uris":{"android":"levelo://app?vid=89b77dee-54d8-4db4-aa55-d7413b5b401a","ios":"levelo://app?vid=89b77dee-54d8-4db4-aa55-d7413b5b401a"},"vehicle_type_id":"4","last_reported":1722874194,"current_range_meters":30000,"station_id":"ce4bhbh2rcd13ifvqepg","pricing_plan_id":"cebpf4jnsgd1na2vs0mg"},{"bike_id":"2df00986-c5ce-4631-a825-ac776ea7792d","system_id":"levelo_inurba_marseille","lat":43.28418,"lon":5.3499,"is_reserved":false,"is_disabled":false,"rental_uris":{"android":"levelo://app?vid=2df00986-c5ce-4631-a825-ac776ea7792d","ios":"levelo://app?vid=2df00986-c5ce-4631-a825-ac776ea7792d"},"vehicle_type_id":"4","last_reported":1722874194,"current_range_meters":22400,"station_id":"ce4bhbh2rcd13ifvqepg","pricing_plan_id":"cebpf4jnsgd1na2vs0mg"},{"bike_id":"d47c687f-2f9c-4ec8-9aea-5fe2b7264350","system_id":"levelo_inurba_marseille","lat":43.28416,"lon":5.34995,"is_reserved":false,"is_disabled":false,"rental_uris":{"android":"levelo://app?vid=d47c687f-2f9c-4ec8-9aea-5fe2b7264350","ios":"levelo://app?vid=d47c687f-2f9c-4ec8-9aea-5fe2b7264350"},"vehicle_type_id":"4","last_reported":1722874194,"current_range_meters":27200,"station_id":"ce4bhbh2rcd13ifvqepg","pricing_plan_id":"cebpf4jnsgd1na2vs0mg"},{"bike_id":"9bccc4b7-11f5-40c5-92d6-4e4ff19766ed","system_id":"levelo_inurba_marseille","lat":43.284217,"lon":5.349697,"is_reserved":false,"is_disabled":false,"rental_uris":{"android":"levelo://app?vid=9bccc4b7-11f5-40c5-92d6-4e4ff19766ed","ios":"levelo://app?vid=9bccc4b7-11f5-40c5-92d6-4e4ff19766ed"},"vehicle_type_id":"4","last_reported":1722874194,"current_range_meters":19200,"station_id":"ce4bhbh2rcd13ifvqepg","pricing_plan_id":"cebpf4jnsgd1na2vs0mg"},{"bike_id":"82bede4e-503f-4755-bd54-c45c161312b3","system_id":"levelo_inurba_marseille","lat":43.284217,"lon":5.349697,"is_reserved":false,"is_disabled":false,"rental_uris":{"android":"levelo://app?vid=82bede4e-503f-4755-bd54-c45c161312b3","ios":"levelo://app?vid=82bede4e-503f-4755-bd54-c45c161312b3"},"vehicle_type_id":"4","last_reported":1722874194,"current_range_meters":24000,"station_id":"ce4bhbh2rcd13ifvqepg","pricing_plan_id":"cebpf4jnsgd1na2vs0mg"},{"bike_id":"9a296bb1-6ed1-4366-b495-01005925dbde","system_id":"levelo_inurba_marseille","lat":43.284179,"lon":5.349879,"is_reserved":false,"is_disabled":false,"rental_uris":{"android":"levelo://app?vid=9a296bb1-6ed1-4366-b495-01005925dbde","ios":"levelo://app?vid=9a296bb1-6ed1-4366-b495-01005925dbde"},"vehicle_type_id":"4","last_reported":1722874194,"current_range_meters":31200,"station_id":"ce4bhbh2rcd13ifvqepg","pricing_plan_id":"cebpf4jnsgd1na2vs0mg"},{"bike_id":"a1d8b0ab-ed69-4d40-9dde-a0a840c8ee18","system_id":"levelo_inurba_marseille","lat":43.28416,"lon":5.34991,"is_reserved":false,"is_disabled":false,"rental_uris":{"android":"levelo://app?vid=a1d8b0ab-ed69-4d40-9dde-a0a840c8ee18","ios":"levelo://app?vid=a1d8b0ab-ed69-4d40-9dde-a0a840c8ee18"},"vehicle_type_id":"4","last_reported":1722874194,"current_range_meters":18400,"station_id":"ce4bhbh2rcd13ifvqepg","pricing_plan_id":"cebpf4jnsgd1na2vs0mg"},{"bike_id":"3f014b1f-5eec-4f75-9c90-e950f2125598","system_id":"levelo_inurba_marseille","lat":43.28416,"lon":5.34989,"is_reserved":false,"is_disabled":false,"rental_uris":{"android":"levelo://app?vid=3f014b1f-5eec-4f75-9c90-e950f2125598","ios":"levelo://app?vid=3f014b1f-5eec-4f75-9c90-e950f2125598"},"vehicle_type_id":"4","last_reported":1722874194,"current_range_meters":11600,"station_id":"ce4bhbh2rcd13ifvqepg","pricing_plan_id":"cebpf4jnsgd1na2vs0mg"},{"bike_id":"6853f1bb-4eab-4b2d-89fa-8d4f0c731349","system_id":"levelo_inurba_marseille","lat":43.284217,"lon":5.349697,"is_reserved":false,"is_disabled":false,"rental_uris":{"android":"levelo://app?vid=6853f1bb-4eab-4b2d-89fa-8d4f0c731349","ios":"levelo://app?vid=6853f1bb-4eab-4b2d-89fa-8d4f0c731349"},"vehicle_type_id":"4","last_reported":1722874194,"current_range_meters":9200,"station_id":"ce4bhbh2rcd13ifvqepg","pricing_plan_id":"cebpf4jnsgd1na2vs0mg"},{"bike_id":"7ac60ff5-b1b1-4841-8c40-6320a6588521","system_id":"levelo_inurba_marseille","lat":43.28264,"lon":5.355861,"is_reserved":false,"is_disabled":false,"rental_uris":{"android":"levelo://app?vid=7ac60ff5-b1b1-4841-8c40-6320a6588521","ios":"levelo://app?vid=7ac60ff5-b1b1-4841-8c40-6320a6588521"},"vehicle_type_id":"4","last_reported":1722874194,"current_range_meters":2000,"station_id":"","pricing_plan_id":"cebpf4jnsgd1na2vs0mg"},{"bike_id":"5e232417-b531-4aeb-ad29-788a5be6a6ea","system_id":"levelo_inurba_marseille","lat":43.284214,"lon":5.349706,"is_reserved":false,"is_disabled":false,"rental_uris":{"android":"levelo://app?vid=5e232417-b531-4aeb-ad29-788a5be6a6ea","ios":"levelo://app?vid=5e232417-b531-4aeb-ad29-788a5be6a6ea"},"vehicle_type_id":"4","last_reported":1722874194,"current_range_meters":22800,"station_id":"ce4bhbh2rcd13ifvqepg","pricing_plan_id":"cebpf4jnsgd1na2vs0mg"},{"bike_id":"62c73d79-6b34-42d9-9c0f-79a0f38e2884","system_id":"levelo_inurba_marseille","lat":43.284214,"lon":5.349706,"is_reserved":false,"is_disabled":false,"rental_uris":{"android":"levelo://app?vid=62c73d79-6b34-42d9-9c0f-79a0f38e2884","ios":"levelo://app?vid=62c73d79-6b34-42d9-9c0f-79a0f38e2884"},"vehicle_type_id":"4","last_reported":1722874194,"current_range_meters":31200,"station_id":"ce4bhbh2rcd13ifvqepg","pricing_plan_id":"cebpf4jnsgd1na2vs0mg"},{"bike_id":"fa86b904-5369-4ab2-9df1-3ab1811248ef","system_id":"levelo_inurba_marseille","lat":43.284217,"lon":5.349697,"is_reserved":false,"is_disabled":false,"rental_uris":{"android":"levelo://app?vid=fa86b904-5369-4ab2-9df1-3ab1811248ef","ios":"levelo://app?vid=fa86b904-5369-4ab2-9df1-3ab1811248ef"},"vehicle_type_id":"4","last_reported":1722874194,"current_range_meters":10000,"station_id":"ce4bhbh2rcd13ifvqepg","pricing_plan_id":"cebpf4jnsgd1na2vs0mg"},{"bike_id":"4ad3206e-1e5a-41ac-bea0-6b7c29c5df3e","system_id":"levelo_inurba_marseille","lat":43.28411,"lon":5.34986,"is_reserved":false,"is_disabled":false,"rental_uris":{"android":"levelo://app?vid=4ad3206e-1e5a-41ac-bea0-6b7c29c5df3e","ios":"levelo://app?vid=4ad3206e-1e5a-41ac-bea0-6b7c29c5df3e"},"vehicle_type_id":"4","last_reported":1722874194,"current_range_meters":0,"station_id":"ce4bhbh2rcd13ifvqepg","pricing_plan_id":"cebpf4jnsgd1na2vs0mg"},{"bike_id":"17ff7366-9c4a-4d56-b180-5ef6e0d719cb","system_id":"levelo_inurba_marseille","lat":43.284115,"lon":5.349823,"is_reserved":false,"is_disabled":false,"rental_uris":{"android":"levelo://app?vid=17ff7366-9c4a-4d56-b180-5ef6e0d719cb","ios":"levelo://app?vid=17ff7366-9c4a-4d56-b180-5ef6e0d719cb"},"vehicle_type_id":"4","last_reported":1722874194,"current_range_meters":12400,"station_id":"ce4bhbh2rcd13ifvqepg","pricing_plan_id":"cebpf4jnsgd1na2vs0mg"},{"bike_id":"c7f8d42d-f1fc-466c-9582-4cb97900df47","system_id":"levelo_inurba_marseille","lat":43.28407,"lon":5.349853,"is_reserved":false,"is_disabled":false,"rental_uris":{"android":"levelo://app?vid=c7f8d42d-f1fc-466c-9582-4cb97900df47","ios":"levelo://app?vid=c7f8d42d-f1fc-466c-9582-4cb97900df47"},"vehicle_type_id":"4","last_reported":1722874194,"current_range_meters":6400,"station_id":"ce4bhbh2rcd13ifvqepg","pricing_plan_id":"cebpf4jnsgd1na2vs0mg"},{"bike_id":"33c41939-56aa-42e9-9f7a-cce1a1b70029","system_id":"levelo_inurba_marseille","lat":43.28396,"lon":5.34998,"is_reserved":false,"is_disabled":false,"rental_uris":{"android":"levelo://app?vid=33c41939-56aa-42e9-9f7a-cce1a1b70029","ios":"levelo://app?vid=33c41939-56aa-42e9-9f7a-cce1a1b70029"},"vehicle_type_id":"4","last_reported":1722874194,"current_range_meters":27600,"station_id":"ce4bhbh2rcd13ifvqepg","pricing_plan_id":"cebpf4jnsgd1na2vs0mg"},{"bike_id":"7b05bbe8-5c5c-4f59-b66c-215bce493fa9","system_id":"levelo_inurba_marseille","lat":43.342591,"lon":5.382421,"is_reserved":false,"is_disabled":false,"rental_uris":{"android":"levelo://app?vid=7b05bbe8-5c5c-4f59-b66c-215bce493fa9","ios":"levelo://app?vid=7b05bbe8-5c5c-4f59-b66c-215bce493fa9"},"vehicle_type_id":"4","last_reported":1722874194,"current_range_meters":0,"station_id":"","pricing_plan_id":"cebpf4jnsgd1na2vs0mg"},{"bike_id":"d82d2080-ae0f-4681-b3ea-574583e9c4ee","system_id":"levelo_inurba_marseille","lat":43.284793,"lon":5.384119,"is_reserved":false,"is_disabled":false,"rental_uris":{"android":"levelo://app?vid=d82d2080-ae0f-4681-b3ea-574583e9c4ee","ios":"levelo://app?vid=d82d2080-ae0f-4681-b3ea-574583e9c4ee"},"vehicle_type_id":"4","last_reported":1722874194,"current_range_meters":23200,"station_id":"ce4bh512rcd13ifvqe3g","pricing_plan_id":"cebpf4jnsgd1na2vs0mg"},{"bike_id":"9d67bf14-55c3-4a5f-a583-11810aa50d22","system_id":"levelo_inurba_marseille","lat":43.292724,"lon":5.401131,"is_reserved":false,"is_disabled":false,"rental_uris":{"android":"levelo://app?vid=9d67bf14-55c3-4a5f-a583-11810aa50d22","ios":"levelo://app?vid=9d67bf14-55c3-4a5f-a583-11810aa50d22"},"vehicle_type_id":"4","last_reported":1722874194,"current_range_meters":5200,"station_id":"ce4bh312rcd13ifvqdk0","pricing_plan_id":"cebpf4jnsgd1na2vs0mg"},{"bike_id":"f22c7ed0-5e01-4f12-89e7-d3e995892ffa","system_id":"levelo_inurba_marseille","lat":43.34225,"lon":5.38443,"is_reserved":false,"is_disabled":false,"rental_uris":{"android":"levelo://app?vid=f22c7ed0-5e01-4f12-89e7-d3e995892ffa","ios":"levelo://app?vid=f22c7ed0-5e01-4f12-89e7-d3e995892ffa"},"vehicle_type_id":"4","last_reported":1722874194,"current_range_meters":9200,"station_id":"","pricing_plan_id":"cebpf4jnsgd1na2vs0mg"},{"bike_id":"3471e8fc-672f-466a-afb0-1ca500c3d162","system_id":"levelo_inurba_marseille","lat":43.28277,"lon":5.35065,"is_reserved":false,"is_disabled":false,"rental_uris":{"android":"levelo://app?vid=3471e8fc-672f-466a-afb0-1ca500c3d162","ios":"levelo://app?vid=3471e8fc-672f-466a-afb0-1ca500c3d162"},"vehicle_type_id":"4","last_reported":1722874194,"current_range_meters":0,"station_id":"ce4bhbp2rcd13ifvqerg","pricing_plan_id":"cebpf4jnsgd1na2vs0mg"},{"bike_id":"74662b60-822e-4adc-89a2-c43edad35d8d","system_id":"levelo_inurba_marseille","lat":43.28275,"lon":5.3507,"is_reserved":false,"is_disabled":false,"rental_uris":{"android":"levelo://app?vid=74662b60-822e-4adc-89a2-c43edad35d8d","ios":"levelo://app?vid=74662b60-822e-4adc-89a2-c43edad35d8d"},"vehicle_type_id":"4","last_reported":1722874194,"current_range_meters":0,"station_id":"ce4bhbp2rcd13ifvqerg","pricing_plan_id":"cebpf4jnsgd1na2vs0mg"},{"bike_id":"541625bb-dd1e-4522-9263-c139bd142cda","system_id":"levelo_inurba_marseille","lat":43.28276,"lon":5.35064,"is_reserved":false,"is_disabled":false,"rental_uris":{"android":"levelo://app?vid=541625bb-dd1e-4522-9263-c139bd142cda","ios":"levelo://app?vid=541625bb-dd1e-4522-9263-c139bd142cda"},"vehicle_type_id":"4","last_reported":1722874194,"current_range_meters":31200,"station_id":"ce4bhbp2rcd13ifvqerg","pricing_plan_id":"cebpf4jnsgd1na2vs0mg"},{"bike_id":"5206b411-f319-4198-a809-7ceaddcbe428","system_id":"levelo_inurba_marseille","lat":43.282709,"lon":5.350809,"is_reserved":false,"is_disabled":false,"rental_uris":{"android":"levelo://app?vid=5206b411-f319-4198-a809-7ceaddcbe428","ios":"levelo://app?vid=5206b411-f319-4198-a809-7ceaddcbe428"},"vehicle_type_id":"4","last_reported":1722874194,"current_range_meters":0,"station_id":"","pricing_plan_id":"cebpf4jnsgd1na2vs0mg"},{"bike_id":"9a051340-c603-42ee-b674-6327028bed5f","system_id":"levelo_inurba_marseille","lat":43.28271,"lon":5.35068,"is_reserved":false,"is_disabled":false,"rental_uris":{"android":"levelo://app?vid=9a051340-c603-42ee-b674-6327028bed5f","ios":"levelo://app?vid=9a051340-c603-42ee-b674-6327028bed5f"},"vehicle_type_id":"4","last_reported":1722874194,"current_range_meters":12400,"station_id":"ce4bhbp2rcd13ifvqerg","pricing_plan_id":"cebpf4jnsgd1na2vs0mg"},{"bike_id":"d4302cc4-f050-4fc4-a244-a45b8b1e93e5","system_id":"levelo_inurba_marseille","lat":43.282744,"lon":5.350533,"is_reserved":false,"is_disabled":false,"rental_uris":{"android":"levelo://app?vid=d4302cc4-f050-4fc4-a244-a45b8b1e93e5","ios":"levelo://app?vid=d4302cc4-f050-4fc4-a244-a45b8b1e93e5"},"vehicle_type_id":"4","last_reported":1722874194,"current_range_meters":0,"station_id":"ce4bhbp2rcd13ifvqerg","pricing_plan_id":"cebpf4jnsgd1na2vs0mg"},{"bike_id":"4c828599-c7b6-422b-b54b-370171d62cad","system_id":"levelo_inurba_marseille","lat":43.28269,"lon":5.35067,"is_reserved":false,"is_disabled":false,"rental_uris":{"android":"levelo://app?vid=4c828599-c7b6-422b-b54b-370171d62cad","ios":"levelo://app?vid=4c828599-c7b6-422b-b54b-370171d62cad"},"vehicle_type_id":"4","last_reported":1722874194,"current_range_meters":0,"station_id":"ce4bhbp2rcd13ifvqerg","pricing_plan_id":"cebpf4jnsgd1na2vs0mg"},{"bike_id":"56608828-6d53-448e-9186-ec15104189c0","system_id":"levelo_inurba_marseille","lat":43.28264,"lon":5.35077,"is_reserved":false,"is_disabled":false,"rental_uris":{"android":"levelo://app?vid=56608828-6d53-448e-9186-ec15104189c0","ios":"levelo://app?vid=56608828-6d53-448e-9186-ec15104189c0"},"vehicle_type_id":"4","last_reported":1722874194,"current_range_meters":5600,"station_id":"ce4bhbp2rcd13ifvqerg","pricing_plan_id":"cebpf4jnsgd1na2vs0mg"},{"bike_id":"9c83e9ab-6203-4795-9c30-bebe87e6854d","system_id":"levelo_inurba_marseille","lat":43.280382,"lon":5.369291,"is_reserved":false,"is_disabled":false,"rental_uris":{"android":"levelo://app?vid=9c83e9ab-6203-4795-9c30-bebe87e6854d","ios":"levelo://app?vid=9c83e9ab-6203-4795-9c30-bebe87e6854d"},"vehicle_type_id":"4","last_reported":1722874194,"current_range_meters":15600,"station_id":"ce4bha12rcd13ifvqef0","pricing_plan_id":"cebpf4jnsgd1na2vs0mg"},{"bike_id":"055f6214-8637-4913-8160-17e49f18ff2c","system_id":"levelo_inurba_marseille","lat":43.28039,"lon":5.369297,"is_reserved":false,"is_disabled":false,"rental_uris":{"android":"levelo://app?vid=055f6214-8637-4913-8160-17e49f18ff2c","ios":"levelo://app?vid=055f6214-8637-4913-8160-17e49f18ff2c"},"vehicle_type_id":"4","last_reported":1722874194,"current_range_meters":15200,"station_id":"ce4bha12rcd13ifvqef0","pricing_plan_id":"cebpf4jnsgd1na2vs0mg"},{"bike_id":"85f307bd-3300-4628-96cc-219897aad082","system_id":"levelo_inurba_marseille","lat":43.280382,"lon":5.369291,"is_reserved":false,"is_disabled":false,"rental_uris":{"android":"levelo://app?vid=85f307bd-3300-4628-96cc-219897aad082","ios":"levelo://app?vid=85f307bd-3300-4628-96cc-219897aad082"},"vehicle_type_id":"4","last_reported":1722874194,"current_range_meters":24000,"station_id":"ce4bha12rcd13ifvqef0","pricing_plan_id":"cebpf4jnsgd1na2vs0mg"},{"bike_id":"70f8bb59-cdf4-4441-9267-85691e87a72e","system_id":"levelo_inurba_marseille","lat":43.280382,"lon":5.369291,"is_reserved":false,"is_disabled":false,"rental_uris":{"android":"levelo://app?vid=70f8bb59-cdf4-4441-9267-85691e87a72e","ios":"levelo://app?vid=70f8bb59-cdf4-4441-9267-85691e87a72e"},"vehicle_type_id":"4","last_reported":1722874194,"current_range_meters":22800,"station_id":"ce4bha12rcd13ifvqef0","pricing_plan_id":"cebpf4jnsgd1na2vs0mg"},{"bike_id":"4284ef5c-791b-422a-839e-df960c6ebfd2","system_id":"levelo_inurba_marseille","lat":43.28039,"lon":5.369297,"is_reserved":false,"is_disabled":false,"rental_uris":{"android":"levelo://app?vid=4284ef5c-791b-422a-839e-df960c6ebfd2","ios":"levelo://app?vid=4284ef5c-791b-422a-839e-df960c6ebfd2"},"vehicle_type_id":"4","last_reported":1722874194,"current_range_meters":31200,"station_id":"ce4bha12rcd13ifvqef0","pricing_plan_id":"cebpf4jnsgd1na2vs0mg"},