{"last_updated":1731654552,"ttl":60,"version":"2.2","data":{"bikes":[{"bike_id":"718a3aba-3fbd-481f-9533-bc20f7edef9d","system_id":"levelo_inurba_marseille","lat":43.30585,"lon":5.39358,"is_reserved":false,"is_disabled":false,"rental_uris":{"android":"levelo://app?vid=718a3aba-3fbd-481f-9533-bc20f7edef9d","ios":"levelo://app?vid=718a3aba-3fbd-481f-9533-bc20f7edef9d"},"vehicle_type_id":"4","last_reported":1731654552,"current_range_meters":30800,"station_id":"ce4bh0p2rcd13ifvqd80","pricing_plan_id":"cebpf4jnsgd1na2vs0mg"},{"bike_id":"6b570738-0568-43dc-a9db-ba0d386149ef","system_id":"levelo_inurba_marseille","lat":43.31688,"lon":5.40473,"is_reserved":false,"is_disabled":false,"rental_uris":{"android":"levelo://app?vid=6b570738-0568-43dc-a9db-ba0d386149ef","ios":"levelo://app?vid=6b570738-0568-43dc-a9db-ba0d386149ef"},"vehicle_type_id":"4","last_reported":1731654552,"current_range_meters":38800,"station_id":"ce4bh012rcd13ifvqd00","pricing_plan_id":"cebpf4jnsgd1na2vs0mg"},{"bike_id":"704e4079-0ad2-4bb1-a8c7-a5697de87ce4","system_id":"levelo_inurba_marseille","lat":43.279715,"lon":5.387464,"is_reserved":false,"is_disabled":false,"rental_uris":{"android":"levelo://app?vid=704e4079-0ad2-4bb1-a8c7-a5697de87ce4","ios":"levelo://app?vid=704e4079-0ad2-4bb1-a8c7-a5697de87ce4"},"vehicle_type_id":"4","last_reported":1731654552,"current_range_meters":35200,"station_id":"ce4bhg12rcd13ifvqf80","pricing_plan_id":"cebpf4jnsgd1na2vs0mg"},{"bike_id":"1d936b62-1bb8-40f6-afdf-7dac3ed8caa9","system_id":"levelo_inurba_marseille","lat":43.28458,"lon":5.359,"is_reserved":false,"is_disabled":false,"rental_uris":{"android":"levelo://app?vid=1d936b62-1bb8-40f6-afdf-7dac3ed8caa9","ios":"levelo://app?vid=1d936b62-1bb8-40f6-afdf-7dac3ed8caa9"},"vehicle_type_id":"4","last_reported":1731654552,"current_range_meters":16400,"station_id":"ce4bhah2rcd13ifvqei0","pricing_plan_id":"cebpf4jnsgd1na2vs0mg"},{"bike_id":"ddcda3b5-0819-4619-b7c5-ad8c5d969953","system_id":"levelo_inurba_marseille","lat":43.27987,"lon":5.41659,"is_reserved":false,"is_disabled":false,"rental_uris":{"android":"levelo://app?vid=ddcda3b5-0819-4619-b7c5-ad8c5d969953","ios":"levelo://app?vid=ddcda3b5-0819-4619-b7c5-ad8c5d969953"},"vehicle_type_id":"4","last_reported":1731654552,"current_range_meters":17600,"station_id":"ce4bho12rcd13ifvqh1g","pricing_plan_id":"cebpf4jnsgd1na2vs0mg"},{"bike_id":"0ee0ce32-b90c-4f34-80dc-1486e3aa3591","system_id":"levelo_inurba_marseille","lat":43.28443,"lon":5.3591,"is_reserved":false,"is_disabled":false,"rental_uris":{"android":"levelo://app?vid=0ee0ce32-b90c-4f34-80dc-1486e3aa3591","ios":"levelo://app?vid=0ee0ce32-b90c-4f34-80dc-1486e3aa3591"},"vehicle_type_id":"4","last_reported":1731654552,"current_range_meters":38800,"station_id":"ce4bhah2rcd13ifvqei0","pricing_plan_id":"cebpf4jnsgd1na2vs0mg"},{"bike_id":"1a59b816-bbb1-4950-9131-7ce955eddad1","system_id":"levelo_inurba_marseille","lat":43.24389,"lon":5.37048,"is_reserved":false,"is_disabled":false,"rental_uris":{"android":"levelo://app?vid=1a59b816-bbb1-4950-9131-7ce955eddad1","ios":"levelo://app?vid=1a59b816-bbb1-4950-9131-7ce955eddad1"},"vehicle_type_id":"4","last_reported":1731654552,"current_range_meters":38800,"station_id":"ce4bhhh2rcd13ifvqfk0","pricing_plan_id":"cebpf4jnsgd1na2vs0mg"},{"bike_id":"c64a60b6-317d-4054-8f52-b03871d4495a","system_id":"levelo_inurba_marseille","lat":43.30802,"lon":5.43541,"is_reserved":false,"is_disabled":false,"rental_uris":{"android":"levelo://app?vid=c64a60b6-317d-4054-8f52-b03871d4495a","ios":"levelo://app?vid=c64a60b6-317d-4054-8f52-b03871d4495a"},"vehicle_type_id":"4","last_reported":1731654552,"current_range_meters":6000,"station_id":"ce4bhph2rcd13ifvqheg","pricing_plan_id":"cebpf4jnsgd1na2vs0mg"},{"bike_id":"2654939d-0973-4299-ac5a-33af3ecfeee8","system_id":"levelo_inurba_marseille","lat":43.31071,"lon":5.38353,"is_reserved":false,"is_disabled":false,"rental_uris":{"android":"levelo://app?vid=2654939d-0973-4299-ac5a-33af3ecfeee8","ios":"levelo://app?vid=2654939d-0973-4299-ac5a-33af3ecfeee8"},"vehicle_type_id":"4","last_reported":1731654552,"current_range_meters":36400,"station_id":"ce4bgv92rcd13ifvqcr0","pricing_plan_id":"cebpf4jnsgd1na2vs0mg"},{"bike_id":"16fde11b-ad8b-4dc1-964d-0dcff4c00b3f","system_id":"levelo_inurba_marseille","lat":43.27988,"lon":5.4001,"is_reserved":false,"is_disabled":false,"rental_uris":{"android":"levelo://app?vid=16fde11b-ad8b-4dc1-964d-0dcff4c00b3f","ios":"levelo://app?vid=16fde11b-ad8b-4dc1-964d-0dcff4c00b3f"},"vehicle_type_id":"4","last_reported":1731654552,"current_range_meters":24000,"station_id":"ce4bho92rcd13ifvqh4g","pricing_plan_id":"cebpf4jnsgd1na2vs0mg"},{"bike_id":"8b22f74b-1b72-47ca-8c5e-a56972a0285b","system_id":"levelo_inurba_marseille","lat":43.30889,"lon":5.39632,"is_reserved":false,"is_disabled":false,"rental_uris":{"android":"levelo://app?vid=8b22f74b-1b72-47ca-8c5e-a56972a0285b","ios":"levelo://app?vid=8b22f74b-1b72-47ca-8c5e-a56972a0285b"},"vehicle_type_id":"4","last_reported":1731654552,"current_range_meters":38400,"station_id":"ce4bh012rcd13ifvqcv0","pricing_plan_id":"cebpf4jnsgd1na2vs0mg"},{"bike_id":"78b77ac8-4c63-432d-b19f-de7fa33d9847","system_id":"levelo_inurba_marseille","lat":43.3414,"lon":5.40906,"is_reserved":false,"is_disabled":false,"rental_uris":{"android":"levelo://app?vid=78b77ac8-4c63-432d-b19f-de7fa33d9847","ios":"levelo://app?vid=78b77ac8-4c63-432d-b19f-de7fa33d9847"},"vehicle_type_id":"4","last_reported":1731654552,"current_range_meters":38000,"station_id":"ce4bhqh2rcd13ifvqhlg","pricing_plan_id":"cebpf4jnsgd1na2vs0mg"},{"bike_id":"03a975f5-5857-4808-ac83-1e08fd421270","system_id":"levelo_inurba_marseille","lat":43.32363,"lon":5.38884,"is_reserved":false,"is_disabled":false,"rental_uris":{"android":"levelo://app?vid=03a975f5-5857-4808-ac83-1e08fd421270","ios":"levelo://app?vid=03a975f5-5857-4808-ac83-1e08fd421270"},"vehicle_type_id":"4","last_reported":1731654552,"current_range_meters":30400,"station_id":"ce4bhqp2rcd13ifvqhog","pricing_plan_id":"cebpf4jnsgd1na2vs0mg"},{"bike_id":"638c3933-c3dd-479e-bd0a-dfff64106917","system_id":"levelo_inurba_marseille","lat":43.26936,"lon":5.38654,"is_reserved":false,"is_disabled":false,"rental_uris":{"android":"levelo://app?vid=638c3933-c3dd-479e-bd0a-dfff64106917","ios":"levelo://app?vid=638c3933-c3dd-479e-bd0a-dfff64106917"},"vehicle_type_id":"4","last_reported":1731654552,"current_range_meters":28000,"station_id":"ce4bhh92rcd13ifvqfh0","pricing_plan_id":"cebpf4jnsgd1na2vs0mg"},{"bike_id":"2132a210-2faa-4846-af47-819c8f13c5f6","system_id":"levelo_inurba_marseille","lat":43.28342,"lon":5.38102,"is_reserved":false,"is_disabled":false,"rental_uris":{"android":"levelo://app?vid=2132a210-2faa-4846-af47-819c8f13c5f6","ios":"levelo://app?vid=2132a210-2faa-4846-af47-819c8f13c5f6"},"vehicle_type_id":"4","last_reported":1731654552,"current_range_meters":16000,"station_id":"ce4bh412rcd13ifvqdr0","pricing_plan_id":"cebpf4jnsgd1na2vs0mg"},{"bike_id":"584adcf5-4a45-4033-b283-e74d57eda898","system_id":"levelo_inurba_marseille","lat":43.28915,"lon":5.36381,"is_reserved":false,"is_disabled":false,"rental_uris":{"android":"levelo://app?vid=584adcf5-4a45-4033-b283-e74d57eda898","ios":"levelo://app?vid=584adcf5-4a45-4033-b283-e74d57eda898"},"vehicle_type_id":"4","last_reported":1731654552,"current_range_meters":12800,"station_id":"ce4bhc92rcd13ifvqetg","pricing_plan_id":"cebpf4jnsgd1na2vs0mg"},{"bike_id":"0a4e3c34-50b0-48ab-8eed-45d7ca13ab5e","system_id":"levelo_inurba_marseille","lat":43.28279,"lon":5.35062,"is_reserved":false,"is_disabled":false,"rental_uris":{"android":"levelo://app?vid=0a4e3c34-50b0-48ab-8eed-45d7ca13ab5e","ios":"levelo://app?vid=0a4e3c34-50b0-48ab-8eed-45d7ca13ab5e"},"vehicle_type_id":"4","last_reported":1731654552,"current_range_meters":38800,"station_id":"ce4bhbp2rcd13ifvqerg","pricing_plan_id":"cebpf4jnsgd1na2vs0mg"},{"bike_id":"9ef76943-592f-4d3b-a0f1-da70d440e9b4","system_id":"levelo_inurba_marseille","lat":43.29898,"lon":5.43671,"is_reserved":false,"is_disabled":false,"rental_uris":{"android":"levelo://app?vid=9ef76943-592f-4d3b-a0f1-da70d440e9b4","ios":"levelo://app?vid=9ef76943-592f-4d3b-a0f1-da70d440e9b4"},"vehicle_type_id":"4","last_reported":1731654552,"current_range_meters":24800,"station_id":"ce4bhpp2rcd13ifvqhfg","pricing_plan_id":"cebpf4jnsgd1na2vs0mg"},{"bike_id":"ff9e8fbd-afb5-4332-8f0e-8863372f7ff1","system_id":"levelo_inurba_marseille","lat":43.2815,"lon":5.4265,"is_reserved":false,"is_disabled":false,"rental_uris":{"android":"levelo://app?vid=ff9e8fbd-afb5-4332-8f0e-8863372f7ff1","ios":"levelo://app?vid=ff9e8fbd-afb5-4332-8f0e-8863372f7ff1"},"vehicle_type_id":"4","last_reported":1731654552,"current_range_meters":17200,"station_id":"ce4bhnh2rcd13ifvqgug","pricing_plan_id":"cebpf4jnsgd1na2vs0mg"},{"bike_id":"a2824603-538d-4f20-8dcc-bb0102e732b8","system_id":"levelo_inurba_marseille","lat":43.27813,"lon":5.40706,"is_reserved":false,"is_disabled":false,"rental_uris":{"android":"levelo://app?vid=a2824603-538d-4f20-8dcc-bb0102e732b8","ios":"levelo://app?vid=a2824603-538d-4f20-8dcc-bb0102e732b8"},"vehicle_type_id":"4","last_reported":1731654552,"current_range_meters":38800,"station_id":"ce4bhnh2rcd13ifvqgtg","pricing_plan_id":"cebpf4jnsgd1na2vs0mg"},{"bike_id":"d9e695fc-913d-4089-90d1-0b4ac35f153c","system_id":"levelo_inurba_marseille","lat":43.27492,"lon":5.42454,"is_reserved":false,"is_disabled":false,"rental_uris":{"android":"levelo://app?vid=d9e695fc-913d-4089-90d1-0b4ac35f153c","ios":"levelo://app?vid=d9e695fc-913d-4089-90d1-0b4ac35f153c"},"vehicle_type_id":"4","last_reported":1731654552,"current_range_meters":38000,"station_id":"ce4bhn92rcd13ifvqgrg","pricing_plan_id":"cebpf4jnsgd1na2vs0mg"},{"bike_id":"12be8816-9edc-48be-afea-bec14c436cd5","system_id":"levelo_inurba_marseille","lat":43.323419,"lon":5.406196,"is_reserved":false,"is_disabled":false,"rental_uris":{"android":"levelo://app?vid=12be8816-9edc-48be-afea-bec14c436cd5","ios":"levelo://app?vid=12be8816-9edc-48be-afea-bec14c436cd5"},"vehicle_type_id":"4","last_reported":1731654552,"current_range_meters":36800,"station_id":"ce4bhq92rcd13ifvqhjg","pricing_plan_id":"cebpf4jnsgd1na2vs0mg"},{"bike_id":"1c0b7094-0cd1-42f6-b019-4fea02a5334d","system_id":"levelo_inurba_marseille","lat":43.28848,"lon":5.35864,"is_reserved":false,"is_disabled":false,"rental_uris":{"android":"levelo://app?vid=1c0b7094-0cd1-42f6-b019-4fea02a5334d","ios":"levelo://app?vid=1c0b7094-0cd1-42f6-b019-4fea02a5334d"},"vehicle_type_id":"4","last_reported":1731654552,"current_range_meters":20400,"station_id":"ce4bhb12rcd13ifvqem0","pricing_plan_id":"cebpf4jnsgd1na2vs0mg"},{"bike_id":"354f040a-9ab6-488a-9d26-4c39ec3baaa7","system_id":"levelo_inurba_marseille","lat":43.23195,"lon":5.35567,"is_reserved":false,"is_disabled":false,"rental_uris":{"android":"levelo://app?vid=354f040a-9ab6-488a-9d26-4c39ec3baaa7","ios":"levelo://app?vid=354f040a-9ab6-488a-9d26-4c39ec3baaa7"},"vehicle_type_id":"4","last_reported":1731654552,"current_range_meters":39200,"station_id":"ce4bhu92rcd13ifvqi70","pricing_plan_id":"cebpf4jnsgd1na2vs0mg"},{"bike_id":"a62ce2e1-162d-47cf-a256-817ab6c6e385","system_id":"levelo_inurba_marseille","lat":43.25497,"lon":5.37647,"is_reserved":false,"is_disabled":false,"rental_uris":{"android":"levelo://app?vid=a62ce2e1-162d-47cf-a256-817ab6c6e385","ios":"levelo://app?vid=a62ce2e1-162d-47cf-a256-817ab6c6e385"},"vehicle_type_id":"4","last_reported":1731654552,"current_range_meters":37600,"station_id":"ce4bhh12rcd13ifvqff0","pricing_plan_id":"cebpf4jnsgd1na2vs0mg"},{"bike_id":"9e9b8741-981e-4ce4-9777-8bfa675fdb4e","system_id":"levelo_inurba_marseille","lat":43.295751,"lon":5.399791,"is_reserved":false,"is_disabled":false,"rental_uris":{"android":"levelo://app?vid=9e9b8741-981e-4ce4-9777-8bfa675fdb4e","ios":"levelo://app?vid=9e9b8741-981e-4ce4-9777-8bfa675fdb4e"},"vehicle_type_id":"4","last_reported":1731654552,"current_range_meters":19600,"station_id":"","pricing_plan_id":"cebpf4jnsgd1na2vs0mg"},{"bike_id":"f9c4c7cc-863a-465e-be93-a6fb0ac2fc47","system_id":"levelo_inurba_marseille","lat":43.28924,"lon":5.39613,"is_reserved":false,"is_disabled":false,"rental_uris":{"android":"levelo://app?vid=f9c4c7cc-863a-465e-be93-a6fb0ac2fc47","ios":"levelo://app?vid=f9c4c7cc-863a-465e-be93-a6fb0ac2fc47"},"vehicle_type_id":"4","last_reported":1731654552,"current_range_meters":5600,"station_id":"ce4bh3h2rcd13ifvqdn0","pricing_plan_id":"cebpf4jnsgd1na2vs0mg"},{"bike_id":"6c6197b3-07d1-4225-a3b8-efd5a300d58a","system_id":"levelo_inurba_marseille","lat":43.24084,"lon":5.37751,"is_reserved":false,"is_disabled":false,"rental_uris":{"android":"levelo://app?vid=6c6197b3-07d1-4225-a3b8-efd5a300d58a","ios":"levelo://app?vid=6c6197b3-07d1-4225-a3b8-efd5a300d58a"},"vehicle_type_id":"4","last_reported":1731654552,"current_range_meters":12400,"station_id":"ce4bhnp2rcd13ifvqgvg","pricing_plan_id":"cebpf4jnsgd1na2vs0mg"},{"bike_id":"d7939f0a-fb48-49b4-8d16-59d70ebaf709","system_id":"levelo_inurba_marseille","lat":43.2408,"lon":5.37751,"is_reserved":false,"is_disabled":false,"rental_uris":{"android":"levelo://app?vid=d7939f0a-fb48-49b4-8d16-59d70ebaf709","ios":"levelo://app?vid=d7939f0a-fb48-49b4-8d16-59d70ebaf709"},"vehicle_type_id":"4","last_reported":1731654552,"current_range_meters":36800,"station_id":"ce4bhnp2rcd13ifvqgvg","pricing_plan_id":"cebpf4jnsgd1na2vs0mg"},{"bike_id":"4a74f469-1d99-48ee-a8ca-9199898c00a4","system_id":"levelo_inurba_marseille","lat":43.23197,"lon":5.35544,"is_reserved":false,"is_disabled":false,"rental_uris":{"android":"levelo://app?vid=4a74f469-1d99-48ee-a8ca-9199898c00a4","ios":"levelo://app?vid=4a74f469-1d99-48ee-a8ca-9199898c00a4"},"vehicle_type_id":"4","last_reported":1731654552,"current_range_meters":16400,"station_id":"ce4bhu92rcd13ifvqi70","pricing_plan_id":"cebpf4jnsgd1na2vs0mg"},{"bike_id":"d13a87f9-953a-4c4d-9d1f-b8db7eaf93ea","system_id":"levelo_inurba_marseille","lat":43.30321,"lon":5.40457,"is_reserved":false,"is_disabled":false,"rental_uris":{"android":"levelo://app?vid=d13a87f9-953a-4c4d-9d1f-b8db7eaf93ea","ios":"levelo://app?vid=d13a87f9-953a-4c4d-9d1f-b8db7eaf93ea"},"vehicle_type_id":"4","last_reported":1731654552,"current_range_meters":30800,"station_id":"ce4bh012rcd13ifvqd10","pricing_plan_id":"cebpf4jnsgd1na2vs0mg"},{"bike_id":"f1f664cf-43f1-46b2-b12b-9111374546e1","system_id":"levelo_inurba_marseille","lat":43.308044,"lon":5.38154,"is_reserved":false,"is_disabled":false,"rental_uris":{"android":"levelo://app?vid=f1f664cf-43f1-46b2-b12b-9111374546e1","ios":"levelo://app?vid=f1f664cf-43f1-46b2-b12b-9111374546e1"},"vehicle_type_id":"4","last_reported":1731654552,"current_range_meters":38800,"station_id":"ce4bgt12rcd13ifvqce0","pricing_plan_id":"cebpf4jnsgd1na2vs0mg"},{"bike_id":"5a9487f5-1f4a-4526-91df-278697abb58b","system_id":"levelo_inurba_marseille","lat":43.28159,"lon":5.4264,"is_reserved":false,"is_disabled":false,"rental_uris":{"android":"levelo://app?vid=5a9487f5-1f4a-4526-91df-278697abb58b","ios":"levelo://app?vid=5a9487f5-1f4a-4526-91df-278697abb58b"},"vehicle_type_id":"4","last_reported":1731654552,"current_range_meters":20800,"station_id":"ce4bhnh2rcd13ifvqgug","pricing_plan_id":"cebpf4jnsgd1na2vs0mg"},{"bike_id":"5204955c-d822-48f7-91b1-f5a2e1506275","system_id":"levelo_inurba_marseille","lat":43.305389,"lon":5.384195,"is_reserved":false,"is_disabled":false,"rental_uris":{"android":"levelo://app?vid=5204955c-d822-48f7-91b1-f5a2e1506275","ios":"levelo://app?vid=5204955c-d822-48f7-91b1-f5a2e1506275"},"vehicle_type_id":"4","last_reported":1731654552,"current_range_meters":31200,"station_id":"ce4bgg92rcd13ifvqb30","pricing_plan_id":"cebpf4jnsgd1na2vs0mg"},{"bike_id":"ac9ff0e2-0c2f-4cb0-8b16-0d7bb3087fdf","system_id":"levelo_inurba_marseille","lat":43.26932,"lon":5.38675,"is_reserved":false,"is_disabled":false,"rental_uris":{"android":"levelo://app?vid=ac9ff0e2-0c2f-4cb0-8b16-0d7bb3087fdf","ios":"levelo://app?vid=ac9ff0e2-0c2f-4cb0-8b16-0d7bb3087fdf"},"vehicle_type_id":"4","last_reported":1731654552,"current_range_meters":38800,"station_id":"ce4bhh92rcd13ifvqfh0","pricing_plan_id":"cebpf4jnsgd1na2vs0mg"},{"bike_id":"463ca339-580c-473e-baa5-641c4124bd2f","system_id":"levelo_inurba_marseille","lat":43.304603,"lon":5.379103,"is_reserved":false,"is_disabled":false,"rental_uris":{"android":"levelo://app?vid=463ca339-580c-473e-baa5-641c4124bd2f","ios":"levelo://app?vid=463ca339-580c-473e-baa5-641c4124bd2f"},"vehicle_type_id":"4","last_reported":1731654552,"current_range_meters":38000,"station_id":"ce4bgup2rcd13ifvqcn0","pricing_plan_id":"cebpf4jnsgd1na2vs0mg"},{"bike_id":"e14d3179-25f4-4e9e-85d4-673c26ed9bf4","system_id":"levelo_inurba_marseille","lat":43.26496,"lon":5.39536,"is_reserved":false,"is_disabled":false,"rental_uris":{"android":"levelo://app?vid=e14d3179-25f4-4e9e-85d4-673c26ed9bf4","ios":"levelo://app?vid=e14d3179-25f4-4e9e-85d4-673c26ed9bf4"},"vehicle_type_id":"4","last_reported":1731654552,"current_range_meters":8000,"station_id":"ce4bho12rcd13ifvqh2g","pricing_plan_id":"cebpf4jnsgd1na2vs0mg"},{"bike_id":"2c35c49c-dc15-40b0-90c8-c6504305c667","system_id":"levelo_inurba_marseille","lat":43.28709,"lon":5.36086,"is_reserved":false,"is_disabled":false,"rental_uris":{"android":"levelo://app?vid=2c35c49c-dc15-40b0-90c8-c6504305c667","ios":"levelo://app?vid=2c35c49c-dc15-40b0-90c8-c6504305c667"},"vehicle_type_id":"4","last_reported":1731654552,"current_range_meters":39200,"station_id":"cki0cbj6b192h4jlfktg","pricing_plan_id":"cebpf4jnsgd1na2vs0mg"},{"bike_id":"e6b2404b-e77a-4515-8f94-871239c346bd","system_id":"levelo_inurba_marseille","lat":43.28755,"lon":5.37778,"is_reserved":false,"is_disabled":false,"rental_uris":{"android":"levelo://app?vid=e6b2404b-e77a-4515-8f94-871239c346bd","ios":"levelo://app?vid=e6b2404b-e77a-4515-8f94-871239c346bd"},"vehicle_type_id":"4","last_reported":1731654552,"current_range_meters":38000,"station_id":"ce4bha12rcd13ifvqef0","pricing_plan_id":"cebpf4jnsgd1na2vs0mg"},{"bike_id":"34894f31-0d58-4b99-bedf-fbccfa834d04","system_id":"levelo_inurba_marseille","lat":43.24002,"lon":5.37664,"is_reserved":false,"is_disabled":false,"rental_uris":{"android":"levelo://app?vid=34894f31-0d58-4b99-bedf-fbccfa834d04","ios":"levelo://app?vid=34894f31-0d58-4b99-bedf-fbccfa834d04"},"vehicle_type_id":"4","last_reported":1731654552,"current_range_meters":36800,"station_id":"ce4bhnp2rcd13ifvqgvg","pricing_plan_id":"cebpf4jnsgd1na2vs0mg"},{"bike_id":"81117fe0-1e47-4966-a7e0-0145c8ef9c98","system_id":"levelo_inurba_marseille","lat":43.25856,"lon":5.39915,"is_reserved":false,"is_disabled":false,"rental_uris":{"android":"levelo://app?vid=81117fe0-1e47-4966-a7e0-0145c8ef9c98","ios":"levelo://app?vid=81117fe0-1e47-4966-a7e0-0145c8ef9c98"},"vehicle_type_id":"4","last_reported":1731654552,"current_range_meters":2800,"station_id":"ce4bhl92rcd13ifvqghg","pricing_plan_id":"cebpf4jnsgd1na2vs0mg"},{"bike_id":"1cd6853f-ffdd-4358-bc58-45b6b9d8d7be","system_id":"levelo_inurba_marseille","lat":43.28845,"lon":5.35848,"is_reserved":false,"is_disabled":false,"rental_uris":{"android":"levelo://app?vid=1cd6853f-ffdd-4358-bc58-45b6b9d8d7be","ios":"levelo://app?vid=1cd6853f-ffdd-4358-bc58-45b6b9d8d7be"},"vehicle_type_id":"4","last_reported":1731654552,"current_range_meters":36800,"station_id":"ce4bhb12rcd13ifvqem0","pricing_plan_id":"cebpf4jnsgd1na2vs0mg"},{"bike_id":"29da23e5-7829-4e08-946f-9b695f56e469","system_id":"levelo_inurba_marseille","lat":43.25937,"lon":5.40906,"is_reserved":false,"is_disabled":false,"rental_uris":{"android":"levelo://app?vid=29da23e5-7829-4e08-946f-9b695f56e469","ios":"levelo://app?vid=29da23e5-7829-4e08-946f-9b695f56e469"},"vehicle_type_id":"4","last_reported":1731654552,"current_range_meters":31200,"station_id":"ce4bhm92rcd13ifvqglg","pricing_plan_id":"cebpf4jnsgd1na2vs0mg"},{"bike_id":"035cc09f-5965-49b7-ba42-6ddf5ce96b29","system_id":"levelo_inurba_marseille","lat":43.29839,"lon":5.36265,"is_reserved":false,"is_disabled":false,"rental_uris":{"android":"levelo://app?vid=035cc09f-5965-49b7-ba42-6ddf5ce96b29","ios":"levelo://app?vid=035cc09f-5965-49b7-ba42-6ddf5ce96b29"},"vehicle_type_id":"4","last_reported":1731654552,"current_range_meters":36000,"station_id":"ce4bgpp2rcd13ifvqc3g","pricing_plan_id":"cebpf4jnsgd1na2vs0mg"},{"bike_id":"8952161e-ca98-4ae9-960a-2b69d6f9f38e","system_id":"levelo_inurba_marseille","lat":43.34139,"lon":5.40903,"is_reserved":false,"is_disabled":false,"rental_uris":{"android":"levelo://app?vid=8952161e-ca98-4ae9-960a-2b69d6f9f38e","ios":"levelo://app?vid=8952161e-ca98-4ae9-960a-2b69d6f9f38e"},"vehicle_type_id":"4","last_reported":1731654552,"current_range_meters":18800,"station_id":"ce4bhqh2rcd13ifvqhlg","pricing_plan_id":"cebpf4jnsgd1na2vs0mg"},{"bike_id":"f8793596-d265-4a20-841d-c22c3830da6f","system_id":"levelo_inurba_marseille","lat":43.29604,"lon":5.38097,"is_reserved":false,"is_disabled":false,"rental_uris":{"android":"levelo://app?vid=f8793596-d265-4a20-841d-c22c3830da6f","ios":"levelo://app?vid=f8793596-d265-4a20-841d-c22c3830da6f"},"vehicle_type_id":"4","last_reported":1731654552,"current_range_meters":27600,"station_id":"ce4bgl12rcd13ifvqbo0","pricing_plan_id":"cebpf4jnsgd1na2vs0mg"},{"bike_id":"fa72eb15-f7eb-4a38-971b-148c4a6a30f3","system_id":"levelo_inurba_marseille","lat":43.270721,"lon":5.422816,"is_reserved":false,"is_disabled":false,"rental_uris":{"android":"levelo://app?vid=fa72eb15-f7eb-4a38-971b-148c4a6a30f3","ios":"levelo://app?vid=fa72eb15-f7eb-4a38-971b-148c4a6a30f3"},"vehicle_type_id":"4","last_reported":1731654552,"current_range_meters":35600,"station_id":"ce4bhk92rcd13ifvqgb0","pricing_plan_id":"cebpf4jnsgd1na2vs0mg"},{"bike_id":"d728a349-ebfd-458d-861e-629eb0fb3d32","system_id":"levelo_inurba_marseille","lat":43.29047,"lon":5.39965,"is_reserved":false,"is_disabled":false,"rental_uris":{"android":"levelo://app?vid=d728a349-ebfd-458d-861e-629eb0fb3d32","ios":"levelo://app?vid=d728a349-ebfd-458d-861e-629eb0fb3d32"},"vehicle_type_id":"4","last_reported":1731654552,"current_range_meters":39200,"station_id":"ce4bh392rcd13ifvqdm0","pricing_plan_id":"cebpf4jnsgd1na2vs0mg"},{"bike_id":"a6dcc830-39bc-4857-934b-df62e8ea4f60","system_id":"levelo_inurba_marseille","lat":43.25582,"lon":5.38236,"is_reserved":false,"is_disabled":false,"rental_uris":{"android":"levelo://app?vid=a6dcc830-39bc-4857-934b-df62e8ea4f60","ios":"levelo://app?vid=a6dcc830-39bc-4857-934b-df62e8ea4f60"},"vehicle_type_id":"4","last_reported":1731654552,"current_range_meters":38800,"station_id":"ce4bhih2rcd13ifvqfs0","pricing_plan_id":"cebpf4jnsgd1na2vs0mg"},{"bike_id":"631284bc-ca79-4566-a19e-c81968ea3fef","system_id":"levelo_inurba_marseille","lat":43.26691,"lon":5.38274,"is_reserved":false,"is_disabled":false,"rental_uris":{"android":"levelo://app?vid=631284bc-ca79-4566-a19e-c81968ea3fef","ios":"levelo://app?vid=631284bc-ca79-4566-a19e-c81968ea3fef"},"vehicle_type_id":"4","last_reported":1731654552,"current_range_meters":30800,"station_id":"ce4bhg92rcd13ifvqf90","pricing_plan_id":"cebpf4jnsgd1na2vs0mg"},{"bike_id":"c6e04a43-3418-458b-9a90-0b78a9d19bbc","system_id":"levelo_inurba_marseille","lat":43.31885,"lon":5.40733,"is_reserved":false,"is_disabled":false,"rental_uris":{"android":"levelo://app?vid=c6e04a43-3418-458b-9a90-0b78a9d19bbc","ios":"levelo://app?vid=c6e04a43-3418-458b-9a90-0b78a9d19bbc"},"vehicle_type_id":"4","last_reported":1731654552,"current_range_meters":38800,"station_id":"ce4bhq12rcd13ifvqhig","pricing_plan_id":"cebpf4jnsgd1na2vs0mg"},{"bike_id":"ef84c36a-bdb0-406d-a359-aa4456953a93","system_id":"levelo_inurba_marseille","lat":43.33606,"lon":5.4103,"is_reserved":false,"is_disabled":false,"rental_uris":{"android":"levelo://app?vid=ef84c36a-bdb0-406d-a359-aa4456953a93","ios":"levelo://app?vid=ef84c36a-bdb0-406d-a359-aa4456953a93"},"vehicle_type_id":"4","last_reported":1731654552,"current_range_meters":28400,"station_id":"ce4bhqh2rcd13ifvqhmg","pricing_plan_id":"cebpf4jnsgd1na2vs0mg"},{"bike_id":"9b2b2486-f3ad-43dd-9972-051be7f2ddba","system_id":"levelo_inurba_marseille","lat":43.28151,"lon":5.42641,"is_reserved":false,"is_disabled":false,"rental_uris":{"android":"levelo://app?vid=9b2b2486-f3ad-43dd-9972-051be7f2ddba","ios":"levelo://app?vid=9b2b2486-f3ad-43dd-9972-051be7f2ddba"},"vehicle_type_id":"4","last_reported":1731654552,"current_range_meters":36800,"station_id":"ce4bhnh2rcd13ifvqgug","pricing_plan_id":"cebpf4jnsgd1na2vs0mg"},{"bike_id":"675fe710-f9e5-46cf-95f1-88cbcbaf9606","system_id":"levelo_inurba_marseille","lat":43.28145,"lon":5.42641,"is_reserved":false,"is_disabled":false,"rental_uris":{"android":"levelo://app?vid=675fe710-f9e5-46cf-95f1-88cbcbaf9606","ios":"levelo://app?vid=675fe710-f9e5-46cf-95f1-88cbcbaf9606"},"vehicle_type_id":"4","last_reported":1731654552,"current_range_meters":27200,"station_id":"ce4bhnh2rcd13ifvqgug","pricing_plan_id":"cebpf4jnsgd1na2vs0mg"},{"bike_id":"bb65540a-63bf-482e-ae28-4c05953402e5","system_id":"levelo_inurba_marseille","lat":43.23177,"lon":5.39985,"is_reserved":false,"is_disabled":false,"rental_uris":{"android":"levelo://app?vid=bb65540a-63bf-482e-ae28-4c05953402e5","ios":"levelo://app?vid=bb65540a-63bf-482e-ae28-4c05953402e5"},"vehicle_type_id":"4","last_reported":1731654552,"current_range_meters":6800,"station_id":"ce4bhn12rcd13ifvqgqg","pricing_plan_id":"cebpf4jnsgd1na2vs0mg"},{"bike_id":"79a42525-dd01-42c5-8a0a-ea887488687e","system_id":"levelo_inurba_marseille","lat":43.309,"lon":5.39608,"is_reserved":false,"is_disabled":false,"rental_uris":{"android":"levelo://app?vid=79a42525-dd01-42c5-8a0a-ea887488687e","ios":"levelo://app?vid=79a42525-dd01-42c5-8a0a-ea887488687e"},"vehicle_type_id":"4","last_reported":1731654552,"current_range_meters":25200,"station_id":"ce4bh0p2rcd13ifvqd80","pricing_plan_id":"cebpf4jnsgd1na2vs0mg"},{"bike_id":"a271cbfc-3cc6-4a9e-bc9d-57e735019ddf","system_id":"levelo_inurba_marseille","lat":43.31516,"lon":5.389519,"is_reserved":false,"is_disabled":false,"rental_uris":{"android":"levelo://app?vid=a271cbfc-3cc6-4a9e-bc9d-57e735019ddf","ios":"levelo://app?vid=a271cbfc-3cc6-4a9e-bc9d-57e735019ddf"},"vehicle_type_id":"4","last_reported":1731654552,"current_range_meters":30400,"station_id":"","pricing_plan_id":"cebpf4jnsgd1na2vs0mg"},{"bike_id":"19403e5b-9388-47f8-803d-8d1235a538c6","system_id":"levelo_inurba_marseille","lat":43.23189,"lon":5.35548,"is_reserved":false,"is_disabled":false,"rental_uris":{"android":"levelo://app?vid=19403e5b-9388-47f8-803d-8d1235a538c6","ios":"levelo://app?vid=19403e5b-9388-47f8-803d-8d1235a538c6"},"vehicle_type_id":"4","last_reported":1731654552,"current_range_meters":38400,"station_id":"ce4bhu92rcd13ifvqi70","pricing_plan_id":"cebpf4jnsgd1na2vs0mg"},{"bike_id":"43da6cda-e917-45fb-8057-6df6961ab9cb","system_id":"levelo_inurba_marseille","lat":43.2407,"lon":5.3776,"is_reserved":false,"is_disabled":false,"rental_uris":{"android":"levelo://app?vid=43da6cda-e917-45fb-8057-6df6961ab9cb","ios":"levelo://app?vid=43da6cda-e917-45fb-8057-6df6961ab9cb"},"vehicle_type_id":"4","last_reported":1731654552,"current_range_meters":34800,"station_id":"ce4bhnp2rcd13ifvqgvg","pricing_plan_id":"cebpf4jnsgd1na2vs0mg"},{"bike_id":"6352576b-2d4e-4c20-9ef7-078abbcef6c3","system_id":"levelo_inurba_marseille","lat":43.293823,"lon":5.373127,"is_reserved":false,"is_disabled":false,"rental_uris":{"android":"levelo://app?vid=6352576b-2d4e-4c20-9ef7-078abbcef6c3","ios":"levelo://app?vid=6352576b-2d4e-4c20-9ef7-078abbcef6c3"},"vehicle_type_id":"4","last_reported":1731654552,"current_range_meters":32400,"station_id":"ce4bgj92rcd13ifvqbd0","pricing_plan_id":"cebpf4jnsgd1na2vs0mg"},{"bike_id":"9a8b7443-707a-4209-b2c8-7cb879bc18a4","system_id":"levelo_inurba_marseille","lat":43.23177,"lon":5.39986,"is_reserved":false,"is_disabled":false,"rental_uris":{"android":"levelo://app?vid=9a8b7443-707a-4209-b2c8-7cb879bc18a4","ios":"levelo://app?vid=9a8b7443-707a-4209-b2c8-7cb879bc18a4"},"vehicle_type_id":"4","last_reported":1731654552,"current_range_meters":6400,"station_id":"ce4bhn12rcd13ifvqgqg","pricing_plan_id":"cebpf4jnsgd1na2vs0mg"},{"bike_id":"be47f708-3394-482d-a45e-2fb545b5154a","system_id":"levelo_inurba_marseille","lat":43.30139,"lon":5.38059,"is_reserved":false,"is_disabled":false,"rental_uris":{"android":"levelo://app?vid=be47f708-3394-482d-a45e-2fb545b5154a","ios":"levelo://app?vid=be47f708-3394-482d-a45e-2fb545b5154a"},"vehicle_type_id":"4","last_reported":1731654552,"current_range_meters":27200,"station_id":"ce4bgjp2rcd13ifvqbh0","pricing_plan_id":"cebpf4jnsgd1na2vs0mg"},{"bike_id":"1bda7f93-5e07-4d55-9634-1c55956005d0","system_id":"levelo_inurba_marseille","lat":43.25867,"lon":5.39899,"is_reserved":false,"is_disabled":false,"rental_uris":{"android":"levelo://app?vid=1bda7f93-5e07-4d55-9634-1c55956005d0","ios":"levelo://app?vid=1bda7f93-5e07-4d55-9634-1c55956005d0"},"vehicle_type_id":"4","last_reported":1731654552,"current_range_meters":39200,"station_id":"ce4bhl92rcd13ifvqghg","pricing_plan_id":"cebpf4jnsgd1na2vs0mg"},{"bike_id":"b072887a-59f6-489d-a913-b30b574c5300","system_id":"levelo_inurba_marseille","lat":43.2791,"lon":5.41228,"is_reserved":false,"is_disabled":false,"rental_uris":{"android":"levelo://app?vid=b072887a-59f6-489d-a913-b30b574c5300","ios":"levelo://app?vid=b072887a-59f6-489d-a913-b30b574c5300"},"vehicle_type_id":"4","last_reported":1731654552,"current_range_meters":2000,"station_id":"","pricing_plan_id":"cebpf4jnsgd1na2vs0mg"},{"bike_id":"d99bff46-e3e0-4c25-9719-3fa3dd9a1a6e","system_id":"levelo_inurba_marseille","lat":43.31874,"lon":5.37364,"is_reserved":false,"is_disabled":false,"rental_uris":{"android":"levelo://app?vid=d99bff46-e3e0-4c25-9719-3fa3dd9a1a6e","ios":"levelo://app?vid=d99bff46-e3e0-4c25-9719-3fa3dd9a1a6e"},"vehicle_type_id":"4","last_reported":1731654552,"current_range_meters":20000,"station_id":"","pricing_plan_id":"cebpf4jnsgd1na2vs0mg"},{"bike_id":"61e4d8f2-6ee3-4d4d-86ee-2c2682bb17bc","system_id":"levelo_inurba_marseille","lat":43.26057,"lon":5.39393,"is_reserved":false,"is_disabled":false,"rental_uris":{"android":"levelo://app?vid=61e4d8f2-6ee3-4d4d-86ee-2c2682bb17bc","ios":"levelo://app?vid=61e4d8f2-6ee3-4d4d-86ee-2c2682bb17bc"},"vehicle_type_id":"4","last_reported":1731654552,"current_range_meters":38400,"station_id":"ce4bhh92rcd13ifvqfj0","pricing_plan_id":"cebpf4jnsgd1na2vs0mg"},{"bike_id":"30aa79f1-0668-46be-86d8-f310708ee696","system_id":"levelo_inurba_marseille","lat":43.32541,"lon":5.41419,"is_reserved":false,"is_disabled":false,"rental_uris":{"android":"levelo://app?vid=30aa79f1-0668-46be-86d8-f310708ee696","ios":"levelo://app?vid=30aa79f1-0668-46be-86d8-f310708ee696"},"vehicle_type_id":"4","last_reported":1731654552,"current_range_meters":35600,"station_id":"ce4bhq12rcd13ifvqhhg","pricing_plan_id":"cebpf4jnsgd1na2vs0mg"},{"bike_id":"1d74bc52-c8fd-442b-946b-e61aa82e32f3","system_id":"levelo_inurba_marseille","lat":43.28399,"lon":5.37514,"is_reserved":false,"is_disabled":false,"rental_uris":{"android":"levelo://app?vid=1d74bc52-c8fd-442b-946b-e61aa82e32f3","ios":"levelo://app?vid=1d74bc52-c8fd-442b-946b-e61aa82e32f3"},"vehicle_type_id":"4","last_reported":1731654552,"current_range_meters":37600,"station_id":"ce4bh412rcd13ifvqds0","pricing_plan_id":"cebpf4jnsgd1na2vs0mg"},{"bike_id":"4d6402b1-57e5-4b0a-b809-dd29febde586","system_id":"levelo_inurba_marseille","lat":43.31509,"lon":5.3683,"is_reserved":false,"is_disabled":false,"rental_uris":{"android":"levelo://app?vid=4d6402b1-57e5-4b0a-b809-dd29febde586","ios":"levelo://app?vid=4d6402b1-57e5-4b0a-b809-dd29febde586"},"vehicle_type_id":"4","last_reported":1731654552,"current_range_meters":31200,"station_id":"","pricing_plan_id":"cebpf4jnsgd1na2vs0mg"},{"bike_id":"4a8ed5b0-4e4b-4951-a226-d3fea4f209e8","system_id":"levelo_inurba_marseille","lat":43.24065,"lon":5.37764,"is_reserved":false,"is_disabled":false,"rental_uris":{"android":"levelo://app?vid=4a8ed5b0-4e4b-4951-a226-d3fea4f209e8","ios":"levelo://app?vid=4a8ed5b0-4e4b-4951-a226-d3fea4f209e8"},"vehicle_type_id":"4","last_reported":1731654552,"current_range_meters":36400,"station_id":"ce4bhnp2rcd13ifvqgvg","pricing_plan_id":"cebpf4jnsgd1na2vs0mg"},{"bike_id":"7015429c-3fca-4ff6-ab7b-94f13686a091","system_id":"levelo_inurba_marseille","lat":43.28979,"lon":5.3782,"is_reserved":false,"is_disabled":false,"rental_uris":{"android":"levelo://app?vid=7015429c-3fca-4ff6-ab7b-94f13686a091","ios":"levelo://app?vid=7015429c-3fca-4ff6-ab7b-94f13686a091"},"vehicle_type_id":"4","last_reported":1731654552,"current_range_meters":36400,"station_id":"ce4bh9p2rcd13ifvqed0","pricing_plan_id":"cebpf4jnsgd1na2vs0mg"},{"bike_id":"37e0ee0a-c66c-4d73-99dd-5992924a2160","system_id":"levelo_inurba_marseille","lat":43.2848,"lon":5.3855,"is_reserved":false,"is_disabled":false,"rental_uris":{"android":"levelo://app?vid=37e0ee0a-c66c-4d73-99dd-5992924a2160","ios":"levelo://app?vid=37e0ee0a-c66c-4d73-99dd-5992924a2160"},"vehicle_type_id":"4","last_reported":1731654552,"current_range_meters":30000,"station_id":"ce4bh8p2rcd13ifvqeb0","pricing_plan_id":"cebpf4jnsgd1na2vs0mg"},{"bike_id":"3f1eab25-bbd0-4519-b2ce-b4566d191542","system_id":"levelo_inurba_marseille","lat":43.25091,"lon":5.39513,"is_reserved":false,"is_disabled":false,"rental_uris":{"android":"levelo://app?vid=3f1eab25-bbd0-4519-b2ce-b4566d191542","ios":"levelo://app?vid=3f1eab25-bbd0-4519-b2ce-b4566d191542"},"vehicle_type_id":"4","last_reported":1731654552,"current_range_meters":37600,"station_id":"ce4bhm12rcd13ifvqgkg","pricing_plan_id":"cebpf4jnsgd1na2vs0mg"},{"bike_id":"9ac599f0-c3db-40c1-b15c-489906c4382b","system_id":"levelo_inurba_marseille","lat":43.24082,"lon":5.3775,"is_reserved":false,"is_disabled":false,"rental_uris":{"android":"levelo://app?vid=9ac599f0-c3db-40c1-b15c-489906c4382b","ios":"levelo://app?vid=9ac599f0-c3db-40c1-b15c-489906c4382b"},"vehicle_type_id":"4","last_reported":1731654552,"current_range_meters":3200,"station_id":"ce4bhnp2rcd13ifvqgvg","pricing_plan_id":"cebpf4jnsgd1na2vs0mg"},{"bike_id":"72dd01d5-2d7b-4f43-9da1-d3f63be1cf70","system_id":"levelo_inurba_marseille","lat":43.30462,"lon":5.37916,"is_reserved":false,"is_disabled":false,"rental_uris":{"android":"levelo://app?vid=72dd01d5-2d7b-4f43-9da1-d3f63be1cf70","ios":"levelo://app?vid=72dd01d5-2d7b-4f43-9da1-d3f63be1cf70"},"vehicle_type_id":"4","last_reported":1731654552,"current_range_meters":28800,"station_id":"ce4bgup2rcd13ifvqcn0","pricing_plan_id":"cebpf4jnsgd1na2vs0mg"},{"bike_id":"528fcffa-9378-46a5-b6c4-13cccc0cf5df","system_id":"levelo_inurba_marseille","lat":43.27494,"lon":5.42451,"is_reserved":false,"is_disabled":false,"rental_uris":{"android":"levelo://app?vid=528fcffa-9378-46a5-b6c4-13cccc0cf5df","ios":"levelo://app?vid=528fcffa-9378-46a5-b6c4-13cccc0cf5df"},"vehicle_type_id":"4","last_reported":1731654552,"current_range_meters":34800,"station_id":"ce4bhn92rcd13ifvqgrg","pricing_plan_id":"cebpf4jnsgd1na2vs0mg"},{"bike_id":"b62cae68-a6eb-436e-b41f-3230e36152a0","system_id":"levelo_inurba_marseille","lat":43.32536,"lon":5.41423,"is_reserved":false,"is_disabled":false,"rental_uris":{"android":"levelo://app?vid=b62cae68-a6eb-436e-b41f-3230e36152a0","ios":"levelo://app?vid=b62cae68-a6eb-436e-b41f-3230e36152a0"},"vehicle_type_id":"4","last_reported":1731654552,"current_range_meters":15200,"station_id":"ce4bhq12rcd13ifvqhhg","pricing_plan_id":"cebpf4jnsgd1na2vs0mg"},{"bike_id":"56f5a57f-a613-4e55-bf8b-f1bd6d289526","system_id":"levelo_inurba_marseille","lat":43.31069,"lon":5.3835,"is_reserved":false,"is_disabled":false,"rental_uris":{"android":"levelo://app?vid=56f5a57f-a613-4e55-bf8b-f1bd6d289526","ios":"levelo://app?vid=56f5a57f-a613-4e55-bf8b-f1bd6d289526"},"vehicle_type_id":"4","last_reported":1731654552,"current_range_meters":30800,"station_id":"ce4bgv92rcd13ifvqcr0","pricing_plan_id":"cebpf4jnsgd1na2vs0mg"},{"bike_id":"c0baf966-c915-479a-936e-2ec6e745b907","system_id":"levelo_inurba_marseille","lat":43.30468,"lon":5.37907,"is_reserved":false,"is_disabled":false,"rental_uris":{"android":"levelo://app?vid=c0baf966-c915-479a-936e-2ec6e745b907","ios":"levelo://app?vid=c0baf966-c915-479a-936e-2ec6e745b907"},"vehicle_type_id":"4","last_reported":1731654552,"current_range_meters":18800,"station_id":"ce4bgup2rcd13ifvqcn0","pricing_plan_id":"cebpf4jnsgd1na2vs0mg"},{"bike_id":"2a97d39a-5c5c-410e-a461-278743d89b87","system_id":"levelo_inurba_marseille","lat":43.29797,"lon":5.381,"is_reserved":false,"is_disabled":false,"rental_uris":{"android":"levelo://app?vid=2a97d39a-5c5c-410e-a461-278743d89b87","ios":"levelo://app?vid=2a97d39a-5c5c-410e-a461-278743d89b87"},"vehicle_type_id":"4","last_reported":1731654552,"current_range_meters":36400,"station_id":"ce4bgip2rcd13ifvqbb0","pricing_plan_id":"cebpf4jnsgd1na2vs0mg"},{"bike_id":"62a400bb-9b7a-4c31-8a10-596f348a6827","system_id":"levelo_inurba_marseille","lat":43.24081,"lon":5.37751,"is_reserved":false,"is_disabled":false,"rental_uris":{"android":"levelo://app?vid=62a400bb-9b7a-4c31-8a10-596f348a6827","ios":"levelo://app?vid=62a400bb-9b7a-4c31-8a10-596f348a6827"},"vehicle_type_id":"4","last_reported":1731654552,"current_range_meters":35600,"station_id":"ce4bhnp2rcd13ifvqgvg","pricing_plan_id":"cebpf4jnsgd1na2vs0mg"},{"bike_id":"898343a1-2642-491c-a1ab-47e0e0534d2f","system_id":"levelo_inurba_marseille","lat":43.33611,"lon":5.41026,"is_reserved":false,"is_disabled":false,"rental_uris":{"android":"levelo://app?vid=898343a1-2642-491c-a1ab-47e0e0534d2f","ios":"levelo://app?vid=898343a1-2642-491c-a1ab-47e0e0534d2f"},"vehicle_type_id":"4","last_reported":1731654552,"current_range_meters":11600,"station_id":"ce4bhqh2rcd13ifvqhmg","pricing_plan_id":"cebpf4jnsgd1na2vs0mg"},{"bike_id":"fcc9aced-cb9a-4269-86b0-b8969f1f6075","system_id":"levelo_inurba_marseille","lat":43.30531,"lon":5.36719,"is_reserved":false,"is_disabled":false,"rental_uris":{"android":"levelo://app?vid=fcc9aced-cb9a-4269-86b0-b8969f1f6075","ios":"levelo://app?vid=fcc9aced-cb9a-4269-86b0-b8969f1f6075"},"vehicle_type_id":"4","last_reported":1731654552,"current_range_meters":37600,"station_id":"ce4bgrp2rcd13ifvqc9g","pricing_plan_id":"cebpf4jnsgd1na2vs0mg"},{"bike_id":"fd43e2a4-18c0-434c-8ec3-7f9c15d13d11","system_id":"levelo_inurba_marseille","lat":43.27829,"lon":5.39206,"is_reserved":false,"is_disabled":false,"rental_uris":{"android":"levelo://app?vid=fd43e2a4-18c0-434c-8ec3-7f9c15d13d11","ios":"levelo://app?vid=fd43e2a4-18c0-434c-8ec3-7f9c15d13d11"},"vehicle_type_id":"4","last_reported":1731654552,"current_range_meters":33200,"station_id":"ce4bhjp2rcd13ifvqga0","pricing_plan_id":"cebpf4jnsgd1na2vs0mg"},{"bike_id":"443a10aa-b3ee-4084-a763-3dcf6407cc16","system_id":"levelo_inurba_marseille","lat":43.30919,"lon":5.40145,"is_reserved":false,"is_disabled":false,"rental_uris":{"android":"levelo://app?vid=443a10aa-b3ee-4084-a763-3dcf6407cc16","ios":"levelo://app?vid=443a10aa-b3ee-4084-a763-3dcf6407cc16"},"vehicle_type_id":"4","last_reported":1731654552,"current_range_meters":31200,"station_id":"ce4bgvp2rcd13ifvqct0","pricing_plan_id":"cebpf4jnsgd1na2vs0mg"},{"bike_id":"5bd3ef85-798d-4160-9c90-ce69105aff3a","system_id":"levelo_inurba_marseille","lat":43.24393,"lon":5.37055,"is_reserved":false,"is_disabled":false,"rental_uris":{"android":"levelo://app?vid=5bd3ef85-798d-4160-9c90-ce69105aff3a","ios":"levelo://app?vid=5bd3ef85-798d-4160-9c90-ce69105aff3a"},"vehicle_type_id":"4","last_reported":1731654552,"current_range_meters":38800,"station_id":"ce4bhhh2rcd13ifvqfk0","pricing_plan_id":"cebpf4jnsgd1na2vs0mg"},{"bike_id":"83d0c08b-53e5-4e1d-aa28-dd3ec259f354","system_id":"levelo_inurba_marseille","lat":43.28099,"lon":5.42228,"is_reserved":false,"is_disabled":false,"rental_uris":{"android":"levelo://app?vid=83d0c08b-53e5-4e1d-aa28-dd3ec259f354","ios":"levelo://app?vid=83d0c08b-53e5-4e1d-aa28-dd3ec259f354"},"vehicle_type_id":"4","last_reported":1731654552,"current_range_meters":9200,"station_id":"","pricing_plan_id":"cebpf4jnsgd1na2vs0mg"},{"bike_id":"6ba8bb0e-4eb0-47a1-ae06-d78d9027d46a","system_id":"levelo_inurba_marseille","lat":43.298,"lon":5.38109,"is_reserved":false,"is_disabled":false,"rental_uris":{"android":"levelo://app?vid=6ba8bb0e-4eb0-47a1-ae06-d78d9027d46a","ios":"levelo://app?vid=6ba8bb0e-4eb0-47a1-ae06-d78d9027d46a"},"vehicle_type_id":"4","last_reported":1731654552,"current_range_meters":38800,"station_id":"ce4bgip2rcd13ifvqbb0","pricing_plan_id":"cebpf4jnsgd1na2vs0mg"},{"bike_id":"17709244-3cb1-468c-8028-e3e06ece4dea","system_id":"levelo_inurba_marseille","lat":43.24085,"lon":5.37749,"is_reserved":false,"is_disabled":false,"rental_uris":{"android":"levelo://app?vid=17709244-3cb1-468c-8028-e3e06ece4dea","ios":"levelo://app?vid=17709244-3cb1-468c-8028-e3e06ece4dea"},"vehicle_type_id":"4","last_reported":1731654552,"current_range_meters":32400,"station_id":"ce4bhnp2rcd13ifvqgvg","pricing_plan_id":"cebpf4jnsgd1na2vs0mg"},{"bike_id":"92e3ad17-17c9-4714-a148-ef9436ad6113","system_id":"levelo_inurba_marseille","lat":43.22937,"lon":5.35376,"is_reserved":false,"is_disabled":false,"rental_uris":{"android":"levelo://app?vid=92e3ad17-17c9-4714-a148-ef9436ad6113","ios":"levelo://app?vid=92e3ad17-17c9-4714-a148-ef9436ad6113"},"vehicle_type_id":"4","last_reported":1731654552,"current_range_meters":38800,"station_id":"cpo3532slgdg3j2ikp40","pricing_plan_id":"cebpf4jnsgd1na2vs0mg"},{"bike_id":"312cd973-a1d6-4033-978d-469d60effb94","system_id":"levelo_inurba_marseille","lat":43.29557,"lon":5.42284,"is_reserved":false,"is_disabled":false,"rental_uris":{"android":"levelo://app?vid=312cd973-a1d6-4033-978d-469d60effb94","ios":"levelo://app?vid=312cd973-a1d6-4033-978d-469d60effb94"},"vehicle_type_id":"4","last_reported":1731654552,"current_range_meters":38000,"station_id":"ce4bhph2rcd13ifvqhdg","pricing_plan_id":"cebpf4jnsgd1na2vs0mg"},{"bike_id":"094cc33d-da3c-49ab-bc5f-c983906b9f18","system_id":"levelo_inurba_marseille","lat":43.23176,"lon":5.39988,"is_reserved":false,"is_disabled":false,"rental_uris":{"android":"levelo://app?vid=094cc33d-da3c-49ab-bc5f-c983906b9f18","ios":"levelo://app?vid=094cc33d-da3c-49ab-bc5f-c983906b9f18"},"vehicle_type_id":"4","last_reported":1731654552,"current_range_meters":10800,"station_id":"ce4bhn12rcd13ifvqgqg","pricing_plan_id":"cebpf4jnsgd1na2vs0mg"},{"bike_id":"5326c5f8-bba7-40e6-bfc7-8e986a3bddf3","system_id":"levelo_inurba_marseille","lat":43.31562,"lon":5.37319,"is_reserved":false,"is_disabled":false,"rental_uris":{"android":"levelo://app?vid=5326c5f8-bba7-40e6-bfc7-8e986a3bddf3","ios":"levelo://app?vid=5326c5f8-bba7-40e6-bfc7-8e986a3bddf3"},"vehicle_type_id":"4","last_reported":1731654552,"current_range_meters":22400,"station_id":"ce4bhr12rcd13ifvqhqg","pricing_plan_id":"cebpf4jnsgd1na2vs0mg"},{"bike_id":"0907c0fe-428a-4ca9-99b8-09b7a6692a10","system_id":"levelo_inurba_marseille","lat":43.3078,"lon":5.37649,"is_reserved":false,"is_disabled":false,"rental_uris":{"android":"levelo://app?vid=0907c0fe-428a-4ca9-99b8-09b7a6692a10","ios":"levelo://app?vid=0907c0fe-428a-4ca9-99b8-09b7a6692a10"},"vehicle_type_id":"4","last_reported":1731654552,"current_range_meters":28400,"station_id":"ce4bgv92rcd13ifvqcq0","pricing_plan_id":"cebpf4jnsgd1na2vs0mg"},{"bike_id":"82f309e6-c4ae-421f-89cb-1d64a8e0ef10","system_id":"levelo_inurba_marseille","lat":43.337444,"lon":5.374475,"is_reserved":false,"is_disabled":false,"rental_uris":{"android":"levelo://app?vid=82f309e6-c4ae-421f-89cb-1d64a8e0ef10","ios":"levelo://app?vid=82f309e6-c4ae-421f-89cb-1d64a8e0ef10"},"vehicle_type_id":"4","last_reported":1731654552,"current_range_meters":29600,"station_id":"","pricing_plan_id":"cebpf4jnsgd1na2vs0mg"},{"bike_id":"4468d112-4cb3-4b7d-8d18-a549e3d7b10a","system_id":"levelo_inurba_marseille","lat":43.257181,"lon":5.41045,"is_reserved":false,"is_disabled":false,"rental_uris":{"android":"levelo://app?vid=4468d112-4cb3-4b7d-8d18-a549e3d7b10a","ios":"levelo://app?vid=4468d112-4cb3-4b7d-8d18-a549e3d7b10a"},"vehicle_type_id":"4","last_reported":1731654552,"current_range_meters":22000,"station_id":"ce4bhkp2rcd13ifvqgd0","pricing_plan_id":"cebpf4jnsgd1na2vs0mg"},{"bike_id":"fad93b60-1eca-41c8-b09c-efa7f1a950d8","system_id":"levelo_inurba_marseille","lat":43.293,"lon":5.37457,"is_reserved":false,"is_disabled":false,"rental_uris":{"android":"levelo://app?vid=fad93b60-1eca-41c8-b09c-efa7f1a950d8","ios":"levelo://app?vid=fad93b60-1eca-41c8-b09c-efa7f1a950d8"},"vehicle_type_id":"4","last_reported":1731654552,"current_range_meters":34800,"station_id":"ce4bgi12rcd13ifvqb70","pricing_plan_id":"cebpf4jnsgd1na2vs0mg"},{"bike_id":"1ecb2086-7ba1-4e53-b19e-211f3c71f08a","system_id":"levelo_inurba_marseille","lat":43.25826,"lon":5.3943,"is_reserved":false,"is_disabled":false,"rental_uris":{"android":"levelo://app?vid=1ecb2086-7ba1-4e53-b19e-211f3c71f08a","ios":"levelo://app?vid=1ecb2086-7ba1-4e53-b19e-211f3c71f08a"},"vehicle_type_id":"4","last_reported":1731654552,"current_range_meters":30000,"station_id":"ce4bhip2rcd13ifvqft0","pricing_plan_id":"cebpf4jnsgd1na2vs0mg"},{"bike_id":"feca3b77-9b16-4f1f-8742-27d5e1074087","system_id":"levelo_inurba_marseille","lat":43.26558,"lon":5.39002,"is_reserved":false,"is_disabled":false,"rental_uris":{"android":"levelo://app?vid=feca3b77-9b16-4f1f-8742-27d5e1074087","ios":"levelo://app?vid=feca3b77-9b16-4f1f-8742-27d5e1074087"},"vehicle_type_id":"4","last_reported":1731654552,"current_range_meters":36800,"station_id":"ce4bhe12rcd13ifvqf30","pricing_plan_id":"cebpf4jnsgd1na2vs0mg"},{"bike_id":"3fac2671-b78a-4960-a09d-92d892216bb1","system_id":"levelo_inurba_marseille","lat":43.31172,"lon":5.38712,"is_reserved":false,"is_disabled":false,"rental_uris":{"android":"levelo://app?vid=3fac2671-b78a-4960-a09d-92d892216bb1","ios":"levelo://app?vid=3fac2671-b78a-4960-a09d-92d892216bb1"},"vehicle_type_id":"4","last_reported":1731654552,"current_range_meters":38800,"station_id":"ce4bgv12rcd13ifvqcp0","pricing_plan_id":"cebpf4jnsgd1na2vs0mg"},{"bike_id":"c92ba6c3-cfad-4e72-bbc2-f532d28c58c1","system_id":"levelo_inurba_marseille","lat":43.30159,"lon":5.38096,"is_reserved":false,"is_disabled":false,"rental_uris":{"android":"levelo://app?vid=c92ba6c3-cfad-4e72-bbc2-f532d28c58c1","ios":"levelo://app?vid=c92ba6c3-cfad-4e72-bbc2-f532d28c58c1"},"vehicle_type_id":"4","last_reported":1731654552,"current_range_meters":30800,"station_id":"ce4bgjp2rcd13ifvqbh0","pricing_plan_id":"cebpf4jnsgd1na2vs0mg"},{"bike_id":"14ec0dcf-913b-4f6d-9327-5395fe151b5e","system_id":"levelo_inurba_marseille","lat":43.24077,"lon":5.37757,"is_reserved":false,"is_disabled":false,"rental_uris":{"android":"levelo://app?vid=14ec0dcf-913b-4f6d-9327-5395fe151b5e","ios":"levelo://app?vid=14ec0dcf-913b-4f6d-9327-5395fe151b5e"},"vehicle_type_id":"4","last_reported":1731654552,"current_range_meters":27200,"station_id":"ce4bhnp2rcd13ifvqgvg","pricing_plan_id":"cebpf4jnsgd1na2vs0mg"},{"bike_id":"e9831758-7fbb-4bb8-92fd-5b32e1ae3ab6","system_id":"levelo_inurba_marseille","lat":43.33019,"lon":5.39054,"is_reserved":false,"is_disabled":false,"rental_uris":{"android":"levelo://app?vid=e9831758-7fbb-4bb8-92fd-5b32e1ae3ab6","ios":"levelo://app?vid=e9831758-7fbb-4bb8-92fd-5b32e1ae3ab6"},"vehicle_type_id":"4","last_reported":1731654552,"current_range_meters":28000,"station_id":"ce4bhr92rcd13ifvqhrg","pricing_plan_id":"cebpf4jnsgd1na2vs0mg"},{"bike_id":"0fa93eee-e648-4de0-aec7-aef2ea0a29b7","system_id":"levelo_inurba_marseille","lat":43.30597,"lon":5.39351,"is_reserved":false,"is_disabled":false,"rental_uris":{"android":"levelo://app?vid=0fa93eee-e648-4de0-aec7-aef2ea0a29b7","ios":"levelo://app?vid=0fa93eee-e648-4de0-aec7-aef2ea0a29b7"},"vehicle_type_id":"4","last_reported":1731654552,"current_range_meters":36400,"station_id":"ce4bh0p2rcd13ifvqd80","pricing_plan_id":"cebpf4jnsgd1na2vs0mg"},{"bike_id":"68f93a42-8089-4d1b-9c0e-131fb6bc6d11","system_id":"levelo_inurba_marseille","lat":43.29278,"lon":5.40121,"is_reserved":false,"is_disabled":false,"rental_uris":{"android":"levelo://app?vid=68f93a42-8089-4d1b-9c0e-131fb6bc6d11","ios":"levelo://app?vid=68f93a42-8089-4d1b-9c0e-131fb6bc6d11"},"vehicle_type_id":"4","last_reported":1731654552,"current_range_meters":24800,"station_id":"ce4bh312rcd13ifvqdk0","pricing_plan_id":"cebpf4jnsgd1na2vs0mg"},{"bike_id":"d4357b6e-382d-42fb-a863-ff7fd5649955","system_id":"levelo_inurba_marseille","lat":43.24999,"lon":5.38928,"is_reserved":false,"is_disabled":false,"rental_uris":{"android":"levelo://app?vid=d4357b6e-382d-42fb-a863-ff7fd5649955","ios":"levelo://app?vid=d4357b6e-382d-42fb-a863-ff7fd5649955"},"vehicle_type_id":"4","last_reported":1731654552,"current_range_meters":38400,"station_id":"ce4bhgp2rcd13ifvqfd0","pricing_plan_id":"cebpf4jnsgd1na2vs0mg"},{"bike_id":"6d6ba39a-888e-43cd-af57-ce4987b9554b","system_id":"levelo_inurba_marseille","lat":43.27492,"lon":5.42449,"is_reserved":false,"is_disabled":false,"rental_uris":{"android":"levelo://app?vid=6d6ba39a-888e-43cd-af57-ce4987b9554b","ios":"levelo://app?vid=6d6ba39a-888e-43cd-af57-ce4987b9554b"},"vehicle_type_id":"4","last_reported":1731654552,"current_range_meters":38800,"station_id":"ce4bhn92rcd13ifvqgrg","pricing_plan_id":"cebpf4jnsgd1na2vs0mg"},{"bike_id":"79294977-6401-4835-8c97-7dcc2f35c689","system_id":"levelo_inurba_marseille","lat":43.30901,"lon":5.36846,"is_reserved":false,"is_disabled":false,"rental_uris":{"android":"levelo://app?vid=79294977-6401-4835-8c97-7dcc2f35c689","ios":"levelo://app?vid=79294977-6401-4835-8c97-7dcc2f35c689"},"vehicle_type_id":"4","last_reported":1731654552,"current_range_meters":28400,"station_id":"ce4bgn92rcd13ifvqbvg","pricing_plan_id":"cebpf4jnsgd1na2vs0mg"},{"bike_id":"84b26cb2-a312-4e63-a9d6-03372aa467f0","system_id":"levelo_inurba_marseille","lat":43.29796,"lon":5.38091,"is_reserved":false,"is_disabled":false,"rental_uris":{"android":"levelo://app?vid=84b26cb2-a312-4e63-a9d6-03372aa467f0","ios":"levelo://app?vid=84b26cb2-a312-4e63-a9d6-03372aa467f0"},"vehicle_type_id":"4","last_reported":1731654552,"current_range_meters":12000,"station_id":"ce4bgip2rcd13ifvqbb0","pricing_plan_id":"cebpf4jnsgd1na2vs0mg"},{"bike_id":"6190abe0-aae9-4a80-a526-d67e8d93d29d","system_id":"levelo_inurba_marseille","lat":43.26953,"lon":5.38637,"is_reserved":false,"is_disabled":false,"rental_uris":{"android":"levelo://app?vid=6190abe0-aae9-4a80-a526-d67e8d93d29d","ios":"levelo://app?vid=6190abe0-aae9-4a80-a526-d67e8d93d29d"},"vehicle_type_id":"4","last_reported":1731654552,"current_range_meters":28400,"station_id":"ce4bhh92rcd13ifvqfh0","pricing_plan_id":"cebpf4jnsgd1na2vs0mg"},{"bike_id":"e0341992-3572-467d-bc9d-fc84a69c9df4","system_id":"levelo_inurba_marseille","lat":43.27494,"lon":5.4245,"is_reserved":false,"is_disabled":false,"rental_uris":{"android":"levelo://app?vid=e0341992-3572-467d-bc9d-fc84a69c9df4","ios":"levelo://app?vid=e0341992-3572-467d-bc9d-fc84a69c9df4"},"vehicle_type_id":"4","last_reported":1731654552,"current_range_meters":32800,"station_id":"ce4bhn92rcd13ifvqgrg","pricing_plan_id":"cebpf4jnsgd1na2vs0mg"},{"bike_id":"7eda8e5f-367f-4f3c-944c-a5365b30f0c9","system_id":"levelo_inurba_marseille","lat":43.31529,"lon":5.38032,"is_reserved":false,"is_disabled":false,"rental_uris":{"android":"levelo://app?vid=7eda8e5f-367f-4f3c-944c-a5365b30f0c9","ios":"levelo://app?vid=7eda8e5f-367f-4f3c-944c-a5365b30f0c9"},"vehicle_type_id":"4","last_reported":1731654552,"current_range_meters":38400,"station_id":"ce4bhsp2rcd13ifvqi50","pricing_plan_id":"cebpf4jnsgd1na2vs0mg"},{"bike_id":"9e38596d-51b0-43e9-8622-0c1c2addb135","system_id":"levelo_inurba_marseille","lat":43.28442,"lon":5.42277,"is_reserved":false,"is_disabled":false,"rental_uris":{"android":"levelo://app?vid=9e38596d-51b0-43e9-8622-0c1c2addb135","ios":"levelo://app?vid=9e38596d-51b0-43e9-8622-0c1c2addb135"},"vehicle_type_id":"4","last_reported":1731654552,"current_range_meters":24800,"station_id":"ce4bhnh2rcd13ifvqgug","pricing_plan_id":"cebpf4jnsgd1na2vs0mg"},{"bike_id":"e6ad9383-9b86-4091-bd19-09c09422cf32","system_id":"levelo_inurba_marseille","lat":43.30469,"lon":5.379,"is_reserved":false,"is_disabled":false,"rental_uris":{"android":"levelo://app?vid=e6ad9383-9b86-4091-bd19-09c09422cf32","ios":"levelo://app?vid=e6ad9383-9b86-4091-bd19-09c09422cf32"},"vehicle_type_id":"4","last_reported":1731654552,"current_range_meters":36400,"station_id":"ce4bgup2rcd13ifvqcn0","pricing_plan_id":"cebpf4jnsgd1na2vs0mg"},{"bike_id":"6dcbb2ce-c695-4325-893f-7eb3313c10e8","system_id":"levelo_inurba_marseille","lat":43.28101,"lon":5.37844,"is_reserved":false,"is_disabled":false,"rental_uris":{"android":"levelo://app?vid=6dcbb2ce-c695-4325-893f-7eb3313c10e8","ios":"levelo://app?vid=6dcbb2ce-c695-4325-893f-7eb3313c10e8"},"vehicle_type_id":"4","last_reported":1731654552,"current_range_meters":38000,"station_id":"ce4bha12rcd13ifvqee0","pricing_plan_id":"cebpf4jnsgd1na2vs0mg"},{"bike_id":"358295aa-40ee-4941-a507-1165e4c49874","system_id":"levelo_inurba_marseille","lat":43.29626,"lon":5.37732,"is_reserved":false,"is_disabled":false,"rental_uris":{"android":"levelo://app?vid=358295aa-40ee-4941-a507-1165e4c49874","ios":"levelo://app?vid=358295aa-40ee-4941-a507-1165e4c49874"},"vehicle_type_id":"4","last_reported":1731654552,"current_range_meters":36000,"station_id":"ce4bgi92rcd13ifvqb90","pricing_plan_id":"cebpf4jnsgd1na2vs0mg"},{"bike_id":"334f6cf6-336b-4452-8b70-8d818d81053c","system_id":"levelo_inurba_marseille","lat":43.24073,"lon":5.37759,"is_reserved":false,"is_disabled":false,"rental_uris":{"android":"levelo://app?vid=334f6cf6-336b-4452-8b70-8d818d81053c","ios":"levelo://app?vid=334f6cf6-336b-4452-8b70-8d818d81053c"},"vehicle_type_id":"4","last_reported":1731654552,"current_range_meters":22400,"station_id":"ce4bhnp2rcd13ifvqgvg","pricing_plan_id":"cebpf4jnsgd1na2vs0mg"},{"bike_id":"834fc017-8dd7-4f68-a47b-9f77ecb78fbd","system_id":"levelo_inurba_marseille","lat":43.27987,"lon":5.41662,"is_reserved":false,"is_disabled":false,"rental_uris":{"android":"levelo://app?vid=834fc017-8dd7-4f68-a47b-9f77ecb78fbd","ios":"levelo://app?vid=834fc017-8dd7-4f68-a47b-9f77ecb78fbd"},"vehicle_type_id":"4","last_reported":1731654552,"current_range_meters":6400,"station_id":"ce4bho12rcd13ifvqh1g","pricing_plan_id":"cebpf4jnsgd1na2vs0mg"},{"bike_id":"c87d9b39-597c-4058-aae3-11acec5d7548","system_id":"levelo_inurba_marseille","lat":43.30257,"lon":5.40077,"is_reserved":false,"is_disabled":false,"rental_uris":{"android":"levelo://app?vid=c87d9b39-597c-4058-aae3-11acec5d7548","ios":"levelo://app?vid=c87d9b39-597c-4058-aae3-11acec5d7548"},"vehicle_type_id":"4","last_reported":1731654552,"current_range_meters":6400,"station_id":"ce4bgvh2rcd13ifvqcs0","pricing_plan_id":"cebpf4jnsgd1na2vs0mg"},{"bike_id":"51704817-2877-45ea-ad31-d3fdee0f0146","system_id":"levelo_inurba_marseille","lat":43.27951,"lon":5.4105,"is_reserved":false,"is_disabled":false,"rental_uris":{"android":"levelo://app?vid=51704817-2877-45ea-ad31-d3fdee0f0146","ios":"levelo://app?vid=51704817-2877-45ea-ad31-d3fdee0f0146"},"vehicle_type_id":"4","last_reported":1731654552,"current_range_meters":16000,"station_id":"ce4bhnp2rcd13ifvqh0g","pricing_plan_id":"cebpf4jnsgd1na2vs0mg"},{"bike_id":"b47cb991-57c8-4ef2-ba6f-88a50e1a1219","system_id":"levelo_inurba_marseille","lat":43.22923,"lon":5.3537,"is_reserved":false,"is_disabled":false,"rental_uris":{"android":"levelo://app?vid=b47cb991-57c8-4ef2-ba6f-88a50e1a1219","ios":"levelo://app?vid=b47cb991-57c8-4ef2-ba6f-88a50e1a1219"},"vehicle_type_id":"4","last_reported":1731654552,"current_range_meters":38000,"station_id":"cpo3532slgdg3j2ikp40","pricing_plan_id":"cebpf4jnsgd1na2vs0mg"},{"bike_id":"c0679a25-86fb-4b66-a202-018bb976a058","system_id":"levelo_inurba_marseille","lat":43.279114,"lon":5.380124,"is_reserved":false,"is_disabled":false,"rental_uris":{"android":"levelo://app?vid=c0679a25-86fb-4b66-a202-018bb976a058","ios":"levelo://app?vid=c0679a25-86fb-4b66-a202-018bb976a058"},"vehicle_type_id":"4","last_reported":1731654552,"current_range_meters":5600,"station_id":"ce4bhh92rcd13ifvqfj0","pricing_plan_id":"cebpf4jnsgd1na2vs0mg"},{"bike_id":"58b80146-6940-479a-a5e0-170bae3adb1d","system_id":"levelo_inurba_marseille","lat":43.30151,"lon":5.38073,"is_reserved":false,"is_disabled":false,"rental_uris":{"android":"levelo://app?vid=58b80146-6940-479a-a5e0-170bae3adb1d","ios":"levelo://app?vid=58b80146-6940-479a-a5e0-170bae3adb1d"},"vehicle_type_id":"4","last_reported":1731654552,"current_range_meters":35200,"station_id":"ce4bgjp2rcd13ifvqbh0","pricing_plan_id":"cebpf4jnsgd1na2vs0mg"},{"bike_id":"3be187de-5e5a-4eb9-a6fc-b5be1ff54724","system_id":"levelo_inurba_marseille","lat":43.24082,"lon":5.37749,"is_reserved":false,"is_disabled":false,"rental_uris":{"android":"levelo://app?vid=3be187de-5e5a-4eb9-a6fc-b5be1ff54724","ios":"levelo://app?vid=3be187de-5e5a-4eb9-a6fc-b5be1ff54724"},"vehicle_type_id":"4","last_reported":1731654552,"current_range_meters":30800,"station_id":"ce4bhnp2rcd13ifvqgvg","pricing_plan_id":"cebpf4jnsgd1na2vs0mg"},{"bike_id":"1d36ec1c-d89d-4bb1-8e0d-ff1c762508b7","system_id":"levelo_inurba_marseille","lat":43.22938,"lon":5.35375,"is_reserved":false,"is_disabled":false,"rental_uris":{"android":"levelo://app?vid=1d36ec1c-d89d-4bb1-8e0d-ff1c762508b7","ios":"levelo://app?vid=1d36ec1c-d89d-4bb1-8e0d-ff1c762508b7"},"vehicle_type_id":"4","last_reported":1731654552,"current_range_meters":10000,"station_id":"cpo3532slgdg3j2ikp40","pricing_plan_id":"cebpf4jnsgd1na2vs0mg"},{"bike_id":"a22adc0e-b747-43b4-a342-21b59614973b","system_id":"levelo_inurba_marseille","lat":43.3149,"lon":5.37304,"is_reserved":false,"is_disabled":false,"rental_uris":{"android":"levelo://app?vid=a22adc0e-b747-43b4-a342-21b59614973b","ios":"levelo://app?vid=a22adc0e-b747-43b4-a342-21b59614973b"},"vehicle_type_id":"4","last_reported":1731654552,"current_range_meters":13600,"station_id":"ce4bgt12rcd13ifvqcd0","pricing_plan_id":"cebpf4jnsgd1na2vs0mg"},{"bike_id":"db2729ab-7948-4960-a424-a5bdce5ac9de","system_id":"levelo_inurba_marseille","lat":43.28413,"lon":5.37501,"is_reserved":false,"is_disabled":false,"rental_uris":{"android":"levelo://app?vid=db2729ab-7948-4960-a424-a5bdce5ac9de","ios":"levelo://app?vid=db2729ab-7948-4960-a424-a5bdce5ac9de"},"vehicle_type_id":"4","last_reported":1731654552,"current_range_meters":24800,"station_id":"ce4bh412rcd13ifvqds0","pricing_plan_id":"cebpf4jnsgd1na2vs0mg"},{"bike_id":"37212eb8-cfa6-47ba-9ed7-bfed51287466","system_id":"levelo_inurba_marseille","lat":43.31456,"lon":5.3739,"is_reserved":false,"is_disabled":false,"rental_uris":{"android":"levelo://app?vid=37212eb8-cfa6-47ba-9ed7-bfed51287466","ios":"levelo://app?vid=37212eb8-cfa6-47ba-9ed7-bfed51287466"},"vehicle_type_id":"4","last_reported":1731654552,"current_range_meters":36400,"station_id":"","pricing_plan_id":"cebpf4jnsgd1na2vs0mg"},{"bike_id":"0a7a7ac5-f54c-44af-a6b9-bff324764339","system_id":"levelo_inurba_marseille","lat":43.23058,"lon":5.35491,"is_reserved":false,"is_disabled":false,"rental_uris":{"android":"levelo://app?vid=0a7a7ac5-f54c-44af-a6b9-bff324764339","ios":"levelo://app?vid=0a7a7ac5-f54c-44af-a6b9-bff324764339"},"vehicle_type_id":"4","last_reported":1731654552,"current_range_meters":16400,"station_id":"cpo3342slgdg3j2ifvpg","pricing_plan_id":"cebpf4jnsgd1na2vs0mg"},{"bike_id":"35177d2e-10d5-41f6-8245-5e009f8484b6","system_id":"levelo_inurba_marseille","lat":43.28972,"lon":5.37834,"is_reserved":false,"is_disabled":false,"rental_uris":{"android":"levelo://app?vid=35177d2e-10d5-41f6-8245-5e009f8484b6","ios":"levelo://app?vid=35177d2e-10d5-41f6-8245-5e009f8484b6"},"vehicle_type_id":"4","last_reported":1731654552,"current_range_meters":10800,"station_id":"ce4bh9p2rcd13ifvqed0","pricing_plan_id":"cebpf4jnsgd1na2vs0mg"},{"bike_id":"bef7ca68-0ccd-456c-a245-4471193ed987","system_id":"levelo_inurba_marseille","lat":43.260604,"lon":5.393969,"is_reserved":false,"is_disabled":false,"rental_uris":{"android":"levelo://app?vid=bef7ca68-0ccd-456c-a245-4471193ed987","ios":"levelo://app?vid=bef7ca68-0ccd-456c-a245-4471193ed987"},"vehicle_type_id":"4","last_reported":1731654552,"current_range_meters":38800,"station_id":"ce4bhh92rcd13ifvqfj0","pricing_plan_id":"cebpf4jnsgd1na2vs0mg"},{"bike_id":"022a48c0-b091-4081-9edb-97eedffd3522","system_id":"levelo_inurba_marseille","lat":43.24542,"lon":5.39523,"is_reserved":false,"is_disabled":false,"rental_uris":{"android":"levelo://app?vid=022a48c0-b091-4081-9edb-97eedffd3522","ios":"levelo://app?vid=022a48c0-b091-4081-9edb-97eedffd3522"},"vehicle_type_id":"4","last_reported":1731654552,"current_range_meters":29600,"station_id":"ce4bhlp2rcd13ifvqgjg","pricing_plan_id":"cebpf4jnsgd1na2vs0mg"},{"bike_id":"7619cc6e-3d40-497d-863d-005b14967ee7","system_id":"levelo_inurba_marseille","lat":43.28473,"lon":5.35915,"is_reserved":false,"is_disabled":false,"rental_uris":{"android":"levelo://app?vid=7619cc6e-3d40-497d-863d-005b14967ee7","ios":"levelo://app?vid=7619cc6e-3d40-497d-863d-005b14967ee7"},"vehicle_type_id":"4","last_reported":1731654552,"current_range_meters":29600,"station_id":"ce4bhh92rcd13ifvqfh0","pricing_plan_id":"cebpf4jnsgd1na2vs0mg"},{"bike_id":"a61621ba-5f27-4f91-bb7c-01de5dabbff4","system_id":"levelo_inurba_marseille","lat":43.30251,"lon":5.40061,"is_reserved":false,"is_disabled":false,"rental_uris":{"android":"levelo://app?vid=a61621ba-5f27-4f91-bb7c-01de5dabbff4","ios":"levelo://app?vid=a61621ba-5f27-4f91-bb7c-01de5dabbff4"},"vehicle_type_id":"4","last_reported":1731654552,"current_range_meters":28800,"station_id":"ce4bgvh2rcd13ifvqcs0","pricing_plan_id":"cebpf4jnsgd1na2vs0mg"},{"bike_id":"206137e3-505f-4c07-8db9-b4dea21fdc42","system_id":"levelo_inurba_marseille","lat":43.286598,"lon":5.363496,"is_reserved":false,"is_disabled":false,"rental_uris":{"android":"levelo://app?vid=206137e3-505f-4c07-8db9-b4dea21fdc42","ios":"levelo://app?vid=206137e3-505f-4c07-8db9-b4dea21fdc42"},"vehicle_type_id":"4","last_reported":1731654552,"current_range_meters":3200,"station_id":"ce4bhah2rcd13ifvqej0","pricing_plan_id":"cebpf4jnsgd1na2vs0mg"},{"bike_id":"366cfb73-f810-4c90-999d-a691fedac1aa","system_id":"levelo_inurba_marseille","lat":43.24393,"lon":5.37058,"is_reserved":false,"is_disabled":false,"rental_uris":{"android":"levelo://app?vid=366cfb73-f810-4c90-999d-a691fedac1aa","ios":"levelo://app?vid=366cfb73-f810-4c90-999d-a691fedac1aa"},"vehicle_type_id":"4","last_reported":1731654552,"current_range_meters":40000,"station_id":"ce4bhhh2rcd13ifvqfk0","pricing_plan_id":"cebpf4jnsgd1na2vs0mg"},{"bike_id":"2aa0109a-ac00-46cc-bf89-3beb12b3dfb8","system_id":"levelo_inurba_marseille","lat":43.30467,"lon":5.37915,"is_reserved":false,"is_disabled":false,"rental_uris":{"android":"levelo://app?vid=2aa0109a-ac00-46cc-bf89-3beb12b3dfb8","ios":"levelo://app?vid=2aa0109a-ac00-46cc-bf89-3beb12b3dfb8"},"vehicle_type_id":"4","last_reported":1731654552,"current_range_meters":20800,"station_id":"ce4bgup2rcd13ifvqcn0","pricing_plan_id":"cebpf4jnsgd1na2vs0mg"},{"bike_id":"e43399bb-7d2d-414b-90df-cbfab47ba2f3","system_id":"levelo_inurba_marseille","lat":43.29843,"lon":5.36271,"is_reserved":false,"is_disabled":false,"rental_uris":{"android":"levelo://app?vid=e43399bb-7d2d-414b-90df-cbfab47ba2f3","ios":"levelo://app?vid=e43399bb-7d2d-414b-90df-cbfab47ba2f3"},"vehicle_type_id":"4","last_reported":1731654552,"current_range_meters":37600,"station_id":"ce4bgpp2rcd13ifvqc3g","pricing_plan_id":"cebpf4jnsgd1na2vs0mg"},{"bike_id":"aaec841f-2a7c-4d64-8722-c25c02ca7092","system_id":"levelo_inurba_marseille","lat":43.23779,"lon":5.43059,"is_reserved":false,"is_disabled":false,"rental_uris":{"android":"levelo://app?vid=aaec841f-2a7c-4d64-8722-c25c02ca7092","ios":"levelo://app?vid=aaec841f-2a7c-4d64-8722-c25c02ca7092"},"vehicle_type_id":"4","last_reported":1731654552,"current_range_meters":34800,"station_id":"","pricing_plan_id":"cebpf4jnsgd1na2vs0mg"},{"bike_id":"d8d9769c-5795-43ab-a6b5-351abc0ce424","system_id":"levelo_inurba_marseille","lat":43.30886,"lon":5.40265,"is_reserved":false,"is_disabled":false,"rental_uris":{"android":"levelo://app?vid=d8d9769c-5795-43ab-a6b5-351abc0ce424","ios":"levelo://app?vid=d8d9769c-5795-43ab-a6b5-351abc0ce424"},"vehicle_type_id":"4","last_reported":1731654552,"current_range_meters":38800,"station_id":"ce4bgvp2rcd13ifvqct0","pricing_plan_id":"cebpf4jnsgd1na2vs0mg"},{"bike_id":"6d757fef-4f26-43f9-ac2c-ffab39bf7dae","system_id":"levelo_inurba_marseille","lat":43.32249,"lon":5.36901,"is_reserved":false,"is_disabled":false,"rental_uris":{"android":"levelo://app?vid=6d757fef-4f26-43f9-ac2c-ffab39bf7dae","ios":"levelo://app?vid=6d757fef-4f26-43f9-ac2c-ffab39bf7dae"},"vehicle_type_id":"4","last_reported":1731654552,"current_range_meters":25200,"station_id":"","pricing_plan_id":"cebpf4jnsgd1na2vs0mg"},{"bike_id":"5afc81b6-96c7-4ccb-afff-b7555b8e12c9","system_id":"levelo_inurba_marseille","lat":43.30654,"lon":5.40087,"is_reserved":false,"is_disabled":false,"rental_uris":{"android":"levelo://app?vid=5afc81b6-96c7-4ccb-afff-b7555b8e12c9","ios":"levelo://app?vid=5afc81b6-96c7-4ccb-afff-b7555b8e12c9"},"vehicle_type_id":"4","last_reported":1731654552,"current_range_meters":36800,"station_id":"ce4bh112rcd13ifvqda0","pricing_plan_id":"cebpf4jnsgd1na2vs0mg"},{"bike_id":"cf1e3033-c8d0-4e74-a9aa-3098ae594db7","system_id":"levelo_inurba_marseille","lat":43.3302,"lon":5.39036,"is_reserved":false,"is_disabled":false,"rental_uris":{"android":"levelo://app?vid=cf1e3033-c8d0-4e74-a9aa-3098ae594db7","ios":"levelo://app?vid=cf1e3033-c8d0-4e74-a9aa-3098ae594db7"},"vehicle_type_id":"4","last_reported":1731654552,"current_range_meters":38400,"station_id":"ce4bhr92rcd13ifvqhrg","pricing_plan_id":"cebpf4jnsgd1na2vs0mg"},{"bike_id":"625e1693-e210-4796-9ba4-a89bb9e5236c","system_id":"levelo_inurba_marseille","lat":43.28721,"lon":5.36088,"is_reserved":false,"is_disabled":false,"rental_uris":{"android":"levelo://app?vid=625e1693-e210-4796-9ba4-a89bb9e5236c","ios":"levelo://app?vid=625e1693-e210-4796-9ba4-a89bb9e5236c"},"vehicle_type_id":"4","last_reported":1731654552,"current_range_meters":38800,"station_id":"cki0cbj6b192h4jlfktg","pricing_plan_id":"cebpf4jnsgd1na2vs0mg"},{"bike_id":"db0e52d9-e39d-4705-9fb4-f87dff6f261a","system_id":"levelo_inurba_marseille","lat":43.29595,"lon":5.381,"is_reserved":false,"is_disabled":false,"rental_uris":{"android":"levelo://app?vid=db0e52d9-e39d-4705-9fb4-f87dff6f261a","ios":"levelo://app?vid=db0e52d9-e39d-4705-9fb4-f87dff6f261a"},"vehicle_type_id":"4","last_reported":1731654552,"current_range_meters":30800,"station_id":"ce4bgl12rcd13ifvqbo0","pricing_plan_id":"cebpf4jnsgd1na2vs0mg"},{"bike_id":"101d5fa3-de10-421f-ad0f-584b5cdd6627","system_id":"levelo_inurba_marseille","lat":43.26683,"lon":5.38268,"is_reserved":false,"is_disabled":false,"rental_uris":{"android":"levelo://app?vid=101d5fa3-de10-421f-ad0f-584b5cdd6627","ios":"levelo://app?vid=101d5fa3-de10-421f-ad0f-584b5cdd6627"},"vehicle_type_id":"4","last_reported":1731654552,"current_range_meters":38800,"station_id":"ce4bhg92rcd13ifvqf90","pricing_plan_id":"cebpf4jnsgd1na2vs0mg"},{"bike_id":"85836406-74cd-45c6-92d5-024e4eb9b1d8","system_id":"levelo_inurba_marseille","lat":43.29801,"lon":5.38089,"is_reserved":false,"is_disabled":false,"rental_uris":{"android":"levelo://app?vid=85836406-74cd-45c6-92d5-024e4eb9b1d8","ios":"levelo://app?vid=85836406-74cd-45c6-92d5-024e4eb9b1d8"},"vehicle_type_id":"4","last_reported":1731654552,"current_range_meters":33200,"station_id":"ce4bgip2rcd13ifvqbb0","pricing_plan_id":"cebpf4jnsgd1na2vs0mg"},{"bike_id":"7d5d63d5-249a-452f-9690-63a9fd494b32","system_id":"levelo_inurba_marseille","lat":43.26562,"lon":5.38996,"is_reserved":false,"is_disabled":false,"rental_uris":{"android":"levelo://app?vid=7d5d63d5-249a-452f-9690-63a9fd494b32","ios":"levelo://app?vid=7d5d63d5-249a-452f-9690-63a9fd494b32"},"vehicle_type_id":"4","last_reported":1731654552,"current_range_meters":18800,"station_id":"ce4bhe12rcd13ifvqf30","pricing_plan_id":"cebpf4jnsgd1na2vs0mg"},{"bike_id":"4df7c49e-022d-40a5-b465-fbd364b6f490","system_id":"levelo_inurba_marseille","lat":43.32473,"lon":5.36561,"is_reserved":false,"is_disabled":false,"rental_uris":{"android":"levelo://app?vid=4df7c49e-022d-40a5-b465-fbd364b6f490","ios":"levelo://app?vid=4df7c49e-022d-40a5-b465-fbd364b6f490"},"vehicle_type_id":"4","last_reported":1731654552,"current_range_meters":38800,"station_id":"ce4bhs12rcd13ifvqhvg","pricing_plan_id":"cebpf4jnsgd1na2vs0mg"},{"bike_id":"8db7d9b1-7dfa-4194-8e88-6ed4f2fd8060","system_id":"levelo_inurba_marseille","lat":43.29023,"lon":5.38637,"is_reserved":false,"is_disabled":false,"rental_uris":{"android":"levelo://app?vid=8db7d9b1-7dfa-4194-8e88-6ed4f2fd8060","ios":"levelo://app?vid=8db7d9b1-7dfa-4194-8e88-6ed4f2fd8060"},"vehicle_type_id":"4","last_reported":1731654552,"current_range_meters":36400,"station_id":"ce4bh4p2rcd13ifvqe0g","pricing_plan_id":"cebpf4jnsgd1na2vs0mg"},{"bike_id":"0b8850c2-f140-44f5-a44f-dfc3cc65191a","system_id":"levelo_inurba_marseille","lat":43.24072,"lon":5.37753,"is_reserved":false,"is_disabled":false,"rental_uris":{"android":"levelo://app?vid=0b8850c2-f140-44f5-a44f-dfc3cc65191a","ios":"levelo://app?vid=0b8850c2-f140-44f5-a44f-dfc3cc65191a"},"vehicle_type_id":"4","last_reported":1731654552,"current_range_meters":33200,"station_id":"ce4bhnp2rcd13ifvqgvg","pricing_plan_id":"cebpf4jnsgd1na2vs0mg"},{"bike_id":"b9199b52-e535-459f-9108-c1adde7caf28","system_id":"levelo_inurba_marseille","lat":43.30466,"lon":5.37901,"is_reserved":false,"is_disabled":false,"rental_uris":{"android":"levelo://app?vid=b9199b52-e535-459f-9108-c1adde7caf28","ios":"levelo://app?vid=b9199b52-e535-459f-9108-c1adde7caf28"},"vehicle_type_id":"4","last_reported":1731654552,"current_range_meters":27600,"station_id":"ce4bgup2rcd13ifvqcn0","pricing_plan_id":"cebpf4jnsgd1na2vs0mg"},{"bike_id":"2ba01715-3170-4a7e-ae00-4a8868ac1042","system_id":"levelo_inurba_marseille","lat":43.25091,"lon":5.39511,"is_reserved":false,"is_disabled":false,"rental_uris":{"android":"levelo://app?vid=2ba01715-3170-4a7e-ae00-4a8868ac1042","ios":"levelo://app?vid=2ba01715-3170-4a7e-ae00-4a8868ac1042"},"vehicle_type_id":"4","last_reported":1731654552,"current_range_meters":25600,"station_id":"ce4bhm12rcd13ifvqgkg","pricing_plan_id":"cebpf4jnsgd1na2vs0mg"},{"bike_id":"a5bcaa3e-e10e-4588-be0d-c322f181b4e4","system_id":"levelo_inurba_marseille","lat":43.24673,"lon":5.38164,"is_reserved":false,"is_disabled":false,"rental_uris":{"android":"levelo://app?vid=a5bcaa3e-e10e-4588-be0d-c322f181b4e4","ios":"levelo://app?vid=a5bcaa3e-e10e-4588-be0d-c322f181b4e4"},"vehicle_type_id":"4","last_reported":1731654552,"current_range_meters":38400,"station_id":"ce4bhih2rcd13ifvqfr0","pricing_plan_id":"cebpf4jnsgd1na2vs0mg"},{"bike_id":"af72970a-4890-4594-ae7c-b099dce2e887","system_id":"levelo_inurba_marseille","lat":43.33613,"lon":5.4102,"is_reserved":false,"is_disabled":false,"rental_uris":{"android":"levelo://app?vid=af72970a-4890-4594-ae7c-b099dce2e887","ios":"levelo://app?vid=af72970a-4890-4594-ae7c-b099dce2e887"},"vehicle_type_id":"4","last_reported":1731654552,"current_range_meters":23200,"station_id":"ce4bhqh2rcd13ifvqhmg","pricing_plan_id":"cebpf4jnsgd1na2vs0mg"},{"bike_id":"f23920bb-de82-4a59-83f6-23144b5609fc","system_id":"levelo_inurba_marseille","lat":43.26561,"lon":5.39006,"is_reserved":false,"is_disabled":false,"rental_uris":{"android":"levelo://app?vid=f23920bb-de82-4a59-83f6-23144b5609fc","ios":"levelo://app?vid=f23920bb-de82-4a59-83f6-23144b5609fc"},"vehicle_type_id":"4","last_reported":1731654552,"current_range_meters":36400,"station_id":"ce4bhe12rcd13ifvqf30","pricing_plan_id":"cebpf4jnsgd1na2vs0mg"},{"bike_id":"0760f4ea-fe83-409c-828d-464f3e0cacd0","system_id":"levelo_inurba_marseille","lat":43.30307,"lon":5.392099,"is_reserved":false,"is_disabled":false,"rental_uris":{"android":"levelo://app?vid=0760f4ea-fe83-409c-828d-464f3e0cacd0","ios":"levelo://app?vid=0760f4ea-fe83-409c-828d-464f3e0cacd0"},"vehicle_type_id":"4","last_reported":1731654552,"current_range_meters":38400,"station_id":"ce4bgkh2rcd13ifvqbk0","pricing_plan_id":"cebpf4jnsgd1na2vs0mg"},{"bike_id":"6d2d7f6e-0690-41e2-a1f7-a3f2f3b738cc","system_id":"levelo_inurba_marseille","lat":43.25937,"lon":5.40901,"is_reserved":false,"is_disabled":false,"rental_uris":{"android":"levelo://app?vid=6d2d7f6e-0690-41e2-a1f7-a3f2f3b738cc","ios":"levelo://app?vid=6d2d7f6e-0690-41e2-a1f7-a3f2f3b738cc"},"vehicle_type_id":"4","last_reported":1731654552,"current_range_meters":32400,"station_id":"ce4bhm92rcd13ifvqglg","pricing_plan_id":"cebpf4jnsgd1na2vs0mg"},{"bike_id":"857bdea6-8867-4bcb-84b6-78e33fb209fd","system_id":"levelo_inurba_marseille","lat":43.30471,"lon":5.37904,"is_reserved":false,"is_disabled":false,"rental_uris":{"android":"levelo://app?vid=857bdea6-8867-4bcb-84b6-78e33fb209fd","ios":"levelo://app?vid=857bdea6-8867-4bcb-84b6-78e33fb209fd"},"vehicle_type_id":"4","last_reported":1731654552,"current_range_meters":26800,"station_id":"ce4bgup2rcd13ifvqcn0","pricing_plan_id":"cebpf4jnsgd1na2vs0mg"},{"bike_id":"8e09bde1-fc7c-4675-b8d4-451664317bc7","system_id":"levelo_inurba_marseille","lat":43.3169,"lon":5.40475,"is_reserved":false,"is_disabled":false,"rental_uris":{"android":"levelo://app?vid=8e09bde1-fc7c-4675-b8d4-451664317bc7","ios":"levelo://app?vid=8e09bde1-fc7c-4675-b8d4-451664317bc7"},"vehicle_type_id":"4","last_reported":1731654552,"current_range_meters":32800,"station_id":"ce4bh012rcd13ifvqd00","pricing_plan_id":"cebpf4jnsgd1na2vs0mg"},{"bike_id":"63c0d4e9-6e13-4251-a41f-e6b5a9a78b17","system_id":"levelo_inurba_marseille","lat":43.30155,"lon":5.38084,"is_reserved":false,"is_disabled":false,"rental_uris":{"android":"levelo://app?vid=63c0d4e9-6e13-4251-a41f-e6b5a9a78b17","ios":"levelo://app?vid=63c0d4e9-6e13-4251-a41f-e6b5a9a78b17"},"vehicle_type_id":"4","last_reported":1731654552,"current_range_meters":8400,"station_id":"ce4bgjp2rcd13ifvqbh0","pricing_plan_id":"cebpf4jnsgd1na2vs0mg"},{"bike_id":"34187729-5eec-49ed-88e0-40bfd675743d","system_id":"levelo_inurba_marseille","lat":43.24076,"lon":5.37755,"is_reserved":false,"is_disabled":false,"rental_uris":{"android":"levelo://app?vid=34187729-5eec-49ed-88e0-40bfd675743d","ios":"levelo://app?vid=34187729-5eec-49ed-88e0-40bfd675743d"},"vehicle_type_id":"4","last_reported":1731654552,"current_range_meters":6000,"station_id":"ce4bhnp2rcd13ifvqgvg","pricing_plan_id":"cebpf4jnsgd1na2vs0mg"},{"bike_id":"ad9e5643-959a-4636-935c-2a6093955f09","system_id":"levelo_inurba_marseille","lat":43.26199,"lon":5.37933,"is_reserved":false,"is_disabled":false,"rental_uris":{"android":"levelo://app?vid=ad9e5643-959a-4636-935c-2a6093955f09","ios":"levelo://app?vid=ad9e5643-959a-4636-935c-2a6093955f09"},"vehicle_type_id":"4","last_reported":1731654552,"current_range_meters":38800,"station_id":"ce4bhjp2rcd13ifvqg90","pricing_plan_id":"cebpf4jnsgd1na2vs0mg"},{"bike_id":"021ab24c-2a0d-440d-8e09-9e35589bcbc7","system_id":"levelo_inurba_marseille","lat":43.27999,"lon":5.40011,"is_reserved":false,"is_disabled":false,"rental_uris":{"android":"levelo://app?vid=021ab24c-2a0d-440d-8e09-9e35589bcbc7","ios":"levelo://app?vid=021ab24c-2a0d-440d-8e09-9e35589bcbc7"},"vehicle_type_id":"4","last_reported":1731654552,"current_range_meters":36400,"station_id":"ce4bho92rcd13ifvqh4g","pricing_plan_id":"cebpf4jnsgd1na2vs0mg"},{"bike_id":"a7a2f16d-8cad-4360-ad8c-a967bb3e2d9e","system_id":"levelo_inurba_marseille","lat":43.26928,"lon":5.38933,"is_reserved":false,"is_disabled":false,"rental_uris":{"android":"levelo://app?vid=a7a2f16d-8cad-4360-ad8c-a967bb3e2d9e","ios":"levelo://app?vid=a7a2f16d-8cad-4360-ad8c-a967bb3e2d9e"},"vehicle_type_id":"4","last_reported":1731654552,"current_range_meters":6000,"station_id":"ce4bhhh2rcd13ifvqfl0","pricing_plan_id":"cebpf4jnsgd1na2vs0mg"},{"bike_id":"2db46c00-d305-49fb-9f59-368dd8a841d1","system_id":"levelo_inurba_marseille","lat":43.28458,"lon":5.35885,"is_reserved":false,"is_disabled":false,"rental_uris":{"android":"levelo://app?vid=2db46c00-d305-49fb-9f59-368dd8a841d1","ios":"levelo://app?vid=2db46c00-d305-49fb-9f59-368dd8a841d1"},"vehicle_type_id":"4","last_reported":1731654552,"current_range_meters":38000,"station_id":"ce4bhah2rcd13ifvqei0","pricing_plan_id":"cebpf4jnsgd1na2vs0mg"},{"bike_id":"d34be8f2-2737-4c58-a364-8c929038a413","system_id":"levelo_inurba_marseille","lat":43.27491,"lon":5.42449,"is_reserved":false,"is_disabled":false,"rental_uris":{"android":"levelo://app?vid=d34be8f2-2737-4c58-a364-8c929038a413","ios":"levelo://app?vid=d34be8f2-2737-4c58-a364-8c929038a413"},"vehicle_type_id":"4","last_reported":1731654552,"current_range_meters":16800,"station_id":"ce4bhn92rcd13ifvqgrg","pricing_plan_id":"cebpf4jnsgd1na2vs0mg"},{"bike_id":"d75784fe-a983-4036-8fa4-fad5d019aed4","system_id":"levelo_inurba_marseille","lat":43.30528,"lon":5.36712,"is_reserved":false,"is_disabled":false,"rental_uris":{"android":"levelo://app?vid=d75784fe-a983-4036-8fa4-fad5d019aed4","ios":"levelo://app?vid=d75784fe-a983-4036-8fa4-fad5d019aed4"},"vehicle_type_id":"4","last_reported":1731654552,"current_range_meters":37600,"station_id":"ce4bgrp2rcd13ifvqc9g","pricing_plan_id":"cebpf4jnsgd1na2vs0mg"},{"bike_id":"3284d059-714e-4a01-9eeb-77986c94f926","system_id":"levelo_inurba_marseille","lat":43.29037,"lon":5.39967,"is_reserved":false,"is_disabled":false,"rental_uris":{"android":"levelo://app?vid=3284d059-714e-4a01-9eeb-77986c94f926","ios":"levelo://app?vid=3284d059-714e-4a01-9eeb-77986c94f926"},"vehicle_type_id":"4","last_reported":1731654552,"current_range_meters":8000,"station_id":"ce4bh392rcd13ifvqdm0","pricing_plan_id":"cebpf4jnsgd1na2vs0mg"},{"bike_id":"98091770-dcc5-4a56-8220-78a646028af1","system_id":"levelo_inurba_marseille","lat":43.26955,"lon":5.38631,"is_reserved":false,"is_disabled":false,"rental_uris":{"android":"levelo://app?vid=98091770-dcc5-4a56-8220-78a646028af1","ios":"levelo://app?vid=98091770-dcc5-4a56-8220-78a646028af1"},"vehicle_type_id":"4","last_reported":1731654552,"current_range_meters":36400,"station_id":"ce4bhh92rcd13ifvqfh0","pricing_plan_id":"cebpf4jnsgd1na2vs0mg"},{"bike_id":"6d6c2938-95fb-4e6b-911a-cc31cf922297","system_id":"levelo_inurba_marseille","lat":43.24076,"lon":5.37748,"is_reserved":false,"is_disabled":false,"rental_uris":{"android":"levelo://app?vid=6d6c2938-95fb-4e6b-911a-cc31cf922297","ios":"levelo://app?vid=6d6c2938-95fb-4e6b-911a-cc31cf922297"},"vehicle_type_id":"4","last_reported":1731654552,"current_range_meters":12800,"station_id":"ce4bhnp2rcd13ifvqgvg","pricing_plan_id":"cebpf4jnsgd1na2vs0mg"},{"bike_id":"e0daac83-cef7-4c9b-a090-a5619a33aa5e","system_id":"levelo_inurba_marseille","lat":43.2928,"lon":5.40126,"is_reserved":false,"is_disabled":false,"rental_uris":{"android":"levelo://app?vid=e0daac83-cef7-4c9b-a090-a5619a33aa5e","ios":"levelo://app?vid=e0daac83-cef7-4c9b-a090-a5619a33aa5e"},"vehicle_type_id":"4","last_reported":1731654552,"current_range_meters":12400,"station_id":"ce4bh312rcd13ifvqdk0","pricing_plan_id":"cebpf4jnsgd1na2vs0mg"},{"bike_id":"e270c34e-9c66-4ca5-81d1-0c1270da9c85","system_id":"levelo_inurba_marseille","lat":43.26949,"lon":5.38636,"is_reserved":false,"is_disabled":false,"rental_uris":{"android":"levelo://app?vid=e270c34e-9c66-4ca5-81d1-0c1270da9c85","ios":"levelo://app?vid=e270c34e-9c66-4ca5-81d1-0c1270da9c85"},"vehicle_type_id":"4","last_reported":1731654552,"current_range_meters":8400,"station_id":"ce4bhh92rcd13ifvqfh0","pricing_plan_id":"cebpf4jnsgd1na2vs0mg"},{"bike_id":"3801d79e-aba9-453c-9e83-33f3550a7c41","system_id":"levelo_inurba_marseille","lat":43.24396,"lon":5.37063,"is_reserved":false,"is_disabled":false,"rental_uris":{"android":"levelo://app?vid=3801d79e-aba9-453c-9e83-33f3550a7c41","ios":"levelo://app?vid=3801d79e-aba9-453c-9e83-33f3550a7c41"},"vehicle_type_id":"4","last_reported":1731654552,"current_range_meters":38400,"station_id":"ce4bhhh2rcd13ifvqfk0","pricing_plan_id":"cebpf4jnsgd1na2vs0mg"},{"bike_id":"792531a3-4da6-4082-bd0a-16451cbb2558","system_id":"levelo_inurba_marseille","lat":43.26026,"lon":5.3755,"is_reserved":false,"is_disabled":false,"rental_uris":{"android":"levelo://app?vid=792531a3-4da6-4082-bd0a-16451cbb2558","ios":"levelo://app?vid=792531a3-4da6-4082-bd0a-16451cbb2558"},"vehicle_type_id":"4","last_reported":1731654552,"current_range_meters":23200,"station_id":"ce4bhgh2rcd13ifvqfa0","pricing_plan_id":"cebpf4jnsgd1na2vs0mg"},{"bike_id":"2075620d-8e40-4b07-9f01-b71e03b5e7d1","system_id":"levelo_inurba_marseille","lat":43.28305,"lon":5.3807,"is_reserved":false,"is_disabled":false,"rental_uris":{"android":"levelo://app?vid=2075620d-8e40-4b07-9f01-b71e03b5e7d1","ios":"levelo://app?vid=2075620d-8e40-4b07-9f01-b71e03b5e7d1"},"vehicle_type_id":"4","last_reported":1731654552,"current_range_meters":22800,"station_id":"","pricing_plan_id":"cebpf4jnsgd1na2vs0mg"},{"bike_id":"3518ef3f-0bbc-4e32-9c56-873651871a8f","system_id":"levelo_inurba_marseille","lat":43.25934,"lon":5.40907,"is_reserved":false,"is_disabled":false,"rental_uris":{"android":"levelo://app?vid=3518ef3f-0bbc-4e32-9c56-873651871a8f","ios":"levelo://app?vid=3518ef3f-0bbc-4e32-9c56-873651871a8f"},"vehicle_type_id":"4","last_reported":1731654552,"current_range_meters":28400,"station_id":"ce4bhm92rcd13ifvqglg","pricing_plan_id":"cebpf4jnsgd1na2vs0mg"},{"bike_id":"ed8d3b4d-50db-43d3-b6b4-29451a4a1a6d","system_id":"levelo_inurba_marseille","lat":43.28346,"lon":5.38109,"is_reserved":false,"is_disabled":false,"rental_uris":{"android":"levelo://app?vid=ed8d3b4d-50db-43d3-b6b4-29451a4a1a6d","ios":"levelo://app?vid=ed8d3b4d-50db-43d3-b6b4-29451a4a1a6d"},"vehicle_type_id":"4","last_reported":1731654552,"current_range_meters":25600,"station_id":"ce4bh412rcd13ifvqdr0","pricing_plan_id":"cebpf4jnsgd1na2vs0mg"},{"bike_id":"f80186ca-deff-4b09-a7ab-19d59ffa885a","system_id":"levelo_inurba_marseille","lat":43.24171,"lon":5.39727,"is_reserved":false,"is_disabled":false,"rental_uris":{"android":"levelo://app?vid=f80186ca-deff-4b09-a7ab-19d59ffa885a","ios":"levelo://app?vid=f80186ca-deff-4b09-a7ab-19d59ffa885a"},"vehicle_type_id":"4","last_reported":1731654552,"current_range_meters":4400,"station_id":"ce4bhn12rcd13ifvqgpg","pricing_plan_id":"cebpf4jnsgd1na2vs0mg"},{"bike_id":"1311c692-6e9d-4afb-b7b0-20686564fe7a","system_id":"levelo_inurba_marseille","lat":43.337444,"lon":5.374475,"is_reserved":false,"is_disabled":false,"rental_uris":{"android":"levelo://app?vid=1311c692-6e9d-4afb-b7b0-20686564fe7a","ios":"levelo://app?vid=1311c692-6e9d-4afb-b7b0-20686564fe7a"},"vehicle_type_id":"4","last_reported":1731654552,"current_range_meters":29600,"station_id":"","pricing_plan_id":"cebpf4jnsgd1na2vs0mg"},{"bike_id":"2f091d97-e8f3-47ae-90b8-5c57a34d904d","system_id":"levelo_inurba_marseille","lat":43.31119,"lon":5.37769,"is_reserved":false,"is_disabled":false,"rental_uris":{"android":"levelo://app?vid=2f091d97-e8f3-47ae-90b8-5c57a34d904d","ios":"levelo://app?vid=2f091d97-e8f3-47ae-90b8-5c57a34d904d"},"vehicle_type_id":"4","last_reported":1731654552,"current_range_meters":37600,"station_id":"ce4bgt92rcd13ifvqcg0","pricing_plan_id":"cebpf4jnsgd1na2vs0mg"},{"bike_id":"db79510e-58e6-4d69-a4d0-b02a58fdb1f1","system_id":"levelo_inurba_marseille","lat":43.23956,"lon":5.36629,"is_reserved":false,"is_disabled":false,"rental_uris":{"android":"levelo://app?vid=db79510e-58e6-4d69-a4d0-b02a58fdb1f1","ios":"levelo://app?vid=db79510e-58e6-4d69-a4d0-b02a58fdb1f1"},"vehicle_type_id":"4","last_reported":1731654552,"current_range_meters":33200,"station_id":"ce4bhi12rcd13ifvqfp0","pricing_plan_id":"cebpf4jnsgd1na2vs0mg"},{"bike_id":"645736ec-802b-47e5-809f-bd31a78a83ae","system_id":"levelo_inurba_marseille","lat":43.31722,"lon":5.42404,"is_reserved":false,"is_disabled":false,"rental_uris":{"android":"levelo://app?vid=645736ec-802b-47e5-809f-bd31a78a83ae","ios":"levelo://app?vid=645736ec-802b-47e5-809f-bd31a78a83ae"},"vehicle_type_id":"4","last_reported":1731654552,"current_range_meters":38000,"station_id":"ce4bhp92rcd13ifvqhbg","pricing_plan_id":"cebpf4jnsgd1na2vs0mg"},{"bike_id":"c0ac1168-21ff-4da4-a13f-e813768e4b83","system_id":"levelo_inurba_marseille","lat":43.34147,"lon":5.40908,"is_reserved":false,"is_disabled":false,"rental_uris":{"android":"levelo://app?vid=c0ac1168-21ff-4da4-a13f-e813768e4b83","ios":"levelo://app?vid=c0ac1168-21ff-4da4-a13f-e813768e4b83"},"vehicle_type_id":"4","last_reported":1731654552,"current_range_meters":38000,"station_id":"ce4bhqh2rcd13ifvqhlg","pricing_plan_id":"cebpf4jnsgd1na2vs0mg"},{"bike_id":"2ac1e61c-e8c2-4472-89f3-52c9c2e8bce2","system_id":"levelo_inurba_marseille","lat":43.30154,"lon":5.38081,"is_reserved":false,"is_disabled":false,"rental_uris":{"android":"levelo://app?vid=2ac1e61c-e8c2-4472-89f3-52c9c2e8bce2","ios":"levelo://app?vid=2ac1e61c-e8c2-4472-89f3-52c9c2e8bce2"},"vehicle_type_id":"4","last_reported":1731654552,"current_range_meters":24800,"station_id":"ce4bgjp2rcd13ifvqbh0","pricing_plan_id":"cebpf4jnsgd1na2vs0mg"},{"bike_id":"35460df3-e095-4792-9505-5748e3be263d","system_id":"levelo_inurba_marseille","lat":43.23188,"lon":5.39986,"is_reserved":false,"is_disabled":false,"rental_uris":{"android":"levelo://app?vid=35460df3-e095-4792-9505-5748e3be263d","ios":"levelo://app?vid=35460df3-e095-4792-9505-5748e3be263d"},"vehicle_type_id":"4","last_reported":1731654552,"current_range_meters":38400,"station_id":"ce4bhn12rcd13ifvqgqg","pricing_plan_id":"cebpf4jnsgd1na2vs0mg"},{"bike_id":"7424d63e-6e7c-4227-99b7-3939f84576b7","system_id":"levelo_inurba_marseille","lat":43.28925,"lon":5.39629,"is_reserved":false,"is_disabled":false,"rental_uris":{"android":"levelo://app?vid=7424d63e-6e7c-4227-99b7-3939f84576b7","ios":"levelo://app?vid=7424d63e-6e7c-4227-99b7-3939f84576b7"},"vehicle_type_id":"4","last_reported":1731654552,"current_range_meters":32800,"station_id":"ce4bh3h2rcd13ifvqdn0","pricing_plan_id":"cebpf4jnsgd1na2vs0mg"},{"bike_id":"4d8c2b2b-c7e0-4a00-b28e-b4c407c86208","system_id":"levelo_inurba_marseille","lat":43.29549,"lon":5.42284,"is_reserved":false,"is_disabled":false,"rental_uris":{"android":"levelo://app?vid=4d8c2b2b-c7e0-4a00-b28e-b4c407c86208","ios":"levelo://app?vid=4d8c2b2b-c7e0-4a00-b28e-b4c407c86208"},"vehicle_type_id":"4","last_reported":1731654552,"current_range_meters":32400,"station_id":"ce4bhph2rcd13ifvqhdg","pricing_plan_id":"cebpf4jnsgd1na2vs0mg"},{"bike_id":"1db7e47b-80a0-46fa-b3dc-cc5c159bde15","system_id":"levelo_inurba_marseille","lat":43.31076,"lon":5.42427,"is_reserved":false,"is_disabled":false,"rental_uris":{"android":"levelo://app?vid=1db7e47b-80a0-46fa-b3dc-cc5c159bde15","ios":"levelo://app?vid=1db7e47b-80a0-46fa-b3dc-cc5c159bde15"},"vehicle_type_id":"4","last_reported":1731654552,"current_range_meters":39200,"station_id":"ce4bhp92rcd13ifvqhag","pricing_plan_id":"cebpf4jnsgd1na2vs0mg"},{"bike_id":"a6b8c285-acc9-4039-9531-1aae39136a33","system_id":"levelo_inurba_marseille","lat":43.312042,"lon":5.367348,"is_reserved":false,"is_disabled":false,"rental_uris":{"android":"levelo://app?vid=a6b8c285-acc9-4039-9531-1aae39136a33","ios":"levelo://app?vid=a6b8c285-acc9-4039-9531-1aae39136a33"},"vehicle_type_id":"4","last_reported":1731654552,"current_range_meters":20400,"station_id":"","pricing_plan_id":"cebpf4jnsgd1na2vs0mg"},{"bike_id":"969fc660-e18c-47b7-beed-36ead3f43ca6","system_id":"levelo_inurba_marseille","lat":43.28458,"lon":5.35915,"is_reserved":false,"is_disabled":false,"rental_uris":{"android":"levelo://app?vid=969fc660-e18c-47b7-beed-36ead3f43ca6","ios":"levelo://app?vid=969fc660-e18c-47b7-beed-36ead3f43ca6"},"vehicle_type_id":"4","last_reported":1731654552,"current_range_meters":40000,"station_id":"ce4bhah2rcd13ifvqei0","pricing_plan_id":"cebpf4jnsgd1na2vs0mg"},{"bike_id":"23924f64-83fc-4944-8553-d3088610590d","system_id":"levelo_inurba_marseille","lat":43.28845,"lon":5.39318,"is_reserved":false,"is_disabled":false,"rental_uris":{"android":"levelo://app?vid=23924f64-83fc-4944-8553-d3088610590d","ios":"levelo://app?vid=23924f64-83fc-4944-8553-d3088610590d"},"vehicle_type_id":"4","last_reported":1731654552,"current_range_meters":4800,"station_id":"ce4bh2p2rcd13ifvqdi0","pricing_plan_id":"cebpf4jnsgd1na2vs0mg"},{"bike_id":"6ebb43f8-f44b-4caa-9a19-77ea08134693","system_id":"levelo_inurba_marseille","lat":43.29557,"lon":5.42289,"is_reserved":false,"is_disabled":false,"rental_uris":{"android":"levelo://app?vid=6ebb43f8-f44b-4caa-9a19-77ea08134693","ios":"levelo://app?vid=6ebb43f8-f44b-4caa-9a19-77ea08134693"},"vehicle_type_id":"4","last_reported":1731654552,"current_range_meters":10000,"station_id":"ce4bhph2rcd13ifvqhdg","pricing_plan_id":"cebpf4jnsgd1na2vs0mg"},{"bike_id":"4d14dbde-aa5e-4ce7-8961-badc312e3654","system_id":"levelo_inurba_marseille","lat":43.30795,"lon":5.38135,"is_reserved":false,"is_disabled":false,"rental_uris":{"android":"levelo://app?vid=4d14dbde-aa5e-4ce7-8961-badc312e3654","ios":"levelo://app?vid=4d14dbde-aa5e-4ce7-8961-badc312e3654"},"vehicle_type_id":"4","last_reported":1731654552,"current_range_meters":38800,"station_id":"ce4bgt12rcd13ifvqce0","pricing_plan_id":"cebpf4jnsgd1na2vs0mg"},{"bike_id":"624c482d-4e86-40cf-a13d-0426d089ae1d","system_id":"levelo_inurba_marseille","lat":43.297276,"lon":5.376452,"is_reserved":false,"is_disabled":false,"rental_uris":{"android":"levelo://app?vid=624c482d-4e86-40cf-a13d-0426d089ae1d","ios":"levelo://app?vid=624c482d-4e86-40cf-a13d-0426d089ae1d"},"vehicle_type_id":"4","last_reported":1731654552,"current_range_meters":22800,"station_id":"ce4bh9p2rcd13ifvqed0","pricing_plan_id":"cebpf4jnsgd1na2vs0mg"},{"bike_id":"ac9afbbe-557f-4dcc-87f0-e6179e53f70c","system_id":"levelo_inurba_marseille","lat":43.28945,"lon":5.3641,"is_reserved":false,"is_disabled":false,"rental_uris":{"android":"levelo://app?vid=ac9afbbe-557f-4dcc-87f0-e6179e53f70c","ios":"levelo://app?vid=ac9afbbe-557f-4dcc-87f0-e6179e53f70c"},"vehicle_type_id":"4","last_reported":1731654552,"current_range_meters":14000,"station_id":"ce4bhc92rcd13ifvqetg","pricing_plan_id":"cebpf4jnsgd1na2vs0mg"},{"bike_id":"1ae8fe75-00ad-479b-a755-74d45d76bfbe","system_id":"levelo_inurba_marseille","lat":43.24168,"lon":5.36402,"is_reserved":false,"is_disabled":false,"rental_uris":{"android":"levelo://app?vid=1ae8fe75-00ad-479b-a755-74d45d76bfbe","ios":"levelo://app?vid=1ae8fe75-00ad-479b-a755-74d45d76bfbe"},"vehicle_type_id":"4","last_reported":1731654552,"current_range_meters":12400,"station_id":"cpo36qri1sfpv3e86is0","pricing_plan_id":"cebpf4jnsgd1na2vs0mg"},{"bike_id":"da01b24d-cb71-4056-a94c-f07abf704661","system_id":"levelo_inurba_marseille","lat":43.29773,"lon":5.38099,"is_reserved":false,"is_disabled":false,"rental_uris":{"android":"levelo://app?vid=da01b24d-cb71-4056-a94c-f07abf704661","ios":"levelo://app?vid=da01b24d-cb71-4056-a94c-f07abf704661"},"vehicle_type_id":"4","last_reported":1731654552,"current_range_meters":38800,"station_id":"ce4bgip2rcd13ifvqbb0","pricing_plan_id":"cebpf4jnsgd1na2vs0mg"},{"bike_id":"3da32a3f-0030-4f80-aeb2-2119b4d1e641","system_id":"levelo_inurba_marseille","lat":43.28972,"lon":5.37838,"is_reserved":false,"is_disabled":false,"rental_uris":{"android":"levelo://app?vid=3da32a3f-0030-4f80-aeb2-2119b4d1e641","ios":"levelo://app?vid=3da32a3f-0030-4f80-aeb2-2119b4d1e641"},"vehicle_type_id":"4","last_reported":1731654552,"current_range_meters":38000,"station_id":"ce4bh9p2rcd13ifvqed0","pricing_plan_id":"cebpf4jnsgd1na2vs0mg"},{"bike_id":"92ac4858-87d6-4ceb-8f6e-004635a816a8","system_id":"levelo_inurba_marseille","lat":43.2779,"lon":5.40727,"is_reserved":false,"is_disabled":false,"rental_uris":{"android":"levelo://app?vid=92ac4858-87d6-4ceb-8f6e-004635a816a8","ios":"levelo://app?vid=92ac4858-87d6-4ceb-8f6e-004635a816a8"},"vehicle_type_id":"4","last_reported":1731654552,"current_range_meters":37600,"station_id":"ce4bhnh2rcd13ifvqgtg","pricing_plan_id":"cebpf4jnsgd1na2vs0mg"},{"bike_id":"81e0eec2-971f-4cf4-85ae-7024e26d44be","system_id":"levelo_inurba_marseille","lat":43.30154,"lon":5.38193,"is_reserved":false,"is_disabled":false,"rental_uris":{"android":"levelo://app?vid=81e0eec2-971f-4cf4-85ae-7024e26d44be","ios":"levelo://app?vid=81e0eec2-971f-4cf4-85ae-7024e26d44be"},"vehicle_type_id":"4","last_reported":1731654552,"current_range_meters":14000,"station_id":"","pricing_plan_id":"cebpf4jnsgd1na2vs0mg"},{"bike_id":"16c431de-b128-4380-a727-8a0a0eba5b1b","system_id":"levelo_inurba_marseille","lat":43.24389,"lon":5.37048,"is_reserved":false,"is_disabled":false,"rental_uris":{"android":"levelo://app?vid=16c431de-b128-4380-a727-8a0a0eba5b1b","ios":"levelo://app?vid=16c431de-b128-4380-a727-8a0a0eba5b1b"},"vehicle_type_id":"4","last_reported":1731654552,"current_range_meters":39200,"station_id":"ce4bhhh2rcd13ifvqfk0","pricing_plan_id":"cebpf4jnsgd1na2vs0mg"},{"bike_id":"d37a5777-a5f5-4b7f-b7f5-a1dae307da91","system_id":"levelo_inurba_marseille","lat":43.23193,"lon":5.3556,"is_reserved":false,"is_disabled":false,"rental_uris":{"android":"levelo://app?vid=d37a5777-a5f5-4b7f-b7f5-a1dae307da91","ios":"levelo://app?vid=d37a5777-a5f5-4b7f-b7f5-a1dae307da91"},"vehicle_type_id":"4","last_reported":1731654552,"current_range_meters":36800,"station_id":"ce4bhu92rcd13ifvqi70","pricing_plan_id":"cebpf4jnsgd1na2vs0mg"},{"bike_id":"93870316-42b2-4ac6-a1af-a6621b88b268","system_id":"levelo_inurba_marseille","lat":43.30153,"lon":5.38079,"is_reserved":false,"is_disabled":false,"rental_uris":{"android":"levelo://app?vid=93870316-42b2-4ac6-a1af-a6621b88b268","ios":"levelo://app?vid=93870316-42b2-4ac6-a1af-a6621b88b268"},"vehicle_type_id":"4","last_reported":1731654552,"current_range_meters":27600,"station_id":"ce4bgjp2rcd13ifvqbh0","pricing_plan_id":"cebpf4jnsgd1na2vs0mg"},{"bike_id":"2c898585-1a29-4c85-a4aa-ce0ad034b9fb","system_id":"levelo_inurba_marseille","lat":43.27929,"lon":5.41052,"is_reserved":false,"is_disabled":false,"rental_uris":{"android":"levelo://app?vid=2c898585-1a29-4c85-a4aa-ce0ad034b9fb","ios":"levelo://app?vid=2c898585-1a29-4c85-a4aa-ce0ad034b9fb"},"vehicle_type_id":"4","last_reported":1731654552,"current_range_meters":5600,"station_id":"ce4bhnp2rcd13ifvqh0g","pricing_plan_id":"cebpf4jnsgd1na2vs0mg"},{"bike_id":"674b0e8f-8c9e-4c11-a204-160fb5dcf762","system_id":"levelo_inurba_marseille","lat":43.24388,"lon":5.37054,"is_reserved":false,"is_disabled":false,"rental_uris":{"android":"levelo://app?vid=674b0e8f-8c9e-4c11-a204-160fb5dcf762","ios":"levelo://app?vid=674b0e8f-8c9e-4c11-a204-160fb5dcf762"},"vehicle_type_id":"4","last_reported":1731654552,"current_range_meters":40000,"station_id":"ce4bhhh2rcd13ifvqfk0","pricing_plan_id":"cebpf4jnsgd1na2vs0mg"},{"bike_id":"76755f5e-4f24-4c25-9679-38d41e851be8","system_id":"levelo_inurba_marseille","lat":43.30464,"lon":5.37911,"is_reserved":false,"is_disabled":false,"rental_uris":{"android":"levelo://app?vid=76755f5e-4f24-4c25-9679-38d41e851be8","ios":"levelo://app?vid=76755f5e-4f24-4c25-9679-38d41e851be8"},"vehicle_type_id":"4","last_reported":1731654552,"current_range_meters":38800,"station_id":"ce4bgup2rcd13ifvqcn0","pricing_plan_id":"cebpf4jnsgd1na2vs0mg"},{"bike_id":"d56eba86-1ab2-4049-bab2-21b758629c3e","system_id":"levelo_inurba_marseille","lat":43.29609,"lon":5.37714,"is_reserved":false,"is_disabled":false,"rental_uris":{"android":"levelo://app?vid=d56eba86-1ab2-4049-bab2-21b758629c3e","ios":"levelo://app?vid=d56eba86-1ab2-4049-bab2-21b758629c3e"},"vehicle_type_id":"4","last_reported":1731654552,"current_range_meters":38800,"station_id":"ce4bgi92rcd13ifvqb90","pricing_plan_id":"cebpf4jnsgd1na2vs0mg"},{"bike_id":"9a2fd9f5-e6f0-4451-bce7-490ba3b214c2","system_id":"levelo_inurba_marseille","lat":43.33611,"lon":5.41033,"is_reserved":false,"is_disabled":false,"rental_uris":{"android":"levelo://app?vid=9a2fd9f5-e6f0-4451-bce7-490ba3b214c2","ios":"levelo://app?vid=9a2fd9f5-e6f0-4451-bce7-490ba3b214c2"},"vehicle_type_id":"4","last_reported":1731654552,"current_range_meters":28400,"station_id":"ce4bhqh2rcd13ifvqhmg","pricing_plan_id":"cebpf4jnsgd1na2vs0mg"},{"bike_id":"cf8e0e45-1476-4185-9eea-139690e5a7ed","system_id":"levelo_inurba_marseille","lat":43.27496,"lon":5.42449,"is_reserved":false,"is_disabled":false,"rental_uris":{"android":"levelo://app?vid=cf8e0e45-1476-4185-9eea-139690e5a7ed","ios":"levelo://app?vid=cf8e0e45-1476-4185-9eea-139690e5a7ed"},"vehicle_type_id":"4","last_reported":1731654552,"current_range_meters":16800,"station_id":"ce4bhn92rcd13ifvqgrg","pricing_plan_id":"cebpf4jnsgd1na2vs0mg"},{"bike_id":"686aea7d-acf6-4015-87e0-a298375382e2","system_id":"levelo_inurba_marseille","lat":43.26199,"lon":5.37932,"is_reserved":false,"is_disabled":false,"rental_uris":{"android":"levelo://app?vid=686aea7d-acf6-4015-87e0-a298375382e2","ios":"levelo://app?vid=686aea7d-acf6-4015-87e0-a298375382e2"},"vehicle_type_id":"4","last_reported":1731654552,"current_range_meters":38800,"station_id":"ce4bhjp2rcd13ifvqg90","pricing_plan_id":"cebpf4jnsgd1na2vs0mg"},{"bike_id":"bb51e4d0-ecfe-46bd-ad27-37cc84e00de2","system_id":"levelo_inurba_marseille","lat":43.296936,"lon":5.376561,"is_reserved":false,"is_disabled":false,"rental_uris":{"android":"levelo://app?vid=bb51e4d0-ecfe-46bd-ad27-37cc84e00de2","ios":"levelo://app?vid=bb51e4d0-ecfe-46bd-ad27-37cc84e00de2"},"vehicle_type_id":"4","last_reported":1731654552,"current_range_meters":29600,"station_id":"ce4bgn12rcd13ifvqbt0","pricing_plan_id":"cebpf4jnsgd1na2vs0mg"},{"bike_id":"6e1bc57d-c889-4f08-9aae-11dec524ee5f","system_id":"levelo_inurba_marseille","lat":43.28343,"lon":5.38101,"is_reserved":false,"is_disabled":false,"rental_uris":{"android":"levelo://app?vid=6e1bc57d-c889-4f08-9aae-11dec524ee5f","ios":"levelo://app?vid=6e1bc57d-c889-4f08-9aae-11dec524ee5f"},"vehicle_type_id":"4","last_reported":1731654552,"current_range_meters":36000,"station_id":"ce4bh412rcd13ifvqdr0","pricing_plan_id":"cebpf4jnsgd1na2vs0mg"},{"bike_id":"519d69a2-5297-4ce4-92ee-5368a099fba1","system_id":"levelo_inurba_marseille","lat":43.29571,"lon":5.39973,"is_reserved":false,"is_disabled":false,"rental_uris":{"android":"levelo://app?vid=519d69a2-5297-4ce4-92ee-5368a099fba1","ios":"levelo://app?vid=519d69a2-5297-4ce4-92ee-5368a099fba1"},"vehicle_type_id":"4","last_reported":1731654552,"current_range_meters":33200,"station_id":"ce4bh312rcd13ifvqdj0","pricing_plan_id":"cebpf4jnsgd1na2vs0mg"},{"bike_id":"50814c77-8f08-4203-ae7e-9310c3a72f76","system_id":"levelo_inurba_marseille","lat":43.283417,"lon":5.381117,"is_reserved":false,"is_disabled":false,"rental_uris":{"android":"levelo://app?vid=50814c77-8f08-4203-ae7e-9310c3a72f76","ios":"levelo://app?vid=50814c77-8f08-4203-ae7e-9310c3a72f76"},"vehicle_type_id":"4","last_reported":1731654552,"current_range_meters":37600,"station_id":"ce4bh412rcd13ifvqdr0","pricing_plan_id":"cebpf4jnsgd1na2vs0mg"},{"bike_id":"894f0a3e-f5b2-4eb8-96f1-db89dbf50dff","system_id":"levelo_inurba_marseille","lat":43.27374,"lon":5.36263,"is_reserved":false,"is_disabled":false,"rental_uris":{"android":"levelo://app?vid=894f0a3e-f5b2-4eb8-96f1-db89dbf50dff","ios":"levelo://app?vid=894f0a3e-f5b2-4eb8-96f1-db89dbf50dff"},"vehicle_type_id":"4","last_reported":1731654552,"current_range_meters":38800,"station_id":"ce4bhbh2rcd13ifvqeo0","pricing_plan_id":"cebpf4jnsgd1na2vs0mg"},{"bike_id":"b448c76e-6a85-4e4e-8af8-7d9249501502","system_id":"levelo_inurba_marseille","lat":43.337444,"lon":5.374475,"is_reserved":false,"is_disabled":false,"rental_uris":{"android":"levelo://app?vid=b448c76e-6a85-4e4e-8af8-7d9249501502","ios":"levelo://app?vid=b448c76e-6a85-4e4e-8af8-7d9249501502"},"vehicle_type_id":"4","last_reported":1731654552,"current_range_meters":29600,"station_id":"","pricing_plan_id":"cebpf4jnsgd1na2vs0mg"},{"bike_id":"2f1efe36-41b2-4a6f-aa98-b326b5712fe6","system_id":"levelo_inurba_marseille","lat":43.29897,"lon":5.43661,"is_reserved":false,"is_disabled":false,"rental_uris":{"android":"levelo://app?vid=2f1efe36-41b2-4a6f-aa98-b326b5712fe6","ios":"levelo://app?vid=2f1efe36-41b2-4a6f-aa98-b326b5712fe6"},"vehicle_type_id":"4","last_reported":1731654552,"current_range_meters":25200,"station_id":"ce4bhpp2rcd13ifvqhfg","pricing_plan_id":"cebpf4jnsgd1na2vs0mg"},{"bike_id":"b57dfba0-3ee9-416d-9d8f-b63137d085dc","system_id":"levelo_inurba_marseille","lat":43.30465,"lon":5.379,"is_reserved":false,"is_disabled":false,"rental_uris":{"android":"levelo://app?vid=b57dfba0-3ee9-416d-9d8f-b63137d085dc","ios":"levelo://app?vid=b57dfba0-3ee9-416d-9d8f-b63137d085dc"},"vehicle_type_id":"4","last_reported":1731654552,"current_range_meters":38000,"station_id":"ce4bgup2rcd13ifvqcn0","pricing_plan_id":"cebpf4jnsgd1na2vs0mg"},