{"last_updated":1741111983,"ttl":60,"version":"2.2","data":{"bikes":[{"bike_id":"511d8bfb-54fb-4e3b-8b58-cd0179111dc0","system_id":"levelo_inurba_marseille","lat":43.25249,"lon":5.40324,"is_reserved":false,"is_disabled":true,"rental_uris":{"android":"levelo://app?vid=511d8bfb-54fb-4e3b-8b58-cd0179111dc0","ios":"levelo://app?vid=511d8bfb-54fb-4e3b-8b58-cd0179111dc0"},"vehicle_type_id":"4","last_reported":1741111983,"current_range_meters":0,"station_id":"","pricing_plan_id":"cebpf4jnsgd1na2vs0mg"},{"bike_id":"a8336c71-ba3d-40fc-8a76-559ed12765c7","system_id":"levelo_inurba_marseille","lat":43.26999,"lon":5.39264,"is_reserved":false,"is_disabled":true,"rental_uris":{"android":"levelo://app?vid=a8336c71-ba3d-40fc-8a76-559ed12765c7","ios":"levelo://app?vid=a8336c71-ba3d-40fc-8a76-559ed12765c7"},"vehicle_type_id":"4","last_reported":1741111983,"current_range_meters":0,"station_id":"","pricing_plan_id":"cebpf4jnsgd1na2vs0mg"},{"bike_id":"b8d39620-16b3-499b-ab24-7eaaeed35a90","system_id":"levelo_inurba_marseille","lat":43.306026,"lon":5.372173,"is_reserved":false,"is_disabled":true,"rental_uris":{"android":"levelo://app?vid=b8d39620-16b3-499b-ab24-7eaaeed35a90","ios":"levelo://app?vid=b8d39620-16b3-499b-ab24-7eaaeed35a90"},"vehicle_type_id":"4","last_reported":1741111983,"current_range_meters":0,"station_id":"","pricing_plan_id":"cebpf4jnsgd1na2vs0mg"},{"bike_id":"41ef9ba1-394a-400f-a44d-f7ba94e68acd","system_id":"levelo_inurba_marseille","lat":43.29576,"lon":5.3752,"is_reserved":false,"is_disabled":true,"rental_uris":{"android":"levelo://app?vid=41ef9ba1-394a-400f-a44d-f7ba94e68acd","ios":"levelo://app?vid=41ef9ba1-394a-400f-a44d-f7ba94e68acd"},"vehicle_type_id":"4","last_reported":1741111983,"current_range_meters":0,"station_id":"ce4bgh92rcd13ifvqb50","pricing_plan_id":"cebpf4jnsgd1na2vs0mg"},{"bike_id":"77533665-4718-405b-ad9b-2ceb14ec3de5","system_id":"levelo_inurba_marseille","lat":43.293,"lon":5.37455,"is_reserved":false,"is_disabled":true,"rental_uris":{"android":"levelo://app?vid=77533665-4718-405b-ad9b-2ceb14ec3de5","ios":"levelo://app?vid=77533665-4718-405b-ad9b-2ceb14ec3de5"},"vehicle_type_id":"4","last_reported":1741111983,"current_range_meters":0,"station_id":"ce4bgi12rcd13ifvqb70","pricing_plan_id":"cebpf4jnsgd1na2vs0mg"},{"bike_id":"330b8b81-8d42-45b1-b956-f0dbdc4fbe4b","system_id":"levelo_inurba_marseille","lat":43.29974,"lon":5.385,"is_reserved":false,"is_disabled":true,"rental_uris":{"android":"levelo://app?vid=330b8b81-8d42-45b1-b956-f0dbdc4fbe4b","ios":"levelo://app?vid=330b8b81-8d42-45b1-b956-f0dbdc4fbe4b"},"vehicle_type_id":"4","last_reported":1741111983,"current_range_meters":0,"station_id":"ce4bgj92rcd13ifvqbd0","pricing_plan_id":"cebpf4jnsgd1na2vs0mg"},{"bike_id":"dbc34e4b-4464-4e8f-a5b7-3b669ff9e541","system_id":"levelo_inurba_marseille","lat":43.29923,"lon":5.37473,"is_reserved":false,"is_disabled":true,"rental_uris":{"android":"levelo://app?vid=dbc34e4b-4464-4e8f-a5b7-3b669ff9e541","ios":"levelo://app?vid=dbc34e4b-4464-4e8f-a5b7-3b669ff9e541"},"vehicle_type_id":"4","last_reported":1741111983,"current_range_meters":0,"station_id":"ce4bgjh2rcd13ifvqbg0","pricing_plan_id":"cebpf4jnsgd1na2vs0mg"},{"bike_id":"acb52c63-a4e5-4383-8243-48e80b679f54","system_id":"levelo_inurba_marseille","lat":43.30868,"lon":5.39625,"is_reserved":false,"is_disabled":true,"rental_uris":{"android":"levelo://app?vid=acb52c63-a4e5-4383-8243-48e80b679f54","ios":"levelo://app?vid=acb52c63-a4e5-4383-8243-48e80b679f54"},"vehicle_type_id":"4","last_reported":1741111983,"current_range_meters":0,"station_id":"ce4bh012rcd13ifvqcv0","pricing_plan_id":"cebpf4jnsgd1na2vs0mg"},{"bike_id":"63253655-6d28-47df-9f41-4ec7127157ea","system_id":"levelo_inurba_marseille","lat":43.3032,"lon":5.40432,"is_reserved":false,"is_disabled":true,"rental_uris":{"android":"levelo://app?vid=63253655-6d28-47df-9f41-4ec7127157ea","ios":"levelo://app?vid=63253655-6d28-47df-9f41-4ec7127157ea"},"vehicle_type_id":"4","last_reported":1741111983,"current_range_meters":0,"station_id":"ce4bh012rcd13ifvqd10","pricing_plan_id":"cebpf4jnsgd1na2vs0mg"},{"bike_id":"16424cb2-a8c4-4e37-9cb3-5d942cad472b","system_id":"levelo_inurba_marseille","lat":43.30656,"lon":5.40067,"is_reserved":false,"is_disabled":true,"rental_uris":{"android":"levelo://app?vid=16424cb2-a8c4-4e37-9cb3-5d942cad472b","ios":"levelo://app?vid=16424cb2-a8c4-4e37-9cb3-5d942cad472b"},"vehicle_type_id":"4","last_reported":1741111983,"current_range_meters":0,"station_id":"ce4bh112rcd13ifvqda0","pricing_plan_id":"cebpf4jnsgd1na2vs0mg"},{"bike_id":"299c3631-cb49-4e9c-acd5-b8b276f4bb32","system_id":"levelo_inurba_marseille","lat":43.2892,"lon":5.38386,"is_reserved":false,"is_disabled":true,"rental_uris":{"android":"levelo://app?vid=299c3631-cb49-4e9c-acd5-b8b276f4bb32","ios":"levelo://app?vid=299c3631-cb49-4e9c-acd5-b8b276f4bb32"},"vehicle_type_id":"4","last_reported":1741111983,"current_range_meters":0,"station_id":"ce4bh612rcd13ifvqe6g","pricing_plan_id":"cebpf4jnsgd1na2vs0mg"},{"bike_id":"311d7454-cb4b-4f15-af9c-d6da9285301a","system_id":"levelo_inurba_marseille","lat":43.2846,"lon":5.35883,"is_reserved":false,"is_disabled":true,"rental_uris":{"android":"levelo://app?vid=311d7454-cb4b-4f15-af9c-d6da9285301a","ios":"levelo://app?vid=311d7454-cb4b-4f15-af9c-d6da9285301a"},"vehicle_type_id":"4","last_reported":1741111983,"current_range_meters":0,"station_id":"ce4bhah2rcd13ifvqei0","pricing_plan_id":"cebpf4jnsgd1na2vs0mg"},{"bike_id":"a66f9049-b019-4d06-8fe7-80aa9cf8241a","system_id":"levelo_inurba_marseille","lat":43.27955,"lon":5.38716,"is_reserved":false,"is_disabled":true,"rental_uris":{"android":"levelo://app?vid=a66f9049-b019-4d06-8fe7-80aa9cf8241a","ios":"levelo://app?vid=a66f9049-b019-4d06-8fe7-80aa9cf8241a"},"vehicle_type_id":"4","last_reported":1741111983,"current_range_meters":0,"station_id":"ce4bhg12rcd13ifvqf80","pricing_plan_id":"cebpf4jnsgd1na2vs0mg"},{"bike_id":"52652e2e-a1e4-4937-b9e1-003c1bcaee6f","system_id":"levelo_inurba_marseille","lat":43.26777,"lon":5.39421,"is_reserved":false,"is_disabled":true,"rental_uris":{"android":"levelo://app?vid=52652e2e-a1e4-4937-b9e1-003c1bcaee6f","ios":"levelo://app?vid=52652e2e-a1e4-4937-b9e1-003c1bcaee6f"},"vehicle_type_id":"4","last_reported":1741111983,"current_range_meters":0,"station_id":"ce4bhh12rcd13ifvqfg0","pricing_plan_id":"cebpf4jnsgd1na2vs0mg"},{"bike_id":"c13f884d-6fd8-4a40-a8e5-ae56bf400a54","system_id":"levelo_inurba_marseille","lat":43.26836,"lon":5.39374,"is_reserved":false,"is_disabled":true,"rental_uris":{"android":"levelo://app?vid=c13f884d-6fd8-4a40-a8e5-ae56bf400a54","ios":"levelo://app?vid=c13f884d-6fd8-4a40-a8e5-ae56bf400a54"},"vehicle_type_id":"4","last_reported":1741111983,"current_range_meters":0,"station_id":"ce4bhh12rcd13ifvqfg0","pricing_plan_id":"cebpf4jnsgd1na2vs0mg"},{"bike_id":"48dddbf3-fddb-4a4b-bb74-eec2fa2c1ffb","system_id":"levelo_inurba_marseille","lat":43.24394,"lon":5.37078,"is_reserved":false,"is_disabled":true,"rental_uris":{"android":"levelo://app?vid=48dddbf3-fddb-4a4b-bb74-eec2fa2c1ffb","ios":"levelo://app?vid=48dddbf3-fddb-4a4b-bb74-eec2fa2c1ffb"},"vehicle_type_id":"4","last_reported":1741111983,"current_range_meters":0,"station_id":"ce4bhhh2rcd13ifvqfk0","pricing_plan_id":"cebpf4jnsgd1na2vs0mg"},{"bike_id":"60cc0a09-5a71-4775-8f6a-e682e18d4eac","system_id":"levelo_inurba_marseille","lat":43.25579,"lon":5.38255,"is_reserved":false,"is_disabled":true,"rental_uris":{"android":"levelo://app?vid=60cc0a09-5a71-4775-8f6a-e682e18d4eac","ios":"levelo://app?vid=60cc0a09-5a71-4775-8f6a-e682e18d4eac"},"vehicle_type_id":"4","last_reported":1741111983,"current_range_meters":0,"station_id":"ce4bhih2rcd13ifvqfs0","pricing_plan_id":"cebpf4jnsgd1na2vs0mg"},{"bike_id":"f4d569fd-fbf2-4347-8d25-c8ce03236de6","system_id":"levelo_inurba_marseille","lat":43.2706,"lon":5.40259,"is_reserved":false,"is_disabled":true,"rental_uris":{"android":"levelo://app?vid=f4d569fd-fbf2-4347-8d25-c8ce03236de6","ios":"levelo://app?vid=f4d569fd-fbf2-4347-8d25-c8ce03236de6"},"vehicle_type_id":"4","last_reported":1741111983,"current_range_meters":0,"station_id":"ce4bhk92rcd13ifvqgc0","pricing_plan_id":"cebpf4jnsgd1na2vs0mg"},{"bike_id":"01fa310c-8b05-4ecf-98be-08a54f2fbf36","system_id":"levelo_inurba_marseille","lat":43.27059,"lon":5.40256,"is_reserved":false,"is_disabled":true,"rental_uris":{"android":"levelo://app?vid=01fa310c-8b05-4ecf-98be-08a54f2fbf36","ios":"levelo://app?vid=01fa310c-8b05-4ecf-98be-08a54f2fbf36"},"vehicle_type_id":"4","last_reported":1741111983,"current_range_meters":0,"station_id":"ce4bhk92rcd13ifvqgc0","pricing_plan_id":"cebpf4jnsgd1na2vs0mg"},{"bike_id":"f2eeb27d-91f6-42a0-a916-517478ef206e","system_id":"levelo_inurba_marseille","lat":43.27188,"lon":5.409865,"is_reserved":false,"is_disabled":true,"rental_uris":{"android":"levelo://app?vid=f2eeb27d-91f6-42a0-a916-517478ef206e","ios":"levelo://app?vid=f2eeb27d-91f6-42a0-a916-517478ef206e"},"vehicle_type_id":"4","last_reported":1741111983,"current_range_meters":0,"station_id":"ce4bhl12rcd13ifvqgf0","pricing_plan_id":"cebpf4jnsgd1na2vs0mg"},{"bike_id":"f99e45d3-580e-4248-9d30-690b17e65759","system_id":"levelo_inurba_marseille","lat":43.26232,"lon":5.4047,"is_reserved":false,"is_disabled":true,"rental_uris":{"android":"levelo://app?vid=f99e45d3-580e-4248-9d30-690b17e65759","ios":"levelo://app?vid=f99e45d3-580e-4248-9d30-690b17e65759"},"vehicle_type_id":"4","last_reported":1741111983,"current_range_meters":0,"station_id":"ce4bhmh2rcd13ifvqgmg","pricing_plan_id":"cebpf4jnsgd1na2vs0mg"},{"bike_id":"809ae271-f7b2-43ff-baa6-3b3ce080c6e8","system_id":"levelo_inurba_marseille","lat":43.27814,"lon":5.40711,"is_reserved":false,"is_disabled":true,"rental_uris":{"android":"levelo://app?vid=809ae271-f7b2-43ff-baa6-3b3ce080c6e8","ios":"levelo://app?vid=809ae271-f7b2-43ff-baa6-3b3ce080c6e8"},"vehicle_type_id":"4","last_reported":1741111983,"current_range_meters":0,"station_id":"ce4bhnh2rcd13ifvqgtg","pricing_plan_id":"cebpf4jnsgd1na2vs0mg"},{"bike_id":"077ca356-5bdf-4ace-9bf4-38d0b888d179","system_id":"levelo_inurba_marseille","lat":43.286142,"lon":5.370632,"is_reserved":false,"is_disabled":true,"rental_uris":{"android":"levelo://app?vid=077ca356-5bdf-4ace-9bf4-38d0b888d179","ios":"levelo://app?vid=077ca356-5bdf-4ace-9bf4-38d0b888d179"},"vehicle_type_id":"4","last_reported":1741111983,"current_range_meters":0,"station_id":"ce4bht12rcd13ifvqi60","pricing_plan_id":"cebpf4jnsgd1na2vs0mg"},{"bike_id":"13cdf72a-f1a7-4597-9458-097ab4f4723c","system_id":"levelo_inurba_marseille","lat":43.29977,"lon":5.38491,"is_reserved":false,"is_disabled":true,"rental_uris":{"android":"levelo://app?vid=13cdf72a-f1a7-4597-9458-097ab4f4723c","ios":"levelo://app?vid=13cdf72a-f1a7-4597-9458-097ab4f4723c"},"vehicle_type_id":"4","last_reported":1741111983,"current_range_meters":400,"station_id":"ce4bgj92rcd13ifvqbd0","pricing_plan_id":"cebpf4jnsgd1na2vs0mg"},{"bike_id":"ce17e90f-b55a-4742-9b0e-e4990285b929","system_id":"levelo_inurba_marseille","lat":43.29973,"lon":5.38491,"is_reserved":false,"is_disabled":true,"rental_uris":{"android":"levelo://app?vid=ce17e90f-b55a-4742-9b0e-e4990285b929","ios":"levelo://app?vid=ce17e90f-b55a-4742-9b0e-e4990285b929"},"vehicle_type_id":"4","last_reported":1741111983,"current_range_meters":400,"station_id":"ce4bgj92rcd13ifvqbd0","pricing_plan_id":"cebpf4jnsgd1na2vs0mg"},{"bike_id":"7c268f9a-f259-40ba-9e5a-ee2ddb5e4637","system_id":"levelo_inurba_marseille","lat":43.29597,"lon":5.38105,"is_reserved":false,"is_disabled":true,"rental_uris":{"android":"levelo://app?vid=7c268f9a-f259-40ba-9e5a-ee2ddb5e4637","ios":"levelo://app?vid=7c268f9a-f259-40ba-9e5a-ee2ddb5e4637"},"vehicle_type_id":"4","last_reported":1741111983,"current_range_meters":400,"station_id":"ce4bgl12rcd13ifvqbo0","pricing_plan_id":"cebpf4jnsgd1na2vs0mg"},{"bike_id":"b2df456b-223c-4d1f-8fc1-5c1f686031e3","system_id":"levelo_inurba_marseille","lat":43.30318,"lon":5.36892,"is_reserved":false,"is_disabled":true,"rental_uris":{"android":"levelo://app?vid=b2df456b-223c-4d1f-8fc1-5c1f686031e3","ios":"levelo://app?vid=b2df456b-223c-4d1f-8fc1-5c1f686031e3"},"vehicle_type_id":"4","last_reported":1741111983,"current_range_meters":400,"station_id":"ce4bgqh2rcd13ifvqc5g","pricing_plan_id":"cebpf4jnsgd1na2vs0mg"},{"bike_id":"1e0df2fd-c5cc-437f-9ddd-c6f75e68724b","system_id":"levelo_inurba_marseille","lat":43.30595,"lon":5.39356,"is_reserved":false,"is_disabled":true,"rental_uris":{"android":"levelo://app?vid=1e0df2fd-c5cc-437f-9ddd-c6f75e68724b","ios":"levelo://app?vid=1e0df2fd-c5cc-437f-9ddd-c6f75e68724b"},"vehicle_type_id":"4","last_reported":1741111983,"current_range_meters":400,"station_id":"ce4bh0p2rcd13ifvqd80","pricing_plan_id":"cebpf4jnsgd1na2vs0mg"},{"bike_id":"1a5a496f-5d64-40d5-bdf4-963bb26b193b","system_id":"levelo_inurba_marseille","lat":43.29078,"lon":5.37169,"is_reserved":false,"is_disabled":true,"rental_uris":{"android":"levelo://app?vid=1a5a496f-5d64-40d5-bdf4-963bb26b193b","ios":"levelo://app?vid=1a5a496f-5d64-40d5-bdf4-963bb26b193b"},"vehicle_type_id":"4","last_reported":1741111983,"current_range_meters":400,"station_id":"ce4bh5p2rcd13ifvqe4g","pricing_plan_id":"cebpf4jnsgd1na2vs0mg"},{"bike_id":"48dc8db9-61c4-4c89-8116-a193448b9164","system_id":"levelo_inurba_marseille","lat":43.28111,"lon":5.37828,"is_reserved":false,"is_disabled":true,"rental_uris":{"android":"levelo://app?vid=48dc8db9-61c4-4c89-8116-a193448b9164","ios":"levelo://app?vid=48dc8db9-61c4-4c89-8116-a193448b9164"},"vehicle_type_id":"4","last_reported":1741111983,"current_range_meters":400,"station_id":"ce4bha12rcd13ifvqee0","pricing_plan_id":"cebpf4jnsgd1na2vs0mg"},{"bike_id":"a1aac398-7f5e-4bb2-be80-67ce00d43aa1","system_id":"levelo_inurba_marseille","lat":43.29671,"lon":5.40639,"is_reserved":false,"is_disabled":true,"rental_uris":{"android":"levelo://app?vid=a1aac398-7f5e-4bb2-be80-67ce00d43aa1","ios":"levelo://app?vid=a1aac398-7f5e-4bb2-be80-67ce00d43aa1"},"vehicle_type_id":"4","last_reported":1741111983,"current_range_meters":800,"station_id":"","pricing_plan_id":"cebpf4jnsgd1na2vs0mg"},{"bike_id":"b58fe002-8c3a-4893-bc17-2bfad0d2db4e","system_id":"levelo_inurba_marseille","lat":43.30922,"lon":5.36867,"is_reserved":false,"is_disabled":true,"rental_uris":{"android":"levelo://app?vid=b58fe002-8c3a-4893-bc17-2bfad0d2db4e","ios":"levelo://app?vid=b58fe002-8c3a-4893-bc17-2bfad0d2db4e"},"vehicle_type_id":"4","last_reported":1741111983,"current_range_meters":800,"station_id":"ce4bgn92rcd13ifvqbvg","pricing_plan_id":"cebpf4jnsgd1na2vs0mg"},{"bike_id":"31c3f82e-185f-41f2-9b0b-24ede7d1d699","system_id":"levelo_inurba_marseille","lat":43.31068,"lon":5.38374,"is_reserved":false,"is_disabled":true,"rental_uris":{"android":"levelo://app?vid=31c3f82e-185f-41f2-9b0b-24ede7d1d699","ios":"levelo://app?vid=31c3f82e-185f-41f2-9b0b-24ede7d1d699"},"vehicle_type_id":"4","last_reported":1741111983,"current_range_meters":800,"station_id":"ce4bgv92rcd13ifvqcr0","pricing_plan_id":"cebpf4jnsgd1na2vs0mg"},{"bike_id":"ac771efd-1fb4-43f1-b4b5-770918e129d0","system_id":"levelo_inurba_marseille","lat":43.30631,"lon":5.40084,"is_reserved":false,"is_disabled":true,"rental_uris":{"android":"levelo://app?vid=ac771efd-1fb4-43f1-b4b5-770918e129d0","ios":"levelo://app?vid=ac771efd-1fb4-43f1-b4b5-770918e129d0"},"vehicle_type_id":"4","last_reported":1741111983,"current_range_meters":800,"station_id":"ce4bh112rcd13ifvqda0","pricing_plan_id":"cebpf4jnsgd1na2vs0mg"},{"bike_id":"84e4bb32-b6fa-4ca0-8a93-f7f9b8f176e1","system_id":"levelo_inurba_marseille","lat":43.28108,"lon":5.37838,"is_reserved":false,"is_disabled":true,"rental_uris":{"android":"levelo://app?vid=84e4bb32-b6fa-4ca0-8a93-f7f9b8f176e1","ios":"levelo://app?vid=84e4bb32-b6fa-4ca0-8a93-f7f9b8f176e1"},"vehicle_type_id":"4","last_reported":1741111983,"current_range_meters":800,"station_id":"ce4bha12rcd13ifvqee0","pricing_plan_id":"cebpf4jnsgd1na2vs0mg"},{"bike_id":"91e948c9-bb4a-4450-a9c4-db9e534e395b","system_id":"levelo_inurba_marseille","lat":43.29203,"lon":5.3581,"is_reserved":false,"is_disabled":true,"rental_uris":{"android":"levelo://app?vid=91e948c9-bb4a-4450-a9c4-db9e534e395b","ios":"levelo://app?vid=91e948c9-bb4a-4450-a9c4-db9e534e395b"},"vehicle_type_id":"4","last_reported":1741111983,"current_range_meters":800,"station_id":"ce4bhb12rcd13ifvqel0","pricing_plan_id":"cebpf4jnsgd1na2vs0mg"},{"bike_id":"c03fa41b-0500-40aa-87b6-75cc2ab54604","system_id":"levelo_inurba_marseille","lat":43.265804,"lon":5.389819,"is_reserved":false,"is_disabled":true,"rental_uris":{"android":"levelo://app?vid=c03fa41b-0500-40aa-87b6-75cc2ab54604","ios":"levelo://app?vid=c03fa41b-0500-40aa-87b6-75cc2ab54604"},"vehicle_type_id":"4","last_reported":1741111983,"current_range_meters":800,"station_id":"ce4bhe12rcd13ifvqf30","pricing_plan_id":"cebpf4jnsgd1na2vs0mg"},{"bike_id":"3d90ee49-060e-475f-bf14-09b77ac67fea","system_id":"levelo_inurba_marseille","lat":43.2719,"lon":5.4099,"is_reserved":false,"is_disabled":true,"rental_uris":{"android":"levelo://app?vid=3d90ee49-060e-475f-bf14-09b77ac67fea","ios":"levelo://app?vid=3d90ee49-060e-475f-bf14-09b77ac67fea"},"vehicle_type_id":"4","last_reported":1741111983,"current_range_meters":800,"station_id":"ce4bhl12rcd13ifvqgf0","pricing_plan_id":"cebpf4jnsgd1na2vs0mg"},{"bike_id":"573f151a-e2d8-41f5-aa1f-004a09c1a441","system_id":"levelo_inurba_marseille","lat":43.27824,"lon":5.40707,"is_reserved":false,"is_disabled":true,"rental_uris":{"android":"levelo://app?vid=573f151a-e2d8-41f5-aa1f-004a09c1a441","ios":"levelo://app?vid=573f151a-e2d8-41f5-aa1f-004a09c1a441"},"vehicle_type_id":"4","last_reported":1741111983,"current_range_meters":800,"station_id":"ce4bhnh2rcd13ifvqgtg","pricing_plan_id":"cebpf4jnsgd1na2vs0mg"},{"bike_id":"61e36f98-9d35-4c4d-a7de-9d30fec3b3c0","system_id":"levelo_inurba_marseille","lat":43.28153,"lon":5.42648,"is_reserved":false,"is_disabled":true,"rental_uris":{"android":"levelo://app?vid=61e36f98-9d35-4c4d-a7de-9d30fec3b3c0","ios":"levelo://app?vid=61e36f98-9d35-4c4d-a7de-9d30fec3b3c0"},"vehicle_type_id":"4","last_reported":1741111983,"current_range_meters":800,"station_id":"ce4bhnh2rcd13ifvqgug","pricing_plan_id":"cebpf4jnsgd1na2vs0mg"},{"bike_id":"f89426ab-6423-4f77-b200-79f9e271dd3f","system_id":"levelo_inurba_marseille","lat":43.28005,"lon":5.40002,"is_reserved":false,"is_disabled":false,"rental_uris":{"android":"levelo://app?vid=f89426ab-6423-4f77-b200-79f9e271dd3f","ios":"levelo://app?vid=f89426ab-6423-4f77-b200-79f9e271dd3f"},"vehicle_type_id":"4","last_reported":1741111983,"current_range_meters":800,"station_id":"ce4bho92rcd13ifvqh4g","pricing_plan_id":"cebpf4jnsgd1na2vs0mg"},{"bike_id":"044776d1-4f59-45a4-9f72-4774244cfa3f","system_id":"levelo_inurba_marseille","lat":43.29961,"lon":5.40063,"is_reserved":false,"is_disabled":true,"rental_uris":{"android":"levelo://app?vid=044776d1-4f59-45a4-9f72-4774244cfa3f","ios":"levelo://app?vid=044776d1-4f59-45a4-9f72-4774244cfa3f"},"vehicle_type_id":"4","last_reported":1741111983,"current_range_meters":1200,"station_id":"","pricing_plan_id":"cebpf4jnsgd1na2vs0mg"},{"bike_id":"1c16ac32-7e99-4d36-958c-e8c4df8afc7b","system_id":"levelo_inurba_marseille","lat":43.29294,"lon":5.37167,"is_reserved":false,"is_disabled":true,"rental_uris":{"android":"levelo://app?vid=1c16ac32-7e99-4d36-958c-e8c4df8afc7b","ios":"levelo://app?vid=1c16ac32-7e99-4d36-958c-e8c4df8afc7b"},"vehicle_type_id":"4","last_reported":1741111983,"current_range_meters":1200,"station_id":"ce4bgh92rcd13ifvqb40","pricing_plan_id":"cebpf4jnsgd1na2vs0mg"},{"bike_id":"83441fe5-6861-4161-8ede-d1e5045803ce","system_id":"levelo_inurba_marseille","lat":43.29263,"lon":5.40897,"is_reserved":false,"is_disabled":true,"rental_uris":{"android":"levelo://app?vid=83441fe5-6861-4161-8ede-d1e5045803ce","ios":"levelo://app?vid=83441fe5-6861-4161-8ede-d1e5045803ce"},"vehicle_type_id":"4","last_reported":1741111983,"current_range_meters":1200,"station_id":"ce4bh192rcd13ifvqdc0","pricing_plan_id":"cebpf4jnsgd1na2vs0mg"},{"bike_id":"018df39e-96a6-4f33-b5d0-e38b4768d4fc","system_id":"levelo_inurba_marseille","lat":43.31186,"lon":5.38259,"is_reserved":false,"is_disabled":true,"rental_uris":{"android":"levelo://app?vid=018df39e-96a6-4f33-b5d0-e38b4768d4fc","ios":"levelo://app?vid=018df39e-96a6-4f33-b5d0-e38b4768d4fc"},"vehicle_type_id":"4","last_reported":1741111983,"current_range_meters":1600,"station_id":"","pricing_plan_id":"cebpf4jnsgd1na2vs0mg"},{"bike_id":"823ec418-20da-4225-a9b4-c9fd4acc98a0","system_id":"levelo_inurba_marseille","lat":43.30134,"lon":5.38787,"is_reserved":false,"is_disabled":true,"rental_uris":{"android":"levelo://app?vid=823ec418-20da-4225-a9b4-c9fd4acc98a0","ios":"levelo://app?vid=823ec418-20da-4225-a9b4-c9fd4acc98a0"},"vehicle_type_id":"4","last_reported":1741111983,"current_range_meters":1600,"station_id":"ce4bghh2rcd13ifvqb60","pricing_plan_id":"cebpf4jnsgd1na2vs0mg"},{"bike_id":"6480c2c7-d4d2-4cca-9c7c-e73b5eaf08a2","system_id":"levelo_inurba_marseille","lat":43.29974,"lon":5.38498,"is_reserved":false,"is_disabled":true,"rental_uris":{"android":"levelo://app?vid=6480c2c7-d4d2-4cca-9c7c-e73b5eaf08a2","ios":"levelo://app?vid=6480c2c7-d4d2-4cca-9c7c-e73b5eaf08a2"},"vehicle_type_id":"4","last_reported":1741111983,"current_range_meters":1600,"station_id":"ce4bgj92rcd13ifvqbd0","pricing_plan_id":"cebpf4jnsgd1na2vs0mg"},{"bike_id":"e0f45151-79ce-4d0f-9309-5a3a7341ddb9","system_id":"levelo_inurba_marseille","lat":43.30546,"lon":5.36566,"is_reserved":false,"is_disabled":true,"rental_uris":{"android":"levelo://app?vid=e0f45151-79ce-4d0f-9309-5a3a7341ddb9","ios":"levelo://app?vid=e0f45151-79ce-4d0f-9309-5a3a7341ddb9"},"vehicle_type_id":"4","last_reported":1741111983,"current_range_meters":1600,"station_id":"ce4bgs12rcd13ifvqcag","pricing_plan_id":"cebpf4jnsgd1na2vs0mg"},{"bike_id":"dec3b1ea-c22c-4e0a-9273-1724e71fbd74","system_id":"levelo_inurba_marseille","lat":43.2925,"lon":5.40903,"is_reserved":false,"is_disabled":true,"rental_uris":{"android":"levelo://app?vid=dec3b1ea-c22c-4e0a-9273-1724e71fbd74","ios":"levelo://app?vid=dec3b1ea-c22c-4e0a-9273-1724e71fbd74"},"vehicle_type_id":"4","last_reported":1741111983,"current_range_meters":1600,"station_id":"ce4bh192rcd13ifvqdc0","pricing_plan_id":"cebpf4jnsgd1na2vs0mg"},{"bike_id":"477b25ae-5fce-428c-8555-0debe814ed78","system_id":"levelo_inurba_marseille","lat":43.29419,"lon":5.38626,"is_reserved":false,"is_disabled":true,"rental_uris":{"android":"levelo://app?vid=477b25ae-5fce-428c-8555-0debe814ed78","ios":"levelo://app?vid=477b25ae-5fce-428c-8555-0debe814ed78"},"vehicle_type_id":"4","last_reported":1741111983,"current_range_meters":1600,"station_id":"ce4bh2h2rcd13ifvqdh0","pricing_plan_id":"cebpf4jnsgd1na2vs0mg"},{"bike_id":"00b604bf-bd5c-415f-9b30-75b855a60bbe","system_id":"levelo_inurba_marseille","lat":43.29288,"lon":5.40154,"is_reserved":false,"is_disabled":true,"rental_uris":{"android":"levelo://app?vid=00b604bf-bd5c-415f-9b30-75b855a60bbe","ios":"levelo://app?vid=00b604bf-bd5c-415f-9b30-75b855a60bbe"},"vehicle_type_id":"4","last_reported":1741111983,"current_range_meters":1600,"station_id":"ce4bh312rcd13ifvqdk0","pricing_plan_id":"cebpf4jnsgd1na2vs0mg"},{"bike_id":"c8809740-2df1-4a8e-ae98-13be50aee8ba","system_id":"levelo_inurba_marseille","lat":43.29011,"lon":5.38648,"is_reserved":false,"is_disabled":true,"rental_uris":{"android":"levelo://app?vid=c8809740-2df1-4a8e-ae98-13be50aee8ba","ios":"levelo://app?vid=c8809740-2df1-4a8e-ae98-13be50aee8ba"},"vehicle_type_id":"4","last_reported":1741111983,"current_range_meters":1600,"station_id":"ce4bh4p2rcd13ifvqe0g","pricing_plan_id":"cebpf4jnsgd1na2vs0mg"},{"bike_id":"b6940964-997b-47da-9dfd-cb11e7ec8df8","system_id":"levelo_inurba_marseille","lat":43.29264,"lon":5.38442,"is_reserved":false,"is_disabled":true,"rental_uris":{"android":"levelo://app?vid=b6940964-997b-47da-9dfd-cb11e7ec8df8","ios":"levelo://app?vid=b6940964-997b-47da-9dfd-cb11e7ec8df8"},"vehicle_type_id":"4","last_reported":1741111983,"current_range_meters":1600,"station_id":"ce4bh692rcd13ifvqea0","pricing_plan_id":"cebpf4jnsgd1na2vs0mg"},{"bike_id":"77791563-6344-422a-bd4a-9850b16b011c","system_id":"levelo_inurba_marseille","lat":43.28459,"lon":5.35888,"is_reserved":false,"is_disabled":true,"rental_uris":{"android":"levelo://app?vid=77791563-6344-422a-bd4a-9850b16b011c","ios":"levelo://app?vid=77791563-6344-422a-bd4a-9850b16b011c"},"vehicle_type_id":"4","last_reported":1741111983,"current_range_meters":1600,"station_id":"ce4bhah2rcd13ifvqei0","pricing_plan_id":"cebpf4jnsgd1na2vs0mg"},{"bike_id":"441bd720-cb24-4135-8b0a-edb1abd3d587","system_id":"levelo_inurba_marseille","lat":43.28156,"lon":5.42637,"is_reserved":false,"is_disabled":true,"rental_uris":{"android":"levelo://app?vid=441bd720-cb24-4135-8b0a-edb1abd3d587","ios":"levelo://app?vid=441bd720-cb24-4135-8b0a-edb1abd3d587"},"vehicle_type_id":"4","last_reported":1741111983,"current_range_meters":1600,"station_id":"ce4bhnh2rcd13ifvqgug","pricing_plan_id":"cebpf4jnsgd1na2vs0mg"},{"bike_id":"64fcfbe9-c266-4c1a-9987-95e6474cc3ff","system_id":"levelo_inurba_marseille","lat":43.32658,"lon":5.40994,"is_reserved":false,"is_disabled":true,"rental_uris":{"android":"levelo://app?vid=64fcfbe9-c266-4c1a-9987-95e6474cc3ff","ios":"levelo://app?vid=64fcfbe9-c266-4c1a-9987-95e6474cc3ff"},"vehicle_type_id":"4","last_reported":1741111983,"current_range_meters":1600,"station_id":"ce4bhpp2rcd13ifvqhgg","pricing_plan_id":"cebpf4jnsgd1na2vs0mg"},{"bike_id":"cd3705b5-1163-402b-9183-9445bec62e08","system_id":"levelo_inurba_marseille","lat":43.268,"lon":5.40265,"is_reserved":false,"is_disabled":true,"rental_uris":{"android":"levelo://app?vid=cd3705b5-1163-402b-9183-9445bec62e08","ios":"levelo://app?vid=cd3705b5-1163-402b-9183-9445bec62e08"},"vehicle_type_id":"4","last_reported":1741111983,"current_range_meters":1600,"station_id":"ce501612rcd8frsf0b60","pricing_plan_id":"cebpf4jnsgd1na2vs0mg"},{"bike_id":"220a0227-5499-465d-95c2-f8c653e36037","system_id":"levelo_inurba_marseille","lat":43.27669,"lon":5.39759,"is_reserved":false,"is_disabled":true,"rental_uris":{"android":"levelo://app?vid=220a0227-5499-465d-95c2-f8c653e36037","ios":"levelo://app?vid=220a0227-5499-465d-95c2-f8c653e36037"},"vehicle_type_id":"4","last_reported":1741111983,"current_range_meters":2000,"station_id":"","pricing_plan_id":"cebpf4jnsgd1na2vs0mg"},{"bike_id":"421f7a92-8f07-4506-99a4-2bdd0d25fc00","system_id":"levelo_inurba_marseille","lat":43.29604,"lon":5.38106,"is_reserved":false,"is_disabled":true,"rental_uris":{"android":"levelo://app?vid=421f7a92-8f07-4506-99a4-2bdd0d25fc00","ios":"levelo://app?vid=421f7a92-8f07-4506-99a4-2bdd0d25fc00"},"vehicle_type_id":"4","last_reported":1741111983,"current_range_meters":2000,"station_id":"ce4bgl12rcd13ifvqbo0","pricing_plan_id":"cebpf4jnsgd1na2vs0mg"},{"bike_id":"acf62942-8a5c-47d1-84ee-dccd634350e2","system_id":"levelo_inurba_marseille","lat":43.30769,"lon":5.376535,"is_reserved":false,"is_disabled":true,"rental_uris":{"android":"levelo://app?vid=acf62942-8a5c-47d1-84ee-dccd634350e2","ios":"levelo://app?vid=acf62942-8a5c-47d1-84ee-dccd634350e2"},"vehicle_type_id":"4","last_reported":1741111983,"current_range_meters":2000,"station_id":"ce4bgv92rcd13ifvqcq0","pricing_plan_id":"cebpf4jnsgd1na2vs0mg"},{"bike_id":"ecb0b9a5-4c22-4f7b-bd5d-73d0e66f0d75","system_id":"levelo_inurba_marseille","lat":43.28422,"lon":5.37514,"is_reserved":false,"is_disabled":true,"rental_uris":{"android":"levelo://app?vid=ecb0b9a5-4c22-4f7b-bd5d-73d0e66f0d75","ios":"levelo://app?vid=ecb0b9a5-4c22-4f7b-bd5d-73d0e66f0d75"},"vehicle_type_id":"4","last_reported":1741111983,"current_range_meters":2000,"station_id":"ce4bh412rcd13ifvqds0","pricing_plan_id":"cebpf4jnsgd1na2vs0mg"},{"bike_id":"a903563d-81a3-45a8-a516-944a7426936f","system_id":"levelo_inurba_marseille","lat":43.243864,"lon":5.370607,"is_reserved":false,"is_disabled":true,"rental_uris":{"android":"levelo://app?vid=a903563d-81a3-45a8-a516-944a7426936f","ios":"levelo://app?vid=a903563d-81a3-45a8-a516-944a7426936f"},"vehicle_type_id":"4","last_reported":1741111983,"current_range_meters":2000,"station_id":"ce4bh692rcd13ifvqe90","pricing_plan_id":"cebpf4jnsgd1na2vs0mg"},{"bike_id":"3a72ac21-fdf1-492d-9d50-518a0ee3c638","system_id":"levelo_inurba_marseille","lat":43.28853,"lon":5.35873,"is_reserved":false,"is_disabled":true,"rental_uris":{"android":"levelo://app?vid=3a72ac21-fdf1-492d-9d50-518a0ee3c638","ios":"levelo://app?vid=3a72ac21-fdf1-492d-9d50-518a0ee3c638"},"vehicle_type_id":"4","last_reported":1741111983,"current_range_meters":2000,"station_id":"ce4bhb12rcd13ifvqem0","pricing_plan_id":"cebpf4jnsgd1na2vs0mg"},{"bike_id":"1f7527a2-dab7-4025-93a9-be5a1b5883c9","system_id":"levelo_inurba_marseille","lat":43.26557,"lon":5.37287,"is_reserved":false,"is_disabled":true,"rental_uris":{"android":"levelo://app?vid=1f7527a2-dab7-4025-93a9-be5a1b5883c9","ios":"levelo://app?vid=1f7527a2-dab7-4025-93a9-be5a1b5883c9"},"vehicle_type_id":"4","last_reported":1741111983,"current_range_meters":2000,"station_id":"ce4bhg12rcd13ifvqf70","pricing_plan_id":"cebpf4jnsgd1na2vs0mg"},{"bike_id":"eb0485e5-4d12-4eb8-8c1b-953807d83d3f","system_id":"levelo_inurba_marseille","lat":43.28703,"lon":5.39985,"is_reserved":false,"is_disabled":true,"rental_uris":{"android":"levelo://app?vid=eb0485e5-4d12-4eb8-8c1b-953807d83d3f","ios":"levelo://app?vid=eb0485e5-4d12-4eb8-8c1b-953807d83d3f"},"vehicle_type_id":"4","last_reported":1741111983,"current_range_meters":2000,"station_id":"ce4bho92rcd13ifvqh3g","pricing_plan_id":"cebpf4jnsgd1na2vs0mg"},{"bike_id":"1e1b6b63-adbc-42ec-b37d-8fe6b9bdf00f","system_id":"levelo_inurba_marseille","lat":43.29253,"lon":5.40904,"is_reserved":false,"is_disabled":false,"rental_uris":{"android":"levelo://app?vid=1e1b6b63-adbc-42ec-b37d-8fe6b9bdf00f","ios":"levelo://app?vid=1e1b6b63-adbc-42ec-b37d-8fe6b9bdf00f"},"vehicle_type_id":"4","last_reported":1741111983,"current_range_meters":2800,"station_id":"ce4bh192rcd13ifvqdc0","pricing_plan_id":"cebpf4jnsgd1na2vs0mg"},{"bike_id":"05e73954-faeb-427c-a564-d79dcb064525","system_id":"levelo_inurba_marseille","lat":43.28037,"lon":5.3694,"is_reserved":false,"is_disabled":false,"rental_uris":{"android":"levelo://app?vid=05e73954-faeb-427c-a564-d79dcb064525","ios":"levelo://app?vid=05e73954-faeb-427c-a564-d79dcb064525"},"vehicle_type_id":"4","last_reported":1741111983,"current_range_meters":2800,"station_id":"ce4bha12rcd13ifvqef0","pricing_plan_id":"cebpf4jnsgd1na2vs0mg"},{"bike_id":"58461c17-1010-4c91-8a6d-8b02b545428b","system_id":"levelo_inurba_marseille","lat":43.27948,"lon":5.41043,"is_reserved":false,"is_disabled":false,"rental_uris":{"android":"levelo://app?vid=58461c17-1010-4c91-8a6d-8b02b545428b","ios":"levelo://app?vid=58461c17-1010-4c91-8a6d-8b02b545428b"},"vehicle_type_id":"4","last_reported":1741111983,"current_range_meters":2800,"station_id":"ce4bhnp2rcd13ifvqh0g","pricing_plan_id":"cebpf4jnsgd1na2vs0mg"},{"bike_id":"4cbd2b64-c110-4016-ba71-3ebe90346ea9","system_id":"levelo_inurba_marseille","lat":43.30263,"lon":5.40085,"is_reserved":false,"is_disabled":false,"rental_uris":{"android":"levelo://app?vid=4cbd2b64-c110-4016-ba71-3ebe90346ea9","ios":"levelo://app?vid=4cbd2b64-c110-4016-ba71-3ebe90346ea9"},"vehicle_type_id":"4","last_reported":1741111983,"current_range_meters":3200,"station_id":"ce4bgvh2rcd13ifvqcs0","pricing_plan_id":"cebpf4jnsgd1na2vs0mg"},{"bike_id":"54518c10-131f-452b-b5ad-3ecd65668caa","system_id":"levelo_inurba_marseille","lat":43.28366,"lon":5.38643,"is_reserved":false,"is_disabled":false,"rental_uris":{"android":"levelo://app?vid=54518c10-131f-452b-b5ad-3ecd65668caa","ios":"levelo://app?vid=54518c10-131f-452b-b5ad-3ecd65668caa"},"vehicle_type_id":"4","last_reported":1741111983,"current_range_meters":3200,"station_id":"ce4bh492rcd13ifvqdvg","pricing_plan_id":"cebpf4jnsgd1na2vs0mg"},{"bike_id":"a0d03be2-45c5-470d-aaa0-fcb844478506","system_id":"levelo_inurba_marseille","lat":43.2885,"lon":5.35854,"is_reserved":false,"is_disabled":false,"rental_uris":{"android":"levelo://app?vid=a0d03be2-45c5-470d-aaa0-fcb844478506","ios":"levelo://app?vid=a0d03be2-45c5-470d-aaa0-fcb844478506"},"vehicle_type_id":"4","last_reported":1741111983,"current_range_meters":3200,"station_id":"ce4bhb12rcd13ifvqem0","pricing_plan_id":"cebpf4jnsgd1na2vs0mg"},{"bike_id":"8ef0fe9f-3be3-47a6-bdf2-83f3145969fc","system_id":"levelo_inurba_marseille","lat":43.25114,"lon":5.40324,"is_reserved":false,"is_disabled":false,"rental_uris":{"android":"levelo://app?vid=8ef0fe9f-3be3-47a6-bdf2-83f3145969fc","ios":"levelo://app?vid=8ef0fe9f-3be3-47a6-bdf2-83f3145969fc"},"vehicle_type_id":"4","last_reported":1741111983,"current_range_meters":3200,"station_id":"ce4bhlh2rcd13ifvqgig","pricing_plan_id":"cebpf4jnsgd1na2vs0mg"},{"bike_id":"64f9817d-c5e7-4dd4-b83c-16115dfb7cfa","system_id":"levelo_inurba_marseille","lat":43.30435,"lon":5.38901,"is_reserved":false,"is_disabled":false,"rental_uris":{"android":"levelo://app?vid=64f9817d-c5e7-4dd4-b83c-16115dfb7cfa","ios":"levelo://app?vid=64f9817d-c5e7-4dd4-b83c-16115dfb7cfa"},"vehicle_type_id":"4","last_reported":1741111983,"current_range_meters":3600,"station_id":"ce4bgk12rcd13ifvqbi0","pricing_plan_id":"cebpf4jnsgd1na2vs0mg"},{"bike_id":"cc57f004-09f0-4370-96d3-b5db3646bff0","system_id":"levelo_inurba_marseille","lat":43.30604,"lon":5.37239,"is_reserved":false,"is_disabled":false,"rental_uris":{"android":"levelo://app?vid=cc57f004-09f0-4370-96d3-b5db3646bff0","ios":"levelo://app?vid=cc57f004-09f0-4370-96d3-b5db3646bff0"},"vehicle_type_id":"4","last_reported":1741111983,"current_range_meters":3600,"station_id":"ce4bgqh2rcd13ifvqc4g","pricing_plan_id":"cebpf4jnsgd1na2vs0mg"},{"bike_id":"600b2a73-f9c7-45a2-a54d-80b9771c248f","system_id":"levelo_inurba_marseille","lat":43.29047,"lon":5.38673,"is_reserved":false,"is_disabled":false,"rental_uris":{"android":"levelo://app?vid=600b2a73-f9c7-45a2-a54d-80b9771c248f","ios":"levelo://app?vid=600b2a73-f9c7-45a2-a54d-80b9771c248f"},"vehicle_type_id":"4","last_reported":1741111983,"current_range_meters":3600,"station_id":"ce4bh4p2rcd13ifvqe0g","pricing_plan_id":"cebpf4jnsgd1na2vs0mg"},{"bike_id":"7ca3ab4b-a3ef-4686-8e40-4d5e526f7513","system_id":"levelo_inurba_marseille","lat":43.28933,"lon":5.3839,"is_reserved":false,"is_disabled":false,"rental_uris":{"android":"levelo://app?vid=7ca3ab4b-a3ef-4686-8e40-4d5e526f7513","ios":"levelo://app?vid=7ca3ab4b-a3ef-4686-8e40-4d5e526f7513"},"vehicle_type_id":"4","last_reported":1741111983,"current_range_meters":3600,"station_id":"ce4bh612rcd13ifvqe6g","pricing_plan_id":"cebpf4jnsgd1na2vs0mg"},{"bike_id":"fabd3fb1-afcb-467d-83b1-bc263c4064fb","system_id":"levelo_inurba_marseille","lat":43.28469,"lon":5.35865,"is_reserved":false,"is_disabled":false,"rental_uris":{"android":"levelo://app?vid=fabd3fb1-afcb-467d-83b1-bc263c4064fb","ios":"levelo://app?vid=fabd3fb1-afcb-467d-83b1-bc263c4064fb"},"vehicle_type_id":"4","last_reported":1741111983,"current_range_meters":3600,"station_id":"ce4bhah2rcd13ifvqei0","pricing_plan_id":"cebpf4jnsgd1na2vs0mg"},{"bike_id":"e2a1a602-84e4-4dbd-807d-a1c28deeee23","system_id":"levelo_inurba_marseille","lat":43.27999,"lon":5.40014,"is_reserved":false,"is_disabled":false,"rental_uris":{"android":"levelo://app?vid=e2a1a602-84e4-4dbd-807d-a1c28deeee23","ios":"levelo://app?vid=e2a1a602-84e4-4dbd-807d-a1c28deeee23"},"vehicle_type_id":"4","last_reported":1741111983,"current_range_meters":3600,"station_id":"ce4bho92rcd13ifvqh4g","pricing_plan_id":"cebpf4jnsgd1na2vs0mg"},{"bike_id":"5d6e7723-8748-47b1-a15b-5c719e60614f","system_id":"levelo_inurba_marseille","lat":43.30807,"lon":5.43531,"is_reserved":false,"is_disabled":false,"rental_uris":{"android":"levelo://app?vid=5d6e7723-8748-47b1-a15b-5c719e60614f","ios":"levelo://app?vid=5d6e7723-8748-47b1-a15b-5c719e60614f"},"vehicle_type_id":"4","last_reported":1741111983,"current_range_meters":3600,"station_id":"ce4bhph2rcd13ifvqheg","pricing_plan_id":"cebpf4jnsgd1na2vs0mg"},{"bike_id":"d2146be1-2ce8-43fd-a22b-414ff8591afb","system_id":"levelo_inurba_marseille","lat":43.29971,"lon":5.38486,"is_reserved":false,"is_disabled":false,"rental_uris":{"android":"levelo://app?vid=d2146be1-2ce8-43fd-a22b-414ff8591afb","ios":"levelo://app?vid=d2146be1-2ce8-43fd-a22b-414ff8591afb"},"vehicle_type_id":"4","last_reported":1741111983,"current_range_meters":4000,"station_id":"ce4bgj92rcd13ifvqbd0","pricing_plan_id":"cebpf4jnsgd1na2vs0mg"},{"bike_id":"69a47e9e-f7e2-4f2d-bb06-9b4b9c5f93a9","system_id":"levelo_inurba_marseille","lat":43.30953,"lon":5.39029,"is_reserved":false,"is_disabled":false,"rental_uris":{"android":"levelo://app?vid=69a47e9e-f7e2-4f2d-bb06-9b4b9c5f93a9","ios":"levelo://app?vid=69a47e9e-f7e2-4f2d-bb06-9b4b9c5f93a9"},"vehicle_type_id":"4","last_reported":1741111983,"current_range_meters":4000,"station_id":"ce4bgup2rcd13ifvqco0","pricing_plan_id":"cebpf4jnsgd1na2vs0mg"},{"bike_id":"81b494a1-f3ef-4989-984f-4371eb7b57f5","system_id":"levelo_inurba_marseille","lat":43.27986,"lon":5.41653,"is_reserved":false,"is_disabled":false,"rental_uris":{"android":"levelo://app?vid=81b494a1-f3ef-4989-984f-4371eb7b57f5","ios":"levelo://app?vid=81b494a1-f3ef-4989-984f-4371eb7b57f5"},"vehicle_type_id":"4","last_reported":1741111983,"current_range_meters":4000,"station_id":"ce4bho12rcd13ifvqh1g","pricing_plan_id":"cebpf4jnsgd1na2vs0mg"},{"bike_id":"b06e6ff2-83d1-4cc8-ab3f-ae199b7d296e","system_id":"levelo_inurba_marseille","lat":43.31484,"lon":5.37372,"is_reserved":false,"is_disabled":false,"rental_uris":{"android":"levelo://app?vid=b06e6ff2-83d1-4cc8-ab3f-ae199b7d296e","ios":"levelo://app?vid=b06e6ff2-83d1-4cc8-ab3f-ae199b7d296e"},"vehicle_type_id":"4","last_reported":1741111983,"current_range_meters":4400,"station_id":"","pricing_plan_id":"cebpf4jnsgd1na2vs0mg"},{"bike_id":"73e23838-f4f7-4b87-9d0d-2760981fab6e","system_id":"levelo_inurba_marseille","lat":43.29966,"lon":5.38495,"is_reserved":false,"is_disabled":false,"rental_uris":{"android":"levelo://app?vid=73e23838-f4f7-4b87-9d0d-2760981fab6e","ios":"levelo://app?vid=73e23838-f4f7-4b87-9d0d-2760981fab6e"},"vehicle_type_id":"4","last_reported":1741111983,"current_range_meters":4400,"station_id":"ce4bgj92rcd13ifvqbd0","pricing_plan_id":"cebpf4jnsgd1na2vs0mg"},{"bike_id":"4f9bb631-addf-46ab-923d-41e52e67e345","system_id":"levelo_inurba_marseille","lat":43.29265,"lon":5.38431,"is_reserved":false,"is_disabled":false,"rental_uris":{"android":"levelo://app?vid=4f9bb631-addf-46ab-923d-41e52e67e345","ios":"levelo://app?vid=4f9bb631-addf-46ab-923d-41e52e67e345"},"vehicle_type_id":"4","last_reported":1741111983,"current_range_meters":4400,"station_id":"ce4bh692rcd13ifvqea0","pricing_plan_id":"cebpf4jnsgd1na2vs0mg"},{"bike_id":"e7ec1ac1-2323-47bd-a2b5-7cd3afb282cf","system_id":"levelo_inurba_marseille","lat":43.26937,"lon":5.36674,"is_reserved":false,"is_disabled":false,"rental_uris":{"android":"levelo://app?vid=e7ec1ac1-2323-47bd-a2b5-7cd3afb282cf","ios":"levelo://app?vid=e7ec1ac1-2323-47bd-a2b5-7cd3afb282cf"},"vehicle_type_id":"4","last_reported":1741111983,"current_range_meters":4800,"station_id":"","pricing_plan_id":"cebpf4jnsgd1na2vs0mg"},{"bike_id":"af332430-7b30-4286-8940-8b89a7d3a3d7","system_id":"levelo_inurba_marseille","lat":43.26815,"lon":5.39431,"is_reserved":false,"is_disabled":false,"rental_uris":{"android":"levelo://app?vid=af332430-7b30-4286-8940-8b89a7d3a3d7","ios":"levelo://app?vid=af332430-7b30-4286-8940-8b89a7d3a3d7"},"vehicle_type_id":"4","last_reported":1741111983,"current_range_meters":4800,"station_id":"ce4bhh12rcd13ifvqfg0","pricing_plan_id":"cebpf4jnsgd1na2vs0mg"},{"bike_id":"30f7f6dd-06d4-4316-b17a-2a159a2f0325","system_id":"levelo_inurba_marseille","lat":43.24181,"lon":5.3973,"is_reserved":false,"is_disabled":false,"rental_uris":{"android":"levelo://app?vid=30f7f6dd-06d4-4316-b17a-2a159a2f0325","ios":"levelo://app?vid=30f7f6dd-06d4-4316-b17a-2a159a2f0325"},"vehicle_type_id":"4","last_reported":1741111983,"current_range_meters":4800,"station_id":"ce4bhn12rcd13ifvqgpg","pricing_plan_id":"cebpf4jnsgd1na2vs0mg"},{"bike_id":"48e5f06b-1e63-4da0-b4bc-a432bb7f96f9","system_id":"levelo_inurba_marseille","lat":43.28617,"lon":5.3707,"is_reserved":false,"is_disabled":false,"rental_uris":{"android":"levelo://app?vid=48e5f06b-1e63-4da0-b4bc-a432bb7f96f9","ios":"levelo://app?vid=48e5f06b-1e63-4da0-b4bc-a432bb7f96f9"},"vehicle_type_id":"4","last_reported":1741111983,"current_range_meters":4800,"station_id":"ce4bht12rcd13ifvqi60","pricing_plan_id":"cebpf4jnsgd1na2vs0mg"},{"bike_id":"cc35bd1a-4b0a-48fd-8225-b6e1e46fc6b8","system_id":"levelo_inurba_marseille","lat":43.28936,"lon":5.36641,"is_reserved":false,"is_disabled":false,"rental_uris":{"android":"levelo://app?vid=cc35bd1a-4b0a-48fd-8225-b6e1e46fc6b8","ios":"levelo://app?vid=cc35bd1a-4b0a-48fd-8225-b6e1e46fc6b8"},"vehicle_type_id":"4","last_reported":1741111983,"current_range_meters":5600,"station_id":"ce4bhap2rcd13ifvqek0","pricing_plan_id":"cebpf4jnsgd1na2vs0mg"},{"bike_id":"aa146e2d-e0dd-4866-86cd-9e0c602fb65b","system_id":"levelo_inurba_marseille","lat":43.2885,"lon":5.35874,"is_reserved":false,"is_disabled":false,"rental_uris":{"android":"levelo://app?vid=aa146e2d-e0dd-4866-86cd-9e0c602fb65b","ios":"levelo://app?vid=aa146e2d-e0dd-4866-86cd-9e0c602fb65b"},"vehicle_type_id":"4","last_reported":1741111983,"current_range_meters":5600,"station_id":"ce4bhb12rcd13ifvqem0","pricing_plan_id":"cebpf4jnsgd1na2vs0mg"},{"bike_id":"8bbef58b-16f0-4a65-a671-648d74f284f0","system_id":"levelo_inurba_marseille","lat":43.26488,"lon":5.39573,"is_reserved":false,"is_disabled":false,"rental_uris":{"android":"levelo://app?vid=8bbef58b-16f0-4a65-a671-648d74f284f0","ios":"levelo://app?vid=8bbef58b-16f0-4a65-a671-648d74f284f0"},"vehicle_type_id":"4","last_reported":1741111983,"current_range_meters":5600,"station_id":"ce4bhi12rcd13ifvqfq0","pricing_plan_id":"cebpf4jnsgd1na2vs0mg"},{"bike_id":"3fdc9a7e-2885-4db2-b302-c77e590b4771","system_id":"levelo_inurba_marseille","lat":43.31026,"lon":5.37563,"is_reserved":false,"is_disabled":false,"rental_uris":{"android":"levelo://app?vid=3fdc9a7e-2885-4db2-b302-c77e590b4771","ios":"levelo://app?vid=3fdc9a7e-2885-4db2-b302-c77e590b4771"},"vehicle_type_id":"4","last_reported":1741111983,"current_range_meters":6000,"station_id":"","pricing_plan_id":"cebpf4jnsgd1na2vs0mg"},{"bike_id":"862b9030-1f12-4d13-a6cf-f8bc7df1aa10","system_id":"levelo_inurba_marseille","lat":43.29533,"lon":5.38547,"is_reserved":false,"is_disabled":false,"rental_uris":{"android":"levelo://app?vid=862b9030-1f12-4d13-a6cf-f8bc7df1aa10","ios":"levelo://app?vid=862b9030-1f12-4d13-a6cf-f8bc7df1aa10"},"vehicle_type_id":"4","last_reported":1741111983,"current_range_meters":6000,"station_id":"ce4bgih2rcd13ifvqba0","pricing_plan_id":"cebpf4jnsgd1na2vs0mg"},{"bike_id":"05229020-8a13-43f4-9e6a-55535d22a813","system_id":"levelo_inurba_marseille","lat":43.3111,"lon":5.37759,"is_reserved":false,"is_disabled":false,"rental_uris":{"android":"levelo://app?vid=05229020-8a13-43f4-9e6a-55535d22a813","ios":"levelo://app?vid=05229020-8a13-43f4-9e6a-55535d22a813"},"vehicle_type_id":"4","last_reported":1741111983,"current_range_meters":6000,"station_id":"ce4bgt92rcd13ifvqcg0","pricing_plan_id":"cebpf4jnsgd1na2vs0mg"},{"bike_id":"cef272d8-2d75-4352-8a63-d08e5651cf79","system_id":"levelo_inurba_marseille","lat":43.31119,"lon":5.3778,"is_reserved":false,"is_disabled":false,"rental_uris":{"android":"levelo://app?vid=cef272d8-2d75-4352-8a63-d08e5651cf79","ios":"levelo://app?vid=cef272d8-2d75-4352-8a63-d08e5651cf79"},"vehicle_type_id":"4","last_reported":1741111983,"current_range_meters":6000,"station_id":"ce4bgt92rcd13ifvqcg0","pricing_plan_id":"cebpf4jnsgd1na2vs0mg"},{"bike_id":"71d1f855-73bd-4c35-a24d-5a4368637810","system_id":"levelo_inurba_marseille","lat":43.31332,"lon":5.39695,"is_reserved":false,"is_disabled":false,"rental_uris":{"android":"levelo://app?vid=71d1f855-73bd-4c35-a24d-5a4368637810","ios":"levelo://app?vid=71d1f855-73bd-4c35-a24d-5a4368637810"},"vehicle_type_id":"4","last_reported":1741111983,"current_range_meters":6000,"station_id":"ce4bgvp2rcd13ifvqcu0","pricing_plan_id":"cebpf4jnsgd1na2vs0mg"},{"bike_id":"d4f084c0-1d23-4af5-8ad7-2427e4e0b513","system_id":"levelo_inurba_marseille","lat":43.29208,"lon":5.39323,"is_reserved":false,"is_disabled":false,"rental_uris":{"android":"levelo://app?vid=d4f084c0-1d23-4af5-8ad7-2427e4e0b513","ios":"levelo://app?vid=d4f084c0-1d23-4af5-8ad7-2427e4e0b513"},"vehicle_type_id":"4","last_reported":1741111983,"current_range_meters":6000,"station_id":"ce4bh192rcd13ifvqdd0","pricing_plan_id":"cebpf4jnsgd1na2vs0mg"},{"bike_id":"7e3f9df5-2fb0-4da5-b33f-4307fbe623e6","system_id":"levelo_inurba_marseille","lat":43.29026,"lon":5.38135,"is_reserved":false,"is_disabled":false,"rental_uris":{"android":"levelo://app?vid=7e3f9df5-2fb0-4da5-b33f-4307fbe623e6","ios":"levelo://app?vid=7e3f9df5-2fb0-4da5-b33f-4307fbe623e6"},"vehicle_type_id":"4","last_reported":1741111983,"current_range_meters":6000,"station_id":"ce4bh4p2rcd13ifvqe1g","pricing_plan_id":"cebpf4jnsgd1na2vs0mg"},{"bike_id":"207da062-0af5-443c-8d75-236673844bc0","system_id":"levelo_inurba_marseille","lat":43.28488,"lon":5.38583,"is_reserved":false,"is_disabled":false,"rental_uris":{"android":"levelo://app?vid=207da062-0af5-443c-8d75-236673844bc0","ios":"levelo://app?vid=207da062-0af5-443c-8d75-236673844bc0"},"vehicle_type_id":"4","last_reported":1741111983,"current_range_meters":6000,"station_id":"ce4bh8p2rcd13ifvqeb0","pricing_plan_id":"cebpf4jnsgd1na2vs0mg"},{"bike_id":"79687e17-5ece-4f9c-9252-898196d1c2cb","system_id":"levelo_inurba_marseille","lat":43.29892,"lon":5.38506,"is_reserved":false,"is_disabled":false,"rental_uris":{"android":"levelo://app?vid=79687e17-5ece-4f9c-9252-898196d1c2cb","ios":"levelo://app?vid=79687e17-5ece-4f9c-9252-898196d1c2cb"},"vehicle_type_id":"4","last_reported":1741111983,"current_range_meters":6400,"station_id":"","pricing_plan_id":"cebpf4jnsgd1na2vs0mg"},{"bike_id":"05db6bb4-cb98-465b-81b0-44288fe1dd5a","system_id":"levelo_inurba_marseille","lat":43.30333,"lon":5.40426,"is_reserved":false,"is_disabled":false,"rental_uris":{"android":"levelo://app?vid=05db6bb4-cb98-465b-81b0-44288fe1dd5a","ios":"levelo://app?vid=05db6bb4-cb98-465b-81b0-44288fe1dd5a"},"vehicle_type_id":"4","last_reported":1741111983,"current_range_meters":6400,"station_id":"ce4bh012rcd13ifvqd10","pricing_plan_id":"cebpf4jnsgd1na2vs0mg"},{"bike_id":"2d4c25f8-fecd-4529-a5b3-17d17053ee4e","system_id":"levelo_inurba_marseille","lat":43.2942,"lon":5.38623,"is_reserved":false,"is_disabled":false,"rental_uris":{"android":"levelo://app?vid=2d4c25f8-fecd-4529-a5b3-17d17053ee4e","ios":"levelo://app?vid=2d4c25f8-fecd-4529-a5b3-17d17053ee4e"},"vehicle_type_id":"4","last_reported":1741111983,"current_range_meters":6400,"station_id":"ce4bh2h2rcd13ifvqdh0","pricing_plan_id":"cebpf4jnsgd1na2vs0mg"},{"bike_id":"cbeb989b-1e6f-48ed-998d-e2792887d159","system_id":"levelo_inurba_marseille","lat":43.28104,"lon":5.37833,"is_reserved":false,"is_disabled":false,"rental_uris":{"android":"levelo://app?vid=cbeb989b-1e6f-48ed-998d-e2792887d159","ios":"levelo://app?vid=cbeb989b-1e6f-48ed-998d-e2792887d159"},"vehicle_type_id":"4","last_reported":1741111983,"current_range_meters":6400,"station_id":"ce4bha12rcd13ifvqee0","pricing_plan_id":"cebpf4jnsgd1na2vs0mg"},{"bike_id":"db6d3f3f-ea26-4986-9caa-8428c7183115","system_id":"levelo_inurba_marseille","lat":43.28468,"lon":5.35891,"is_reserved":false,"is_disabled":false,"rental_uris":{"android":"levelo://app?vid=db6d3f3f-ea26-4986-9caa-8428c7183115","ios":"levelo://app?vid=db6d3f3f-ea26-4986-9caa-8428c7183115"},"vehicle_type_id":"4","last_reported":1741111983,"current_range_meters":6400,"station_id":"ce4bhah2rcd13ifvqei0","pricing_plan_id":"cebpf4jnsgd1na2vs0mg"},{"bike_id":"d8a50272-418d-4166-9392-99709d71d957","system_id":"levelo_inurba_marseille","lat":43.29009,"lon":5.35614,"is_reserved":false,"is_disabled":false,"rental_uris":{"android":"levelo://app?vid=d8a50272-418d-4166-9392-99709d71d957","ios":"levelo://app?vid=d8a50272-418d-4166-9392-99709d71d957"},"vehicle_type_id":"4","last_reported":1741111983,"current_range_meters":6400,"station_id":"ce4bhb92rcd13ifvqen0","pricing_plan_id":"cebpf4jnsgd1na2vs0mg"},{"bike_id":"e65082d6-5529-479d-9979-0976e546b0b6","system_id":"levelo_inurba_marseille","lat":43.2558,"lon":5.38232,"is_reserved":false,"is_disabled":false,"rental_uris":{"android":"levelo://app?vid=e65082d6-5529-479d-9979-0976e546b0b6","ios":"levelo://app?vid=e65082d6-5529-479d-9979-0976e546b0b6"},"vehicle_type_id":"4","last_reported":1741111983,"current_range_meters":6400,"station_id":"ce4bhih2rcd13ifvqfs0","pricing_plan_id":"cebpf4jnsgd1na2vs0mg"},{"bike_id":"ce8ef3d2-07e3-4512-8813-bcde53a01429","system_id":"levelo_inurba_marseille","lat":43.24172,"lon":5.36404,"is_reserved":false,"is_disabled":false,"rental_uris":{"android":"levelo://app?vid=ce8ef3d2-07e3-4512-8813-bcde53a01429","ios":"levelo://app?vid=ce8ef3d2-07e3-4512-8813-bcde53a01429"},"vehicle_type_id":"4","last_reported":1741111983,"current_range_meters":6400,"station_id":"cpo36qri1sfpv3e86is0","pricing_plan_id":"cebpf4jnsgd1na2vs0mg"},{"bike_id":"89f8e0fe-b701-4650-9c07-1134a675b073","system_id":"levelo_inurba_marseille","lat":43.24803,"lon":5.37459,"is_reserved":false,"is_disabled":false,"rental_uris":{"android":"levelo://app?vid=89f8e0fe-b701-4650-9c07-1134a675b073","ios":"levelo://app?vid=89f8e0fe-b701-4650-9c07-1134a675b073"},"vehicle_type_id":"4","last_reported":1741111983,"current_range_meters":6800,"station_id":"ce4bhgh2rcd13ifvqfb0","pricing_plan_id":"cebpf4jnsgd1na2vs0mg"},{"bike_id":"10d61af2-a218-4397-b179-939c5dec9f2f","system_id":"levelo_inurba_marseille","lat":43.26484,"lon":5.39551,"is_reserved":false,"is_disabled":false,"rental_uris":{"android":"levelo://app?vid=10d61af2-a218-4397-b179-939c5dec9f2f","ios":"levelo://app?vid=10d61af2-a218-4397-b179-939c5dec9f2f"},"vehicle_type_id":"4","last_reported":1741111983,"current_range_meters":6800,"station_id":"ce4bhi12rcd13ifvqfq0","pricing_plan_id":"cebpf4jnsgd1na2vs0mg"},{"bike_id":"831b0ea1-0903-4191-a295-55f7c62534a5","system_id":"levelo_inurba_marseille","lat":43.25114,"lon":5.40322,"is_reserved":false,"is_disabled":false,"rental_uris":{"android":"levelo://app?vid=831b0ea1-0903-4191-a295-55f7c62534a5","ios":"levelo://app?vid=831b0ea1-0903-4191-a295-55f7c62534a5"},"vehicle_type_id":"4","last_reported":1741111983,"current_range_meters":6800,"station_id":"ce4bhlh2rcd13ifvqgig","pricing_plan_id":"cebpf4jnsgd1na2vs0mg"},{"bike_id":"8d6395d6-e534-4a3a-941e-3ab5bb108777","system_id":"levelo_inurba_marseille","lat":43.24074,"lon":5.37758,"is_reserved":false,"is_disabled":false,"rental_uris":{"android":"levelo://app?vid=8d6395d6-e534-4a3a-941e-3ab5bb108777","ios":"levelo://app?vid=8d6395d6-e534-4a3a-941e-3ab5bb108777"},"vehicle_type_id":"4","last_reported":1741111983,"current_range_meters":6800,"station_id":"ce4bhnp2rcd13ifvqgvg","pricing_plan_id":"cebpf4jnsgd1na2vs0mg"},{"bike_id":"917c6acf-bb3b-413a-9340-2a32e1be6d83","system_id":"levelo_inurba_marseille","lat":43.304714,"lon":5.378938,"is_reserved":false,"is_disabled":false,"rental_uris":{"android":"levelo://app?vid=917c6acf-bb3b-413a-9340-2a32e1be6d83","ios":"levelo://app?vid=917c6acf-bb3b-413a-9340-2a32e1be6d83"},"vehicle_type_id":"4","last_reported":1741111983,"current_range_meters":7200,"station_id":"ce4bhah2rcd13ifvqej0","pricing_plan_id":"cebpf4jnsgd1na2vs0mg"},{"bike_id":"34198965-01fc-4d36-8ac8-36742420987d","system_id":"levelo_inurba_marseille","lat":43.27061,"lon":5.40258,"is_reserved":false,"is_disabled":false,"rental_uris":{"android":"levelo://app?vid=34198965-01fc-4d36-8ac8-36742420987d","ios":"levelo://app?vid=34198965-01fc-4d36-8ac8-36742420987d"},"vehicle_type_id":"4","last_reported":1741111983,"current_range_meters":7200,"station_id":"ce4bhk92rcd13ifvqgc0","pricing_plan_id":"cebpf4jnsgd1na2vs0mg"},{"bike_id":"8212f3a4-5fbd-4db9-b888-de599e83edb4","system_id":"levelo_inurba_marseille","lat":43.27999,"lon":5.40007,"is_reserved":false,"is_disabled":false,"rental_uris":{"android":"levelo://app?vid=8212f3a4-5fbd-4db9-b888-de599e83edb4","ios":"levelo://app?vid=8212f3a4-5fbd-4db9-b888-de599e83edb4"},"vehicle_type_id":"4","last_reported":1741111983,"current_range_meters":7200,"station_id":"ce4bho92rcd13ifvqh4g","pricing_plan_id":"cebpf4jnsgd1na2vs0mg"},{"bike_id":"13c44e5e-5463-4505-ba1b-c0544af7d8ca","system_id":"levelo_inurba_marseille","lat":43.23192,"lon":5.35563,"is_reserved":false,"is_disabled":false,"rental_uris":{"android":"levelo://app?vid=13c44e5e-5463-4505-ba1b-c0544af7d8ca","ios":"levelo://app?vid=13c44e5e-5463-4505-ba1b-c0544af7d8ca"},"vehicle_type_id":"4","last_reported":1741111983,"current_range_meters":7200,"station_id":"ce4bhu92rcd13ifvqi70","pricing_plan_id":"cebpf4jnsgd1na2vs0mg"},{"bike_id":"64953142-7637-42b4-b0d1-c449e63f1db7","system_id":"levelo_inurba_marseille","lat":43.29644,"lon":5.36043,"is_reserved":false,"is_disabled":false,"rental_uris":{"android":"levelo://app?vid=64953142-7637-42b4-b0d1-c449e63f1db7","ios":"levelo://app?vid=64953142-7637-42b4-b0d1-c449e63f1db7"},"vehicle_type_id":"4","last_reported":1741111983,"current_range_meters":8000,"station_id":"","pricing_plan_id":"cebpf4jnsgd1na2vs0mg"},{"bike_id":"f3d85741-4996-4e1f-8a0b-688957db5a01","system_id":"levelo_inurba_marseille","lat":43.30789,"lon":5.37645,"is_reserved":false,"is_disabled":false,"rental_uris":{"android":"levelo://app?vid=f3d85741-4996-4e1f-8a0b-688957db5a01","ios":"levelo://app?vid=f3d85741-4996-4e1f-8a0b-688957db5a01"},"vehicle_type_id":"4","last_reported":1741111983,"current_range_meters":8000,"station_id":"ce4bgv92rcd13ifvqcq0","pricing_plan_id":"cebpf4jnsgd1na2vs0mg"},{"bike_id":"ca41228d-5db9-4518-be9c-b1aa97b1714d","system_id":"levelo_inurba_marseille","lat":43.29585,"lon":5.39971,"is_reserved":false,"is_disabled":false,"rental_uris":{"android":"levelo://app?vid=ca41228d-5db9-4518-be9c-b1aa97b1714d","ios":"levelo://app?vid=ca41228d-5db9-4518-be9c-b1aa97b1714d"},"vehicle_type_id":"4","last_reported":1741111983,"current_range_meters":8000,"station_id":"ce4bh312rcd13ifvqdj0","pricing_plan_id":"cebpf4jnsgd1na2vs0mg"},{"bike_id":"63568cfb-3a09-4731-9bf0-3c5806a6c289","system_id":"levelo_inurba_marseille","lat":43.28947,"lon":5.36387,"is_reserved":false,"is_disabled":false,"rental_uris":{"android":"levelo://app?vid=63568cfb-3a09-4731-9bf0-3c5806a6c289","ios":"levelo://app?vid=63568cfb-3a09-4731-9bf0-3c5806a6c289"},"vehicle_type_id":"4","last_reported":1741111983,"current_range_meters":8000,"station_id":"ce4bhc92rcd13ifvqetg","pricing_plan_id":"cebpf4jnsgd1na2vs0mg"},{"bike_id":"1dc0488c-9291-4249-9d93-e4c3c75e71a3","system_id":"levelo_inurba_marseille","lat":43.2678,"lon":5.39418,"is_reserved":false,"is_disabled":false,"rental_uris":{"android":"levelo://app?vid=1dc0488c-9291-4249-9d93-e4c3c75e71a3","ios":"levelo://app?vid=1dc0488c-9291-4249-9d93-e4c3c75e71a3"},"vehicle_type_id":"4","last_reported":1741111983,"current_range_meters":8000,"station_id":"ce4bhh12rcd13ifvqfg0","pricing_plan_id":"cebpf4jnsgd1na2vs0mg"},{"bike_id":"f384a591-1f55-4a06-b74a-e3a43966bf05","system_id":"levelo_inurba_marseille","lat":43.29585,"lon":5.36743,"is_reserved":false,"is_disabled":false,"rental_uris":{"android":"levelo://app?vid=f384a591-1f55-4a06-b74a-e3a43966bf05","ios":"levelo://app?vid=f384a591-1f55-4a06-b74a-e3a43966bf05"},"vehicle_type_id":"4","last_reported":1741111983,"current_range_meters":8400,"station_id":"ce4bgph2rcd13ifvqc2g","pricing_plan_id":"cebpf4jnsgd1na2vs0mg"},{"bike_id":"66cab7e9-6ac3-4264-9060-3434a3039719","system_id":"levelo_inurba_marseille","lat":43.29263,"lon":5.40915,"is_reserved":false,"is_disabled":false,"rental_uris":{"android":"levelo://app?vid=66cab7e9-6ac3-4264-9060-3434a3039719","ios":"levelo://app?vid=66cab7e9-6ac3-4264-9060-3434a3039719"},"vehicle_type_id":"4","last_reported":1741111983,"current_range_meters":8400,"station_id":"ce4bh192rcd13ifvqdc0","pricing_plan_id":"cebpf4jnsgd1na2vs0mg"},{"bike_id":"c1e16dde-fd7c-46cd-969e-add20bd440fd","system_id":"levelo_inurba_marseille","lat":43.29196,"lon":5.39314,"is_reserved":false,"is_disabled":false,"rental_uris":{"android":"levelo://app?vid=c1e16dde-fd7c-46cd-969e-add20bd440fd","ios":"levelo://app?vid=c1e16dde-fd7c-46cd-969e-add20bd440fd"},"vehicle_type_id":"4","last_reported":1741111983,"current_range_meters":8400,"station_id":"ce4bh192rcd13ifvqdd0","pricing_plan_id":"cebpf4jnsgd1na2vs0mg"},{"bike_id":"ef586f23-ee4b-465a-84b4-b76ec36bdcf2","system_id":"levelo_inurba_marseille","lat":43.28412,"lon":5.37519,"is_reserved":false,"is_disabled":false,"rental_uris":{"android":"levelo://app?vid=ef586f23-ee4b-465a-84b4-b76ec36bdcf2","ios":"levelo://app?vid=ef586f23-ee4b-465a-84b4-b76ec36bdcf2"},"vehicle_type_id":"4","last_reported":1741111983,"current_range_meters":8400,"station_id":"ce4bh412rcd13ifvqds0","pricing_plan_id":"cebpf4jnsgd1na2vs0mg"},{"bike_id":"5ad7574a-5b06-44d1-ada4-38c796f57274","system_id":"levelo_inurba_marseille","lat":43.28478,"lon":5.38413,"is_reserved":false,"is_disabled":false,"rental_uris":{"android":"levelo://app?vid=5ad7574a-5b06-44d1-ada4-38c796f57274","ios":"levelo://app?vid=5ad7574a-5b06-44d1-ada4-38c796f57274"},"vehicle_type_id":"4","last_reported":1741111983,"current_range_meters":8400,"station_id":"ce4bh512rcd13ifvqe3g","pricing_plan_id":"cebpf4jnsgd1na2vs0mg"},{"bike_id":"0cfc9ec8-a555-4010-9522-c04c39ab81c2","system_id":"levelo_inurba_marseille","lat":43.292585,"lon":5.384399,"is_reserved":false,"is_disabled":false,"rental_uris":{"android":"levelo://app?vid=0cfc9ec8-a555-4010-9522-c04c39ab81c2","ios":"levelo://app?vid=0cfc9ec8-a555-4010-9522-c04c39ab81c2"},"vehicle_type_id":"4","last_reported":1741111983,"current_range_meters":8400,"station_id":"ce4bh692rcd13ifvqea0","pricing_plan_id":"cebpf4jnsgd1na2vs0mg"},{"bike_id":"97989e13-7a0c-41e2-a906-c68f6b181023","system_id":"levelo_inurba_marseille","lat":43.26562,"lon":5.39011,"is_reserved":false,"is_disabled":false,"rental_uris":{"android":"levelo://app?vid=97989e13-7a0c-41e2-a906-c68f6b181023","ios":"levelo://app?vid=97989e13-7a0c-41e2-a906-c68f6b181023"},"vehicle_type_id":"4","last_reported":1741111983,"current_range_meters":8400,"station_id":"ce4bhe12rcd13ifvqf30","pricing_plan_id":"cebpf4jnsgd1na2vs0mg"},{"bike_id":"3b7eb5f2-6d6d-46d4-aaee-fb854ec0c9d4","system_id":"levelo_inurba_marseille","lat":43.27564,"lon":5.38425,"is_reserved":false,"is_disabled":false,"rental_uris":{"android":"levelo://app?vid=3b7eb5f2-6d6d-46d4-aaee-fb854ec0c9d4","ios":"levelo://app?vid=3b7eb5f2-6d6d-46d4-aaee-fb854ec0c9d4"},"vehicle_type_id":"4","last_reported":1741111983,"current_range_meters":8400,"station_id":"ce4bhh92rcd13ifvqfi0","pricing_plan_id":"cebpf4jnsgd1na2vs0mg"},{"bike_id":"d662d263-2acd-4a76-83b7-92b7eba181ca","system_id":"levelo_inurba_marseille","lat":43.27055,"lon":5.40264,"is_reserved":false,"is_disabled":false,"rental_uris":{"android":"levelo://app?vid=d662d263-2acd-4a76-83b7-92b7eba181ca","ios":"levelo://app?vid=d662d263-2acd-4a76-83b7-92b7eba181ca"},"vehicle_type_id":"4","last_reported":1741111983,"current_range_meters":8400,"station_id":"ce4bhk92rcd13ifvqgc0","pricing_plan_id":"cebpf4jnsgd1na2vs0mg"},{"bike_id":"8180e650-770d-45c4-b9c7-205ece4a5ec1","system_id":"levelo_inurba_marseille","lat":43.27817,"lon":5.40715,"is_reserved":false,"is_disabled":false,"rental_uris":{"android":"levelo://app?vid=8180e650-770d-45c4-b9c7-205ece4a5ec1","ios":"levelo://app?vid=8180e650-770d-45c4-b9c7-205ece4a5ec1"},"vehicle_type_id":"4","last_reported":1741111983,"current_range_meters":8400,"station_id":"ce4bhnh2rcd13ifvqgtg","pricing_plan_id":"cebpf4jnsgd1na2vs0mg"},{"bike_id":"6522d8fe-a033-424f-b842-952e814d7413","system_id":"levelo_inurba_marseille","lat":43.27947,"lon":5.41042,"is_reserved":false,"is_disabled":false,"rental_uris":{"android":"levelo://app?vid=6522d8fe-a033-424f-b842-952e814d7413","ios":"levelo://app?vid=6522d8fe-a033-424f-b842-952e814d7413"},"vehicle_type_id":"4","last_reported":1741111983,"current_range_meters":8400,"station_id":"ce4bhnp2rcd13ifvqh0g","pricing_plan_id":"cebpf4jnsgd1na2vs0mg"},{"bike_id":"345a3a6d-35db-4006-b498-91e60a50acd6","system_id":"levelo_inurba_marseille","lat":43.27999,"lon":5.40012,"is_reserved":false,"is_disabled":false,"rental_uris":{"android":"levelo://app?vid=345a3a6d-35db-4006-b498-91e60a50acd6","ios":"levelo://app?vid=345a3a6d-35db-4006-b498-91e60a50acd6"},"vehicle_type_id":"4","last_reported":1741111983,"current_range_meters":8400,"station_id":"ce4bho92rcd13ifvqh4g","pricing_plan_id":"cebpf4jnsgd1na2vs0mg"},{"bike_id":"76278b1c-a52b-4843-adbc-fa9a5cd6eca2","system_id":"levelo_inurba_marseille","lat":43.29536,"lon":5.385474,"is_reserved":false,"is_disabled":false,"rental_uris":{"android":"levelo://app?vid=76278b1c-a52b-4843-adbc-fa9a5cd6eca2","ios":"levelo://app?vid=76278b1c-a52b-4843-adbc-fa9a5cd6eca2"},"vehicle_type_id":"4","last_reported":1741111983,"current_range_meters":8800,"station_id":"ce4bgih2rcd13ifvqba0","pricing_plan_id":"cebpf4jnsgd1na2vs0mg"},{"bike_id":"421eca14-f43a-4983-a7bb-366193231c93","system_id":"levelo_inurba_marseille","lat":43.31356,"lon":5.38497,"is_reserved":false,"is_disabled":false,"rental_uris":{"android":"levelo://app?vid=421eca14-f43a-4983-a7bb-366193231c93","ios":"levelo://app?vid=421eca14-f43a-4983-a7bb-366193231c93"},"vehicle_type_id":"4","last_reported":1741111983,"current_range_meters":8800,"station_id":"ce4bgt92rcd13ifvqcf0","pricing_plan_id":"cebpf4jnsgd1na2vs0mg"},{"bike_id":"084c253e-ed1d-48f8-8737-e7d3a5179e1a","system_id":"levelo_inurba_marseille","lat":43.28466,"lon":5.35892,"is_reserved":false,"is_disabled":false,"rental_uris":{"android":"levelo://app?vid=084c253e-ed1d-48f8-8737-e7d3a5179e1a","ios":"levelo://app?vid=084c253e-ed1d-48f8-8737-e7d3a5179e1a"},"vehicle_type_id":"4","last_reported":1741111983,"current_range_meters":8800,"station_id":"ce4bhah2rcd13ifvqei0","pricing_plan_id":"cebpf4jnsgd1na2vs0mg"},{"bike_id":"c1cb5969-eeaf-43e3-88aa-57ef2aa58b44","system_id":"levelo_inurba_marseille","lat":43.28465,"lon":5.35885,"is_reserved":false,"is_disabled":false,"rental_uris":{"android":"levelo://app?vid=c1cb5969-eeaf-43e3-88aa-57ef2aa58b44","ios":"levelo://app?vid=c1cb5969-eeaf-43e3-88aa-57ef2aa58b44"},"vehicle_type_id":"4","last_reported":1741111983,"current_range_meters":8800,"station_id":"ce4bhah2rcd13ifvqei0","pricing_plan_id":"cebpf4jnsgd1na2vs0mg"},{"bike_id":"b012771a-fc16-49ea-afab-472f61e2628e","system_id":"levelo_inurba_marseille","lat":43.29005,"lon":5.35609,"is_reserved":false,"is_disabled":false,"rental_uris":{"android":"levelo://app?vid=b012771a-fc16-49ea-afab-472f61e2628e","ios":"levelo://app?vid=b012771a-fc16-49ea-afab-472f61e2628e"},"vehicle_type_id":"4","last_reported":1741111983,"current_range_meters":8800,"station_id":"ce4bhb92rcd13ifvqen0","pricing_plan_id":"cebpf4jnsgd1na2vs0mg"},{"bike_id":"2f2997b2-435b-4046-83a1-e6ed0b0f0bde","system_id":"levelo_inurba_marseille","lat":43.24677,"lon":5.3817,"is_reserved":false,"is_disabled":false,"rental_uris":{"android":"levelo://app?vid=2f2997b2-435b-4046-83a1-e6ed0b0f0bde","ios":"levelo://app?vid=2f2997b2-435b-4046-83a1-e6ed0b0f0bde"},"vehicle_type_id":"4","last_reported":1741111983,"current_range_meters":8800,"station_id":"ce4bhih2rcd13ifvqfr0","pricing_plan_id":"cebpf4jnsgd1na2vs0mg"},{"bike_id":"5b72e45d-01fb-4eaf-8071-a1e78c4dc0c5","system_id":"levelo_inurba_marseille","lat":43.27953,"lon":5.41042,"is_reserved":false,"is_disabled":false,"rental_uris":{"android":"levelo://app?vid=5b72e45d-01fb-4eaf-8071-a1e78c4dc0c5","ios":"levelo://app?vid=5b72e45d-01fb-4eaf-8071-a1e78c4dc0c5"},"vehicle_type_id":"4","last_reported":1741111983,"current_range_meters":8800,"station_id":"ce4bhnp2rcd13ifvqh0g","pricing_plan_id":"cebpf4jnsgd1na2vs0mg"},{"bike_id":"123c7a80-231c-41e3-8864-182e3020ccec","system_id":"levelo_inurba_marseille","lat":43.31761,"lon":5.39019,"is_reserved":false,"is_disabled":false,"rental_uris":{"android":"levelo://app?vid=123c7a80-231c-41e3-8864-182e3020ccec","ios":"levelo://app?vid=123c7a80-231c-41e3-8864-182e3020ccec"},"vehicle_type_id":"4","last_reported":1741111983,"current_range_meters":8800,"station_id":"ce4bhqp2rcd13ifvqhng","pricing_plan_id":"cebpf4jnsgd1na2vs0mg"},{"bike_id":"36d0e96b-b9dc-4769-addc-143eba3416b0","system_id":"levelo_inurba_marseille","lat":43.29854,"lon":5.38349,"is_reserved":false,"is_disabled":false,"rental_uris":{"android":"levelo://app?vid=36d0e96b-b9dc-4769-addc-143eba3416b0","ios":"levelo://app?vid=36d0e96b-b9dc-4769-addc-143eba3416b0"},"vehicle_type_id":"4","last_reported":1741111983,"current_range_meters":9200,"station_id":"","pricing_plan_id":"cebpf4jnsgd1na2vs0mg"},{"bike_id":"0b661548-daaf-4025-8712-e0c5e56cc4ba","system_id":"levelo_inurba_marseille","lat":43.30674,"lon":5.4006,"is_reserved":false,"is_disabled":false,"rental_uris":{"android":"levelo://app?vid=0b661548-daaf-4025-8712-e0c5e56cc4ba","ios":"levelo://app?vid=0b661548-daaf-4025-8712-e0c5e56cc4ba"},"vehicle_type_id":"4","last_reported":1741111983,"current_range_meters":9200,"station_id":"ce4bh112rcd13ifvqda0","pricing_plan_id":"cebpf4jnsgd1na2vs0mg"},{"bike_id":"94ba9cbc-5cdf-48fb-be64-f98e3119dd63","system_id":"levelo_inurba_marseille","lat":43.28944,"lon":5.3664,"is_reserved":false,"is_disabled":false,"rental_uris":{"android":"levelo://app?vid=94ba9cbc-5cdf-48fb-be64-f98e3119dd63","ios":"levelo://app?vid=94ba9cbc-5cdf-48fb-be64-f98e3119dd63"},"vehicle_type_id":"4","last_reported":1741111983,"current_range_meters":9200,"station_id":"ce4bhap2rcd13ifvqek0","pricing_plan_id":"cebpf4jnsgd1na2vs0mg"},{"bike_id":"8caa3965-8df2-4769-ba39-b1c61d160a62","system_id":"levelo_inurba_marseille","lat":43.28627,"lon":5.35121,"is_reserved":false,"is_disabled":false,"rental_uris":{"android":"levelo://app?vid=8caa3965-8df2-4769-ba39-b1c61d160a62","ios":"levelo://app?vid=8caa3965-8df2-4769-ba39-b1c61d160a62"},"vehicle_type_id":"4","last_reported":1741111983,"current_range_meters":9200,"station_id":"ce4bhch2rcd13ifvqeug","pricing_plan_id":"cebpf4jnsgd1na2vs0mg"},{"bike_id":"25a01404-d79c-4ff0-8c3d-4c56d0df97e5","system_id":"levelo_inurba_marseille","lat":43.28617,"lon":5.3511,"is_reserved":false,"is_disabled":false,"rental_uris":{"android":"levelo://app?vid=25a01404-d79c-4ff0-8c3d-4c56d0df97e5","ios":"levelo://app?vid=25a01404-d79c-4ff0-8c3d-4c56d0df97e5"},"vehicle_type_id":"4","last_reported":1741111983,"current_range_meters":9200,"station_id":"ce4bhch2rcd13ifvqeug","pricing_plan_id":"cebpf4jnsgd1na2vs0mg"},{"bike_id":"40592169-4d72-4b69-a512-be614d00ab33","system_id":"levelo_inurba_marseille","lat":43.28074,"lon":5.3964,"is_reserved":false,"is_disabled":false,"rental_uris":{"android":"levelo://app?vid=40592169-4d72-4b69-a512-be614d00ab33","ios":"levelo://app?vid=40592169-4d72-4b69-a512-be614d00ab33"},"vehicle_type_id":"4","last_reported":1741111983,"current_range_meters":9200,"station_id":"ce4bho12rcd13ifvqh2g","pricing_plan_id":"cebpf4jnsgd1na2vs0mg"},{"bike_id":"8aa66bce-cd78-4990-9623-20de91f030f0","system_id":"levelo_inurba_marseille","lat":43.27996,"lon":5.40006,"is_reserved":false,"is_disabled":false,"rental_uris":{"android":"levelo://app?vid=8aa66bce-cd78-4990-9623-20de91f030f0","ios":"levelo://app?vid=8aa66bce-cd78-4990-9623-20de91f030f0"},"vehicle_type_id":"4","last_reported":1741111983,"current_range_meters":9200,"station_id":"ce4bho92rcd13ifvqh4g","pricing_plan_id":"cebpf4jnsgd1na2vs0mg"},{"bike_id":"d28190df-eaa3-47a9-8245-55610ca9c6a8","system_id":"levelo_inurba_marseille","lat":43.313615,"lon":5.38494,"is_reserved":false,"is_disabled":false,"rental_uris":{"android":"levelo://app?vid=d28190df-eaa3-47a9-8245-55610ca9c6a8","ios":"levelo://app?vid=d28190df-eaa3-47a9-8245-55610ca9c6a8"},"vehicle_type_id":"4","last_reported":1741111983,"current_range_meters":9600,"station_id":"ce4bgt92rcd13ifvqcf0","pricing_plan_id":"cebpf4jnsgd1na2vs0mg"},{"bike_id":"85a9bb23-befc-4fd3-968e-5ec44db6045c","system_id":"levelo_inurba_marseille","lat":43.30129,"lon":5.3985,"is_reserved":false,"is_disabled":false,"rental_uris":{"android":"levelo://app?vid=85a9bb23-befc-4fd3-968e-5ec44db6045c","ios":"levelo://app?vid=85a9bb23-befc-4fd3-968e-5ec44db6045c"},"vehicle_type_id":"4","last_reported":1741111983,"current_range_meters":9600,"station_id":"ce4bh0h2rcd13ifvqd40","pricing_plan_id":"cebpf4jnsgd1na2vs0mg"},{"bike_id":"b033ae8d-c4a3-47c1-acee-cbf4dd030b0d","system_id":"levelo_inurba_marseille","lat":43.28925,"lon":5.38393,"is_reserved":false,"is_disabled":false,"rental_uris":{"android":"levelo://app?vid=b033ae8d-c4a3-47c1-acee-cbf4dd030b0d","ios":"levelo://app?vid=b033ae8d-c4a3-47c1-acee-cbf4dd030b0d"},"vehicle_type_id":"4","last_reported":1741111983,"current_range_meters":9600,"station_id":"ce4bh612rcd13ifvqe6g","pricing_plan_id":"cebpf4jnsgd1na2vs0mg"},{"bike_id":"07234b2c-4155-4b27-acfc-08884426b345","system_id":"levelo_inurba_marseille","lat":43.28854,"lon":5.35847,"is_reserved":false,"is_disabled":false,"rental_uris":{"android":"levelo://app?vid=07234b2c-4155-4b27-acfc-08884426b345","ios":"levelo://app?vid=07234b2c-4155-4b27-acfc-08884426b345"},"vehicle_type_id":"4","last_reported":1741111983,"current_range_meters":9600,"station_id":"ce4bhb12rcd13ifvqem0","pricing_plan_id":"cebpf4jnsgd1na2vs0mg"},{"bike_id":"41077412-3a41-4a40-8906-1b3127b18d15","system_id":"levelo_inurba_marseille","lat":43.27915,"lon":5.3802,"is_reserved":false,"is_disabled":false,"rental_uris":{"android":"levelo://app?vid=41077412-3a41-4a40-8906-1b3127b18d15","ios":"levelo://app?vid=41077412-3a41-4a40-8906-1b3127b18d15"},"vehicle_type_id":"4","last_reported":1741111983,"current_range_meters":9600,"station_id":"ce4bhf92rcd13ifvqf50","pricing_plan_id":"cebpf4jnsgd1na2vs0mg"},{"bike_id":"79a6edc7-6392-46c2-a247-edfc4e16fa91","system_id":"levelo_inurba_marseille","lat":43.26499,"lon":5.39538,"is_reserved":false,"is_disabled":false,"rental_uris":{"android":"levelo://app?vid=79a6edc7-6392-46c2-a247-edfc4e16fa91","ios":"levelo://app?vid=79a6edc7-6392-46c2-a247-edfc4e16fa91"},"vehicle_type_id":"4","last_reported":1741111983,"current_range_meters":9600,"station_id":"ce4bhi12rcd13ifvqfq0","pricing_plan_id":"cebpf4jnsgd1na2vs0mg"},{"bike_id":"1ebc3531-977b-4008-9b89-c777084f1c70","system_id":"levelo_inurba_marseille","lat":43.27815,"lon":5.40711,"is_reserved":false,"is_disabled":false,"rental_uris":{"android":"levelo://app?vid=1ebc3531-977b-4008-9b89-c777084f1c70","ios":"levelo://app?vid=1ebc3531-977b-4008-9b89-c777084f1c70"},"vehicle_type_id":"4","last_reported":1741111983,"current_range_meters":9600,"station_id":"ce4bhnh2rcd13ifvqgtg","pricing_plan_id":"cebpf4jnsgd1na2vs0mg"},{"bike_id":"55390daa-4728-4448-b088-553e88c99560","system_id":"levelo_inurba_marseille","lat":43.32048,"lon":5.41535,"is_reserved":false,"is_disabled":false,"rental_uris":{"android":"levelo://app?vid=55390daa-4728-4448-b088-553e88c99560","ios":"levelo://app?vid=55390daa-4728-4448-b088-553e88c99560"},"vehicle_type_id":"4","last_reported":1741111983,"current_range_meters":9600,"station_id":"ce4bhq92rcd13ifvqhkg","pricing_plan_id":"cebpf4jnsgd1na2vs0mg"},{"bike_id":"b8dacfd7-6aa1-4cb2-ac25-dfdf82e53218","system_id":"levelo_inurba_marseille","lat":43.32374,"lon":5.38864,"is_reserved":false,"is_disabled":false,"rental_uris":{"android":"levelo://app?vid=b8dacfd7-6aa1-4cb2-ac25-dfdf82e53218","ios":"levelo://app?vid=b8dacfd7-6aa1-4cb2-ac25-dfdf82e53218"},"vehicle_type_id":"4","last_reported":1741111983,"current_range_meters":9600,"station_id":"ce4bhqp2rcd13ifvqhog","pricing_plan_id":"cebpf4jnsgd1na2vs0mg"},{"bike_id":"7196da4c-532e-4234-9321-c6ef2057acd2","system_id":"levelo_inurba_marseille","lat":43.26799,"lon":5.40263,"is_reserved":false,"is_disabled":false,"rental_uris":{"android":"levelo://app?vid=7196da4c-532e-4234-9321-c6ef2057acd2","ios":"levelo://app?vid=7196da4c-532e-4234-9321-c6ef2057acd2"},"vehicle_type_id":"4","last_reported":1741111983,"current_range_meters":9600,"station_id":"ce501612rcd8frsf0b60","pricing_plan_id":"cebpf4jnsgd1na2vs0mg"},{"bike_id":"a7f58ccb-bb96-4abe-859e-b39efd0230fe","system_id":"levelo_inurba_marseille","lat":43.26921,"lon":5.40261,"is_reserved":false,"is_disabled":false,"rental_uris":{"android":"levelo://app?vid=a7f58ccb-bb96-4abe-859e-b39efd0230fe","ios":"levelo://app?vid=a7f58ccb-bb96-4abe-859e-b39efd0230fe"},"vehicle_type_id":"4","last_reported":1741111983,"current_range_meters":9600,"station_id":"cjm6bp8fraef2m0cb0m0","pricing_plan_id":"cebpf4jnsgd1na2vs0mg"},{"bike_id":"ee1d2ad1-36ca-49dd-a328-f2a9a9994ecb","system_id":"levelo_inurba_marseille","lat":43.31083,"lon":5.3819,"is_reserved":false,"is_disabled":false,"rental_uris":{"android":"levelo://app?vid=ee1d2ad1-36ca-49dd-a328-f2a9a9994ecb","ios":"levelo://app?vid=ee1d2ad1-36ca-49dd-a328-f2a9a9994ecb"},"vehicle_type_id":"4","last_reported":1741111983,"current_range_meters":10000,"station_id":"","pricing_plan_id":"cebpf4jnsgd1na2vs0mg"},{"bike_id":"fe99a5eb-9098-4877-b83c-8bf81e5967ca","system_id":"levelo_inurba_marseille","lat":43.30132,"lon":5.38787,"is_reserved":false,"is_disabled":false,"rental_uris":{"android":"levelo://app?vid=fe99a5eb-9098-4877-b83c-8bf81e5967ca","ios":"levelo://app?vid=fe99a5eb-9098-4877-b83c-8bf81e5967ca"},"vehicle_type_id":"4","last_reported":1741111983,"current_range_meters":10000,"station_id":"ce4bghh2rcd13ifvqb60","pricing_plan_id":"cebpf4jnsgd1na2vs0mg"},{"bike_id":"06b46512-443f-4eb4-89e4-c94655c8ac9d","system_id":"levelo_inurba_marseille","lat":43.29588,"lon":5.36744,"is_reserved":false,"is_disabled":false,"rental_uris":{"android":"levelo://app?vid=06b46512-443f-4eb4-89e4-c94655c8ac9d","ios":"levelo://app?vid=06b46512-443f-4eb4-89e4-c94655c8ac9d"},"vehicle_type_id":"4","last_reported":1741111983,"current_range_meters":10000,"station_id":"ce4bgph2rcd13ifvqc2g","pricing_plan_id":"cebpf4jnsgd1na2vs0mg"},{"bike_id":"20a39f08-869b-4b51-b9f7-b91d1e5154df","system_id":"levelo_inurba_marseille","lat":43.31119,"lon":5.37757,"is_reserved":false,"is_disabled":false,"rental_uris":{"android":"levelo://app?vid=20a39f08-869b-4b51-b9f7-b91d1e5154df","ios":"levelo://app?vid=20a39f08-869b-4b51-b9f7-b91d1e5154df"},"vehicle_type_id":"4","last_reported":1741111983,"current_range_meters":10000,"station_id":"ce4bgt92rcd13ifvqcg0","pricing_plan_id":"cebpf4jnsgd1na2vs0mg"},{"bike_id":"6d89e98d-18b0-45bc-a06d-e0c9c3d245cf","system_id":"levelo_inurba_marseille","lat":43.27371,"lon":5.36227,"is_reserved":false,"is_disabled":false,"rental_uris":{"android":"levelo://app?vid=6d89e98d-18b0-45bc-a06d-e0c9c3d245cf","ios":"levelo://app?vid=6d89e98d-18b0-45bc-a06d-e0c9c3d245cf"},"vehicle_type_id":"4","last_reported":1741111983,"current_range_meters":10000,"station_id":"ce4bhbh2rcd13ifvqeo0","pricing_plan_id":"cebpf4jnsgd1na2vs0mg"},{"bike_id":"c77fbe8b-c302-4cc9-b5ab-925c25a0936a","system_id":"levelo_inurba_marseille","lat":43.25121,"lon":5.40325,"is_reserved":false,"is_disabled":false,"rental_uris":{"android":"levelo://app?vid=c77fbe8b-c302-4cc9-b5ab-925c25a0936a","ios":"levelo://app?vid=c77fbe8b-c302-4cc9-b5ab-925c25a0936a"},"vehicle_type_id":"4","last_reported":1741111983,"current_range_meters":10000,"station_id":"ce4bhlh2rcd13ifvqgig","pricing_plan_id":"cebpf4jnsgd1na2vs0mg"},{"bike_id":"bded2f25-6b37-42cf-95f3-22c006d37edc","system_id":"levelo_inurba_marseille","lat":43.27945,"lon":5.41046,"is_reserved":false,"is_disabled":false,"rental_uris":{"android":"levelo://app?vid=bded2f25-6b37-42cf-95f3-22c006d37edc","ios":"levelo://app?vid=bded2f25-6b37-42cf-95f3-22c006d37edc"},"vehicle_type_id":"4","last_reported":1741111983,"current_range_meters":10000,"station_id":"ce4bhnp2rcd13ifvqh0g","pricing_plan_id":"cebpf4jnsgd1na2vs0mg"},{"bike_id":"9552c448-ea95-4d7e-8c98-41ae3288e379","system_id":"levelo_inurba_marseille","lat":43.31762,"lon":5.39018,"is_reserved":false,"is_disabled":false,"rental_uris":{"android":"levelo://app?vid=9552c448-ea95-4d7e-8c98-41ae3288e379","ios":"levelo://app?vid=9552c448-ea95-4d7e-8c98-41ae3288e379"},"vehicle_type_id":"4","last_reported":1741111983,"current_range_meters":10000,"station_id":"ce4bhqp2rcd13ifvqhng","pricing_plan_id":"cebpf4jnsgd1na2vs0mg"},{"bike_id":"6805d7b7-3709-4159-a850-aceccba0c126","system_id":"levelo_inurba_marseille","lat":43.31762,"lon":5.39016,"is_reserved":false,"is_disabled":false,"rental_uris":{"android":"levelo://app?vid=6805d7b7-3709-4159-a850-aceccba0c126","ios":"levelo://app?vid=6805d7b7-3709-4159-a850-aceccba0c126"},"vehicle_type_id":"4","last_reported":1741111983,"current_range_meters":10000,"station_id":"ce4bhqp2rcd13ifvqhng","pricing_plan_id":"cebpf4jnsgd1na2vs0mg"},{"bike_id":"44a7153b-0fd7-4509-836b-676bbf84fb06","system_id":"levelo_inurba_marseille","lat":43.23181,"lon":5.35566,"is_reserved":false,"is_disabled":false,"rental_uris":{"android":"levelo://app?vid=44a7153b-0fd7-4509-836b-676bbf84fb06","ios":"levelo://app?vid=44a7153b-0fd7-4509-836b-676bbf84fb06"},"vehicle_type_id":"4","last_reported":1741111983,"current_range_meters":10000,"station_id":"ce4bhu92rcd13ifvqi70","pricing_plan_id":"cebpf4jnsgd1na2vs0mg"},{"bike_id":"ea6a4a15-a453-498d-be30-f6d5d98c6c99","system_id":"levelo_inurba_marseille","lat":43.268,"lon":5.40266,"is_reserved":false,"is_disabled":false,"rental_uris":{"android":"levelo://app?vid=ea6a4a15-a453-498d-be30-f6d5d98c6c99","ios":"levelo://app?vid=ea6a4a15-a453-498d-be30-f6d5d98c6c99"},"vehicle_type_id":"4","last_reported":1741111983,"current_range_meters":10000,"station_id":"ce501612rcd8frsf0b60","pricing_plan_id":"cebpf4jnsgd1na2vs0mg"},{"bike_id":"5063d5c8-5a76-4746-aab6-24e02eb594fe","system_id":"levelo_inurba_marseille","lat":43.2862,"lon":5.35144,"is_reserved":false,"is_disabled":false,"rental_uris":{"android":"levelo://app?vid=5063d5c8-5a76-4746-aab6-24e02eb594fe","ios":"levelo://app?vid=5063d5c8-5a76-4746-aab6-24e02eb594fe"},"vehicle_type_id":"4","last_reported":1741111983,"current_range_meters":10800,"station_id":"ce4bhch2rcd13ifvqeug","pricing_plan_id":"cebpf4jnsgd1na2vs0mg"},{"bike_id":"913bb55b-2edb-4434-9d82-fe796f8d08f1","system_id":"levelo_inurba_marseille","lat":43.28639,"lon":5.35098,"is_reserved":false,"is_disabled":false,"rental_uris":{"android":"levelo://app?vid=913bb55b-2edb-4434-9d82-fe796f8d08f1","ios":"levelo://app?vid=913bb55b-2edb-4434-9d82-fe796f8d08f1"},"vehicle_type_id":"4","last_reported":1741111983,"current_range_meters":10800,"station_id":"ce4bhch2rcd13ifvqeug","pricing_plan_id":"cebpf4jnsgd1na2vs0mg"},{"bike_id":"bc839fa8-d9bb-4f31-a229-294de3364fcb","system_id":"levelo_inurba_marseille","lat":43.28614,"lon":5.35105,"is_reserved":false,"is_disabled":false,"rental_uris":{"android":"levelo://app?vid=bc839fa8-d9bb-4f31-a229-294de3364fcb","ios":"levelo://app?vid=bc839fa8-d9bb-4f31-a229-294de3364fcb"},"vehicle_type_id":"4","last_reported":1741111983,"current_range_meters":10800,"station_id":"ce4bhch2rcd13ifvqeug","pricing_plan_id":"cebpf4jnsgd1na2vs0mg"},{"bike_id":"4e6eac08-b624-4f71-84f3-0c6188cb583d","system_id":"levelo_inurba_marseille","lat":43.33025,"lon":5.39055,"is_reserved":false,"is_disabled":false,"rental_uris":{"android":"levelo://app?vid=4e6eac08-b624-4f71-84f3-0c6188cb583d","ios":"levelo://app?vid=4e6eac08-b624-4f71-84f3-0c6188cb583d"},"vehicle_type_id":"4","last_reported":1741111983,"current_range_meters":10800,"station_id":"ce4bhr92rcd13ifvqhrg","pricing_plan_id":"cebpf4jnsgd1na2vs0mg"},{"bike_id":"ede61442-3229-4ac2-8d72-b654099eef6a","system_id":"levelo_inurba_marseille","lat":43.33039,"lon":5.39036,"is_reserved":false,"is_disabled":false,"rental_uris":{"android":"levelo://app?vid=ede61442-3229-4ac2-8d72-b654099eef6a","ios":"levelo://app?vid=ede61442-3229-4ac2-8d72-b654099eef6a"},"vehicle_type_id":"4","last_reported":1741111983,"current_range_meters":10800,"station_id":"ce4bhr92rcd13ifvqhrg","pricing_plan_id":"cebpf4jnsgd1na2vs0mg"},{"bike_id":"21b19842-9ad9-4db0-bc46-3d2827c0069e","system_id":"levelo_inurba_marseille","lat":43.2319,"lon":5.3556,"is_reserved":false,"is_disabled":false,"rental_uris":{"android":"levelo://app?vid=21b19842-9ad9-4db0-bc46-3d2827c0069e","ios":"levelo://app?vid=21b19842-9ad9-4db0-bc46-3d2827c0069e"},"vehicle_type_id":"4","last_reported":1741111983,"current_range_meters":10800,"station_id":"ce4bhu92rcd13ifvqi70","pricing_plan_id":"cebpf4jnsgd1na2vs0mg"},{"bike_id":"996af598-75e8-4b1d-9895-35ba6c31b6b8","system_id":"levelo_inurba_marseille","lat":43.26939,"lon":5.40256,"is_reserved":false,"is_disabled":false,"rental_uris":{"android":"levelo://app?vid=996af598-75e8-4b1d-9895-35ba6c31b6b8","ios":"levelo://app?vid=996af598-75e8-4b1d-9895-35ba6c31b6b8"},"vehicle_type_id":"4","last_reported":1741111983,"current_range_meters":10800,"station_id":"cjm6bp8fraef2m0cb0m0","pricing_plan_id":"cebpf4jnsgd1na2vs0mg"},{"bike_id":"0274b7b2-c235-481f-9f3c-3d12ea369daf","system_id":"levelo_inurba_marseille","lat":43.3136,"lon":5.38494,"is_reserved":false,"is_disabled":false,"rental_uris":{"android":"levelo://app?vid=0274b7b2-c235-481f-9f3c-3d12ea369daf","ios":"levelo://app?vid=0274b7b2-c235-481f-9f3c-3d12ea369daf"},"vehicle_type_id":"4","last_reported":1741111983,"current_range_meters":11200,"station_id":"ce4bgt92rcd13ifvqcf0","pricing_plan_id":"cebpf4jnsgd1na2vs0mg"},{"bike_id":"5c4a7346-ad14-4beb-bc7f-56ff6885eda6","system_id":"levelo_inurba_marseille","lat":43.28567,"lon":5.39493,"is_reserved":false,"is_disabled":false,"rental_uris":{"android":"levelo://app?vid=5c4a7346-ad14-4beb-bc7f-56ff6885eda6","ios":"levelo://app?vid=5c4a7346-ad14-4beb-bc7f-56ff6885eda6"},"vehicle_type_id":"4","last_reported":1741111983,"current_range_meters":11200,"station_id":"ce4bh292rcd13ifvqdg0","pricing_plan_id":"cebpf4jnsgd1na2vs0mg"},{"bike_id":"27c2d55e-b76d-4cd8-93c1-ca2e9a10f330","system_id":"levelo_inurba_marseille","lat":43.29419,"lon":5.38619,"is_reserved":false,"is_disabled":false,"rental_uris":{"android":"levelo://app?vid=27c2d55e-b76d-4cd8-93c1-ca2e9a10f330","ios":"levelo://app?vid=27c2d55e-b76d-4cd8-93c1-ca2e9a10f330"},"vehicle_type_id":"4","last_reported":1741111983,"current_range_meters":11200,"station_id":"ce4bh2h2rcd13ifvqdh0","pricing_plan_id":"cebpf4jnsgd1na2vs0mg"},{"bike_id":"96534ab7-4f6f-4c1c-9eeb-a2113adfd031","system_id":"levelo_inurba_marseille","lat":43.27172,"lon":5.40995,"is_reserved":false,"is_disabled":false,"rental_uris":{"android":"levelo://app?vid=96534ab7-4f6f-4c1c-9eeb-a2113adfd031","ios":"levelo://app?vid=96534ab7-4f6f-4c1c-9eeb-a2113adfd031"},"vehicle_type_id":"4","last_reported":1741111983,"current_range_meters":11200,"station_id":"ce4bhl12rcd13ifvqgf0","pricing_plan_id":"cebpf4jnsgd1na2vs0mg"},{"bike_id":"3f3c1456-9049-45c0-983e-1e780cd7ac03","system_id":"levelo_inurba_marseille","lat":43.28072,"lon":5.39659,"is_reserved":false,"is_disabled":false,"rental_uris":{"android":"levelo://app?vid=3f3c1456-9049-45c0-983e-1e780cd7ac03","ios":"levelo://app?vid=3f3c1456-9049-45c0-983e-1e780cd7ac03"},"vehicle_type_id":"4","last_reported":1741111983,"current_range_meters":11200,"station_id":"ce4bho12rcd13ifvqh2g","pricing_plan_id":"cebpf4jnsgd1na2vs0mg"},{"bike_id":"fa092475-c130-4c8f-9bc4-c06141cbeade","system_id":"levelo_inurba_marseille","lat":43.26943,"lon":5.4025,"is_reserved":false,"is_disabled":false,"rental_uris":{"android":"levelo://app?vid=fa092475-c130-4c8f-9bc4-c06141cbeade","ios":"levelo://app?vid=fa092475-c130-4c8f-9bc4-c06141cbeade"},"vehicle_type_id":"4","last_reported":1741111983,"current_range_meters":11200,"station_id":"cjm6bp8fraef2m0cb0m0","pricing_plan_id":"cebpf4jnsgd1na2vs0mg"},{"bike_id":"14e55cfe-25e9-42ae-a629-9994189849eb","system_id":"levelo_inurba_marseille","lat":43.30138,"lon":5.38781,"is_reserved":false,"is_disabled":false,"rental_uris":{"android":"levelo://app?vid=14e55cfe-25e9-42ae-a629-9994189849eb","ios":"levelo://app?vid=14e55cfe-25e9-42ae-a629-9994189849eb"},"vehicle_type_id":"4","last_reported":1741111983,"current_range_meters":11600,"station_id":"ce4bghh2rcd13ifvqb60","pricing_plan_id":"cebpf4jnsgd1na2vs0mg"},{"bike_id":"0596970d-6eb4-4331-8d1d-96c25a649f4a","system_id":"levelo_inurba_marseille","lat":43.286676,"lon":5.363416,"is_reserved":false,"is_disabled":false,"rental_uris":{"android":"levelo://app?vid=0596970d-6eb4-4331-8d1d-96c25a649f4a","ios":"levelo://app?vid=0596970d-6eb4-4331-8d1d-96c25a649f4a"},"vehicle_type_id":"4","last_reported":1741111983,"current_range_meters":11600,"station_id":"ce4bhah2rcd13ifvqej0","pricing_plan_id":"cebpf4jnsgd1na2vs0mg"},{"bike_id":"51e12e70-1338-4207-b37f-4a603cd739f6","system_id":"levelo_inurba_marseille","lat":43.288483,"lon":5.358564,"is_reserved":false,"is_disabled":false,"rental_uris":{"android":"levelo://app?vid=51e12e70-1338-4207-b37f-4a603cd739f6","ios":"levelo://app?vid=51e12e70-1338-4207-b37f-4a603cd739f6"},"vehicle_type_id":"4","last_reported":1741111983,"current_range_meters":11600,"station_id":"ce4bhch2rcd13ifvqeug","pricing_plan_id":"cebpf4jnsgd1na2vs0mg"},{"bike_id":"36898df2-660c-4353-a656-0c37e35eaef9","system_id":"levelo_inurba_marseille","lat":43.28431,"lon":5.39185,"is_reserved":false,"is_disabled":false,"rental_uris":{"android":"levelo://app?vid=36898df2-660c-4353-a656-0c37e35eaef9","ios":"levelo://app?vid=36898df2-660c-4353-a656-0c37e35eaef9"},"vehicle_type_id":"4","last_reported":1741111983,"current_range_meters":11600,"station_id":"ce4bhoh2rcd13ifvqh5g","pricing_plan_id":"cebpf4jnsgd1na2vs0mg"},{"bike_id":"c39e2295-e7a5-4c5b-833a-007e71b3658e","system_id":"levelo_inurba_marseille","lat":43.30804,"lon":5.435267,"is_reserved":false,"is_disabled":false,"rental_uris":{"android":"levelo://app?vid=c39e2295-e7a5-4c5b-833a-007e71b3658e","ios":"levelo://app?vid=c39e2295-e7a5-4c5b-833a-007e71b3658e"},"vehicle_type_id":"4","last_reported":1741111983,"current_range_meters":11600,"station_id":"ce4bhph2rcd13ifvqheg","pricing_plan_id":"cebpf4jnsgd1na2vs0mg"},{"bike_id":"6077a9b4-d2ff-4b90-bb78-3c388c992bfe","system_id":"levelo_inurba_marseille","lat":43.31336,"lon":5.397,"is_reserved":false,"is_disabled":false,"rental_uris":{"android":"levelo://app?vid=6077a9b4-d2ff-4b90-bb78-3c388c992bfe","ios":"levelo://app?vid=6077a9b4-d2ff-4b90-bb78-3c388c992bfe"},"vehicle_type_id":"4","last_reported":1741111983,"current_range_meters":12000,"station_id":"ce4bgvp2rcd13ifvqcu0","pricing_plan_id":"cebpf4jnsgd1na2vs0mg"},{"bike_id":"3917cff9-5cf8-4ab5-a7c7-bc3562bd890e","system_id":"levelo_inurba_marseille","lat":43.29273,"lon":5.40924,"is_reserved":false,"is_disabled":false,"rental_uris":{"android":"levelo://app?vid=3917cff9-5cf8-4ab5-a7c7-bc3562bd890e","ios":"levelo://app?vid=3917cff9-5cf8-4ab5-a7c7-bc3562bd890e"},"vehicle_type_id":"4","last_reported":1741111983,"current_range_meters":12000,"station_id":"ce4bh192rcd13ifvqdc0","pricing_plan_id":"cebpf4jnsgd1na2vs0mg"},{"bike_id":"cf621e78-209d-47b7-bca0-1e9222b83f96","system_id":"levelo_inurba_marseille","lat":43.271874,"lon":5.391823,"is_reserved":false,"is_disabled":false,"rental_uris":{"android":"levelo://app?vid=cf621e78-209d-47b7-bca0-1e9222b83f96","ios":"levelo://app?vid=cf621e78-209d-47b7-bca0-1e9222b83f96"},"vehicle_type_id":"4","last_reported":1741111983,"current_range_meters":12000,"station_id":"ce4bhhp2rcd13ifvqfm0","pricing_plan_id":"cebpf4jnsgd1na2vs0mg"},{"bike_id":"ec1930f4-7944-4e1a-8967-bad6e440e5c9","system_id":"levelo_inurba_marseille","lat":43.24685,"lon":5.38152,"is_reserved":false,"is_disabled":false,"rental_uris":{"android":"levelo://app?vid=ec1930f4-7944-4e1a-8967-bad6e440e5c9","ios":"levelo://app?vid=ec1930f4-7944-4e1a-8967-bad6e440e5c9"},"vehicle_type_id":"4","last_reported":1741111983,"current_range_meters":12000,"station_id":"ce4bhih2rcd13ifvqfr0","pricing_plan_id":"cebpf4jnsgd1na2vs0mg"},{"bike_id":"ee6a1671-76b3-4691-9f08-99bf3accdaba","system_id":"levelo_inurba_marseille","lat":43.25585,"lon":5.38229,"is_reserved":false,"is_disabled":false,"rental_uris":{"android":"levelo://app?vid=ee6a1671-76b3-4691-9f08-99bf3accdaba","ios":"levelo://app?vid=ee6a1671-76b3-4691-9f08-99bf3accdaba"},"vehicle_type_id":"4","last_reported":1741111983,"current_range_meters":12000,"station_id":"ce4bhih2rcd13ifvqfs0","pricing_plan_id":"cebpf4jnsgd1na2vs0mg"},{"bike_id":"0e577cf7-8a58-4404-8fa8-90e0b103679a","system_id":"levelo_inurba_marseille","lat":43.3176,"lon":5.39014,"is_reserved":false,"is_disabled":false,"rental_uris":{"android":"levelo://app?vid=0e577cf7-8a58-4404-8fa8-90e0b103679a","ios":"levelo://app?vid=0e577cf7-8a58-4404-8fa8-90e0b103679a"},"vehicle_type_id":"4","last_reported":1741111983,"current_range_meters":12000,"station_id":"ce4bhqp2rcd13ifvqhng","pricing_plan_id":"cebpf4jnsgd1na2vs0mg"},{"bike_id":"4c0e314a-87e2-48f0-a7b0-ec6605046de8","system_id":"levelo_inurba_marseille","lat":43.32111,"lon":5.36765,"is_reserved":false,"is_disabled":false,"rental_uris":{"android":"levelo://app?vid=4c0e314a-87e2-48f0-a7b0-ec6605046de8","ios":"levelo://app?vid=4c0e314a-87e2-48f0-a7b0-ec6605046de8"},"vehicle_type_id":"4","last_reported":1741111983,"current_range_meters":12000,"station_id":"ce4bhrh2rcd13ifvqhug","pricing_plan_id":"cebpf4jnsgd1na2vs0mg"},{"bike_id":"3d0d318d-f24b-460a-9cb3-6e7a14f1e914","system_id":"levelo_inurba_marseille","lat":43.30303,"lon":5.39215,"is_reserved":false,"is_disabled":false,"rental_uris":{"android":"levelo://app?vid=3d0d318d-f24b-460a-9cb3-6e7a14f1e914","ios":"levelo://app?vid=3d0d318d-f24b-460a-9cb3-6e7a14f1e914"},"vehicle_type_id":"4","last_reported":1741111983,"current_range_meters":12400,"station_id":"ce4bgkh2rcd13ifvqbk0","pricing_plan_id":"cebpf4jnsgd1na2vs0mg"},{"bike_id":"615d60c7-0625-4e60-a8fc-09c2daf91484","system_id":"levelo_inurba_marseille","lat":43.27817,"lon":5.40713,"is_reserved":false,"is_disabled":false,"rental_uris":{"android":"levelo://app?vid=615d60c7-0625-4e60-a8fc-09c2daf91484","ios":"levelo://app?vid=615d60c7-0625-4e60-a8fc-09c2daf91484"},"vehicle_type_id":"4","last_reported":1741111983,"current_range_meters":12400,"station_id":"ce4bhnh2rcd13ifvqgtg","pricing_plan_id":"cebpf4jnsgd1na2vs0mg"},{"bike_id":"6ea8ab5c-65c2-4db6-8cb6-dfdbe5b30189","system_id":"levelo_inurba_marseille","lat":43.32399,"lon":5.38893,"is_reserved":false,"is_disabled":false,"rental_uris":{"android":"levelo://app?vid=6ea8ab5c-65c2-4db6-8cb6-dfdbe5b30189","ios":"levelo://app?vid=6ea8ab5c-65c2-4db6-8cb6-dfdbe5b30189"},"vehicle_type_id":"4","last_reported":1741111983,"current_range_meters":12400,"station_id":"ce4bhqp2rcd13ifvqhog","pricing_plan_id":"cebpf4jnsgd1na2vs0mg"},{"bike_id":"51f6f578-8898-487a-9da7-ff3d6d379d1b","system_id":"levelo_inurba_marseille","lat":43.32132,"lon":5.36814,"is_reserved":false,"is_disabled":false,"rental_uris":{"android":"levelo://app?vid=51f6f578-8898-487a-9da7-ff3d6d379d1b","ios":"levelo://app?vid=51f6f578-8898-487a-9da7-ff3d6d379d1b"},"vehicle_type_id":"4","last_reported":1741111983,"current_range_meters":12400,"station_id":"ce4bhrh2rcd13ifvqhug","pricing_plan_id":"cebpf4jnsgd1na2vs0mg"},{"bike_id":"9786e8d2-7816-49f7-a36d-1e261b1ff9b5","system_id":"levelo_inurba_marseille","lat":43.24179,"lon":5.39724,"is_reserved":false,"is_disabled":false,"rental_uris":{"android":"levelo://app?vid=9786e8d2-7816-49f7-a36d-1e261b1ff9b5","ios":"levelo://app?vid=9786e8d2-7816-49f7-a36d-1e261b1ff9b5"},"vehicle_type_id":"4","last_reported":1741111983,"current_range_meters":12800,"station_id":"ce4bhn12rcd13ifvqgpg","pricing_plan_id":"cebpf4jnsgd1na2vs0mg"},{"bike_id":"2938665f-beb8-4970-b8dd-8652ed3e1679","system_id":"levelo_inurba_marseille","lat":43.240684,"lon":5.377649,"is_reserved":false,"is_disabled":false,"rental_uris":{"android":"levelo://app?vid=2938665f-beb8-4970-b8dd-8652ed3e1679","ios":"levelo://app?vid=2938665f-beb8-4970-b8dd-8652ed3e1679"},"vehicle_type_id":"4","last_reported":1741111983,"current_range_meters":12800,"station_id":"ce4bhnp2rcd13ifvqgvg","pricing_plan_id":"cebpf4jnsgd1na2vs0mg"},{"bike_id":"768c4993-3003-406c-9034-be6b4b7a2daa","system_id":"levelo_inurba_marseille","lat":43.28709,"lon":5.39974,"is_reserved":false,"is_disabled":false,"rental_uris":{"android":"levelo://app?vid=768c4993-3003-406c-9034-be6b4b7a2daa","ios":"levelo://app?vid=768c4993-3003-406c-9034-be6b4b7a2daa"},"vehicle_type_id":"4","last_reported":1741111983,"current_range_meters":12800,"station_id":"ce4bho92rcd13ifvqh3g","pricing_plan_id":"cebpf4jnsgd1na2vs0mg"},{"bike_id":"2908b7fb-2ce4-4166-9f0a-abbad9cdd5d7","system_id":"levelo_inurba_marseille","lat":43.296021,"lon":5.380856,"is_reserved":false,"is_disabled":false,"rental_uris":{"android":"levelo://app?vid=2908b7fb-2ce4-4166-9f0a-abbad9cdd5d7","ios":"levelo://app?vid=2908b7fb-2ce4-4166-9f0a-abbad9cdd5d7"},"vehicle_type_id":"4","last_reported":1741111983,"current_range_meters":13600,"station_id":"ce4bh0h2rcd13ifvqd50","pricing_plan_id":"cebpf4jnsgd1na2vs0mg"},{"bike_id":"40f6abab-1530-4133-b1bf-6d1769347a06","system_id":"levelo_inurba_marseille","lat":43.24803,"lon":5.37454,"is_reserved":false,"is_disabled":false,"rental_uris":{"android":"levelo://app?vid=40f6abab-1530-4133-b1bf-6d1769347a06","ios":"levelo://app?vid=40f6abab-1530-4133-b1bf-6d1769347a06"},"vehicle_type_id":"4","last_reported":1741111983,"current_range_meters":13600,"station_id":"ce4bhgh2rcd13ifvqfb0","pricing_plan_id":"cebpf4jnsgd1na2vs0mg"},{"bike_id":"f8b34b05-3ce8-4023-b46a-493d367bd4f6","system_id":"levelo_inurba_marseille","lat":43.27192,"lon":5.40995,"is_reserved":false,"is_disabled":false,"rental_uris":{"android":"levelo://app?vid=f8b34b05-3ce8-4023-b46a-493d367bd4f6","ios":"levelo://app?vid=f8b34b05-3ce8-4023-b46a-493d367bd4f6"},"vehicle_type_id":"4","last_reported":1741111983,"current_range_meters":13600,"station_id":"ce4bhl12rcd13ifvqgf0","pricing_plan_id":"cebpf4jnsgd1na2vs0mg"},{"bike_id":"e94a5fce-6bea-4c6b-a4fa-535f0a096198","system_id":"levelo_inurba_marseille","lat":43.27814,"lon":5.40725,"is_reserved":false,"is_disabled":false,"rental_uris":{"android":"levelo://app?vid=e94a5fce-6bea-4c6b-a4fa-535f0a096198","ios":"levelo://app?vid=e94a5fce-6bea-4c6b-a4fa-535f0a096198"},"vehicle_type_id":"4","last_reported":1741111983,"current_range_meters":13600,"station_id":"ce4bhnh2rcd13ifvqgtg","pricing_plan_id":"cebpf4jnsgd1na2vs0mg"},{"bike_id":"891d4632-f0a6-4752-943b-f639ac2b49bc","system_id":"levelo_inurba_marseille","lat":43.27996,"lon":5.40032,"is_reserved":false,"is_disabled":false,"rental_uris":{"android":"levelo://app?vid=891d4632-f0a6-4752-943b-f639ac2b49bc","ios":"levelo://app?vid=891d4632-f0a6-4752-943b-f639ac2b49bc"},"vehicle_type_id":"4","last_reported":1741111983,"current_range_meters":13600,"station_id":"ce4bho92rcd13ifvqh4g","pricing_plan_id":"cebpf4jnsgd1na2vs0mg"},{"bike_id":"e948d0d2-9d60-4e0f-8f45-dc40fd7ec45c","system_id":"levelo_inurba_marseille","lat":43.27999,"lon":5.40008,"is_reserved":false,"is_disabled":false,"rental_uris":{"android":"levelo://app?vid=e948d0d2-9d60-4e0f-8f45-dc40fd7ec45c","ios":"levelo://app?vid=e948d0d2-9d60-4e0f-8f45-dc40fd7ec45c"},"vehicle_type_id":"4","last_reported":1741111983,"current_range_meters":13600,"station_id":"ce4bho92rcd13ifvqh4g","pricing_plan_id":"cebpf4jnsgd1na2vs0mg"},{"bike_id":"af9f0fde-52fc-426e-8fb9-f2562b5503c4","system_id":"levelo_inurba_marseille","lat":43.27998,"lon":5.40009,"is_reserved":false,"is_disabled":false,"rental_uris":{"android":"levelo://app?vid=af9f0fde-52fc-426e-8fb9-f2562b5503c4","ios":"levelo://app?vid=af9f0fde-52fc-426e-8fb9-f2562b5503c4"},"vehicle_type_id":"4","last_reported":1741111983,"current_range_meters":13600,"station_id":"ce4bho92rcd13ifvqh4g","pricing_plan_id":"cebpf4jnsgd1na2vs0mg"},{"bike_id":"53370df7-9791-4141-8ab6-479eee9f8d86","system_id":"levelo_inurba_marseille","lat":43.29894,"lon":5.43666,"is_reserved":false,"is_disabled":false,"rental_uris":{"android":"levelo://app?vid=53370df7-9791-4141-8ab6-479eee9f8d86","ios":"levelo://app?vid=53370df7-9791-4141-8ab6-479eee9f8d86"},"vehicle_type_id":"4","last_reported":1741111983,"current_range_meters":13600,"station_id":"ce4bhpp2rcd13ifvqhfg","pricing_plan_id":"cebpf4jnsgd1na2vs0mg"},{"bike_id":"aa30b02e-e2ba-4bca-85c2-0bcb22afae22","system_id":"levelo_inurba_marseille","lat":43.29787,"lon":5.39352,"is_reserved":false,"is_disabled":false,"rental_uris":{"android":"levelo://app?vid=aa30b02e-e2ba-4bca-85c2-0bcb22afae22","ios":"levelo://app?vid=aa30b02e-e2ba-4bca-85c2-0bcb22afae22"},"vehicle_type_id":"4","last_reported":1741111983,"current_range_meters":13600,"station_id":"chh1huq6cuj3fo74tm60","pricing_plan_id":"cebpf4jnsgd1na2vs0mg"},{"bike_id":"0eb9fef3-83c8-47c8-ad9e-cfe2998c47d1","system_id":"levelo_inurba_marseille","lat":43.31059,"lon":5.37565,"is_reserved":false,"is_disabled":false,"rental_uris":{"android":"levelo://app?vid=0eb9fef3-83c8-47c8-ad9e-cfe2998c47d1","ios":"levelo://app?vid=0eb9fef3-83c8-47c8-ad9e-cfe2998c47d1"},"vehicle_type_id":"4","last_reported":1741111983,"current_range_meters":14000,"station_id":"","pricing_plan_id":"cebpf4jnsgd1na2vs0mg"},{"bike_id":"c4e68a6e-44fc-4ea3-a7e8-9689011e7340","system_id":"levelo_inurba_marseille","lat":43.29783,"lon":5.37096,"is_reserved":false,"is_disabled":false,"rental_uris":{"android":"levelo://app?vid=c4e68a6e-44fc-4ea3-a7e8-9689011e7340","ios":"levelo://app?vid=c4e68a6e-44fc-4ea3-a7e8-9689011e7340"},"vehicle_type_id":"4","last_reported":1741111983,"current_range_meters":14000,"station_id":"ce4bgop2rcd13ifvqc1g","pricing_plan_id":"cebpf4jnsgd1na2vs0mg"},{"bike_id":"4e7dba99-6e07-4c29-9610-7adbd5bd50d5","system_id":"levelo_inurba_marseille","lat":43.29424,"lon":5.3863,"is_reserved":false,"is_disabled":false,"rental_uris":{"android":"levelo://app?vid=4e7dba99-6e07-4c29-9610-7adbd5bd50d5","ios":"levelo://app?vid=4e7dba99-6e07-4c29-9610-7adbd5bd50d5"},"vehicle_type_id":"4","last_reported":1741111983,"current_range_meters":14000,"station_id":"ce4bh2h2rcd13ifvqdh0","pricing_plan_id":"cebpf4jnsgd1na2vs0mg"},{"bike_id":"3b18e162-1eec-414d-b090-ae30254a1436","system_id":"levelo_inurba_marseille","lat":43.29263,"lon":5.3842,"is_reserved":false,"is_disabled":false,"rental_uris":{"android":"levelo://app?vid=3b18e162-1eec-414d-b090-ae30254a1436","ios":"levelo://app?vid=3b18e162-1eec-414d-b090-ae30254a1436"},"vehicle_type_id":"4","last_reported":1741111983,"current_range_meters":14000,"station_id":"ce4bh692rcd13ifvqea0","pricing_plan_id":"cebpf4jnsgd1na2vs0mg"},{"bike_id":"1ea68385-7203-4a36-9b73-d6ffbfc5dc9d","system_id":"levelo_inurba_marseille","lat":43.29003,"lon":5.35615,"is_reserved":false,"is_disabled":false,"rental_uris":{"android":"levelo://app?vid=1ea68385-7203-4a36-9b73-d6ffbfc5dc9d","ios":"levelo://app?vid=1ea68385-7203-4a36-9b73-d6ffbfc5dc9d"},"vehicle_type_id":"4","last_reported":1741111983,"current_range_meters":14000,"station_id":"ce4bhb92rcd13ifvqen0","pricing_plan_id":"cebpf4jnsgd1na2vs0mg"},{"bike_id":"7cd5e07c-ad2a-4af8-99d9-77c41335ce79","system_id":"levelo_inurba_marseille","lat":43.241683,"lon":5.36394,"is_reserved":false,"is_disabled":false,"rental_uris":{"android":"levelo://app?vid=7cd5e07c-ad2a-4af8-99d9-77c41335ce79","ios":"levelo://app?vid=7cd5e07c-ad2a-4af8-99d9-77c41335ce79"},"vehicle_type_id":"4","last_reported":1741111983,"current_range_meters":14000,"station_id":"cpo36qri1sfpv3e86is0","pricing_plan_id":"cebpf4jnsgd1na2vs0mg"},{"bike_id":"fe0028fc-ec5b-4c3c-ae54-64cfe249c2ad","system_id":"levelo_inurba_marseille","lat":43.24811,"lon":5.37454,"is_reserved":false,"is_disabled":false,"rental_uris":{"android":"levelo://app?vid=fe0028fc-ec5b-4c3c-ae54-64cfe249c2ad","ios":"levelo://app?vid=fe0028fc-ec5b-4c3c-ae54-64cfe249c2ad"},"vehicle_type_id":"4","last_reported":1741111983,"current_range_meters":14400,"station_id":"ce4bhgh2rcd13ifvqfb0","pricing_plan_id":"cebpf4jnsgd1na2vs0mg"},{"bike_id":"8441514c-4110-42af-a6dc-85606173b4cc","system_id":"levelo_inurba_marseille","lat":43.24662,"lon":5.38165,"is_reserved":false,"is_disabled":false,"rental_uris":{"android":"levelo://app?vid=8441514c-4110-42af-a6dc-85606173b4cc","ios":"levelo://app?vid=8441514c-4110-42af-a6dc-85606173b4cc"},"vehicle_type_id":"4","last_reported":1741111983,"current_range_meters":14400,"station_id":"ce4bhih2rcd13ifvqfr0","pricing_plan_id":"cebpf4jnsgd1na2vs0mg"},{"bike_id":"053f5423-172b-4b40-ae66-c542213447c6","system_id":"levelo_inurba_marseille","lat":43.28,"lon":5.4001,"is_reserved":false,"is_disabled":false,"rental_uris":{"android":"levelo://app?vid=053f5423-172b-4b40-ae66-c542213447c6","ios":"levelo://app?vid=053f5423-172b-4b40-ae66-c542213447c6"},"vehicle_type_id":"4","last_reported":1741111983,"current_range_meters":14400,"station_id":"ce4bho92rcd13ifvqh4g","pricing_plan_id":"cebpf4jnsgd1na2vs0mg"},