{"last_updated":1762884909,"ttl":60,"version":"2.2","data":{"bikes":[{"bike_id":"d7db12ce-11cc-4c98-8751-ac59baa5d7aa","system_id":"levelo_inurba_marseille","lat":43.337444,"lon":5.374475,"is_reserved":false,"is_disabled":false,"rental_uris":{"android":"levelo://app?vid=d7db12ce-11cc-4c98-8751-ac59baa5d7aa","ios":"levelo://app?vid=d7db12ce-11cc-4c98-8751-ac59baa5d7aa"},"vehicle_type_id":"4","last_reported":1762884909,"current_range_meters":0,"station_id":"","pricing_plan_id":"cebpf4jnsgd1na2vs0mg"},{"bike_id":"cb755174-03c1-435d-9ead-9059e7621d77","system_id":"levelo_inurba_marseille","lat":43.30739,"lon":5.42438,"is_reserved":false,"is_disabled":false,"rental_uris":{"android":"levelo://app?vid=cb755174-03c1-435d-9ead-9059e7621d77","ios":"levelo://app?vid=cb755174-03c1-435d-9ead-9059e7621d77"},"vehicle_type_id":"4","last_reported":1762884909,"current_range_meters":2800,"station_id":"st_cvj6ca6bvosntc0bfgr0","pricing_plan_id":"cebpf4jnsgd1na2vs0mg"},{"bike_id":"6fcb414c-2955-49a6-a93f-a2d033517bdf","system_id":"levelo_inurba_marseille","lat":43.2953,"lon":5.38546,"is_reserved":false,"is_disabled":false,"rental_uris":{"android":"levelo://app?vid=6fcb414c-2955-49a6-a93f-a2d033517bdf","ios":"levelo://app?vid=6fcb414c-2955-49a6-a93f-a2d033517bdf"},"vehicle_type_id":"4","last_reported":1762884909,"current_range_meters":2800,"station_id":"ce4bgih2rcd13ifvqba0","pricing_plan_id":"cebpf4jnsgd1na2vs0mg"},{"bike_id":"07a8b23d-23a9-41ea-8b36-d0e227143d8e","system_id":"levelo_inurba_marseille","lat":43.32362,"lon":5.36774,"is_reserved":false,"is_disabled":false,"rental_uris":{"android":"levelo://app?vid=07a8b23d-23a9-41ea-8b36-d0e227143d8e","ios":"levelo://app?vid=07a8b23d-23a9-41ea-8b36-d0e227143d8e"},"vehicle_type_id":"4","last_reported":1762884909,"current_range_meters":2800,"station_id":"ce4bhsh2rcd13ifvqi2g","pricing_plan_id":"cebpf4jnsgd1na2vs0mg"},{"bike_id":"ad1c8150-f69d-4cc2-bcbf-e328de393a66","system_id":"levelo_inurba_marseille","lat":43.339397,"lon":5.415086,"is_reserved":false,"is_disabled":false,"rental_uris":{"android":"levelo://app?vid=ad1c8150-f69d-4cc2-bcbf-e328de393a66","ios":"levelo://app?vid=ad1c8150-f69d-4cc2-bcbf-e328de393a66"},"vehicle_type_id":"4","last_reported":1762884909,"current_range_meters":2800,"station_id":"","pricing_plan_id":"cebpf4jnsgd1na2vs0mg"},{"bike_id":"92dd01e4-78c5-4733-90d0-187551df2755","system_id":"levelo_inurba_marseille","lat":43.28043,"lon":5.36949,"is_reserved":false,"is_disabled":false,"rental_uris":{"android":"levelo://app?vid=92dd01e4-78c5-4733-90d0-187551df2755","ios":"levelo://app?vid=92dd01e4-78c5-4733-90d0-187551df2755"},"vehicle_type_id":"4","last_reported":1762884909,"current_range_meters":3200,"station_id":"ce4bha12rcd13ifvqef0","pricing_plan_id":"cebpf4jnsgd1na2vs0mg"},{"bike_id":"b4ff66cd-6683-464b-80aa-a4aaa61e40d3","system_id":"levelo_inurba_marseille","lat":43.29006,"lon":5.35622,"is_reserved":false,"is_disabled":false,"rental_uris":{"android":"levelo://app?vid=b4ff66cd-6683-464b-80aa-a4aaa61e40d3","ios":"levelo://app?vid=b4ff66cd-6683-464b-80aa-a4aaa61e40d3"},"vehicle_type_id":"4","last_reported":1762884909,"current_range_meters":3200,"station_id":"ce4bhb92rcd13ifvqen0","pricing_plan_id":"cebpf4jnsgd1na2vs0mg"},{"bike_id":"2917510a-985e-4e78-9b2a-cda4517ef7ac","system_id":"levelo_inurba_marseille","lat":43.231543,"lon":5.437186,"is_reserved":false,"is_disabled":false,"rental_uris":{"android":"levelo://app?vid=2917510a-985e-4e78-9b2a-cda4517ef7ac","ios":"levelo://app?vid=2917510a-985e-4e78-9b2a-cda4517ef7ac"},"vehicle_type_id":"4","last_reported":1762884909,"current_range_meters":3200,"station_id":"ce4bhmp2rcd13ifvqgog","pricing_plan_id":"cebpf4jnsgd1na2vs0mg"},{"bike_id":"b4582bc0-21fa-4717-911d-87c868127486","system_id":"levelo_inurba_marseille","lat":43.31544,"lon":5.38024,"is_reserved":false,"is_disabled":false,"rental_uris":{"android":"levelo://app?vid=b4582bc0-21fa-4717-911d-87c868127486","ios":"levelo://app?vid=b4582bc0-21fa-4717-911d-87c868127486"},"vehicle_type_id":"4","last_reported":1762884909,"current_range_meters":3600,"station_id":"ce4bhsp2rcd13ifvqi50","pricing_plan_id":"cebpf4jnsgd1na2vs0mg"},{"bike_id":"1b267de1-bcca-40ed-87d1-2e39c381830d","system_id":"levelo_inurba_marseille","lat":43.225342,"lon":5.348387,"is_reserved":false,"is_disabled":false,"rental_uris":{"android":"levelo://app?vid=1b267de1-bcca-40ed-87d1-2e39c381830d","ios":"levelo://app?vid=1b267de1-bcca-40ed-87d1-2e39c381830d"},"vehicle_type_id":"4","last_reported":1762884909,"current_range_meters":3600,"station_id":"","pricing_plan_id":"cebpf4jnsgd1na2vs0mg"},{"bike_id":"28a9add4-df57-48ad-8b13-ad921ad002dd","system_id":"levelo_inurba_marseille","lat":43.292683,"lon":5.384456,"is_reserved":false,"is_disabled":false,"rental_uris":{"android":"levelo://app?vid=28a9add4-df57-48ad-8b13-ad921ad002dd","ios":"levelo://app?vid=28a9add4-df57-48ad-8b13-ad921ad002dd"},"vehicle_type_id":"4","last_reported":1762884909,"current_range_meters":3600,"station_id":"ce4bhbh2rcd13ifvqeqg","pricing_plan_id":"cebpf4jnsgd1na2vs0mg"},{"bike_id":"d4727bf4-ce00-4ad5-a616-072b6c555b76","system_id":"levelo_inurba_marseille","lat":43.28166,"lon":5.42644,"is_reserved":false,"is_disabled":false,"rental_uris":{"android":"levelo://app?vid=d4727bf4-ce00-4ad5-a616-072b6c555b76","ios":"levelo://app?vid=d4727bf4-ce00-4ad5-a616-072b6c555b76"},"vehicle_type_id":"4","last_reported":1762884909,"current_range_meters":3600,"station_id":"ce4bhnh2rcd13ifvqgug","pricing_plan_id":"cebpf4jnsgd1na2vs0mg"},{"bike_id":"b3d16a6d-0471-48a5-8737-66b518d20806","system_id":"levelo_inurba_marseille","lat":43.2743,"lon":5.39426,"is_reserved":false,"is_disabled":false,"rental_uris":{"android":"levelo://app?vid=b3d16a6d-0471-48a5-8737-66b518d20806","ios":"levelo://app?vid=b3d16a6d-0471-48a5-8737-66b518d20806"},"vehicle_type_id":"4","last_reported":1762884909,"current_range_meters":3600,"station_id":"ce4bhdp2rcd13ifvqf20","pricing_plan_id":"cebpf4jnsgd1na2vs0mg"},{"bike_id":"986c3dcc-f052-4e15-a2ce-d09b41b7ea84","system_id":"levelo_inurba_marseille","lat":43.27203,"lon":5.39181,"is_reserved":false,"is_disabled":false,"rental_uris":{"android":"levelo://app?vid=986c3dcc-f052-4e15-a2ce-d09b41b7ea84","ios":"levelo://app?vid=986c3dcc-f052-4e15-a2ce-d09b41b7ea84"},"vehicle_type_id":"4","last_reported":1762884909,"current_range_meters":3600,"station_id":"ce4bhhp2rcd13ifvqfm0","pricing_plan_id":"cebpf4jnsgd1na2vs0mg"},{"bike_id":"1c16d0e9-cf11-4eac-9c84-7b37fb19e88c","system_id":"levelo_inurba_marseille","lat":43.29552,"lon":5.38556,"is_reserved":false,"is_disabled":false,"rental_uris":{"android":"levelo://app?vid=1c16d0e9-cf11-4eac-9c84-7b37fb19e88c","ios":"levelo://app?vid=1c16d0e9-cf11-4eac-9c84-7b37fb19e88c"},"vehicle_type_id":"4","last_reported":1762884909,"current_range_meters":3600,"station_id":"ce4bgih2rcd13ifvqba0","pricing_plan_id":"cebpf4jnsgd1na2vs0mg"},{"bike_id":"653cd1b2-09fb-446a-b9a7-1badbc538d8c","system_id":"levelo_inurba_marseille","lat":43.23786,"lon":5.36631,"is_reserved":false,"is_disabled":false,"rental_uris":{"android":"levelo://app?vid=653cd1b2-09fb-446a-b9a7-1badbc538d8c","ios":"levelo://app?vid=653cd1b2-09fb-446a-b9a7-1badbc538d8c"},"vehicle_type_id":"4","last_reported":1762884909,"current_range_meters":3600,"station_id":"st_d3nk18o9ro0c73en2l3g","pricing_plan_id":"cebpf4jnsgd1na2vs0mg"},{"bike_id":"3bc3d4f9-7b44-44e0-ba11-acdc579d962a","system_id":"levelo_inurba_marseille","lat":43.2964,"lon":5.40602,"is_reserved":false,"is_disabled":false,"rental_uris":{"android":"levelo://app?vid=3bc3d4f9-7b44-44e0-ba11-acdc579d962a","ios":"levelo://app?vid=3bc3d4f9-7b44-44e0-ba11-acdc579d962a"},"vehicle_type_id":"4","last_reported":1762884909,"current_range_meters":3600,"station_id":"ce4bh0h2rcd13ifvqd60","pricing_plan_id":"cebpf4jnsgd1na2vs0mg"},{"bike_id":"3132cbd2-c123-4910-9c41-4fb2f66867f5","system_id":"levelo_inurba_marseille","lat":43.30336,"lon":5.40439,"is_reserved":false,"is_disabled":false,"rental_uris":{"android":"levelo://app?vid=3132cbd2-c123-4910-9c41-4fb2f66867f5","ios":"levelo://app?vid=3132cbd2-c123-4910-9c41-4fb2f66867f5"},"vehicle_type_id":"4","last_reported":1762884909,"current_range_meters":4000,"station_id":"ce4bh012rcd13ifvqd10","pricing_plan_id":"cebpf4jnsgd1na2vs0mg"},{"bike_id":"c96d361c-9657-4dd4-b16c-107f3166cf96","system_id":"levelo_inurba_marseille","lat":43.30418,"lon":5.39744,"is_reserved":false,"is_disabled":false,"rental_uris":{"android":"levelo://app?vid=c96d361c-9657-4dd4-b16c-107f3166cf96","ios":"levelo://app?vid=c96d361c-9657-4dd4-b16c-107f3166cf96"},"vehicle_type_id":"4","last_reported":1762884909,"current_range_meters":4000,"station_id":"ce4bh092rcd13ifvqd20","pricing_plan_id":"cebpf4jnsgd1na2vs0mg"},{"bike_id":"4386e18a-fc30-4ce0-8ece-c45d88abff12","system_id":"levelo_inurba_marseille","lat":43.29691,"lon":5.3659,"is_reserved":false,"is_disabled":false,"rental_uris":{"android":"levelo://app?vid=4386e18a-fc30-4ce0-8ece-c45d88abff12","ios":"levelo://app?vid=4386e18a-fc30-4ce0-8ece-c45d88abff12"},"vehicle_type_id":"4","last_reported":1762884909,"current_range_meters":4000,"station_id":"ce4bgn12rcd13ifvqbt0","pricing_plan_id":"cebpf4jnsgd1na2vs0mg"},{"bike_id":"dcbc4985-76df-47d4-ba15-ea3ec86b22bc","system_id":"levelo_inurba_marseille","lat":43.31093,"lon":5.37763,"is_reserved":false,"is_disabled":false,"rental_uris":{"android":"levelo://app?vid=dcbc4985-76df-47d4-ba15-ea3ec86b22bc","ios":"levelo://app?vid=dcbc4985-76df-47d4-ba15-ea3ec86b22bc"},"vehicle_type_id":"4","last_reported":1762884909,"current_range_meters":4000,"station_id":"ce4bgt92rcd13ifvqcg0","pricing_plan_id":"cebpf4jnsgd1na2vs0mg"},{"bike_id":"6c695009-8d57-4f14-b25e-253cf9de0b52","system_id":"levelo_inurba_marseille","lat":43.31324,"lon":5.39689,"is_reserved":false,"is_disabled":false,"rental_uris":{"android":"levelo://app?vid=6c695009-8d57-4f14-b25e-253cf9de0b52","ios":"levelo://app?vid=6c695009-8d57-4f14-b25e-253cf9de0b52"},"vehicle_type_id":"4","last_reported":1762884909,"current_range_meters":4000,"station_id":"ce4bgvp2rcd13ifvqcu0","pricing_plan_id":"cebpf4jnsgd1na2vs0mg"},{"bike_id":"37214b08-5f0c-4dfe-bb84-17bd8b294044","system_id":"levelo_inurba_marseille","lat":43.284363,"lon":5.380614,"is_reserved":false,"is_disabled":false,"rental_uris":{"android":"levelo://app?vid=37214b08-5f0c-4dfe-bb84-17bd8b294044","ios":"levelo://app?vid=37214b08-5f0c-4dfe-bb84-17bd8b294044"},"vehicle_type_id":"4","last_reported":1762884909,"current_range_meters":4000,"station_id":"ce4bh412rcd13ifvqdr0","pricing_plan_id":"cebpf4jnsgd1na2vs0mg"},{"bike_id":"ec4914c8-2847-429c-9aee-5f3c765701d2","system_id":"levelo_inurba_marseille","lat":43.28398,"lon":5.37512,"is_reserved":false,"is_disabled":false,"rental_uris":{"android":"levelo://app?vid=ec4914c8-2847-429c-9aee-5f3c765701d2","ios":"levelo://app?vid=ec4914c8-2847-429c-9aee-5f3c765701d2"},"vehicle_type_id":"4","last_reported":1762884909,"current_range_meters":4000,"station_id":"ce4bh412rcd13ifvqds0","pricing_plan_id":"cebpf4jnsgd1na2vs0mg"},{"bike_id":"ab8c3c26-7f2c-44cb-819f-81becbcc3d6c","system_id":"levelo_inurba_marseille","lat":43.3043,"lon":5.39744,"is_reserved":false,"is_disabled":true,"rental_uris":{"android":"levelo://app?vid=ab8c3c26-7f2c-44cb-819f-81becbcc3d6c","ios":"levelo://app?vid=ab8c3c26-7f2c-44cb-819f-81becbcc3d6c"},"vehicle_type_id":"4","last_reported":1762884909,"current_range_meters":4400,"station_id":"ce4bh092rcd13ifvqd20","pricing_plan_id":"cebpf4jnsgd1na2vs0mg"},{"bike_id":"d465a52a-66b4-4bd9-b2a6-e1beda0af726","system_id":"levelo_inurba_marseille","lat":43.29025,"lon":5.35607,"is_reserved":false,"is_disabled":true,"rental_uris":{"android":"levelo://app?vid=d465a52a-66b4-4bd9-b2a6-e1beda0af726","ios":"levelo://app?vid=d465a52a-66b4-4bd9-b2a6-e1beda0af726"},"vehicle_type_id":"4","last_reported":1762884909,"current_range_meters":4400,"station_id":"ce4bhb92rcd13ifvqen0","pricing_plan_id":"cebpf4jnsgd1na2vs0mg"},{"bike_id":"55faaa29-53d2-4a08-a203-eb01a3057969","system_id":"levelo_inurba_marseille","lat":43.2466,"lon":5.38164,"is_reserved":false,"is_disabled":false,"rental_uris":{"android":"levelo://app?vid=55faaa29-53d2-4a08-a203-eb01a3057969","ios":"levelo://app?vid=55faaa29-53d2-4a08-a203-eb01a3057969"},"vehicle_type_id":"4","last_reported":1762884909,"current_range_meters":4400,"station_id":"ce4bhih2rcd13ifvqfr0","pricing_plan_id":"cebpf4jnsgd1na2vs0mg"},{"bike_id":"88760492-91b6-4b3e-8c0f-796336959daa","system_id":"levelo_inurba_marseille","lat":43.33152,"lon":5.37697,"is_reserved":false,"is_disabled":false,"rental_uris":{"android":"levelo://app?vid=88760492-91b6-4b3e-8c0f-796336959daa","ios":"levelo://app?vid=88760492-91b6-4b3e-8c0f-796336959daa"},"vehicle_type_id":"4","last_reported":1762884909,"current_range_meters":4800,"station_id":"st_d46cu089ee8s73dldbu0","pricing_plan_id":"cebpf4jnsgd1na2vs0mg"},{"bike_id":"eab18918-de29-4690-a805-5d49dbcafcb4","system_id":"levelo_inurba_marseille","lat":43.303192,"lon":5.404498,"is_reserved":false,"is_disabled":false,"rental_uris":{"android":"levelo://app?vid=eab18918-de29-4690-a805-5d49dbcafcb4","ios":"levelo://app?vid=eab18918-de29-4690-a805-5d49dbcafcb4"},"vehicle_type_id":"4","last_reported":1762884909,"current_range_meters":4800,"station_id":"ce4bh012rcd13ifvqd10","pricing_plan_id":"cebpf4jnsgd1na2vs0mg"},{"bike_id":"d91f7b77-628b-406f-9c6d-db5e5cfcadca","system_id":"levelo_inurba_marseille","lat":43.284798,"lon":5.4839,"is_reserved":false,"is_disabled":false,"rental_uris":{"android":"levelo://app?vid=d91f7b77-628b-406f-9c6d-db5e5cfcadca","ios":"levelo://app?vid=d91f7b77-628b-406f-9c6d-db5e5cfcadca"},"vehicle_type_id":"4","last_reported":1762884909,"current_range_meters":4800,"station_id":"st_d3svhcjqgbts73a3dn0g","pricing_plan_id":"cebpf4jnsgd1na2vs0mg"},{"bike_id":"735ce2ae-108b-4488-9265-2f16a754a1ef","system_id":"levelo_inurba_marseille","lat":43.27945,"lon":5.41046,"is_reserved":false,"is_disabled":false,"rental_uris":{"android":"levelo://app?vid=735ce2ae-108b-4488-9265-2f16a754a1ef","ios":"levelo://app?vid=735ce2ae-108b-4488-9265-2f16a754a1ef"},"vehicle_type_id":"4","last_reported":1762884909,"current_range_meters":4800,"station_id":"ce4bhnp2rcd13ifvqh0g","pricing_plan_id":"cebpf4jnsgd1na2vs0mg"},{"bike_id":"56252eb9-8e9f-40dd-80e3-62657c8ad531","system_id":"levelo_inurba_marseille","lat":43.288524,"lon":5.393242,"is_reserved":false,"is_disabled":false,"rental_uris":{"android":"levelo://app?vid=56252eb9-8e9f-40dd-80e3-62657c8ad531","ios":"levelo://app?vid=56252eb9-8e9f-40dd-80e3-62657c8ad531"},"vehicle_type_id":"4","last_reported":1762884909,"current_range_meters":4800,"station_id":"","pricing_plan_id":"cebpf4jnsgd1na2vs0mg"},{"bike_id":"15741435-245e-4e4d-a14c-f564231b8eff","system_id":"levelo_inurba_marseille","lat":43.27954,"lon":5.41052,"is_reserved":false,"is_disabled":false,"rental_uris":{"android":"levelo://app?vid=15741435-245e-4e4d-a14c-f564231b8eff","ios":"levelo://app?vid=15741435-245e-4e4d-a14c-f564231b8eff"},"vehicle_type_id":"4","last_reported":1762884909,"current_range_meters":4800,"station_id":"ce4bhnp2rcd13ifvqh0g","pricing_plan_id":"cebpf4jnsgd1na2vs0mg"},{"bike_id":"fb30a5bd-5753-4fef-9259-b5fdcbe0fcf6","system_id":"levelo_inurba_marseille","lat":43.28706,"lon":5.37395,"is_reserved":false,"is_disabled":false,"rental_uris":{"android":"levelo://app?vid=fb30a5bd-5753-4fef-9259-b5fdcbe0fcf6","ios":"levelo://app?vid=fb30a5bd-5753-4fef-9259-b5fdcbe0fcf6"},"vehicle_type_id":"4","last_reported":1762884909,"current_range_meters":5600,"station_id":"ce4bh3p2rcd13ifvqdq0","pricing_plan_id":"cebpf4jnsgd1na2vs0mg"},{"bike_id":"cc9bcb9c-f1fd-4d90-8f37-27d6aa5caf7e","system_id":"levelo_inurba_marseille","lat":43.29531,"lon":5.38548,"is_reserved":false,"is_disabled":false,"rental_uris":{"android":"levelo://app?vid=cc9bcb9c-f1fd-4d90-8f37-27d6aa5caf7e","ios":"levelo://app?vid=cc9bcb9c-f1fd-4d90-8f37-27d6aa5caf7e"},"vehicle_type_id":"4","last_reported":1762884909,"current_range_meters":5600,"station_id":"ce4bgih2rcd13ifvqba0","pricing_plan_id":"cebpf4jnsgd1na2vs0mg"},{"bike_id":"3f626ef3-8614-4d45-839d-27dfce70526e","system_id":"levelo_inurba_marseille","lat":43.29263,"lon":5.384365,"is_reserved":false,"is_disabled":false,"rental_uris":{"android":"levelo://app?vid=3f626ef3-8614-4d45-839d-27dfce70526e","ios":"levelo://app?vid=3f626ef3-8614-4d45-839d-27dfce70526e"},"vehicle_type_id":"4","last_reported":1762884909,"current_range_meters":5600,"station_id":"ce4bh692rcd13ifvqea0","pricing_plan_id":"cebpf4jnsgd1na2vs0mg"},{"bike_id":"a1255a2c-180a-4a2b-9748-505a1e2de20d","system_id":"levelo_inurba_marseille","lat":43.29248,"lon":5.38433,"is_reserved":false,"is_disabled":false,"rental_uris":{"android":"levelo://app?vid=a1255a2c-180a-4a2b-9748-505a1e2de20d","ios":"levelo://app?vid=a1255a2c-180a-4a2b-9748-505a1e2de20d"},"vehicle_type_id":"4","last_reported":1762884909,"current_range_meters":5600,"station_id":"ce4bh692rcd13ifvqea0","pricing_plan_id":"cebpf4jnsgd1na2vs0mg"},{"bike_id":"1f5a8b7a-4f85-432e-8a2e-1320e8301faa","system_id":"levelo_inurba_marseille","lat":43.33242,"lon":5.38144,"is_reserved":false,"is_disabled":false,"rental_uris":{"android":"levelo://app?vid=1f5a8b7a-4f85-432e-8a2e-1320e8301faa","ios":"levelo://app?vid=1f5a8b7a-4f85-432e-8a2e-1320e8301faa"},"vehicle_type_id":"4","last_reported":1762884909,"current_range_meters":5600,"station_id":"st_d46cu089ee8s73dldbu0","pricing_plan_id":"cebpf4jnsgd1na2vs0mg"},{"bike_id":"f8d78524-b363-4c7c-9205-e0b76028b8cb","system_id":"levelo_inurba_marseille","lat":43.28151,"lon":5.42643,"is_reserved":false,"is_disabled":false,"rental_uris":{"android":"levelo://app?vid=f8d78524-b363-4c7c-9205-e0b76028b8cb","ios":"levelo://app?vid=f8d78524-b363-4c7c-9205-e0b76028b8cb"},"vehicle_type_id":"4","last_reported":1762884909,"current_range_meters":6000,"station_id":"ce4bhnh2rcd13ifvqgug","pricing_plan_id":"cebpf4jnsgd1na2vs0mg"},{"bike_id":"9ade1fe7-d83f-4045-9bd3-74892e77626e","system_id":"levelo_inurba_marseille","lat":43.240816,"lon":5.377272,"is_reserved":false,"is_disabled":true,"rental_uris":{"android":"levelo://app?vid=9ade1fe7-d83f-4045-9bd3-74892e77626e","ios":"levelo://app?vid=9ade1fe7-d83f-4045-9bd3-74892e77626e"},"vehicle_type_id":"4","last_reported":1762884909,"current_range_meters":6000,"station_id":"ce4bhnp2rcd13ifvqgvg","pricing_plan_id":"cebpf4jnsgd1na2vs0mg"},{"bike_id":"9a3ab8ca-6e98-4991-9fea-a81462de1005","system_id":"levelo_inurba_marseille","lat":43.27542,"lon":5.3843,"is_reserved":false,"is_disabled":false,"rental_uris":{"android":"levelo://app?vid=9a3ab8ca-6e98-4991-9fea-a81462de1005","ios":"levelo://app?vid=9a3ab8ca-6e98-4991-9fea-a81462de1005"},"vehicle_type_id":"4","last_reported":1762884909,"current_range_meters":6000,"station_id":"ce4bhh92rcd13ifvqfi0","pricing_plan_id":"cebpf4jnsgd1na2vs0mg"},{"bike_id":"355d0a72-63a4-43ac-addc-15604eb0aa69","system_id":"levelo_inurba_marseille","lat":43.29926,"lon":5.36383,"is_reserved":false,"is_disabled":false,"rental_uris":{"android":"levelo://app?vid=355d0a72-63a4-43ac-addc-15604eb0aa69","ios":"levelo://app?vid=355d0a72-63a4-43ac-addc-15604eb0aa69"},"vehicle_type_id":"4","last_reported":1762884909,"current_range_meters":6000,"station_id":"","pricing_plan_id":"cebpf4jnsgd1na2vs0mg"},{"bike_id":"0936661e-7a56-4432-8d2b-2bac2c32e235","system_id":"levelo_inurba_marseille","lat":43.28938,"lon":5.38391,"is_reserved":false,"is_disabled":false,"rental_uris":{"android":"levelo://app?vid=0936661e-7a56-4432-8d2b-2bac2c32e235","ios":"levelo://app?vid=0936661e-7a56-4432-8d2b-2bac2c32e235"},"vehicle_type_id":"4","last_reported":1762884909,"current_range_meters":6000,"station_id":"ce4bh612rcd13ifvqe6g","pricing_plan_id":"cebpf4jnsgd1na2vs0mg"},{"bike_id":"3e127f70-cf6a-4934-aa04-3bd2aa9faa0a","system_id":"levelo_inurba_marseille","lat":43.27077,"lon":5.42279,"is_reserved":false,"is_disabled":false,"rental_uris":{"android":"levelo://app?vid=3e127f70-cf6a-4934-aa04-3bd2aa9faa0a","ios":"levelo://app?vid=3e127f70-cf6a-4934-aa04-3bd2aa9faa0a"},"vehicle_type_id":"4","last_reported":1762884909,"current_range_meters":6400,"station_id":"ce4bhk92rcd13ifvqgb0","pricing_plan_id":"cebpf4jnsgd1na2vs0mg"},{"bike_id":"285edc02-c40d-4315-906b-2d38b29ac259","system_id":"levelo_inurba_marseille","lat":43.33789,"lon":5.3746,"is_reserved":false,"is_disabled":false,"rental_uris":{"android":"levelo://app?vid=285edc02-c40d-4315-906b-2d38b29ac259","ios":"levelo://app?vid=285edc02-c40d-4315-906b-2d38b29ac259"},"vehicle_type_id":"4","last_reported":1762884909,"current_range_meters":6400,"station_id":"","pricing_plan_id":"cebpf4jnsgd1na2vs0mg"},{"bike_id":"86f6d88d-be80-415c-b141-feacc7ba2a1c","system_id":"levelo_inurba_marseille","lat":43.29577,"lon":5.37509,"is_reserved":false,"is_disabled":false,"rental_uris":{"android":"levelo://app?vid=86f6d88d-be80-415c-b141-feacc7ba2a1c","ios":"levelo://app?vid=86f6d88d-be80-415c-b141-feacc7ba2a1c"},"vehicle_type_id":"4","last_reported":1762884909,"current_range_meters":6400,"station_id":"ce4bgh92rcd13ifvqb50","pricing_plan_id":"cebpf4jnsgd1na2vs0mg"},{"bike_id":"b3724fe1-9df5-4895-9ba9-fbbba5593e5f","system_id":"levelo_inurba_marseille","lat":43.27914,"lon":5.39578,"is_reserved":false,"is_disabled":false,"rental_uris":{"android":"levelo://app?vid=b3724fe1-9df5-4895-9ba9-fbbba5593e5f","ios":"levelo://app?vid=b3724fe1-9df5-4895-9ba9-fbbba5593e5f"},"vehicle_type_id":"4","last_reported":1762884909,"current_range_meters":6400,"station_id":"ce4bhf92rcd13ifvqf40","pricing_plan_id":"cebpf4jnsgd1na2vs0mg"},{"bike_id":"8f20b852-e2be-4e7c-972f-50c8bffb5977","system_id":"levelo_inurba_marseille","lat":43.28376,"lon":5.3878,"is_reserved":false,"is_disabled":false,"rental_uris":{"android":"levelo://app?vid=8f20b852-e2be-4e7c-972f-50c8bffb5977","ios":"levelo://app?vid=8f20b852-e2be-4e7c-972f-50c8bffb5977"},"vehicle_type_id":"4","last_reported":1762884909,"current_range_meters":6400,"station_id":"","pricing_plan_id":"cebpf4jnsgd1na2vs0mg"},{"bike_id":"a153bb7a-facf-4d89-8fb0-01e6272ba505","system_id":"levelo_inurba_marseille","lat":43.26976,"lon":5.38804,"is_reserved":false,"is_disabled":false,"rental_uris":{"android":"levelo://app?vid=a153bb7a-facf-4d89-8fb0-01e6272ba505","ios":"levelo://app?vid=a153bb7a-facf-4d89-8fb0-01e6272ba505"},"vehicle_type_id":"4","last_reported":1762884909,"current_range_meters":6400,"station_id":"","pricing_plan_id":"cebpf4jnsgd1na2vs0mg"},{"bike_id":"9a82fcbb-0ab3-4f45-aacf-b6e1642c0228","system_id":"levelo_inurba_marseille","lat":43.29606,"lon":5.37723,"is_reserved":false,"is_disabled":true,"rental_uris":{"android":"levelo://app?vid=9a82fcbb-0ab3-4f45-aacf-b6e1642c0228","ios":"levelo://app?vid=9a82fcbb-0ab3-4f45-aacf-b6e1642c0228"},"vehicle_type_id":"4","last_reported":1762884909,"current_range_meters":6400,"station_id":"ce4bgi92rcd13ifvqb90","pricing_plan_id":"cebpf4jnsgd1na2vs0mg"},{"bike_id":"1bf60d7e-82fe-44a6-825b-6387a61e2b5e","system_id":"levelo_inurba_marseille","lat":43.231904,"lon":5.35554,"is_reserved":false,"is_disabled":false,"rental_uris":{"android":"levelo://app?vid=1bf60d7e-82fe-44a6-825b-6387a61e2b5e","ios":"levelo://app?vid=1bf60d7e-82fe-44a6-825b-6387a61e2b5e"},"vehicle_type_id":"4","last_reported":1762884909,"current_range_meters":6400,"station_id":"ce4bhb92rcd13ifvqen0","pricing_plan_id":"cebpf4jnsgd1na2vs0mg"},{"bike_id":"24fafebe-994f-48c7-a199-2cb093d92a68","system_id":"levelo_inurba_marseille","lat":43.28928,"lon":5.39621,"is_reserved":false,"is_disabled":false,"rental_uris":{"android":"levelo://app?vid=24fafebe-994f-48c7-a199-2cb093d92a68","ios":"levelo://app?vid=24fafebe-994f-48c7-a199-2cb093d92a68"},"vehicle_type_id":"4","last_reported":1762884909,"current_range_meters":6400,"station_id":"ce4bh3h2rcd13ifvqdn0","pricing_plan_id":"cebpf4jnsgd1na2vs0mg"},{"bike_id":"f66fdcb4-acc8-4a90-88ec-9926db65e0d3","system_id":"levelo_inurba_marseille","lat":43.280389,"lon":5.369484,"is_reserved":false,"is_disabled":false,"rental_uris":{"android":"levelo://app?vid=f66fdcb4-acc8-4a90-88ec-9926db65e0d3","ios":"levelo://app?vid=f66fdcb4-acc8-4a90-88ec-9926db65e0d3"},"vehicle_type_id":"4","last_reported":1762884909,"current_range_meters":6400,"station_id":"ce4bha12rcd13ifvqef0","pricing_plan_id":"cebpf4jnsgd1na2vs0mg"},{"bike_id":"3297b772-571b-47b8-aba1-05c9c2b38dd7","system_id":"levelo_inurba_marseille","lat":43.23963,"lon":5.36631,"is_reserved":false,"is_disabled":false,"rental_uris":{"android":"levelo://app?vid=3297b772-571b-47b8-aba1-05c9c2b38dd7","ios":"levelo://app?vid=3297b772-571b-47b8-aba1-05c9c2b38dd7"},"vehicle_type_id":"4","last_reported":1762884909,"current_range_meters":6800,"station_id":"ce4bhi12rcd13ifvqfp0","pricing_plan_id":"cebpf4jnsgd1na2vs0mg"},{"bike_id":"372704c5-f054-4dca-9c5a-687cbc599da0","system_id":"levelo_inurba_marseille","lat":43.25813,"lon":5.39431,"is_reserved":false,"is_disabled":false,"rental_uris":{"android":"levelo://app?vid=372704c5-f054-4dca-9c5a-687cbc599da0","ios":"levelo://app?vid=372704c5-f054-4dca-9c5a-687cbc599da0"},"vehicle_type_id":"4","last_reported":1762884909,"current_range_meters":6800,"station_id":"ce4bhip2rcd13ifvqft0","pricing_plan_id":"cebpf4jnsgd1na2vs0mg"},{"bike_id":"d315980f-e55c-4a2b-8743-e45ce3622e8d","system_id":"levelo_inurba_marseille","lat":43.28494,"lon":5.48401,"is_reserved":false,"is_disabled":false,"rental_uris":{"android":"levelo://app?vid=d315980f-e55c-4a2b-8743-e45ce3622e8d","ios":"levelo://app?vid=d315980f-e55c-4a2b-8743-e45ce3622e8d"},"vehicle_type_id":"4","last_reported":1762884909,"current_range_meters":6800,"station_id":"st_d3svhcjqgbts73a3dn0g","pricing_plan_id":"cebpf4jnsgd1na2vs0mg"},{"bike_id":"a4aa4526-8c42-4500-a626-b69864ffcc29","system_id":"levelo_inurba_marseille","lat":43.27692,"lon":5.38873,"is_reserved":false,"is_disabled":false,"rental_uris":{"android":"levelo://app?vid=a4aa4526-8c42-4500-a626-b69864ffcc29","ios":"levelo://app?vid=a4aa4526-8c42-4500-a626-b69864ffcc29"},"vehicle_type_id":"4","last_reported":1762884909,"current_range_meters":6800,"station_id":"ce4bhi12rcd13ifvqfo0","pricing_plan_id":"cebpf4jnsgd1na2vs0mg"},{"bike_id":"ae8df7c2-dced-4c87-8be6-83ffc212bba9","system_id":"levelo_inurba_marseille","lat":43.28277,"lon":5.35077,"is_reserved":false,"is_disabled":true,"rental_uris":{"android":"levelo://app?vid=ae8df7c2-dced-4c87-8be6-83ffc212bba9","ios":"levelo://app?vid=ae8df7c2-dced-4c87-8be6-83ffc212bba9"},"vehicle_type_id":"4","last_reported":1762884909,"current_range_meters":6800,"station_id":"ce4bhbp2rcd13ifvqerg","pricing_plan_id":"cebpf4jnsgd1na2vs0mg"},{"bike_id":"74c3705e-1b0c-4229-b62c-b37dd5c13ca6","system_id":"levelo_inurba_marseille","lat":43.33059,"lon":5.39053,"is_reserved":false,"is_disabled":false,"rental_uris":{"android":"levelo://app?vid=74c3705e-1b0c-4229-b62c-b37dd5c13ca6","ios":"levelo://app?vid=74c3705e-1b0c-4229-b62c-b37dd5c13ca6"},"vehicle_type_id":"4","last_reported":1762884909,"current_range_meters":6800,"station_id":"ce4bhr92rcd13ifvqhrg","pricing_plan_id":"cebpf4jnsgd1na2vs0mg"},{"bike_id":"99f555dd-b87a-4899-bc4d-afec626c1e28","system_id":"levelo_inurba_marseille","lat":43.28453,"lon":5.48416,"is_reserved":false,"is_disabled":false,"rental_uris":{"android":"levelo://app?vid=99f555dd-b87a-4899-bc4d-afec626c1e28","ios":"levelo://app?vid=99f555dd-b87a-4899-bc4d-afec626c1e28"},"vehicle_type_id":"4","last_reported":1762884909,"current_range_meters":6800,"station_id":"","pricing_plan_id":"cebpf4jnsgd1na2vs0mg"},{"bike_id":"272ec4df-f760-4b78-b278-d4935816cd67","system_id":"levelo_inurba_marseille","lat":43.23785,"lon":5.3662,"is_reserved":false,"is_disabled":false,"rental_uris":{"android":"levelo://app?vid=272ec4df-f760-4b78-b278-d4935816cd67","ios":"levelo://app?vid=272ec4df-f760-4b78-b278-d4935816cd67"},"vehicle_type_id":"4","last_reported":1762884909,"current_range_meters":6800,"station_id":"st_d3nk18o9ro0c73en2l3g","pricing_plan_id":"cebpf4jnsgd1na2vs0mg"},{"bike_id":"9c48b55b-4494-4d42-9ef0-ea78e5be17dc","system_id":"levelo_inurba_marseille","lat":43.29796,"lon":5.38121,"is_reserved":false,"is_disabled":false,"rental_uris":{"android":"levelo://app?vid=9c48b55b-4494-4d42-9ef0-ea78e5be17dc","ios":"levelo://app?vid=9c48b55b-4494-4d42-9ef0-ea78e5be17dc"},"vehicle_type_id":"4","last_reported":1762884909,"current_range_meters":7200,"station_id":"ce4bgip2rcd13ifvqbb0","pricing_plan_id":"cebpf4jnsgd1na2vs0mg"},{"bike_id":"edbaef98-c5f6-48fd-bbdf-02ddfff2d775","system_id":"levelo_inurba_marseille","lat":43.30302,"lon":5.39212,"is_reserved":false,"is_disabled":false,"rental_uris":{"android":"levelo://app?vid=edbaef98-c5f6-48fd-bbdf-02ddfff2d775","ios":"levelo://app?vid=edbaef98-c5f6-48fd-bbdf-02ddfff2d775"},"vehicle_type_id":"4","last_reported":1762884909,"current_range_meters":7200,"station_id":"ce4bgkh2rcd13ifvqbk0","pricing_plan_id":"cebpf4jnsgd1na2vs0mg"},{"bike_id":"e0c0640f-9038-495c-ad96-2a547e48790b","system_id":"levelo_inurba_marseille","lat":43.24659,"lon":5.38161,"is_reserved":false,"is_disabled":false,"rental_uris":{"android":"levelo://app?vid=e0c0640f-9038-495c-ad96-2a547e48790b","ios":"levelo://app?vid=e0c0640f-9038-495c-ad96-2a547e48790b"},"vehicle_type_id":"4","last_reported":1762884909,"current_range_meters":7200,"station_id":"ce4bhih2rcd13ifvqfr0","pricing_plan_id":"cebpf4jnsgd1na2vs0mg"},{"bike_id":"6ff8d6ec-158d-4282-a8e4-2131b624f1b8","system_id":"levelo_inurba_marseille","lat":43.28436,"lon":5.39183,"is_reserved":false,"is_disabled":false,"rental_uris":{"android":"levelo://app?vid=6ff8d6ec-158d-4282-a8e4-2131b624f1b8","ios":"levelo://app?vid=6ff8d6ec-158d-4282-a8e4-2131b624f1b8"},"vehicle_type_id":"4","last_reported":1762884909,"current_range_meters":7200,"station_id":"ce4bhoh2rcd13ifvqh5g","pricing_plan_id":"cebpf4jnsgd1na2vs0mg"},{"bike_id":"c211ff01-4e0e-477c-8760-a524d360e590","system_id":"levelo_inurba_marseille","lat":43.30879,"lon":5.39652,"is_reserved":false,"is_disabled":false,"rental_uris":{"android":"levelo://app?vid=c211ff01-4e0e-477c-8760-a524d360e590","ios":"levelo://app?vid=c211ff01-4e0e-477c-8760-a524d360e590"},"vehicle_type_id":"4","last_reported":1762884909,"current_range_meters":7200,"station_id":"ce4bh012rcd13ifvqcv0","pricing_plan_id":"cebpf4jnsgd1na2vs0mg"},{"bike_id":"6dda72fc-8090-434b-838a-fd3d75648c19","system_id":"levelo_inurba_marseille","lat":43.24952,"lon":5.40486,"is_reserved":false,"is_disabled":false,"rental_uris":{"android":"levelo://app?vid=6dda72fc-8090-434b-838a-fd3d75648c19","ios":"levelo://app?vid=6dda72fc-8090-434b-838a-fd3d75648c19"},"vehicle_type_id":"4","last_reported":1762884909,"current_range_meters":7200,"station_id":"st_d2ngiaodas8pm72gd1h0","pricing_plan_id":"cebpf4jnsgd1na2vs0mg"},{"bike_id":"c620c9fc-398f-4dca-8fdd-2b652311235d","system_id":"levelo_inurba_marseille","lat":43.21197,"lon":5.35083,"is_reserved":false,"is_disabled":true,"rental_uris":{"android":"levelo://app?vid=c620c9fc-398f-4dca-8fdd-2b652311235d","ios":"levelo://app?vid=c620c9fc-398f-4dca-8fdd-2b652311235d"},"vehicle_type_id":"4","last_reported":1762884909,"current_range_meters":7200,"station_id":"st_cvj6sg6p6f1abm77japg","pricing_plan_id":"cebpf4jnsgd1na2vs0mg"},{"bike_id":"d20fdcfb-c8a3-4493-b2a2-9f415e76bb5e","system_id":"levelo_inurba_marseille","lat":43.30615,"lon":5.37229,"is_reserved":false,"is_disabled":false,"rental_uris":{"android":"levelo://app?vid=d20fdcfb-c8a3-4493-b2a2-9f415e76bb5e","ios":"levelo://app?vid=d20fdcfb-c8a3-4493-b2a2-9f415e76bb5e"},"vehicle_type_id":"4","last_reported":1762884909,"current_range_meters":7200,"station_id":"ce4bgqh2rcd13ifvqc4g","pricing_plan_id":"cebpf4jnsgd1na2vs0mg"},{"bike_id":"7db4ce78-383a-499f-bddf-4afc0e8fc8c2","system_id":"levelo_inurba_marseille","lat":43.29533,"lon":5.38547,"is_reserved":false,"is_disabled":false,"rental_uris":{"android":"levelo://app?vid=7db4ce78-383a-499f-bddf-4afc0e8fc8c2","ios":"levelo://app?vid=7db4ce78-383a-499f-bddf-4afc0e8fc8c2"},"vehicle_type_id":"4","last_reported":1762884909,"current_range_meters":7200,"station_id":"ce4bgih2rcd13ifvqba0","pricing_plan_id":"cebpf4jnsgd1na2vs0mg"},{"bike_id":"b2be4fa2-44ee-40dc-acc7-1755c74f1c5d","system_id":"levelo_inurba_marseille","lat":43.29759,"lon":5.41112,"is_reserved":false,"is_disabled":false,"rental_uris":{"android":"levelo://app?vid=b2be4fa2-44ee-40dc-acc7-1755c74f1c5d","ios":"levelo://app?vid=b2be4fa2-44ee-40dc-acc7-1755c74f1c5d"},"vehicle_type_id":"4","last_reported":1762884909,"current_range_meters":7200,"station_id":"","pricing_plan_id":"cebpf4jnsgd1na2vs0mg"},{"bike_id":"a8b59da6-3f08-4943-ba0d-ba12842ac9ed","system_id":"levelo_inurba_marseille","lat":43.295501,"lon":5.423021,"is_reserved":false,"is_disabled":false,"rental_uris":{"android":"levelo://app?vid=a8b59da6-3f08-4943-ba0d-ba12842ac9ed","ios":"levelo://app?vid=a8b59da6-3f08-4943-ba0d-ba12842ac9ed"},"vehicle_type_id":"4","last_reported":1762884909,"current_range_meters":7200,"station_id":"ce4bho92rcd13ifvqh3g","pricing_plan_id":"cebpf4jnsgd1na2vs0mg"},{"bike_id":"fb9823a9-4cd6-4386-a873-1d61d78a0aa3","system_id":"levelo_inurba_marseille","lat":43.290258,"lon":5.386459,"is_reserved":false,"is_disabled":false,"rental_uris":{"android":"levelo://app?vid=fb9823a9-4cd6-4386-a873-1d61d78a0aa3","ios":"levelo://app?vid=fb9823a9-4cd6-4386-a873-1d61d78a0aa3"},"vehicle_type_id":"4","last_reported":1762884909,"current_range_meters":7200,"station_id":"ce4bh4p2rcd13ifvqe0g","pricing_plan_id":"cebpf4jnsgd1na2vs0mg"},{"bike_id":"c302b837-4a63-4c58-95c8-4e7749252736","system_id":"levelo_inurba_marseille","lat":43.24651,"lon":5.38891,"is_reserved":false,"is_disabled":false,"rental_uris":{"android":"levelo://app?vid=c302b837-4a63-4c58-95c8-4e7749252736","ios":"levelo://app?vid=c302b837-4a63-4c58-95c8-4e7749252736"},"vehicle_type_id":"4","last_reported":1762884909,"current_range_meters":8000,"station_id":"ce4bhg12rcd13ifvqf60","pricing_plan_id":"cebpf4jnsgd1na2vs0mg"},{"bike_id":"349b2ad9-adea-4dd9-9ac9-fffb121b5424","system_id":"levelo_inurba_marseille","lat":43.29892,"lon":5.37537,"is_reserved":false,"is_disabled":false,"rental_uris":{"android":"levelo://app?vid=349b2ad9-adea-4dd9-9ac9-fffb121b5424","ios":"levelo://app?vid=349b2ad9-adea-4dd9-9ac9-fffb121b5424"},"vehicle_type_id":"4","last_reported":1762884909,"current_range_meters":8000,"station_id":"","pricing_plan_id":"cebpf4jnsgd1na2vs0mg"},{"bike_id":"c495a507-d5b3-44a3-8f86-2c51251a2d19","system_id":"levelo_inurba_marseille","lat":43.240729,"lon":5.377617,"is_reserved":false,"is_disabled":false,"rental_uris":{"android":"levelo://app?vid=c495a507-d5b3-44a3-8f86-2c51251a2d19","ios":"levelo://app?vid=c495a507-d5b3-44a3-8f86-2c51251a2d19"},"vehicle_type_id":"4","last_reported":1762884909,"current_range_meters":8000,"station_id":"ce4bhnp2rcd13ifvqgvg","pricing_plan_id":"cebpf4jnsgd1na2vs0mg"},{"bike_id":"8c233313-a231-4552-bd58-e6089cef5c80","system_id":"levelo_inurba_marseille","lat":43.29278,"lon":5.37599,"is_reserved":false,"is_disabled":false,"rental_uris":{"android":"levelo://app?vid=8c233313-a231-4552-bd58-e6089cef5c80","ios":"levelo://app?vid=8c233313-a231-4552-bd58-e6089cef5c80"},"vehicle_type_id":"4","last_reported":1762884909,"current_range_meters":8000,"station_id":"ce4bgi12rcd13ifvqb80","pricing_plan_id":"cebpf4jnsgd1na2vs0mg"},{"bike_id":"a6bdf21f-a1d2-4def-a11f-b6f07d15f833","system_id":"levelo_inurba_marseille","lat":43.30128,"lon":5.38281,"is_reserved":false,"is_disabled":false,"rental_uris":{"android":"levelo://app?vid=a6bdf21f-a1d2-4def-a11f-b6f07d15f833","ios":"levelo://app?vid=a6bdf21f-a1d2-4def-a11f-b6f07d15f833"},"vehicle_type_id":"4","last_reported":1762884909,"current_range_meters":8000,"station_id":"","pricing_plan_id":"cebpf4jnsgd1na2vs0mg"},{"bike_id":"a6c66574-5691-44c1-a441-382c23b48f4e","system_id":"levelo_inurba_marseille","lat":43.29969,"lon":5.38472,"is_reserved":false,"is_disabled":false,"rental_uris":{"android":"levelo://app?vid=a6c66574-5691-44c1-a441-382c23b48f4e","ios":"levelo://app?vid=a6c66574-5691-44c1-a441-382c23b48f4e"},"vehicle_type_id":"4","last_reported":1762884909,"current_range_meters":8000,"station_id":"ce4bgj92rcd13ifvqbd0","pricing_plan_id":"cebpf4jnsgd1na2vs0mg"},{"bike_id":"1648104b-81bc-4751-ace2-e97e844cd43d","system_id":"levelo_inurba_marseille","lat":43.28488,"lon":5.48393,"is_reserved":false,"is_disabled":false,"rental_uris":{"android":"levelo://app?vid=1648104b-81bc-4751-ace2-e97e844cd43d","ios":"levelo://app?vid=1648104b-81bc-4751-ace2-e97e844cd43d"},"vehicle_type_id":"4","last_reported":1762884909,"current_range_meters":8000,"station_id":"st_d3svhcjqgbts73a3dn0g","pricing_plan_id":"cebpf4jnsgd1na2vs0mg"},{"bike_id":"de32a4de-1d66-4b2e-89ef-a2dcb3a5f9ec","system_id":"levelo_inurba_marseille","lat":43.29069,"lon":5.37168,"is_reserved":false,"is_disabled":false,"rental_uris":{"android":"levelo://app?vid=de32a4de-1d66-4b2e-89ef-a2dcb3a5f9ec","ios":"levelo://app?vid=de32a4de-1d66-4b2e-89ef-a2dcb3a5f9ec"},"vehicle_type_id":"4","last_reported":1762884909,"current_range_meters":8000,"station_id":"ce4bh5p2rcd13ifvqe4g","pricing_plan_id":"cebpf4jnsgd1na2vs0mg"},{"bike_id":"e0aac1b1-a650-46fd-bdfd-f4f8acfb2d84","system_id":"levelo_inurba_marseille","lat":43.2926,"lon":5.38427,"is_reserved":false,"is_disabled":false,"rental_uris":{"android":"levelo://app?vid=e0aac1b1-a650-46fd-bdfd-f4f8acfb2d84","ios":"levelo://app?vid=e0aac1b1-a650-46fd-bdfd-f4f8acfb2d84"},"vehicle_type_id":"4","last_reported":1762884909,"current_range_meters":8000,"station_id":"ce4bh692rcd13ifvqea0","pricing_plan_id":"cebpf4jnsgd1na2vs0mg"},{"bike_id":"8bd4ee00-4635-4b8f-a93f-5fdca4bf725d","system_id":"levelo_inurba_marseille","lat":43.279392,"lon":5.410475,"is_reserved":false,"is_disabled":false,"rental_uris":{"android":"levelo://app?vid=8bd4ee00-4635-4b8f-a93f-5fdca4bf725d","ios":"levelo://app?vid=8bd4ee00-4635-4b8f-a93f-5fdca4bf725d"},"vehicle_type_id":"4","last_reported":1762884909,"current_range_meters":8400,"station_id":"","pricing_plan_id":"cebpf4jnsgd1na2vs0mg"},{"bike_id":"06c27e66-d6c3-4ddf-9baa-359d3b2ca151","system_id":"levelo_inurba_marseille","lat":43.29781,"lon":5.39335,"is_reserved":false,"is_disabled":false,"rental_uris":{"android":"levelo://app?vid=06c27e66-d6c3-4ddf-9baa-359d3b2ca151","ios":"levelo://app?vid=06c27e66-d6c3-4ddf-9baa-359d3b2ca151"},"vehicle_type_id":"4","last_reported":1762884909,"current_range_meters":8400,"station_id":"chh1huq6cuj3fo74tm60","pricing_plan_id":"cebpf4jnsgd1na2vs0mg"},{"bike_id":"6e6913ab-5565-44c2-bf61-26805575b411","system_id":"levelo_inurba_marseille","lat":43.298169,"lon":5.440607,"is_reserved":false,"is_disabled":false,"rental_uris":{"android":"levelo://app?vid=6e6913ab-5565-44c2-bf61-26805575b411","ios":"levelo://app?vid=6e6913ab-5565-44c2-bf61-26805575b411"},"vehicle_type_id":"4","last_reported":1762884909,"current_range_meters":8400,"station_id":"st_d3jp68qikq2c7381ktn0","pricing_plan_id":"cebpf4jnsgd1na2vs0mg"},{"bike_id":"07c890b8-6865-4a93-a891-fa0a3e49347d","system_id":"levelo_inurba_marseille","lat":43.28451,"lon":5.39189,"is_reserved":false,"is_disabled":false,"rental_uris":{"android":"levelo://app?vid=07c890b8-6865-4a93-a891-fa0a3e49347d","ios":"levelo://app?vid=07c890b8-6865-4a93-a891-fa0a3e49347d"},"vehicle_type_id":"4","last_reported":1762884909,"current_range_meters":8400,"station_id":"ce4bhoh2rcd13ifvqh5g","pricing_plan_id":"cebpf4jnsgd1na2vs0mg"},{"bike_id":"89854f79-771a-4c4f-aac0-2861edd76ab2","system_id":"levelo_inurba_marseille","lat":43.27376,"lon":5.36255,"is_reserved":false,"is_disabled":false,"rental_uris":{"android":"levelo://app?vid=89854f79-771a-4c4f-aac0-2861edd76ab2","ios":"levelo://app?vid=89854f79-771a-4c4f-aac0-2861edd76ab2"},"vehicle_type_id":"4","last_reported":1762884909,"current_range_meters":8400,"station_id":"ce4bhbh2rcd13ifvqeo0","pricing_plan_id":"cebpf4jnsgd1na2vs0mg"},{"bike_id":"c1808f12-e96c-4902-811e-73a4216ac57b","system_id":"levelo_inurba_marseille","lat":43.30301,"lon":5.36907,"is_reserved":false,"is_disabled":false,"rental_uris":{"android":"levelo://app?vid=c1808f12-e96c-4902-811e-73a4216ac57b","ios":"levelo://app?vid=c1808f12-e96c-4902-811e-73a4216ac57b"},"vehicle_type_id":"4","last_reported":1762884909,"current_range_meters":8400,"station_id":"ce4bgqh2rcd13ifvqc5g","pricing_plan_id":"cebpf4jnsgd1na2vs0mg"},{"bike_id":"80030961-211f-423f-b697-b502fb5e51b9","system_id":"levelo_inurba_marseille","lat":43.30542,"lon":5.384213,"is_reserved":false,"is_disabled":false,"rental_uris":{"android":"levelo://app?vid=80030961-211f-423f-b697-b502fb5e51b9","ios":"levelo://app?vid=80030961-211f-423f-b697-b502fb5e51b9"},"vehicle_type_id":"4","last_reported":1762884909,"current_range_meters":8400,"station_id":"ce4bgg92rcd13ifvqb30","pricing_plan_id":"cebpf4jnsgd1na2vs0mg"},{"bike_id":"07b6f55c-6ca8-468b-9933-022c3bd5eaa1","system_id":"levelo_inurba_marseille","lat":43.30597,"lon":5.37224,"is_reserved":false,"is_disabled":false,"rental_uris":{"android":"levelo://app?vid=07b6f55c-6ca8-468b-9933-022c3bd5eaa1","ios":"levelo://app?vid=07b6f55c-6ca8-468b-9933-022c3bd5eaa1"},"vehicle_type_id":"4","last_reported":1762884909,"current_range_meters":8400,"station_id":"ce4bgqh2rcd13ifvqc4g","pricing_plan_id":"cebpf4jnsgd1na2vs0mg"},{"bike_id":"e0467342-2ee8-4c36-aeb9-27d25d94ead5","system_id":"levelo_inurba_marseille","lat":43.28148,"lon":5.42641,"is_reserved":false,"is_disabled":true,"rental_uris":{"android":"levelo://app?vid=e0467342-2ee8-4c36-aeb9-27d25d94ead5","ios":"levelo://app?vid=e0467342-2ee8-4c36-aeb9-27d25d94ead5"},"vehicle_type_id":"4","last_reported":1762884909,"current_range_meters":8400,"station_id":"ce4bhnh2rcd13ifvqgug","pricing_plan_id":"cebpf4jnsgd1na2vs0mg"},{"bike_id":"4b632529-f30d-4e26-becd-5aa63cff31a6","system_id":"levelo_inurba_marseille","lat":43.29255,"lon":5.37619,"is_reserved":false,"is_disabled":false,"rental_uris":{"android":"levelo://app?vid=4b632529-f30d-4e26-becd-5aa63cff31a6","ios":"levelo://app?vid=4b632529-f30d-4e26-becd-5aa63cff31a6"},"vehicle_type_id":"4","last_reported":1762884909,"current_range_meters":8800,"station_id":"ce4bgi12rcd13ifvqb80","pricing_plan_id":"cebpf4jnsgd1na2vs0mg"},{"bike_id":"a6d12946-03a3-40f0-acd1-dd3a33a5f969","system_id":"levelo_inurba_marseille","lat":43.30421,"lon":5.39746,"is_reserved":false,"is_disabled":false,"rental_uris":{"android":"levelo://app?vid=a6d12946-03a3-40f0-acd1-dd3a33a5f969","ios":"levelo://app?vid=a6d12946-03a3-40f0-acd1-dd3a33a5f969"},"vehicle_type_id":"4","last_reported":1762884909,"current_range_meters":8800,"station_id":"ce4bh092rcd13ifvqd20","pricing_plan_id":"cebpf4jnsgd1na2vs0mg"},{"bike_id":"6aa07b68-711b-419b-97fb-4f0267b95509","system_id":"levelo_inurba_marseille","lat":43.29027,"lon":5.38658,"is_reserved":false,"is_disabled":true,"rental_uris":{"android":"levelo://app?vid=6aa07b68-711b-419b-97fb-4f0267b95509","ios":"levelo://app?vid=6aa07b68-711b-419b-97fb-4f0267b95509"},"vehicle_type_id":"4","last_reported":1762884909,"current_range_meters":8800,"station_id":"ce4bh4p2rcd13ifvqe0g","pricing_plan_id":"cebpf4jnsgd1na2vs0mg"},{"bike_id":"c09d492e-5890-4145-b049-9ab4c2e76040","system_id":"levelo_inurba_marseille","lat":43.28073,"lon":5.37625,"is_reserved":false,"is_disabled":false,"rental_uris":{"android":"levelo://app?vid=c09d492e-5890-4145-b049-9ab4c2e76040","ios":"levelo://app?vid=c09d492e-5890-4145-b049-9ab4c2e76040"},"vehicle_type_id":"4","last_reported":1762884909,"current_range_meters":8800,"station_id":"ce4bha12rcd13ifvqee0","pricing_plan_id":"cebpf4jnsgd1na2vs0mg"},{"bike_id":"29934a71-8822-49d7-9c1d-559bbc65567e","system_id":"levelo_inurba_marseille","lat":43.29029,"lon":5.37563,"is_reserved":false,"is_disabled":false,"rental_uris":{"android":"levelo://app?vid=29934a71-8822-49d7-9c1d-559bbc65567e","ios":"levelo://app?vid=29934a71-8822-49d7-9c1d-559bbc65567e"},"vehicle_type_id":"4","last_reported":1762884909,"current_range_meters":8800,"station_id":"ce4bh692rcd13ifvqe90","pricing_plan_id":"cebpf4jnsgd1na2vs0mg"},{"bike_id":"8d12b437-7f9f-4b7e-84c7-86b8eeef65d8","system_id":"levelo_inurba_marseille","lat":43.29912,"lon":5.37474,"is_reserved":false,"is_disabled":false,"rental_uris":{"android":"levelo://app?vid=8d12b437-7f9f-4b7e-84c7-86b8eeef65d8","ios":"levelo://app?vid=8d12b437-7f9f-4b7e-84c7-86b8eeef65d8"},"vehicle_type_id":"4","last_reported":1762884909,"current_range_meters":8800,"station_id":"ce4bgjh2rcd13ifvqbg0","pricing_plan_id":"cebpf4jnsgd1na2vs0mg"},{"bike_id":"7964a47b-79fa-41ec-a37e-44d95f8680e2","system_id":"levelo_inurba_marseille","lat":43.28489,"lon":5.38575,"is_reserved":false,"is_disabled":false,"rental_uris":{"android":"levelo://app?vid=7964a47b-79fa-41ec-a37e-44d95f8680e2","ios":"levelo://app?vid=7964a47b-79fa-41ec-a37e-44d95f8680e2"},"vehicle_type_id":"4","last_reported":1762884909,"current_range_meters":8800,"station_id":"ce4bh8p2rcd13ifvqeb0","pricing_plan_id":"cebpf4jnsgd1na2vs0mg"},{"bike_id":"d14a3070-960e-421d-b5dc-419b8cc88005","system_id":"levelo_inurba_marseille","lat":43.31595,"lon":5.376,"is_reserved":false,"is_disabled":false,"rental_uris":{"android":"levelo://app?vid=d14a3070-960e-421d-b5dc-419b8cc88005","ios":"levelo://app?vid=d14a3070-960e-421d-b5dc-419b8cc88005"},"vehicle_type_id":"4","last_reported":1762884909,"current_range_meters":8800,"station_id":"","pricing_plan_id":"cebpf4jnsgd1na2vs0mg"},{"bike_id":"101366c6-1cd7-44f9-b45c-02595215c372","system_id":"levelo_inurba_marseille","lat":43.29282,"lon":5.40116,"is_reserved":false,"is_disabled":false,"rental_uris":{"android":"levelo://app?vid=101366c6-1cd7-44f9-b45c-02595215c372","ios":"levelo://app?vid=101366c6-1cd7-44f9-b45c-02595215c372"},"vehicle_type_id":"4","last_reported":1762884909,"current_range_meters":9200,"station_id":"ce4bh312rcd13ifvqdk0","pricing_plan_id":"cebpf4jnsgd1na2vs0mg"},{"bike_id":"ccc0a77c-2222-4a4e-80d4-47003ddf92ef","system_id":"levelo_inurba_marseille","lat":43.29532,"lon":5.38552,"is_reserved":false,"is_disabled":false,"rental_uris":{"android":"levelo://app?vid=ccc0a77c-2222-4a4e-80d4-47003ddf92ef","ios":"levelo://app?vid=ccc0a77c-2222-4a4e-80d4-47003ddf92ef"},"vehicle_type_id":"4","last_reported":1762884909,"current_range_meters":9200,"station_id":"ce4bgih2rcd13ifvqba0","pricing_plan_id":"cebpf4jnsgd1na2vs0mg"},{"bike_id":"520598b3-96c3-46e0-842d-f88d56b5e32a","system_id":"levelo_inurba_marseille","lat":43.272071,"lon":5.391892,"is_reserved":false,"is_disabled":true,"rental_uris":{"android":"levelo://app?vid=520598b3-96c3-46e0-842d-f88d56b5e32a","ios":"levelo://app?vid=520598b3-96c3-46e0-842d-f88d56b5e32a"},"vehicle_type_id":"4","last_reported":1762884909,"current_range_meters":9200,"station_id":"ce4bhhp2rcd13ifvqfm0","pricing_plan_id":"cebpf4jnsgd1na2vs0mg"},{"bike_id":"59ea9092-c125-4696-aa4c-6ccde0608d9f","system_id":"levelo_inurba_marseille","lat":43.3062,"lon":5.39363,"is_reserved":false,"is_disabled":false,"rental_uris":{"android":"levelo://app?vid=59ea9092-c125-4696-aa4c-6ccde0608d9f","ios":"levelo://app?vid=59ea9092-c125-4696-aa4c-6ccde0608d9f"},"vehicle_type_id":"4","last_reported":1762884909,"current_range_meters":9200,"station_id":"ce4bh0p2rcd13ifvqd80","pricing_plan_id":"cebpf4jnsgd1na2vs0mg"},{"bike_id":"313e952a-fc49-400f-9769-3a06c3623648","system_id":"levelo_inurba_marseille","lat":43.29326,"lon":5.37173,"is_reserved":false,"is_disabled":false,"rental_uris":{"android":"levelo://app?vid=313e952a-fc49-400f-9769-3a06c3623648","ios":"levelo://app?vid=313e952a-fc49-400f-9769-3a06c3623648"},"vehicle_type_id":"4","last_reported":1762884909,"current_range_meters":9200,"station_id":"ce4bgh92rcd13ifvqb40","pricing_plan_id":"cebpf4jnsgd1na2vs0mg"},{"bike_id":"4901e2fa-cbf5-4d8c-929f-21809587063c","system_id":"levelo_inurba_marseille","lat":43.30217,"lon":5.39476,"is_reserved":false,"is_disabled":false,"rental_uris":{"android":"levelo://app?vid=4901e2fa-cbf5-4d8c-929f-21809587063c","ios":"levelo://app?vid=4901e2fa-cbf5-4d8c-929f-21809587063c"},"vehicle_type_id":"4","last_reported":1762884909,"current_range_meters":9200,"station_id":"ce4bh0p2rcd13ifvqd70","pricing_plan_id":"cebpf4jnsgd1na2vs0mg"},{"bike_id":"11674263-1762-42dc-ba4a-c345f57aed5c","system_id":"levelo_inurba_marseille","lat":43.290204,"lon":5.381159,"is_reserved":false,"is_disabled":false,"rental_uris":{"android":"levelo://app?vid=11674263-1762-42dc-ba4a-c345f57aed5c","ios":"levelo://app?vid=11674263-1762-42dc-ba4a-c345f57aed5c"},"vehicle_type_id":"4","last_reported":1762884909,"current_range_meters":9600,"station_id":"ce4bh4p2rcd13ifvqe1g","pricing_plan_id":"cebpf4jnsgd1na2vs0mg"},{"bike_id":"4b75f4f1-28cd-4ac7-9b5c-b069daf52b29","system_id":"levelo_inurba_marseille","lat":43.31867,"lon":5.37409,"is_reserved":false,"is_disabled":false,"rental_uris":{"android":"levelo://app?vid=4b75f4f1-28cd-4ac7-9b5c-b069daf52b29","ios":"levelo://app?vid=4b75f4f1-28cd-4ac7-9b5c-b069daf52b29"},"vehicle_type_id":"4","last_reported":1762884909,"current_range_meters":9600,"station_id":"","pricing_plan_id":"cebpf4jnsgd1na2vs0mg"},{"bike_id":"84da55ed-a169-4c20-816f-882eaadb7b22","system_id":"levelo_inurba_marseille","lat":43.29053,"lon":5.37165,"is_reserved":false,"is_disabled":false,"rental_uris":{"android":"levelo://app?vid=84da55ed-a169-4c20-816f-882eaadb7b22","ios":"levelo://app?vid=84da55ed-a169-4c20-816f-882eaadb7b22"},"vehicle_type_id":"4","last_reported":1762884909,"current_range_meters":9600,"station_id":"ce4bh5p2rcd13ifvqe4g","pricing_plan_id":"cebpf4jnsgd1na2vs0mg"},{"bike_id":"db2cf8eb-5d94-446c-ab82-af0015cc620e","system_id":"levelo_inurba_marseille","lat":43.29984,"lon":5.38518,"is_reserved":false,"is_disabled":false,"rental_uris":{"android":"levelo://app?vid=db2cf8eb-5d94-446c-ab82-af0015cc620e","ios":"levelo://app?vid=db2cf8eb-5d94-446c-ab82-af0015cc620e"},"vehicle_type_id":"4","last_reported":1762884909,"current_range_meters":9600,"station_id":"ce4bgj92rcd13ifvqbd0","pricing_plan_id":"cebpf4jnsgd1na2vs0mg"},{"bike_id":"6a7aff1d-5df5-4741-b6b7-f6d60f2cb3a5","system_id":"levelo_inurba_marseille","lat":43.28675,"lon":5.38656,"is_reserved":false,"is_disabled":false,"rental_uris":{"android":"levelo://app?vid=6a7aff1d-5df5-4741-b6b7-f6d60f2cb3a5","ios":"levelo://app?vid=6a7aff1d-5df5-4741-b6b7-f6d60f2cb3a5"},"vehicle_type_id":"4","last_reported":1762884909,"current_range_meters":9600,"station_id":"ce4bh492rcd13ifvqdug","pricing_plan_id":"cebpf4jnsgd1na2vs0mg"},{"bike_id":"b1111484-62fe-467a-a03b-16758bd92ed8","system_id":"levelo_inurba_marseille","lat":43.2841,"lon":5.37509,"is_reserved":false,"is_disabled":false,"rental_uris":{"android":"levelo://app?vid=b1111484-62fe-467a-a03b-16758bd92ed8","ios":"levelo://app?vid=b1111484-62fe-467a-a03b-16758bd92ed8"},"vehicle_type_id":"4","last_reported":1762884909,"current_range_meters":9600,"station_id":"ce4bh412rcd13ifvqds0","pricing_plan_id":"cebpf4jnsgd1na2vs0mg"},{"bike_id":"5369ca34-7723-43dc-a1d0-03c4269b2e4a","system_id":"levelo_inurba_marseille","lat":43.31274,"lon":5.37799,"is_reserved":false,"is_disabled":false,"rental_uris":{"android":"levelo://app?vid=5369ca34-7723-43dc-a1d0-03c4269b2e4a","ios":"levelo://app?vid=5369ca34-7723-43dc-a1d0-03c4269b2e4a"},"vehicle_type_id":"4","last_reported":1762884909,"current_range_meters":10000,"station_id":"","pricing_plan_id":"cebpf4jnsgd1na2vs0mg"},{"bike_id":"7475b38b-2404-4afa-9250-b595f675d2e9","system_id":"levelo_inurba_marseille","lat":43.29285,"lon":5.3761,"is_reserved":false,"is_disabled":false,"rental_uris":{"android":"levelo://app?vid=7475b38b-2404-4afa-9250-b595f675d2e9","ios":"levelo://app?vid=7475b38b-2404-4afa-9250-b595f675d2e9"},"vehicle_type_id":"4","last_reported":1762884909,"current_range_meters":10000,"station_id":"ce4bgi12rcd13ifvqb80","pricing_plan_id":"cebpf4jnsgd1na2vs0mg"},{"bike_id":"184d631b-be57-429b-bcd4-f1314ac8175d","system_id":"levelo_inurba_marseille","lat":43.29883,"lon":5.39738,"is_reserved":false,"is_disabled":false,"rental_uris":{"android":"levelo://app?vid=184d631b-be57-429b-bcd4-f1314ac8175d","ios":"levelo://app?vid=184d631b-be57-429b-bcd4-f1314ac8175d"},"vehicle_type_id":"4","last_reported":1762884909,"current_range_meters":10000,"station_id":"ce4bh0h2rcd13ifvqd50","pricing_plan_id":"cebpf4jnsgd1na2vs0mg"},{"bike_id":"10b57bdc-b62a-49ed-9019-12d22efd1b3d","system_id":"levelo_inurba_marseille","lat":43.30034,"lon":5.38162,"is_reserved":false,"is_disabled":false,"rental_uris":{"android":"levelo://app?vid=10b57bdc-b62a-49ed-9019-12d22efd1b3d","ios":"levelo://app?vid=10b57bdc-b62a-49ed-9019-12d22efd1b3d"},"vehicle_type_id":"4","last_reported":1762884909,"current_range_meters":10000,"station_id":"","pricing_plan_id":"cebpf4jnsgd1na2vs0mg"},{"bike_id":"38060efd-ed0d-4fc8-a558-2a407ef2a801","system_id":"levelo_inurba_marseille","lat":43.31715,"lon":5.4369,"is_reserved":false,"is_disabled":false,"rental_uris":{"android":"levelo://app?vid=38060efd-ed0d-4fc8-a558-2a407ef2a801","ios":"levelo://app?vid=38060efd-ed0d-4fc8-a558-2a407ef2a801"},"vehicle_type_id":"4","last_reported":1762884909,"current_range_meters":10000,"station_id":"ce4bhp92rcd13ifvqhcg","pricing_plan_id":"cebpf4jnsgd1na2vs0mg"},{"bike_id":"06bb8c4b-94bc-4b04-83ad-57d57e3462c8","system_id":"levelo_inurba_marseille","lat":43.28128,"lon":5.37847,"is_reserved":false,"is_disabled":false,"rental_uris":{"android":"levelo://app?vid=06bb8c4b-94bc-4b04-83ad-57d57e3462c8","ios":"levelo://app?vid=06bb8c4b-94bc-4b04-83ad-57d57e3462c8"},"vehicle_type_id":"4","last_reported":1762884909,"current_range_meters":10000,"station_id":"ce4bha12rcd13ifvqee0","pricing_plan_id":"cebpf4jnsgd1na2vs0mg"},{"bike_id":"a08765e5-c52c-45c9-9cd5-bf6d0b8a23dd","system_id":"levelo_inurba_marseille","lat":43.331619,"lon":5.376948,"is_reserved":false,"is_disabled":false,"rental_uris":{"android":"levelo://app?vid=a08765e5-c52c-45c9-9cd5-bf6d0b8a23dd","ios":"levelo://app?vid=a08765e5-c52c-45c9-9cd5-bf6d0b8a23dd"},"vehicle_type_id":"4","last_reported":1762884909,"current_range_meters":10000,"station_id":"st_d46cu089ee8s73dldbu0","pricing_plan_id":"cebpf4jnsgd1na2vs0mg"},{"bike_id":"e9fe7994-8483-46a4-8998-649b0e8b5189","system_id":"levelo_inurba_marseille","lat":43.29308,"lon":5.37168,"is_reserved":false,"is_disabled":false,"rental_uris":{"android":"levelo://app?vid=e9fe7994-8483-46a4-8998-649b0e8b5189","ios":"levelo://app?vid=e9fe7994-8483-46a4-8998-649b0e8b5189"},"vehicle_type_id":"4","last_reported":1762884909,"current_range_meters":10000,"station_id":"ce4bgh92rcd13ifvqb40","pricing_plan_id":"cebpf4jnsgd1na2vs0mg"},{"bike_id":"5bb896f2-dec6-4193-88dc-e86ff5a402fd","system_id":"levelo_inurba_marseille","lat":43.298115,"lon":5.44068,"is_reserved":false,"is_disabled":false,"rental_uris":{"android":"levelo://app?vid=5bb896f2-dec6-4193-88dc-e86ff5a402fd","ios":"levelo://app?vid=5bb896f2-dec6-4193-88dc-e86ff5a402fd"},"vehicle_type_id":"4","last_reported":1762884909,"current_range_meters":10000,"station_id":"st_d3jp68qikq2c7381ktn0","pricing_plan_id":"cebpf4jnsgd1na2vs0mg"},{"bike_id":"c2a2bde7-7145-4c9b-995a-2d1325b8a88b","system_id":"levelo_inurba_marseille","lat":43.30124,"lon":5.39857,"is_reserved":false,"is_disabled":false,"rental_uris":{"android":"levelo://app?vid=c2a2bde7-7145-4c9b-995a-2d1325b8a88b","ios":"levelo://app?vid=c2a2bde7-7145-4c9b-995a-2d1325b8a88b"},"vehicle_type_id":"4","last_reported":1762884909,"current_range_meters":10000,"station_id":"ce4bh0h2rcd13ifvqd40","pricing_plan_id":"cebpf4jnsgd1na2vs0mg"},{"bike_id":"91416954-2a2e-4a21-b184-208bc8ba0ddc","system_id":"levelo_inurba_marseille","lat":43.30255,"lon":5.40054,"is_reserved":false,"is_disabled":false,"rental_uris":{"android":"levelo://app?vid=91416954-2a2e-4a21-b184-208bc8ba0ddc","ios":"levelo://app?vid=91416954-2a2e-4a21-b184-208bc8ba0ddc"},"vehicle_type_id":"4","last_reported":1762884909,"current_range_meters":10000,"station_id":"ce4bgvh2rcd13ifvqcs0","pricing_plan_id":"cebpf4jnsgd1na2vs0mg"},{"bike_id":"0f2e167a-7d89-4055-85a0-53269b85f1f4","system_id":"levelo_inurba_marseille","lat":43.28158,"lon":5.42642,"is_reserved":false,"is_disabled":false,"rental_uris":{"android":"levelo://app?vid=0f2e167a-7d89-4055-85a0-53269b85f1f4","ios":"levelo://app?vid=0f2e167a-7d89-4055-85a0-53269b85f1f4"},"vehicle_type_id":"4","last_reported":1762884909,"current_range_meters":10000,"station_id":"ce4bhnh2rcd13ifvqgug","pricing_plan_id":"cebpf4jnsgd1na2vs0mg"},{"bike_id":"4585539a-ba80-465b-83a6-4a31cabac938","system_id":"levelo_inurba_marseille","lat":43.28509,"lon":5.48374,"is_reserved":false,"is_disabled":false,"rental_uris":{"android":"levelo://app?vid=4585539a-ba80-465b-83a6-4a31cabac938","ios":"levelo://app?vid=4585539a-ba80-465b-83a6-4a31cabac938"},"vehicle_type_id":"4","last_reported":1762884909,"current_range_meters":10000,"station_id":"st_d3svhcjqgbts73a3dn0g","pricing_plan_id":"cebpf4jnsgd1na2vs0mg"},{"bike_id":"a36e7767-e025-44af-901e-1d9e213118eb","system_id":"levelo_inurba_marseille","lat":43.29893,"lon":5.43655,"is_reserved":false,"is_disabled":false,"rental_uris":{"android":"levelo://app?vid=a36e7767-e025-44af-901e-1d9e213118eb","ios":"levelo://app?vid=a36e7767-e025-44af-901e-1d9e213118eb"},"vehicle_type_id":"4","last_reported":1762884909,"current_range_meters":10800,"station_id":"ce4bhpp2rcd13ifvqhfg","pricing_plan_id":"cebpf4jnsgd1na2vs0mg"},{"bike_id":"a290718c-4812-4883-a23c-f42ad67406da","system_id":"levelo_inurba_marseille","lat":43.29365,"lon":5.40157,"is_reserved":false,"is_disabled":false,"rental_uris":{"android":"levelo://app?vid=a290718c-4812-4883-a23c-f42ad67406da","ios":"levelo://app?vid=a290718c-4812-4883-a23c-f42ad67406da"},"vehicle_type_id":"4","last_reported":1762884909,"current_range_meters":10800,"station_id":"ce4bh312rcd13ifvqdk0","pricing_plan_id":"cebpf4jnsgd1na2vs0mg"},{"bike_id":"38c922e6-37cd-47dc-af88-f07475112c2a","system_id":"levelo_inurba_marseille","lat":43.32118,"lon":5.38835,"is_reserved":false,"is_disabled":false,"rental_uris":{"android":"levelo://app?vid=38c922e6-37cd-47dc-af88-f07475112c2a","ios":"levelo://app?vid=38c922e6-37cd-47dc-af88-f07475112c2a"},"vehicle_type_id":"4","last_reported":1762884909,"current_range_meters":10800,"station_id":"","pricing_plan_id":"cebpf4jnsgd1na2vs0mg"},{"bike_id":"62a14efb-5f7a-4e0d-bbfa-d4a60d07f475","system_id":"levelo_inurba_marseille","lat":43.29696,"lon":5.37319,"is_reserved":false,"is_disabled":false,"rental_uris":{"android":"levelo://app?vid=62a14efb-5f7a-4e0d-bbfa-d4a60d07f475","ios":"levelo://app?vid=62a14efb-5f7a-4e0d-bbfa-d4a60d07f475"},"vehicle_type_id":"4","last_reported":1762884909,"current_range_meters":10800,"station_id":"ce4bgk12rcd13ifvqbj0","pricing_plan_id":"cebpf4jnsgd1na2vs0mg"},{"bike_id":"ba55720e-a746-47fa-9d55-2b227006d988","system_id":"levelo_inurba_marseille","lat":43.28862,"lon":5.42519,"is_reserved":false,"is_disabled":false,"rental_uris":{"android":"levelo://app?vid=ba55720e-a746-47fa-9d55-2b227006d988","ios":"levelo://app?vid=ba55720e-a746-47fa-9d55-2b227006d988"},"vehicle_type_id":"4","last_reported":1762884909,"current_range_meters":10800,"station_id":"st_d3b462108ojc7389ooeg","pricing_plan_id":"cebpf4jnsgd1na2vs0mg"},{"bike_id":"d54952de-c2c9-4463-b55a-b35b39e9463c","system_id":"levelo_inurba_marseille","lat":43.29833,"lon":5.44078,"is_reserved":false,"is_disabled":false,"rental_uris":{"android":"levelo://app?vid=d54952de-c2c9-4463-b55a-b35b39e9463c","ios":"levelo://app?vid=d54952de-c2c9-4463-b55a-b35b39e9463c"},"vehicle_type_id":"4","last_reported":1762884909,"current_range_meters":10800,"station_id":"","pricing_plan_id":"cebpf4jnsgd1na2vs0mg"},{"bike_id":"35309e39-b413-4904-8a88-42ca7eb4ffdf","system_id":"levelo_inurba_marseille","lat":43.290375,"lon":5.399681,"is_reserved":false,"is_disabled":false,"rental_uris":{"android":"levelo://app?vid=35309e39-b413-4904-8a88-42ca7eb4ffdf","ios":"levelo://app?vid=35309e39-b413-4904-8a88-42ca7eb4ffdf"},"vehicle_type_id":"4","last_reported":1762884909,"current_range_meters":11200,"station_id":"ce4bh392rcd13ifvqdm0","pricing_plan_id":"cebpf4jnsgd1na2vs0mg"},{"bike_id":"08ccbf87-92ac-4161-aa0a-7433ab3669c1","system_id":"levelo_inurba_marseille","lat":43.30135,"lon":5.398596,"is_reserved":false,"is_disabled":false,"rental_uris":{"android":"levelo://app?vid=08ccbf87-92ac-4161-aa0a-7433ab3669c1","ios":"levelo://app?vid=08ccbf87-92ac-4161-aa0a-7433ab3669c1"},"vehicle_type_id":"4","last_reported":1762884909,"current_range_meters":11200,"station_id":"ce4bh0h2rcd13ifvqd40","pricing_plan_id":"cebpf4jnsgd1na2vs0mg"},{"bike_id":"1b5be03e-768e-46f0-b152-16af9f81cff1","system_id":"levelo_inurba_marseille","lat":43.309322,"lon":5.401366,"is_reserved":false,"is_disabled":true,"rental_uris":{"android":"levelo://app?vid=1b5be03e-768e-46f0-b152-16af9f81cff1","ios":"levelo://app?vid=1b5be03e-768e-46f0-b152-16af9f81cff1"},"vehicle_type_id":"4","last_reported":1762884909,"current_range_meters":11200,"station_id":"","pricing_plan_id":"cebpf4jnsgd1na2vs0mg"},{"bike_id":"80b08912-5c5c-477a-8ae7-5e4dcb821efd","system_id":"levelo_inurba_marseille","lat":43.29252,"lon":5.38445,"is_reserved":false,"is_disabled":false,"rental_uris":{"android":"levelo://app?vid=80b08912-5c5c-477a-8ae7-5e4dcb821efd","ios":"levelo://app?vid=80b08912-5c5c-477a-8ae7-5e4dcb821efd"},"vehicle_type_id":"4","last_reported":1762884909,"current_range_meters":11200,"station_id":"ce4bh692rcd13ifvqea0","pricing_plan_id":"cebpf4jnsgd1na2vs0mg"},{"bike_id":"816ee6d1-f26e-4bc1-b448-91a59f9d6a64","system_id":"levelo_inurba_marseille","lat":43.29529,"lon":5.39393,"is_reserved":false,"is_disabled":false,"rental_uris":{"android":"levelo://app?vid=816ee6d1-f26e-4bc1-b448-91a59f9d6a64","ios":"levelo://app?vid=816ee6d1-f26e-4bc1-b448-91a59f9d6a64"},"vehicle_type_id":"4","last_reported":1762884909,"current_range_meters":11200,"station_id":"ce4bh292rcd13ifvqdf0","pricing_plan_id":"cebpf4jnsgd1na2vs0mg"},{"bike_id":"3871ebcf-4a28-4b22-beb9-9220e15dd9fe","system_id":"levelo_inurba_marseille","lat":43.28484,"lon":5.48387,"is_reserved":false,"is_disabled":false,"rental_uris":{"android":"levelo://app?vid=3871ebcf-4a28-4b22-beb9-9220e15dd9fe","ios":"levelo://app?vid=3871ebcf-4a28-4b22-beb9-9220e15dd9fe"},"vehicle_type_id":"4","last_reported":1762884909,"current_range_meters":11200,"station_id":"st_d3svhcjqgbts73a3dn0g","pricing_plan_id":"cebpf4jnsgd1na2vs0mg"},{"bike_id":"0c0d246a-06e1-4c5b-8e2d-644377ae8a69","system_id":"levelo_inurba_marseille","lat":43.32661,"lon":5.40986,"is_reserved":false,"is_disabled":false,"rental_uris":{"android":"levelo://app?vid=0c0d246a-06e1-4c5b-8e2d-644377ae8a69","ios":"levelo://app?vid=0c0d246a-06e1-4c5b-8e2d-644377ae8a69"},"vehicle_type_id":"4","last_reported":1762884909,"current_range_meters":11200,"station_id":"ce4bhpp2rcd13ifvqhgg","pricing_plan_id":"cebpf4jnsgd1na2vs0mg"},{"bike_id":"fd388d6d-dae2-4858-8784-3c7b71f20251","system_id":"levelo_inurba_marseille","lat":43.23189,"lon":5.35544,"is_reserved":false,"is_disabled":false,"rental_uris":{"android":"levelo://app?vid=fd388d6d-dae2-4858-8784-3c7b71f20251","ios":"levelo://app?vid=fd388d6d-dae2-4858-8784-3c7b71f20251"},"vehicle_type_id":"4","last_reported":1762884909,"current_range_meters":11200,"station_id":"ce4bhu92rcd13ifvqi70","pricing_plan_id":"cebpf4jnsgd1na2vs0mg"},{"bike_id":"172a1479-a5a8-4a14-96d6-945fbc77b377","system_id":"levelo_inurba_marseille","lat":43.32,"lon":5.38139,"is_reserved":false,"is_disabled":false,"rental_uris":{"android":"levelo://app?vid=172a1479-a5a8-4a14-96d6-945fbc77b377","ios":"levelo://app?vid=172a1479-a5a8-4a14-96d6-945fbc77b377"},"vehicle_type_id":"4","last_reported":1762884909,"current_range_meters":11600,"station_id":"ce4bhr12rcd13ifvqhpg","pricing_plan_id":"cebpf4jnsgd1na2vs0mg"},{"bike_id":"007b1ae9-a09c-441f-9e7c-48bd56d0ddbe","system_id":"levelo_inurba_marseille","lat":43.26231,"lon":5.4045,"is_reserved":false,"is_disabled":false,"rental_uris":{"android":"levelo://app?vid=007b1ae9-a09c-441f-9e7c-48bd56d0ddbe","ios":"levelo://app?vid=007b1ae9-a09c-441f-9e7c-48bd56d0ddbe"},"vehicle_type_id":"4","last_reported":1762884909,"current_range_meters":11600,"station_id":"ce4bhmh2rcd13ifvqgmg","pricing_plan_id":"cebpf4jnsgd1na2vs0mg"},{"bike_id":"75026184-39d3-4407-a2f5-f0473b7dfb4b","system_id":"levelo_inurba_marseille","lat":43.29586,"lon":5.38084,"is_reserved":false,"is_disabled":false,"rental_uris":{"android":"levelo://app?vid=75026184-39d3-4407-a2f5-f0473b7dfb4b","ios":"levelo://app?vid=75026184-39d3-4407-a2f5-f0473b7dfb4b"},"vehicle_type_id":"4","last_reported":1762884909,"current_range_meters":11600,"station_id":"ce4bgl12rcd13ifvqbo0","pricing_plan_id":"cebpf4jnsgd1na2vs0mg"},{"bike_id":"f3e80e77-4570-41e5-b2e2-ecfd4f6465bb","system_id":"levelo_inurba_marseille","lat":43.31495,"lon":5.37308,"is_reserved":false,"is_disabled":false,"rental_uris":{"android":"levelo://app?vid=f3e80e77-4570-41e5-b2e2-ecfd4f6465bb","ios":"levelo://app?vid=f3e80e77-4570-41e5-b2e2-ecfd4f6465bb"},"vehicle_type_id":"4","last_reported":1762884909,"current_range_meters":11600,"station_id":"ce4bgt12rcd13ifvqcd0","pricing_plan_id":"cebpf4jnsgd1na2vs0mg"},{"bike_id":"090de38d-f8ec-472b-977a-617d321d9239","system_id":"levelo_inurba_marseille","lat":43.29073,"lon":5.38121,"is_reserved":false,"is_disabled":false,"rental_uris":{"android":"levelo://app?vid=090de38d-f8ec-472b-977a-617d321d9239","ios":"levelo://app?vid=090de38d-f8ec-472b-977a-617d321d9239"},"vehicle_type_id":"4","last_reported":1762884909,"current_range_meters":11600,"station_id":"ce4bh512rcd13ifvqe2g","pricing_plan_id":"cebpf4jnsgd1na2vs0mg"},{"bike_id":"6599b6aa-f015-4918-9550-01825fd7d0bd","system_id":"levelo_inurba_marseille","lat":43.28926,"lon":5.38391,"is_reserved":false,"is_disabled":false,"rental_uris":{"android":"levelo://app?vid=6599b6aa-f015-4918-9550-01825fd7d0bd","ios":"levelo://app?vid=6599b6aa-f015-4918-9550-01825fd7d0bd"},"vehicle_type_id":"4","last_reported":1762884909,"current_range_meters":11600,"station_id":"ce4bh612rcd13ifvqe6g","pricing_plan_id":"cebpf4jnsgd1na2vs0mg"},{"bike_id":"f356ddb5-c860-4853-8b95-72d851178667","system_id":"levelo_inurba_marseille","lat":43.29193,"lon":5.39299,"is_reserved":false,"is_disabled":false,"rental_uris":{"android":"levelo://app?vid=f356ddb5-c860-4853-8b95-72d851178667","ios":"levelo://app?vid=f356ddb5-c860-4853-8b95-72d851178667"},"vehicle_type_id":"4","last_reported":1762884909,"current_range_meters":12000,"station_id":"ce4bh192rcd13ifvqdd0","pricing_plan_id":"cebpf4jnsgd1na2vs0mg"},{"bike_id":"4a392cd4-0e9e-4acc-9ed4-f14baadd93d7","system_id":"levelo_inurba_marseille","lat":43.32113,"lon":5.36789,"is_reserved":false,"is_disabled":false,"rental_uris":{"android":"levelo://app?vid=4a392cd4-0e9e-4acc-9ed4-f14baadd93d7","ios":"levelo://app?vid=4a392cd4-0e9e-4acc-9ed4-f14baadd93d7"},"vehicle_type_id":"4","last_reported":1762884909,"current_range_meters":12000,"station_id":"ce4bhrh2rcd13ifvqhug","pricing_plan_id":"cebpf4jnsgd1na2vs0mg"},{"bike_id":"69bcc9c9-16ef-4b05-a281-a3669c844e4b","system_id":"levelo_inurba_marseille","lat":43.22531,"lon":5.34843,"is_reserved":false,"is_disabled":false,"rental_uris":{"android":"levelo://app?vid=69bcc9c9-16ef-4b05-a281-a3669c844e4b","ios":"levelo://app?vid=69bcc9c9-16ef-4b05-a281-a3669c844e4b"},"vehicle_type_id":"4","last_reported":1762884909,"current_range_meters":12000,"station_id":"","pricing_plan_id":"cebpf4jnsgd1na2vs0mg"},{"bike_id":"a0d59558-665b-418c-8c0b-35d67ad5bb57","system_id":"levelo_inurba_marseille","lat":43.24818,"lon":5.37437,"is_reserved":false,"is_disabled":false,"rental_uris":{"android":"levelo://app?vid=a0d59558-665b-418c-8c0b-35d67ad5bb57","ios":"levelo://app?vid=a0d59558-665b-418c-8c0b-35d67ad5bb57"},"vehicle_type_id":"4","last_reported":1762884909,"current_range_meters":12000,"station_id":"ce4bhgh2rcd13ifvqfb0","pricing_plan_id":"cebpf4jnsgd1na2vs0mg"},{"bike_id":"722f7e0f-46d9-4be9-997c-6a53c83a7527","system_id":"levelo_inurba_marseille","lat":43.28036,"lon":5.36938,"is_reserved":false,"is_disabled":true,"rental_uris":{"android":"levelo://app?vid=722f7e0f-46d9-4be9-997c-6a53c83a7527","ios":"levelo://app?vid=722f7e0f-46d9-4be9-997c-6a53c83a7527"},"vehicle_type_id":"4","last_reported":1762884909,"current_range_meters":12000,"station_id":"ce4bha12rcd13ifvqef0","pricing_plan_id":"cebpf4jnsgd1na2vs0mg"},{"bike_id":"035e03df-e41b-4cf7-9eb1-51683218cb2e","system_id":"levelo_inurba_marseille","lat":43.29518,"lon":5.39397,"is_reserved":false,"is_disabled":false,"rental_uris":{"android":"levelo://app?vid=035e03df-e41b-4cf7-9eb1-51683218cb2e","ios":"levelo://app?vid=035e03df-e41b-4cf7-9eb1-51683218cb2e"},"vehicle_type_id":"4","last_reported":1762884909,"current_range_meters":12000,"station_id":"ce4bh292rcd13ifvqdf0","pricing_plan_id":"cebpf4jnsgd1na2vs0mg"},{"bike_id":"4a84694c-6c8d-456d-b9ff-d35768330e56","system_id":"levelo_inurba_marseille","lat":43.30113,"lon":5.39854,"is_reserved":false,"is_disabled":false,"rental_uris":{"android":"levelo://app?vid=4a84694c-6c8d-456d-b9ff-d35768330e56","ios":"levelo://app?vid=4a84694c-6c8d-456d-b9ff-d35768330e56"},"vehicle_type_id":"4","last_reported":1762884909,"current_range_meters":12000,"station_id":"ce4bh0h2rcd13ifvqd40","pricing_plan_id":"cebpf4jnsgd1na2vs0mg"},{"bike_id":"4a8ea99f-b39a-401a-9c8e-0832b530973f","system_id":"levelo_inurba_marseille","lat":43.28397,"lon":5.37505,"is_reserved":false,"is_disabled":false,"rental_uris":{"android":"levelo://app?vid=4a8ea99f-b39a-401a-9c8e-0832b530973f","ios":"levelo://app?vid=4a8ea99f-b39a-401a-9c8e-0832b530973f"},"vehicle_type_id":"4","last_reported":1762884909,"current_range_meters":12000,"station_id":"ce4bh412rcd13ifvqds0","pricing_plan_id":"cebpf4jnsgd1na2vs0mg"},{"bike_id":"dc9399a6-68ac-4bce-a28c-89dbbb7d0681","system_id":"levelo_inurba_marseille","lat":43.287708,"lon":5.408289,"is_reserved":false,"is_disabled":true,"rental_uris":{"android":"levelo://app?vid=dc9399a6-68ac-4bce-a28c-89dbbb7d0681","ios":"levelo://app?vid=dc9399a6-68ac-4bce-a28c-89dbbb7d0681"},"vehicle_type_id":"4","last_reported":1762884909,"current_range_meters":12000,"station_id":"","pricing_plan_id":"cebpf4jnsgd1na2vs0mg"},{"bike_id":"19530a79-cc62-4d94-b33c-66a0e4727e8d","system_id":"levelo_inurba_marseille","lat":43.29291,"lon":5.37466,"is_reserved":false,"is_disabled":false,"rental_uris":{"android":"levelo://app?vid=19530a79-cc62-4d94-b33c-66a0e4727e8d","ios":"levelo://app?vid=19530a79-cc62-4d94-b33c-66a0e4727e8d"},"vehicle_type_id":"4","last_reported":1762884909,"current_range_meters":12400,"station_id":"ce4bgi12rcd13ifvqb70","pricing_plan_id":"cebpf4jnsgd1na2vs0mg"},{"bike_id":"97a5bb6e-8f55-4fce-8968-50e5768ea667","system_id":"levelo_inurba_marseille","lat":43.29285,"lon":5.36847,"is_reserved":false,"is_disabled":false,"rental_uris":{"android":"levelo://app?vid=97a5bb6e-8f55-4fce-8968-50e5768ea667","ios":"levelo://app?vid=97a5bb6e-8f55-4fce-8968-50e5768ea667"},"vehicle_type_id":"4","last_reported":1762884909,"current_range_meters":12400,"station_id":"ce4bhbp2rcd13ifvqesg","pricing_plan_id":"cebpf4jnsgd1na2vs0mg"},{"bike_id":"ac571466-1dc3-4aea-b277-4afec8514b82","system_id":"levelo_inurba_marseille","lat":43.27921,"lon":5.41065,"is_reserved":false,"is_disabled":false,"rental_uris":{"android":"levelo://app?vid=ac571466-1dc3-4aea-b277-4afec8514b82","ios":"levelo://app?vid=ac571466-1dc3-4aea-b277-4afec8514b82"},"vehicle_type_id":"4","last_reported":1762884909,"current_range_meters":12400,"station_id":"ce4bhnp2rcd13ifvqh0g","pricing_plan_id":"cebpf4jnsgd1na2vs0mg"},{"bike_id":"f4bcf42f-af49-491f-9ba3-ce6167699527","system_id":"levelo_inurba_marseille","lat":43.23194,"lon":5.35552,"is_reserved":false,"is_disabled":false,"rental_uris":{"android":"levelo://app?vid=f4bcf42f-af49-491f-9ba3-ce6167699527","ios":"levelo://app?vid=f4bcf42f-af49-491f-9ba3-ce6167699527"},"vehicle_type_id":"4","last_reported":1762884909,"current_range_meters":12400,"station_id":"ce4bhu92rcd13ifvqi70","pricing_plan_id":"cebpf4jnsgd1na2vs0mg"},{"bike_id":"43ce69d0-d111-4879-9f01-e713f454af4b","system_id":"levelo_inurba_marseille","lat":43.29604,"lon":5.37729,"is_reserved":false,"is_disabled":false,"rental_uris":{"android":"levelo://app?vid=43ce69d0-d111-4879-9f01-e713f454af4b","ios":"levelo://app?vid=43ce69d0-d111-4879-9f01-e713f454af4b"},"vehicle_type_id":"4","last_reported":1762884909,"current_range_meters":12400,"station_id":"ce4bgi92rcd13ifvqb90","pricing_plan_id":"cebpf4jnsgd1na2vs0mg"},{"bike_id":"a4b2eea4-2861-48eb-9220-4eb2eb8b93a8","system_id":"levelo_inurba_marseille","lat":43.31217,"lon":5.36857,"is_reserved":false,"is_disabled":false,"rental_uris":{"android":"levelo://app?vid=a4b2eea4-2861-48eb-9220-4eb2eb8b93a8","ios":"levelo://app?vid=a4b2eea4-2861-48eb-9220-4eb2eb8b93a8"},"vehicle_type_id":"4","last_reported":1762884909,"current_range_meters":12400,"station_id":"ce4bgl92rcd13ifvqbq0","pricing_plan_id":"cebpf4jnsgd1na2vs0mg"},{"bike_id":"a4fa6491-252e-4621-9e69-e4232817646e","system_id":"levelo_inurba_marseille","lat":43.29598,"lon":5.38093,"is_reserved":false,"is_disabled":false,"rental_uris":{"android":"levelo://app?vid=a4fa6491-252e-4621-9e69-e4232817646e","ios":"levelo://app?vid=a4fa6491-252e-4621-9e69-e4232817646e"},"vehicle_type_id":"4","last_reported":1762884909,"current_range_meters":12800,"station_id":"ce4bgl12rcd13ifvqbo0","pricing_plan_id":"cebpf4jnsgd1na2vs0mg"},{"bike_id":"a1fde1f4-1860-4e49-88db-aacdf02b72c8","system_id":"levelo_inurba_marseille","lat":43.25112,"lon":5.40324,"is_reserved":false,"is_disabled":true,"rental_uris":{"android":"levelo://app?vid=a1fde1f4-1860-4e49-88db-aacdf02b72c8","ios":"levelo://app?vid=a1fde1f4-1860-4e49-88db-aacdf02b72c8"},"vehicle_type_id":"4","last_reported":1762884909,"current_range_meters":12800,"station_id":"ce4bhlh2rcd13ifvqgig","pricing_plan_id":"cebpf4jnsgd1na2vs0mg"},{"bike_id":"5a04390a-ad60-4fd6-bcf6-e75b8899a404","system_id":"levelo_inurba_marseille","lat":43.29066,"lon":5.40006,"is_reserved":false,"is_disabled":true,"rental_uris":{"android":"levelo://app?vid=5a04390a-ad60-4fd6-bcf6-e75b8899a404","ios":"levelo://app?vid=5a04390a-ad60-4fd6-bcf6-e75b8899a404"},"vehicle_type_id":"4","last_reported":1762884909,"current_range_meters":12800,"station_id":"ce4bh392rcd13ifvqdm0","pricing_plan_id":"cebpf4jnsgd1na2vs0mg"},{"bike_id":"8c4f22e8-8f17-4ae5-95d0-b42925f35d5e","system_id":"levelo_inurba_marseille","lat":43.28477,"lon":5.484024,"is_reserved":false,"is_disabled":false,"rental_uris":{"android":"levelo://app?vid=8c4f22e8-8f17-4ae5-95d0-b42925f35d5e","ios":"levelo://app?vid=8c4f22e8-8f17-4ae5-95d0-b42925f35d5e"},"vehicle_type_id":"4","last_reported":1762884909,"current_range_meters":12800,"station_id":"","pricing_plan_id":"cebpf4jnsgd1na2vs0mg"},{"bike_id":"51847b12-cd1c-4de5-b24f-73a4ace5a894","system_id":"levelo_inurba_marseille","lat":43.25122,"lon":5.40317,"is_reserved":false,"is_disabled":false,"rental_uris":{"android":"levelo://app?vid=51847b12-cd1c-4de5-b24f-73a4ace5a894","ios":"levelo://app?vid=51847b12-cd1c-4de5-b24f-73a4ace5a894"},"vehicle_type_id":"4","last_reported":1762884909,"current_range_meters":12800,"station_id":"ce4bhlh2rcd13ifvqgig","pricing_plan_id":"cebpf4jnsgd1na2vs0mg"},{"bike_id":"237ff6af-de05-441a-92b7-90898f788582","system_id":"levelo_inurba_marseille","lat":43.27916,"lon":5.39576,"is_reserved":false,"is_disabled":false,"rental_uris":{"android":"levelo://app?vid=237ff6af-de05-441a-92b7-90898f788582","ios":"levelo://app?vid=237ff6af-de05-441a-92b7-90898f788582"},"vehicle_type_id":"4","last_reported":1762884909,"current_range_meters":12800,"station_id":"ce4bhf92rcd13ifvqf40","pricing_plan_id":"cebpf4jnsgd1na2vs0mg"},{"bike_id":"fc519c2e-0d81-4dbf-9d57-68fb38465e43","system_id":"levelo_inurba_marseille","lat":43.2481,"lon":5.37455,"is_reserved":false,"is_disabled":false,"rental_uris":{"android":"levelo://app?vid=fc519c2e-0d81-4dbf-9d57-68fb38465e43","ios":"levelo://app?vid=fc519c2e-0d81-4dbf-9d57-68fb38465e43"},"vehicle_type_id":"4","last_reported":1762884909,"current_range_meters":12800,"station_id":"ce4bhgh2rcd13ifvqfb0","pricing_plan_id":"cebpf4jnsgd1na2vs0mg"},{"bike_id":"33b27a15-a090-4cd7-9ec8-e07265dc76e0","system_id":"levelo_inurba_marseille","lat":43.2927,"lon":5.40102,"is_reserved":false,"is_disabled":false,"rental_uris":{"android":"levelo://app?vid=33b27a15-a090-4cd7-9ec8-e07265dc76e0","ios":"levelo://app?vid=33b27a15-a090-4cd7-9ec8-e07265dc76e0"},"vehicle_type_id":"4","last_reported":1762884909,"current_range_meters":13600,"station_id":"ce4bh312rcd13ifvqdk0","pricing_plan_id":"cebpf4jnsgd1na2vs0mg"},{"bike_id":"28e36cd3-4665-4002-a55e-04a45eaa3992","system_id":"levelo_inurba_marseille","lat":43.33164,"lon":5.37711,"is_reserved":false,"is_disabled":false,"rental_uris":{"android":"levelo://app?vid=28e36cd3-4665-4002-a55e-04a45eaa3992","ios":"levelo://app?vid=28e36cd3-4665-4002-a55e-04a45eaa3992"},"vehicle_type_id":"4","last_reported":1762884909,"current_range_meters":13600,"station_id":"st_d46cu089ee8s73dldbu0","pricing_plan_id":"cebpf4jnsgd1na2vs0mg"},{"bike_id":"a6b15e4d-2350-4905-b7cf-7bb3e4fefc16","system_id":"levelo_inurba_marseille","lat":43.231848,"lon":5.399885,"is_reserved":false,"is_disabled":false,"rental_uris":{"android":"levelo://app?vid=a6b15e4d-2350-4905-b7cf-7bb3e4fefc16","ios":"levelo://app?vid=a6b15e4d-2350-4905-b7cf-7bb3e4fefc16"},"vehicle_type_id":"4","last_reported":1762884909,"current_range_meters":13600,"station_id":"ce4bhn12rcd13ifvqgqg","pricing_plan_id":"cebpf4jnsgd1na2vs0mg"},{"bike_id":"b259621f-2fe6-4b30-92e0-2292fee32f1f","system_id":"levelo_inurba_marseille","lat":43.28059,"lon":5.36947,"is_reserved":false,"is_disabled":true,"rental_uris":{"android":"levelo://app?vid=b259621f-2fe6-4b30-92e0-2292fee32f1f","ios":"levelo://app?vid=b259621f-2fe6-4b30-92e0-2292fee32f1f"},"vehicle_type_id":"4","last_reported":1762884909,"current_range_meters":13600,"station_id":"ce4bha12rcd13ifvqef0","pricing_plan_id":"cebpf4jnsgd1na2vs0mg"},{"bike_id":"0d5ccc88-875c-4794-a8ed-7dc1711e65eb","system_id":"levelo_inurba_marseille","lat":43.29296,"lon":5.37448,"is_reserved":false,"is_disabled":false,"rental_uris":{"android":"levelo://app?vid=0d5ccc88-875c-4794-a8ed-7dc1711e65eb","ios":"levelo://app?vid=0d5ccc88-875c-4794-a8ed-7dc1711e65eb"},"vehicle_type_id":"4","last_reported":1762884909,"current_range_meters":13600,"station_id":"ce4bgi12rcd13ifvqb70","pricing_plan_id":"cebpf4jnsgd1na2vs0mg"},{"bike_id":"f5501ba7-cf91-4f4b-800a-dba83711847d","system_id":"levelo_inurba_marseille","lat":43.29528,"lon":5.38546,"is_reserved":false,"is_disabled":false,"rental_uris":{"android":"levelo://app?vid=f5501ba7-cf91-4f4b-800a-dba83711847d","ios":"levelo://app?vid=f5501ba7-cf91-4f4b-800a-dba83711847d"},"vehicle_type_id":"4","last_reported":1762884909,"current_range_meters":13600,"station_id":"ce4bgih2rcd13ifvqba0","pricing_plan_id":"cebpf4jnsgd1na2vs0mg"},{"bike_id":"c3076cb8-88a2-418d-a899-e2c00e0a4123","system_id":"levelo_inurba_marseille","lat":43.26564,"lon":5.40328,"is_reserved":false,"is_disabled":false,"rental_uris":{"android":"levelo://app?vid=c3076cb8-88a2-418d-a899-e2c00e0a4123","ios":"levelo://app?vid=c3076cb8-88a2-418d-a899-e2c00e0a4123"},"vehicle_type_id":"4","last_reported":1762884909,"current_range_meters":14000,"station_id":"ce4bhmp2rcd13ifvqgng","pricing_plan_id":"cebpf4jnsgd1na2vs0mg"},{"bike_id":"63a93af9-98d9-4fd8-823e-565cc55bf0a6","system_id":"levelo_inurba_marseille","lat":43.29295,"lon":5.37655,"is_reserved":false,"is_disabled":false,"rental_uris":{"android":"levelo://app?vid=63a93af9-98d9-4fd8-823e-565cc55bf0a6","ios":"levelo://app?vid=63a93af9-98d9-4fd8-823e-565cc55bf0a6"},"vehicle_type_id":"4","last_reported":1762884909,"current_range_meters":14000,"station_id":"ce4bgi12rcd13ifvqb80","pricing_plan_id":"cebpf4jnsgd1na2vs0mg"},{"bike_id":"dff6bcf3-0727-43ac-94da-c6ce1530cad3","system_id":"levelo_inurba_marseille","lat":43.29341,"lon":5.3773,"is_reserved":false,"is_disabled":false,"rental_uris":{"android":"levelo://app?vid=dff6bcf3-0727-43ac-94da-c6ce1530cad3","ios":"levelo://app?vid=dff6bcf3-0727-43ac-94da-c6ce1530cad3"},"vehicle_type_id":"4","last_reported":1762884909,"current_range_meters":14000,"station_id":"","pricing_plan_id":"cebpf4jnsgd1na2vs0mg"},{"bike_id":"3b900fe1-9da3-43cc-a7ae-c0eb1d755e24","system_id":"levelo_inurba_marseille","lat":43.29307,"lon":5.37454,"is_reserved":false,"is_disabled":false,"rental_uris":{"android":"levelo://app?vid=3b900fe1-9da3-43cc-a7ae-c0eb1d755e24","ios":"levelo://app?vid=3b900fe1-9da3-43cc-a7ae-c0eb1d755e24"},"vehicle_type_id":"4","last_reported":1762884909,"current_range_meters":14000,"station_id":"ce4bgi12rcd13ifvqb70","pricing_plan_id":"cebpf4jnsgd1na2vs0mg"},{"bike_id":"24f39d44-5098-4b15-bf22-18840e8e02df","system_id":"levelo_inurba_marseille","lat":43.28443,"lon":5.39202,"is_reserved":false,"is_disabled":false,"rental_uris":{"android":"levelo://app?vid=24f39d44-5098-4b15-bf22-18840e8e02df","ios":"levelo://app?vid=24f39d44-5098-4b15-bf22-18840e8e02df"},"vehicle_type_id":"4","last_reported":1762884909,"current_range_meters":14000,"station_id":"ce4bhoh2rcd13ifvqh5g","pricing_plan_id":"cebpf4jnsgd1na2vs0mg"},{"bike_id":"84aade2c-4b39-4bce-814f-cfa3d6ed46f7","system_id":"levelo_inurba_marseille","lat":43.2848,"lon":5.48417,"is_reserved":false,"is_disabled":false,"rental_uris":{"android":"levelo://app?vid=84aade2c-4b39-4bce-814f-cfa3d6ed46f7","ios":"levelo://app?vid=84aade2c-4b39-4bce-814f-cfa3d6ed46f7"},"vehicle_type_id":"4","last_reported":1762884909,"current_range_meters":14000,"station_id":"st_d3svhcjqgbts73a3dn0g","pricing_plan_id":"cebpf4jnsgd1na2vs0mg"},{"bike_id":"e8211153-31ad-4fa2-916d-aece36245147","system_id":"levelo_inurba_marseille","lat":43.30947,"lon":5.40174,"is_reserved":false,"is_disabled":false,"rental_uris":{"android":"levelo://app?vid=e8211153-31ad-4fa2-916d-aece36245147","ios":"levelo://app?vid=e8211153-31ad-4fa2-916d-aece36245147"},"vehicle_type_id":"4","last_reported":1762884909,"current_range_meters":14000,"station_id":"ce4bgvp2rcd13ifvqct0","pricing_plan_id":"cebpf4jnsgd1na2vs0mg"},{"bike_id":"7a37adb5-64db-4ab8-8d4c-16124c71b8d4","system_id":"levelo_inurba_marseille","lat":43.28467,"lon":5.35898,"is_reserved":false,"is_disabled":false,"rental_uris":{"android":"levelo://app?vid=7a37adb5-64db-4ab8-8d4c-16124c71b8d4","ios":"levelo://app?vid=7a37adb5-64db-4ab8-8d4c-16124c71b8d4"},"vehicle_type_id":"4","last_reported":1762884909,"current_range_meters":14000,"station_id":"ce4bhah2rcd13ifvqei0","pricing_plan_id":"cebpf4jnsgd1na2vs0mg"},{"bike_id":"7176117e-ac54-47a3-9a10-e1d24bf36f6e","system_id":"levelo_inurba_marseille","lat":43.28369,"lon":5.38088,"is_reserved":false,"is_disabled":false,"rental_uris":{"android":"levelo://app?vid=7176117e-ac54-47a3-9a10-e1d24bf36f6e","ios":"levelo://app?vid=7176117e-ac54-47a3-9a10-e1d24bf36f6e"},"vehicle_type_id":"4","last_reported":1762884909,"current_range_meters":14000,"station_id":"ce4bh412rcd13ifvqdr0","pricing_plan_id":"cebpf4jnsgd1na2vs0mg"},{"bike_id":"55b7e291-072b-4042-a272-a038a9f41f7f","system_id":"levelo_inurba_marseille","lat":43.27944,"lon":5.41053,"is_reserved":false,"is_disabled":false,"rental_uris":{"android":"levelo://app?vid=55b7e291-072b-4042-a272-a038a9f41f7f","ios":"levelo://app?vid=55b7e291-072b-4042-a272-a038a9f41f7f"},"vehicle_type_id":"4","last_reported":1762884909,"current_range_meters":14400,"station_id":"ce4bhnp2rcd13ifvqh0g","pricing_plan_id":"cebpf4jnsgd1na2vs0mg"},{"bike_id":"9162e087-1830-42de-81d4-86939620f94c","system_id":"levelo_inurba_marseille","lat":43.302521,"lon":5.400512,"is_reserved":false,"is_disabled":false,"rental_uris":{"android":"levelo://app?vid=9162e087-1830-42de-81d4-86939620f94c","ios":"levelo://app?vid=9162e087-1830-42de-81d4-86939620f94c"},"vehicle_type_id":"4","last_reported":1762884909,"current_range_meters":14400,"station_id":"ce4bgvh2rcd13ifvqcs0","pricing_plan_id":"cebpf4jnsgd1na2vs0mg"},{"bike_id":"78bb2103-b1b1-44f7-94f1-ce40c88f968c","system_id":"levelo_inurba_marseille","lat":43.29022,"lon":5.38135,"is_reserved":false,"is_disabled":false,"rental_uris":{"android":"levelo://app?vid=78bb2103-b1b1-44f7-94f1-ce40c88f968c","ios":"levelo://app?vid=78bb2103-b1b1-44f7-94f1-ce40c88f968c"},"vehicle_type_id":"4","last_reported":1762884909,"current_range_meters":14400,"station_id":"ce4bh4p2rcd13ifvqe1g","pricing_plan_id":"cebpf4jnsgd1na2vs0mg"},{"bike_id":"dac56a48-d3c1-45d6-a571-1f62d47e138c","system_id":"levelo_inurba_marseille","lat":43.2804,"lon":5.36952,"is_reserved":false,"is_disabled":false,"rental_uris":{"android":"levelo://app?vid=dac56a48-d3c1-45d6-a571-1f62d47e138c","ios":"levelo://app?vid=dac56a48-d3c1-45d6-a571-1f62d47e138c"},"vehicle_type_id":"4","last_reported":1762884909,"current_range_meters":14400,"station_id":"ce4bha12rcd13ifvqef0","pricing_plan_id":"cebpf4jnsgd1na2vs0mg"},{"bike_id":"3b15451b-9ca4-4b75-9fab-bb81fed744ea","system_id":"levelo_inurba_marseille","lat":43.302982,"lon":5.392168,"is_reserved":false,"is_disabled":true,"rental_uris":{"android":"levelo://app?vid=3b15451b-9ca4-4b75-9fab-bb81fed744ea","ios":"levelo://app?vid=3b15451b-9ca4-4b75-9fab-bb81fed744ea"},"vehicle_type_id":"4","last_reported":1762884909,"current_range_meters":14800,"station_id":"ce4bgkh2rcd13ifvqbk0","pricing_plan_id":"cebpf4jnsgd1na2vs0mg"},{"bike_id":"c47023ab-2905-4a00-af93-ffd0b768cdc9","system_id":"levelo_inurba_marseille","lat":43.28857,"lon":5.42537,"is_reserved":false,"is_disabled":false,"rental_uris":{"android":"levelo://app?vid=c47023ab-2905-4a00-af93-ffd0b768cdc9","ios":"levelo://app?vid=c47023ab-2905-4a00-af93-ffd0b768cdc9"},"vehicle_type_id":"4","last_reported":1762884909,"current_range_meters":14800,"station_id":"st_d3b462108ojc7389ooeg","pricing_plan_id":"cebpf4jnsgd1na2vs0mg"},{"bike_id":"63c0500e-e446-49ee-9f18-cc9e7e96611f","system_id":"levelo_inurba_marseille","lat":43.2847,"lon":5.35891,"is_reserved":false,"is_disabled":false,"rental_uris":{"android":"levelo://app?vid=63c0500e-e446-49ee-9f18-cc9e7e96611f","ios":"levelo://app?vid=63c0500e-e446-49ee-9f18-cc9e7e96611f"},"vehicle_type_id":"4","last_reported":1762884909,"current_range_meters":14800,"station_id":"ce4bhah2rcd13ifvqei0","pricing_plan_id":"cebpf4jnsgd1na2vs0mg"},{"bike_id":"f09b69fd-4220-4b51-8365-9a85828617f1","system_id":"levelo_inurba_marseille","lat":43.330268,"lon":5.390397,"is_reserved":false,"is_disabled":false,"rental_uris":{"android":"levelo://app?vid=f09b69fd-4220-4b51-8365-9a85828617f1","ios":"levelo://app?vid=f09b69fd-4220-4b51-8365-9a85828617f1"},"vehicle_type_id":"4","last_reported":1762884909,"current_range_meters":15200,"station_id":"ce4bhr92rcd13ifvqhrg","pricing_plan_id":"cebpf4jnsgd1na2vs0mg"},{"bike_id":"e13b78db-2231-48a0-b9e0-a153f32a43f4","system_id":"levelo_inurba_marseille","lat":43.23052,"lon":5.35495,"is_reserved":false,"is_disabled":false,"rental_uris":{"android":"levelo://app?vid=e13b78db-2231-48a0-b9e0-a153f32a43f4","ios":"levelo://app?vid=e13b78db-2231-48a0-b9e0-a153f32a43f4"},"vehicle_type_id":"4","last_reported":1762884909,"current_range_meters":15200,"station_id":"cpo3342slgdg3j2ifvpg","pricing_plan_id":"cebpf4jnsgd1na2vs0mg"},{"bike_id":"32162483-923a-4e23-8738-bf029245f9f0","system_id":"levelo_inurba_marseille","lat":43.284773,"lon":5.384367,"is_reserved":false,"is_disabled":true,"rental_uris":{"android":"levelo://app?vid=32162483-923a-4e23-8738-bf029245f9f0","ios":"levelo://app?vid=32162483-923a-4e23-8738-bf029245f9f0"},"vehicle_type_id":"4","last_reported":1762884909,"current_range_meters":15200,"station_id":"ce4bh512rcd13ifvqe3g","pricing_plan_id":"cebpf4jnsgd1na2vs0mg"},{"bike_id":"4d46a5c9-9a25-4611-a305-1fab99822713","system_id":"levelo_inurba_marseille","lat":43.30312,"lon":5.36903,"is_reserved":false,"is_disabled":false,"rental_uris":{"android":"levelo://app?vid=4d46a5c9-9a25-4611-a305-1fab99822713","ios":"levelo://app?vid=4d46a5c9-9a25-4611-a305-1fab99822713"},"vehicle_type_id":"4","last_reported":1762884909,"current_range_meters":15200,"station_id":"ce4bgqh2rcd13ifvqc5g","pricing_plan_id":"cebpf4jnsgd1na2vs0mg"},{"bike_id":"a4bcc875-65fb-4e7c-9720-9fb502e1c170","system_id":"levelo_inurba_marseille","lat":43.34147,"lon":5.40901,"is_reserved":false,"is_disabled":false,"rental_uris":{"android":"levelo://app?vid=a4bcc875-65fb-4e7c-9720-9fb502e1c170","ios":"levelo://app?vid=a4bcc875-65fb-4e7c-9720-9fb502e1c170"},"vehicle_type_id":"4","last_reported":1762884909,"current_range_meters":15200,"station_id":"ce4bhqh2rcd13ifvqhlg","pricing_plan_id":"cebpf4jnsgd1na2vs0mg"},{"bike_id":"533a49a0-782f-4558-8469-d1adfbb5ede7","system_id":"levelo_inurba_marseille","lat":43.28152,"lon":5.426472,"is_reserved":false,"is_disabled":false,"rental_uris":{"android":"levelo://app?vid=533a49a0-782f-4558-8469-d1adfbb5ede7","ios":"levelo://app?vid=533a49a0-782f-4558-8469-d1adfbb5ede7"},"vehicle_type_id":"4","last_reported":1762884909,"current_range_meters":15200,"station_id":"ce4bhnh2rcd13ifvqgug","pricing_plan_id":"cebpf4jnsgd1na2vs0mg"},{"bike_id":"50b661f0-112f-4780-95bd-167a8c61a238","system_id":"levelo_inurba_marseille","lat":43.2122,"lon":5.35071,"is_reserved":false,"is_disabled":true,"rental_uris":{"android":"levelo://app?vid=50b661f0-112f-4780-95bd-167a8c61a238","ios":"levelo://app?vid=50b661f0-112f-4780-95bd-167a8c61a238"},"vehicle_type_id":"4","last_reported":1762884909,"current_range_meters":15200,"station_id":"st_cvj6sg6p6f1abm77japg","pricing_plan_id":"cebpf4jnsgd1na2vs0mg"},{"bike_id":"af179acd-1ec2-4289-8fe4-61d1b8f7ec9e","system_id":"levelo_inurba_marseille","lat":43.28571,"lon":5.39484,"is_reserved":false,"is_disabled":false,"rental_uris":{"android":"levelo://app?vid=af179acd-1ec2-4289-8fe4-61d1b8f7ec9e","ios":"levelo://app?vid=af179acd-1ec2-4289-8fe4-61d1b8f7ec9e"},"vehicle_type_id":"4","last_reported":1762884909,"current_range_meters":15200,"station_id":"ce4bh292rcd13ifvqdg0","pricing_plan_id":"cebpf4jnsgd1na2vs0mg"},{"bike_id":"14c4c79d-54a2-43ff-b01b-d18f58077d1e","system_id":"levelo_inurba_marseille","lat":43.285996,"lon":5.350197,"is_reserved":false,"is_disabled":false,"rental_uris":{"android":"levelo://app?vid=14c4c79d-54a2-43ff-b01b-d18f58077d1e","ios":"levelo://app?vid=14c4c79d-54a2-43ff-b01b-d18f58077d1e"},"vehicle_type_id":"4","last_reported":1762884909,"current_range_meters":16000,"station_id":"","pricing_plan_id":"cebpf4jnsgd1na2vs0mg"},{"bike_id":"0f91c4cd-ea5a-42f8-9272-beafe4513254","system_id":"levelo_inurba_marseille","lat":43.29528,"lon":5.38544,"is_reserved":false,"is_disabled":false,"rental_uris":{"android":"levelo://app?vid=0f91c4cd-ea5a-42f8-9272-beafe4513254","ios":"levelo://app?vid=0f91c4cd-ea5a-42f8-9272-beafe4513254"},"vehicle_type_id":"4","last_reported":1762884909,"current_range_meters":16000,"station_id":"ce4bgih2rcd13ifvqba0","pricing_plan_id":"cebpf4jnsgd1na2vs0mg"},{"bike_id":"f0413c71-e0c3-427b-98cb-cdf950c219e3","system_id":"levelo_inurba_marseille","lat":43.31034,"lon":5.4007,"is_reserved":false,"is_disabled":false,"rental_uris":{"android":"levelo://app?vid=f0413c71-e0c3-427b-98cb-cdf950c219e3","ios":"levelo://app?vid=f0413c71-e0c3-427b-98cb-cdf950c219e3"},"vehicle_type_id":"4","last_reported":1762884909,"current_range_meters":16000,"station_id":"","pricing_plan_id":"cebpf4jnsgd1na2vs0mg"},{"bike_id":"43599706-aeab-41b2-859f-99807479547f","system_id":"levelo_inurba_marseille","lat":43.25335,"lon":5.42187,"is_reserved":false,"is_disabled":false,"rental_uris":{"android":"levelo://app?vid=43599706-aeab-41b2-859f-99807479547f","ios":"levelo://app?vid=43599706-aeab-41b2-859f-99807479547f"},"vehicle_type_id":"4","last_reported":1762884909,"current_range_meters":16000,"station_id":"st_d2m65c5bi1j21697t3ng","pricing_plan_id":"cebpf4jnsgd1na2vs0mg"},{"bike_id":"d09fedfc-29a8-499c-8fb8-f9297a7d202b","system_id":"levelo_inurba_marseille","lat":43.29882,"lon":5.38903,"is_reserved":false,"is_disabled":false,"rental_uris":{"android":"levelo://app?vid=d09fedfc-29a8-499c-8fb8-f9297a7d202b","ios":"levelo://app?vid=d09fedfc-29a8-499c-8fb8-f9297a7d202b"},"vehicle_type_id":"4","last_reported":1762884909,"current_range_meters":16000,"station_id":"ce4bh392rcd13ifvqdl0","pricing_plan_id":"cebpf4jnsgd1na2vs0mg"},{"bike_id":"cb7a5799-c024-4519-bb5c-6f2896731a81","system_id":"levelo_inurba_marseille","lat":43.33165,"lon":5.37683,"is_reserved":false,"is_disabled":false,"rental_uris":{"android":"levelo://app?vid=cb7a5799-c024-4519-bb5c-6f2896731a81","ios":"levelo://app?vid=cb7a5799-c024-4519-bb5c-6f2896731a81"},"vehicle_type_id":"4","last_reported":1762884909,"current_range_meters":16000,"station_id":"st_d46cu089ee8s73dldbu0","pricing_plan_id":"cebpf4jnsgd1na2vs0mg"},{"bike_id":"f6e0909f-0c0a-4ba8-8877-1dfd7b0fbf13","system_id":"levelo_inurba_marseille","lat":43.251191,"lon":5.403179,"is_reserved":false,"is_disabled":false,"rental_uris":{"android":"levelo://app?vid=f6e0909f-0c0a-4ba8-8877-1dfd7b0fbf13","ios":"levelo://app?vid=f6e0909f-0c0a-4ba8-8877-1dfd7b0fbf13"},"vehicle_type_id":"4","last_reported":1762884909,"current_range_meters":16000,"station_id":"ce4bhlh2rcd13ifvqgig","pricing_plan_id":"cebpf4jnsgd1na2vs0mg"},{"bike_id":"a8ff1374-542a-44bf-881d-b15cde4265e1","system_id":"levelo_inurba_marseille","lat":43.31529,"lon":5.3802,"is_reserved":false,"is_disabled":false,"rental_uris":{"android":"levelo://app?vid=a8ff1374-542a-44bf-881d-b15cde4265e1","ios":"levelo://app?vid=a8ff1374-542a-44bf-881d-b15cde4265e1"},"vehicle_type_id":"4","last_reported":1762884909,"current_range_meters":16000,"station_id":"ce4bhsp2rcd13ifvqi50","pricing_plan_id":"cebpf4jnsgd1na2vs0mg"},{"bike_id":"cfe659f5-e7d3-4e9c-874d-ac7c14b2d1e4","system_id":"levelo_inurba_marseille","lat":43.29794,"lon":5.404025,"is_reserved":false,"is_disabled":false,"rental_uris":{"android":"levelo://app?vid=cfe659f5-e7d3-4e9c-874d-ac7c14b2d1e4","ios":"levelo://app?vid=cfe659f5-e7d3-4e9c-874d-ac7c14b2d1e4"},"vehicle_type_id":"4","last_reported":1762884909,"current_range_meters":16000,"station_id":"ce4bh112rcd13ifvqd90","pricing_plan_id":"cebpf4jnsgd1na2vs0mg"},{"bike_id":"90b7b1ac-129d-4f5e-9e36-1417be0b1559","system_id":"levelo_inurba_marseille","lat":43.30378,"lon":5.42477,"is_reserved":false,"is_disabled":true,"rental_uris":{"android":"levelo://app?vid=90b7b1ac-129d-4f5e-9e36-1417be0b1559","ios":"levelo://app?vid=90b7b1ac-129d-4f5e-9e36-1417be0b1559"},"vehicle_type_id":"4","last_reported":1762884909,"current_range_meters":16000,"station_id":"ce4bhoh2rcd13ifvqh6g","pricing_plan_id":"cebpf4jnsgd1na2vs0mg"},{"bike_id":"bee9369c-192d-4b8e-8f72-efd1f1d739e0","system_id":"levelo_inurba_marseille","lat":43.296112,"lon":5.405744,"is_reserved":false,"is_disabled":false,"rental_uris":{"android":"levelo://app?vid=bee9369c-192d-4b8e-8f72-efd1f1d739e0","ios":"levelo://app?vid=bee9369c-192d-4b8e-8f72-efd1f1d739e0"},"vehicle_type_id":"4","last_reported":1762884909,"current_range_meters":16000,"station_id":"ce4bh0h2rcd13ifvqd60","pricing_plan_id":"cebpf4jnsgd1na2vs0mg"},{"bike_id":"5d422b24-3b6e-443f-9f22-ad5130698936","system_id":"levelo_inurba_marseille","lat":43.29536,"lon":5.39044,"is_reserved":false,"is_disabled":false,"rental_uris":{"android":"levelo://app?vid=5d422b24-3b6e-443f-9f22-ad5130698936","ios":"levelo://app?vid=5d422b24-3b6e-443f-9f22-ad5130698936"},"vehicle_type_id":"4","last_reported":1762884909,"current_range_meters":16000,"station_id":"ce4bh3p2rcd13ifvqdp0","pricing_plan_id":"cebpf4jnsgd1na2vs0mg"},{"bike_id":"8b18e304-05bd-4937-a225-c448b20070e8","system_id":"levelo_inurba_marseille","lat":43.30877,"lon":5.39621,"is_reserved":false,"is_disabled":false,"rental_uris":{"android":"levelo://app?vid=8b18e304-05bd-4937-a225-c448b20070e8","ios":"levelo://app?vid=8b18e304-05bd-4937-a225-c448b20070e8"},"vehicle_type_id":"4","last_reported":1762884909,"current_range_meters":16400,"station_id":"ce4bh012rcd13ifvqcv0","pricing_plan_id":"cebpf4jnsgd1na2vs0mg"},{"bike_id":"df92a55a-9e5e-44d7-9639-61acc8cd2f32","system_id":"levelo_inurba_marseille","lat":43.27918,"lon":5.39583,"is_reserved":false,"is_disabled":false,"rental_uris":{"android":"levelo://app?vid=df92a55a-9e5e-44d7-9639-61acc8cd2f32","ios":"levelo://app?vid=df92a55a-9e5e-44d7-9639-61acc8cd2f32"},"vehicle_type_id":"4","last_reported":1762884909,"current_range_meters":16400,"station_id":"ce4bhf92rcd13ifvqf40","pricing_plan_id":"cebpf4jnsgd1na2vs0mg"},{"bike_id":"8d677937-1824-4e06-ac08-f6ef15e14e46","system_id":"levelo_inurba_marseille","lat":43.3255,"lon":5.41445,"is_reserved":false,"is_disabled":false,"rental_uris":{"android":"levelo://app?vid=8d677937-1824-4e06-ac08-f6ef15e14e46","ios":"levelo://app?vid=8d677937-1824-4e06-ac08-f6ef15e14e46"},"vehicle_type_id":"4","last_reported":1762884909,"current_range_meters":16400,"station_id":"ce4bhq12rcd13ifvqhhg","pricing_plan_id":"cebpf4jnsgd1na2vs0mg"},{"bike_id":"d25d48e7-a2be-4123-8274-d00d446cc6ff","system_id":"levelo_inurba_marseille","lat":43.24663,"lon":5.38167,"is_reserved":false,"is_disabled":false,"rental_uris":{"android":"levelo://app?vid=d25d48e7-a2be-4123-8274-d00d446cc6ff","ios":"levelo://app?vid=d25d48e7-a2be-4123-8274-d00d446cc6ff"},"vehicle_type_id":"4","last_reported":1762884909,"current_range_meters":16400,"station_id":"ce4bhih2rcd13ifvqfr0","pricing_plan_id":"cebpf4jnsgd1na2vs0mg"},{"bike_id":"e5072903-b867-4d8e-a478-9934ce296bde","system_id":"levelo_inurba_marseille","lat":43.29142,"lon":5.3908,"is_reserved":false,"is_disabled":false,"rental_uris":{"android":"levelo://app?vid=e5072903-b867-4d8e-a478-9934ce296bde","ios":"levelo://app?vid=e5072903-b867-4d8e-a478-9934ce296bde"},"vehicle_type_id":"4","last_reported":1762884909,"current_range_meters":16400,"station_id":"","pricing_plan_id":"cebpf4jnsgd1na2vs0mg"},{"bike_id":"456c3b77-50a7-458c-9a10-8138e2e89389","system_id":"levelo_inurba_marseille","lat":43.252167,"lon":5.380375,"is_reserved":false,"is_disabled":false,"rental_uris":{"android":"levelo://app?vid=456c3b77-50a7-458c-9a10-8138e2e89389","ios":"levelo://app?vid=456c3b77-50a7-458c-9a10-8138e2e89389"},"vehicle_type_id":"4","last_reported":1762884909,"current_range_meters":16400,"station_id":"","pricing_plan_id":"cebpf4jnsgd1na2vs0mg"},{"bike_id":"e02c7d1b-8ea1-4a86-99b0-3d3ce109b9b4","system_id":"levelo_inurba_marseille","lat":43.28908,"lon":5.36661,"is_reserved":false,"is_disabled":false,"rental_uris":{"android":"levelo://app?vid=e02c7d1b-8ea1-4a86-99b0-3d3ce109b9b4","ios":"levelo://app?vid=e02c7d1b-8ea1-4a86-99b0-3d3ce109b9b4"},"vehicle_type_id":"4","last_reported":1762884909,"current_range_meters":16400,"station_id":"ce4bhah2rcd13ifvqei0","pricing_plan_id":"cebpf4jnsgd1na2vs0mg"},{"bike_id":"c31c777a-98fe-41ff-97ce-d6c4cffecca1","system_id":"levelo_inurba_marseille","lat":43.29817,"lon":5.38275,"is_reserved":false,"is_disabled":false,"rental_uris":{"android":"levelo://app?vid=c31c777a-98fe-41ff-97ce-d6c4cffecca1","ios":"levelo://app?vid=c31c777a-98fe-41ff-97ce-d6c4cffecca1"},"vehicle_type_id":"4","last_reported":1762884909,"current_range_meters":16400,"station_id":"","pricing_plan_id":"cebpf4jnsgd1na2vs0mg"},{"bike_id":"138acbc8-a44a-45ec-9d4e-f41258a8778e","system_id":"levelo_inurba_marseille","lat":43.29802,"lon":5.44057,"is_reserved":false,"is_disabled":false,"rental_uris":{"android":"levelo://app?vid=138acbc8-a44a-45ec-9d4e-f41258a8778e","ios":"levelo://app?vid=138acbc8-a44a-45ec-9d4e-f41258a8778e"},"vehicle_type_id":"4","last_reported":1762884909,"current_range_meters":16400,"station_id":"st_d3jp68qikq2c7381ktn0","pricing_plan_id":"cebpf4jnsgd1na2vs0mg"},{"bike_id":"7853a813-0949-48bc-9da8-6f66b0f8768a","system_id":"levelo_inurba_marseille","lat":43.24407,"lon":5.37052,"is_reserved":false,"is_disabled":true,"rental_uris":{"android":"levelo://app?vid=7853a813-0949-48bc-9da8-6f66b0f8768a","ios":"levelo://app?vid=7853a813-0949-48bc-9da8-6f66b0f8768a"},"vehicle_type_id":"4","last_reported":1762884909,"current_range_meters":16400,"station_id":"ce4bhhh2rcd13ifvqfk0","pricing_plan_id":"cebpf4jnsgd1na2vs0mg"},{"bike_id":"87a9eac8-be7d-4820-afba-bba65e276801","system_id":"levelo_inurba_marseille","lat":43.31086,"lon":5.42429,"is_reserved":false,"is_disabled":false,"rental_uris":{"android":"levelo://app?vid=87a9eac8-be7d-4820-afba-bba65e276801","ios":"levelo://app?vid=87a9eac8-be7d-4820-afba-bba65e276801"},"vehicle_type_id":"4","last_reported":1762884909,"current_range_meters":16400,"station_id":"ce4bhp92rcd13ifvqhag","pricing_plan_id":"cebpf4jnsgd1na2vs0mg"},{"bike_id":"f9d44752-72ec-41fd-9f35-e9b08cb47a00","system_id":"levelo_inurba_marseille","lat":43.299198,"lon":5.385515,"is_reserved":false,"is_disabled":false,"rental_uris":{"android":"levelo://app?vid=f9d44752-72ec-41fd-9f35-e9b08cb47a00","ios":"levelo://app?vid=f9d44752-72ec-41fd-9f35-e9b08cb47a00"},