{"last_updated":1758989464,"ttl":60,"version":"2.2","data":{"bikes":[{"bike_id":"967f4c54-9974-42ce-8944-49baaf706dfe","system_id":"levelo_inurba_marseille","lat":43.30882,"lon":5.39655,"is_reserved":false,"is_disabled":false,"rental_uris":{"android":"levelo://app?vid=967f4c54-9974-42ce-8944-49baaf706dfe","ios":"levelo://app?vid=967f4c54-9974-42ce-8944-49baaf706dfe"},"vehicle_type_id":"4","last_reported":1758989464,"current_range_meters":2800,"station_id":"ce4bh012rcd13ifvqcv0","pricing_plan_id":"cebpf4jnsgd1na2vs0mg"},{"bike_id":"9a0dc5f9-3be5-4cb6-8359-34212218f4a7","system_id":"levelo_inurba_marseille","lat":43.248096,"lon":5.374622,"is_reserved":false,"is_disabled":false,"rental_uris":{"android":"levelo://app?vid=9a0dc5f9-3be5-4cb6-8359-34212218f4a7","ios":"levelo://app?vid=9a0dc5f9-3be5-4cb6-8359-34212218f4a7"},"vehicle_type_id":"4","last_reported":1758989464,"current_range_meters":2800,"station_id":"","pricing_plan_id":"cebpf4jnsgd1na2vs0mg"},{"bike_id":"80a456f1-feb4-4fdb-8f6b-7f435aadeeb8","system_id":"levelo_inurba_marseille","lat":43.27199,"lon":5.3919,"is_reserved":false,"is_disabled":false,"rental_uris":{"android":"levelo://app?vid=80a456f1-feb4-4fdb-8f6b-7f435aadeeb8","ios":"levelo://app?vid=80a456f1-feb4-4fdb-8f6b-7f435aadeeb8"},"vehicle_type_id":"4","last_reported":1758989464,"current_range_meters":2800,"station_id":"ce4bhhp2rcd13ifvqfm0","pricing_plan_id":"cebpf4jnsgd1na2vs0mg"},{"bike_id":"510ce34a-ed27-4e90-982b-7af49dcb1935","system_id":"levelo_inurba_marseille","lat":43.28418,"lon":5.34977,"is_reserved":false,"is_disabled":false,"rental_uris":{"android":"levelo://app?vid=510ce34a-ed27-4e90-982b-7af49dcb1935","ios":"levelo://app?vid=510ce34a-ed27-4e90-982b-7af49dcb1935"},"vehicle_type_id":"4","last_reported":1758989464,"current_range_meters":2800,"station_id":"ce4bhbh2rcd13ifvqepg","pricing_plan_id":"cebpf4jnsgd1na2vs0mg"},{"bike_id":"f8918bcd-e3cd-4ebe-8aa9-a1f4f1d5d11e","system_id":"levelo_inurba_marseille","lat":43.31108,"lon":5.37839,"is_reserved":false,"is_disabled":false,"rental_uris":{"android":"levelo://app?vid=f8918bcd-e3cd-4ebe-8aa9-a1f4f1d5d11e","ios":"levelo://app?vid=f8918bcd-e3cd-4ebe-8aa9-a1f4f1d5d11e"},"vehicle_type_id":"4","last_reported":1758989464,"current_range_meters":2800,"station_id":"","pricing_plan_id":"cebpf4jnsgd1na2vs0mg"},{"bike_id":"588bb5c6-d90f-4edd-b1de-2d2164a39c00","system_id":"levelo_inurba_marseille","lat":43.32948,"lon":5.39046,"is_reserved":false,"is_disabled":false,"rental_uris":{"android":"levelo://app?vid=588bb5c6-d90f-4edd-b1de-2d2164a39c00","ios":"levelo://app?vid=588bb5c6-d90f-4edd-b1de-2d2164a39c00"},"vehicle_type_id":"4","last_reported":1758989464,"current_range_meters":2800,"station_id":"","pricing_plan_id":"cebpf4jnsgd1na2vs0mg"},{"bike_id":"5a3c32b9-b454-4269-9b04-7486df23fa7d","system_id":"levelo_inurba_marseille","lat":43.29788,"lon":5.39345,"is_reserved":false,"is_disabled":false,"rental_uris":{"android":"levelo://app?vid=5a3c32b9-b454-4269-9b04-7486df23fa7d","ios":"levelo://app?vid=5a3c32b9-b454-4269-9b04-7486df23fa7d"},"vehicle_type_id":"4","last_reported":1758989464,"current_range_meters":2800,"station_id":"chh1huq6cuj3fo74tm60","pricing_plan_id":"cebpf4jnsgd1na2vs0mg"},{"bike_id":"4c33c3d8-bab1-44db-9038-07e289eac7a2","system_id":"levelo_inurba_marseille","lat":43.29786,"lon":5.38099,"is_reserved":false,"is_disabled":false,"rental_uris":{"android":"levelo://app?vid=4c33c3d8-bab1-44db-9038-07e289eac7a2","ios":"levelo://app?vid=4c33c3d8-bab1-44db-9038-07e289eac7a2"},"vehicle_type_id":"4","last_reported":1758989464,"current_range_meters":2800,"station_id":"ce4bgip2rcd13ifvqbb0","pricing_plan_id":"cebpf4jnsgd1na2vs0mg"},{"bike_id":"06571a36-150b-4f72-9a63-93dfa043ec26","system_id":"levelo_inurba_marseille","lat":43.27836,"lon":5.39216,"is_reserved":false,"is_disabled":false,"rental_uris":{"android":"levelo://app?vid=06571a36-150b-4f72-9a63-93dfa043ec26","ios":"levelo://app?vid=06571a36-150b-4f72-9a63-93dfa043ec26"},"vehicle_type_id":"4","last_reported":1758989464,"current_range_meters":3200,"station_id":"ce4bhjp2rcd13ifvqga0","pricing_plan_id":"cebpf4jnsgd1na2vs0mg"},{"bike_id":"3c2ff865-96a9-4d9c-9376-e03821cae523","system_id":"levelo_inurba_marseille","lat":43.29276,"lon":5.36844,"is_reserved":false,"is_disabled":false,"rental_uris":{"android":"levelo://app?vid=3c2ff865-96a9-4d9c-9376-e03821cae523","ios":"levelo://app?vid=3c2ff865-96a9-4d9c-9376-e03821cae523"},"vehicle_type_id":"4","last_reported":1758989464,"current_range_meters":3200,"station_id":"ce4bhbp2rcd13ifvqesg","pricing_plan_id":"cebpf4jnsgd1na2vs0mg"},{"bike_id":"69d67372-15f1-4a97-b264-8f730ef9bc37","system_id":"levelo_inurba_marseille","lat":43.28939,"lon":5.36392,"is_reserved":false,"is_disabled":false,"rental_uris":{"android":"levelo://app?vid=69d67372-15f1-4a97-b264-8f730ef9bc37","ios":"levelo://app?vid=69d67372-15f1-4a97-b264-8f730ef9bc37"},"vehicle_type_id":"4","last_reported":1758989464,"current_range_meters":3200,"station_id":"ce4bhc92rcd13ifvqetg","pricing_plan_id":"cebpf4jnsgd1na2vs0mg"},{"bike_id":"003515e8-8117-44bb-979d-5f47e8d50fda","system_id":"levelo_inurba_marseille","lat":43.3062,"lon":5.37575,"is_reserved":false,"is_disabled":false,"rental_uris":{"android":"levelo://app?vid=003515e8-8117-44bb-979d-5f47e8d50fda","ios":"levelo://app?vid=003515e8-8117-44bb-979d-5f47e8d50fda"},"vehicle_type_id":"4","last_reported":1758989464,"current_range_meters":3200,"station_id":"","pricing_plan_id":"cebpf4jnsgd1na2vs0mg"},{"bike_id":"c2537532-2fc3-4f32-b3d5-edba09793edf","system_id":"levelo_inurba_marseille","lat":43.28417,"lon":5.34975,"is_reserved":false,"is_disabled":false,"rental_uris":{"android":"levelo://app?vid=c2537532-2fc3-4f32-b3d5-edba09793edf","ios":"levelo://app?vid=c2537532-2fc3-4f32-b3d5-edba09793edf"},"vehicle_type_id":"4","last_reported":1758989464,"current_range_meters":3200,"station_id":"ce4bhbh2rcd13ifvqepg","pricing_plan_id":"cebpf4jnsgd1na2vs0mg"},{"bike_id":"78859ae6-4a83-4971-9d10-3a5a65abb4c1","system_id":"levelo_inurba_marseille","lat":43.31225,"lon":5.36845,"is_reserved":false,"is_disabled":false,"rental_uris":{"android":"levelo://app?vid=78859ae6-4a83-4971-9d10-3a5a65abb4c1","ios":"levelo://app?vid=78859ae6-4a83-4971-9d10-3a5a65abb4c1"},"vehicle_type_id":"4","last_reported":1758989464,"current_range_meters":3200,"station_id":"ce4bgl92rcd13ifvqbq0","pricing_plan_id":"cebpf4jnsgd1na2vs0mg"},{"bike_id":"a581bdea-2b1e-4888-bbaf-27e08cddff08","system_id":"levelo_inurba_marseille","lat":43.31083,"lon":5.42439,"is_reserved":false,"is_disabled":false,"rental_uris":{"android":"levelo://app?vid=a581bdea-2b1e-4888-bbaf-27e08cddff08","ios":"levelo://app?vid=a581bdea-2b1e-4888-bbaf-27e08cddff08"},"vehicle_type_id":"4","last_reported":1758989464,"current_range_meters":3200,"station_id":"ce4bhp92rcd13ifvqhag","pricing_plan_id":"cebpf4jnsgd1na2vs0mg"},{"bike_id":"15557150-ce20-4441-bd74-2115341648d5","system_id":"levelo_inurba_marseille","lat":43.26209,"lon":5.40426,"is_reserved":false,"is_disabled":false,"rental_uris":{"android":"levelo://app?vid=15557150-ce20-4441-bd74-2115341648d5","ios":"levelo://app?vid=15557150-ce20-4441-bd74-2115341648d5"},"vehicle_type_id":"4","last_reported":1758989464,"current_range_meters":3200,"station_id":"ce4bhmh2rcd13ifvqgmg","pricing_plan_id":"cebpf4jnsgd1na2vs0mg"},{"bike_id":"3f35a36c-813f-4f10-bf56-00ef3e8379f5","system_id":"levelo_inurba_marseille","lat":43.29228,"lon":5.36072,"is_reserved":false,"is_disabled":false,"rental_uris":{"android":"levelo://app?vid=3f35a36c-813f-4f10-bf56-00ef3e8379f5","ios":"levelo://app?vid=3f35a36c-813f-4f10-bf56-00ef3e8379f5"},"vehicle_type_id":"4","last_reported":1758989464,"current_range_meters":3200,"station_id":"ce4bhbh2rcd13ifvqeqg","pricing_plan_id":"cebpf4jnsgd1na2vs0mg"},{"bike_id":"d168b39f-9b33-4910-a839-c39453a5db5b","system_id":"levelo_inurba_marseille","lat":43.28483,"lon":5.35862,"is_reserved":false,"is_disabled":false,"rental_uris":{"android":"levelo://app?vid=d168b39f-9b33-4910-a839-c39453a5db5b","ios":"levelo://app?vid=d168b39f-9b33-4910-a839-c39453a5db5b"},"vehicle_type_id":"4","last_reported":1758989464,"current_range_meters":3600,"station_id":"ce4bhah2rcd13ifvqei0","pricing_plan_id":"cebpf4jnsgd1na2vs0mg"},{"bike_id":"fde39d9b-b8c4-4f52-b7a6-a42f515b5272","system_id":"levelo_inurba_marseille","lat":43.29918,"lon":5.37462,"is_reserved":false,"is_disabled":false,"rental_uris":{"android":"levelo://app?vid=fde39d9b-b8c4-4f52-b7a6-a42f515b5272","ios":"levelo://app?vid=fde39d9b-b8c4-4f52-b7a6-a42f515b5272"},"vehicle_type_id":"4","last_reported":1758989464,"current_range_meters":3600,"station_id":"ce4bgjh2rcd13ifvqbg0","pricing_plan_id":"cebpf4jnsgd1na2vs0mg"},{"bike_id":"e24585c0-66f6-4d6d-8db8-f05a4b64909d","system_id":"levelo_inurba_marseille","lat":43.29957,"lon":5.38498,"is_reserved":false,"is_disabled":false,"rental_uris":{"android":"levelo://app?vid=e24585c0-66f6-4d6d-8db8-f05a4b64909d","ios":"levelo://app?vid=e24585c0-66f6-4d6d-8db8-f05a4b64909d"},"vehicle_type_id":"4","last_reported":1758989464,"current_range_meters":3600,"station_id":"ce4bgj92rcd13ifvqbd0","pricing_plan_id":"cebpf4jnsgd1na2vs0mg"},{"bike_id":"409030c3-623d-44f1-91cc-187938df8cc3","system_id":"levelo_inurba_marseille","lat":43.28614,"lon":5.35122,"is_reserved":false,"is_disabled":false,"rental_uris":{"android":"levelo://app?vid=409030c3-623d-44f1-91cc-187938df8cc3","ios":"levelo://app?vid=409030c3-623d-44f1-91cc-187938df8cc3"},"vehicle_type_id":"4","last_reported":1758989464,"current_range_meters":3600,"station_id":"ce4bhch2rcd13ifvqeug","pricing_plan_id":"cebpf4jnsgd1na2vs0mg"},{"bike_id":"f897d300-643c-4c7a-951b-f56d70ef23ca","system_id":"levelo_inurba_marseille","lat":43.30325,"lon":5.39081,"is_reserved":false,"is_disabled":false,"rental_uris":{"android":"levelo://app?vid=f897d300-643c-4c7a-951b-f56d70ef23ca","ios":"levelo://app?vid=f897d300-643c-4c7a-951b-f56d70ef23ca"},"vehicle_type_id":"4","last_reported":1758989464,"current_range_meters":4000,"station_id":"","pricing_plan_id":"cebpf4jnsgd1na2vs0mg"},{"bike_id":"5029bdc8-20de-4f0f-adc9-a7442b143f40","system_id":"levelo_inurba_marseille","lat":43.2293,"lon":5.35376,"is_reserved":false,"is_disabled":false,"rental_uris":{"android":"levelo://app?vid=5029bdc8-20de-4f0f-adc9-a7442b143f40","ios":"levelo://app?vid=5029bdc8-20de-4f0f-adc9-a7442b143f40"},"vehicle_type_id":"4","last_reported":1758989464,"current_range_meters":4000,"station_id":"cpo3532slgdg3j2ikp40","pricing_plan_id":"cebpf4jnsgd1na2vs0mg"},{"bike_id":"f09d03c0-a7a0-45d4-adf6-a346888e2706","system_id":"levelo_inurba_marseille","lat":43.28154,"lon":5.42651,"is_reserved":false,"is_disabled":false,"rental_uris":{"android":"levelo://app?vid=f09d03c0-a7a0-45d4-adf6-a346888e2706","ios":"levelo://app?vid=f09d03c0-a7a0-45d4-adf6-a346888e2706"},"vehicle_type_id":"4","last_reported":1758989464,"current_range_meters":4000,"station_id":"ce4bhnh2rcd13ifvqgug","pricing_plan_id":"cebpf4jnsgd1na2vs0mg"},{"bike_id":"f9d9267c-c663-4261-b4bc-896f478a3986","system_id":"levelo_inurba_marseille","lat":43.23063,"lon":5.35492,"is_reserved":false,"is_disabled":false,"rental_uris":{"android":"levelo://app?vid=f9d9267c-c663-4261-b4bc-896f478a3986","ios":"levelo://app?vid=f9d9267c-c663-4261-b4bc-896f478a3986"},"vehicle_type_id":"4","last_reported":1758989464,"current_range_meters":4000,"station_id":"cpo3342slgdg3j2ifvpg","pricing_plan_id":"cebpf4jnsgd1na2vs0mg"},{"bike_id":"a0b45e31-054c-4b27-819d-dd6ddf99569b","system_id":"levelo_inurba_marseille","lat":43.3133,"lon":5.3971,"is_reserved":false,"is_disabled":false,"rental_uris":{"android":"levelo://app?vid=a0b45e31-054c-4b27-819d-dd6ddf99569b","ios":"levelo://app?vid=a0b45e31-054c-4b27-819d-dd6ddf99569b"},"vehicle_type_id":"4","last_reported":1758989464,"current_range_meters":4400,"station_id":"ce4bgvp2rcd13ifvqcu0","pricing_plan_id":"cebpf4jnsgd1na2vs0mg"},{"bike_id":"e9a3ffdc-4a59-4ce7-b372-349447f41b71","system_id":"levelo_inurba_marseille","lat":43.30308,"lon":5.368949,"is_reserved":false,"is_disabled":false,"rental_uris":{"android":"levelo://app?vid=e9a3ffdc-4a59-4ce7-b372-349447f41b71","ios":"levelo://app?vid=e9a3ffdc-4a59-4ce7-b372-349447f41b71"},"vehicle_type_id":"4","last_reported":1758989464,"current_range_meters":4400,"station_id":"ce4bgqh2rcd13ifvqc5g","pricing_plan_id":"cebpf4jnsgd1na2vs0mg"},{"bike_id":"9a819dc8-447d-4df7-8b5f-0b18332a26a7","system_id":"levelo_inurba_marseille","lat":43.33133,"lon":5.37591,"is_reserved":false,"is_disabled":false,"rental_uris":{"android":"levelo://app?vid=9a819dc8-447d-4df7-8b5f-0b18332a26a7","ios":"levelo://app?vid=9a819dc8-447d-4df7-8b5f-0b18332a26a7"},"vehicle_type_id":"4","last_reported":1758989464,"current_range_meters":4400,"station_id":"","pricing_plan_id":"cebpf4jnsgd1na2vs0mg"},{"bike_id":"02bdd513-8d8e-4cc7-baad-b0e202728243","system_id":"levelo_inurba_marseille","lat":43.276236,"lon":5.361101,"is_reserved":false,"is_disabled":false,"rental_uris":{"android":"levelo://app?vid=02bdd513-8d8e-4cc7-baad-b0e202728243","ios":"levelo://app?vid=02bdd513-8d8e-4cc7-baad-b0e202728243"},"vehicle_type_id":"4","last_reported":1758989464,"current_range_meters":4800,"station_id":"ce4bgj92rcd13ifvqbe0","pricing_plan_id":"cebpf4jnsgd1na2vs0mg"},{"bike_id":"20120ab6-58d8-4b2b-a155-1f015d656f79","system_id":"levelo_inurba_marseille","lat":43.27376,"lon":5.36262,"is_reserved":false,"is_disabled":false,"rental_uris":{"android":"levelo://app?vid=20120ab6-58d8-4b2b-a155-1f015d656f79","ios":"levelo://app?vid=20120ab6-58d8-4b2b-a155-1f015d656f79"},"vehicle_type_id":"4","last_reported":1758989464,"current_range_meters":4800,"station_id":"ce4bhbh2rcd13ifvqeo0","pricing_plan_id":"cebpf4jnsgd1na2vs0mg"},{"bike_id":"73f75474-3661-4de2-8aa6-381b40c2caa8","system_id":"levelo_inurba_marseille","lat":43.27385,"lon":5.36239,"is_reserved":false,"is_disabled":false,"rental_uris":{"android":"levelo://app?vid=73f75474-3661-4de2-8aa6-381b40c2caa8","ios":"levelo://app?vid=73f75474-3661-4de2-8aa6-381b40c2caa8"},"vehicle_type_id":"4","last_reported":1758989464,"current_range_meters":4800,"station_id":"ce4bhbh2rcd13ifvqeo0","pricing_plan_id":"cebpf4jnsgd1na2vs0mg"},{"bike_id":"74929098-cdb2-4dde-a24e-85f6691cd259","system_id":"levelo_inurba_marseille","lat":43.29774,"lon":5.37096,"is_reserved":false,"is_disabled":false,"rental_uris":{"android":"levelo://app?vid=74929098-cdb2-4dde-a24e-85f6691cd259","ios":"levelo://app?vid=74929098-cdb2-4dde-a24e-85f6691cd259"},"vehicle_type_id":"4","last_reported":1758989464,"current_range_meters":4800,"station_id":"ce4bgop2rcd13ifvqc1g","pricing_plan_id":"cebpf4jnsgd1na2vs0mg"},{"bike_id":"c7f6a08b-c655-4213-b2ba-7d02e7f382fe","system_id":"levelo_inurba_marseille","lat":43.27988,"lon":5.39483,"is_reserved":false,"is_disabled":false,"rental_uris":{"android":"levelo://app?vid=c7f6a08b-c655-4213-b2ba-7d02e7f382fe","ios":"levelo://app?vid=c7f6a08b-c655-4213-b2ba-7d02e7f382fe"},"vehicle_type_id":"4","last_reported":1758989464,"current_range_meters":4800,"station_id":"","pricing_plan_id":"cebpf4jnsgd1na2vs0mg"},{"bike_id":"eac99a50-856a-4fe4-a450-ec6a28bd5f31","system_id":"levelo_inurba_marseille","lat":43.258197,"lon":5.394424,"is_reserved":false,"is_disabled":false,"rental_uris":{"android":"levelo://app?vid=eac99a50-856a-4fe4-a450-ec6a28bd5f31","ios":"levelo://app?vid=eac99a50-856a-4fe4-a450-ec6a28bd5f31"},"vehicle_type_id":"4","last_reported":1758989464,"current_range_meters":4400,"station_id":"ce4bhip2rcd13ifvqft0","pricing_plan_id":"cebpf4jnsgd1na2vs0mg"},{"bike_id":"97e7fac6-4931-4b11-8961-5c9958f0276a","system_id":"levelo_inurba_marseille","lat":43.28853,"lon":5.3585,"is_reserved":false,"is_disabled":false,"rental_uris":{"android":"levelo://app?vid=97e7fac6-4931-4b11-8961-5c9958f0276a","ios":"levelo://app?vid=97e7fac6-4931-4b11-8961-5c9958f0276a"},"vehicle_type_id":"4","last_reported":1758989464,"current_range_meters":5600,"station_id":"ce4bhb12rcd13ifvqem0","pricing_plan_id":"cebpf4jnsgd1na2vs0mg"},{"bike_id":"69e21e98-33e9-440b-8a99-17d050471b55","system_id":"levelo_inurba_marseille","lat":43.28701,"lon":5.37393,"is_reserved":false,"is_disabled":false,"rental_uris":{"android":"levelo://app?vid=69e21e98-33e9-440b-8a99-17d050471b55","ios":"levelo://app?vid=69e21e98-33e9-440b-8a99-17d050471b55"},"vehicle_type_id":"4","last_reported":1758989464,"current_range_meters":5600,"station_id":"ce4bh3p2rcd13ifvqdq0","pricing_plan_id":"cebpf4jnsgd1na2vs0mg"},{"bike_id":"3ff019b4-f200-434f-bdbd-2de527b20d7e","system_id":"levelo_inurba_marseille","lat":43.21186,"lon":5.35082,"is_reserved":false,"is_disabled":false,"rental_uris":{"android":"levelo://app?vid=3ff019b4-f200-434f-bdbd-2de527b20d7e","ios":"levelo://app?vid=3ff019b4-f200-434f-bdbd-2de527b20d7e"},"vehicle_type_id":"4","last_reported":1758989464,"current_range_meters":5600,"station_id":"st_cvj6sg6p6f1abm77japg","pricing_plan_id":"cebpf4jnsgd1na2vs0mg"},{"bike_id":"a545129b-bca7-406e-8dfa-fe4988499198","system_id":"levelo_inurba_marseille","lat":43.29825,"lon":5.38774,"is_reserved":false,"is_disabled":false,"rental_uris":{"android":"levelo://app?vid=a545129b-bca7-406e-8dfa-fe4988499198","ios":"levelo://app?vid=a545129b-bca7-406e-8dfa-fe4988499198"},"vehicle_type_id":"4","last_reported":1758989464,"current_range_meters":5600,"station_id":"","pricing_plan_id":"cebpf4jnsgd1na2vs0mg"},{"bike_id":"496f183f-9b9d-47dd-95db-7f45946938bd","system_id":"levelo_inurba_marseille","lat":43.28928,"lon":5.3839,"is_reserved":false,"is_disabled":false,"rental_uris":{"android":"levelo://app?vid=496f183f-9b9d-47dd-95db-7f45946938bd","ios":"levelo://app?vid=496f183f-9b9d-47dd-95db-7f45946938bd"},"vehicle_type_id":"4","last_reported":1758989464,"current_range_meters":5600,"station_id":"ce4bh612rcd13ifvqe6g","pricing_plan_id":"cebpf4jnsgd1na2vs0mg"},{"bike_id":"1028cd2b-b4fc-4d5c-9515-2844e29f4322","system_id":"levelo_inurba_marseille","lat":43.225362,"lon":5.348472,"is_reserved":false,"is_disabled":false,"rental_uris":{"android":"levelo://app?vid=1028cd2b-b4fc-4d5c-9515-2844e29f4322","ios":"levelo://app?vid=1028cd2b-b4fc-4d5c-9515-2844e29f4322"},"vehicle_type_id":"4","last_reported":1758989464,"current_range_meters":6000,"station_id":"","pricing_plan_id":"cebpf4jnsgd1na2vs0mg"},{"bike_id":"b88364ae-dc29-4283-b231-b996696366a8","system_id":"levelo_inurba_marseille","lat":43.28107,"lon":5.3783,"is_reserved":false,"is_disabled":false,"rental_uris":{"android":"levelo://app?vid=b88364ae-dc29-4283-b231-b996696366a8","ios":"levelo://app?vid=b88364ae-dc29-4283-b231-b996696366a8"},"vehicle_type_id":"4","last_reported":1758989464,"current_range_meters":6000,"station_id":"ce4bha12rcd13ifvqee0","pricing_plan_id":"cebpf4jnsgd1na2vs0mg"},{"bike_id":"041cd397-24ab-4e04-af23-07b961e161f4","system_id":"levelo_inurba_marseille","lat":43.337444,"lon":5.374475,"is_reserved":false,"is_disabled":false,"rental_uris":{"android":"levelo://app?vid=041cd397-24ab-4e04-af23-07b961e161f4","ios":"levelo://app?vid=041cd397-24ab-4e04-af23-07b961e161f4"},"vehicle_type_id":"4","last_reported":1758989464,"current_range_meters":6000,"station_id":"","pricing_plan_id":"cebpf4jnsgd1na2vs0mg"},{"bike_id":"b32e83d9-42fc-4a2c-b182-9ad9888936c9","system_id":"levelo_inurba_marseille","lat":43.2952,"lon":5.39047,"is_reserved":false,"is_disabled":false,"rental_uris":{"android":"levelo://app?vid=b32e83d9-42fc-4a2c-b182-9ad9888936c9","ios":"levelo://app?vid=b32e83d9-42fc-4a2c-b182-9ad9888936c9"},"vehicle_type_id":"4","last_reported":1758989464,"current_range_meters":6000,"station_id":"ce4bh3p2rcd13ifvqdp0","pricing_plan_id":"cebpf4jnsgd1na2vs0mg"},{"bike_id":"a462cce2-9104-46a9-a432-ba7c3c35eb6a","system_id":"levelo_inurba_marseille","lat":43.27064,"lon":5.40254,"is_reserved":false,"is_disabled":true,"rental_uris":{"android":"levelo://app?vid=a462cce2-9104-46a9-a432-ba7c3c35eb6a","ios":"levelo://app?vid=a462cce2-9104-46a9-a432-ba7c3c35eb6a"},"vehicle_type_id":"4","last_reported":1758989464,"current_range_meters":6000,"station_id":"ce4bhk92rcd13ifvqgc0","pricing_plan_id":"cebpf4jnsgd1na2vs0mg"},{"bike_id":"aa58850c-2435-4f85-aa72-e529b3ba0a35","system_id":"levelo_inurba_marseille","lat":43.29717,"lon":5.37682,"is_reserved":false,"is_disabled":false,"rental_uris":{"android":"levelo://app?vid=aa58850c-2435-4f85-aa72-e529b3ba0a35","ios":"levelo://app?vid=aa58850c-2435-4f85-aa72-e529b3ba0a35"},"vehicle_type_id":"4","last_reported":1758989464,"current_range_meters":6000,"station_id":"ce4bgkh2rcd13ifvqbl0","pricing_plan_id":"cebpf4jnsgd1na2vs0mg"},{"bike_id":"9b2a4166-4bf6-4740-b018-82f7f5312a3d","system_id":"levelo_inurba_marseille","lat":43.26947,"lon":5.40252,"is_reserved":false,"is_disabled":true,"rental_uris":{"android":"levelo://app?vid=9b2a4166-4bf6-4740-b018-82f7f5312a3d","ios":"levelo://app?vid=9b2a4166-4bf6-4740-b018-82f7f5312a3d"},"vehicle_type_id":"4","last_reported":1758989464,"current_range_meters":6400,"station_id":"cjm6bp8fraef2m0cb0m0","pricing_plan_id":"cebpf4jnsgd1na2vs0mg"},{"bike_id":"69a56246-2281-4457-91e8-8fe23a573bf1","system_id":"levelo_inurba_marseille","lat":43.217442,"lon":5.346035,"is_reserved":false,"is_disabled":true,"rental_uris":{"android":"levelo://app?vid=69a56246-2281-4457-91e8-8fe23a573bf1","ios":"levelo://app?vid=69a56246-2281-4457-91e8-8fe23a573bf1"},"vehicle_type_id":"4","last_reported":1758989464,"current_range_meters":6400,"station_id":"","pricing_plan_id":"cebpf4jnsgd1na2vs0mg"},{"bike_id":"935f6820-c1da-430a-95c6-d78a54b9224d","system_id":"levelo_inurba_marseille","lat":43.31173,"lon":5.38711,"is_reserved":false,"is_disabled":false,"rental_uris":{"android":"levelo://app?vid=935f6820-c1da-430a-95c6-d78a54b9224d","ios":"levelo://app?vid=935f6820-c1da-430a-95c6-d78a54b9224d"},"vehicle_type_id":"4","last_reported":1758989464,"current_range_meters":8400,"station_id":"ce4bgv12rcd13ifvqcp0","pricing_plan_id":"cebpf4jnsgd1na2vs0mg"},{"bike_id":"efd54d4a-b0c0-4820-8e11-c8a48b8d7adf","system_id":"levelo_inurba_marseille","lat":43.31261,"lon":5.40168,"is_reserved":false,"is_disabled":false,"rental_uris":{"android":"levelo://app?vid=efd54d4a-b0c0-4820-8e11-c8a48b8d7adf","ios":"levelo://app?vid=efd54d4a-b0c0-4820-8e11-c8a48b8d7adf"},"vehicle_type_id":"4","last_reported":1758989464,"current_range_meters":6400,"station_id":"ce4bh092rcd13ifvqd30","pricing_plan_id":"cebpf4jnsgd1na2vs0mg"},{"bike_id":"174dfb4f-f618-4c2f-be1c-ae0d6b405e94","system_id":"levelo_inurba_marseille","lat":43.29694,"lon":5.3827,"is_reserved":false,"is_disabled":false,"rental_uris":{"android":"levelo://app?vid=174dfb4f-f618-4c2f-be1c-ae0d6b405e94","ios":"levelo://app?vid=174dfb4f-f618-4c2f-be1c-ae0d6b405e94"},"vehicle_type_id":"4","last_reported":1758989464,"current_range_meters":6800,"station_id":"","pricing_plan_id":"cebpf4jnsgd1na2vs0mg"},{"bike_id":"4ea066be-d5c0-4685-b39a-612a810bdfbb","system_id":"levelo_inurba_marseille","lat":43.33779,"lon":5.37471,"is_reserved":false,"is_disabled":true,"rental_uris":{"android":"levelo://app?vid=4ea066be-d5c0-4685-b39a-612a810bdfbb","ios":"levelo://app?vid=4ea066be-d5c0-4685-b39a-612a810bdfbb"},"vehicle_type_id":"4","last_reported":1758989464,"current_range_meters":6800,"station_id":"","pricing_plan_id":"cebpf4jnsgd1na2vs0mg"},{"bike_id":"4dc02874-c8d3-4dc1-a99b-3ac3af8c45fa","system_id":"levelo_inurba_marseille","lat":43.2984,"lon":5.362711,"is_reserved":false,"is_disabled":false,"rental_uris":{"android":"levelo://app?vid=4dc02874-c8d3-4dc1-a99b-3ac3af8c45fa","ios":"levelo://app?vid=4dc02874-c8d3-4dc1-a99b-3ac3af8c45fa"},"vehicle_type_id":"4","last_reported":1758989464,"current_range_meters":10800,"station_id":"ce4bgpp2rcd13ifvqc3g","pricing_plan_id":"cebpf4jnsgd1na2vs0mg"},{"bike_id":"447addac-8e25-4dd1-8da9-cfe9267e63da","system_id":"levelo_inurba_marseille","lat":43.29254,"lon":5.37624,"is_reserved":false,"is_disabled":false,"rental_uris":{"android":"levelo://app?vid=447addac-8e25-4dd1-8da9-cfe9267e63da","ios":"levelo://app?vid=447addac-8e25-4dd1-8da9-cfe9267e63da"},"vehicle_type_id":"4","last_reported":1758989464,"current_range_meters":6800,"station_id":"ce4bgi12rcd13ifvqb80","pricing_plan_id":"cebpf4jnsgd1na2vs0mg"},{"bike_id":"a4cd1a6d-1935-425b-ba9b-27e62fd92b4e","system_id":"levelo_inurba_marseille","lat":43.29808,"lon":5.38101,"is_reserved":false,"is_disabled":false,"rental_uris":{"android":"levelo://app?vid=a4cd1a6d-1935-425b-ba9b-27e62fd92b4e","ios":"levelo://app?vid=a4cd1a6d-1935-425b-ba9b-27e62fd92b4e"},"vehicle_type_id":"4","last_reported":1758989464,"current_range_meters":8000,"station_id":"ce4bgip2rcd13ifvqbb0","pricing_plan_id":"cebpf4jnsgd1na2vs0mg"},{"bike_id":"c2207658-b923-4a8f-a2fa-281c17511191","system_id":"levelo_inurba_marseille","lat":43.32438,"lon":5.36575,"is_reserved":false,"is_disabled":false,"rental_uris":{"android":"levelo://app?vid=c2207658-b923-4a8f-a2fa-281c17511191","ios":"levelo://app?vid=c2207658-b923-4a8f-a2fa-281c17511191"},"vehicle_type_id":"4","last_reported":1758989464,"current_range_meters":7200,"station_id":"ce4bhs12rcd13ifvqhvg","pricing_plan_id":"cebpf4jnsgd1na2vs0mg"},{"bike_id":"b67db890-0124-4ecf-9db3-c8faf7a58551","system_id":"levelo_inurba_marseille","lat":43.29566,"lon":5.37529,"is_reserved":false,"is_disabled":false,"rental_uris":{"android":"levelo://app?vid=b67db890-0124-4ecf-9db3-c8faf7a58551","ios":"levelo://app?vid=b67db890-0124-4ecf-9db3-c8faf7a58551"},"vehicle_type_id":"4","last_reported":1758989464,"current_range_meters":7200,"station_id":"ce4bgh92rcd13ifvqb50","pricing_plan_id":"cebpf4jnsgd1na2vs0mg"},{"bike_id":"5365e873-98ea-45e2-9689-7e119051f22e","system_id":"levelo_inurba_marseille","lat":43.32493,"lon":5.39406,"is_reserved":false,"is_disabled":false,"rental_uris":{"android":"levelo://app?vid=5365e873-98ea-45e2-9689-7e119051f22e","ios":"levelo://app?vid=5365e873-98ea-45e2-9689-7e119051f22e"},"vehicle_type_id":"4","last_reported":1758989464,"current_range_meters":8000,"station_id":"","pricing_plan_id":"cebpf4jnsgd1na2vs0mg"},{"bike_id":"f2fd2284-837d-45c8-8a92-163c2aa30979","system_id":"levelo_inurba_marseille","lat":43.26935,"lon":5.38921,"is_reserved":false,"is_disabled":false,"rental_uris":{"android":"levelo://app?vid=f2fd2284-837d-45c8-8a92-163c2aa30979","ios":"levelo://app?vid=f2fd2284-837d-45c8-8a92-163c2aa30979"},"vehicle_type_id":"4","last_reported":1758989464,"current_range_meters":12000,"station_id":"ce4bhhh2rcd13ifvqfl0","pricing_plan_id":"cebpf4jnsgd1na2vs0mg"},{"bike_id":"d2b4ac83-91e6-46fb-9929-4b55b0b2c4f5","system_id":"levelo_inurba_marseille","lat":43.25712,"lon":5.41118,"is_reserved":false,"is_disabled":false,"rental_uris":{"android":"levelo://app?vid=d2b4ac83-91e6-46fb-9929-4b55b0b2c4f5","ios":"levelo://app?vid=d2b4ac83-91e6-46fb-9929-4b55b0b2c4f5"},"vehicle_type_id":"4","last_reported":1758989464,"current_range_meters":8000,"station_id":"ce4bhkp2rcd13ifvqgd0","pricing_plan_id":"cebpf4jnsgd1na2vs0mg"},{"bike_id":"f1ae0291-3423-4759-b406-490a4ce4e0cc","system_id":"levelo_inurba_marseille","lat":43.29536,"lon":5.37508,"is_reserved":false,"is_disabled":false,"rental_uris":{"android":"levelo://app?vid=f1ae0291-3423-4759-b406-490a4ce4e0cc","ios":"levelo://app?vid=f1ae0291-3423-4759-b406-490a4ce4e0cc"},"vehicle_type_id":"4","last_reported":1758989464,"current_range_meters":8000,"station_id":"ce4bgkp2rcd13ifvqbmg","pricing_plan_id":"cebpf4jnsgd1na2vs0mg"},{"bike_id":"210f36fd-25cb-46d1-85ef-606d6e6d198a","system_id":"levelo_inurba_marseille","lat":43.28664,"lon":5.38667,"is_reserved":false,"is_disabled":false,"rental_uris":{"android":"levelo://app?vid=210f36fd-25cb-46d1-85ef-606d6e6d198a","ios":"levelo://app?vid=210f36fd-25cb-46d1-85ef-606d6e6d198a"},"vehicle_type_id":"4","last_reported":1758989464,"current_range_meters":8400,"station_id":"ce4bh492rcd13ifvqdug","pricing_plan_id":"cebpf4jnsgd1na2vs0mg"},{"bike_id":"cd5332c8-b7a4-42d8-bbee-d21346d785c0","system_id":"levelo_inurba_marseille","lat":43.32479,"lon":5.36565,"is_reserved":false,"is_disabled":false,"rental_uris":{"android":"levelo://app?vid=cd5332c8-b7a4-42d8-bbee-d21346d785c0","ios":"levelo://app?vid=cd5332c8-b7a4-42d8-bbee-d21346d785c0"},"vehicle_type_id":"4","last_reported":1758989464,"current_range_meters":8400,"station_id":"ce4bhs12rcd13ifvqhvg","pricing_plan_id":"cebpf4jnsgd1na2vs0mg"},{"bike_id":"406b8c14-7bb2-43d9-8dae-0854a0cb6a91","system_id":"levelo_inurba_marseille","lat":43.29968,"lon":5.38501,"is_reserved":false,"is_disabled":false,"rental_uris":{"android":"levelo://app?vid=406b8c14-7bb2-43d9-8dae-0854a0cb6a91","ios":"levelo://app?vid=406b8c14-7bb2-43d9-8dae-0854a0cb6a91"},"vehicle_type_id":"4","last_reported":1758989464,"current_range_meters":8400,"station_id":"ce4bgj92rcd13ifvqbd0","pricing_plan_id":"cebpf4jnsgd1na2vs0mg"},{"bike_id":"66172b70-3b90-4a81-bee4-3cfad56dc805","system_id":"levelo_inurba_marseille","lat":43.28613,"lon":5.35125,"is_reserved":false,"is_disabled":false,"rental_uris":{"android":"levelo://app?vid=66172b70-3b90-4a81-bee4-3cfad56dc805","ios":"levelo://app?vid=66172b70-3b90-4a81-bee4-3cfad56dc805"},"vehicle_type_id":"4","last_reported":1758989464,"current_range_meters":8400,"station_id":"ce4bhch2rcd13ifvqeug","pricing_plan_id":"cebpf4jnsgd1na2vs0mg"},{"bike_id":"426b39e4-d7df-46d7-aeee-7f25c2926610","system_id":"levelo_inurba_marseille","lat":43.29905,"lon":5.37466,"is_reserved":false,"is_disabled":false,"rental_uris":{"android":"levelo://app?vid=426b39e4-d7df-46d7-aeee-7f25c2926610","ios":"levelo://app?vid=426b39e4-d7df-46d7-aeee-7f25c2926610"},"vehicle_type_id":"4","last_reported":1758989464,"current_range_meters":8400,"station_id":"ce4bgjh2rcd13ifvqbg0","pricing_plan_id":"cebpf4jnsgd1na2vs0mg"},{"bike_id":"faf02625-6786-4c0f-abba-1b45e1f62f19","system_id":"levelo_inurba_marseille","lat":43.30888,"lon":5.39656,"is_reserved":false,"is_disabled":false,"rental_uris":{"android":"levelo://app?vid=faf02625-6786-4c0f-abba-1b45e1f62f19","ios":"levelo://app?vid=faf02625-6786-4c0f-abba-1b45e1f62f19"},"vehicle_type_id":"4","last_reported":1758989464,"current_range_meters":8000,"station_id":"ce4bh012rcd13ifvqcv0","pricing_plan_id":"cebpf4jnsgd1na2vs0mg"},{"bike_id":"7f48d8de-b431-4696-8ac1-a307455b6d23","system_id":"levelo_inurba_marseille","lat":43.29573,"lon":5.39975,"is_reserved":false,"is_disabled":false,"rental_uris":{"android":"levelo://app?vid=7f48d8de-b431-4696-8ac1-a307455b6d23","ios":"levelo://app?vid=7f48d8de-b431-4696-8ac1-a307455b6d23"},"vehicle_type_id":"4","last_reported":1758989464,"current_range_meters":8000,"station_id":"ce4bh312rcd13ifvqdj0","pricing_plan_id":"cebpf4jnsgd1na2vs0mg"},{"bike_id":"c94bfcf1-4c54-42b6-a813-73cc5e4fdc40","system_id":"levelo_inurba_marseille","lat":43.25118,"lon":5.39491,"is_reserved":false,"is_disabled":false,"rental_uris":{"android":"levelo://app?vid=c94bfcf1-4c54-42b6-a813-73cc5e4fdc40","ios":"levelo://app?vid=c94bfcf1-4c54-42b6-a813-73cc5e4fdc40"},"vehicle_type_id":"4","last_reported":1758989464,"current_range_meters":4800,"station_id":"ce4bhm12rcd13ifvqgkg","pricing_plan_id":"cebpf4jnsgd1na2vs0mg"},{"bike_id":"a639c491-c436-478a-8d5d-bd2c30b918ff","system_id":"levelo_inurba_marseille","lat":43.2975,"lon":5.37221,"is_reserved":false,"is_disabled":false,"rental_uris":{"android":"levelo://app?vid=a639c491-c436-478a-8d5d-bd2c30b918ff","ios":"levelo://app?vid=a639c491-c436-478a-8d5d-bd2c30b918ff"},"vehicle_type_id":"4","last_reported":1758989464,"current_range_meters":8400,"station_id":"","pricing_plan_id":"cebpf4jnsgd1na2vs0mg"},{"bike_id":"b927734a-912c-4aa6-8dcd-e4d213a21c36","system_id":"levelo_inurba_marseille","lat":43.30433,"lon":5.39748,"is_reserved":false,"is_disabled":false,"rental_uris":{"android":"levelo://app?vid=b927734a-912c-4aa6-8dcd-e4d213a21c36","ios":"levelo://app?vid=b927734a-912c-4aa6-8dcd-e4d213a21c36"},"vehicle_type_id":"4","last_reported":1758989464,"current_range_meters":8400,"station_id":"ce4bh092rcd13ifvqd20","pricing_plan_id":"cebpf4jnsgd1na2vs0mg"},{"bike_id":"0fa0733f-b353-4ed2-b432-2a22b5fec3f1","system_id":"levelo_inurba_marseille","lat":43.289411,"lon":5.363917,"is_reserved":false,"is_disabled":false,"rental_uris":{"android":"levelo://app?vid=0fa0733f-b353-4ed2-b432-2a22b5fec3f1","ios":"levelo://app?vid=0fa0733f-b353-4ed2-b432-2a22b5fec3f1"},"vehicle_type_id":"4","last_reported":1758989464,"current_range_meters":8400,"station_id":"ce4bhc92rcd13ifvqetg","pricing_plan_id":"cebpf4jnsgd1na2vs0mg"},{"bike_id":"f3de6033-708e-4697-b394-3b73bc1c655b","system_id":"levelo_inurba_marseille","lat":43.29537,"lon":5.38567,"is_reserved":false,"is_disabled":false,"rental_uris":{"android":"levelo://app?vid=f3de6033-708e-4697-b394-3b73bc1c655b","ios":"levelo://app?vid=f3de6033-708e-4697-b394-3b73bc1c655b"},"vehicle_type_id":"4","last_reported":1758989464,"current_range_meters":1600,"station_id":"ce4bgih2rcd13ifvqba0","pricing_plan_id":"cebpf4jnsgd1na2vs0mg"},{"bike_id":"671bebd3-b2c6-4fbf-a748-c0773669b1aa","system_id":"levelo_inurba_marseille","lat":43.2621,"lon":5.40449,"is_reserved":false,"is_disabled":false,"rental_uris":{"android":"levelo://app?vid=671bebd3-b2c6-4fbf-a748-c0773669b1aa","ios":"levelo://app?vid=671bebd3-b2c6-4fbf-a748-c0773669b1aa"},"vehicle_type_id":"4","last_reported":1758989464,"current_range_meters":8800,"station_id":"ce4bhmh2rcd13ifvqgmg","pricing_plan_id":"cebpf4jnsgd1na2vs0mg"},{"bike_id":"2907de3a-cdb7-4c49-945b-9d4546080cdd","system_id":"levelo_inurba_marseille","lat":43.29489,"lon":5.36249,"is_reserved":false,"is_disabled":false,"rental_uris":{"android":"levelo://app?vid=2907de3a-cdb7-4c49-945b-9d4546080cdd","ios":"levelo://app?vid=2907de3a-cdb7-4c49-945b-9d4546080cdd"},"vehicle_type_id":"4","last_reported":1758989464,"current_range_meters":8800,"station_id":"","pricing_plan_id":"cebpf4jnsgd1na2vs0mg"},{"bike_id":"08fe2b08-b3fa-43f8-ae73-04061f76318d","system_id":"levelo_inurba_marseille","lat":43.305552,"lon":5.365395,"is_reserved":false,"is_disabled":false,"rental_uris":{"android":"levelo://app?vid=08fe2b08-b3fa-43f8-ae73-04061f76318d","ios":"levelo://app?vid=08fe2b08-b3fa-43f8-ae73-04061f76318d"},"vehicle_type_id":"4","last_reported":1758989464,"current_range_meters":8800,"station_id":"","pricing_plan_id":"cebpf4jnsgd1na2vs0mg"},{"bike_id":"907ed216-30a4-406f-ae2e-0197aba3ed23","system_id":"levelo_inurba_marseille","lat":43.21191,"lon":5.35049,"is_reserved":false,"is_disabled":false,"rental_uris":{"android":"levelo://app?vid=907ed216-30a4-406f-ae2e-0197aba3ed23","ios":"levelo://app?vid=907ed216-30a4-406f-ae2e-0197aba3ed23"},"vehicle_type_id":"4","last_reported":1758989464,"current_range_meters":8800,"station_id":"st_cvj6sg6p6f1abm77japg","pricing_plan_id":"cebpf4jnsgd1na2vs0mg"},{"bike_id":"a7d804d7-564e-449f-b21d-721c609486ef","system_id":"levelo_inurba_marseille","lat":43.27619,"lon":5.36099,"is_reserved":false,"is_disabled":false,"rental_uris":{"android":"levelo://app?vid=a7d804d7-564e-449f-b21d-721c609486ef","ios":"levelo://app?vid=a7d804d7-564e-449f-b21d-721c609486ef"},"vehicle_type_id":"4","last_reported":1758989464,"current_range_meters":8800,"station_id":"ce4bgj92rcd13ifvqbe0","pricing_plan_id":"cebpf4jnsgd1na2vs0mg"},{"bike_id":"c3fe7d43-61d7-483c-9ade-516d24794cef","system_id":"levelo_inurba_marseille","lat":43.29895,"lon":5.39774,"is_reserved":false,"is_disabled":false,"rental_uris":{"android":"levelo://app?vid=c3fe7d43-61d7-483c-9ade-516d24794cef","ios":"levelo://app?vid=c3fe7d43-61d7-483c-9ade-516d24794cef"},"vehicle_type_id":"4","last_reported":1758989464,"current_range_meters":9200,"station_id":"","pricing_plan_id":"cebpf4jnsgd1na2vs0mg"},{"bike_id":"fc742547-dc1a-49b0-86fb-deede054da76","system_id":"levelo_inurba_marseille","lat":43.31324,"lon":5.39716,"is_reserved":false,"is_disabled":false,"rental_uris":{"android":"levelo://app?vid=fc742547-dc1a-49b0-86fb-deede054da76","ios":"levelo://app?vid=fc742547-dc1a-49b0-86fb-deede054da76"},"vehicle_type_id":"4","last_reported":1758989464,"current_range_meters":9200,"station_id":"ce4bgvp2rcd13ifvqcu0","pricing_plan_id":"cebpf4jnsgd1na2vs0mg"},{"bike_id":"246297d4-63c1-42f9-b934-8648f1d20289","system_id":"levelo_inurba_marseille","lat":43.267818,"lon":5.394159,"is_reserved":false,"is_disabled":false,"rental_uris":{"android":"levelo://app?vid=246297d4-63c1-42f9-b934-8648f1d20289","ios":"levelo://app?vid=246297d4-63c1-42f9-b934-8648f1d20289"},"vehicle_type_id":"4","last_reported":1758989464,"current_range_meters":9200,"station_id":"ce4bhh12rcd13ifvqfg0","pricing_plan_id":"cebpf4jnsgd1na2vs0mg"},{"bike_id":"1fba993d-6195-45ea-878c-d51bdaf1fb1c","system_id":"levelo_inurba_marseille","lat":43.30088,"lon":5.39069,"is_reserved":false,"is_disabled":false,"rental_uris":{"android":"levelo://app?vid=1fba993d-6195-45ea-878c-d51bdaf1fb1c","ios":"levelo://app?vid=1fba993d-6195-45ea-878c-d51bdaf1fb1c"},"vehicle_type_id":"4","last_reported":1758989464,"current_range_meters":8800,"station_id":"ce4bh192rcd13ifvqdb0","pricing_plan_id":"cebpf4jnsgd1na2vs0mg"},{"bike_id":"443f7dc3-4c35-4975-a8f4-b6a0ee79874b","system_id":"levelo_inurba_marseille","lat":43.29232,"lon":5.37202,"is_reserved":false,"is_disabled":false,"rental_uris":{"android":"levelo://app?vid=443f7dc3-4c35-4975-a8f4-b6a0ee79874b","ios":"levelo://app?vid=443f7dc3-4c35-4975-a8f4-b6a0ee79874b"},"vehicle_type_id":"4","last_reported":1758989464,"current_range_meters":9200,"station_id":"","pricing_plan_id":"cebpf4jnsgd1na2vs0mg"},{"bike_id":"8e385f69-4a89-4bf0-86a4-c68fbcf7e1cb","system_id":"levelo_inurba_marseille","lat":43.225324,"lon":5.348325,"is_reserved":false,"is_disabled":false,"rental_uris":{"android":"levelo://app?vid=8e385f69-4a89-4bf0-86a4-c68fbcf7e1cb","ios":"levelo://app?vid=8e385f69-4a89-4bf0-86a4-c68fbcf7e1cb"},"vehicle_type_id":"4","last_reported":1758989464,"current_range_meters":9200,"station_id":"","pricing_plan_id":"cebpf4jnsgd1na2vs0mg"},{"bike_id":"e6b18fbc-a69b-4e65-a79d-e00262726cb3","system_id":"levelo_inurba_marseille","lat":43.29756,"lon":5.37085,"is_reserved":false,"is_disabled":false,"rental_uris":{"android":"levelo://app?vid=e6b18fbc-a69b-4e65-a79d-e00262726cb3","ios":"levelo://app?vid=e6b18fbc-a69b-4e65-a79d-e00262726cb3"},"vehicle_type_id":"4","last_reported":1758989464,"current_range_meters":9200,"station_id":"ce4bgop2rcd13ifvqc1g","pricing_plan_id":"cebpf4jnsgd1na2vs0mg"},{"bike_id":"6a2d53b2-62eb-4890-980a-12b3b134069b","system_id":"levelo_inurba_marseille","lat":43.27966,"lon":5.3875,"is_reserved":false,"is_disabled":false,"rental_uris":{"android":"levelo://app?vid=6a2d53b2-62eb-4890-980a-12b3b134069b","ios":"levelo://app?vid=6a2d53b2-62eb-4890-980a-12b3b134069b"},"vehicle_type_id":"4","last_reported":1758989464,"current_range_meters":9200,"station_id":"ce4bhg12rcd13ifvqf80","pricing_plan_id":"cebpf4jnsgd1na2vs0mg"},{"bike_id":"7b65e264-2dd9-4f1a-9195-0dbc1cf0a026","system_id":"levelo_inurba_marseille","lat":43.27999,"lon":5.4001,"is_reserved":false,"is_disabled":false,"rental_uris":{"android":"levelo://app?vid=7b65e264-2dd9-4f1a-9195-0dbc1cf0a026","ios":"levelo://app?vid=7b65e264-2dd9-4f1a-9195-0dbc1cf0a026"},"vehicle_type_id":"4","last_reported":1758989464,"current_range_meters":9200,"station_id":"ce4bho92rcd13ifvqh4g","pricing_plan_id":"cebpf4jnsgd1na2vs0mg"},{"bike_id":"5f657238-3924-4edf-9381-8ddeee15c693","system_id":"levelo_inurba_marseille","lat":43.225334,"lon":5.348386,"is_reserved":false,"is_disabled":false,"rental_uris":{"android":"levelo://app?vid=5f657238-3924-4edf-9381-8ddeee15c693","ios":"levelo://app?vid=5f657238-3924-4edf-9381-8ddeee15c693"},"vehicle_type_id":"4","last_reported":1758989464,"current_range_meters":9600,"station_id":"","pricing_plan_id":"cebpf4jnsgd1na2vs0mg"},{"bike_id":"ff5013a8-54e8-4972-9f44-2abd03faad1b","system_id":"levelo_inurba_marseille","lat":43.26786,"lon":5.39408,"is_reserved":false,"is_disabled":false,"rental_uris":{"android":"levelo://app?vid=ff5013a8-54e8-4972-9f44-2abd03faad1b","ios":"levelo://app?vid=ff5013a8-54e8-4972-9f44-2abd03faad1b"},"vehicle_type_id":"4","last_reported":1758989464,"current_range_meters":9600,"station_id":"ce4bhh12rcd13ifvqfg0","pricing_plan_id":"cebpf4jnsgd1na2vs0mg"},{"bike_id":"ee96a502-9b76-492e-840a-498b02aefe72","system_id":"levelo_inurba_marseille","lat":43.32316,"lon":5.39236,"is_reserved":false,"is_disabled":false,"rental_uris":{"android":"levelo://app?vid=ee96a502-9b76-492e-840a-498b02aefe72","ios":"levelo://app?vid=ee96a502-9b76-492e-840a-498b02aefe72"},"vehicle_type_id":"4","last_reported":1758989464,"current_range_meters":9600,"station_id":"","pricing_plan_id":"cebpf4jnsgd1na2vs0mg"},{"bike_id":"fee74e98-eb52-4f66-a612-109c75f34aa6","system_id":"levelo_inurba_marseille","lat":43.296216,"lon":5.379492,"is_reserved":false,"is_disabled":false,"rental_uris":{"android":"levelo://app?vid=fee74e98-eb52-4f66-a612-109c75f34aa6","ios":"levelo://app?vid=fee74e98-eb52-4f66-a612-109c75f34aa6"},"vehicle_type_id":"4","last_reported":1758989464,"current_range_meters":9600,"station_id":"","pricing_plan_id":"cebpf4jnsgd1na2vs0mg"},{"bike_id":"b0d30dea-9bba-43fb-af8a-a1aa605bba1e","system_id":"levelo_inurba_marseille","lat":43.31166,"lon":5.38711,"is_reserved":false,"is_disabled":false,"rental_uris":{"android":"levelo://app?vid=b0d30dea-9bba-43fb-af8a-a1aa605bba1e","ios":"levelo://app?vid=b0d30dea-9bba-43fb-af8a-a1aa605bba1e"},"vehicle_type_id":"4","last_reported":1758989464,"current_range_meters":10000,"station_id":"ce4bgv12rcd13ifvqcp0","pricing_plan_id":"cebpf4jnsgd1na2vs0mg"},{"bike_id":"5d6dc587-8a83-4e90-b8b6-4de186a7e1ae","system_id":"levelo_inurba_marseille","lat":43.29528,"lon":5.37502,"is_reserved":false,"is_disabled":false,"rental_uris":{"android":"levelo://app?vid=5d6dc587-8a83-4e90-b8b6-4de186a7e1ae","ios":"levelo://app?vid=5d6dc587-8a83-4e90-b8b6-4de186a7e1ae"},"vehicle_type_id":"4","last_reported":1758989464,"current_range_meters":10000,"station_id":"ce4bgkp2rcd13ifvqbmg","pricing_plan_id":"cebpf4jnsgd1na2vs0mg"},{"bike_id":"2d3b8513-f115-44d2-91ce-e6d4527cb68b","system_id":"levelo_inurba_marseille","lat":43.284361,"lon":5.392035,"is_reserved":false,"is_disabled":false,"rental_uris":{"android":"levelo://app?vid=2d3b8513-f115-44d2-91ce-e6d4527cb68b","ios":"levelo://app?vid=2d3b8513-f115-44d2-91ce-e6d4527cb68b"},"vehicle_type_id":"4","last_reported":1758989464,"current_range_meters":9600,"station_id":"ce4bhoh2rcd13ifvqh5g","pricing_plan_id":"cebpf4jnsgd1na2vs0mg"},{"bike_id":"8360fe96-8a6b-4a67-9ba4-0ef948b002e1","system_id":"levelo_inurba_marseille","lat":43.2502,"lon":5.38919,"is_reserved":false,"is_disabled":false,"rental_uris":{"android":"levelo://app?vid=8360fe96-8a6b-4a67-9ba4-0ef948b002e1","ios":"levelo://app?vid=8360fe96-8a6b-4a67-9ba4-0ef948b002e1"},"vehicle_type_id":"4","last_reported":1758989464,"current_range_meters":10000,"station_id":"ce4bhgp2rcd13ifvqfd0","pricing_plan_id":"cebpf4jnsgd1na2vs0mg"},{"bike_id":"94865407-fcc1-441b-83d9-c95d97858f98","system_id":"levelo_inurba_marseille","lat":43.29977,"lon":5.3849,"is_reserved":false,"is_disabled":false,"rental_uris":{"android":"levelo://app?vid=94865407-fcc1-441b-83d9-c95d97858f98","ios":"levelo://app?vid=94865407-fcc1-441b-83d9-c95d97858f98"},"vehicle_type_id":"4","last_reported":1758989464,"current_range_meters":9600,"station_id":"ce4bgj92rcd13ifvqbd0","pricing_plan_id":"cebpf4jnsgd1na2vs0mg"},{"bike_id":"6c00a6a0-3cf0-48a9-b218-0693fab11be9","system_id":"levelo_inurba_marseille","lat":43.30283,"lon":5.43518,"is_reserved":false,"is_disabled":false,"rental_uris":{"android":"levelo://app?vid=6c00a6a0-3cf0-48a9-b218-0693fab11be9","ios":"levelo://app?vid=6c00a6a0-3cf0-48a9-b218-0693fab11be9"},"vehicle_type_id":"4","last_reported":1758989464,"current_range_meters":10000,"station_id":"","pricing_plan_id":"cebpf4jnsgd1na2vs0mg"},{"bike_id":"8ff5ff83-daaa-4f03-8f2b-0ac35b4c1b71","system_id":"levelo_inurba_marseille","lat":43.282593,"lon":5.351289,"is_reserved":false,"is_disabled":false,"rental_uris":{"android":"levelo://app?vid=8ff5ff83-daaa-4f03-8f2b-0ac35b4c1b71","ios":"levelo://app?vid=8ff5ff83-daaa-4f03-8f2b-0ac35b4c1b71"},"vehicle_type_id":"4","last_reported":1758989464,"current_range_meters":10000,"station_id":"ce4bhbp2rcd13ifvqerg","pricing_plan_id":"cebpf4jnsgd1na2vs0mg"},{"bike_id":"fd4b5ad5-2581-44dd-90b2-f4a8fbdc2423","system_id":"levelo_inurba_marseille","lat":43.299011,"lon":5.364989,"is_reserved":false,"is_disabled":false,"rental_uris":{"android":"levelo://app?vid=fd4b5ad5-2581-44dd-90b2-f4a8fbdc2423","ios":"levelo://app?vid=fd4b5ad5-2581-44dd-90b2-f4a8fbdc2423"},"vehicle_type_id":"4","last_reported":1758989464,"current_range_meters":10000,"station_id":"","pricing_plan_id":"cebpf4jnsgd1na2vs0mg"},{"bike_id":"f3151610-a048-4861-85b9-1cf18cd16361","system_id":"levelo_inurba_marseille","lat":43.31169,"lon":5.38717,"is_reserved":false,"is_disabled":false,"rental_uris":{"android":"levelo://app?vid=f3151610-a048-4861-85b9-1cf18cd16361","ios":"levelo://app?vid=f3151610-a048-4861-85b9-1cf18cd16361"},"vehicle_type_id":"4","last_reported":1758989464,"current_range_meters":10000,"station_id":"ce4bgv12rcd13ifvqcp0","pricing_plan_id":"cebpf4jnsgd1na2vs0mg"},{"bike_id":"9743fd3d-b83a-49fe-b055-16ed840cdbf1","system_id":"levelo_inurba_marseille","lat":43.299411,"lon":5.385201,"is_reserved":false,"is_disabled":true,"rental_uris":{"android":"levelo://app?vid=9743fd3d-b83a-49fe-b055-16ed840cdbf1","ios":"levelo://app?vid=9743fd3d-b83a-49fe-b055-16ed840cdbf1"},"vehicle_type_id":"4","last_reported":1758989464,"current_range_meters":10000,"station_id":"","pricing_plan_id":"cebpf4jnsgd1na2vs0mg"},{"bike_id":"a9303ec6-75c6-47ec-a51f-999d2dc03466","system_id":"levelo_inurba_marseille","lat":43.29611,"lon":5.376961,"is_reserved":false,"is_disabled":false,"rental_uris":{"android":"levelo://app?vid=a9303ec6-75c6-47ec-a51f-999d2dc03466","ios":"levelo://app?vid=a9303ec6-75c6-47ec-a51f-999d2dc03466"},"vehicle_type_id":"4","last_reported":1758989464,"current_range_meters":10000,"station_id":"ce4bgi92rcd13ifvqb90","pricing_plan_id":"cebpf4jnsgd1na2vs0mg"},{"bike_id":"0bc80af1-335b-46de-ba5f-b3b4618114de","system_id":"levelo_inurba_marseille","lat":43.24805,"lon":5.37453,"is_reserved":false,"is_disabled":false,"rental_uris":{"android":"levelo://app?vid=0bc80af1-335b-46de-ba5f-b3b4618114de","ios":"levelo://app?vid=0bc80af1-335b-46de-ba5f-b3b4618114de"},"vehicle_type_id":"4","last_reported":1758989464,"current_range_meters":9600,"station_id":"ce4bhgh2rcd13ifvqfb0","pricing_plan_id":"cebpf4jnsgd1na2vs0mg"},{"bike_id":"04e30bb2-0571-4c84-ab07-3479db5285fc","system_id":"levelo_inurba_marseille","lat":43.32342,"lon":5.40623,"is_reserved":false,"is_disabled":false,"rental_uris":{"android":"levelo://app?vid=04e30bb2-0571-4c84-ab07-3479db5285fc","ios":"levelo://app?vid=04e30bb2-0571-4c84-ab07-3479db5285fc"},"vehicle_type_id":"4","last_reported":1758989464,"current_range_meters":10000,"station_id":"ce4bhq92rcd13ifvqhjg","pricing_plan_id":"cebpf4jnsgd1na2vs0mg"},{"bike_id":"78016573-abad-4982-9ada-25302089db70","system_id":"levelo_inurba_marseille","lat":43.30432,"lon":5.3975,"is_reserved":false,"is_disabled":false,"rental_uris":{"android":"levelo://app?vid=78016573-abad-4982-9ada-25302089db70","ios":"levelo://app?vid=78016573-abad-4982-9ada-25302089db70"},"vehicle_type_id":"4","last_reported":1758989464,"current_range_meters":10000,"station_id":"ce4bh092rcd13ifvqd20","pricing_plan_id":"cebpf4jnsgd1na2vs0mg"},{"bike_id":"63d52c35-c9c9-44eb-9780-1b2f9145123b","system_id":"levelo_inurba_marseille","lat":43.29627,"lon":5.377037,"is_reserved":false,"is_disabled":false,"rental_uris":{"android":"levelo://app?vid=63d52c35-c9c9-44eb-9780-1b2f9145123b","ios":"levelo://app?vid=63d52c35-c9c9-44eb-9780-1b2f9145123b"},"vehicle_type_id":"4","last_reported":1758989464,"current_range_meters":10800,"station_id":"","pricing_plan_id":"cebpf4jnsgd1na2vs0mg"},{"bike_id":"fd7db3b2-bf6f-47a6-a193-d9e54fb8924d","system_id":"levelo_inurba_marseille","lat":43.305,"lon":5.36721,"is_reserved":false,"is_disabled":false,"rental_uris":{"android":"levelo://app?vid=fd7db3b2-bf6f-47a6-a193-d9e54fb8924d","ios":"levelo://app?vid=fd7db3b2-bf6f-47a6-a193-d9e54fb8924d"},"vehicle_type_id":"4","last_reported":1758989464,"current_range_meters":10800,"station_id":"ce4bgrp2rcd13ifvqc9g","pricing_plan_id":"cebpf4jnsgd1na2vs0mg"},{"bike_id":"9bb4db31-0bf9-4171-bca1-76cb045f53a3","system_id":"levelo_inurba_marseille","lat":43.26924,"lon":5.389081,"is_reserved":false,"is_disabled":false,"rental_uris":{"android":"levelo://app?vid=9bb4db31-0bf9-4171-bca1-76cb045f53a3","ios":"levelo://app?vid=9bb4db31-0bf9-4171-bca1-76cb045f53a3"},"vehicle_type_id":"4","last_reported":1758989464,"current_range_meters":10800,"station_id":"ce4bhhh2rcd13ifvqfl0","pricing_plan_id":"cebpf4jnsgd1na2vs0mg"},{"bike_id":"c286402c-896d-486e-bda1-7e7e87bd29fc","system_id":"levelo_inurba_marseille","lat":43.30386,"lon":5.42491,"is_reserved":false,"is_disabled":false,"rental_uris":{"android":"levelo://app?vid=c286402c-896d-486e-bda1-7e7e87bd29fc","ios":"levelo://app?vid=c286402c-896d-486e-bda1-7e7e87bd29fc"},"vehicle_type_id":"4","last_reported":1758989464,"current_range_meters":10800,"station_id":"ce4bhoh2rcd13ifvqh6g","pricing_plan_id":"cebpf4jnsgd1na2vs0mg"},{"bike_id":"ad17ea7b-b30c-438e-bd7f-6ecb341277fb","system_id":"levelo_inurba_marseille","lat":43.29833,"lon":5.36271,"is_reserved":false,"is_disabled":false,"rental_uris":{"android":"levelo://app?vid=ad17ea7b-b30c-438e-bd7f-6ecb341277fb","ios":"levelo://app?vid=ad17ea7b-b30c-438e-bd7f-6ecb341277fb"},"vehicle_type_id":"4","last_reported":1758989464,"current_range_meters":10800,"station_id":"ce4bgpp2rcd13ifvqc3g","pricing_plan_id":"cebpf4jnsgd1na2vs0mg"},{"bike_id":"cd52d724-6e36-4c8e-9efa-f35ff15b1a8b","system_id":"levelo_inurba_marseille","lat":43.31723,"lon":5.42406,"is_reserved":false,"is_disabled":false,"rental_uris":{"android":"levelo://app?vid=cd52d724-6e36-4c8e-9efa-f35ff15b1a8b","ios":"levelo://app?vid=cd52d724-6e36-4c8e-9efa-f35ff15b1a8b"},"vehicle_type_id":"4","last_reported":1758989464,"current_range_meters":10800,"station_id":"ce4bhp92rcd13ifvqhbg","pricing_plan_id":"cebpf4jnsgd1na2vs0mg"},{"bike_id":"ccea33ad-6ab7-4a34-96c5-31f7cdf54269","system_id":"levelo_inurba_marseille","lat":43.315325,"lon":5.367735,"is_reserved":false,"is_disabled":false,"rental_uris":{"android":"levelo://app?vid=ccea33ad-6ab7-4a34-96c5-31f7cdf54269","ios":"levelo://app?vid=ccea33ad-6ab7-4a34-96c5-31f7cdf54269"},"vehicle_type_id":"4","last_reported":1758989464,"current_range_meters":10800,"station_id":"ce4bhsh2rcd13ifvqi2g","pricing_plan_id":"cebpf4jnsgd1na2vs0mg"},{"bike_id":"b029589d-1c6e-45fa-8079-4d1e6b2d62fc","system_id":"levelo_inurba_marseille","lat":43.29439,"lon":5.39761,"is_reserved":false,"is_disabled":false,"rental_uris":{"android":"levelo://app?vid=b029589d-1c6e-45fa-8079-4d1e6b2d62fc","ios":"levelo://app?vid=b029589d-1c6e-45fa-8079-4d1e6b2d62fc"},"vehicle_type_id":"4","last_reported":1758989464,"current_range_meters":11200,"station_id":"ce4bh3h2rcd13ifvqdo0","pricing_plan_id":"cebpf4jnsgd1na2vs0mg"},{"bike_id":"3a3f4805-b4df-4b30-b7a3-b9cf733c9003","system_id":"levelo_inurba_marseille","lat":43.231812,"lon":5.399869,"is_reserved":false,"is_disabled":false,"rental_uris":{"android":"levelo://app?vid=3a3f4805-b4df-4b30-b7a3-b9cf733c9003","ios":"levelo://app?vid=3a3f4805-b4df-4b30-b7a3-b9cf733c9003"},"vehicle_type_id":"4","last_reported":1758989464,"current_range_meters":10800,"station_id":"ce4bhn12rcd13ifvqgqg","pricing_plan_id":"cebpf4jnsgd1na2vs0mg"},{"bike_id":"01bf55f2-4ac6-46f6-8504-3267bf31e1a6","system_id":"levelo_inurba_marseille","lat":43.2973,"lon":5.381787,"is_reserved":false,"is_disabled":false,"rental_uris":{"android":"levelo://app?vid=01bf55f2-4ac6-46f6-8504-3267bf31e1a6","ios":"levelo://app?vid=01bf55f2-4ac6-46f6-8504-3267bf31e1a6"},"vehicle_type_id":"4","last_reported":1758989464,"current_range_meters":11200,"station_id":"","pricing_plan_id":"cebpf4jnsgd1na2vs0mg"},{"bike_id":"e6c9e7e9-8a6c-49cd-af7d-c554051b0a08","system_id":"levelo_inurba_marseille","lat":43.28416,"lon":5.35006,"is_reserved":false,"is_disabled":false,"rental_uris":{"android":"levelo://app?vid=e6c9e7e9-8a6c-49cd-af7d-c554051b0a08","ios":"levelo://app?vid=e6c9e7e9-8a6c-49cd-af7d-c554051b0a08"},"vehicle_type_id":"4","last_reported":1758989464,"current_range_meters":11200,"station_id":"ce4bhbh2rcd13ifvqepg","pricing_plan_id":"cebpf4jnsgd1na2vs0mg"},{"bike_id":"0e7205af-7c50-4917-8fe1-1983f9d63835","system_id":"levelo_inurba_marseille","lat":43.24995,"lon":5.38937,"is_reserved":false,"is_disabled":false,"rental_uris":{"android":"levelo://app?vid=0e7205af-7c50-4917-8fe1-1983f9d63835","ios":"levelo://app?vid=0e7205af-7c50-4917-8fe1-1983f9d63835"},"vehicle_type_id":"4","last_reported":1758989464,"current_range_meters":11200,"station_id":"ce4bhgp2rcd13ifvqfd0","pricing_plan_id":"cebpf4jnsgd1na2vs0mg"},{"bike_id":"9fbddd05-2989-4334-ae90-4b704f620e6e","system_id":"levelo_inurba_marseille","lat":43.25486,"lon":5.37641,"is_reserved":false,"is_disabled":false,"rental_uris":{"android":"levelo://app?vid=9fbddd05-2989-4334-ae90-4b704f620e6e","ios":"levelo://app?vid=9fbddd05-2989-4334-ae90-4b704f620e6e"},"vehicle_type_id":"4","last_reported":1758989464,"current_range_meters":11600,"station_id":"ce4bhh12rcd13ifvqff0","pricing_plan_id":"cebpf4jnsgd1na2vs0mg"},{"bike_id":"3f51e03c-3abb-4dde-8cdd-da596aa3252f","system_id":"levelo_inurba_marseille","lat":43.27666,"lon":5.38907,"is_reserved":false,"is_disabled":true,"rental_uris":{"android":"levelo://app?vid=3f51e03c-3abb-4dde-8cdd-da596aa3252f","ios":"levelo://app?vid=3f51e03c-3abb-4dde-8cdd-da596aa3252f"},"vehicle_type_id":"4","last_reported":1758989464,"current_range_meters":11600,"station_id":"ce4bhi12rcd13ifvqfo0","pricing_plan_id":"cebpf4jnsgd1na2vs0mg"},{"bike_id":"aad593ae-c6d9-40ea-8439-23991b3680e8","system_id":"levelo_inurba_marseille","lat":43.2119,"lon":5.35068,"is_reserved":false,"is_disabled":false,"rental_uris":{"android":"levelo://app?vid=aad593ae-c6d9-40ea-8439-23991b3680e8","ios":"levelo://app?vid=aad593ae-c6d9-40ea-8439-23991b3680e8"},"vehicle_type_id":"4","last_reported":1758989464,"current_range_meters":11600,"station_id":"st_cvj6sg6p6f1abm77japg","pricing_plan_id":"cebpf4jnsgd1na2vs0mg"},{"bike_id":"1c14f608-9eb0-4b58-8221-e6e5ed28265b","system_id":"levelo_inurba_marseille","lat":43.24387,"lon":5.37083,"is_reserved":false,"is_disabled":false,"rental_uris":{"android":"levelo://app?vid=1c14f608-9eb0-4b58-8221-e6e5ed28265b","ios":"levelo://app?vid=1c14f608-9eb0-4b58-8221-e6e5ed28265b"},"vehicle_type_id":"4","last_reported":1758989464,"current_range_meters":11600,"station_id":"ce4bhhh2rcd13ifvqfk0","pricing_plan_id":"cebpf4jnsgd1na2vs0mg"},{"bike_id":"052c59a7-1cc4-4bbc-97f5-180981a63118","system_id":"levelo_inurba_marseille","lat":43.24631,"lon":5.43124,"is_reserved":false,"is_disabled":false,"rental_uris":{"android":"levelo://app?vid=052c59a7-1cc4-4bbc-97f5-180981a63118","ios":"levelo://app?vid=052c59a7-1cc4-4bbc-97f5-180981a63118"},"vehicle_type_id":"4","last_reported":1758989464,"current_range_meters":11600,"station_id":"st_d2m6c4gdas8pm72e190g","pricing_plan_id":"cebpf4jnsgd1na2vs0mg"},{"bike_id":"5dcaf959-7db1-4117-96ac-bc2ce056ca9d","system_id":"levelo_inurba_marseille","lat":43.279716,"lon":5.387493,"is_reserved":false,"is_disabled":false,"rental_uris":{"android":"levelo://app?vid=5dcaf959-7db1-4117-96ac-bc2ce056ca9d","ios":"levelo://app?vid=5dcaf959-7db1-4117-96ac-bc2ce056ca9d"},"vehicle_type_id":"4","last_reported":1758989464,"current_range_meters":11200,"station_id":"ce4bhg12rcd13ifvqf80","pricing_plan_id":"cebpf4jnsgd1na2vs0mg"},{"bike_id":"3fd7c937-a838-4d6f-932e-9e3bccbc6d3b","system_id":"levelo_inurba_marseille","lat":43.29919,"lon":5.38215,"is_reserved":false,"is_disabled":false,"rental_uris":{"android":"levelo://app?vid=3fd7c937-a838-4d6f-932e-9e3bccbc6d3b","ios":"levelo://app?vid=3fd7c937-a838-4d6f-932e-9e3bccbc6d3b"},"vehicle_type_id":"4","last_reported":1758989464,"current_range_meters":11600,"station_id":"","pricing_plan_id":"cebpf4jnsgd1na2vs0mg"},{"bike_id":"fbe4e2b4-189f-46d0-86fc-81dee2fce440","system_id":"levelo_inurba_marseille","lat":43.29572,"lon":5.39969,"is_reserved":false,"is_disabled":false,"rental_uris":{"android":"levelo://app?vid=fbe4e2b4-189f-46d0-86fc-81dee2fce440","ios":"levelo://app?vid=fbe4e2b4-189f-46d0-86fc-81dee2fce440"},"vehicle_type_id":"4","last_reported":1758989464,"current_range_meters":12000,"station_id":"ce4bh312rcd13ifvqdj0","pricing_plan_id":"cebpf4jnsgd1na2vs0mg"},{"bike_id":"934ea1ec-b7f6-49a1-9efa-287317d4eb22","system_id":"levelo_inurba_marseille","lat":43.29048,"lon":5.35914,"is_reserved":false,"is_disabled":false,"rental_uris":{"android":"levelo://app?vid=934ea1ec-b7f6-49a1-9efa-287317d4eb22","ios":"levelo://app?vid=934ea1ec-b7f6-49a1-9efa-287317d4eb22"},"vehicle_type_id":"4","last_reported":1758989464,"current_range_meters":12000,"station_id":"","pricing_plan_id":"cebpf4jnsgd1na2vs0mg"},{"bike_id":"c735f071-fa50-4db3-909d-42ca3d7e578b","system_id":"levelo_inurba_marseille","lat":43.286601,"lon":5.386722,"is_reserved":false,"is_disabled":false,"rental_uris":{"android":"levelo://app?vid=c735f071-fa50-4db3-909d-42ca3d7e578b","ios":"levelo://app?vid=c735f071-fa50-4db3-909d-42ca3d7e578b"},"vehicle_type_id":"4","last_reported":1758989464,"current_range_meters":12000,"station_id":"ce4bh492rcd13ifvqdug","pricing_plan_id":"cebpf4jnsgd1na2vs0mg"},{"bike_id":"6623f5ad-8ca7-4af2-a205-2d05eca9575c","system_id":"levelo_inurba_marseille","lat":43.27429,"lon":5.39423,"is_reserved":false,"is_disabled":false,"rental_uris":{"android":"levelo://app?vid=6623f5ad-8ca7-4af2-a205-2d05eca9575c","ios":"levelo://app?vid=6623f5ad-8ca7-4af2-a205-2d05eca9575c"},"vehicle_type_id":"4","last_reported":1758989464,"current_range_meters":12000,"station_id":"ce4bhdp2rcd13ifvqf20","pricing_plan_id":"cebpf4jnsgd1na2vs0mg"},{"bike_id":"b3356fb8-e8da-4e2c-b1e4-5ebb3655d645","system_id":"levelo_inurba_marseille","lat":43.2501,"lon":5.38937,"is_reserved":false,"is_disabled":false,"rental_uris":{"android":"levelo://app?vid=b3356fb8-e8da-4e2c-b1e4-5ebb3655d645","ios":"levelo://app?vid=b3356fb8-e8da-4e2c-b1e4-5ebb3655d645"},"vehicle_type_id":"4","last_reported":1758989464,"current_range_meters":12000,"station_id":"ce4bhgp2rcd13ifvqfd0","pricing_plan_id":"cebpf4jnsgd1na2vs0mg"},{"bike_id":"80bdba63-46f3-4274-b0d9-d9711409b6a8","system_id":"levelo_inurba_marseille","lat":43.270752,"lon":5.402497,"is_reserved":false,"is_disabled":false,"rental_uris":{"android":"levelo://app?vid=80bdba63-46f3-4274-b0d9-d9711409b6a8","ios":"levelo://app?vid=80bdba63-46f3-4274-b0d9-d9711409b6a8"},"vehicle_type_id":"4","last_reported":1758989464,"current_range_meters":12000,"station_id":"","pricing_plan_id":"cebpf4jnsgd1na2vs0mg"},{"bike_id":"6ebb1fd4-a381-413b-bdbe-f2a1ac8f2129","system_id":"levelo_inurba_marseille","lat":43.2991,"lon":5.38147,"is_reserved":false,"is_disabled":false,"rental_uris":{"android":"levelo://app?vid=6ebb1fd4-a381-413b-bdbe-f2a1ac8f2129","ios":"levelo://app?vid=6ebb1fd4-a381-413b-bdbe-f2a1ac8f2129"},"vehicle_type_id":"4","last_reported":1758989464,"current_range_meters":12000,"station_id":"ce4bgj12rcd13ifvqbc0","pricing_plan_id":"cebpf4jnsgd1na2vs0mg"},{"bike_id":"d7720e15-3e8d-4ddf-bc70-8dce8a1e1d42","system_id":"levelo_inurba_marseille","lat":43.23193,"lon":5.35519,"is_reserved":false,"is_disabled":false,"rental_uris":{"android":"levelo://app?vid=d7720e15-3e8d-4ddf-bc70-8dce8a1e1d42","ios":"levelo://app?vid=d7720e15-3e8d-4ddf-bc70-8dce8a1e1d42"},"vehicle_type_id":"4","last_reported":1758989464,"current_range_meters":12000,"station_id":"ce4bhu92rcd13ifvqi70","pricing_plan_id":"cebpf4jnsgd1na2vs0mg"},{"bike_id":"c2073cb7-7dd7-48dc-91d0-f9d7daca238a","system_id":"levelo_inurba_marseille","lat":43.284065,"lon":5.349707,"is_reserved":false,"is_disabled":false,"rental_uris":{"android":"levelo://app?vid=c2073cb7-7dd7-48dc-91d0-f9d7daca238a","ios":"levelo://app?vid=c2073cb7-7dd7-48dc-91d0-f9d7daca238a"},"vehicle_type_id":"4","last_reported":1758989464,"current_range_meters":12000,"station_id":"ce4bhbh2rcd13ifvqepg","pricing_plan_id":"cebpf4jnsgd1na2vs0mg"},{"bike_id":"e8547d94-5fde-4c18-9b22-78cac2eddf70","system_id":"levelo_inurba_marseille","lat":43.273712,"lon":5.362614,"is_reserved":false,"is_disabled":false,"rental_uris":{"android":"levelo://app?vid=e8547d94-5fde-4c18-9b22-78cac2eddf70","ios":"levelo://app?vid=e8547d94-5fde-4c18-9b22-78cac2eddf70"},"vehicle_type_id":"4","last_reported":1758989464,"current_range_meters":12000,"station_id":"ce4bhbh2rcd13ifvqeo0","pricing_plan_id":"cebpf4jnsgd1na2vs0mg"},{"bike_id":"3d16cbda-aea1-4d3a-ae65-00f32710c8ce","system_id":"levelo_inurba_marseille","lat":43.289759,"lon":5.378348,"is_reserved":false,"is_disabled":false,"rental_uris":{"android":"levelo://app?vid=3d16cbda-aea1-4d3a-ae65-00f32710c8ce","ios":"levelo://app?vid=3d16cbda-aea1-4d3a-ae65-00f32710c8ce"},"vehicle_type_id":"4","last_reported":1758989464,"current_range_meters":12000,"station_id":"ce4bh9p2rcd13ifvqed0","pricing_plan_id":"cebpf4jnsgd1na2vs0mg"},{"bike_id":"fd369edc-de64-4b30-8e37-307aa7aaae34","system_id":"levelo_inurba_marseille","lat":43.27911,"lon":5.39579,"is_reserved":false,"is_disabled":false,"rental_uris":{"android":"levelo://app?vid=fd369edc-de64-4b30-8e37-307aa7aaae34","ios":"levelo://app?vid=fd369edc-de64-4b30-8e37-307aa7aaae34"},"vehicle_type_id":"4","last_reported":1758989464,"current_range_meters":12400,"station_id":"ce4bhf92rcd13ifvqf40","pricing_plan_id":"cebpf4jnsgd1na2vs0mg"},{"bike_id":"9de5eb4a-2bba-4d94-b5d2-50807c7d8cc2","system_id":"levelo_inurba_marseille","lat":43.22534,"lon":5.34839,"is_reserved":false,"is_disabled":false,"rental_uris":{"android":"levelo://app?vid=9de5eb4a-2bba-4d94-b5d2-50807c7d8cc2","ios":"levelo://app?vid=9de5eb4a-2bba-4d94-b5d2-50807c7d8cc2"},"vehicle_type_id":"4","last_reported":1758989464,"current_range_meters":12400,"station_id":"","pricing_plan_id":"cebpf4jnsgd1na2vs0mg"},{"bike_id":"5bb42022-0e19-48bc-a5b4-218bb1d7482e","system_id":"levelo_inurba_marseille","lat":43.3123,"lon":5.37827,"is_reserved":false,"is_disabled":false,"rental_uris":{"android":"levelo://app?vid=5bb42022-0e19-48bc-a5b4-218bb1d7482e","ios":"levelo://app?vid=5bb42022-0e19-48bc-a5b4-218bb1d7482e"},"vehicle_type_id":"4","last_reported":1758989464,"current_range_meters":12400,"station_id":"","pricing_plan_id":"cebpf4jnsgd1na2vs0mg"},{"bike_id":"fc17f6e5-238a-4ee8-ba17-ba5ba59823a9","system_id":"levelo_inurba_marseille","lat":43.286957,"lon":5.373852,"is_reserved":false,"is_disabled":false,"rental_uris":{"android":"levelo://app?vid=fc17f6e5-238a-4ee8-ba17-ba5ba59823a9","ios":"levelo://app?vid=fc17f6e5-238a-4ee8-ba17-ba5ba59823a9"},"vehicle_type_id":"4","last_reported":1758989464,"current_range_meters":12400,"station_id":"ce4bh3p2rcd13ifvqdq0","pricing_plan_id":"cebpf4jnsgd1na2vs0mg"},{"bike_id":"46ac5fb6-ac2e-43e8-84c9-c4e46889ea29","system_id":"levelo_inurba_marseille","lat":43.2121,"lon":5.35052,"is_reserved":false,"is_disabled":false,"rental_uris":{"android":"levelo://app?vid=46ac5fb6-ac2e-43e8-84c9-c4e46889ea29","ios":"levelo://app?vid=46ac5fb6-ac2e-43e8-84c9-c4e46889ea29"},"vehicle_type_id":"4","last_reported":1758989464,"current_range_meters":12400,"station_id":"st_cvj6sg6p6f1abm77japg","pricing_plan_id":"cebpf4jnsgd1na2vs0mg"},{"bike_id":"6946079f-02bd-4cbd-8127-3dc27f013c79","system_id":"levelo_inurba_marseille","lat":43.295146,"lon":5.390478,"is_reserved":false,"is_disabled":false,"rental_uris":{"android":"levelo://app?vid=6946079f-02bd-4cbd-8127-3dc27f013c79","ios":"levelo://app?vid=6946079f-02bd-4cbd-8127-3dc27f013c79"},"vehicle_type_id":"4","last_reported":1758989464,"current_range_meters":12400,"station_id":"ce4bh3p2rcd13ifvqdp0","pricing_plan_id":"cebpf4jnsgd1na2vs0mg"},{"bike_id":"cd119ae5-1417-41f1-a8e2-920696e70b86","system_id":"levelo_inurba_marseille","lat":43.22571,"lon":5.41639,"is_reserved":false,"is_disabled":false,"rental_uris":{"android":"levelo://app?vid=cd119ae5-1417-41f1-a8e2-920696e70b86","ios":"levelo://app?vid=cd119ae5-1417-41f1-a8e2-920696e70b86"},"vehicle_type_id":"4","last_reported":1758989464,"current_range_meters":12800,"station_id":"st_d2o4gvlbi1j2169b742g","pricing_plan_id":"cebpf4jnsgd1na2vs0mg"},{"bike_id":"16055637-620f-4dd8-8144-2c3cca3af81a","system_id":"levelo_inurba_marseille","lat":43.25826,"lon":5.39437,"is_reserved":false,"is_disabled":false,"rental_uris":{"android":"levelo://app?vid=16055637-620f-4dd8-8144-2c3cca3af81a","ios":"levelo://app?vid=16055637-620f-4dd8-8144-2c3cca3af81a"},"vehicle_type_id":"4","last_reported":1758989464,"current_range_meters":12800,"station_id":"ce4bhip2rcd13ifvqft0","pricing_plan_id":"cebpf4jnsgd1na2vs0mg"},{"bike_id":"456626cb-c655-41c4-930e-709cc96e1c3e","system_id":"levelo_inurba_marseille","lat":43.32648,"lon":5.40991,"is_reserved":false,"is_disabled":false,"rental_uris":{"android":"levelo://app?vid=456626cb-c655-41c4-930e-709cc96e1c3e","ios":"levelo://app?vid=456626cb-c655-41c4-930e-709cc96e1c3e"},"vehicle_type_id":"4","last_reported":1758989464,"current_range_meters":12800,"station_id":"ce4bhpp2rcd13ifvqhgg","pricing_plan_id":"cebpf4jnsgd1na2vs0mg"},{"bike_id":"6ef3024a-2129-46d2-8f53-f8c4119ef86c","system_id":"levelo_inurba_marseille","lat":43.22923,"lon":5.3537,"is_reserved":false,"is_disabled":false,"rental_uris":{"android":"levelo://app?vid=6ef3024a-2129-46d2-8f53-f8c4119ef86c","ios":"levelo://app?vid=6ef3024a-2129-46d2-8f53-f8c4119ef86c"},"vehicle_type_id":"4","last_reported":1758989464,"current_range_meters":12800,"station_id":"cpo3532slgdg3j2ikp40","pricing_plan_id":"cebpf4jnsgd1na2vs0mg"},{"bike_id":"360c0746-c854-4629-884f-7c911de53d9d","system_id":"levelo_inurba_marseille","lat":43.30849,"lon":5.37537,"is_reserved":false,"is_disabled":false,"rental_uris":{"android":"levelo://app?vid=360c0746-c854-4629-884f-7c911de53d9d","ios":"levelo://app?vid=360c0746-c854-4629-884f-7c911de53d9d"},"vehicle_type_id":"4","last_reported":1758989464,"current_range_meters":12800,"station_id":"","pricing_plan_id":"cebpf4jnsgd1na2vs0mg"},{"bike_id":"720623f7-9148-4a0e-ade4-a205c6fa44f0","system_id":"levelo_inurba_marseille","lat":43.28969,"lon":5.42913,"is_reserved":false,"is_disabled":false,"rental_uris":{"android":"levelo://app?vid=720623f7-9148-4a0e-ade4-a205c6fa44f0","ios":"levelo://app?vid=720623f7-9148-4a0e-ade4-a205c6fa44f0"},"vehicle_type_id":"4","last_reported":1758989464,"current_range_meters":12800,"station_id":"","pricing_plan_id":"cebpf4jnsgd1na2vs0mg"},{"bike_id":"72deef2f-7076-4f16-b037-0848fec7470f","system_id":"levelo_inurba_marseille","lat":43.30306,"lon":5.36903,"is_reserved":false,"is_disabled":false,"rental_uris":{"android":"levelo://app?vid=72deef2f-7076-4f16-b037-0848fec7470f","ios":"levelo://app?vid=72deef2f-7076-4f16-b037-0848fec7470f"},"vehicle_type_id":"4","last_reported":1758989464,"current_range_meters":14400,"station_id":"ce4bgqh2rcd13ifvqc5g","pricing_plan_id":"cebpf4jnsgd1na2vs0mg"},{"bike_id":"56834143-e7dc-42a3-9ca6-830da0f50394","system_id":"levelo_inurba_marseille","lat":43.27312,"lon":5.39074,"is_reserved":false,"is_disabled":false,"rental_uris":{"android":"levelo://app?vid=56834143-e7dc-42a3-9ca6-830da0f50394","ios":"levelo://app?vid=56834143-e7dc-42a3-9ca6-830da0f50394"},"vehicle_type_id":"4","last_reported":1758989464,"current_range_meters":12400,"station_id":"ce4bhgp2rcd13ifvqfe0","pricing_plan_id":"cebpf4jnsgd1na2vs0mg"},{"bike_id":"a79771f7-9547-42c9-9edd-e8630ba14d95","system_id":"levelo_inurba_marseille","lat":43.23197,"lon":5.35544,"is_reserved":false,"is_disabled":false,"rental_uris":{"android":"levelo://app?vid=a79771f7-9547-42c9-9edd-e8630ba14d95","ios":"levelo://app?vid=a79771f7-9547-42c9-9edd-e8630ba14d95"},"vehicle_type_id":"4","last_reported":1758989464,"current_range_meters":12800,"station_id":"ce4bhu92rcd13ifvqi70","pricing_plan_id":"cebpf4jnsgd1na2vs0mg"},{"bike_id":"367cc5de-fbd0-47d1-8fa2-cb83d9fcf585","system_id":"levelo_inurba_marseille","lat":43.2584,"lon":5.3943,"is_reserved":false,"is_disabled":false,"rental_uris":{"android":"levelo://app?vid=367cc5de-fbd0-47d1-8fa2-cb83d9fcf585","ios":"levelo://app?vid=367cc5de-fbd0-47d1-8fa2-cb83d9fcf585"},"vehicle_type_id":"4","last_reported":1758989464,"current_range_meters":12800,"station_id":"ce4bhip2rcd13ifvqft0","pricing_plan_id":"cebpf4jnsgd1na2vs0mg"},{"bike_id":"695662ab-65fe-4c59-81b6-3dceb9f5066d","system_id":"levelo_inurba_marseille","lat":43.25579,"lon":5.38232,"is_reserved":false,"is_disabled":true,"rental_uris":{"android":"levelo://app?vid=695662ab-65fe-4c59-81b6-3dceb9f5066d","ios":"levelo://app?vid=695662ab-65fe-4c59-81b6-3dceb9f5066d"},"vehicle_type_id":"4","last_reported":1758989464,"current_range_meters":12800,"station_id":"ce4bhih2rcd13ifvqfs0","pricing_plan_id":"cebpf4jnsgd1na2vs0mg"},{"bike_id":"03350417-1098-4d6c-b8fe-9e64358744bf","system_id":"levelo_inurba_marseille","lat":43.31043,"lon":5.37599,"is_reserved":false,"is_disabled":false,"rental_uris":{"android":"levelo://app?vid=03350417-1098-4d6c-b8fe-9e64358744bf","ios":"levelo://app?vid=03350417-1098-4d6c-b8fe-9e64358744bf"},"vehicle_type_id":"4","last_reported":1758989464,"current_range_meters":12800,"station_id":"","pricing_plan_id":"cebpf4jnsgd1na2vs0mg"},{"bike_id":"697c365f-3ac4-4876-ae85-84bf67c908e2","system_id":"levelo_inurba_marseille","lat":43.29435,"lon":5.39753,"is_reserved":false,"is_disabled":false,"rental_uris":{"android":"levelo://app?vid=697c365f-3ac4-4876-ae85-84bf67c908e2","ios":"levelo://app?vid=697c365f-3ac4-4876-ae85-84bf67c908e2"},"vehicle_type_id":"4","last_reported":1758989464,"current_range_meters":12800,"station_id":"ce4bh3h2rcd13ifvqdo0","pricing_plan_id":"cebpf4jnsgd1na2vs0mg"},{"bike_id":"71649b2c-48f8-4b8a-b9c0-477bd83fa14b","system_id":"levelo_inurba_marseille","lat":43.28431,"lon":5.35001,"is_reserved":false,"is_disabled":false,"rental_uris":{"android":"levelo://app?vid=71649b2c-48f8-4b8a-b9c0-477bd83fa14b","ios":"levelo://app?vid=71649b2c-48f8-4b8a-b9c0-477bd83fa14b"},"vehicle_type_id":"4","last_reported":1758989464,"current_range_meters":13600,"station_id":"ce4bhbh2rcd13ifvqepg","pricing_plan_id":"cebpf4jnsgd1na2vs0mg"},{"bike_id":"9feae468-b8bd-422a-8fcb-2d68fc5ee82c","system_id":"levelo_inurba_marseille","lat":43.33389,"lon":5.42031,"is_reserved":false,"is_disabled":false,"rental_uris":{"android":"levelo://app?vid=9feae468-b8bd-422a-8fcb-2d68fc5ee82c","ios":"levelo://app?vid=9feae468-b8bd-422a-8fcb-2d68fc5ee82c"},"vehicle_type_id":"4","last_reported":1758989464,"current_range_meters":13600,"station_id":"","pricing_plan_id":"cebpf4jnsgd1na2vs0mg"},{"bike_id":"09fe432f-708c-4182-8d5f-2d008c4cc43f","system_id":"levelo_inurba_marseille","lat":43.28109,"lon":5.37829,"is_reserved":false,"is_disabled":false,"rental_uris":{"android":"levelo://app?vid=09fe432f-708c-4182-8d5f-2d008c4cc43f","ios":"levelo://app?vid=09fe432f-708c-4182-8d5f-2d008c4cc43f"},"vehicle_type_id":"4","last_reported":1758989464,"current_range_meters":13600,"station_id":"ce4bha12rcd13ifvqee0","pricing_plan_id":"cebpf4jnsgd1na2vs0mg"},{"bike_id":"354a4e97-cd9b-42f0-9d02-342a95356dbb","system_id":"levelo_inurba_marseille","lat":43.29264,"lon":5.37622,"is_reserved":false,"is_disabled":false,"rental_uris":{"android":"levelo://app?vid=354a4e97-cd9b-42f0-9d02-342a95356dbb","ios":"levelo://app?vid=354a4e97-cd9b-42f0-9d02-342a95356dbb"},"vehicle_type_id":"4","last_reported":1758989464,"current_range_meters":13600,"station_id":"ce4bgi12rcd13ifvqb80","pricing_plan_id":"cebpf4jnsgd1na2vs0mg"},{"bike_id":"505afdf8-5ef2-417c-a6aa-f73b512bbcf0","system_id":"levelo_inurba_marseille","lat":43.28698,"lon":5.38658,"is_reserved":false,"is_disabled":false,"rental_uris":{"android":"levelo://app?vid=505afdf8-5ef2-417c-a6aa-f73b512bbcf0","ios":"levelo://app?vid=505afdf8-5ef2-417c-a6aa-f73b512bbcf0"},"vehicle_type_id":"4","last_reported":1758989464,"current_range_meters":13600,"station_id":"ce4bh492rcd13ifvqdug","pricing_plan_id":"cebpf4jnsgd1na2vs0mg"},{"bike_id":"20469473-bb1c-4672-af33-585a76a2cabc","system_id":"levelo_inurba_marseille","lat":43.29901,"lon":5.37466,"is_reserved":false,"is_disabled":false,"rental_uris":{"android":"levelo://app?vid=20469473-bb1c-4672-af33-585a76a2cabc","ios":"levelo://app?vid=20469473-bb1c-4672-af33-585a76a2cabc"},"vehicle_type_id":"4","last_reported":1758989464,"current_range_meters":14400,"station_id":"ce4bgjh2rcd13ifvqbg0","pricing_plan_id":"cebpf4jnsgd1na2vs0mg"},{"bike_id":"35559e5d-7a07-4975-b2f3-96bd39547504","system_id":"levelo_inurba_marseille","lat":43.28274,"lon":5.35075,"is_reserved":false,"is_disabled":false,"rental_uris":{"android":"levelo://app?vid=35559e5d-7a07-4975-b2f3-96bd39547504","ios":"levelo://app?vid=35559e5d-7a07-4975-b2f3-96bd39547504"},"vehicle_type_id":"4","last_reported":1758989464,"current_range_meters":14000,"station_id":"ce4bhbp2rcd13ifvqerg","pricing_plan_id":"cebpf4jnsgd1na2vs0mg"},{"bike_id":"349977c5-2efd-48ed-8dd8-9cfd0d464679","system_id":"levelo_inurba_marseille","lat":43.21195,"lon":5.35105,"is_reserved":false,"is_disabled":false,"rental_uris":{"android":"levelo://app?vid=349977c5-2efd-48ed-8dd8-9cfd0d464679","ios":"levelo://app?vid=349977c5-2efd-48ed-8dd8-9cfd0d464679"},"vehicle_type_id":"4","last_reported":1758989464,"current_range_meters":14000,"station_id":"st_cvj6sg6p6f1abm77japg","pricing_plan_id":"cebpf4jnsgd1na2vs0mg"},{"bike_id":"5dc2973f-b833-47c3-a940-8264902f8271","system_id":"levelo_inurba_marseille","lat":43.27624,"lon":5.36116,"is_reserved":false,"is_disabled":false,"rental_uris":{"android":"levelo://app?vid=5dc2973f-b833-47c3-a940-8264902f8271","ios":"levelo://app?vid=5dc2973f-b833-47c3-a940-8264902f8271"},"vehicle_type_id":"4","last_reported":1758989464,"current_range_meters":14000,"station_id":"ce4bgj92rcd13ifvqbe0","pricing_plan_id":"cebpf4jnsgd1na2vs0mg"},{"bike_id":"fb1f00f0-4275-4c6e-8a59-3367c7a547e7","system_id":"levelo_inurba_marseille","lat":43.24647,"lon":5.389,"is_reserved":false,"is_disabled":false,"rental_uris":{"android":"levelo://app?vid=fb1f00f0-4275-4c6e-8a59-3367c7a547e7","ios":"levelo://app?vid=fb1f00f0-4275-4c6e-8a59-3367c7a547e7"},"vehicle_type_id":"4","last_reported":1758989464,"current_range_meters":14000,"station_id":"ce4bhg12rcd13ifvqf60","pricing_plan_id":"cebpf4jnsgd1na2vs0mg"},{"bike_id":"4a846cef-6b69-4d86-98dd-7d974b7c24ad","system_id":"levelo_inurba_marseille","lat":43.2743,"lon":5.39395,"is_reserved":false,"is_disabled":false,"rental_uris":{"android":"levelo://app?vid=4a846cef-6b69-4d86-98dd-7d974b7c24ad","ios":"levelo://app?vid=4a846cef-6b69-4d86-98dd-7d974b7c24ad"},"vehicle_type_id":"4","last_reported":1758989464,"current_range_meters":14000,"station_id":"ce4bhdp2rcd13ifvqf20","pricing_plan_id":"cebpf4jnsgd1na2vs0mg"},{"bike_id":"86b8455d-019c-4796-a02b-e8fe024db93d","system_id":"levelo_inurba_marseille","lat":43.29617,"lon":5.37708,"is_reserved":false,"is_disabled":false,"rental_uris":{"android":"levelo://app?vid=86b8455d-019c-4796-a02b-e8fe024db93d","ios":"levelo://app?vid=86b8455d-019c-4796-a02b-e8fe024db93d"},"vehicle_type_id":"4","last_reported":1758989464,"current_range_meters":14000,"station_id":"ce4bgi92rcd13ifvqb90","pricing_plan_id":"cebpf4jnsgd1na2vs0mg"},{"bike_id":"13812f8d-0f36-4403-b3f5-9209345f0937","system_id":"levelo_inurba_marseille","lat":43.28147,"lon":5.42644,"is_reserved":false,"is_disabled":false,"rental_uris":{"android":"levelo://app?vid=13812f8d-0f36-4403-b3f5-9209345f0937","ios":"levelo://app?vid=13812f8d-0f36-4403-b3f5-9209345f0937"},"vehicle_type_id":"4","last_reported":1758989464,"current_range_meters":14000,"station_id":"ce4bhnh2rcd13ifvqgug","pricing_plan_id":"cebpf4jnsgd1na2vs0mg"},{"bike_id":"2ca205d7-ac55-4d7d-ae07-5f6058c9f252","system_id":"levelo_inurba_marseille","lat":43.29987,"lon":5.38495,"is_reserved":false,"is_disabled":false,"rental_uris":{"android":"levelo://app?vid=2ca205d7-ac55-4d7d-ae07-5f6058c9f252","ios":"levelo://app?vid=2ca205d7-ac55-4d7d-ae07-5f6058c9f252"},"vehicle_type_id":"4","last_reported":1758989464,"current_range_meters":14400,"station_id":"ce4bgj92rcd13ifvqbd0","pricing_plan_id":"cebpf4jnsgd1na2vs0mg"},{"bike_id":"6d4fa21f-0f41-49ae-93a6-059b63d3c466","system_id":"levelo_inurba_marseille","lat":43.23955,"lon":5.36607,"is_reserved":false,"is_disabled":false,"rental_uris":{"android":"levelo://app?vid=6d4fa21f-0f41-49ae-93a6-059b63d3c466","ios":"levelo://app?vid=6d4fa21f-0f41-49ae-93a6-059b63d3c466"},"vehicle_type_id":"4","last_reported":1758989464,"current_range_meters":14400,"station_id":"ce4bhi12rcd13ifvqfp0","pricing_plan_id":"cebpf4jnsgd1na2vs0mg"},{"bike_id":"c833070b-baa0-4f6e-84a4-dad65aacc2ad","system_id":"levelo_inurba_marseille","lat":43.23196,"lon":5.35548,"is_reserved":false,"is_disabled":false,"rental_uris":{"android":"levelo://app?vid=c833070b-baa0-4f6e-84a4-dad65aacc2ad","ios":"levelo://app?vid=c833070b-baa0-4f6e-84a4-dad65aacc2ad"},"vehicle_type_id":"4","last_reported":1758989464,"current_range_meters":14400,"station_id":"ce4bhu92rcd13ifvqi70","pricing_plan_id":"cebpf4jnsgd1na2vs0mg"},{"bike_id":"479f1999-2f32-4900-b8f9-693d955d9611","system_id":"levelo_inurba_marseille","lat":43.26555,"lon":5.37286,"is_reserved":false,"is_disabled":false,"rental_uris":{"android":"levelo://app?vid=479f1999-2f32-4900-b8f9-693d955d9611","ios":"levelo://app?vid=479f1999-2f32-4900-b8f9-693d955d9611"},"vehicle_type_id":"4","last_reported":1758989464,"current_range_meters":14800,"station_id":"ce4bhg12rcd13ifvqf70","pricing_plan_id":"cebpf4jnsgd1na2vs0mg"},{"bike_id":"40160ca7-1c86-416c-acdd-981ef869ed29","system_id":"levelo_inurba_marseille","lat":43.23199,"lon":5.35559,"is_reserved":false,"is_disabled":false,"rental_uris":{"android":"levelo://app?vid=40160ca7-1c86-416c-acdd-981ef869ed29","ios":"levelo://app?vid=40160ca7-1c86-416c-acdd-981ef869ed29"},"vehicle_type_id":"4","last_reported":1758989464,"current_range_meters":14800,"station_id":"ce4bhu92rcd13ifvqi70","pricing_plan_id":"cebpf4jnsgd1na2vs0mg"},{"bike_id":"258b480e-bd7f-4647-ac07-783b262fd24c","system_id":"levelo_inurba_marseille","lat":43.3091,"lon":5.36842,"is_reserved":false,"is_disabled":false,"rental_uris":{"android":"levelo://app?vid=258b480e-bd7f-4647-ac07-783b262fd24c","ios":"levelo://app?vid=258b480e-bd7f-4647-ac07-783b262fd24c"},"vehicle_type_id":"4","last_reported":1758989464,"current_range_meters":14800,"station_id":"ce4bgn92rcd13ifvqbvg","pricing_plan_id":"cebpf4jnsgd1na2vs0mg"},{"bike_id":"cf75c7e8-0c0c-4977-a0c5-8a989348b4fd","system_id":"levelo_inurba_marseille","lat":43.311778,"lon":5.387164,"is_reserved":false,"is_disabled":false,"rental_uris":{"android":"levelo://app?vid=cf75c7e8-0c0c-4977-a0c5-8a989348b4fd","ios":"levelo://app?vid=cf75c7e8-0c0c-4977-a0c5-8a989348b4fd"},"vehicle_type_id":"4","last_reported":1758989464,"current_range_meters":14800,"station_id":"ce4bgv12rcd13ifvqcp0","pricing_plan_id":"cebpf4jnsgd1na2vs0mg"},{"bike_id":"a1e2b7f3-f53e-4b6a-b8f1-27b0fbf9634d","system_id":"levelo_inurba_marseille","lat":43.3095,"lon":5.39079,"is_reserved":false,"is_disabled":false,"rental_uris":{"android":"levelo://app?vid=a1e2b7f3-f53e-4b6a-b8f1-27b0fbf9634d","ios":"levelo://app?vid=a1e2b7f3-f53e-4b6a-b8f1-27b0fbf9634d"},"vehicle_type_id":"4","last_reported":1758989464,"current_range_meters":15200,"station_id":"ce4bgup2rcd13ifvqco0","pricing_plan_id":"cebpf4jnsgd1na2vs0mg"},{"bike_id":"6bef550a-0205-488c-97cd-0e55193f21ed","system_id":"levelo_inurba_marseille","lat":43.32342,"lon":5.40616,"is_reserved":false,"is_disabled":false,"rental_uris":{"android":"levelo://app?vid=6bef550a-0205-488c-97cd-0e55193f21ed","ios":"levelo://app?vid=6bef550a-0205-488c-97cd-0e55193f21ed"},"vehicle_type_id":"4","last_reported":1758989464,"current_range_meters":15200,"station_id":"ce4bhq92rcd13ifvqhjg","pricing_plan_id":"cebpf4jnsgd1na2vs0mg"},{"bike_id":"dc4883ea-8f06-44d1-8b3d-6660e39a87ec","system_id":"levelo_inurba_marseille","lat":43.22936,"lon":5.35382,"is_reserved":false,"is_disabled":true,"rental_uris":{"android":"levelo://app?vid=dc4883ea-8f06-44d1-8b3d-6660e39a87ec","ios":"levelo://app?vid=dc4883ea-8f06-44d1-8b3d-6660e39a87ec"},"vehicle_type_id":"4","last_reported":1758989464,"current_range_meters":15200,"station_id":"cpo3532slgdg3j2ikp40","pricing_plan_id":"cebpf4jnsgd1na2vs0mg"},{"bike_id":"cb0a43cc-2f6b-482a-91bb-c383cccf5be4","system_id":"levelo_inurba_marseille","lat":43.31994,"lon":5.38041,"is_reserved":false,"is_disabled":false,"rental_uris":{"android":"levelo://app?vid=cb0a43cc-2f6b-482a-91bb-c383cccf5be4","ios":"levelo://app?vid=cb0a43cc-2f6b-482a-91bb-c383cccf5be4"},"vehicle_type_id":"4","last_reported":1758989464,"current_range_meters":15200,"station_id":"","pricing_plan_id":"cebpf4jnsgd1na2vs0mg"},{"bike_id":"041ae0e6-01b7-4c46-a9e7-54eeab6f9699","system_id":"levelo_inurba_marseille","lat":43.28417,"lon":5.34991,"is_reserved":false,"is_disabled":false,"rental_uris":{"android":"levelo://app?vid=041ae0e6-01b7-4c46-a9e7-54eeab6f9699","ios":"levelo://app?vid=041ae0e6-01b7-4c46-a9e7-54eeab6f9699"},"vehicle_type_id":"4","last_reported":1758989464,"current_range_meters":15200,"station_id":"ce4bhbh2rcd13ifvqepg","pricing_plan_id":"cebpf4jnsgd1na2vs0mg"},{"bike_id":"4c02c545-ad59-45b1-9b9c-d3678a5922c7","system_id":"levelo_inurba_marseille","lat":43.337444,"lon":5.374475,"is_reserved":false,"is_disabled":false,"rental_uris":{"android":"levelo://app?vid=4c02c545-ad59-45b1-9b9c-d3678a5922c7","ios":"levelo://app?vid=4c02c545-ad59-45b1-9b9c-d3678a5922c7"},"vehicle_type_id":"4","last_reported":1758989464,"current_range_meters":15200,"station_id":"","pricing_plan_id":"cebpf4jnsgd1na2vs0mg"},{"bike_id":"c097f066-7651-435e-913f-a8a7838aba88","system_id":"levelo_inurba_marseille","lat":43.33722,"lon":5.37459,"is_reserved":false,"is_disabled":false,"rental_uris":{"android":"levelo://app?vid=c097f066-7651-435e-913f-a8a7838aba88","ios":"levelo://app?vid=c097f066-7651-435e-913f-a8a7838aba88"},"vehicle_type_id":"4","last_reported":1758989464,"current_range_meters":15200,"station_id":"","pricing_plan_id":"cebpf4jnsgd1na2vs0mg"},{"bike_id":"3fdc29ba-a689-4548-9767-a1ca5cc2557d","system_id":"levelo_inurba_marseille","lat":43.28462,"lon":5.35892,"is_reserved":false,"is_disabled":false,"rental_uris":{"android":"levelo://app?vid=3fdc29ba-a689-4548-9767-a1ca5cc2557d","ios":"levelo://app?vid=3fdc29ba-a689-4548-9767-a1ca5cc2557d"},"vehicle_type_id":"4","last_reported":1758989464,"current_range_meters":16000,"station_id":"ce4bhah2rcd13ifvqei0","pricing_plan_id":"cebpf4jnsgd1na2vs0mg"},{"bike_id":"976fd36e-2f5c-424c-baa8-068b37f1eb42","system_id":"levelo_inurba_marseille","lat":43.27567,"lon":5.38406,"is_reserved":false,"is_disabled":false,"rental_uris":{"android":"levelo://app?vid=976fd36e-2f5c-424c-baa8-068b37f1eb42","ios":"levelo://app?vid=976fd36e-2f5c-424c-baa8-068b37f1eb42"},"vehicle_type_id":"4","last_reported":1758989464,"current_range_meters":16000,"station_id":"ce4bhh92rcd13ifvqfi0","pricing_plan_id":"cebpf4jnsgd1na2vs0mg"},{"bike_id":"096c311a-e31f-4e60-ab8c-de0b76354103","system_id":"levelo_inurba_marseille","lat":43.27236,"lon":5.40993,"is_reserved":false,"is_disabled":true,"rental_uris":{"android":"levelo://app?vid=096c311a-e31f-4e60-ab8c-de0b76354103","ios":"levelo://app?vid=096c311a-e31f-4e60-ab8c-de0b76354103"},"vehicle_type_id":"4","last_reported":1758989464,"current_range_meters":16000,"station_id":"","pricing_plan_id":"cebpf4jnsgd1na2vs0mg"},{"bike_id":"85c7ac65-0172-4766-8977-f4ba34ed9c93","system_id":"levelo_inurba_marseille","lat":43.25322,"lon":5.42178,"is_reserved":false,"is_disabled":false,"rental_uris":{"android":"levelo://app?vid=85c7ac65-0172-4766-8977-f4ba34ed9c93","ios":"levelo://app?vid=85c7ac65-0172-4766-8977-f4ba34ed9c93"},"vehicle_type_id":"4","last_reported":1758989464,"current_range_meters":16000,"station_id":"st_d2m65c5bi1j21697t3ng","pricing_plan_id":"cebpf4jnsgd1na2vs0mg"},{"bike_id":"6d98ab21-1faa-4b15-97b2-a1dd6f53a5a7","system_id":"levelo_inurba_marseille","lat":43.27438,"lon":5.39419,"is_reserved":false,"is_disabled":true,"rental_uris":{"android":"levelo://app?vid=6d98ab21-1faa-4b15-97b2-a1dd6f53a5a7","ios":"levelo://app?vid=6d98ab21-1faa-4b15-97b2-a1dd6f53a5a7"},"vehicle_type_id":"4","last_reported":1758989464,"current_range_meters":16000,"station_id":"ce4bhdp2rcd13ifvqf20","pricing_plan_id":"cebpf4jnsgd1na2vs0mg"},{"bike_id":"2c242c76-3e71-47f3-b343-50f2c2689b6b","system_id":"levelo_inurba_marseille","lat":43.28712,"lon":5.37374,"is_reserved":false,"is_disabled":false,"rental_uris":{"android":"levelo://app?vid=2c242c76-3e71-47f3-b343-50f2c2689b6b","ios":"levelo://app?vid=2c242c76-3e71-47f3-b343-50f2c2689b6b"},"vehicle_type_id":"4","last_reported":1758989464,"current_range_meters":16000,"station_id":"ce4bh3p2rcd13ifvqdq0","pricing_plan_id":"cebpf4jnsgd1na2vs0mg"},{"bike_id":"a47cc228-6d39-4375-aeab-2efe4698ce8f","system_id":"levelo_inurba_marseille","lat":43.26225,"lon":5.40452,"is_reserved":false,"is_disabled":false,"rental_uris":{"android":"levelo://app?vid=a47cc228-6d39-4375-aeab-2efe4698ce8f","ios":"levelo://app?vid=a47cc228-6d39-4375-aeab-2efe4698ce8f"},"vehicle_type_id":"4","last_reported":1758989464,"current_range_meters":16000,"station_id":"ce4bhmh2rcd13ifvqgmg","pricing_plan_id":"cebpf4jnsgd1na2vs0mg"},{"bike_id":"90c1e5dd-34b2-4c54-916c-04aa7a8a4362","system_id":"levelo_inurba_marseille","lat":43.28428,"lon":5.34984,"is_reserved":false,"is_disabled":false,"rental_uris":{"android":"levelo://app?vid=90c1e5dd-34b2-4c54-916c-04aa7a8a4362","ios":"levelo://app?vid=90c1e5dd-34b2-4c54-916c-04aa7a8a4362"},"vehicle_type_id":"4","last_reported":1758989464,"current_range_meters":16000,"station_id":"ce4bhbh2rcd13ifvqepg","pricing_plan_id":"cebpf4jnsgd1na2vs0mg"},{"bike_id":"d66cd03b-dbeb-4aa4-961e-bd97aeefe4a4","system_id":"levelo_inurba_marseille","lat":43.25948,"lon":5.41371,"is_reserved":false,"is_disabled":false,"rental_uris":{"android":"levelo://app?vid=d66cd03b-dbeb-4aa4-961e-bd97aeefe4a4","ios":"levelo://app?vid=d66cd03b-dbeb-4aa4-961e-bd97aeefe4a4"},"vehicle_type_id":"4","last_reported":1758989464,"current_range_meters":16000,"station_id":"","pricing_plan_id":"cebpf4jnsgd1na2vs0mg"},{"bike_id":"10e1de49-0a9c-4121-b699-6b9e871b36cf","system_id":"levelo_inurba_marseille","lat":43.29539,"lon":5.37502,"is_reserved":false,"is_disabled":false,"rental_uris":{"android":"levelo://app?vid=10e1de49-0a9c-4121-b699-6b9e871b36cf","ios":"levelo://app?vid=10e1de49-0a9c-4121-b699-6b9e871b36cf"},"vehicle_type_id":"4","last_reported":1758989464,"current_range_meters":16000,"station_id":"ce4bgkp2rcd13ifvqbmg","pricing_plan_id":"cebpf4jnsgd1na2vs0mg"},{"bike_id":"4312b3e8-1993-401e-83fd-68dd194aea8e","system_id":"levelo_inurba_marseille","lat":43.225351,"lon":5.348334,"is_reserved":false,"is_disabled":false,"rental_uris":{"android":"levelo://app?vid=4312b3e8-1993-401e-83fd-68dd194aea8e","ios":"levelo://app?vid=4312b3e8-1993-401e-83fd-68dd194aea8e"},"vehicle_type_id":"4","last_reported":1758989464,"current_range_meters":16400,"station_id":"","pricing_plan_id":"cebpf4jnsgd1na2vs0mg"},{"bike_id":"75a1808b-f036-45a0-9b9e-d8442cdf8f90","system_id":"levelo_inurba_marseille","lat":43.25009,"lon":5.3893,"is_reserved":false,"is_disabled":false,"rental_uris":{"android":"levelo://app?vid=75a1808b-f036-45a0-9b9e-d8442cdf8f90","ios":"levelo://app?vid=75a1808b-f036-45a0-9b9e-d8442cdf8f90"},"vehicle_type_id":"4","last_reported":1758989464,"current_range_meters":16800,"station_id":"ce4bhgp2rcd13ifvqfd0","pricing_plan_id":"cebpf4jnsgd1na2vs0mg"},{"bike_id":"e54b8c9f-4f66-4c52-b603-24745fa68456","system_id":"levelo_inurba_marseille","lat":43.25725,"lon":5.41093,"is_reserved":false,"is_disabled":false,"rental_uris":{"android":"levelo://app?vid=e54b8c9f-4f66-4c52-b603-24745fa68456","ios":"levelo://app?vid=e54b8c9f-4f66-4c52-b603-24745fa68456"},"vehicle_type_id":"4","last_reported":1758989464,"current_range_meters":16400,"station_id":"ce4bhkp2rcd13ifvqgd0","pricing_plan_id":"cebpf4jnsgd1na2vs0mg"},{"bike_id":"61f066a7-184f-43bc-b959-8ad24ef2814a","system_id":"levelo_inurba_marseille","lat":43.28418,"lon":5.35002,"is_reserved":false,"is_disabled":false,"rental_uris":{"android":"levelo://app?vid=61f066a7-184f-43bc-b959-8ad24ef2814a","ios":"levelo://app?vid=61f066a7-184f-43bc-b959-8ad24ef2814a"},"vehicle_type_id":"4","last_reported":1758989464,"current_range_meters":16400,"station_id":"ce4bhbh2rcd13ifvqepg","pricing_plan_id":"cebpf4jnsgd1na2vs0mg"},{"bike_id":"84c891a1-4a82-4cf6-988c-89243ddc524a","system_id":"levelo_inurba_marseille","lat":43.25565,"lon":5.38242,"is_reserved":false,"is_disabled":false,"rental_uris":{"android":"levelo://app?vid=84c891a1-4a82-4cf6-988c-89243ddc524a","ios":"levelo://app?vid=84c891a1-4a82-4cf6-988c-89243ddc524a"},"vehicle_type_id":"4","last_reported":1758989464,"current_range_meters":16400,"station_id":"ce4bhih2rcd13ifvqfs0","pricing_plan_id":"cebpf4jnsgd1na2vs0mg"},{"bike_id":"01407f58-67d2-4e57-89af-6514e7ec52bd","system_id":"levelo_inurba_marseille","lat":43.2991,"lon":5.37468,"is_reserved":false,"is_disabled":false,"rental_uris":{"android":"levelo://app?vid=01407f58-67d2-4e57-89af-6514e7ec52bd","ios":"levelo://app?vid=01407f58-67d2-4e57-89af-6514e7ec52bd"},"vehicle_type_id":"4","last_reported":1758989464,"current_range_meters":16000,"station_id":"ce4bgjh2rcd13ifvqbg0","pricing_plan_id":"cebpf4jnsgd1na2vs0mg"},{"bike_id":"54fff988-c74f-45fc-a0eb-29489bfa1777","system_id":"levelo_inurba_marseille","lat":43.24648,"lon":5.38907,"is_reserved":false,"is_disabled":false,"rental_uris":{"android":"levelo://app?vid=54fff988-c74f-45fc-a0eb-29489bfa1777","ios":"levelo://app?vid=54fff988-c74f-45fc-a0eb-29489bfa1777"},"vehicle_type_id":"4","last_reported":1758989464,"current_range_meters":16400,"station_id":"ce4bhg12rcd13ifvqf60","pricing_plan_id":"cebpf4jnsgd1na2vs0mg"},{"bike_id":"b219c086-dfbe-4625-9649-9c9028fcc568","system_id":"levelo_inurba_marseille","lat":43.24806,"lon":5.37479,"is_reserved":false,"is_disabled":false,"rental_uris":{"android":"levelo://app?vid=b219c086-dfbe-4625-9649-9c9028fcc568","ios":"levelo://app?vid=b219c086-dfbe-4625-9649-9c9028fcc568"},"vehicle_type_id":"4","last_reported":1758989464,"current_range_meters":16400,"station_id":"ce4bhgh2rcd13ifvqfb0","pricing_plan_id":"cebpf4jnsgd1na2vs0mg"},{"bike_id":"f357e0ba-c45c-4c4b-93f6-fe9ec759d89d","system_id":"levelo_inurba_marseille","lat":43.25719,"lon":5.41115,"is_reserved":false,"is_disabled":false,"rental_uris":{"android":"levelo://app?vid=f357e0ba-c45c-4c4b-93f6-fe9ec759d89d","ios":"levelo://app?vid=f357e0ba-c45c-4c4b-93f6-fe9ec759d89d"},"vehicle_type_id":"4","last_reported":1758989464,"current_range_meters":16400,"station_id":"ce4bhkp2rcd13ifvqgd0","pricing_plan_id":"cebpf4jnsgd1na2vs0mg"},{"bike_id":"a6b9e550-5044-46f8-a7da-2fa4c100102d","system_id":"levelo_inurba_marseille","lat":43.28854,"lon":5.35865,"is_reserved":false,"is_disabled":false,"rental_uris":{"android":"levelo://app?vid=a6b9e550-5044-46f8-a7da-2fa4c100102d","ios":"levelo://app?vid=a6b9e550-5044-46f8-a7da-2fa4c100102d"},"vehicle_type_id":"4","last_reported":1758989464,"current_range_meters":16000,"station_id":"ce4bhb12rcd13ifvqem0","pricing_plan_id":"cebpf4jnsgd1na2vs0mg"},{"bike_id":"342aa4a8-2613-4079-ad39-b792bb12bc57","system_id":"levelo_inurba_marseille","lat":43.32108,"lon":5.3676,"is_reserved":false,"is_disabled":false,"rental_uris":{"android":"levelo://app?vid=342aa4a8-2613-4079-ad39-b792bb12bc57","ios":"levelo://app?vid=342aa4a8-2613-4079-ad39-b792bb12bc57"},"vehicle_type_id":"4","last_reported":1758989464,"current_range_meters":16400,"station_id":"ce4bhrh2rcd13ifvqhug","pricing_plan_id":"cebpf4jnsgd1na2vs0mg"},{"bike_id":"c081d6ac-5788-49e0-94f1-f96219519e58","system_id":"levelo_inurba_marseille","lat":43.24649,"lon":5.38873,"is_reserved":false,"is_disabled":false,"rental_uris":{"android":"levelo://app?vid=c081d6ac-5788-49e0-94f1-f96219519e58","ios":"levelo://app?vid=c081d6ac-5788-49e0-94f1-f96219519e58"},"vehicle_type_id":"4","last_reported":1758989464,"current_range_meters":16400,"station_id":"ce4bhg12rcd13ifvqf60","pricing_plan_id":"cebpf4jnsgd1na2vs0mg"},{"bike_id":"61f72c81-84af-4d24-903d-9a7cb27e68a1","system_id":"levelo_inurba_marseille","lat":43.24622,"lon":5.43148,"is_reserved":false,"is_disabled":false,"rental_uris":{"android":"levelo://app?vid=61f72c81-84af-4d24-903d-9a7cb27e68a1","ios":"levelo://app?vid=61f72c81-84af-4d24-903d-9a7cb27e68a1"},"vehicle_type_id":"4","last_reported":1758989464,"current_range_meters":16400,"station_id":"st_d2m6c4gdas8pm72e190g","pricing_plan_id":"cebpf4jnsgd1na2vs0mg"},{"bike_id":"c7f04b2e-7c9b-43a1-8dc9-a7fc42c95dfc","system_id":"levelo_inurba_marseille","lat":43.3133,"lon":5.39685,"is_reserved":false,"is_disabled":false,"rental_uris":{"android":"levelo://app?vid=c7f04b2e-7c9b-43a1-8dc9-a7fc42c95dfc","ios":"levelo://app?vid=c7f04b2e-7c9b-43a1-8dc9-a7fc42c95dfc"},"vehicle_type_id":"4","last_reported":1758989464,"current_range_meters":16400,"station_id":"ce4bgvp2rcd13ifvqcu0","pricing_plan_id":"cebpf4jnsgd1na2vs0mg"},{"bike_id":"258ab053-1083-4ca9-a32a-1e85f085fc22","system_id":"levelo_inurba_marseille","lat":43.337444,"lon":5.374475,"is_reserved":false,"is_disabled":false,"rental_uris":{"android":"levelo://app?vid=258ab053-1083-4ca9-a32a-1e85f085fc22","ios":"levelo://app?vid=258ab053-1083-4ca9-a32a-1e85f085fc22"},"vehicle_type_id":"4","last_reported":1758989464,"current_range_meters":16400,"station_id":"","pricing_plan_id":"cebpf4jnsgd1na2vs0mg"},{"bike_id":"f62fe733-90ac-444a-a20a-73d227678ff7","system_id":"levelo_inurba_marseille","lat":43.296,"lon":5.37716,"is_reserved":false,"is_disabled":true,"rental_uris":{"android":"levelo://app?vid=f62fe733-90ac-444a-a20a-73d227678ff7","ios":"levelo://app?vid=f62fe733-90ac-444a-a20a-73d227678ff7"},"vehicle_type_id":"4","last_reported":1758989464,"current_range_meters":16800,"station_id":"ce4bgi92rcd13ifvqb90","pricing_plan_id":"cebpf4jnsgd1na2vs0mg"},{"bike_id":"8de94f43-1bcf-4ee3-96a3-9271cdcae99f","system_id":"levelo_inurba_marseille","lat":43.24074,"lon":5.37761,"is_reserved":false,"is_disabled":false,"rental_uris":{"android":"levelo://app?vid=8de94f43-1bcf-4ee3-96a3-9271cdcae99f","ios":"levelo://app?vid=8de94f43-1bcf-4ee3-96a3-9271cdcae99f"},"vehicle_type_id":"4","last_reported":1758989464,"current_range_meters":16800,"station_id":"ce4bhnp2rcd13ifvqgvg","pricing_plan_id":"cebpf4jnsgd1na2vs0mg"},{"bike_id":"95bafeb0-6c7b-407a-a73b-a6569ff5cb66","system_id":"levelo_inurba_marseille","lat":43.33784,"lon":5.3749,"is_reserved":false,"is_disabled":false,"rental_uris":{"android":"levelo://app?vid=95bafeb0-6c7b-407a-a73b-a6569ff5cb66","ios":"levelo://app?vid=95bafeb0-6c7b-407a-a73b-a6569ff5cb66"},"vehicle_type_id":"4","last_reported":1758989464,"current_range_meters":16800,"station_id":"","pricing_plan_id":"cebpf4jnsgd1na2vs0mg"},{"bike_id":"c2c3ba12-4588-468e-bef4-38730d4818bb","system_id":"levelo_inurba_marseille","lat":43.295288,"lon":5.385425,"is_reserved":false,"is_disabled":false,"rental_uris":{"android":"levelo://app?vid=c2c3ba12-4588-468e-bef4-38730d4818bb","ios":"levelo://app?vid=c2c3ba12-4588-468e-bef4-38730d4818bb"},"vehicle_type_id":"4","last_reported":1758989464,"current_range_meters":17200,"station_id":"ce4bgih2rcd13ifvqba0","pricing_plan_id":"cebpf4jnsgd1na2vs0mg"},{"bike_id":"2243febf-ebaf-474b-8e3e-799410e4c867","system_id":"levelo_inurba_marseille","lat":43.32568,"lon":5.36365,"is_reserved":false,"is_disabled":false,"rental_uris":{"android":"levelo://app?vid=2243febf-ebaf-474b-8e3e-799410e4c867","ios":"levelo://app?vid=2243febf-ebaf-474b-8e3e-799410e4c867"},"vehicle_type_id":"4","last_reported":1758989464,"current_range_meters":16800,"station_id":"","pricing_plan_id":"cebpf4jnsgd1na2vs0mg"},{"bike_id":"f4c53ff4-73a4-4134-bb3f-bbf464878afb","system_id":"levelo_inurba_marseille","lat":43.21748,"lon":5.34575,"is_reserved":false,"is_disabled":true,"rental_uris":{"android":"levelo://app?vid=f4c53ff4-73a4-4134-bb3f-bbf464878afb","ios":"levelo://app?vid=f4c53ff4-73a4-4134-bb3f-bbf464878afb"},"vehicle_type_id":"4","last_reported":1758989464,"current_range_meters":16800,"station_id":"st_cvj6r9ubvosntc0bgbag","pricing_plan_id":"cebpf4jnsgd1na2vs0mg"},{"bike_id":"4fb3cb81-b2a4-4d6f-b146-13e2fad0653e","system_id":"levelo_inurba_marseille","lat":43.28726,"lon":5.36078,"is_reserved":false,"is_disabled":false,"rental_uris":{"android":"levelo://app?vid=4fb3cb81-b2a4-4d6f-b146-13e2fad0653e","ios":"levelo://app?vid=4fb3cb81-b2a4-4d6f-b146-13e2fad0653e"},"vehicle_type_id":"4","last_reported":1758989464,"current_range_meters":16800,"station_id":"cki0cbj6b192h4jlfktg","pricing_plan_id":"cebpf4jnsgd1na2vs0mg"},{"bike_id":"33ac03ed-dfbb-4aa1-aee0-f01e22e067d9","system_id":"levelo_inurba_marseille","lat":43.2464,"lon":5.43166,"is_reserved":false,"is_disabled":false,"rental_uris":{"android":"levelo://app?vid=33ac03ed-dfbb-4aa1-aee0-f01e22e067d9","ios":"levelo://app?vid=33ac03ed-dfbb-4aa1-aee0-f01e22e067d9"},"vehicle_type_id":"4","last_reported":1758989464,"current_range_meters":16800,"station_id":"st_d2m6c4gdas8pm72e190g","pricing_plan_id":"cebpf4jnsgd1na2vs0mg"},{"bike_id":"91f03681-11bd-4a24-811a-6c09a89c8efe","system_id":"levelo_inurba_marseille","lat":43.25025,"lon":5.3893,"is_reserved":false,"is_disabled":false,"rental_uris":{"android":"levelo://app?vid=91f03681-11bd-4a24-811a-6c09a89c8efe","ios":"levelo://app?vid=91f03681-11bd-4a24-811a-6c09a89c8efe"},"vehicle_type_id":"4","last_reported":1758989464,"current_range_meters":16800,"station_id":"ce4bhgp2rcd13ifvqfd0","pricing_plan_id":"cebpf4jnsgd1na2vs0mg"},{"bike_id":"8ba5e33b-48f1-42b5-a531-76085f7229c8","system_id":"levelo_inurba_marseille","lat":43.24638,"lon":5.43114,"is_reserved":false,"is_disabled":false,"rental_uris":{"android":"levelo://app?vid=8ba5e33b-48f1-42b5-a531-76085f7229c8","ios":"levelo://app?vid=8ba5e33b-48f1-42b5-a531-76085f7229c8"},"vehicle_type_id":"4","last_reported":1758989464,"current_range_meters":16800,"station_id":"st_d2m6c4gdas8pm72e190g","pricing_plan_id":"cebpf4jnsgd1na2vs0mg"},{"bike_id":"1150dd22-45af-486f-84b1-3375490eaad6","system_id":"levelo_inurba_marseille","lat":43.29202,"lon":5.39337,"is_reserved":false,"is_disabled":false,"rental_uris":{"android":"levelo://app?vid=1150dd22-45af-486f-84b1-3375490eaad6","ios":"levelo://app?vid=1150dd22-45af-486f-84b1-3375490eaad6"},"vehicle_type_id":"4","last_reported":1758989464,"current_range_meters":17200,"station_id":"ce4bh192rcd13ifvqdd0","pricing_plan_id":"cebpf4jnsgd1na2vs0mg"},{"bike_id":"4f67c31c-b8bd-4bbf-b108-3b9124abcd6e","system_id":"levelo_inurba_marseille","lat":43.28628,"lon":5.35143,"is_reserved":false,"is_disabled":false,"rental_uris":{"android":"levelo://app?vid=4f67c31c-b8bd-4bbf-b108-3b9124abcd6e","ios":"levelo://app?vid=4f67c31c-b8bd-4bbf-b108-3b9124abcd6e"},"vehicle_type_id":"4","last_reported":1758989464,"current_range_meters":17200,"station_id":"ce4bhch2rcd13ifvqeug","pricing_plan_id":"cebpf4jnsgd1na2vs0mg"},{"bike_id":"5a8f8dec-9afc-451f-be1f-e59ce076e7d1","system_id":"levelo_inurba_marseille","lat":43.29527,"lon":5.39057,"is_reserved":false,"is_disabled":false,"rental_uris":{"android":"levelo://app?vid=5a8f8dec-9afc-451f-be1f-e59ce076e7d1","ios":"levelo://app?vid=5a8f8dec-9afc-451f-be1f-e59ce076e7d1"},"vehicle_type_id":"4","last_reported":1758989464,"current_range_meters":17200,"station_id":"ce4bh3p2rcd13ifvqdp0","pricing_plan_id":"cebpf4jnsgd1na2vs0mg"},{"bike_id":"30cff23f-9ac7-42af-81d5-809cd71ec949","system_id":"levelo_inurba_marseille","lat":43.31265,"lon":5.3687,"is_reserved":false,"is_disabled":false,"rental_uris":{"android":"levelo://app?vid=30cff23f-9ac7-42af-81d5-809cd71ec949","ios":"levelo://app?vid=30cff23f-9ac7-42af-81d5-809cd71ec949"},"vehicle_type_id":"4","last_reported":1758989464,"current_range_meters":17200,"station_id":"ce4bgl92rcd13ifvqbq0","pricing_plan_id":"cebpf4jnsgd1na2vs0mg"},{"bike_id":"52fb274a-347c-4542-97c6-cdae7f367b03","system_id":"levelo_inurba_marseille","lat":43.3009,"lon":5.39075,"is_reserved":false,"is_disabled":false,"rental_uris":{"android":"levelo://app?vid=52fb274a-347c-4542-97c6-cdae7f367b03","ios":"levelo://app?vid=52fb274a-347c-4542-97c6-cdae7f367b03"},"vehicle_type_id":"4","last_reported":1758989464,"current_range_meters":18000,"station_id":"ce4bh192rcd13ifvqdb0","pricing_plan_id":"cebpf4jnsgd1na2vs0mg"},{"bike_id":"ce90b0c1-6c36-4837-a050-6c45b26dd091","system_id":"levelo_inurba_marseille","lat":43.23201,"lon":5.35579,"is_reserved":false,"is_disabled":false,"rental_uris":{"android":"levelo://app?vid=ce90b0c1-6c36-4837-a050-6c45b26dd091","ios":"levelo://app?vid=ce90b0c1-6c36-4837-a050-6c45b26dd091"},