{"last_updated":1702937185,"ttl":30,"version":"2.2","data":{"bikes":[{"bike_id":"e3ac4689-128a-4830-9e1c-a691a8718a47","system_id":"levelo_inurba_marseille","lat":43.313391,"lon":5.36706,"is_reserved":false,"is_disabled":false,"rental_uris":{"android":"levelo://app?vid=e3ac4689-128a-4830-9e1c-a691a8718a47","ios":"levelo://app?vid=e3ac4689-128a-4830-9e1c-a691a8718a47"},"vehicle_type_id":"4","last_reported":1702937186,"current_range_meters":26800,"station_id":"ce4bgr92rcd13ifvqc6g","pricing_plan_id":"free"},{"bike_id":"5b06e087-5d56-4631-8050-b98f206a02ba","system_id":"levelo_inurba_marseille","lat":43.312239,"lon":5.368562,"is_reserved":false,"is_disabled":false,"rental_uris":{"android":"levelo://app?vid=5b06e087-5d56-4631-8050-b98f206a02ba","ios":"levelo://app?vid=5b06e087-5d56-4631-8050-b98f206a02ba"},"vehicle_type_id":"4","last_reported":1702937186,"current_range_meters":4000,"station_id":"ce4bgl92rcd13ifvqbq0","pricing_plan_id":"free"},{"bike_id":"41ce6951-bbf9-4384-8625-8d3c34ace17a","system_id":"levelo_inurba_marseille","lat":43.309039,"lon":5.371797,"is_reserved":false,"is_disabled":false,"rental_uris":{"android":"levelo://app?vid=41ce6951-bbf9-4384-8625-8d3c34ace17a","ios":"levelo://app?vid=41ce6951-bbf9-4384-8625-8d3c34ace17a"},"vehicle_type_id":"4","last_reported":1702937186,"current_range_meters":19200,"station_id":"ce4bguh2rcd13ifvqckg","pricing_plan_id":"free"},{"bike_id":"dae4932e-fc2f-4b7f-8c94-54974cff6514","system_id":"levelo_inurba_marseille","lat":43.309039,"lon":5.371797,"is_reserved":false,"is_disabled":false,"rental_uris":{"android":"levelo://app?vid=dae4932e-fc2f-4b7f-8c94-54974cff6514","ios":"levelo://app?vid=dae4932e-fc2f-4b7f-8c94-54974cff6514"},"vehicle_type_id":"4","last_reported":1702937186,"current_range_meters":24000,"station_id":"ce4bguh2rcd13ifvqckg","pricing_plan_id":"free"},{"bike_id":"955e4ab2-16e5-44e8-a986-a2f50ff96c06","system_id":"levelo_inurba_marseille","lat":43.305382,"lon":5.365389,"is_reserved":false,"is_disabled":false,"rental_uris":{"android":"levelo://app?vid=955e4ab2-16e5-44e8-a986-a2f50ff96c06","ios":"levelo://app?vid=955e4ab2-16e5-44e8-a986-a2f50ff96c06"},"vehicle_type_id":"4","last_reported":1702937186,"current_range_meters":6400,"station_id":"","pricing_plan_id":"free"},{"bike_id":"ffe0756d-f7c9-469e-8093-da6c1c28d732","system_id":"levelo_inurba_marseille","lat":43.305989,"lon":5.37225,"is_reserved":false,"is_disabled":false,"rental_uris":{"android":"levelo://app?vid=ffe0756d-f7c9-469e-8093-da6c1c28d732","ios":"levelo://app?vid=ffe0756d-f7c9-469e-8093-da6c1c28d732"},"vehicle_type_id":"4","last_reported":1702937186,"current_range_meters":27600,"station_id":"ce4bgqh2rcd13ifvqc4g","pricing_plan_id":"free"},{"bike_id":"cbfbc682-5ddc-48f0-875b-a5a4c950a156","system_id":"levelo_inurba_marseille","lat":43.305989,"lon":5.37225,"is_reserved":false,"is_disabled":false,"rental_uris":{"android":"levelo://app?vid=cbfbc682-5ddc-48f0-875b-a5a4c950a156","ios":"levelo://app?vid=cbfbc682-5ddc-48f0-875b-a5a4c950a156"},"vehicle_type_id":"4","last_reported":1702937186,"current_range_meters":3200,"station_id":"ce4bgqh2rcd13ifvqc4g","pricing_plan_id":"free"},{"bike_id":"6f5a469c-da6c-4d5a-8707-d44c2ebd497f","system_id":"levelo_inurba_marseille","lat":43.311125,"lon":5.377624,"is_reserved":false,"is_disabled":false,"rental_uris":{"android":"levelo://app?vid=6f5a469c-da6c-4d5a-8707-d44c2ebd497f","ios":"levelo://app?vid=6f5a469c-da6c-4d5a-8707-d44c2ebd497f"},"vehicle_type_id":"4","last_reported":1702937186,"current_range_meters":4400,"station_id":"ce4bgt92rcd13ifvqcg0","pricing_plan_id":"free"},{"bike_id":"ab647345-84ca-47bb-86bf-e97ef6299232","system_id":"levelo_inurba_marseille","lat":43.311131,"lon":5.377651,"is_reserved":false,"is_disabled":false,"rental_uris":{"android":"levelo://app?vid=ab647345-84ca-47bb-86bf-e97ef6299232","ios":"levelo://app?vid=ab647345-84ca-47bb-86bf-e97ef6299232"},"vehicle_type_id":"4","last_reported":1702937186,"current_range_meters":26400,"station_id":"ce4bgt92rcd13ifvqcg0","pricing_plan_id":"free"},{"bike_id":"e8551574-b543-4e28-a92f-df91f86783ee","system_id":"levelo_inurba_marseille","lat":43.311125,"lon":5.377624,"is_reserved":false,"is_disabled":false,"rental_uris":{"android":"levelo://app?vid=e8551574-b543-4e28-a92f-df91f86783ee","ios":"levelo://app?vid=e8551574-b543-4e28-a92f-df91f86783ee"},"vehicle_type_id":"4","last_reported":1702937186,"current_range_meters":25600,"station_id":"ce4bgt92rcd13ifvqcg0","pricing_plan_id":"free"},{"bike_id":"3adb993f-6662-492d-977a-503bd7df04d5","system_id":"levelo_inurba_marseille","lat":43.3112,"lon":5.37767,"is_reserved":false,"is_disabled":false,"rental_uris":{"android":"levelo://app?vid=3adb993f-6662-492d-977a-503bd7df04d5","ios":"levelo://app?vid=3adb993f-6662-492d-977a-503bd7df04d5"},"vehicle_type_id":"4","last_reported":1702937186,"current_range_meters":6400,"station_id":"ce4bgt92rcd13ifvqcg0","pricing_plan_id":"free"},{"bike_id":"312d8022-e4a9-4105-82e8-9354ad706c61","system_id":"levelo_inurba_marseille","lat":43.311131,"lon":5.377651,"is_reserved":false,"is_disabled":false,"rental_uris":{"android":"levelo://app?vid=312d8022-e4a9-4105-82e8-9354ad706c61","ios":"levelo://app?vid=312d8022-e4a9-4105-82e8-9354ad706c61"},"vehicle_type_id":"4","last_reported":1702937186,"current_range_meters":800,"station_id":"ce4bgt92rcd13ifvqcg0","pricing_plan_id":"free"},{"bike_id":"4d243e0b-d68a-4104-92f8-897862f7d8a0","system_id":"levelo_inurba_marseille","lat":43.307945,"lon":5.376487,"is_reserved":false,"is_disabled":false,"rental_uris":{"android":"levelo://app?vid=4d243e0b-d68a-4104-92f8-897862f7d8a0","ios":"levelo://app?vid=4d243e0b-d68a-4104-92f8-897862f7d8a0"},"vehicle_type_id":"4","last_reported":1702937186,"current_range_meters":21600,"station_id":"ce4bgv92rcd13ifvqcq0","pricing_plan_id":"free"},{"bike_id":"81f45c1b-53fa-4a58-a765-52e5c02a148f","system_id":"levelo_inurba_marseille","lat":43.307945,"lon":5.376487,"is_reserved":false,"is_disabled":false,"rental_uris":{"android":"levelo://app?vid=81f45c1b-53fa-4a58-a765-52e5c02a148f","ios":"levelo://app?vid=81f45c1b-53fa-4a58-a765-52e5c02a148f"},"vehicle_type_id":"4","last_reported":1702937186,"current_range_meters":22400,"station_id":"ce4bgv92rcd13ifvqcq0","pricing_plan_id":"free"},{"bike_id":"b7fa031c-b110-4ff0-a58d-bcb08e3a330f","system_id":"levelo_inurba_marseille","lat":43.307945,"lon":5.376487,"is_reserved":false,"is_disabled":false,"rental_uris":{"android":"levelo://app?vid=b7fa031c-b110-4ff0-a58d-bcb08e3a330f","ios":"levelo://app?vid=b7fa031c-b110-4ff0-a58d-bcb08e3a330f"},"vehicle_type_id":"4","last_reported":1702937186,"current_range_meters":0,"station_id":"ce4bgv92rcd13ifvqcq0","pricing_plan_id":"free"},{"bike_id":"db432b97-bfb8-4393-9090-660a81c3af8c","system_id":"levelo_inurba_marseille","lat":43.307856,"lon":5.376492,"is_reserved":false,"is_disabled":false,"rental_uris":{"android":"levelo://app?vid=db432b97-bfb8-4393-9090-660a81c3af8c","ios":"levelo://app?vid=db432b97-bfb8-4393-9090-660a81c3af8c"},"vehicle_type_id":"4","last_reported":1702937186,"current_range_meters":3200,"station_id":"ce4bgv92rcd13ifvqcq0","pricing_plan_id":"free"},{"bike_id":"70c651a1-558a-4d40-ac55-e08802983406","system_id":"levelo_inurba_marseille","lat":43.307945,"lon":5.376487,"is_reserved":false,"is_disabled":false,"rental_uris":{"android":"levelo://app?vid=70c651a1-558a-4d40-ac55-e08802983406","ios":"levelo://app?vid=70c651a1-558a-4d40-ac55-e08802983406"},"vehicle_type_id":"4","last_reported":1702937186,"current_range_meters":12800,"station_id":"ce4bgv92rcd13ifvqcq0","pricing_plan_id":"free"},{"bike_id":"c3c8fab7-5ec7-4fd5-830f-5a53156b37a2","system_id":"levelo_inurba_marseille","lat":43.307945,"lon":5.376487,"is_reserved":false,"is_disabled":false,"rental_uris":{"android":"levelo://app?vid=c3c8fab7-5ec7-4fd5-830f-5a53156b37a2","ios":"levelo://app?vid=c3c8fab7-5ec7-4fd5-830f-5a53156b37a2"},"vehicle_type_id":"4","last_reported":1702937186,"current_range_meters":29200,"station_id":"ce4bgv92rcd13ifvqcq0","pricing_plan_id":"free"},{"bike_id":"7fff9f38-4835-4a37-922b-2626be2b3c5f","system_id":"levelo_inurba_marseille","lat":43.315293,"lon":5.380349,"is_reserved":false,"is_disabled":false,"rental_uris":{"android":"levelo://app?vid=7fff9f38-4835-4a37-922b-2626be2b3c5f","ios":"levelo://app?vid=7fff9f38-4835-4a37-922b-2626be2b3c5f"},"vehicle_type_id":"4","last_reported":1702937186,"current_range_meters":15200,"station_id":"ce4bhsp2rcd13ifvqi50","pricing_plan_id":"free"},{"bike_id":"a2cd93c5-960d-45d0-9350-f90118b65bd6","system_id":"levelo_inurba_marseille","lat":43.315293,"lon":5.380349,"is_reserved":false,"is_disabled":false,"rental_uris":{"android":"levelo://app?vid=a2cd93c5-960d-45d0-9350-f90118b65bd6","ios":"levelo://app?vid=a2cd93c5-960d-45d0-9350-f90118b65bd6"},"vehicle_type_id":"4","last_reported":1702937186,"current_range_meters":18000,"station_id":"ce4bhsp2rcd13ifvqi50","pricing_plan_id":"free"},{"bike_id":"9f2a598a-e9c1-44e3-94a1-6834d8da4798","system_id":"levelo_inurba_marseille","lat":43.308012,"lon":5.381511,"is_reserved":false,"is_disabled":false,"rental_uris":{"android":"levelo://app?vid=9f2a598a-e9c1-44e3-94a1-6834d8da4798","ios":"levelo://app?vid=9f2a598a-e9c1-44e3-94a1-6834d8da4798"},"vehicle_type_id":"4","last_reported":1702937186,"current_range_meters":22000,"station_id":"ce4bgt12rcd13ifvqce0","pricing_plan_id":"free"},{"bike_id":"1ab3c9f0-4d08-4fe1-8688-7032f32d4b45","system_id":"levelo_inurba_marseille","lat":43.304606,"lon":5.379026,"is_reserved":false,"is_disabled":false,"rental_uris":{"android":"levelo://app?vid=1ab3c9f0-4d08-4fe1-8688-7032f32d4b45","ios":"levelo://app?vid=1ab3c9f0-4d08-4fe1-8688-7032f32d4b45"},"vehicle_type_id":"4","last_reported":1702937186,"current_range_meters":26800,"station_id":"ce4bgup2rcd13ifvqcn0","pricing_plan_id":"free"},{"bike_id":"34253fdc-8670-44a1-8f6d-dfc4b28f9f19","system_id":"levelo_inurba_marseille","lat":43.304606,"lon":5.379026,"is_reserved":false,"is_disabled":false,"rental_uris":{"android":"levelo://app?vid=34253fdc-8670-44a1-8f6d-dfc4b28f9f19","ios":"levelo://app?vid=34253fdc-8670-44a1-8f6d-dfc4b28f9f19"},"vehicle_type_id":"4","last_reported":1702937186,"current_range_meters":29200,"station_id":"ce4bgup2rcd13ifvqcn0","pricing_plan_id":"free"},{"bike_id":"bec4cde5-4247-4184-b52f-f596a70addb1","system_id":"levelo_inurba_marseille","lat":43.304606,"lon":5.379026,"is_reserved":false,"is_disabled":false,"rental_uris":{"android":"levelo://app?vid=bec4cde5-4247-4184-b52f-f596a70addb1","ios":"levelo://app?vid=bec4cde5-4247-4184-b52f-f596a70addb1"},"vehicle_type_id":"4","last_reported":1702937186,"current_range_meters":28800,"station_id":"ce4bgup2rcd13ifvqcn0","pricing_plan_id":"free"},{"bike_id":"16236860-f5d0-42db-8fcd-e8c6c8156ded","system_id":"levelo_inurba_marseille","lat":43.304606,"lon":5.379026,"is_reserved":false,"is_disabled":false,"rental_uris":{"android":"levelo://app?vid=16236860-f5d0-42db-8fcd-e8c6c8156ded","ios":"levelo://app?vid=16236860-f5d0-42db-8fcd-e8c6c8156ded"},"vehicle_type_id":"4","last_reported":1702937186,"current_range_meters":26400,"station_id":"ce4bgup2rcd13ifvqcn0","pricing_plan_id":"free"},{"bike_id":"95ce6072-d8e8-469c-bf12-94d8c802f21d","system_id":"levelo_inurba_marseille","lat":43.304606,"lon":5.379026,"is_reserved":false,"is_disabled":false,"rental_uris":{"android":"levelo://app?vid=95ce6072-d8e8-469c-bf12-94d8c802f21d","ios":"levelo://app?vid=95ce6072-d8e8-469c-bf12-94d8c802f21d"},"vehicle_type_id":"4","last_reported":1702937186,"current_range_meters":29600,"station_id":"ce4bgup2rcd13ifvqcn0","pricing_plan_id":"free"},{"bike_id":"c4e47482-6e3e-4c45-907b-a153528f0b5c","system_id":"levelo_inurba_marseille","lat":43.304606,"lon":5.379026,"is_reserved":false,"is_disabled":false,"rental_uris":{"android":"levelo://app?vid=c4e47482-6e3e-4c45-907b-a153528f0b5c","ios":"levelo://app?vid=c4e47482-6e3e-4c45-907b-a153528f0b5c"},"vehicle_type_id":"4","last_reported":1702937186,"current_range_meters":28000,"station_id":"ce4bgup2rcd13ifvqcn0","pricing_plan_id":"free"},{"bike_id":"79c8e91d-90e5-4545-896b-e26631ffd3aa","system_id":"levelo_inurba_marseille","lat":43.304606,"lon":5.379026,"is_reserved":false,"is_disabled":false,"rental_uris":{"android":"levelo://app?vid=79c8e91d-90e5-4545-896b-e26631ffd3aa","ios":"levelo://app?vid=79c8e91d-90e5-4545-896b-e26631ffd3aa"},"vehicle_type_id":"4","last_reported":1702937186,"current_range_meters":26000,"station_id":"ce4bgup2rcd13ifvqcn0","pricing_plan_id":"free"},{"bike_id":"8b97c3f1-bb5f-4c4b-bae8-74bcb68230ca","system_id":"levelo_inurba_marseille","lat":43.310698,"lon":5.383236,"is_reserved":false,"is_disabled":false,"rental_uris":{"android":"levelo://app?vid=8b97c3f1-bb5f-4c4b-bae8-74bcb68230ca","ios":"levelo://app?vid=8b97c3f1-bb5f-4c4b-bae8-74bcb68230ca"},"vehicle_type_id":"4","last_reported":1702937186,"current_range_meters":0,"station_id":"","pricing_plan_id":"free"},{"bike_id":"45339936-a93c-4679-9636-b2c04e6f7a50","system_id":"levelo_inurba_marseille","lat":43.32482,"lon":5.36551,"is_reserved":false,"is_disabled":false,"rental_uris":{"android":"levelo://app?vid=45339936-a93c-4679-9636-b2c04e6f7a50","ios":"levelo://app?vid=45339936-a93c-4679-9636-b2c04e6f7a50"},"vehicle_type_id":"4","last_reported":1702937186,"current_range_meters":15200,"station_id":"ce4bhs12rcd13ifvqhvg","pricing_plan_id":"free"},{"bike_id":"da537520-39a6-419b-9060-184b50000ed9","system_id":"levelo_inurba_marseille","lat":43.3136,"lon":5.38498,"is_reserved":false,"is_disabled":false,"rental_uris":{"android":"levelo://app?vid=da537520-39a6-419b-9060-184b50000ed9","ios":"levelo://app?vid=da537520-39a6-419b-9060-184b50000ed9"},"vehicle_type_id":"4","last_reported":1702937186,"current_range_meters":27600,"station_id":"ce4bgt92rcd13ifvqcf0","pricing_plan_id":"free"},{"bike_id":"d440d492-7c4b-4617-99bc-3e1a43d765a5","system_id":"levelo_inurba_marseille","lat":43.313571,"lon":5.384829,"is_reserved":false,"is_disabled":false,"rental_uris":{"android":"levelo://app?vid=d440d492-7c4b-4617-99bc-3e1a43d765a5","ios":"levelo://app?vid=d440d492-7c4b-4617-99bc-3e1a43d765a5"},"vehicle_type_id":"4","last_reported":1702937186,"current_range_meters":27200,"station_id":"ce4bgt92rcd13ifvqcf0","pricing_plan_id":"free"},{"bike_id":"b7abe86b-cd2b-4151-b8b4-b40f1e853582","system_id":"levelo_inurba_marseille","lat":43.31361,"lon":5.38503,"is_reserved":false,"is_disabled":false,"rental_uris":{"android":"levelo://app?vid=b7abe86b-cd2b-4151-b8b4-b40f1e853582","ios":"levelo://app?vid=b7abe86b-cd2b-4151-b8b4-b40f1e853582"},"vehicle_type_id":"4","last_reported":1702937186,"current_range_meters":5200,"station_id":"ce4bgt92rcd13ifvqcf0","pricing_plan_id":"free"},{"bike_id":"5275ea88-3624-4c0d-91e6-e4385dca5ddb","system_id":"levelo_inurba_marseille","lat":43.31368,"lon":5.38503,"is_reserved":false,"is_disabled":false,"rental_uris":{"android":"levelo://app?vid=5275ea88-3624-4c0d-91e6-e4385dca5ddb","ios":"levelo://app?vid=5275ea88-3624-4c0d-91e6-e4385dca5ddb"},"vehicle_type_id":"4","last_reported":1702937186,"current_range_meters":27200,"station_id":"ce4bgt92rcd13ifvqcf0","pricing_plan_id":"free"},{"bike_id":"0bc60a94-98e6-491c-8dd9-11fd0f999cfc","system_id":"levelo_inurba_marseille","lat":43.299724,"lon":5.371829,"is_reserved":false,"is_disabled":false,"rental_uris":{"android":"levelo://app?vid=0bc60a94-98e6-491c-8dd9-11fd0f999cfc","ios":"levelo://app?vid=0bc60a94-98e6-491c-8dd9-11fd0f999cfc"},"vehicle_type_id":"4","last_reported":1702937186,"current_range_meters":28800,"station_id":"ce4bgr92rcd13ifvqc7g","pricing_plan_id":"free"},{"bike_id":"719daa38-3563-44f0-a82b-651ef23f74e4","system_id":"levelo_inurba_marseille","lat":43.305364,"lon":5.384119,"is_reserved":false,"is_disabled":false,"rental_uris":{"android":"levelo://app?vid=719daa38-3563-44f0-a82b-651ef23f74e4","ios":"levelo://app?vid=719daa38-3563-44f0-a82b-651ef23f74e4"},"vehicle_type_id":"4","last_reported":1702937186,"current_range_meters":21200,"station_id":"ce4bgg92rcd13ifvqb30","pricing_plan_id":"free"},{"bike_id":"819cb438-2e9c-4e0b-902b-5e19ef554d5c","system_id":"levelo_inurba_marseille","lat":43.305477,"lon":5.384319,"is_reserved":false,"is_disabled":false,"rental_uris":{"android":"levelo://app?vid=819cb438-2e9c-4e0b-902b-5e19ef554d5c","ios":"levelo://app?vid=819cb438-2e9c-4e0b-902b-5e19ef554d5c"},"vehicle_type_id":"4","last_reported":1702937186,"current_range_meters":5200,"station_id":"ce4bgg92rcd13ifvqb30","pricing_plan_id":"free"},{"bike_id":"cbb5ddc9-3054-4006-868a-28069c439e14","system_id":"levelo_inurba_marseille","lat":43.31169,"lon":5.38724,"is_reserved":false,"is_disabled":false,"rental_uris":{"android":"levelo://app?vid=cbb5ddc9-3054-4006-868a-28069c439e14","ios":"levelo://app?vid=cbb5ddc9-3054-4006-868a-28069c439e14"},"vehicle_type_id":"4","last_reported":1702937186,"current_range_meters":12000,"station_id":"ce4bgv12rcd13ifvqcp0","pricing_plan_id":"free"},{"bike_id":"11b62f67-a827-4afe-b218-13f451da0993","system_id":"levelo_inurba_marseille","lat":43.311722,"lon":5.387247,"is_reserved":false,"is_disabled":false,"rental_uris":{"android":"levelo://app?vid=11b62f67-a827-4afe-b218-13f451da0993","ios":"levelo://app?vid=11b62f67-a827-4afe-b218-13f451da0993"},"vehicle_type_id":"4","last_reported":1702937186,"current_range_meters":18000,"station_id":"ce4bgv12rcd13ifvqcp0","pricing_plan_id":"free"},{"bike_id":"e66617a4-437e-4611-bcde-9766d1b74975","system_id":"levelo_inurba_marseille","lat":43.322872,"lon":5.382756,"is_reserved":false,"is_disabled":false,"rental_uris":{"android":"levelo://app?vid=e66617a4-437e-4611-bcde-9766d1b74975","ios":"levelo://app?vid=e66617a4-437e-4611-bcde-9766d1b74975"},"vehicle_type_id":"4","last_reported":1702937186,"current_range_meters":30400,"station_id":"ce4bhr12rcd13ifvqhqg","pricing_plan_id":"free"},{"bike_id":"6d85332b-7fb3-42bf-91c3-981a57630acd","system_id":"levelo_inurba_marseille","lat":43.309589,"lon":5.390258,"is_reserved":false,"is_disabled":false,"rental_uris":{"android":"levelo://app?vid=6d85332b-7fb3-42bf-91c3-981a57630acd","ios":"levelo://app?vid=6d85332b-7fb3-42bf-91c3-981a57630acd"},"vehicle_type_id":"4","last_reported":1702937186,"current_range_meters":7600,"station_id":"ce4bgup2rcd13ifvqco0","pricing_plan_id":"free"},{"bike_id":"5a0dec12-6d40-456c-a336-a2b332cfce8e","system_id":"levelo_inurba_marseille","lat":43.317557,"lon":5.390173,"is_reserved":false,"is_disabled":false,"rental_uris":{"android":"levelo://app?vid=5a0dec12-6d40-456c-a336-a2b332cfce8e","ios":"levelo://app?vid=5a0dec12-6d40-456c-a336-a2b332cfce8e"},"vehicle_type_id":"4","last_reported":1702937186,"current_range_meters":30000,"station_id":"ce4bhqp2rcd13ifvqhng","pricing_plan_id":"free"},{"bike_id":"91352816-fb91-44e7-aa41-38c74758eacf","system_id":"levelo_inurba_marseille","lat":43.317557,"lon":5.390173,"is_reserved":false,"is_disabled":false,"rental_uris":{"android":"levelo://app?vid=91352816-fb91-44e7-aa41-38c74758eacf","ios":"levelo://app?vid=91352816-fb91-44e7-aa41-38c74758eacf"},"vehicle_type_id":"4","last_reported":1702937186,"current_range_meters":13600,"station_id":"ce4bhqp2rcd13ifvqhng","pricing_plan_id":"free"},{"bike_id":"708ff2df-6df8-437a-83a8-a660675bae4f","system_id":"levelo_inurba_marseille","lat":43.317557,"lon":5.390173,"is_reserved":false,"is_disabled":false,"rental_uris":{"android":"levelo://app?vid=708ff2df-6df8-437a-83a8-a660675bae4f","ios":"levelo://app?vid=708ff2df-6df8-437a-83a8-a660675bae4f"},"vehicle_type_id":"4","last_reported":1702937186,"current_range_meters":6000,"station_id":"ce4bhqp2rcd13ifvqhng","pricing_plan_id":"free"},{"bike_id":"2db684b6-3afb-41e1-b426-e20f8957c07c","system_id":"levelo_inurba_marseille","lat":43.304278,"lon":5.388868,"is_reserved":false,"is_disabled":false,"rental_uris":{"android":"levelo://app?vid=2db684b6-3afb-41e1-b426-e20f8957c07c","ios":"levelo://app?vid=2db684b6-3afb-41e1-b426-e20f8957c07c"},"vehicle_type_id":"4","last_reported":1702937186,"current_range_meters":18800,"station_id":"ce4bgk12rcd13ifvqbi0","pricing_plan_id":"free"},{"bike_id":"2995b6bd-2ab4-4fad-ab59-670ee038577d","system_id":"levelo_inurba_marseille","lat":43.304274,"lon":5.388873,"is_reserved":false,"is_disabled":false,"rental_uris":{"android":"levelo://app?vid=2995b6bd-2ab4-4fad-ab59-670ee038577d","ios":"levelo://app?vid=2995b6bd-2ab4-4fad-ab59-670ee038577d"},"vehicle_type_id":"4","last_reported":1702937186,"current_range_meters":21600,"station_id":"ce4bgk12rcd13ifvqbi0","pricing_plan_id":"free"},{"bike_id":"323ee2ab-6049-4649-af2c-8f63e57e6f72","system_id":"levelo_inurba_marseille","lat":43.299724,"lon":5.384848,"is_reserved":false,"is_disabled":false,"rental_uris":{"android":"levelo://app?vid=323ee2ab-6049-4649-af2c-8f63e57e6f72","ios":"levelo://app?vid=323ee2ab-6049-4649-af2c-8f63e57e6f72"},"vehicle_type_id":"4","last_reported":1702937186,"current_range_meters":26400,"station_id":"ce4bgj92rcd13ifvqbd0","pricing_plan_id":"free"},{"bike_id":"10d7df7f-fd5d-419c-8505-c3bd4c2fcdec","system_id":"levelo_inurba_marseille","lat":43.296316,"lon":5.380154,"is_reserved":false,"is_disabled":false,"rental_uris":{"android":"levelo://app?vid=10d7df7f-fd5d-419c-8505-c3bd4c2fcdec","ios":"levelo://app?vid=10d7df7f-fd5d-419c-8505-c3bd4c2fcdec"},"vehicle_type_id":"4","last_reported":1702937186,"current_range_meters":19600,"station_id":"","pricing_plan_id":"free"},{"bike_id":"b7b40e2e-9ae1-4ff9-9a7a-bd95c0e100d8","system_id":"levelo_inurba_marseille","lat":43.29601,"lon":5.381084,"is_reserved":false,"is_disabled":false,"rental_uris":{"android":"levelo://app?vid=b7b40e2e-9ae1-4ff9-9a7a-bd95c0e100d8","ios":"levelo://app?vid=b7b40e2e-9ae1-4ff9-9a7a-bd95c0e100d8"},"vehicle_type_id":"4","last_reported":1702937186,"current_range_meters":23200,"station_id":"ce4bgl12rcd13ifvqbo0","pricing_plan_id":"free"},{"bike_id":"8728157f-61cd-417a-97d2-46caa98937ad","system_id":"levelo_inurba_marseille","lat":43.305994,"lon":5.393687,"is_reserved":false,"is_disabled":false,"rental_uris":{"android":"levelo://app?vid=8728157f-61cd-417a-97d2-46caa98937ad","ios":"levelo://app?vid=8728157f-61cd-417a-97d2-46caa98937ad"},"vehicle_type_id":"4","last_reported":1702937186,"current_range_meters":6800,"station_id":"ce4bh0p2rcd13ifvqd80","pricing_plan_id":"free"},{"bike_id":"e15474c2-e747-4189-9f34-58dedd7babf8","system_id":"levelo_inurba_marseille","lat":43.30587,"lon":5.39352,"is_reserved":false,"is_disabled":false,"rental_uris":{"android":"levelo://app?vid=e15474c2-e747-4189-9f34-58dedd7babf8","ios":"levelo://app?vid=e15474c2-e747-4189-9f34-58dedd7babf8"},"vehicle_type_id":"4","last_reported":1702937186,"current_range_meters":10800,"station_id":"ce4bhqp2rcd13ifvqhng","pricing_plan_id":"free"},{"bike_id":"53788122-5aaa-49df-a699-c43f2b808ed3","system_id":"levelo_inurba_marseille","lat":43.30093,"lon":5.39084,"is_reserved":false,"is_disabled":false,"rental_uris":{"android":"levelo://app?vid=53788122-5aaa-49df-a699-c43f2b808ed3","ios":"levelo://app?vid=53788122-5aaa-49df-a699-c43f2b808ed3"},"vehicle_type_id":"4","last_reported":1702937186,"current_range_meters":31200,"station_id":"ce4bh192rcd13ifvqdb0","pricing_plan_id":"free"},{"bike_id":"e882695d-8e5f-4d0a-9a89-1c48842f0348","system_id":"levelo_inurba_marseille","lat":43.30092,"lon":5.39085,"is_reserved":false,"is_disabled":false,"rental_uris":{"android":"levelo://app?vid=e882695d-8e5f-4d0a-9a89-1c48842f0348","ios":"levelo://app?vid=e882695d-8e5f-4d0a-9a89-1c48842f0348"},"vehicle_type_id":"4","last_reported":1702937186,"current_range_meters":6000,"station_id":"ce4bh192rcd13ifvqdb0","pricing_plan_id":"free"},{"bike_id":"cbd31d5f-4351-4042-a076-388f0846fc53","system_id":"levelo_inurba_marseille","lat":43.291671,"lon":5.371575,"is_reserved":false,"is_disabled":false,"rental_uris":{"android":"levelo://app?vid=cbd31d5f-4351-4042-a076-388f0846fc53","ios":"levelo://app?vid=cbd31d5f-4351-4042-a076-388f0846fc53"},"vehicle_type_id":"4","last_reported":1702937186,"current_range_meters":8800,"station_id":"ce4bha92rcd13ifvqeh0","pricing_plan_id":"free"},{"bike_id":"f98e0291-8133-4f17-8902-c9ad411d947b","system_id":"levelo_inurba_marseille","lat":43.29873,"lon":5.38903,"is_reserved":false,"is_disabled":false,"rental_uris":{"android":"levelo://app?vid=f98e0291-8133-4f17-8902-c9ad411d947b","ios":"levelo://app?vid=f98e0291-8133-4f17-8902-c9ad411d947b"},"vehicle_type_id":"4","last_reported":1702937186,"current_range_meters":24400,"station_id":"","pricing_plan_id":"free"},{"bike_id":"f962fa19-d9fe-4f81-bbce-17ef368e6843","system_id":"levelo_inurba_marseille","lat":43.298689,"lon":5.389105,"is_reserved":false,"is_disabled":false,"rental_uris":{"android":"levelo://app?vid=f962fa19-d9fe-4f81-bbce-17ef368e6843","ios":"levelo://app?vid=f962fa19-d9fe-4f81-bbce-17ef368e6843"},"vehicle_type_id":"4","last_reported":1702937186,"current_range_meters":0,"station_id":"","pricing_plan_id":"free"},{"bike_id":"ad40c9cd-ee26-448a-bf70-b24866ec9f46","system_id":"levelo_inurba_marseille","lat":43.309038,"lon":5.396546,"is_reserved":false,"is_disabled":false,"rental_uris":{"android":"levelo://app?vid=ad40c9cd-ee26-448a-bf70-b24866ec9f46","ios":"levelo://app?vid=ad40c9cd-ee26-448a-bf70-b24866ec9f46"},"vehicle_type_id":"4","last_reported":1702937186,"current_range_meters":20800,"station_id":"ce4bh012rcd13ifvqcv0","pricing_plan_id":"free"},{"bike_id":"00ee876a-08b6-4e00-9afd-1a9f313b4f55","system_id":"levelo_inurba_marseille","lat":43.29194,"lon":5.35819,"is_reserved":false,"is_disabled":false,"rental_uris":{"android":"levelo://app?vid=00ee876a-08b6-4e00-9afd-1a9f313b4f55","ios":"levelo://app?vid=00ee876a-08b6-4e00-9afd-1a9f313b4f55"},"vehicle_type_id":"4","last_reported":1702937186,"current_range_meters":13600,"station_id":"ce4bhb12rcd13ifvqel0","pricing_plan_id":"free"},{"bike_id":"26275ca4-8bbf-48e3-93cc-257e6f17a822","system_id":"levelo_inurba_marseille","lat":43.29199,"lon":5.357883,"is_reserved":false,"is_disabled":false,"rental_uris":{"android":"levelo://app?vid=26275ca4-8bbf-48e3-93cc-257e6f17a822","ios":"levelo://app?vid=26275ca4-8bbf-48e3-93cc-257e6f17a822"},"vehicle_type_id":"4","last_reported":1702937186,"current_range_meters":11600,"station_id":"ce4bhb12rcd13ifvqel0","pricing_plan_id":"free"},{"bike_id":"75253405-6889-48cd-985a-cbc0ff756b36","system_id":"levelo_inurba_marseille","lat":43.309038,"lon":5.396546,"is_reserved":false,"is_disabled":false,"rental_uris":{"android":"levelo://app?vid=75253405-6889-48cd-985a-cbc0ff756b36","ios":"levelo://app?vid=75253405-6889-48cd-985a-cbc0ff756b36"},"vehicle_type_id":"4","last_reported":1702937186,"current_range_meters":12800,"station_id":"ce4bh012rcd13ifvqcv0","pricing_plan_id":"free"},{"bike_id":"f01ea687-71a8-4b78-abcd-aa65ea39f700","system_id":"levelo_inurba_marseille","lat":43.29193,"lon":5.3581,"is_reserved":false,"is_disabled":false,"rental_uris":{"android":"levelo://app?vid=f01ea687-71a8-4b78-abcd-aa65ea39f700","ios":"levelo://app?vid=f01ea687-71a8-4b78-abcd-aa65ea39f700"},"vehicle_type_id":"4","last_reported":1702937186,"current_range_meters":19200,"station_id":"ce4bhb12rcd13ifvqel0","pricing_plan_id":"free"},{"bike_id":"68849c2f-1d7d-447f-a783-a32281cf2409","system_id":"levelo_inurba_marseille","lat":43.309038,"lon":5.396546,"is_reserved":false,"is_disabled":false,"rental_uris":{"android":"levelo://app?vid=68849c2f-1d7d-447f-a783-a32281cf2409","ios":"levelo://app?vid=68849c2f-1d7d-447f-a783-a32281cf2409"},"vehicle_type_id":"4","last_reported":1702937186,"current_range_meters":18400,"station_id":"ce4bh012rcd13ifvqcv0","pricing_plan_id":"free"},{"bike_id":"961b34cd-8126-4c91-92ca-3725b7316673","system_id":"levelo_inurba_marseille","lat":43.291994,"lon":5.357886,"is_reserved":false,"is_disabled":false,"rental_uris":{"android":"levelo://app?vid=961b34cd-8126-4c91-92ca-3725b7316673","ios":"levelo://app?vid=961b34cd-8126-4c91-92ca-3725b7316673"},"vehicle_type_id":"4","last_reported":1702937186,"current_range_meters":30000,"station_id":"ce4bhb12rcd13ifvqel0","pricing_plan_id":"free"},{"bike_id":"0a31ed2a-87c2-4e2f-8c31-84ef29d5cbe1","system_id":"levelo_inurba_marseille","lat":43.313291,"lon":5.396838,"is_reserved":false,"is_disabled":false,"rental_uris":{"android":"levelo://app?vid=0a31ed2a-87c2-4e2f-8c31-84ef29d5cbe1","ios":"levelo://app?vid=0a31ed2a-87c2-4e2f-8c31-84ef29d5cbe1"},"vehicle_type_id":"4","last_reported":1702937186,"current_range_meters":28800,"station_id":"ce4bgvp2rcd13ifvqcu0","pricing_plan_id":"free"},{"bike_id":"3e1705c2-c377-4f28-9057-1f10f70aaada","system_id":"levelo_inurba_marseille","lat":43.309047,"lon":5.396551,"is_reserved":false,"is_disabled":false,"rental_uris":{"android":"levelo://app?vid=3e1705c2-c377-4f28-9057-1f10f70aaada","ios":"levelo://app?vid=3e1705c2-c377-4f28-9057-1f10f70aaada"},"vehicle_type_id":"4","last_reported":1702937186,"current_range_meters":30400,"station_id":"ce4bh012rcd13ifvqcv0","pricing_plan_id":"free"},{"bike_id":"8c997904-2385-44c1-a24f-86c09f710198","system_id":"levelo_inurba_marseille","lat":43.313291,"lon":5.396838,"is_reserved":false,"is_disabled":false,"rental_uris":{"android":"levelo://app?vid=8c997904-2385-44c1-a24f-86c09f710198","ios":"levelo://app?vid=8c997904-2385-44c1-a24f-86c09f710198"},"vehicle_type_id":"4","last_reported":1702937186,"current_range_meters":4000,"station_id":"ce4bgvp2rcd13ifvqcu0","pricing_plan_id":"free"},{"bike_id":"1c073a34-7b59-4d8f-90d9-1d2b3a1762d0","system_id":"levelo_inurba_marseille","lat":43.309038,"lon":5.396546,"is_reserved":false,"is_disabled":false,"rental_uris":{"android":"levelo://app?vid=1c073a34-7b59-4d8f-90d9-1d2b3a1762d0","ios":"levelo://app?vid=1c073a34-7b59-4d8f-90d9-1d2b3a1762d0"},"vehicle_type_id":"4","last_reported":1702937186,"current_range_meters":13600,"station_id":"ce4bh012rcd13ifvqcv0","pricing_plan_id":"free"},{"bike_id":"c262cd5a-3208-43b8-a32c-ba64a9e0c1f0","system_id":"levelo_inurba_marseille","lat":43.313291,"lon":5.396838,"is_reserved":false,"is_disabled":false,"rental_uris":{"android":"levelo://app?vid=c262cd5a-3208-43b8-a32c-ba64a9e0c1f0","ios":"levelo://app?vid=c262cd5a-3208-43b8-a32c-ba64a9e0c1f0"},"vehicle_type_id":"4","last_reported":1702937186,"current_range_meters":3600,"station_id":"ce4bgvp2rcd13ifvqcu0","pricing_plan_id":"free"},{"bike_id":"241b1e6d-5e83-4075-922e-8e2eeb9bb922","system_id":"levelo_inurba_marseille","lat":43.313291,"lon":5.396838,"is_reserved":false,"is_disabled":false,"rental_uris":{"android":"levelo://app?vid=241b1e6d-5e83-4075-922e-8e2eeb9bb922","ios":"levelo://app?vid=241b1e6d-5e83-4075-922e-8e2eeb9bb922"},"vehicle_type_id":"4","last_reported":1702937186,"current_range_meters":27600,"station_id":"ce4bgvp2rcd13ifvqcu0","pricing_plan_id":"free"},{"bike_id":"0f6cac5d-65b2-4c87-8949-38c7762ba7b1","system_id":"levelo_inurba_marseille","lat":43.309038,"lon":5.396546,"is_reserved":false,"is_disabled":false,"rental_uris":{"android":"levelo://app?vid=0f6cac5d-65b2-4c87-8949-38c7762ba7b1","ios":"levelo://app?vid=0f6cac5d-65b2-4c87-8949-38c7762ba7b1"},"vehicle_type_id":"4","last_reported":1702937186,"current_range_meters":10400,"station_id":"ce4bh012rcd13ifvqcv0","pricing_plan_id":"free"},{"bike_id":"75fc995c-d6ad-4edb-84e7-a8381e11d2ac","system_id":"levelo_inurba_marseille","lat":43.309047,"lon":5.396551,"is_reserved":false,"is_disabled":false,"rental_uris":{"android":"levelo://app?vid=75fc995c-d6ad-4edb-84e7-a8381e11d2ac","ios":"levelo://app?vid=75fc995c-d6ad-4edb-84e7-a8381e11d2ac"},"vehicle_type_id":"4","last_reported":1702937186,"current_range_meters":6000,"station_id":"ce4bh012rcd13ifvqcv0","pricing_plan_id":"free"},{"bike_id":"bb0aaafd-d86d-4d4b-933a-b3925879f4ff","system_id":"levelo_inurba_marseille","lat":43.313291,"lon":5.396838,"is_reserved":false,"is_disabled":false,"rental_uris":{"android":"levelo://app?vid=bb0aaafd-d86d-4d4b-933a-b3925879f4ff","ios":"levelo://app?vid=bb0aaafd-d86d-4d4b-933a-b3925879f4ff"},"vehicle_type_id":"4","last_reported":1702937186,"current_range_meters":19600,"station_id":"ce4bgvp2rcd13ifvqcu0","pricing_plan_id":"free"},{"bike_id":"f91446dd-2fae-4494-aa52-095be2bf915e","system_id":"levelo_inurba_marseille","lat":43.29529,"lon":5.385581,"is_reserved":false,"is_disabled":false,"rental_uris":{"android":"levelo://app?vid=f91446dd-2fae-4494-aa52-095be2bf915e","ios":"levelo://app?vid=f91446dd-2fae-4494-aa52-095be2bf915e"},"vehicle_type_id":"4","last_reported":1702937186,"current_range_meters":29200,"station_id":"ce4bgih2rcd13ifvqba0","pricing_plan_id":"free"},{"bike_id":"45798efc-62db-42a5-9154-dbdb22b2558c","system_id":"levelo_inurba_marseille","lat":43.290779,"lon":5.371482,"is_reserved":false,"is_disabled":false,"rental_uris":{"android":"levelo://app?vid=45798efc-62db-42a5-9154-dbdb22b2558c","ios":"levelo://app?vid=45798efc-62db-42a5-9154-dbdb22b2558c"},"vehicle_type_id":"4","last_reported":1702937186,"current_range_meters":14000,"station_id":"ce4bh5p2rcd13ifvqe4g","pricing_plan_id":"free"},{"bike_id":"4d4bb202-63ea-48fc-8400-fa8b20021fd2","system_id":"levelo_inurba_marseille","lat":43.289911,"lon":5.367067,"is_reserved":false,"is_disabled":false,"rental_uris":{"android":"levelo://app?vid=4d4bb202-63ea-48fc-8400-fa8b20021fd2","ios":"levelo://app?vid=4d4bb202-63ea-48fc-8400-fa8b20021fd2"},"vehicle_type_id":"4","last_reported":1702937186,"current_range_meters":0,"station_id":"","pricing_plan_id":"free"},{"bike_id":"8f2a3392-4653-472d-b96d-bfa5230ce791","system_id":"levelo_inurba_marseille","lat":43.290631,"lon":5.359244,"is_reserved":false,"is_disabled":false,"rental_uris":{"android":"levelo://app?vid=8f2a3392-4653-472d-b96d-bfa5230ce791","ios":"levelo://app?vid=8f2a3392-4653-472d-b96d-bfa5230ce791"},"vehicle_type_id":"4","last_reported":1702937186,"current_range_meters":27600,"station_id":"ce4bha92rcd13ifvqeg0","pricing_plan_id":"free"},{"bike_id":"0d7aa228-8e80-46a9-a143-fefab4b4d0e5","system_id":"levelo_inurba_marseille","lat":43.290624,"lon":5.359245,"is_reserved":false,"is_disabled":false,"rental_uris":{"android":"levelo://app?vid=0d7aa228-8e80-46a9-a143-fefab4b4d0e5","ios":"levelo://app?vid=0d7aa228-8e80-46a9-a143-fefab4b4d0e5"},"vehicle_type_id":"4","last_reported":1702937186,"current_range_meters":31200,"station_id":"ce4bha92rcd13ifvqeg0","pricing_plan_id":"free"},{"bike_id":"905eda3d-4a69-468b-bab2-9fb08a9c1611","system_id":"levelo_inurba_marseille","lat":43.290631,"lon":5.359244,"is_reserved":false,"is_disabled":false,"rental_uris":{"android":"levelo://app?vid=905eda3d-4a69-468b-bab2-9fb08a9c1611","ios":"levelo://app?vid=905eda3d-4a69-468b-bab2-9fb08a9c1611"},"vehicle_type_id":"4","last_reported":1702937186,"current_range_meters":6000,"station_id":"ce4bha92rcd13ifvqeg0","pricing_plan_id":"free"},{"bike_id":"a6e55a04-c0cd-4fab-a13e-ecfc81f56598","system_id":"levelo_inurba_marseille","lat":43.29421,"lon":5.38616,"is_reserved":false,"is_disabled":false,"rental_uris":{"android":"levelo://app?vid=a6e55a04-c0cd-4fab-a13e-ecfc81f56598","ios":"levelo://app?vid=a6e55a04-c0cd-4fab-a13e-ecfc81f56598"},"vehicle_type_id":"4","last_reported":1702937186,"current_range_meters":10000,"station_id":"ce4bh2h2rcd13ifvqdh0","pricing_plan_id":"free"},{"bike_id":"dd584e4b-fb60-46c5-8545-68f294f8d580","system_id":"levelo_inurba_marseille","lat":43.2942,"lon":5.38618,"is_reserved":false,"is_disabled":false,"rental_uris":{"android":"levelo://app?vid=dd584e4b-fb60-46c5-8545-68f294f8d580","ios":"levelo://app?vid=dd584e4b-fb60-46c5-8545-68f294f8d580"},"vehicle_type_id":"4","last_reported":1702937186,"current_range_meters":9200,"station_id":"ce4bh2h2rcd13ifvqdh0","pricing_plan_id":"free"},{"bike_id":"aa4697b7-377f-46f5-a0d8-9988b8313a1a","system_id":"levelo_inurba_marseille","lat":43.29419,"lon":5.38627,"is_reserved":false,"is_disabled":false,"rental_uris":{"android":"levelo://app?vid=aa4697b7-377f-46f5-a0d8-9988b8313a1a","ios":"levelo://app?vid=aa4697b7-377f-46f5-a0d8-9988b8313a1a"},"vehicle_type_id":"4","last_reported":1702937186,"current_range_meters":20000,"station_id":"ce4bh2h2rcd13ifvqdh0","pricing_plan_id":"free"},{"bike_id":"4b01bcf9-ef6d-497d-98c5-0aedcf8380bd","system_id":"levelo_inurba_marseille","lat":43.289184,"lon":5.366408,"is_reserved":false,"is_disabled":false,"rental_uris":{"android":"levelo://app?vid=4b01bcf9-ef6d-497d-98c5-0aedcf8380bd","ios":"levelo://app?vid=4b01bcf9-ef6d-497d-98c5-0aedcf8380bd"},"vehicle_type_id":"4","last_reported":1702937186,"current_range_meters":6000,"station_id":"ce4bhap2rcd13ifvqek0","pricing_plan_id":"free"},{"bike_id":"3a1f588c-d102-4aae-adb2-f9f0e3ee96b1","system_id":"levelo_inurba_marseille","lat":43.289468,"lon":5.363719,"is_reserved":false,"is_disabled":false,"rental_uris":{"android":"levelo://app?vid=3a1f588c-d102-4aae-adb2-f9f0e3ee96b1","ios":"levelo://app?vid=3a1f588c-d102-4aae-adb2-f9f0e3ee96b1"},"vehicle_type_id":"4","last_reported":1702937186,"current_range_meters":23200,"station_id":"ce4bhc92rcd13ifvqetg","pricing_plan_id":"free"},{"bike_id":"7f44e232-dd41-4037-8adc-57f975382d60","system_id":"levelo_inurba_marseille","lat":43.304274,"lon":5.397513,"is_reserved":false,"is_disabled":false,"rental_uris":{"android":"levelo://app?vid=7f44e232-dd41-4037-8adc-57f975382d60","ios":"levelo://app?vid=7f44e232-dd41-4037-8adc-57f975382d60"},"vehicle_type_id":"4","last_reported":1702937186,"current_range_meters":26400,"station_id":"ce4bh092rcd13ifvqd20","pricing_plan_id":"free"},{"bike_id":"25299760-3b30-4728-952d-8938f1c802c3","system_id":"levelo_inurba_marseille","lat":43.33042,"lon":5.38918,"is_reserved":false,"is_disabled":false,"rental_uris":{"android":"levelo://app?vid=25299760-3b30-4728-952d-8938f1c802c3","ios":"levelo://app?vid=25299760-3b30-4728-952d-8938f1c802c3"},"vehicle_type_id":"4","last_reported":1702937186,"current_range_meters":9600,"station_id":"ce4bhr92rcd13ifvqhrg","pricing_plan_id":"free"},{"bike_id":"bb4a18f7-dd2a-4ad5-8d6e-35c6c7f9f11b","system_id":"levelo_inurba_marseille","lat":43.33045,"lon":5.38918,"is_reserved":false,"is_disabled":false,"rental_uris":{"android":"levelo://app?vid=bb4a18f7-dd2a-4ad5-8d6e-35c6c7f9f11b","ios":"levelo://app?vid=bb4a18f7-dd2a-4ad5-8d6e-35c6c7f9f11b"},"vehicle_type_id":"4","last_reported":1702937186,"current_range_meters":20400,"station_id":"ce4bhr92rcd13ifvqhrg","pricing_plan_id":"free"},{"bike_id":"1c47ac22-7946-4ec5-aff8-d028d6b6dda7","system_id":"levelo_inurba_marseille","lat":43.290103,"lon":5.356114,"is_reserved":false,"is_disabled":false,"rental_uris":{"android":"levelo://app?vid=1c47ac22-7946-4ec5-aff8-d028d6b6dda7","ios":"levelo://app?vid=1c47ac22-7946-4ec5-aff8-d028d6b6dda7"},"vehicle_type_id":"4","last_reported":1702937186,"current_range_meters":25600,"station_id":"ce4bhb92rcd13ifvqen0","pricing_plan_id":"free"},{"bike_id":"7cb872b0-a768-43be-97d9-c418a774a8f8","system_id":"levelo_inurba_marseille","lat":43.290104,"lon":5.356111,"is_reserved":false,"is_disabled":false,"rental_uris":{"android":"levelo://app?vid=7cb872b0-a768-43be-97d9-c418a774a8f8","ios":"levelo://app?vid=7cb872b0-a768-43be-97d9-c418a774a8f8"},"vehicle_type_id":"4","last_reported":1702937186,"current_range_meters":28000,"station_id":"ce4bhb92rcd13ifvqen0","pricing_plan_id":"free"},{"bike_id":"0eb29cf8-6cad-4fbf-8127-a31ff2bbb89a","system_id":"levelo_inurba_marseille","lat":43.330442,"lon":5.389148,"is_reserved":false,"is_disabled":false,"rental_uris":{"android":"levelo://app?vid=0eb29cf8-6cad-4fbf-8127-a31ff2bbb89a","ios":"levelo://app?vid=0eb29cf8-6cad-4fbf-8127-a31ff2bbb89a"},"vehicle_type_id":"4","last_reported":1702937186,"current_range_meters":1600,"station_id":"ce4bhr92rcd13ifvqhrg","pricing_plan_id":"free"},{"bike_id":"1068fb92-fbb5-4c6f-885c-0e3ebd6fcbf8","system_id":"levelo_inurba_marseille","lat":43.290995,"lon":5.381361,"is_reserved":false,"is_disabled":false,"rental_uris":{"android":"levelo://app?vid=1068fb92-fbb5-4c6f-885c-0e3ebd6fcbf8","ios":"levelo://app?vid=1068fb92-fbb5-4c6f-885c-0e3ebd6fcbf8"},"vehicle_type_id":"4","last_reported":1702937186,"current_range_meters":31200,"station_id":"ce4bh512rcd13ifvqe2g","pricing_plan_id":"free"},{"bike_id":"2d4b0caa-c042-482c-876e-9604cd417441","system_id":"levelo_inurba_marseille","lat":43.28865,"lon":5.35854,"is_reserved":false,"is_disabled":false,"rental_uris":{"android":"levelo://app?vid=2d4b0caa-c042-482c-876e-9604cd417441","ios":"levelo://app?vid=2d4b0caa-c042-482c-876e-9604cd417441"},"vehicle_type_id":"4","last_reported":1702937186,"current_range_meters":23600,"station_id":"ce4bhb12rcd13ifvqem0","pricing_plan_id":"free"},{"bike_id":"ca45c648-1d0a-490f-af54-e00b4f4dfcf7","system_id":"levelo_inurba_marseille","lat":43.28855,"lon":5.35848,"is_reserved":false,"is_disabled":false,"rental_uris":{"android":"levelo://app?vid=ca45c648-1d0a-490f-af54-e00b4f4dfcf7","ios":"levelo://app?vid=ca45c648-1d0a-490f-af54-e00b4f4dfcf7"},"vehicle_type_id":"4","last_reported":1702937186,"current_range_meters":6400,"station_id":"ce4bhb12rcd13ifvqem0","pricing_plan_id":"free"},{"bike_id":"f0f46fd8-050a-4138-8044-ad305b92e2c8","system_id":"levelo_inurba_marseille","lat":43.30933,"lon":5.40149,"is_reserved":false,"is_disabled":false,"rental_uris":{"android":"levelo://app?vid=f0f46fd8-050a-4138-8044-ad305b92e2c8","ios":"levelo://app?vid=f0f46fd8-050a-4138-8044-ad305b92e2c8"},"vehicle_type_id":"4","last_reported":1702937186,"current_range_meters":0,"station_id":"ce4bgvp2rcd13ifvqct0","pricing_plan_id":"free"},{"bike_id":"a4d2036a-4a97-4f91-a181-a009036eda57","system_id":"levelo_inurba_marseille","lat":43.306412,"lon":5.401035,"is_reserved":false,"is_disabled":false,"rental_uris":{"android":"levelo://app?vid=a4d2036a-4a97-4f91-a181-a009036eda57","ios":"levelo://app?vid=a4d2036a-4a97-4f91-a181-a009036eda57"},"vehicle_type_id":"4","last_reported":1702937186,"current_range_meters":27200,"station_id":"ce4bh112rcd13ifvqda0","pricing_plan_id":"free"},{"bike_id":"52555428-7738-4bc5-99ea-eb79b5202705","system_id":"levelo_inurba_marseille","lat":43.337623,"lon":5.374587,"is_reserved":false,"is_disabled":false,"rental_uris":{"android":"levelo://app?vid=52555428-7738-4bc5-99ea-eb79b5202705","ios":"levelo://app?vid=52555428-7738-4bc5-99ea-eb79b5202705"},"vehicle_type_id":"4","last_reported":1702937186,"current_range_meters":27600,"station_id":"","pricing_plan_id":"free"},{"bike_id":"7bcb082a-bc33-4b7d-b524-e1079b98199d","system_id":"levelo_inurba_marseille","lat":43.30642,"lon":5.401031,"is_reserved":false,"is_disabled":false,"rental_uris":{"android":"levelo://app?vid=7bcb082a-bc33-4b7d-b524-e1079b98199d","ios":"levelo://app?vid=7bcb082a-bc33-4b7d-b524-e1079b98199d"},"vehicle_type_id":"4","last_reported":1702937186,"current_range_meters":5600,"station_id":"ce4bh112rcd13ifvqda0","pricing_plan_id":"free"},{"bike_id":"bc59cf50-e304-4f16-903a-5fc11764290c","system_id":"levelo_inurba_marseille","lat":43.306412,"lon":5.401035,"is_reserved":false,"is_disabled":false,"rental_uris":{"android":"levelo://app?vid=bc59cf50-e304-4f16-903a-5fc11764290c","ios":"levelo://app?vid=bc59cf50-e304-4f16-903a-5fc11764290c"},"vehicle_type_id":"4","last_reported":1702937186,"current_range_meters":4000,"station_id":"ce4bh112rcd13ifvqda0","pricing_plan_id":"free"},{"bike_id":"24fb1dbc-7fad-48c3-81cf-8e086f27e028","system_id":"levelo_inurba_marseille","lat":43.33787,"lon":5.37422,"is_reserved":false,"is_disabled":false,"rental_uris":{"android":"levelo://app?vid=24fb1dbc-7fad-48c3-81cf-8e086f27e028","ios":"levelo://app?vid=24fb1dbc-7fad-48c3-81cf-8e086f27e028"},"vehicle_type_id":"4","last_reported":1702937186,"current_range_meters":12000,"station_id":"","pricing_plan_id":"free"},{"bike_id":"8c943944-d3cd-46ca-a2f1-3e27be3d9a1f","system_id":"levelo_inurba_marseille","lat":43.28727,"lon":5.36078,"is_reserved":false,"is_disabled":false,"rental_uris":{"android":"levelo://app?vid=8c943944-d3cd-46ca-a2f1-3e27be3d9a1f","ios":"levelo://app?vid=8c943944-d3cd-46ca-a2f1-3e27be3d9a1f"},"vehicle_type_id":"4","last_reported":1702937186,"current_range_meters":18000,"station_id":"cki0cbj6b192h4jlfktg","pricing_plan_id":"free"},{"bike_id":"2618ed52-aaab-4281-b032-c4cac9cbdffa","system_id":"levelo_inurba_marseille","lat":43.28727,"lon":5.36078,"is_reserved":false,"is_disabled":false,"rental_uris":{"android":"levelo://app?vid=2618ed52-aaab-4281-b032-c4cac9cbdffa","ios":"levelo://app?vid=2618ed52-aaab-4281-b032-c4cac9cbdffa"},"vehicle_type_id":"4","last_reported":1702937186,"current_range_meters":20000,"station_id":"cki0cbj6b192h4jlfktg","pricing_plan_id":"free"},{"bike_id":"dfe0e63f-e657-4749-8691-a2708869d71d","system_id":"levelo_inurba_marseille","lat":43.28727,"lon":5.36078,"is_reserved":false,"is_disabled":false,"rental_uris":{"android":"levelo://app?vid=dfe0e63f-e657-4749-8691-a2708869d71d","ios":"levelo://app?vid=dfe0e63f-e657-4749-8691-a2708869d71d"},"vehicle_type_id":"4","last_reported":1702937186,"current_range_meters":31200,"station_id":"cki0cbj6b192h4jlfktg","pricing_plan_id":"free"},{"bike_id":"630fd99b-f3f6-46af-8008-a278c6313617","system_id":"levelo_inurba_marseille","lat":43.28727,"lon":5.36078,"is_reserved":false,"is_disabled":false,"rental_uris":{"android":"levelo://app?vid=630fd99b-f3f6-46af-8008-a278c6313617","ios":"levelo://app?vid=630fd99b-f3f6-46af-8008-a278c6313617"},"vehicle_type_id":"4","last_reported":1702937186,"current_range_meters":11200,"station_id":"cki0cbj6b192h4jlfktg","pricing_plan_id":"free"},{"bike_id":"63d602d7-0141-407d-8a2b-bc3417e0c436","system_id":"levelo_inurba_marseille","lat":43.28727,"lon":5.36078,"is_reserved":false,"is_disabled":false,"rental_uris":{"android":"levelo://app?vid=63d602d7-0141-407d-8a2b-bc3417e0c436","ios":"levelo://app?vid=63d602d7-0141-407d-8a2b-bc3417e0c436"},"vehicle_type_id":"4","last_reported":1702937186,"current_range_meters":0,"station_id":"cki0cbj6b192h4jlfktg","pricing_plan_id":"free"},{"bike_id":"68bfb970-2c69-4fc7-804b-ac9577e74c2f","system_id":"levelo_inurba_marseille","lat":43.286591,"lon":5.363346,"is_reserved":false,"is_disabled":false,"rental_uris":{"android":"levelo://app?vid=68bfb970-2c69-4fc7-804b-ac9577e74c2f","ios":"levelo://app?vid=68bfb970-2c69-4fc7-804b-ac9577e74c2f"},"vehicle_type_id":"4","last_reported":1702937186,"current_range_meters":26000,"station_id":"ce4bhah2rcd13ifvqej0","pricing_plan_id":"free"},{"bike_id":"57343f7a-b5a7-4c64-bde2-578dd3b7d51a","system_id":"levelo_inurba_marseille","lat":43.286961,"lon":5.373785,"is_reserved":false,"is_disabled":false,"rental_uris":{"android":"levelo://app?vid=57343f7a-b5a7-4c64-bde2-578dd3b7d51a","ios":"levelo://app?vid=57343f7a-b5a7-4c64-bde2-578dd3b7d51a"},"vehicle_type_id":"4","last_reported":1702937186,"current_range_meters":31200,"station_id":"ce4bh3p2rcd13ifvqdq0","pricing_plan_id":"free"},{"bike_id":"dfb73974-63d4-4e7a-b53d-88c9dc54a2ff","system_id":"levelo_inurba_marseille","lat":43.28706,"lon":5.373846,"is_reserved":false,"is_disabled":false,"rental_uris":{"android":"levelo://app?vid=dfb73974-63d4-4e7a-b53d-88c9dc54a2ff","ios":"levelo://app?vid=dfb73974-63d4-4e7a-b53d-88c9dc54a2ff"},"vehicle_type_id":"4","last_reported":1702937186,"current_range_meters":4800,"station_id":"ce4bh3p2rcd13ifvqdq0","pricing_plan_id":"free"},{"bike_id":"f0d5ec73-3170-417e-8aac-0e969f9c1b9e","system_id":"levelo_inurba_marseille","lat":43.286591,"lon":5.363346,"is_reserved":false,"is_disabled":false,"rental_uris":{"android":"levelo://app?vid=f0d5ec73-3170-417e-8aac-0e969f9c1b9e","ios":"levelo://app?vid=f0d5ec73-3170-417e-8aac-0e969f9c1b9e"},"vehicle_type_id":"4","last_reported":1702937186,"current_range_meters":12800,"station_id":"ce4bhah2rcd13ifvqej0","pricing_plan_id":"free"},{"bike_id":"8a41768a-6793-4bb3-a095-300d0ad96a26","system_id":"levelo_inurba_marseille","lat":43.286961,"lon":5.373785,"is_reserved":false,"is_disabled":false,"rental_uris":{"android":"levelo://app?vid=8a41768a-6793-4bb3-a095-300d0ad96a26","ios":"levelo://app?vid=8a41768a-6793-4bb3-a095-300d0ad96a26"},"vehicle_type_id":"4","last_reported":1702937186,"current_range_meters":4000,"station_id":"ce4bh3p2rcd13ifvqdq0","pricing_plan_id":"free"},{"bike_id":"cfe983b7-23d1-449f-928e-5d359308c63d","system_id":"levelo_inurba_marseille","lat":43.290336,"lon":5.386425,"is_reserved":false,"is_disabled":false,"rental_uris":{"android":"levelo://app?vid=cfe983b7-23d1-449f-928e-5d359308c63d","ios":"levelo://app?vid=cfe983b7-23d1-449f-928e-5d359308c63d"},"vehicle_type_id":"4","last_reported":1702937186,"current_range_meters":21600,"station_id":"ce4bh4p2rcd13ifvqe0g","pricing_plan_id":"free"},{"bike_id":"e30bc9a8-bfb5-476a-a0ef-6d5577b5cc19","system_id":"levelo_inurba_marseille","lat":43.289307,"lon":5.38406,"is_reserved":false,"is_disabled":false,"rental_uris":{"android":"levelo://app?vid=e30bc9a8-bfb5-476a-a0ef-6d5577b5cc19","ios":"levelo://app?vid=e30bc9a8-bfb5-476a-a0ef-6d5577b5cc19"},"vehicle_type_id":"4","last_reported":1702937186,"current_range_meters":22800,"station_id":"ce4bh612rcd13ifvqe6g","pricing_plan_id":"free"},{"bike_id":"e9ebd21d-2f09-4bd4-a7ea-a9182895e836","system_id":"levelo_inurba_marseille","lat":43.286039,"lon":5.370679,"is_reserved":false,"is_disabled":false,"rental_uris":{"android":"levelo://app?vid=e9ebd21d-2f09-4bd4-a7ea-a9182895e836","ios":"levelo://app?vid=e9ebd21d-2f09-4bd4-a7ea-a9182895e836"},"vehicle_type_id":"4","last_reported":1702937186,"current_range_meters":30800,"station_id":"ce4bht12rcd13ifvqi60","pricing_plan_id":"free"},{"bike_id":"04ce3566-187c-4390-b127-e0bde3fb4456","system_id":"levelo_inurba_marseille","lat":43.314008,"lon":5.40408,"is_reserved":false,"is_disabled":false,"rental_uris":{"android":"levelo://app?vid=04ce3566-187c-4390-b127-e0bde3fb4456","ios":"levelo://app?vid=04ce3566-187c-4390-b127-e0bde3fb4456"},"vehicle_type_id":"4","last_reported":1702937186,"current_range_meters":22000,"station_id":"","pricing_plan_id":"free"},{"bike_id":"984d00dd-d2db-4d65-b16f-df6d89ec09d5","system_id":"levelo_inurba_marseille","lat":43.287184,"lon":5.37937,"is_reserved":false,"is_disabled":false,"rental_uris":{"android":"levelo://app?vid=984d00dd-d2db-4d65-b16f-df6d89ec09d5","ios":"levelo://app?vid=984d00dd-d2db-4d65-b16f-df6d89ec09d5"},"vehicle_type_id":"4","last_reported":1702937186,"current_range_meters":12800,"station_id":"ce4bh9p2rcd13ifvqec0","pricing_plan_id":"free"},{"bike_id":"93f90a49-9f1a-4546-9aab-d755b05c70a9","system_id":"levelo_inurba_marseille","lat":43.291994,"lon":5.392907,"is_reserved":false,"is_disabled":false,"rental_uris":{"android":"levelo://app?vid=93f90a49-9f1a-4546-9aab-d755b05c70a9","ios":"levelo://app?vid=93f90a49-9f1a-4546-9aab-d755b05c70a9"},"vehicle_type_id":"4","last_reported":1702937186,"current_range_meters":13600,"station_id":"ce4bh192rcd13ifvqdd0","pricing_plan_id":"free"},{"bike_id":"d6b9d7a0-74c0-471b-b961-93ca99176db2","system_id":"levelo_inurba_marseille","lat":43.291994,"lon":5.392907,"is_reserved":false,"is_disabled":false,"rental_uris":{"android":"levelo://app?vid=d6b9d7a0-74c0-471b-b961-93ca99176db2","ios":"levelo://app?vid=d6b9d7a0-74c0-471b-b961-93ca99176db2"},"vehicle_type_id":"4","last_reported":1702937186,"current_range_meters":8800,"station_id":"ce4bh192rcd13ifvqdd0","pricing_plan_id":"free"},{"bike_id":"5e263bd3-4fca-4573-82ef-dffb96fe92d1","system_id":"levelo_inurba_marseille","lat":43.291994,"lon":5.392907,"is_reserved":false,"is_disabled":false,"rental_uris":{"android":"levelo://app?vid=5e263bd3-4fca-4573-82ef-dffb96fe92d1","ios":"levelo://app?vid=5e263bd3-4fca-4573-82ef-dffb96fe92d1"},"vehicle_type_id":"4","last_reported":1702937186,"current_range_meters":5200,"station_id":"ce4bh192rcd13ifvqdd0","pricing_plan_id":"free"},{"bike_id":"24d4422a-81c5-48f5-b5b1-96a084b48a13","system_id":"levelo_inurba_marseille","lat":43.291994,"lon":5.392907,"is_reserved":false,"is_disabled":false,"rental_uris":{"android":"levelo://app?vid=24d4422a-81c5-48f5-b5b1-96a084b48a13","ios":"levelo://app?vid=24d4422a-81c5-48f5-b5b1-96a084b48a13"},"vehicle_type_id":"4","last_reported":1702937186,"current_range_meters":26400,"station_id":"ce4bh192rcd13ifvqdd0","pricing_plan_id":"free"},{"bike_id":"a7d26807-2222-4ef6-a36f-8b7c10510ff5","system_id":"levelo_inurba_marseille","lat":43.284538,"lon":5.358657,"is_reserved":false,"is_disabled":false,"rental_uris":{"android":"levelo://app?vid=a7d26807-2222-4ef6-a36f-8b7c10510ff5","ios":"levelo://app?vid=a7d26807-2222-4ef6-a36f-8b7c10510ff5"},"vehicle_type_id":"4","last_reported":1702937186,"current_range_meters":30800,"station_id":"ce4bhah2rcd13ifvqei0","pricing_plan_id":"free"},{"bike_id":"b40a5144-5f1d-4bce-8f51-9a6bca163074","system_id":"levelo_inurba_marseille","lat":43.284538,"lon":5.358657,"is_reserved":false,"is_disabled":false,"rental_uris":{"android":"levelo://app?vid=b40a5144-5f1d-4bce-8f51-9a6bca163074","ios":"levelo://app?vid=b40a5144-5f1d-4bce-8f51-9a6bca163074"},"vehicle_type_id":"4","last_reported":1702937186,"current_range_meters":21200,"station_id":"ce4bhah2rcd13ifvqei0","pricing_plan_id":"free"},{"bike_id":"ede12a09-c41d-4966-877a-3721b56c793d","system_id":"levelo_inurba_marseille","lat":43.284538,"lon":5.358657,"is_reserved":false,"is_disabled":false,"rental_uris":{"android":"levelo://app?vid=ede12a09-c41d-4966-877a-3721b56c793d","ios":"levelo://app?vid=ede12a09-c41d-4966-877a-3721b56c793d"},"vehicle_type_id":"4","last_reported":1702937186,"current_range_meters":26800,"station_id":"ce4bhah2rcd13ifvqei0","pricing_plan_id":"free"},{"bike_id":"dcec4479-2471-4129-b156-7e01bad3e2b8","system_id":"levelo_inurba_marseille","lat":43.28462,"lon":5.35893,"is_reserved":false,"is_disabled":false,"rental_uris":{"android":"levelo://app?vid=dcec4479-2471-4129-b156-7e01bad3e2b8","ios":"levelo://app?vid=dcec4479-2471-4129-b156-7e01bad3e2b8"},"vehicle_type_id":"4","last_reported":1702937186,"current_range_meters":30800,"station_id":"ce4bhah2rcd13ifvqei0","pricing_plan_id":"free"},{"bike_id":"30904779-64fb-476a-b850-ba178f8b00ff","system_id":"levelo_inurba_marseille","lat":43.284538,"lon":5.358657,"is_reserved":false,"is_disabled":false,"rental_uris":{"android":"levelo://app?vid=30904779-64fb-476a-b850-ba178f8b00ff","ios":"levelo://app?vid=30904779-64fb-476a-b850-ba178f8b00ff"},"vehicle_type_id":"4","last_reported":1702937186,"current_range_meters":30400,"station_id":"ce4bhah2rcd13ifvqei0","pricing_plan_id":"free"},{"bike_id":"07190b7a-889b-4ece-9de2-3e77370101a7","system_id":"levelo_inurba_marseille","lat":43.284595,"lon":5.358895,"is_reserved":false,"is_disabled":false,"rental_uris":{"android":"levelo://app?vid=07190b7a-889b-4ece-9de2-3e77370101a7","ios":"levelo://app?vid=07190b7a-889b-4ece-9de2-3e77370101a7"},"vehicle_type_id":"4","last_reported":1702937186,"current_range_meters":24800,"station_id":"ce4bhah2rcd13ifvqei0","pricing_plan_id":"free"},{"bike_id":"8c22da29-f189-4442-a10e-a405b7dfb79c","system_id":"levelo_inurba_marseille","lat":43.284538,"lon":5.358657,"is_reserved":false,"is_disabled":false,"rental_uris":{"android":"levelo://app?vid=8c22da29-f189-4442-a10e-a405b7dfb79c","ios":"levelo://app?vid=8c22da29-f189-4442-a10e-a405b7dfb79c"},"vehicle_type_id":"4","last_reported":1702937186,"current_range_meters":31600,"station_id":"ce4bhah2rcd13ifvqei0","pricing_plan_id":"free"},{"bike_id":"d0419e45-18a6-4be2-85a5-120a40cb5384","system_id":"levelo_inurba_marseille","lat":43.29442,"lon":5.39752,"is_reserved":false,"is_disabled":false,"rental_uris":{"android":"levelo://app?vid=d0419e45-18a6-4be2-85a5-120a40cb5384","ios":"levelo://app?vid=d0419e45-18a6-4be2-85a5-120a40cb5384"},"vehicle_type_id":"4","last_reported":1702937186,"current_range_meters":18000,"station_id":"ce4bh3h2rcd13ifvqdo0","pricing_plan_id":"free"},{"bike_id":"7e92cdd2-c209-44d9-ae8c-355788c3217b","system_id":"levelo_inurba_marseille","lat":43.284538,"lon":5.358657,"is_reserved":false,"is_disabled":false,"rental_uris":{"android":"levelo://app?vid=7e92cdd2-c209-44d9-ae8c-355788c3217b","ios":"levelo://app?vid=7e92cdd2-c209-44d9-ae8c-355788c3217b"},"vehicle_type_id":"4","last_reported":1702937186,"current_range_meters":16000,"station_id":"ce4bhah2rcd13ifvqei0","pricing_plan_id":"free"},{"bike_id":"dd127257-605b-4fa6-bce5-cdeb0e10a768","system_id":"levelo_inurba_marseille","lat":43.28618,"lon":5.35101,"is_reserved":false,"is_disabled":false,"rental_uris":{"android":"levelo://app?vid=dd127257-605b-4fa6-bce5-cdeb0e10a768","ios":"levelo://app?vid=dd127257-605b-4fa6-bce5-cdeb0e10a768"},"vehicle_type_id":"4","last_reported":1702937186,"current_range_meters":30000,"station_id":"ce4bhch2rcd13ifvqeug","pricing_plan_id":"free"},{"bike_id":"648b9eb3-117b-4ef6-8b52-802a099ea74c","system_id":"levelo_inurba_marseille","lat":43.283998,"lon":5.375062,"is_reserved":false,"is_disabled":false,"rental_uris":{"android":"levelo://app?vid=648b9eb3-117b-4ef6-8b52-802a099ea74c","ios":"levelo://app?vid=648b9eb3-117b-4ef6-8b52-802a099ea74c"},"vehicle_type_id":"4","last_reported":1702937186,"current_range_meters":3600,"station_id":"ce4bh412rcd13ifvqds0","pricing_plan_id":"free"},{"bike_id":"2dfa5049-0e1b-4839-b5c3-156910a65dbd","system_id":"levelo_inurba_marseille","lat":43.33218,"lon":5.397067,"is_reserved":false,"is_disabled":false,"rental_uris":{"android":"levelo://app?vid=2dfa5049-0e1b-4839-b5c3-156910a65dbd","ios":"levelo://app?vid=2dfa5049-0e1b-4839-b5c3-156910a65dbd"},"vehicle_type_id":"4","last_reported":1702937186,"current_range_meters":4000,"station_id":"","pricing_plan_id":"free"},{"bike_id":"dd7c3735-fcc8-4fe9-8427-c354b4521977","system_id":"levelo_inurba_marseille","lat":43.286812,"lon":5.386634,"is_reserved":false,"is_disabled":false,"rental_uris":{"android":"levelo://app?vid=dd7c3735-fcc8-4fe9-8427-c354b4521977","ios":"levelo://app?vid=dd7c3735-fcc8-4fe9-8427-c354b4521977"},"vehicle_type_id":"4","last_reported":1702937186,"current_range_meters":0,"station_id":"ce4bh492rcd13ifvqdug","pricing_plan_id":"free"},{"bike_id":"102f0cbd-e69b-4f59-b6c3-abd28d66ed46","system_id":"levelo_inurba_marseille","lat":43.323464,"lon":5.406297,"is_reserved":false,"is_disabled":false,"rental_uris":{"android":"levelo://app?vid=102f0cbd-e69b-4f59-b6c3-abd28d66ed46","ios":"levelo://app?vid=102f0cbd-e69b-4f59-b6c3-abd28d66ed46"},"vehicle_type_id":"4","last_reported":1702937186,"current_range_meters":28800,"station_id":"ce4bhq92rcd13ifvqhjg","pricing_plan_id":"free"},{"bike_id":"8c128a76-b81a-48ba-878a-98035fb1909c","system_id":"levelo_inurba_marseille","lat":43.33722,"lon":5.39185,"is_reserved":false,"is_disabled":false,"rental_uris":{"android":"levelo://app?vid=8c128a76-b81a-48ba-878a-98035fb1909c","ios":"levelo://app?vid=8c128a76-b81a-48ba-878a-98035fb1909c"},"vehicle_type_id":"4","last_reported":1702937186,"current_range_meters":15200,"station_id":"ce4bhr92rcd13ifvqhsg","pricing_plan_id":"free"},{"bike_id":"e193160a-6bd5-4841-a687-8160c936a272","system_id":"levelo_inurba_marseille","lat":43.29795,"lon":5.404086,"is_reserved":false,"is_disabled":false,"rental_uris":{"android":"levelo://app?vid=e193160a-6bd5-4841-a687-8160c936a272","ios":"levelo://app?vid=e193160a-6bd5-4841-a687-8160c936a272"},"vehicle_type_id":"4","last_reported":1702937186,"current_range_meters":3600,"station_id":"ce4bh112rcd13ifvqd90","pricing_plan_id":"free"},{"bike_id":"627764d6-e65c-4875-a355-e8d14efbdc7d","system_id":"levelo_inurba_marseille","lat":43.288501,"lon":5.393087,"is_reserved":false,"is_disabled":false,"rental_uris":{"android":"levelo://app?vid=627764d6-e65c-4875-a355-e8d14efbdc7d","ios":"levelo://app?vid=627764d6-e65c-4875-a355-e8d14efbdc7d"},"vehicle_type_id":"4","last_reported":1702937186,"current_range_meters":16000,"station_id":"ce4bh2p2rcd13ifvqdi0","pricing_plan_id":"free"},{"bike_id":"63937f00-79aa-4dea-877e-5d1eecd0759e","system_id":"levelo_inurba_marseille","lat":43.306412,"lon":5.401035,"is_reserved":false,"is_disabled":false,"rental_uris":{"android":"levelo://app?vid=63937f00-79aa-4dea-877e-5d1eecd0759e","ios":"levelo://app?vid=63937f00-79aa-4dea-877e-5d1eecd0759e"},"vehicle_type_id":"4","last_reported":1702937186,"current_range_meters":25600,"station_id":"ce4bh112rcd13ifvqda0","pricing_plan_id":"free"},{"bike_id":"eeddfb47-9cf3-427c-80bb-70c31e23c3c1","system_id":"levelo_inurba_marseille","lat":43.292724,"lon":5.401131,"is_reserved":false,"is_disabled":false,"rental_uris":{"android":"levelo://app?vid=eeddfb47-9cf3-427c-80bb-70c31e23c3c1","ios":"levelo://app?vid=eeddfb47-9cf3-427c-80bb-70c31e23c3c1"},"vehicle_type_id":"4","last_reported":1702937186,"current_range_meters":27600,"station_id":"ce4bh312rcd13ifvqdk0","pricing_plan_id":"free"},{"bike_id":"abc44ce7-79dd-4a93-98b6-ca86a0f6ad2a","system_id":"levelo_inurba_marseille","lat":43.292724,"lon":5.401131,"is_reserved":false,"is_disabled":false,"rental_uris":{"android":"levelo://app?vid=abc44ce7-79dd-4a93-98b6-ca86a0f6ad2a","ios":"levelo://app?vid=abc44ce7-79dd-4a93-98b6-ca86a0f6ad2a"},"vehicle_type_id":"4","last_reported":1702937186,"current_range_meters":26000,"station_id":"ce4bh312rcd13ifvqdk0","pricing_plan_id":"free"},{"bike_id":"43a46c66-a888-43bb-bdba-f06bb0862a70","system_id":"levelo_inurba_marseille","lat":43.291682,"lon":5.40045,"is_reserved":false,"is_disabled":false,"rental_uris":{"android":"levelo://app?vid=43a46c66-a888-43bb-bdba-f06bb0862a70","ios":"levelo://app?vid=43a46c66-a888-43bb-bdba-f06bb0862a70"},"vehicle_type_id":"4","last_reported":1702937186,"current_range_meters":0,"station_id":"","pricing_plan_id":"free"},{"bike_id":"ad110e7c-5d83-4411-a968-227182d86419","system_id":"levelo_inurba_marseille","lat":43.282754,"lon":5.350519,"is_reserved":false,"is_disabled":false,"rental_uris":{"android":"levelo://app?vid=ad110e7c-5d83-4411-a968-227182d86419","ios":"levelo://app?vid=ad110e7c-5d83-4411-a968-227182d86419"},"vehicle_type_id":"4","last_reported":1702937186,"current_range_meters":30800,"station_id":"ce4bhbp2rcd13ifvqerg","pricing_plan_id":"free"},{"bike_id":"c6a512cb-1793-48d0-aec8-b2aad0a97ba3","system_id":"levelo_inurba_marseille","lat":43.282754,"lon":5.350519,"is_reserved":false,"is_disabled":false,"rental_uris":{"android":"levelo://app?vid=c6a512cb-1793-48d0-aec8-b2aad0a97ba3","ios":"levelo://app?vid=c6a512cb-1793-48d0-aec8-b2aad0a97ba3"},"vehicle_type_id":"4","last_reported":1702937186,"current_range_meters":30000,"station_id":"ce4bhbp2rcd13ifvqerg","pricing_plan_id":"free"},{"bike_id":"2b3efb56-540b-40aa-b1a9-2802461999fc","system_id":"levelo_inurba_marseille","lat":43.28255,"lon":5.35071,"is_reserved":false,"is_disabled":false,"rental_uris":{"android":"levelo://app?vid=2b3efb56-540b-40aa-b1a9-2802461999fc","ios":"levelo://app?vid=2b3efb56-540b-40aa-b1a9-2802461999fc"},"vehicle_type_id":"4","last_reported":1702937186,"current_range_meters":24000,"station_id":"ce4bhbp2rcd13ifvqerg","pricing_plan_id":"free"},{"bike_id":"9650f641-6a27-44d6-8eb4-734879b4b659","system_id":"levelo_inurba_marseille","lat":43.280382,"lon":5.369291,"is_reserved":false,"is_disabled":false,"rental_uris":{"android":"levelo://app?vid=9650f641-6a27-44d6-8eb4-734879b4b659","ios":"levelo://app?vid=9650f641-6a27-44d6-8eb4-734879b4b659"},"vehicle_type_id":"4","last_reported":1702937186,"current_range_meters":25200,"station_id":"ce4bha12rcd13ifvqef0","pricing_plan_id":"free"},{"bike_id":"06d227cf-ba21-4c27-92c8-72c3f03be2f9","system_id":"levelo_inurba_marseille","lat":43.28039,"lon":5.369297,"is_reserved":false,"is_disabled":false,"rental_uris":{"android":"levelo://app?vid=06d227cf-ba21-4c27-92c8-72c3f03be2f9","ios":"levelo://app?vid=06d227cf-ba21-4c27-92c8-72c3f03be2f9"},"vehicle_type_id":"4","last_reported":1702937186,"current_range_meters":31200,"station_id":"ce4bha12rcd13ifvqef0","pricing_plan_id":"free"},{"bike_id":"492ed769-8b80-4ae2-92f1-c8495d8ec84e","system_id":"levelo_inurba_marseille","lat":43.296263,"lon":5.40601,"is_reserved":false,"is_disabled":false,"rental_uris":{"android":"levelo://app?vid=492ed769-8b80-4ae2-92f1-c8495d8ec84e","ios":"levelo://app?vid=492ed769-8b80-4ae2-92f1-c8495d8ec84e"},"vehicle_type_id":"4","last_reported":1702937186,"current_range_meters":22000,"station_id":"ce4bh0h2rcd13ifvqd60","pricing_plan_id":"free"},{"bike_id":"14e1b31b-c460-4fda-b8f3-d7d72b9acd89","system_id":"levelo_inurba_marseille","lat":43.281044,"lon":5.378308,"is_reserved":false,"is_disabled":false,"rental_uris":{"android":"levelo://app?vid=14e1b31b-c460-4fda-b8f3-d7d72b9acd89","ios":"levelo://app?vid=14e1b31b-c460-4fda-b8f3-d7d72b9acd89"},"vehicle_type_id":"4","last_reported":1702937186,"current_range_meters":30400,"station_id":"ce4bha12rcd13ifvqee0","pricing_plan_id":"free"},{"bike_id":"41a616d3-9671-47e6-a61a-79bc77bcedca","system_id":"levelo_inurba_marseille","lat":43.281044,"lon":5.378308,"is_reserved":false,"is_disabled":false,"rental_uris":{"android":"levelo://app?vid=41a616d3-9671-47e6-a61a-79bc77bcedca","ios":"levelo://app?vid=41a616d3-9671-47e6-a61a-79bc77bcedca"},"vehicle_type_id":"4","last_reported":1702937186,"current_range_meters":16400,"station_id":"ce4bha12rcd13ifvqee0","pricing_plan_id":"free"},{"bike_id":"9feb3aef-d2a6-48d1-b246-cf93b10895ad","system_id":"levelo_inurba_marseille","lat":43.281044,"lon":5.378308,"is_reserved":false,"is_disabled":false,"rental_uris":{"android":"levelo://app?vid=9feb3aef-d2a6-48d1-b246-cf93b10895ad","ios":"levelo://app?vid=9feb3aef-d2a6-48d1-b246-cf93b10895ad"},"vehicle_type_id":"4","last_reported":1702937186,"current_range_meters":1200,"station_id":"ce4bha12rcd13ifvqee0","pricing_plan_id":"free"},{"bike_id":"2e50529f-6a77-4cb5-b10f-9329295ccb6e","system_id":"levelo_inurba_marseille","lat":43.296263,"lon":5.40601,"is_reserved":false,"is_disabled":false,"rental_uris":{"android":"levelo://app?vid=2e50529f-6a77-4cb5-b10f-9329295ccb6e","ios":"levelo://app?vid=2e50529f-6a77-4cb5-b10f-9329295ccb6e"},"vehicle_type_id":"4","last_reported":1702937186,"current_range_meters":22000,"station_id":"ce4bh0h2rcd13ifvqd60","pricing_plan_id":"free"},{"bike_id":"9698e689-4b8e-4a73-8d7d-39bb6b2312fa","system_id":"levelo_inurba_marseille","lat":43.28094,"lon":5.37857,"is_reserved":false,"is_disabled":false,"rental_uris":{"android":"levelo://app?vid=9698e689-4b8e-4a73-8d7d-39bb6b2312fa","ios":"levelo://app?vid=9698e689-4b8e-4a73-8d7d-39bb6b2312fa"},"vehicle_type_id":"4","last_reported":1702937186,"current_range_meters":0,"station_id":"ce4bha12rcd13ifvqee0","pricing_plan_id":"free"},{"bike_id":"9fc39c62-1e96-4103-a806-0208cfbc2ef4","system_id":"levelo_inurba_marseille","lat":43.285742,"lon":5.395004,"is_reserved":false,"is_disabled":false,"rental_uris":{"android":"levelo://app?vid=9fc39c62-1e96-4103-a806-0208cfbc2ef4","ios":"levelo://app?vid=9fc39c62-1e96-4103-a806-0208cfbc2ef4"},"vehicle_type_id":"4","last_reported":1702937186,"current_range_meters":5600,"station_id":"ce4bh292rcd13ifvqdg0","pricing_plan_id":"free"},{"bike_id":"857aa8a5-8ac8-4f33-a260-7afdacc6e887","system_id":"levelo_inurba_marseille","lat":43.285742,"lon":5.395004,"is_reserved":false,"is_disabled":false,"rental_uris":{"android":"levelo://app?vid=857aa8a5-8ac8-4f33-a260-7afdacc6e887","ios":"levelo://app?vid=857aa8a5-8ac8-4f33-a260-7afdacc6e887"},"vehicle_type_id":"4","last_reported":1702937186,"current_range_meters":29200,"station_id":"ce4bh292rcd13ifvqdg0","pricing_plan_id":"free"},{"bike_id":"3ab5feaa-13d5-4976-a6e8-2b3269655976","system_id":"levelo_inurba_marseille","lat":43.28573,"lon":5.394992,"is_reserved":false,"is_disabled":false,"rental_uris":{"android":"levelo://app?vid=3ab5feaa-13d5-4976-a6e8-2b3269655976","ios":"levelo://app?vid=3ab5feaa-13d5-4976-a6e8-2b3269655976"},"vehicle_type_id":"4","last_reported":1702937186,"current_range_meters":22400,"station_id":"ce4bh292rcd13ifvqdg0","pricing_plan_id":"free"},{"bike_id":"7945c9bc-8705-4104-aacd-41e0e0a664d5","system_id":"levelo_inurba_marseille","lat":43.28573,"lon":5.394992,"is_reserved":false,"is_disabled":false,"rental_uris":{"android":"levelo://app?vid=7945c9bc-8705-4104-aacd-41e0e0a664d5","ios":"levelo://app?vid=7945c9bc-8705-4104-aacd-41e0e0a664d5"},"vehicle_type_id":"4","last_reported":1702937186,"current_range_meters":31600,"station_id":"ce4bh292rcd13ifvqdg0","pricing_plan_id":"free"},{"bike_id":"873839ef-64b0-4ac8-9923-c1540cfeb4dc","system_id":"levelo_inurba_marseille","lat":43.304188,"lon":5.412904,"is_reserved":false,"is_disabled":false,"rental_uris":{"android":"levelo://app?vid=873839ef-64b0-4ac8-9923-c1540cfeb4dc","ios":"levelo://app?vid=873839ef-64b0-4ac8-9923-c1540cfeb4dc"},"vehicle_type_id":"4","last_reported":1702937186,"current_range_meters":16800,"station_id":"ce4bhop2rcd13ifvqh8g","pricing_plan_id":"free"},{"bike_id":"ebc382dc-bff4-4ed0-8fce-28d10fdc332a","system_id":"levelo_inurba_marseille","lat":43.304188,"lon":5.412904,"is_reserved":false,"is_disabled":false,"rental_uris":{"android":"levelo://app?vid=ebc382dc-bff4-4ed0-8fce-28d10fdc332a","ios":"levelo://app?vid=ebc382dc-bff4-4ed0-8fce-28d10fdc332a"},"vehicle_type_id":"4","last_reported":1702937186,"current_range_meters":30400,"station_id":"ce4bhop2rcd13ifvqh8g","pricing_plan_id":"free"},{"bike_id":"c6216c21-ccc8-4be9-bad1-1276aa9446d6","system_id":"levelo_inurba_marseille","lat":43.287154,"lon":5.399979,"is_reserved":false,"is_disabled":false,"rental_uris":{"android":"levelo://app?vid=c6216c21-ccc8-4be9-bad1-1276aa9446d6","ios":"levelo://app?vid=c6216c21-ccc8-4be9-bad1-1276aa9446d6"},"vehicle_type_id":"4","last_reported":1702937186,"current_range_meters":2400,"station_id":"ce4bho92rcd13ifvqh3g","pricing_plan_id":"free"},{"bike_id":"90f101fa-0725-441c-944e-c4581cefc596","system_id":"levelo_inurba_marseille","lat":43.287154,"lon":5.399979,"is_reserved":false,"is_disabled":false,"rental_uris":{"android":"levelo://app?vid=90f101fa-0725-441c-944e-c4581cefc596","ios":"levelo://app?vid=90f101fa-0725-441c-944e-c4581cefc596"},"vehicle_type_id":"4","last_reported":1702937186,"current_range_meters":26000,"station_id":"ce4bho92rcd13ifvqh3g","pricing_plan_id":"free"},{"bike_id":"a1c54619-c7a7-4d70-85d7-af225610f8c7","system_id":"levelo_inurba_marseille","lat":43.299579,"lon":5.413255,"is_reserved":false,"is_disabled":false,"rental_uris":{"android":"levelo://app?vid=a1c54619-c7a7-4d70-85d7-af225610f8c7","ios":"levelo://app?vid=a1c54619-c7a7-4d70-85d7-af225610f8c7"},"vehicle_type_id":"4","last_reported":1702937186,"current_range_meters":28000,"station_id":"ce4bhp12rcd13ifvqh9g","pricing_plan_id":"free"},{"bike_id":"087ecf1c-28f6-4673-90d7-0a988c87c5ff","system_id":"levelo_inurba_marseille","lat":43.279742,"lon":5.38744,"is_reserved":false,"is_disabled":false,"rental_uris":{"android":"levelo://app?vid=087ecf1c-28f6-4673-90d7-0a988c87c5ff","ios":"levelo://app?vid=087ecf1c-28f6-4673-90d7-0a988c87c5ff"},"vehicle_type_id":"4","last_reported":1702937186,"current_range_meters":28000,"station_id":"ce4bhg12rcd13ifvqf80","pricing_plan_id":"free"},{"bike_id":"3344799b-9746-480e-8f25-bac184da27d1","system_id":"levelo_inurba_marseille","lat":43.292571,"lon":5.409107,"is_reserved":false,"is_disabled":false,"rental_uris":{"android":"levelo://app?vid=3344799b-9746-480e-8f25-bac184da27d1","ios":"levelo://app?vid=3344799b-9746-480e-8f25-bac184da27d1"},"vehicle_type_id":"4","last_reported":1702937186,"current_range_meters":27200,"station_id":"ce4bh192rcd13ifvqdc0","pricing_plan_id":"free"},{"bike_id":"f9930c92-e1ae-487c-add0-fa6429120601","system_id":"levelo_inurba_marseille","lat":43.292569,"lon":5.409107,"is_reserved":false,"is_disabled":false,"rental_uris":{"android":"levelo://app?vid=f9930c92-e1ae-487c-add0-fa6429120601","ios":"levelo://app?vid=f9930c92-e1ae-487c-add0-fa6429120601"},"vehicle_type_id":"4","last_reported":1702937186,"current_range_meters":17200,"station_id":"ce4bh192rcd13ifvqdc0","pricing_plan_id":"free"},{"bike_id":"90106306-9dd7-4d34-a757-00177879933a","system_id":"levelo_inurba_marseille","lat":43.292569,"lon":5.409107,"is_reserved":false,"is_disabled":false,"rental_uris":{"android":"levelo://app?vid=90106306-9dd7-4d34-a757-00177879933a","ios":"levelo://app?vid=90106306-9dd7-4d34-a757-00177879933a"},"vehicle_type_id":"4","last_reported":1702937186,"current_range_meters":28800,"station_id":"ce4bh192rcd13ifvqdc0","pricing_plan_id":"free"},{"bike_id":"746c5f03-bb7e-4feb-be4b-702f6474ef36","system_id":"levelo_inurba_marseille","lat":43.2926,"lon":5.40912,"is_reserved":false,"is_disabled":false,"rental_uris":{"android":"levelo://app?vid=746c5f03-bb7e-4feb-be4b-702f6474ef36","ios":"levelo://app?vid=746c5f03-bb7e-4feb-be4b-702f6474ef36"},"vehicle_type_id":"4","last_reported":1702937186,"current_range_meters":18400,"station_id":"ce4bh192rcd13ifvqdc0","pricing_plan_id":"free"},{"bike_id":"06d6d0a7-5a4c-4ff6-a91a-ac2bb0e711e7","system_id":"levelo_inurba_marseille","lat":43.276216,"lon":5.361076,"is_reserved":false,"is_disabled":false,"rental_uris":{"android":"levelo://app?vid=06d6d0a7-5a4c-4ff6-a91a-ac2bb0e711e7","ios":"levelo://app?vid=06d6d0a7-5a4c-4ff6-a91a-ac2bb0e711e7"},"vehicle_type_id":"4","last_reported":1702937186,"current_range_meters":31200,"station_id":"ce4bgj92rcd13ifvqbe0","pricing_plan_id":"free"},{"bike_id":"0b0b7cdf-f262-4435-a44c-2a21ee8b66b4","system_id":"levelo_inurba_marseille","lat":43.275625,"lon":5.384392,"is_reserved":false,"is_disabled":false,"rental_uris":{"android":"levelo://app?vid=0b0b7cdf-f262-4435-a44c-2a21ee8b66b4","ios":"levelo://app?vid=0b0b7cdf-f262-4435-a44c-2a21ee8b66b4"},"vehicle_type_id":"4","last_reported":1702937186,"current_range_meters":12000,"station_id":"ce4bhh92rcd13ifvqfi0","pricing_plan_id":"free"},{"bike_id":"abce9a6c-3aeb-4133-883b-f887057d135d","system_id":"levelo_inurba_marseille","lat":43.280784,"lon":5.396622,"is_reserved":false,"is_disabled":false,"rental_uris":{"android":"levelo://app?vid=abce9a6c-3aeb-4133-883b-f887057d135d","ios":"levelo://app?vid=abce9a6c-3aeb-4133-883b-f887057d135d"},"vehicle_type_id":"4","last_reported":1702937186,"current_range_meters":20800,"station_id":"ce4bho12rcd13ifvqh2g","pricing_plan_id":"free"},{"bike_id":"4cee5c6a-7c96-4169-82b7-9b1c414dd242","system_id":"levelo_inurba_marseille","lat":43.280784,"lon":5.396622,"is_reserved":false,"is_disabled":false,"rental_uris":{"android":"levelo://app?vid=4cee5c6a-7c96-4169-82b7-9b1c414dd242","ios":"levelo://app?vid=4cee5c6a-7c96-4169-82b7-9b1c414dd242"},"vehicle_type_id":"4","last_reported":1702937186,"current_range_meters":26800,"station_id":"ce4bho12rcd13ifvqh2g","pricing_plan_id":"free"},{"bike_id":"815c8245-20e5-49cb-9945-a90133926c2f","system_id":"levelo_inurba_marseille","lat":43.278401,"lon":5.392152,"is_reserved":false,"is_disabled":false,"rental_uris":{"android":"levelo://app?vid=815c8245-20e5-49cb-9945-a90133926c2f","ios":"levelo://app?vid=815c8245-20e5-49cb-9945-a90133926c2f"},"vehicle_type_id":"4","last_reported":1702937186,"current_range_meters":21600,"station_id":"ce4bhjp2rcd13ifvqga0","pricing_plan_id":"free"},{"bike_id":"0cd0c498-489f-47e8-83e7-6978e88bb13f","system_id":"levelo_inurba_marseille","lat":43.30354,"lon":5.41881,"is_reserved":false,"is_disabled":false,"rental_uris":{"android":"levelo://app?vid=0cd0c498-489f-47e8-83e7-6978e88bb13f","ios":"levelo://app?vid=0cd0c498-489f-47e8-83e7-6978e88bb13f"},"vehicle_type_id":"4","last_reported":1702937186,"current_range_meters":8800,"station_id":"ce4bhop2rcd13ifvqh7g","pricing_plan_id":"free"},{"bike_id":"8b7163c8-747c-4e96-8584-c017d4b913c7","system_id":"levelo_inurba_marseille","lat":43.273613,"lon":5.362705,"is_reserved":false,"is_disabled":false,"rental_uris":{"android":"levelo://app?vid=8b7163c8-747c-4e96-8584-c017d4b913c7","ios":"levelo://app?vid=8b7163c8-747c-4e96-8584-c017d4b913c7"},"vehicle_type_id":"4","last_reported":1702937186,"current_range_meters":24800,"station_id":"ce4bhbh2rcd13ifvqeo0","pricing_plan_id":"free"},{"bike_id":"0cf403f8-9992-471b-b83e-97c5b20efdb5","system_id":"levelo_inurba_marseille","lat":43.273609,"lon":5.362708,"is_reserved":false,"is_disabled":false,"rental_uris":{"android":"levelo://app?vid=0cf403f8-9992-471b-b83e-97c5b20efdb5","ios":"levelo://app?vid=0cf403f8-9992-471b-b83e-97c5b20efdb5"},"vehicle_type_id":"4","last_reported":1702937186,"current_range_meters":27600,"station_id":"ce4bhbh2rcd13ifvqeo0","pricing_plan_id":"free"},{"bike_id":"4d127045-12ef-407c-afdf-5ad668934932","system_id":"levelo_inurba_marseille","lat":43.275625,"lon":5.384392,"is_reserved":false,"is_disabled":false,"rental_uris":{"android":"levelo://app?vid=4d127045-12ef-407c-afdf-5ad668934932","ios":"levelo://app?vid=4d127045-12ef-407c-afdf-5ad668934932"},"vehicle_type_id":"4","last_reported":1702937186,"current_range_meters":18400,"station_id":"ce4bhh92rcd13ifvqfi0","pricing_plan_id":"free"},{"bike_id":"ba23a49f-f752-40f9-b881-d731ba920e07","system_id":"levelo_inurba_marseille","lat":43.324178,"lon":5.419979,"is_reserved":false,"is_disabled":false,"rental_uris":{"android":"levelo://app?vid=ba23a49f-f752-40f9-b881-d731ba920e07","ios":"levelo://app?vid=ba23a49f-f752-40f9-b881-d731ba920e07"},"vehicle_type_id":"4","last_reported":1702937186,"current_range_meters":26800,"station_id":"","pricing_plan_id":"free"},{"bike_id":"3b8a3a16-a58a-4dd3-a368-557235b8f1ad","system_id":"levelo_inurba_marseille","lat":43.279952,"lon":5.400085,"is_reserved":false,"is_disabled":false,"rental_uris":{"android":"levelo://app?vid=3b8a3a16-a58a-4dd3-a368-557235b8f1ad","ios":"levelo://app?vid=3b8a3a16-a58a-4dd3-a368-557235b8f1ad"},"vehicle_type_id":"4","last_reported":1702937186,"current_range_meters":12400,"station_id":"ce4bho92rcd13ifvqh4g","pricing_plan_id":"free"},{"bike_id":"0bb97659-f4e9-4526-88b8-47fb345b8426","system_id":"levelo_inurba_marseille","lat":43.279952,"lon":5.400085,"is_reserved":false,"is_disabled":false,"rental_uris":{"android":"levelo://app?vid=0bb97659-f4e9-4526-88b8-47fb345b8426","ios":"levelo://app?vid=0bb97659-f4e9-4526-88b8-47fb345b8426"},"vehicle_type_id":"4","last_reported":1702937186,"current_range_meters":26000,"station_id":"ce4bho92rcd13ifvqh4g","pricing_plan_id":"free"},{"bike_id":"9cedd493-ffa3-4b25-9af8-b668baa13cd3","system_id":"levelo_inurba_marseille","lat":43.317121,"lon":5.423936,"is_reserved":false,"is_disabled":false,"rental_uris":{"android":"levelo://app?vid=9cedd493-ffa3-4b25-9af8-b668baa13cd3","ios":"levelo://app?vid=9cedd493-ffa3-4b25-9af8-b668baa13cd3"},"vehicle_type_id":"4","last_reported":1702937186,"current_range_meters":14000,"station_id":"ce4bhp92rcd13ifvqhbg","pricing_plan_id":"free"},{"bike_id":"1c94075f-1520-42e4-b407-7493fed250da","system_id":"levelo_inurba_marseille","lat":43.340804,"lon":5.410219,"is_reserved":false,"is_disabled":false,"rental_uris":{"android":"levelo://app?vid=1c94075f-1520-42e4-b407-7493fed250da","ios":"levelo://app?vid=1c94075f-1520-42e4-b407-7493fed250da"},"vehicle_type_id":"4","last_reported":1702937186,"current_range_meters":27200,"station_id":"ce4bhqh2rcd13ifvqhlg","pricing_plan_id":"free"},{"bike_id":"3ca2c2d2-99b0-4aa6-a05d-e30f02e6a7fb","system_id":"levelo_inurba_marseille","lat":43.276092,"lon":5.395289,"is_reserved":false,"is_disabled":false,"rental_uris":{"android":"levelo://app?vid=3ca2c2d2-99b0-4aa6-a05d-e30f02e6a7fb","ios":"levelo://app?vid=3ca2c2d2-99b0-4aa6-a05d-e30f02e6a7fb"},"vehicle_type_id":"4","last_reported":1702937186,"current_range_meters":11600,"station_id":"","pricing_plan_id":"free"},{"bike_id":"52ffbfe2-3dc9-4e53-97d1-3182ba2225bd","system_id":"levelo_inurba_marseille","lat":43.295511,"lon":5.422926,"is_reserved":false,"is_disabled":false,"rental_uris":{"android":"levelo://app?vid=52ffbfe2-3dc9-4e53-97d1-3182ba2225bd","ios":"levelo://app?vid=52ffbfe2-3dc9-4e53-97d1-3182ba2225bd"},"vehicle_type_id":"4","last_reported":1702937186,"current_range_meters":22000,"station_id":"ce4bhph2rcd13ifvqhdg","pricing_plan_id":"free"},{"bike_id":"628a1844-4de6-4ff8-b7b8-44bb12a39376","system_id":"levelo_inurba_marseille","lat":43.295511,"lon":5.422926,"is_reserved":false,"is_disabled":false,"rental_uris":{"android":"levelo://app?vid=628a1844-4de6-4ff8-b7b8-44bb12a39376","ios":"levelo://app?vid=628a1844-4de6-4ff8-b7b8-44bb12a39376"},"vehicle_type_id":"4","last_reported":1702937186,"current_range_meters":31200,"station_id":"ce4bhph2rcd13ifvqhdg","pricing_plan_id":"free"},{"bike_id":"a1b8af23-d392-49bd-a85a-eb8ad9510d9c","system_id":"levelo_inurba_marseille","lat":43.295511,"lon":5.422926,"is_reserved":false,"is_disabled":false,"rental_uris":{"android":"levelo://app?vid=a1b8af23-d392-49bd-a85a-eb8ad9510d9c","ios":"levelo://app?vid=a1b8af23-d392-49bd-a85a-eb8ad9510d9c"},"vehicle_type_id":"4","last_reported":1702937186,"current_range_meters":3200,"station_id":"ce4bhph2rcd13ifvqhdg","pricing_plan_id":"free"},{"bike_id":"35f4c7df-1dd1-49cd-b086-e9b64d14ba25","system_id":"levelo_inurba_marseille","lat":43.295511,"lon":5.422926,"is_reserved":false,"is_disabled":false,"rental_uris":{"android":"levelo://app?vid=35f4c7df-1dd1-49cd-b086-e9b64d14ba25","ios":"levelo://app?vid=35f4c7df-1dd1-49cd-b086-e9b64d14ba25"},"vehicle_type_id":"4","last_reported":1702937186,"current_range_meters":24800,"station_id":"ce4bhph2rcd13ifvqhdg","pricing_plan_id":"free"},{"bike_id":"fc3f22f4-3d85-4b36-bd3d-60cd40afff37","system_id":"levelo_inurba_marseille","lat":43.295511,"lon":5.422926,"is_reserved":false,"is_disabled":false,"rental_uris":{"android":"levelo://app?vid=fc3f22f4-3d85-4b36-bd3d-60cd40afff37","ios":"levelo://app?vid=fc3f22f4-3d85-4b36-bd3d-60cd40afff37"},"vehicle_type_id":"4","last_reported":1702937186,"current_range_meters":10000,"station_id":"ce4bhph2rcd13ifvqhdg","pricing_plan_id":"free"},{"bike_id":"1d583d68-8350-42de-af0a-dd3bb755495b","system_id":"levelo_inurba_marseille","lat":43.295497,"lon":5.422888,"is_reserved":false,"is_disabled":false,"rental_uris":{"android":"levelo://app?vid=1d583d68-8350-42de-af0a-dd3bb755495b","ios":"levelo://app?vid=1d583d68-8350-42de-af0a-dd3bb755495b"},"vehicle_type_id":"4","last_reported":1702937186,"current_range_meters":2400,"station_id":"ce4bhph2rcd13ifvqhdg","pricing_plan_id":"free"},{"bike_id":"0676602b-588d-4bda-a4e6-b94392e8f194","system_id":"levelo_inurba_marseille","lat":43.278128,"lon":5.407195,"is_reserved":false,"is_disabled":false,"rental_uris":{"android":"levelo://app?vid=0676602b-588d-4bda-a4e6-b94392e8f194","ios":"levelo://app?vid=0676602b-588d-4bda-a4e6-b94392e8f194"},"vehicle_type_id":"4","last_reported":1702937186,"current_range_meters":25200,"station_id":"ce4bhnh2rcd13ifvqgtg","pricing_plan_id":"free"},{"bike_id":"fb0048d5-4206-462d-96de-9f3558e4be71","system_id":"levelo_inurba_marseille","lat":43.279465,"lon":5.410561,"is_reserved":false,"is_disabled":false,"rental_uris":{"android":"levelo://app?vid=fb0048d5-4206-462d-96de-9f3558e4be71","ios":"levelo://app?vid=fb0048d5-4206-462d-96de-9f3558e4be71"},"vehicle_type_id":"4","last_reported":1702937186,"current_range_meters":24000,"station_id":"ce4bhnp2rcd13ifvqh0g","pricing_plan_id":"free"},{"bike_id":"3360b676-3022-4014-80bc-08bc66977fcf","system_id":"levelo_inurba_marseille","lat":43.279397,"lon":5.410527,"is_reserved":false,"is_disabled":false,"rental_uris":{"android":"levelo://app?vid=3360b676-3022-4014-80bc-08bc66977fcf","ios":"levelo://app?vid=3360b676-3022-4014-80bc-08bc66977fcf"},"vehicle_type_id":"4","last_reported":1702937186,"current_range_meters":6400,"station_id":"ce4bhnp2rcd13ifvqh0g","pricing_plan_id":"free"},{"bike_id":"cb97da20-e838-49a8-a07e-267048d14308","system_id":"levelo_inurba_marseille","lat":43.27996,"lon":5.416624,"is_reserved":false,"is_disabled":false,"rental_uris":{"android":"levelo://app?vid=cb97da20-e838-49a8-a07e-267048d14308","ios":"levelo://app?vid=cb97da20-e838-49a8-a07e-267048d14308"},"vehicle_type_id":"4","last_reported":1702937186,"current_range_meters":26800,"station_id":"ce4bho12rcd13ifvqh1g","pricing_plan_id":"free"},{"bike_id":"500cedef-851e-4bba-8c2e-e6f6c79d6194","system_id":"levelo_inurba_marseille","lat":43.308051,"lon":5.43527,"is_reserved":false,"is_disabled":false,"rental_uris":{"android":"levelo://app?vid=500cedef-851e-4bba-8c2e-e6f6c79d6194","ios":"levelo://app?vid=500cedef-851e-4bba-8c2e-e6f6c79d6194"},"vehicle_type_id":"4","last_reported":1702937186,"current_range_meters":29200,"station_id":"ce4bhph2rcd13ifvqheg","pricing_plan_id":"free"},{"bike_id":"50adc33a-5cec-46d7-ab61-ad25db1ee9ac","system_id":"levelo_inurba_marseille","lat":43.308059,"lon":5.435219,"is_reserved":false,"is_disabled":false,"rental_uris":{"android":"levelo://app?vid=50adc33a-5cec-46d7-ab61-ad25db1ee9ac","ios":"levelo://app?vid=50adc33a-5cec-46d7-ab61-ad25db1ee9ac"},"vehicle_type_id":"4","last_reported":1702937186,"current_range_meters":800,"station_id":"ce4bhph2rcd13ifvqheg","pricing_plan_id":"free"},{"bike_id":"dea6d4bf-6bd3-4e00-ab36-832382195e1c","system_id":"levelo_inurba_marseille","lat":43.308051,"lon":5.43527,"is_reserved":false,"is_disabled":false,"rental_uris":{"android":"levelo://app?vid=dea6d4bf-6bd3-4e00-ab36-832382195e1c","ios":"levelo://app?vid=dea6d4bf-6bd3-4e00-ab36-832382195e1c"},"vehicle_type_id":"4","last_reported":1702937186,"current_range_meters":30000,"station_id":"ce4bhph2rcd13ifvqheg","pricing_plan_id":"free"},{"bike_id":"b60fc5e1-89e5-42b6-95cd-2facc0075673","system_id":"levelo_inurba_marseille","lat":43.307961,"lon":5.435308,"is_reserved":false,"is_disabled":false,"rental_uris":{"android":"levelo://app?vid=b60fc5e1-89e5-42b6-95cd-2facc0075673","ios":"levelo://app?vid=b60fc5e1-89e5-42b6-95cd-2facc0075673"},"vehicle_type_id":"4","last_reported":1702937186,"current_range_meters":21200,"station_id":"ce4bhph2rcd13ifvqheg","pricing_plan_id":"free"},{"bike_id":"50dd6dff-c53f-4ac5-b9a0-4a136248695a","system_id":"levelo_inurba_marseille","lat":43.269423,"lon":5.402468,"is_reserved":false,"is_disabled":false,"rental_uris":{"android":"levelo://app?vid=50dd6dff-c53f-4ac5-b9a0-4a136248695a","ios":"levelo://app?vid=50dd6dff-c53f-4ac5-b9a0-4a136248695a"},"vehicle_type_id":"4","last_reported":1702937186,"current_range_meters":0,"station_id":"cjm6bp8fraef2m0cb0m0","pricing_plan_id":"free"},{"bike_id":"498e1520-f488-4aa0-b91a-3451bf8d5292","system_id":"levelo_inurba_marseille","lat":43.26949,"lon":5.40262,"is_reserved":false,"is_disabled":false,"rental_uris":{"android":"levelo://app?vid=498e1520-f488-4aa0-b91a-3451bf8d5292","ios":"levelo://app?vid=498e1520-f488-4aa0-b91a-3451bf8d5292"},"vehicle_type_id":"4","last_reported":1702937186,"current_range_meters":12400,"station_id":"cjm6bp8fraef2m0cb0m0","pricing_plan_id":"free"},{"bike_id":"44d278a1-8ea5-447b-921a-107eed71404a","system_id":"levelo_inurba_marseille","lat":43.26938,"lon":5.40252,"is_reserved":false,"is_disabled":false,"rental_uris":{"android":"levelo://app?vid=44d278a1-8ea5-447b-921a-107eed71404a","ios":"levelo://app?vid=44d278a1-8ea5-447b-921a-107eed71404a"},"vehicle_type_id":"4","last_reported":1702937186,"current_range_meters":25600,"station_id":"cjm6bp8fraef2m0cb0m0","pricing_plan_id":"free"},{"bike_id":"0cff377c-c67f-4fb0-8750-1a3c4f7b1ffb","system_id":"levelo_inurba_marseille","lat":43.261945,"lon":5.374433,"is_reserved":false,"is_disabled":false,"rental_uris":{"android":"levelo://app?vid=0cff377c-c67f-4fb0-8750-1a3c4f7b1ffb","ios":"levelo://app?vid=0cff377c-c67f-4fb0-8750-1a3c4f7b1ffb"},"vehicle_type_id":"4","last_reported":1702937186,"current_range_meters":31200,"station_id":"ce4bhgp2rcd13ifvqfc0","pricing_plan_id":"free"},{"bike_id":"96f272ef-3baa-4fd1-ba50-19eafa57509c","system_id":"levelo_inurba_marseille","lat":43.2619,"lon":5.37441,"is_reserved":false,"is_disabled":false,"rental_uris":{"android":"levelo://app?vid=96f272ef-3baa-4fd1-ba50-19eafa57509c","ios":"levelo://app?vid=96f272ef-3baa-4fd1-ba50-19eafa57509c"},"vehicle_type_id":"4","last_reported":1702937186,"current_range_meters":31200,"station_id":"ce4bhgp2rcd13ifvqfc0","pricing_plan_id":"free"},{"bike_id":"0ab8776c-1152-4e49-b0c6-22404bbe4224","system_id":"levelo_inurba_marseille","lat":43.261782,"lon":5.374515,"is_reserved":false,"is_disabled":false,"rental_uris":{"android":"levelo://app?vid=0ab8776c-1152-4e49-b0c6-22404bbe4224","ios":"levelo://app?vid=0ab8776c-1152-4e49-b0c6-22404bbe4224"},"vehicle_type_id":"4","last_reported":1702937186,"current_range_meters":31200,"station_id":"ce4bhgp2rcd13ifvqfc0","pricing_plan_id":"free"},{"bike_id":"aed94823-987c-4f39-a8b9-00dab2638955","system_id":"levelo_inurba_marseille","lat":43.261782,"lon":5.374515,"is_reserved":false,"is_disabled":false,"rental_uris":{"android":"levelo://app?vid=aed94823-987c-4f39-a8b9-00dab2638955","ios":"levelo://app?vid=aed94823-987c-4f39-a8b9-00dab2638955"},"vehicle_type_id":"4","last_reported":1702937186,"current_range_meters":25200,"station_id":"ce4bhgp2rcd13ifvqfc0","pricing_plan_id":"free"},{"bike_id":"7316220c-bdb8-4c03-8675-bc5b2439eb9a","system_id":"levelo_inurba_marseille","lat":43.26187,"lon":5.37444,"is_reserved":false,"is_disabled":false,"rental_uris":{"android":"levelo://app?vid=7316220c-bdb8-4c03-8675-bc5b2439eb9a","ios":"levelo://app?vid=7316220c-bdb8-4c03-8675-bc5b2439eb9a"},"vehicle_type_id":"4","last_reported":1702937186,"current_range_meters":17200,"station_id":"ce4bhgp2rcd13ifvqfc0","pricing_plan_id":"free"},{"bike_id":"524ed846-4fbf-4d2f-8a66-ae44c466484e","system_id":"levelo_inurba_marseille","lat":43.261782,"lon":5.374515,"is_reserved":false,"is_disabled":false,"rental_uris":{"android":"levelo://app?vid=524ed846-4fbf-4d2f-8a66-ae44c466484e","ios":"levelo://app?vid=524ed846-4fbf-4d2f-8a66-ae44c466484e"},"vehicle_type_id":"4","last_reported":1702937186,"current_range_meters":26000,"station_id":"ce4bhgp2rcd13ifvqfc0","pricing_plan_id":"free"},{"bike_id":"b1838760-ccff-4746-80bf-229efc951a30","system_id":"levelo_inurba_marseille","lat":43.261782,"lon":5.374515,"is_reserved":false,"is_disabled":false,"rental_uris":{"android":"levelo://app?vid=b1838760-ccff-4746-80bf-229efc951a30","ios":"levelo://app?vid=b1838760-ccff-4746-80bf-229efc951a30"},"vehicle_type_id":"4","last_reported":1702937186,"current_range_meters":14000,"station_id":"ce4bhgp2rcd13ifvqfc0","pricing_plan_id":"free"},{"bike_id":"883f20e2-6def-4a2a-94c6-c5c2c4f893c0","system_id":"levelo_inurba_marseille","lat":43.261782,"lon":5.374515,"is_reserved":false,"is_disabled":false,"rental_uris":{"android":"levelo://app?vid=883f20e2-6def-4a2a-94c6-c5c2c4f893c0","ios":"levelo://app?vid=883f20e2-6def-4a2a-94c6-c5c2c4f893c0"},"vehicle_type_id":"4","last_reported":1702937186,"current_range_meters":31200,"station_id":"ce4bhgp2rcd13ifvqfc0","pricing_plan_id":"free"},{"bike_id":"ee1964dd-bd19-4163-8977-66dfe213996c","system_id":"levelo_inurba_marseille","lat":43.261782,"lon":5.374515,"is_reserved":false,"is_disabled":false,"rental_uris":{"android":"levelo://app?vid=ee1964dd-bd19-4163-8977-66dfe213996c","ios":"levelo://app?vid=ee1964dd-bd19-4163-8977-66dfe213996c"},"vehicle_type_id":"4","last_reported":1702937186,"current_range_meters":31200,"station_id":"ce4bhgp2rcd13ifvqfc0","pricing_plan_id":"free"},{"bike_id":"47bd3dae-2016-409c-a21f-24033c548c01","system_id":"levelo_inurba_marseille","lat":43.261782,"lon":5.374515,"is_reserved":false,"is_disabled":false,"rental_uris":{"android":"levelo://app?vid=47bd3dae-2016-409c-a21f-24033c548c01","ios":"levelo://app?vid=47bd3dae-2016-409c-a21f-24033c548c01"},"vehicle_type_id":"4","last_reported":1702937186,"current_range_meters":31200,"station_id":"ce4bhgp2rcd13ifvqfc0","pricing_plan_id":"free"},{"bike_id":"502e992e-8347-4510-856d-e5447205cba4","system_id":"levelo_inurba_marseille","lat":43.317104,"lon":5.436818,"is_reserved":false,"is_disabled":false,"rental_uris":{"android":"levelo://app?vid=502e992e-8347-4510-856d-e5447205cba4","ios":"levelo://app?vid=502e992e-8347-4510-856d-e5447205cba4"},"vehicle_type_id":"4","last_reported":1702937186,"current_range_meters":11200,"station_id":"ce4bhp92rcd13ifvqhcg","pricing_plan_id":"free"},{"bike_id":"596e3210-6bf0-4d85-99a9-57f2c2b7bb13","system_id":"levelo_inurba_marseille","lat":43.262012,"lon":5.379307,"is_reserved":false,"is_disabled":false,"rental_uris":{"android":"levelo://app?vid=596e3210-6bf0-4d85-99a9-57f2c2b7bb13","ios":"levelo://app?vid=596e3210-6bf0-4d85-99a9-57f2c2b7bb13"},"vehicle_type_id":"4","last_reported":1702937186,"current_range_meters":29200,"station_id":"ce4bhjp2rcd13ifvqg90","pricing_plan_id":"free"},{"bike_id":"a3be1c29-995a-4f18-8d28-f5aa4c79f3d0","system_id":"levelo_inurba_marseille","lat":43.271368,"lon":5.40928,"is_reserved":false,"is_disabled":false,"rental_uris":{"android":"levelo://app?vid=a3be1c29-995a-4f18-8d28-f5aa4c79f3d0","ios":"levelo://app?vid=a3be1c29-995a-4f18-8d28-f5aa4c79f3d0"},"vehicle_type_id":"4","last_reported":1702937186,"current_range_meters":27600,"station_id":"ce4bhl12rcd13ifvqgf0","pricing_plan_id":"free"},{"bike_id":"eb1de3d3-c43d-4404-a0bf-e3e0f979c4f1","system_id":"levelo_inurba_marseille","lat":43.271388,"lon":5.409269,"is_reserved":false,"is_disabled":false,"rental_uris":{"android":"levelo://app?vid=eb1de3d3-c43d-4404-a0bf-e3e0f979c4f1","ios":"levelo://app?vid=eb1de3d3-c43d-4404-a0bf-e3e0f979c4f1"},"vehicle_type_id":"4","last_reported":1702937186,"current_range_meters":8000,"station_id":"ce4bhl12rcd13ifvqgf0","pricing_plan_id":"free"},{"bike_id":"bf3f74d6-015a-4283-9b7c-e4d1f1b6329a","system_id":"levelo_inurba_marseille","lat":43.271388,"lon":5.409269,"is_reserved":false,"is_disabled":false,"rental_uris":{"android":"levelo://app?vid=bf3f74d6-015a-4283-9b7c-e4d1f1b6329a","ios":"levelo://app?vid=bf3f74d6-015a-4283-9b7c-e4d1f1b6329a"},"vehicle_type_id":"4","last_reported":1702937186,"current_range_meters":13200,"station_id":"ce4bhl12rcd13ifvqgf0","pricing_plan_id":"free"},{"bike_id":"19755fdc-7e48-4142-89a9-71c86b1a5231","system_id":"levelo_inurba_marseille","lat":43.271368,"lon":5.40928,"is_reserved":false,"is_disabled":false,"rental_uris":{"android":"levelo://app?vid=19755fdc-7e48-4142-89a9-71c86b1a5231","ios":"levelo://app?vid=19755fdc-7e48-4142-89a9-71c86b1a5231"},"vehicle_type_id":"4","last_reported":1702937186,"current_range_meters":5200,"station_id":"ce4bhl12rcd13ifvqgf0","pricing_plan_id":"free"},{"bike_id":"3ec17574-714c-4dd8-936f-b707a5b77655","system_id":"levelo_inurba_marseille","lat":43.271388,"lon":5.409269,"is_reserved":false,"is_disabled":false,"rental_uris":{"android":"levelo://app?vid=3ec17574-714c-4dd8-936f-b707a5b77655","ios":"levelo://app?vid=3ec17574-714c-4dd8-936f-b707a5b77655"},"vehicle_type_id":"4","last_reported":1702937186,"current_range_meters":30800,"station_id":"ce4bhl12rcd13ifvqgf0","pricing_plan_id":"free"},{"bike_id":"7f0a85fc-e9b1-422b-b922-07a060dc7b5a","system_id":"levelo_inurba_marseille","lat":43.271368,"lon":5.40928,"is_reserved":false,"is_disabled":false,"rental_uris":{"android":"levelo://app?vid=7f0a85fc-e9b1-422b-b922-07a060dc7b5a","ios":"levelo://app?vid=7f0a85fc-e9b1-422b-b922-07a060dc7b5a"},"vehicle_type_id":"4","last_reported":1702937186,"current_range_meters":31200,"station_id":"ce4bhl12rcd13ifvqgf0","pricing_plan_id":"free"},{"bike_id":"9432fde5-b38d-4791-8aea-32f68aa873e9","system_id":"levelo_inurba_marseille","lat":43.267959,"lon":5.402687,"is_reserved":false,"is_disabled":false,"rental_uris":{"android":"levelo://app?vid=9432fde5-b38d-4791-8aea-32f68aa873e9","ios":"levelo://app?vid=9432fde5-b38d-4791-8aea-32f68aa873e9"},"vehicle_type_id":"4","last_reported":1702937186,"current_range_meters":30000,"station_id":"ce501612rcd8frsf0b60","pricing_plan_id":"free"},{"bike_id":"d8b3f44b-b64f-48c5-90fb-16521be69981","system_id":"levelo_inurba_marseille","lat":43.267959,"lon":5.402685,"is_reserved":false,"is_disabled":false,"rental_uris":{"android":"levelo://app?vid=d8b3f44b-b64f-48c5-90fb-16521be69981","ios":"levelo://app?vid=d8b3f44b-b64f-48c5-90fb-16521be69981"},"vehicle_type_id":"4","last_reported":1702937186,"current_range_meters":30000,"station_id":"ce501612rcd8frsf0b60","pricing_plan_id":"free"},{"bike_id":"c49164db-9916-40bb-81c3-a7668124b003","system_id":"levelo_inurba_marseille","lat":43.267959,"lon":5.402687,"is_reserved":false,"is_disabled":false,"rental_uris":{"android":"levelo://app?vid=c49164db-9916-40bb-81c3-a7668124b003","ios":"levelo://app?vid=c49164db-9916-40bb-81c3-a7668124b003"},"vehicle_type_id":"4","last_reported":1702937186,"current_range_meters":19200,"station_id":"ce501612rcd8frsf0b60","pricing_plan_id":"free"},{"bike_id":"e8a234b0-5e27-410f-b763-446173f4b18b","system_id":"levelo_inurba_marseille","lat":43.264896,"lon":5.395493,"is_reserved":false,"is_disabled":false,"rental_uris":{"android":"levelo://app?vid=e8a234b0-5e27-410f-b763-446173f4b18b","ios":"levelo://app?vid=e8a234b0-5e27-410f-b763-446173f4b18b"},"vehicle_type_id":"4","last_reported":1702937186,"current_range_meters":0,"station_id":"","pricing_plan_id":"free"},{"bike_id":"a4975794-e88f-4155-947c-264e12be34c5","system_id":"levelo_inurba_marseille","lat":43.29899,"lon":5.43662,"is_reserved":false,"is_disabled":false,"rental_uris":{"android":"levelo://app?vid=a4975794-e88f-4155-947c-264e12be34c5","ios":"levelo://app?vid=a4975794-e88f-4155-947c-264e12be34c5"},"vehicle_type_id":"4","last_reported":1702937186,"current_range_meters":26800,"station_id":"ce4bhpp2rcd13ifvqhfg","pricing_plan_id":"free"},{"bike_id":"8b000818-ee66-4afa-956c-06d1feec8088","system_id":"levelo_inurba_marseille","lat":43.298768,"lon":5.43643,"is_reserved":false,"is_disabled":false,"rental_uris":{"android":"levelo://app?vid=8b000818-ee66-4afa-956c-06d1feec8088","ios":"levelo://app?vid=8b000818-ee66-4afa-956c-06d1feec8088"},"vehicle_type_id":"4","last_reported":1702937186,"current_range_meters":31600,"station_id":"ce4bhpp2rcd13ifvqhfg","pricing_plan_id":"free"},{"bike_id":"e1dbd143-4512-4ef2-81f6-ec31d4c89c72","system_id":"levelo_inurba_marseille","lat":43.298768,"lon":5.43643,"is_reserved":false,"is_disabled":false,"rental_uris":{"android":"levelo://app?vid=e1dbd143-4512-4ef2-81f6-ec31d4c89c72","ios":"levelo://app?vid=e1dbd143-4512-4ef2-81f6-ec31d4c89c72"},"vehicle_type_id":"4","last_reported":1702937186,"current_range_meters":27200,"station_id":"ce4bhpp2rcd13ifvqhfg","pricing_plan_id":"free"},{"bike_id":"be3c7518-3a90-4ace-b263-cbe424279bc2","system_id":"levelo_inurba_marseille","lat":43.298768,"lon":5.43643,"is_reserved":false,"is_disabled":false,"rental_uris":{"android":"levelo://app?vid=be3c7518-3a90-4ace-b263-cbe424279bc2","ios":"levelo://app?vid=be3c7518-3a90-4ace-b263-cbe424279bc2"},"vehicle_type_id":"4","last_reported":1702937186,"current_range_meters":30000,"station_id":"ce4bhpp2rcd13ifvqhfg","pricing_plan_id":"free"},{"bike_id":"76346036-12b6-4dcc-86d0-232802e30c75","system_id":"levelo_inurba_marseille","lat":43.298768,"lon":5.43643,"is_reserved":false,"is_disabled":false,"rental_uris":{"android":"levelo://app?vid=76346036-12b6-4dcc-86d0-232802e30c75","ios":"levelo://app?vid=76346036-12b6-4dcc-86d0-232802e30c75"},"vehicle_type_id":"4","last_reported":1702937186,"current_range_meters":24000,"station_id":"ce4bhpp2rcd13ifvqhfg","pricing_plan_id":"free"},{"bike_id":"77a1f788-d4af-4096-9ba6-648d4297517d","system_id":"levelo_inurba_marseille","lat":43.281548,"lon":5.42643,"is_reserved":false,"is_disabled":false,"rental_uris":{"android":"levelo://app?vid=77a1f788-d4af-4096-9ba6-648d4297517d","ios":"levelo://app?vid=77a1f788-d4af-4096-9ba6-648d4297517d"},"vehicle_type_id":"4","last_reported":1702937186,"current_range_meters":12800,"station_id":"ce4bhnh2rcd13ifvqgug","pricing_plan_id":"free"},{"bike_id":"9e394c7b-ad8a-4178-91e9-ac10bd6076ef","system_id":"levelo_inurba_marseille","lat":43.275028,"lon":5.424534,"is_reserved":false,"is_disabled":false,"rental_uris":{"android":"levelo://app?vid=9e394c7b-ad8a-4178-91e9-ac10bd6076ef","ios":"levelo://app?vid=9e394c7b-ad8a-4178-91e9-ac10bd6076ef"},"vehicle_type_id":"4","last_reported":1702937186,"current_range_meters":30400,"station_id":"ce4bhn92rcd13ifvqgrg","pricing_plan_id":"free"},{"bike_id":"20cb25ab-a5ed-44f2-a730-713583b7456a","system_id":"levelo_inurba_marseille","lat":43.258205,"lon":5.394369,"is_reserved":false,"is_disabled":false,"rental_uris":{"android":"levelo://app?vid=20cb25ab-a5ed-44f2-a730-713583b7456a","ios":"levelo://app?vid=20cb25ab-a5ed-44f2-a730-713583b7456a"},"vehicle_type_id":"4","last_reported":1702937186,"current_range_meters":26800,"station_id":"ce4bhip2rcd13ifvqft0","pricing_plan_id":"free"},{"bike_id":"c89dcb56-7515-448e-b5f6-fb6ed21417b0","system_id":"levelo_inurba_marseille","lat":43.25503,"lon":5.37651,"is_reserved":false,"is_disabled":false,"rental_uris":{"android":"levelo://app?vid=c89dcb56-7515-448e-b5f6-fb6ed21417b0","ios":"levelo://app?vid=c89dcb56-7515-448e-b5f6-fb6ed21417b0"},"vehicle_type_id":"4","last_reported":1702937186,"current_range_meters":26800,"station_id":"ce4bhh12rcd13ifvqff0","pricing_plan_id":"free"},