{"last_updated":1731755234,"ttl":60,"version":"2.2","data":{"bikes":[{"bike_id":"d74e4d0b-4239-4ceb-83df-def9c039af55","system_id":"levelo_inurba_marseille","lat":43.29802,"lon":5.38123,"is_reserved":false,"is_disabled":false,"rental_uris":{"android":"levelo://app?vid=d74e4d0b-4239-4ceb-83df-def9c039af55","ios":"levelo://app?vid=d74e4d0b-4239-4ceb-83df-def9c039af55"},"vehicle_type_id":"4","last_reported":1731755234,"current_range_meters":39200,"station_id":"ce4bgip2rcd13ifvqbb0","pricing_plan_id":"cebpf4jnsgd1na2vs0mg"},{"bike_id":"0ced7113-db48-4671-8b7b-648b43de37ab","system_id":"levelo_inurba_marseille","lat":43.27367,"lon":5.36248,"is_reserved":false,"is_disabled":false,"rental_uris":{"android":"levelo://app?vid=0ced7113-db48-4671-8b7b-648b43de37ab","ios":"levelo://app?vid=0ced7113-db48-4671-8b7b-648b43de37ab"},"vehicle_type_id":"4","last_reported":1731755234,"current_range_meters":39200,"station_id":"ce4bhbh2rcd13ifvqeo0","pricing_plan_id":"cebpf4jnsgd1na2vs0mg"},{"bike_id":"c3429b5d-0a8f-4b7c-81b0-334f0f780e95","system_id":"levelo_inurba_marseille","lat":43.298015,"lon":5.404025,"is_reserved":false,"is_disabled":false,"rental_uris":{"android":"levelo://app?vid=c3429b5d-0a8f-4b7c-81b0-334f0f780e95","ios":"levelo://app?vid=c3429b5d-0a8f-4b7c-81b0-334f0f780e95"},"vehicle_type_id":"4","last_reported":1731755234,"current_range_meters":38800,"station_id":"ce4bh112rcd13ifvqd90","pricing_plan_id":"cebpf4jnsgd1na2vs0mg"},{"bike_id":"4aafe376-b9bc-4522-87a4-83d6ad5af617","system_id":"levelo_inurba_marseille","lat":43.27067,"lon":5.42274,"is_reserved":false,"is_disabled":false,"rental_uris":{"android":"levelo://app?vid=4aafe376-b9bc-4522-87a4-83d6ad5af617","ios":"levelo://app?vid=4aafe376-b9bc-4522-87a4-83d6ad5af617"},"vehicle_type_id":"4","last_reported":1731755234,"current_range_meters":38800,"station_id":"ce4bhk92rcd13ifvqgb0","pricing_plan_id":"cebpf4jnsgd1na2vs0mg"},{"bike_id":"255ab0b7-1756-4ad8-950f-a1edec8d5198","system_id":"levelo_inurba_marseille","lat":43.28462,"lon":5.35885,"is_reserved":false,"is_disabled":false,"rental_uris":{"android":"levelo://app?vid=255ab0b7-1756-4ad8-950f-a1edec8d5198","ios":"levelo://app?vid=255ab0b7-1756-4ad8-950f-a1edec8d5198"},"vehicle_type_id":"4","last_reported":1731755234,"current_range_meters":32000,"station_id":"ce4bhah2rcd13ifvqei0","pricing_plan_id":"cebpf4jnsgd1na2vs0mg"},{"bike_id":"13ecd984-3bbf-449a-b4e0-2d024829111b","system_id":"levelo_inurba_marseille","lat":43.25935,"lon":5.40911,"is_reserved":false,"is_disabled":false,"rental_uris":{"android":"levelo://app?vid=13ecd984-3bbf-449a-b4e0-2d024829111b","ios":"levelo://app?vid=13ecd984-3bbf-449a-b4e0-2d024829111b"},"vehicle_type_id":"4","last_reported":1731755234,"current_range_meters":31200,"station_id":"ce4bhm92rcd13ifvqglg","pricing_plan_id":"cebpf4jnsgd1na2vs0mg"},{"bike_id":"ab6dc4ee-6007-4de0-8391-e0c3a471920a","system_id":"levelo_inurba_marseille","lat":43.29602,"lon":5.37723,"is_reserved":false,"is_disabled":false,"rental_uris":{"android":"levelo://app?vid=ab6dc4ee-6007-4de0-8391-e0c3a471920a","ios":"levelo://app?vid=ab6dc4ee-6007-4de0-8391-e0c3a471920a"},"vehicle_type_id":"4","last_reported":1731755234,"current_range_meters":26800,"station_id":"ce4bgi92rcd13ifvqb90","pricing_plan_id":"cebpf4jnsgd1na2vs0mg"},{"bike_id":"d9d8a7d9-cde4-4fab-ab69-fcee8fe6a6da","system_id":"levelo_inurba_marseille","lat":43.25003,"lon":5.38916,"is_reserved":false,"is_disabled":false,"rental_uris":{"android":"levelo://app?vid=d9d8a7d9-cde4-4fab-ab69-fcee8fe6a6da","ios":"levelo://app?vid=d9d8a7d9-cde4-4fab-ab69-fcee8fe6a6da"},"vehicle_type_id":"4","last_reported":1731755234,"current_range_meters":14000,"station_id":"ce4bhgp2rcd13ifvqfd0","pricing_plan_id":"cebpf4jnsgd1na2vs0mg"},{"bike_id":"2a4d0619-1af9-46f8-8f27-2f5bb3726a6d","system_id":"levelo_inurba_marseille","lat":43.24385,"lon":5.37048,"is_reserved":false,"is_disabled":false,"rental_uris":{"android":"levelo://app?vid=2a4d0619-1af9-46f8-8f27-2f5bb3726a6d","ios":"levelo://app?vid=2a4d0619-1af9-46f8-8f27-2f5bb3726a6d"},"vehicle_type_id":"4","last_reported":1731755234,"current_range_meters":38800,"station_id":"ce4bhhh2rcd13ifvqfk0","pricing_plan_id":"cebpf4jnsgd1na2vs0mg"},{"bike_id":"860f7f0f-99f3-49c9-8f27-d8f644f87c2f","system_id":"levelo_inurba_marseille","lat":43.27371,"lon":5.36263,"is_reserved":false,"is_disabled":false,"rental_uris":{"android":"levelo://app?vid=860f7f0f-99f3-49c9-8f27-d8f644f87c2f","ios":"levelo://app?vid=860f7f0f-99f3-49c9-8f27-d8f644f87c2f"},"vehicle_type_id":"4","last_reported":1731755234,"current_range_meters":38800,"station_id":"ce4bhbh2rcd13ifvqeo0","pricing_plan_id":"cebpf4jnsgd1na2vs0mg"},{"bike_id":"8a987b18-78e5-4520-a29f-64989c0928e0","system_id":"levelo_inurba_marseille","lat":43.27492,"lon":5.42458,"is_reserved":false,"is_disabled":false,"rental_uris":{"android":"levelo://app?vid=8a987b18-78e5-4520-a29f-64989c0928e0","ios":"levelo://app?vid=8a987b18-78e5-4520-a29f-64989c0928e0"},"vehicle_type_id":"4","last_reported":1731755234,"current_range_meters":16000,"station_id":"ce4bhn92rcd13ifvqgrg","pricing_plan_id":"cebpf4jnsgd1na2vs0mg"},{"bike_id":"008e6451-6b99-4b42-bca3-050933e4268d","system_id":"levelo_inurba_marseille","lat":43.28698,"lon":5.37411,"is_reserved":false,"is_disabled":false,"rental_uris":{"android":"levelo://app?vid=008e6451-6b99-4b42-bca3-050933e4268d","ios":"levelo://app?vid=008e6451-6b99-4b42-bca3-050933e4268d"},"vehicle_type_id":"4","last_reported":1731755234,"current_range_meters":38000,"station_id":"ce4bh3p2rcd13ifvqdq0","pricing_plan_id":"cebpf4jnsgd1na2vs0mg"},{"bike_id":"38a37675-38da-4b91-87df-fb891f488796","system_id":"levelo_inurba_marseille","lat":43.25815,"lon":5.39435,"is_reserved":false,"is_disabled":false,"rental_uris":{"android":"levelo://app?vid=38a37675-38da-4b91-87df-fb891f488796","ios":"levelo://app?vid=38a37675-38da-4b91-87df-fb891f488796"},"vehicle_type_id":"4","last_reported":1731755234,"current_range_meters":36800,"station_id":"ce4bhip2rcd13ifvqft0","pricing_plan_id":"cebpf4jnsgd1na2vs0mg"},{"bike_id":"a774f1d5-d3e2-434c-a374-5093a6e1ad5e","system_id":"levelo_inurba_marseille","lat":43.24388,"lon":5.37059,"is_reserved":false,"is_disabled":false,"rental_uris":{"android":"levelo://app?vid=a774f1d5-d3e2-434c-a374-5093a6e1ad5e","ios":"levelo://app?vid=a774f1d5-d3e2-434c-a374-5093a6e1ad5e"},"vehicle_type_id":"4","last_reported":1731755234,"current_range_meters":39200,"station_id":"ce4bhhh2rcd13ifvqfk0","pricing_plan_id":"cebpf4jnsgd1na2vs0mg"},{"bike_id":"3fa11b7a-78bf-4e9d-a792-a5a641043ea7","system_id":"levelo_inurba_marseille","lat":43.26939,"lon":5.40256,"is_reserved":false,"is_disabled":false,"rental_uris":{"android":"levelo://app?vid=3fa11b7a-78bf-4e9d-a792-a5a641043ea7","ios":"levelo://app?vid=3fa11b7a-78bf-4e9d-a792-a5a641043ea7"},"vehicle_type_id":"4","last_reported":1731755234,"current_range_meters":22400,"station_id":"cjm6bp8fraef2m0cb0m0","pricing_plan_id":"cebpf4jnsgd1na2vs0mg"},{"bike_id":"60dfa2fd-02a9-404e-ab04-d5d71ff40670","system_id":"levelo_inurba_marseille","lat":43.337444,"lon":5.374475,"is_reserved":false,"is_disabled":false,"rental_uris":{"android":"levelo://app?vid=60dfa2fd-02a9-404e-ab04-d5d71ff40670","ios":"levelo://app?vid=60dfa2fd-02a9-404e-ab04-d5d71ff40670"},"vehicle_type_id":"4","last_reported":1731755234,"current_range_meters":33200,"station_id":"","pricing_plan_id":"cebpf4jnsgd1na2vs0mg"},{"bike_id":"906347f7-b857-4677-b3f3-7720e8dfadfc","system_id":"levelo_inurba_marseille","lat":43.26926,"lon":5.40261,"is_reserved":false,"is_disabled":false,"rental_uris":{"android":"levelo://app?vid=906347f7-b857-4677-b3f3-7720e8dfadfc","ios":"levelo://app?vid=906347f7-b857-4677-b3f3-7720e8dfadfc"},"vehicle_type_id":"4","last_reported":1731755234,"current_range_meters":39200,"station_id":"cjm6bp8fraef2m0cb0m0","pricing_plan_id":"cebpf4jnsgd1na2vs0mg"},{"bike_id":"6b0ea79e-cb12-4a50-9845-e4686b3cacc8","system_id":"levelo_inurba_marseille","lat":43.295751,"lon":5.399791,"is_reserved":false,"is_disabled":false,"rental_uris":{"android":"levelo://app?vid=6b0ea79e-cb12-4a50-9845-e4686b3cacc8","ios":"levelo://app?vid=6b0ea79e-cb12-4a50-9845-e4686b3cacc8"},"vehicle_type_id":"4","last_reported":1731755234,"current_range_meters":14400,"station_id":"","pricing_plan_id":"cebpf4jnsgd1na2vs0mg"},{"bike_id":"5ced4d53-b012-4352-8e88-3b445d4c7ca8","system_id":"levelo_inurba_marseille","lat":43.26806,"lon":5.40268,"is_reserved":false,"is_disabled":false,"rental_uris":{"android":"levelo://app?vid=5ced4d53-b012-4352-8e88-3b445d4c7ca8","ios":"levelo://app?vid=5ced4d53-b012-4352-8e88-3b445d4c7ca8"},"vehicle_type_id":"4","last_reported":1731755234,"current_range_meters":20800,"station_id":"ce501612rcd8frsf0b60","pricing_plan_id":"cebpf4jnsgd1na2vs0mg"},{"bike_id":"91f5d4da-bdc3-4062-a2de-d025c7b0accb","system_id":"levelo_inurba_marseille","lat":43.3035,"lon":5.41874,"is_reserved":false,"is_disabled":false,"rental_uris":{"android":"levelo://app?vid=91f5d4da-bdc3-4062-a2de-d025c7b0accb","ios":"levelo://app?vid=91f5d4da-bdc3-4062-a2de-d025c7b0accb"},"vehicle_type_id":"4","last_reported":1731755234,"current_range_meters":38800,"station_id":"ce4bhop2rcd13ifvqh7g","pricing_plan_id":"cebpf4jnsgd1na2vs0mg"},{"bike_id":"4a74f469-1d99-48ee-a8ca-9199898c00a4","system_id":"levelo_inurba_marseille","lat":43.23214,"lon":5.35516,"is_reserved":false,"is_disabled":false,"rental_uris":{"android":"levelo://app?vid=4a74f469-1d99-48ee-a8ca-9199898c00a4","ios":"levelo://app?vid=4a74f469-1d99-48ee-a8ca-9199898c00a4"},"vehicle_type_id":"4","last_reported":1731755234,"current_range_meters":9600,"station_id":"ce4bhu92rcd13ifvqi70","pricing_plan_id":"cebpf4jnsgd1na2vs0mg"},{"bike_id":"9379ab22-f100-411d-a967-996a84e39d43","system_id":"levelo_inurba_marseille","lat":43.25498,"lon":5.37649,"is_reserved":false,"is_disabled":false,"rental_uris":{"android":"levelo://app?vid=9379ab22-f100-411d-a967-996a84e39d43","ios":"levelo://app?vid=9379ab22-f100-411d-a967-996a84e39d43"},"vehicle_type_id":"4","last_reported":1731755234,"current_range_meters":30000,"station_id":"ce4bhh12rcd13ifvqff0","pricing_plan_id":"cebpf4jnsgd1na2vs0mg"},{"bike_id":"2d00514c-8fa3-4a54-a5ab-4e2c3c95825a","system_id":"levelo_inurba_marseille","lat":43.25578,"lon":5.3823,"is_reserved":false,"is_disabled":false,"rental_uris":{"android":"levelo://app?vid=2d00514c-8fa3-4a54-a5ab-4e2c3c95825a","ios":"levelo://app?vid=2d00514c-8fa3-4a54-a5ab-4e2c3c95825a"},"vehicle_type_id":"4","last_reported":1731755234,"current_range_meters":4400,"station_id":"ce4bhih2rcd13ifvqfs0","pricing_plan_id":"cebpf4jnsgd1na2vs0mg"},{"bike_id":"cac7e96e-2349-4e76-b2da-d88b44ae0aab","system_id":"levelo_inurba_marseille","lat":43.31493,"lon":5.37314,"is_reserved":false,"is_disabled":false,"rental_uris":{"android":"levelo://app?vid=cac7e96e-2349-4e76-b2da-d88b44ae0aab","ios":"levelo://app?vid=cac7e96e-2349-4e76-b2da-d88b44ae0aab"},"vehicle_type_id":"4","last_reported":1731755234,"current_range_meters":38000,"station_id":"ce4bgt12rcd13ifvqcd0","pricing_plan_id":"cebpf4jnsgd1na2vs0mg"},{"bike_id":"ad97446b-cba2-4020-9eb2-1e9e725bf9d3","system_id":"levelo_inurba_marseille","lat":43.274965,"lon":5.424545,"is_reserved":false,"is_disabled":false,"rental_uris":{"android":"levelo://app?vid=ad97446b-cba2-4020-9eb2-1e9e725bf9d3","ios":"levelo://app?vid=ad97446b-cba2-4020-9eb2-1e9e725bf9d3"},"vehicle_type_id":"4","last_reported":1731755234,"current_range_meters":32000,"station_id":"ce4bhn92rcd13ifvqgrg","pricing_plan_id":"cebpf4jnsgd1na2vs0mg"},{"bike_id":"61affbab-4b1e-4c74-9fab-1311cbd161b5","system_id":"levelo_inurba_marseille","lat":43.29842,"lon":5.36261,"is_reserved":false,"is_disabled":false,"rental_uris":{"android":"levelo://app?vid=61affbab-4b1e-4c74-9fab-1311cbd161b5","ios":"levelo://app?vid=61affbab-4b1e-4c74-9fab-1311cbd161b5"},"vehicle_type_id":"4","last_reported":1731755234,"current_range_meters":40000,"station_id":"ce4bgpp2rcd13ifvqc3g","pricing_plan_id":"cebpf4jnsgd1na2vs0mg"},{"bike_id":"5c621477-d17e-400c-a3df-65ef434fee09","system_id":"levelo_inurba_marseille","lat":43.28497,"lon":5.35932,"is_reserved":false,"is_disabled":false,"rental_uris":{"android":"levelo://app?vid=5c621477-d17e-400c-a3df-65ef434fee09","ios":"levelo://app?vid=5c621477-d17e-400c-a3df-65ef434fee09"},"vehicle_type_id":"4","last_reported":1731755234,"current_range_meters":6400,"station_id":"ce4bhah2rcd13ifvqei0","pricing_plan_id":"cebpf4jnsgd1na2vs0mg"},{"bike_id":"94070473-8486-4d58-b0a4-a7c2176fd642","system_id":"levelo_inurba_marseille","lat":43.29293,"lon":5.37456,"is_reserved":false,"is_disabled":false,"rental_uris":{"android":"levelo://app?vid=94070473-8486-4d58-b0a4-a7c2176fd642","ios":"levelo://app?vid=94070473-8486-4d58-b0a4-a7c2176fd642"},"vehicle_type_id":"4","last_reported":1731755234,"current_range_meters":37600,"station_id":"ce4bgi12rcd13ifvqb70","pricing_plan_id":"cebpf4jnsgd1na2vs0mg"},{"bike_id":"f8661d75-a9d6-4f3e-930f-79b6d9eb8ecc","system_id":"levelo_inurba_marseille","lat":43.29581,"lon":5.36748,"is_reserved":false,"is_disabled":false,"rental_uris":{"android":"levelo://app?vid=f8661d75-a9d6-4f3e-930f-79b6d9eb8ecc","ios":"levelo://app?vid=f8661d75-a9d6-4f3e-930f-79b6d9eb8ecc"},"vehicle_type_id":"4","last_reported":1731755234,"current_range_meters":22400,"station_id":"ce4bgph2rcd13ifvqc2g","pricing_plan_id":"cebpf4jnsgd1na2vs0mg"},{"bike_id":"61dc5a72-902e-4195-9647-849b2eaa5d03","system_id":"levelo_inurba_marseille","lat":43.24668,"lon":5.38159,"is_reserved":false,"is_disabled":false,"rental_uris":{"android":"levelo://app?vid=61dc5a72-902e-4195-9647-849b2eaa5d03","ios":"levelo://app?vid=61dc5a72-902e-4195-9647-849b2eaa5d03"},"vehicle_type_id":"4","last_reported":1731755234,"current_range_meters":38000,"station_id":"ce4bhih2rcd13ifvqfr0","pricing_plan_id":"cebpf4jnsgd1na2vs0mg"},{"bike_id":"638bf84a-c8e0-4058-9eb2-fcaf15e25675","system_id":"levelo_inurba_marseille","lat":43.30543,"lon":5.36539,"is_reserved":false,"is_disabled":false,"rental_uris":{"android":"levelo://app?vid=638bf84a-c8e0-4058-9eb2-fcaf15e25675","ios":"levelo://app?vid=638bf84a-c8e0-4058-9eb2-fcaf15e25675"},"vehicle_type_id":"4","last_reported":1731755234,"current_range_meters":27600,"station_id":"ce4bgs12rcd13ifvqcag","pricing_plan_id":"cebpf4jnsgd1na2vs0mg"},{"bike_id":"0a7a6ac0-8f66-4145-b5c3-868e746d812c","system_id":"levelo_inurba_marseille","lat":43.27495,"lon":5.42453,"is_reserved":false,"is_disabled":false,"rental_uris":{"android":"levelo://app?vid=0a7a6ac0-8f66-4145-b5c3-868e746d812c","ios":"levelo://app?vid=0a7a6ac0-8f66-4145-b5c3-868e746d812c"},"vehicle_type_id":"4","last_reported":1731755234,"current_range_meters":9200,"station_id":"ce4bhn92rcd13ifvqgrg","pricing_plan_id":"cebpf4jnsgd1na2vs0mg"},{"bike_id":"e1020878-a795-4adb-a507-e3ae12d62a0a","system_id":"levelo_inurba_marseille","lat":43.27166,"lon":5.40989,"is_reserved":false,"is_disabled":false,"rental_uris":{"android":"levelo://app?vid=e1020878-a795-4adb-a507-e3ae12d62a0a","ios":"levelo://app?vid=e1020878-a795-4adb-a507-e3ae12d62a0a"},"vehicle_type_id":"4","last_reported":1731755234,"current_range_meters":38000,"station_id":"ce4bhl12rcd13ifvqgf0","pricing_plan_id":"cebpf4jnsgd1na2vs0mg"},{"bike_id":"b5825e57-3464-4a22-8cf7-a34310074398","system_id":"levelo_inurba_marseille","lat":43.29583,"lon":5.3674,"is_reserved":false,"is_disabled":false,"rental_uris":{"android":"levelo://app?vid=b5825e57-3464-4a22-8cf7-a34310074398","ios":"levelo://app?vid=b5825e57-3464-4a22-8cf7-a34310074398"},"vehicle_type_id":"4","last_reported":1731755234,"current_range_meters":38800,"station_id":"ce4bgph2rcd13ifvqc2g","pricing_plan_id":"cebpf4jnsgd1na2vs0mg"},{"bike_id":"6875c373-3a3e-464e-8826-15cf173d3295","system_id":"levelo_inurba_marseille","lat":43.24165,"lon":5.36411,"is_reserved":false,"is_disabled":false,"rental_uris":{"android":"levelo://app?vid=6875c373-3a3e-464e-8826-15cf173d3295","ios":"levelo://app?vid=6875c373-3a3e-464e-8826-15cf173d3295"},"vehicle_type_id":"4","last_reported":1731755234,"current_range_meters":37600,"station_id":"cpo36qri1sfpv3e86is0","pricing_plan_id":"cebpf4jnsgd1na2vs0mg"},{"bike_id":"2ef6ddbd-24ff-45f1-8be5-43d9dcbe2f31","system_id":"levelo_inurba_marseille","lat":43.29573,"lon":5.39973,"is_reserved":false,"is_disabled":false,"rental_uris":{"android":"levelo://app?vid=2ef6ddbd-24ff-45f1-8be5-43d9dcbe2f31","ios":"levelo://app?vid=2ef6ddbd-24ff-45f1-8be5-43d9dcbe2f31"},"vehicle_type_id":"4","last_reported":1731755234,"current_range_meters":28000,"station_id":"ce4bh312rcd13ifvqdj0","pricing_plan_id":"cebpf4jnsgd1na2vs0mg"},{"bike_id":"f1be1b21-bb29-4fee-996b-7e208af1ea1c","system_id":"levelo_inurba_marseille","lat":43.32339,"lon":5.40616,"is_reserved":false,"is_disabled":false,"rental_uris":{"android":"levelo://app?vid=f1be1b21-bb29-4fee-996b-7e208af1ea1c","ios":"levelo://app?vid=f1be1b21-bb29-4fee-996b-7e208af1ea1c"},"vehicle_type_id":"4","last_reported":1731755234,"current_range_meters":7200,"station_id":"ce4bhq92rcd13ifvqhjg","pricing_plan_id":"cebpf4jnsgd1na2vs0mg"},{"bike_id":"d315d5ce-dec9-4141-968e-bc3a7bb885c0","system_id":"levelo_inurba_marseille","lat":43.29573,"lon":5.37497,"is_reserved":false,"is_disabled":false,"rental_uris":{"android":"levelo://app?vid=d315d5ce-dec9-4141-968e-bc3a7bb885c0","ios":"levelo://app?vid=d315d5ce-dec9-4141-968e-bc3a7bb885c0"},"vehicle_type_id":"4","last_reported":1731755234,"current_range_meters":38800,"station_id":"ce4bgh92rcd13ifvqb50","pricing_plan_id":"cebpf4jnsgd1na2vs0mg"},{"bike_id":"b4a11eee-4cdb-41b7-803e-439054ccaa2e","system_id":"levelo_inurba_marseille","lat":43.24663,"lon":5.381447,"is_reserved":false,"is_disabled":false,"rental_uris":{"android":"levelo://app?vid=b4a11eee-4cdb-41b7-803e-439054ccaa2e","ios":"levelo://app?vid=b4a11eee-4cdb-41b7-803e-439054ccaa2e"},"vehicle_type_id":"4","last_reported":1731755234,"current_range_meters":20800,"station_id":"ce4bhih2rcd13ifvqfr0","pricing_plan_id":"cebpf4jnsgd1na2vs0mg"},{"bike_id":"54837950-c928-4ffe-9ad1-246c52859268","system_id":"levelo_inurba_marseille","lat":43.25579,"lon":5.38238,"is_reserved":false,"is_disabled":false,"rental_uris":{"android":"levelo://app?vid=54837950-c928-4ffe-9ad1-246c52859268","ios":"levelo://app?vid=54837950-c928-4ffe-9ad1-246c52859268"},"vehicle_type_id":"4","last_reported":1731755234,"current_range_meters":27600,"station_id":"ce4bhih2rcd13ifvqfs0","pricing_plan_id":"cebpf4jnsgd1na2vs0mg"},{"bike_id":"44f698ef-2727-4605-a43f-68368607952b","system_id":"levelo_inurba_marseille","lat":43.295772,"lon":5.375138,"is_reserved":false,"is_disabled":false,"rental_uris":{"android":"levelo://app?vid=44f698ef-2727-4605-a43f-68368607952b","ios":"levelo://app?vid=44f698ef-2727-4605-a43f-68368607952b"},"vehicle_type_id":"4","last_reported":1731755234,"current_range_meters":38800,"station_id":"ce4bgh92rcd13ifvqb50","pricing_plan_id":"cebpf4jnsgd1na2vs0mg"},{"bike_id":"abd3bbaf-79f7-4579-9191-c7baa3b8349b","system_id":"levelo_inurba_marseille","lat":43.2749,"lon":5.42453,"is_reserved":false,"is_disabled":false,"rental_uris":{"android":"levelo://app?vid=abd3bbaf-79f7-4579-9191-c7baa3b8349b","ios":"levelo://app?vid=abd3bbaf-79f7-4579-9191-c7baa3b8349b"},"vehicle_type_id":"4","last_reported":1731755234,"current_range_meters":7200,"station_id":"ce4bhn92rcd13ifvqgrg","pricing_plan_id":"cebpf4jnsgd1na2vs0mg"},{"bike_id":"3b2f9214-f4a1-4af0-8ea4-725389312500","system_id":"levelo_inurba_marseille","lat":43.337444,"lon":5.374475,"is_reserved":false,"is_disabled":false,"rental_uris":{"android":"levelo://app?vid=3b2f9214-f4a1-4af0-8ea4-725389312500","ios":"levelo://app?vid=3b2f9214-f4a1-4af0-8ea4-725389312500"},"vehicle_type_id":"4","last_reported":1731755234,"current_range_meters":38000,"station_id":"","pricing_plan_id":"cebpf4jnsgd1na2vs0mg"},{"bike_id":"dc4c7564-da20-41d0-9e46-cb4cb338a9b7","system_id":"levelo_inurba_marseille","lat":43.29972,"lon":5.38491,"is_reserved":false,"is_disabled":false,"rental_uris":{"android":"levelo://app?vid=dc4c7564-da20-41d0-9e46-cb4cb338a9b7","ios":"levelo://app?vid=dc4c7564-da20-41d0-9e46-cb4cb338a9b7"},"vehicle_type_id":"4","last_reported":1731755234,"current_range_meters":38000,"station_id":"ce4bgj92rcd13ifvqbd0","pricing_plan_id":"cebpf4jnsgd1na2vs0mg"},{"bike_id":"4cbd7226-43bc-4a1c-b31a-f299d9bf5ede","system_id":"levelo_inurba_marseille","lat":43.25504,"lon":5.37654,"is_reserved":false,"is_disabled":false,"rental_uris":{"android":"levelo://app?vid=4cbd7226-43bc-4a1c-b31a-f299d9bf5ede","ios":"levelo://app?vid=4cbd7226-43bc-4a1c-b31a-f299d9bf5ede"},"vehicle_type_id":"4","last_reported":1731755234,"current_range_meters":39200,"station_id":"ce4bhh12rcd13ifvqff0","pricing_plan_id":"cebpf4jnsgd1na2vs0mg"},{"bike_id":"76ada99b-13e5-4bb8-a67a-8c73c57f3f01","system_id":"levelo_inurba_marseille","lat":43.32054,"lon":5.41563,"is_reserved":false,"is_disabled":false,"rental_uris":{"android":"levelo://app?vid=76ada99b-13e5-4bb8-a67a-8c73c57f3f01","ios":"levelo://app?vid=76ada99b-13e5-4bb8-a67a-8c73c57f3f01"},"vehicle_type_id":"4","last_reported":1731755234,"current_range_meters":38800,"station_id":"ce4bhq92rcd13ifvqhkg","pricing_plan_id":"cebpf4jnsgd1na2vs0mg"},{"bike_id":"638ee7c2-fe87-45ad-9d30-192c05a964ea","system_id":"levelo_inurba_marseille","lat":43.26938,"lon":5.40257,"is_reserved":false,"is_disabled":false,"rental_uris":{"android":"levelo://app?vid=638ee7c2-fe87-45ad-9d30-192c05a964ea","ios":"levelo://app?vid=638ee7c2-fe87-45ad-9d30-192c05a964ea"},"vehicle_type_id":"4","last_reported":1731755234,"current_range_meters":30000,"station_id":"cjm6bp8fraef2m0cb0m0","pricing_plan_id":"cebpf4jnsgd1na2vs0mg"},{"bike_id":"f582f5b9-3aa7-46dd-af45-9af1734cd7d4","system_id":"levelo_inurba_marseille","lat":43.3015,"lon":5.38078,"is_reserved":false,"is_disabled":false,"rental_uris":{"android":"levelo://app?vid=f582f5b9-3aa7-46dd-af45-9af1734cd7d4","ios":"levelo://app?vid=f582f5b9-3aa7-46dd-af45-9af1734cd7d4"},"vehicle_type_id":"4","last_reported":1731755234,"current_range_meters":18800,"station_id":"ce4bgjp2rcd13ifvqbh0","pricing_plan_id":"cebpf4jnsgd1na2vs0mg"},{"bike_id":"9abd54d1-7da6-4ec2-90f9-8a3e190b5e37","system_id":"levelo_inurba_marseille","lat":43.25818,"lon":5.39424,"is_reserved":false,"is_disabled":false,"rental_uris":{"android":"levelo://app?vid=9abd54d1-7da6-4ec2-90f9-8a3e190b5e37","ios":"levelo://app?vid=9abd54d1-7da6-4ec2-90f9-8a3e190b5e37"},"vehicle_type_id":"4","last_reported":1731755234,"current_range_meters":21600,"station_id":"ce4bhip2rcd13ifvqft0","pricing_plan_id":"cebpf4jnsgd1na2vs0mg"},{"bike_id":"82588854-e185-482e-a51c-801099d30d24","system_id":"levelo_inurba_marseille","lat":43.24672,"lon":5.38157,"is_reserved":false,"is_disabled":false,"rental_uris":{"android":"levelo://app?vid=82588854-e185-482e-a51c-801099d30d24","ios":"levelo://app?vid=82588854-e185-482e-a51c-801099d30d24"},"vehicle_type_id":"4","last_reported":1731755234,"current_range_meters":10000,"station_id":"ce4bhih2rcd13ifvqfr0","pricing_plan_id":"cebpf4jnsgd1na2vs0mg"},{"bike_id":"6db5fb81-81c8-4f92-a86b-008795fc3ffa","system_id":"levelo_inurba_marseille","lat":43.32336,"lon":5.40617,"is_reserved":false,"is_disabled":false,"rental_uris":{"android":"levelo://app?vid=6db5fb81-81c8-4f92-a86b-008795fc3ffa","ios":"levelo://app?vid=6db5fb81-81c8-4f92-a86b-008795fc3ffa"},"vehicle_type_id":"4","last_reported":1731755234,"current_range_meters":2000,"station_id":"ce4bhq92rcd13ifvqhjg","pricing_plan_id":"cebpf4jnsgd1na2vs0mg"},{"bike_id":"ba1c26a8-57eb-466e-81df-e976621621bc","system_id":"levelo_inurba_marseille","lat":43.3302,"lon":5.3903,"is_reserved":false,"is_disabled":false,"rental_uris":{"android":"levelo://app?vid=ba1c26a8-57eb-466e-81df-e976621621bc","ios":"levelo://app?vid=ba1c26a8-57eb-466e-81df-e976621621bc"},"vehicle_type_id":"4","last_reported":1731755234,"current_range_meters":17600,"station_id":"ce4bhr92rcd13ifvqhrg","pricing_plan_id":"cebpf4jnsgd1na2vs0mg"},{"bike_id":"20e9a85a-080a-4c58-84a1-bfdafb66d1ef","system_id":"levelo_inurba_marseille","lat":43.31367,"lon":5.38495,"is_reserved":false,"is_disabled":false,"rental_uris":{"android":"levelo://app?vid=20e9a85a-080a-4c58-84a1-bfdafb66d1ef","ios":"levelo://app?vid=20e9a85a-080a-4c58-84a1-bfdafb66d1ef"},"vehicle_type_id":"4","last_reported":1731755234,"current_range_meters":28800,"station_id":"ce4bgt92rcd13ifvqcf0","pricing_plan_id":"cebpf4jnsgd1na2vs0mg"},{"bike_id":"ed3a53e2-0eb8-4235-92cd-3c94f54b8d64","system_id":"levelo_inurba_marseille","lat":43.30547,"lon":5.36539,"is_reserved":false,"is_disabled":false,"rental_uris":{"android":"levelo://app?vid=ed3a53e2-0eb8-4235-92cd-3c94f54b8d64","ios":"levelo://app?vid=ed3a53e2-0eb8-4235-92cd-3c94f54b8d64"},"vehicle_type_id":"4","last_reported":1731755234,"current_range_meters":18000,"station_id":"ce4bgs12rcd13ifvqcag","pricing_plan_id":"cebpf4jnsgd1na2vs0mg"},{"bike_id":"9d10002f-3a17-4313-b951-9d8dfe610eea","system_id":"levelo_inurba_marseille","lat":43.24664,"lon":5.38169,"is_reserved":false,"is_disabled":false,"rental_uris":{"android":"levelo://app?vid=9d10002f-3a17-4313-b951-9d8dfe610eea","ios":"levelo://app?vid=9d10002f-3a17-4313-b951-9d8dfe610eea"},"vehicle_type_id":"4","last_reported":1731755234,"current_range_meters":18000,"station_id":"ce4bhih2rcd13ifvqfr0","pricing_plan_id":"cebpf4jnsgd1na2vs0mg"},{"bike_id":"b02cad58-3de4-410a-a29d-78e174a9d94a","system_id":"levelo_inurba_marseille","lat":43.23193,"lon":5.35548,"is_reserved":false,"is_disabled":false,"rental_uris":{"android":"levelo://app?vid=b02cad58-3de4-410a-a29d-78e174a9d94a","ios":"levelo://app?vid=b02cad58-3de4-410a-a29d-78e174a9d94a"},"vehicle_type_id":"4","last_reported":1731755234,"current_range_meters":38000,"station_id":"ce4bhu92rcd13ifvqi70","pricing_plan_id":"cebpf4jnsgd1na2vs0mg"},{"bike_id":"b1e9315d-1ede-4b03-8878-860c8ae41280","system_id":"levelo_inurba_marseille","lat":43.2987,"lon":5.39726,"is_reserved":false,"is_disabled":false,"rental_uris":{"android":"levelo://app?vid=b1e9315d-1ede-4b03-8878-860c8ae41280","ios":"levelo://app?vid=b1e9315d-1ede-4b03-8878-860c8ae41280"},"vehicle_type_id":"4","last_reported":1731755234,"current_range_meters":33600,"station_id":"ce4bh0h2rcd13ifvqd50","pricing_plan_id":"cebpf4jnsgd1na2vs0mg"},{"bike_id":"980c2b64-5ae6-4e8e-ac4f-88eb697394b6","system_id":"levelo_inurba_marseille","lat":43.25924,"lon":5.40912,"is_reserved":false,"is_disabled":false,"rental_uris":{"android":"levelo://app?vid=980c2b64-5ae6-4e8e-ac4f-88eb697394b6","ios":"levelo://app?vid=980c2b64-5ae6-4e8e-ac4f-88eb697394b6"},"vehicle_type_id":"4","last_reported":1731755234,"current_range_meters":19600,"station_id":"ce4bhm92rcd13ifvqglg","pricing_plan_id":"cebpf4jnsgd1na2vs0mg"},{"bike_id":"e1501de1-4181-416d-8c53-6efce29ebe9e","system_id":"levelo_inurba_marseille","lat":43.25496,"lon":5.37648,"is_reserved":false,"is_disabled":false,"rental_uris":{"android":"levelo://app?vid=e1501de1-4181-416d-8c53-6efce29ebe9e","ios":"levelo://app?vid=e1501de1-4181-416d-8c53-6efce29ebe9e"},"vehicle_type_id":"4","last_reported":1731755234,"current_range_meters":30000,"station_id":"ce4bhh12rcd13ifvqff0","pricing_plan_id":"cebpf4jnsgd1na2vs0mg"},{"bike_id":"795e9ab1-1e07-425d-be3d-823466f4b6fd","system_id":"levelo_inurba_marseille","lat":43.29184,"lon":5.35784,"is_reserved":false,"is_disabled":false,"rental_uris":{"android":"levelo://app?vid=795e9ab1-1e07-425d-be3d-823466f4b6fd","ios":"levelo://app?vid=795e9ab1-1e07-425d-be3d-823466f4b6fd"},"vehicle_type_id":"4","last_reported":1731755234,"current_range_meters":32000,"station_id":"","pricing_plan_id":"cebpf4jnsgd1na2vs0mg"},{"bike_id":"f82da10c-cf42-4d1e-8b05-fcaa6def071f","system_id":"levelo_inurba_marseille","lat":43.29622,"lon":5.37153,"is_reserved":false,"is_disabled":false,"rental_uris":{"android":"levelo://app?vid=f82da10c-cf42-4d1e-8b05-fcaa6def071f","ios":"levelo://app?vid=f82da10c-cf42-4d1e-8b05-fcaa6def071f"},"vehicle_type_id":"4","last_reported":1731755234,"current_range_meters":35600,"station_id":"ce4bgnh2rcd13ifvqc0g","pricing_plan_id":"cebpf4jnsgd1na2vs0mg"},{"bike_id":"7da8785d-8ceb-437a-9d70-92acc0f4f423","system_id":"levelo_inurba_marseille","lat":43.25575,"lon":5.38229,"is_reserved":false,"is_disabled":false,"rental_uris":{"android":"levelo://app?vid=7da8785d-8ceb-437a-9d70-92acc0f4f423","ios":"levelo://app?vid=7da8785d-8ceb-437a-9d70-92acc0f4f423"},"vehicle_type_id":"4","last_reported":1731755234,"current_range_meters":33600,"station_id":"ce4bhih2rcd13ifvqfs0","pricing_plan_id":"cebpf4jnsgd1na2vs0mg"},{"bike_id":"c7ad3112-6fa1-480b-b6f6-f0b1dce495ed","system_id":"levelo_inurba_marseille","lat":43.27381,"lon":5.3625,"is_reserved":false,"is_disabled":false,"rental_uris":{"android":"levelo://app?vid=c7ad3112-6fa1-480b-b6f6-f0b1dce495ed","ios":"levelo://app?vid=c7ad3112-6fa1-480b-b6f6-f0b1dce495ed"},"vehicle_type_id":"4","last_reported":1731755234,"current_range_meters":36800,"station_id":"ce4bhbh2rcd13ifvqeo0","pricing_plan_id":"cebpf4jnsgd1na2vs0mg"},{"bike_id":"513299be-3428-42d7-8595-c6d3c08bf5c3","system_id":"levelo_inurba_marseille","lat":43.31121,"lon":5.37803,"is_reserved":false,"is_disabled":false,"rental_uris":{"android":"levelo://app?vid=513299be-3428-42d7-8595-c6d3c08bf5c3","ios":"levelo://app?vid=513299be-3428-42d7-8595-c6d3c08bf5c3"},"vehicle_type_id":"4","last_reported":1731755234,"current_range_meters":8800,"station_id":"ce4bgt92rcd13ifvqcg0","pricing_plan_id":"cebpf4jnsgd1na2vs0mg"},{"bike_id":"40adb0e7-dee4-4d26-ad15-bc11679ec6c0","system_id":"levelo_inurba_marseille","lat":43.31705,"lon":5.37756,"is_reserved":false,"is_disabled":false,"rental_uris":{"android":"levelo://app?vid=40adb0e7-dee4-4d26-ad15-bc11679ec6c0","ios":"levelo://app?vid=40adb0e7-dee4-4d26-ad15-bc11679ec6c0"},"vehicle_type_id":"4","last_reported":1731755234,"current_range_meters":38400,"station_id":"ce4bgth2rcd13ifvqch0","pricing_plan_id":"cebpf4jnsgd1na2vs0mg"},{"bike_id":"decfdfa3-3c86-4a53-8dff-a825db127ec6","system_id":"levelo_inurba_marseille","lat":43.29107,"lon":5.41741,"is_reserved":false,"is_disabled":false,"rental_uris":{"android":"levelo://app?vid=decfdfa3-3c86-4a53-8dff-a825db127ec6","ios":"levelo://app?vid=decfdfa3-3c86-4a53-8dff-a825db127ec6"},"vehicle_type_id":"4","last_reported":1731755234,"current_range_meters":30000,"station_id":"","pricing_plan_id":"cebpf4jnsgd1na2vs0mg"},{"bike_id":"46632805-d598-46ca-8978-4f5e71b702c6","system_id":"levelo_inurba_marseille","lat":43.28147,"lon":5.42635,"is_reserved":false,"is_disabled":false,"rental_uris":{"android":"levelo://app?vid=46632805-d598-46ca-8978-4f5e71b702c6","ios":"levelo://app?vid=46632805-d598-46ca-8978-4f5e71b702c6"},"vehicle_type_id":"4","last_reported":1731755234,"current_range_meters":38000,"station_id":"ce4bhnh2rcd13ifvqgug","pricing_plan_id":"cebpf4jnsgd1na2vs0mg"},{"bike_id":"d3bca696-d838-4705-9697-eafab95bafbf","system_id":"levelo_inurba_marseille","lat":43.30141,"lon":5.38055,"is_reserved":false,"is_disabled":false,"rental_uris":{"android":"levelo://app?vid=d3bca696-d838-4705-9697-eafab95bafbf","ios":"levelo://app?vid=d3bca696-d838-4705-9697-eafab95bafbf"},"vehicle_type_id":"4","last_reported":1731755234,"current_range_meters":6800,"station_id":"ce4bgjp2rcd13ifvqbh0","pricing_plan_id":"cebpf4jnsgd1na2vs0mg"},{"bike_id":"d9906bd0-44a4-461f-ad8c-6931dca74a9e","system_id":"levelo_inurba_marseille","lat":43.23191,"lon":5.35551,"is_reserved":false,"is_disabled":false,"rental_uris":{"android":"levelo://app?vid=d9906bd0-44a4-461f-ad8c-6931dca74a9e","ios":"levelo://app?vid=d9906bd0-44a4-461f-ad8c-6931dca74a9e"},"vehicle_type_id":"4","last_reported":1731755234,"current_range_meters":27200,"station_id":"ce4bhu92rcd13ifvqi70","pricing_plan_id":"cebpf4jnsgd1na2vs0mg"},{"bike_id":"811aec99-0ab9-44a4-a760-19620ef9a65c","system_id":"levelo_inurba_marseille","lat":43.30539,"lon":5.36725,"is_reserved":false,"is_disabled":false,"rental_uris":{"android":"levelo://app?vid=811aec99-0ab9-44a4-a760-19620ef9a65c","ios":"levelo://app?vid=811aec99-0ab9-44a4-a760-19620ef9a65c"},"vehicle_type_id":"4","last_reported":1731755234,"current_range_meters":12800,"station_id":"ce4bgrp2rcd13ifvqc9g","pricing_plan_id":"cebpf4jnsgd1na2vs0mg"},{"bike_id":"a7759f52-43d8-4392-a4d7-50c3610b64f4","system_id":"levelo_inurba_marseille","lat":43.32481,"lon":5.36568,"is_reserved":false,"is_disabled":false,"rental_uris":{"android":"levelo://app?vid=a7759f52-43d8-4392-a4d7-50c3610b64f4","ios":"levelo://app?vid=a7759f52-43d8-4392-a4d7-50c3610b64f4"},"vehicle_type_id":"4","last_reported":1731755234,"current_range_meters":38800,"station_id":"ce4bhs12rcd13ifvqhvg","pricing_plan_id":"cebpf4jnsgd1na2vs0mg"},{"bike_id":"2c7da520-bf3f-4579-bbaf-d8bed38515fb","system_id":"levelo_inurba_marseille","lat":43.24647,"lon":5.38897,"is_reserved":false,"is_disabled":false,"rental_uris":{"android":"levelo://app?vid=2c7da520-bf3f-4579-bbaf-d8bed38515fb","ios":"levelo://app?vid=2c7da520-bf3f-4579-bbaf-d8bed38515fb"},"vehicle_type_id":"4","last_reported":1731755234,"current_range_meters":39200,"station_id":"ce4bhg12rcd13ifvqf60","pricing_plan_id":"cebpf4jnsgd1na2vs0mg"},{"bike_id":"f977c5f6-0664-4a1f-98cb-06e11ab740ff","system_id":"levelo_inurba_marseille","lat":43.27493,"lon":5.42456,"is_reserved":false,"is_disabled":false,"rental_uris":{"android":"levelo://app?vid=f977c5f6-0664-4a1f-98cb-06e11ab740ff","ios":"levelo://app?vid=f977c5f6-0664-4a1f-98cb-06e11ab740ff"},"vehicle_type_id":"4","last_reported":1731755234,"current_range_meters":39200,"station_id":"ce4bhn92rcd13ifvqgrg","pricing_plan_id":"cebpf4jnsgd1na2vs0mg"},{"bike_id":"d450545d-116d-4b19-a52c-b8eb7dcdcab9","system_id":"levelo_inurba_marseille","lat":43.25578,"lon":5.38238,"is_reserved":false,"is_disabled":false,"rental_uris":{"android":"levelo://app?vid=d450545d-116d-4b19-a52c-b8eb7dcdcab9","ios":"levelo://app?vid=d450545d-116d-4b19-a52c-b8eb7dcdcab9"},"vehicle_type_id":"4","last_reported":1731755234,"current_range_meters":18000,"station_id":"ce4bhih2rcd13ifvqfs0","pricing_plan_id":"cebpf4jnsgd1na2vs0mg"},{"bike_id":"f12abf05-c53d-4f50-9b6b-de0708c10382","system_id":"levelo_inurba_marseille","lat":43.31702,"lon":5.37775,"is_reserved":false,"is_disabled":false,"rental_uris":{"android":"levelo://app?vid=f12abf05-c53d-4f50-9b6b-de0708c10382","ios":"levelo://app?vid=f12abf05-c53d-4f50-9b6b-de0708c10382"},"vehicle_type_id":"4","last_reported":1731755234,"current_range_meters":38800,"station_id":"ce4bgth2rcd13ifvqch0","pricing_plan_id":"cebpf4jnsgd1na2vs0mg"},{"bike_id":"a65a2419-69e6-4d19-b1e3-3abe61fd327b","system_id":"levelo_inurba_marseille","lat":43.24811,"lon":5.37458,"is_reserved":false,"is_disabled":false,"rental_uris":{"android":"levelo://app?vid=a65a2419-69e6-4d19-b1e3-3abe61fd327b","ios":"levelo://app?vid=a65a2419-69e6-4d19-b1e3-3abe61fd327b"},"vehicle_type_id":"4","last_reported":1731755234,"current_range_meters":36400,"station_id":"ce4bhgh2rcd13ifvqfb0","pricing_plan_id":"cebpf4jnsgd1na2vs0mg"},{"bike_id":"d206d41a-8ea1-48b7-8dea-76f005b54e28","system_id":"levelo_inurba_marseille","lat":43.33764,"lon":5.37435,"is_reserved":false,"is_disabled":false,"rental_uris":{"android":"levelo://app?vid=d206d41a-8ea1-48b7-8dea-76f005b54e28","ios":"levelo://app?vid=d206d41a-8ea1-48b7-8dea-76f005b54e28"},"vehicle_type_id":"4","last_reported":1731755234,"current_range_meters":26800,"station_id":"","pricing_plan_id":"cebpf4jnsgd1na2vs0mg"},{"bike_id":"fa521a7d-1eca-45c6-8ddb-5a598e63dd0d","system_id":"levelo_inurba_marseille","lat":43.32368,"lon":5.38885,"is_reserved":false,"is_disabled":false,"rental_uris":{"android":"levelo://app?vid=fa521a7d-1eca-45c6-8ddb-5a598e63dd0d","ios":"levelo://app?vid=fa521a7d-1eca-45c6-8ddb-5a598e63dd0d"},"vehicle_type_id":"4","last_reported":1731755234,"current_range_meters":18000,"station_id":"ce4bhqp2rcd13ifvqhog","pricing_plan_id":"cebpf4jnsgd1na2vs0mg"},{"bike_id":"de8949ab-9864-46e5-a76c-d8615a2e19b2","system_id":"levelo_inurba_marseille","lat":43.2845,"lon":5.35882,"is_reserved":false,"is_disabled":false,"rental_uris":{"android":"levelo://app?vid=de8949ab-9864-46e5-a76c-d8615a2e19b2","ios":"levelo://app?vid=de8949ab-9864-46e5-a76c-d8615a2e19b2"},"vehicle_type_id":"4","last_reported":1731755235,"current_range_meters":17600,"station_id":"ce4bhah2rcd13ifvqei0","pricing_plan_id":"cebpf4jnsgd1na2vs0mg"},{"bike_id":"644e8384-ba61-49c2-a8b1-bd7a783394c1","system_id":"levelo_inurba_marseille","lat":43.2957,"lon":5.37515,"is_reserved":false,"is_disabled":false,"rental_uris":{"android":"levelo://app?vid=644e8384-ba61-49c2-a8b1-bd7a783394c1","ios":"levelo://app?vid=644e8384-ba61-49c2-a8b1-bd7a783394c1"},"vehicle_type_id":"4","last_reported":1731755235,"current_range_meters":8400,"station_id":"ce4bgh92rcd13ifvqb50","pricing_plan_id":"cebpf4jnsgd1na2vs0mg"},{"bike_id":"be9e569a-3abf-4d04-8a42-5d6c7c19d3c9","system_id":"levelo_inurba_marseille","lat":43.27208,"lon":5.39178,"is_reserved":false,"is_disabled":false,"rental_uris":{"android":"levelo://app?vid=be9e569a-3abf-4d04-8a42-5d6c7c19d3c9","ios":"levelo://app?vid=be9e569a-3abf-4d04-8a42-5d6c7c19d3c9"},"vehicle_type_id":"4","last_reported":1731755235,"current_range_meters":6000,"station_id":"ce4bhhp2rcd13ifvqfm0","pricing_plan_id":"cebpf4jnsgd1na2vs0mg"},{"bike_id":"34e6eed4-64b3-4794-8cdb-d889a6e2a1ce","system_id":"levelo_inurba_marseille","lat":43.29376,"lon":5.37868,"is_reserved":false,"is_disabled":false,"rental_uris":{"android":"levelo://app?vid=34e6eed4-64b3-4794-8cdb-d889a6e2a1ce","ios":"levelo://app?vid=34e6eed4-64b3-4794-8cdb-d889a6e2a1ce"},"vehicle_type_id":"4","last_reported":1731755235,"current_range_meters":34800,"station_id":"ce4bgjh2rcd13ifvqbf0","pricing_plan_id":"cebpf4jnsgd1na2vs0mg"},{"bike_id":"cd0c75ea-099f-4584-87ff-29487fcb4baf","system_id":"levelo_inurba_marseille","lat":43.29501,"lon":5.37516,"is_reserved":false,"is_disabled":false,"rental_uris":{"android":"levelo://app?vid=cd0c75ea-099f-4584-87ff-29487fcb4baf","ios":"levelo://app?vid=cd0c75ea-099f-4584-87ff-29487fcb4baf"},"vehicle_type_id":"4","last_reported":1731755235,"current_range_meters":35600,"station_id":"ce4bgkp2rcd13ifvqbmg","pricing_plan_id":"cebpf4jnsgd1na2vs0mg"},{"bike_id":"790295b7-d5bb-462b-bb8d-95bc5723c815","system_id":"levelo_inurba_marseille","lat":43.24649,"lon":5.38899,"is_reserved":false,"is_disabled":false,"rental_uris":{"android":"levelo://app?vid=790295b7-d5bb-462b-bb8d-95bc5723c815","ios":"levelo://app?vid=790295b7-d5bb-462b-bb8d-95bc5723c815"},"vehicle_type_id":"4","last_reported":1731755235,"current_range_meters":36000,"station_id":"ce4bhg12rcd13ifvqf60","pricing_plan_id":"cebpf4jnsgd1na2vs0mg"},{"bike_id":"e442e41c-d68f-4096-a2cb-aa7e2616dded","system_id":"levelo_inurba_marseille","lat":43.30146,"lon":5.3807,"is_reserved":false,"is_disabled":false,"rental_uris":{"android":"levelo://app?vid=e442e41c-d68f-4096-a2cb-aa7e2616dded","ios":"levelo://app?vid=e442e41c-d68f-4096-a2cb-aa7e2616dded"},"vehicle_type_id":"4","last_reported":1731755235,"current_range_meters":28800,"station_id":"ce4bgjp2rcd13ifvqbh0","pricing_plan_id":"cebpf4jnsgd1na2vs0mg"},{"bike_id":"dd03836f-3f42-4c36-897f-2dc5c95a4923","system_id":"levelo_inurba_marseille","lat":43.27493,"lon":5.42451,"is_reserved":false,"is_disabled":false,"rental_uris":{"android":"levelo://app?vid=dd03836f-3f42-4c36-897f-2dc5c95a4923","ios":"levelo://app?vid=dd03836f-3f42-4c36-897f-2dc5c95a4923"},"vehicle_type_id":"4","last_reported":1731755235,"current_range_meters":34800,"station_id":"ce4bhn92rcd13ifvqgrg","pricing_plan_id":"cebpf4jnsgd1na2vs0mg"},{"bike_id":"7814bce4-d4b3-4816-bdc1-60fd83ae58e2","system_id":"levelo_inurba_marseille","lat":43.27201,"lon":5.39186,"is_reserved":false,"is_disabled":false,"rental_uris":{"android":"levelo://app?vid=7814bce4-d4b3-4816-bdc1-60fd83ae58e2","ios":"levelo://app?vid=7814bce4-d4b3-4816-bdc1-60fd83ae58e2"},"vehicle_type_id":"4","last_reported":1731755235,"current_range_meters":38000,"station_id":"ce4bhhp2rcd13ifvqfm0","pricing_plan_id":"cebpf4jnsgd1na2vs0mg"},{"bike_id":"4c7bcea2-1ceb-4a93-a983-f5a10165d195","system_id":"levelo_inurba_marseille","lat":43.30928,"lon":5.40147,"is_reserved":false,"is_disabled":false,"rental_uris":{"android":"levelo://app?vid=4c7bcea2-1ceb-4a93-a983-f5a10165d195","ios":"levelo://app?vid=4c7bcea2-1ceb-4a93-a983-f5a10165d195"},"vehicle_type_id":"4","last_reported":1731755235,"current_range_meters":26000,"station_id":"ce4bgvp2rcd13ifvqct0","pricing_plan_id":"cebpf4jnsgd1na2vs0mg"},{"bike_id":"6b11cefe-b4d3-4f2d-bf57-086e076e0c6c","system_id":"levelo_inurba_marseille","lat":43.24388,"lon":5.37054,"is_reserved":false,"is_disabled":false,"rental_uris":{"android":"levelo://app?vid=6b11cefe-b4d3-4f2d-bf57-086e076e0c6c","ios":"levelo://app?vid=6b11cefe-b4d3-4f2d-bf57-086e076e0c6c"},"vehicle_type_id":"4","last_reported":1731755235,"current_range_meters":39200,"station_id":"ce4bhhh2rcd13ifvqfk0","pricing_plan_id":"cebpf4jnsgd1na2vs0mg"},{"bike_id":"0a6cddbf-9d14-45e2-b9be-81f884d0890c","system_id":"levelo_inurba_marseille","lat":43.29244,"lon":5.40906,"is_reserved":false,"is_disabled":false,"rental_uris":{"android":"levelo://app?vid=0a6cddbf-9d14-45e2-b9be-81f884d0890c","ios":"levelo://app?vid=0a6cddbf-9d14-45e2-b9be-81f884d0890c"},"vehicle_type_id":"4","last_reported":1731755235,"current_range_meters":16400,"station_id":"ce4bh192rcd13ifvqdc0","pricing_plan_id":"cebpf4jnsgd1na2vs0mg"},{"bike_id":"36431332-30c9-4c92-a4d2-20d5845ab51d","system_id":"levelo_inurba_marseille","lat":43.2749,"lon":5.42463,"is_reserved":false,"is_disabled":false,"rental_uris":{"android":"levelo://app?vid=36431332-30c9-4c92-a4d2-20d5845ab51d","ios":"levelo://app?vid=36431332-30c9-4c92-a4d2-20d5845ab51d"},"vehicle_type_id":"4","last_reported":1731755235,"current_range_meters":25200,"station_id":"ce4bhn92rcd13ifvqgrg","pricing_plan_id":"cebpf4jnsgd1na2vs0mg"},{"bike_id":"133d01c2-e4c9-4e7a-9f08-e8dae50ceb66","system_id":"levelo_inurba_marseille","lat":43.30245,"lon":5.40035,"is_reserved":false,"is_disabled":false,"rental_uris":{"android":"levelo://app?vid=133d01c2-e4c9-4e7a-9f08-e8dae50ceb66","ios":"levelo://app?vid=133d01c2-e4c9-4e7a-9f08-e8dae50ceb66"},"vehicle_type_id":"4","last_reported":1731755235,"current_range_meters":24800,"station_id":"ce4bgvh2rcd13ifvqcs0","pricing_plan_id":"cebpf4jnsgd1na2vs0mg"},{"bike_id":"d7cad7ba-a3cf-4113-8f4d-63bd503bb522","system_id":"levelo_inurba_marseille","lat":43.27613,"lon":5.36106,"is_reserved":false,"is_disabled":false,"rental_uris":{"android":"levelo://app?vid=d7cad7ba-a3cf-4113-8f4d-63bd503bb522","ios":"levelo://app?vid=d7cad7ba-a3cf-4113-8f4d-63bd503bb522"},"vehicle_type_id":"4","last_reported":1731755235,"current_range_meters":19600,"station_id":"ce4bgj92rcd13ifvqbe0","pricing_plan_id":"cebpf4jnsgd1na2vs0mg"},{"bike_id":"2ec9ec7d-4971-4fea-b6d8-2d736333b8a6","system_id":"levelo_inurba_marseille","lat":43.31324,"lon":5.39694,"is_reserved":false,"is_disabled":false,"rental_uris":{"android":"levelo://app?vid=2ec9ec7d-4971-4fea-b6d8-2d736333b8a6","ios":"levelo://app?vid=2ec9ec7d-4971-4fea-b6d8-2d736333b8a6"},"vehicle_type_id":"4","last_reported":1731755235,"current_range_meters":35200,"station_id":"ce4bgvp2rcd13ifvqcu0","pricing_plan_id":"cebpf4jnsgd1na2vs0mg"},{"bike_id":"73335ae6-189b-4a92-8e71-adb9d13328a6","system_id":"levelo_inurba_marseille","lat":43.254913,"lon":5.376468,"is_reserved":false,"is_disabled":false,"rental_uris":{"android":"levelo://app?vid=73335ae6-189b-4a92-8e71-adb9d13328a6","ios":"levelo://app?vid=73335ae6-189b-4a92-8e71-adb9d13328a6"},"vehicle_type_id":"4","last_reported":1731755235,"current_range_meters":35200,"station_id":"ce4bhh12rcd13ifvqff0","pricing_plan_id":"cebpf4jnsgd1na2vs0mg"},{"bike_id":"786c6b68-ec8d-43d2-809c-83c227f2d2a6","system_id":"levelo_inurba_marseille","lat":43.302407,"lon":5.40058,"is_reserved":false,"is_disabled":false,"rental_uris":{"android":"levelo://app?vid=786c6b68-ec8d-43d2-809c-83c227f2d2a6","ios":"levelo://app?vid=786c6b68-ec8d-43d2-809c-83c227f2d2a6"},"vehicle_type_id":"4","last_reported":1731755235,"current_range_meters":40000,"station_id":"ce4bgvh2rcd13ifvqcs0","pricing_plan_id":"cebpf4jnsgd1na2vs0mg"},{"bike_id":"7145b1e6-7f8b-4269-bc7e-cb0f1610afbd","system_id":"levelo_inurba_marseille","lat":43.2807,"lon":5.39665,"is_reserved":false,"is_disabled":false,"rental_uris":{"android":"levelo://app?vid=7145b1e6-7f8b-4269-bc7e-cb0f1610afbd","ios":"levelo://app?vid=7145b1e6-7f8b-4269-bc7e-cb0f1610afbd"},"vehicle_type_id":"4","last_reported":1731755235,"current_range_meters":24000,"station_id":"ce4bho12rcd13ifvqh2g","pricing_plan_id":"cebpf4jnsgd1na2vs0mg"},{"bike_id":"9d256885-f74a-4bdd-9fc1-fad5baf98559","system_id":"levelo_inurba_marseille","lat":43.27491,"lon":5.4246,"is_reserved":false,"is_disabled":false,"rental_uris":{"android":"levelo://app?vid=9d256885-f74a-4bdd-9fc1-fad5baf98559","ios":"levelo://app?vid=9d256885-f74a-4bdd-9fc1-fad5baf98559"},"vehicle_type_id":"4","last_reported":1731755235,"current_range_meters":18800,"station_id":"ce4bhn92rcd13ifvqgrg","pricing_plan_id":"cebpf4jnsgd1na2vs0mg"},{"bike_id":"bbc99efe-785d-47da-a18c-694d708f93af","system_id":"levelo_inurba_marseille","lat":43.30555,"lon":5.36535,"is_reserved":false,"is_disabled":false,"rental_uris":{"android":"levelo://app?vid=bbc99efe-785d-47da-a18c-694d708f93af","ios":"levelo://app?vid=bbc99efe-785d-47da-a18c-694d708f93af"},"vehicle_type_id":"4","last_reported":1731755235,"current_range_meters":11600,"station_id":"ce4bgs12rcd13ifvqcag","pricing_plan_id":"cebpf4jnsgd1na2vs0mg"},{"bike_id":"3f37f7d7-cfd0-46ff-ad64-e239f9c03c2e","system_id":"levelo_inurba_marseille","lat":43.33023,"lon":5.39041,"is_reserved":false,"is_disabled":false,"rental_uris":{"android":"levelo://app?vid=3f37f7d7-cfd0-46ff-ad64-e239f9c03c2e","ios":"levelo://app?vid=3f37f7d7-cfd0-46ff-ad64-e239f9c03c2e"},"vehicle_type_id":"4","last_reported":1731755235,"current_range_meters":38800,"station_id":"ce4bhr92rcd13ifvqhrg","pricing_plan_id":"cebpf4jnsgd1na2vs0mg"},{"bike_id":"ddf44895-d4f6-405c-ad97-35a6d7458a36","system_id":"levelo_inurba_marseille","lat":43.275,"lon":5.42454,"is_reserved":false,"is_disabled":false,"rental_uris":{"android":"levelo://app?vid=ddf44895-d4f6-405c-ad97-35a6d7458a36","ios":"levelo://app?vid=ddf44895-d4f6-405c-ad97-35a6d7458a36"},"vehicle_type_id":"4","last_reported":1731755235,"current_range_meters":22400,"station_id":"ce4bhn92rcd13ifvqgrg","pricing_plan_id":"cebpf4jnsgd1na2vs0mg"},{"bike_id":"92e5ff07-e698-41fa-9c74-a450de32acaa","system_id":"levelo_inurba_marseille","lat":43.3015,"lon":5.38075,"is_reserved":false,"is_disabled":false,"rental_uris":{"android":"levelo://app?vid=92e5ff07-e698-41fa-9c74-a450de32acaa","ios":"levelo://app?vid=92e5ff07-e698-41fa-9c74-a450de32acaa"},"vehicle_type_id":"4","last_reported":1731755235,"current_range_meters":14400,"station_id":"ce4bgjp2rcd13ifvqbh0","pricing_plan_id":"cebpf4jnsgd1na2vs0mg"},{"bike_id":"d6029a07-4312-42af-9590-5c6b5c606e61","system_id":"levelo_inurba_marseille","lat":43.25579,"lon":5.38235,"is_reserved":false,"is_disabled":false,"rental_uris":{"android":"levelo://app?vid=d6029a07-4312-42af-9590-5c6b5c606e61","ios":"levelo://app?vid=d6029a07-4312-42af-9590-5c6b5c606e61"},"vehicle_type_id":"4","last_reported":1731755235,"current_range_meters":38000,"station_id":"ce4bhih2rcd13ifvqfs0","pricing_plan_id":"cebpf4jnsgd1na2vs0mg"},{"bike_id":"351eb419-d411-4017-a3aa-d6931858a388","system_id":"levelo_inurba_marseille","lat":43.29584,"lon":5.36741,"is_reserved":false,"is_disabled":false,"rental_uris":{"android":"levelo://app?vid=351eb419-d411-4017-a3aa-d6931858a388","ios":"levelo://app?vid=351eb419-d411-4017-a3aa-d6931858a388"},"vehicle_type_id":"4","last_reported":1731755235,"current_range_meters":13600,"station_id":"ce4bgph2rcd13ifvqc2g","pricing_plan_id":"cebpf4jnsgd1na2vs0mg"},{"bike_id":"9949a907-566e-4692-93c9-39df699cdc63","system_id":"levelo_inurba_marseille","lat":43.29793,"lon":5.39353,"is_reserved":false,"is_disabled":false,"rental_uris":{"android":"levelo://app?vid=9949a907-566e-4692-93c9-39df699cdc63","ios":"levelo://app?vid=9949a907-566e-4692-93c9-39df699cdc63"},"vehicle_type_id":"4","last_reported":1731755235,"current_range_meters":38400,"station_id":"chh1huq6cuj3fo74tm60","pricing_plan_id":"cebpf4jnsgd1na2vs0mg"},{"bike_id":"c4af11b5-70d4-4dd3-91c5-4ad3e6b48b54","system_id":"levelo_inurba_marseille","lat":43.30264,"lon":5.37694,"is_reserved":false,"is_disabled":false,"rental_uris":{"android":"levelo://app?vid=c4af11b5-70d4-4dd3-91c5-4ad3e6b48b54","ios":"levelo://app?vid=c4af11b5-70d4-4dd3-91c5-4ad3e6b48b54"},"vehicle_type_id":"4","last_reported":1731755235,"current_range_meters":33200,"station_id":"ce4bguh2rcd13ifvqcj0","pricing_plan_id":"cebpf4jnsgd1na2vs0mg"},{"bike_id":"d295d273-78cf-440a-820a-0afdaf9f4a44","system_id":"levelo_inurba_marseille","lat":43.33609,"lon":5.41025,"is_reserved":false,"is_disabled":false,"rental_uris":{"android":"levelo://app?vid=d295d273-78cf-440a-820a-0afdaf9f4a44","ios":"levelo://app?vid=d295d273-78cf-440a-820a-0afdaf9f4a44"},"vehicle_type_id":"4","last_reported":1731755235,"current_range_meters":28000,"station_id":"ce4bhqh2rcd13ifvqhmg","pricing_plan_id":"cebpf4jnsgd1na2vs0mg"},{"bike_id":"aa5dfb06-e3ba-4bb0-9da8-d61124d0b02c","system_id":"levelo_inurba_marseille","lat":43.25492,"lon":5.37655,"is_reserved":false,"is_disabled":false,"rental_uris":{"android":"levelo://app?vid=aa5dfb06-e3ba-4bb0-9da8-d61124d0b02c","ios":"levelo://app?vid=aa5dfb06-e3ba-4bb0-9da8-d61124d0b02c"},"vehicle_type_id":"4","last_reported":1731755235,"current_range_meters":33200,"station_id":"ce4bhh12rcd13ifvqff0","pricing_plan_id":"cebpf4jnsgd1na2vs0mg"},{"bike_id":"76fda271-4bcd-4529-8397-8074a1eff7fe","system_id":"levelo_inurba_marseille","lat":43.3376,"lon":5.37436,"is_reserved":false,"is_disabled":false,"rental_uris":{"android":"levelo://app?vid=76fda271-4bcd-4529-8397-8074a1eff7fe","ios":"levelo://app?vid=76fda271-4bcd-4529-8397-8074a1eff7fe"},"vehicle_type_id":"4","last_reported":1731755235,"current_range_meters":38000,"station_id":"","pricing_plan_id":"cebpf4jnsgd1na2vs0mg"},{"bike_id":"c927ad24-043b-4e17-a180-aa9dea51df62","system_id":"levelo_inurba_marseille","lat":43.25722,"lon":5.41095,"is_reserved":false,"is_disabled":false,"rental_uris":{"android":"levelo://app?vid=c927ad24-043b-4e17-a180-aa9dea51df62","ios":"levelo://app?vid=c927ad24-043b-4e17-a180-aa9dea51df62"},"vehicle_type_id":"4","last_reported":1731755235,"current_range_meters":10000,"station_id":"ce4bhkp2rcd13ifvqgd0","pricing_plan_id":"cebpf4jnsgd1na2vs0mg"},{"bike_id":"7125cda5-6cac-4f0d-b24c-2d801b2955b5","system_id":"levelo_inurba_marseille","lat":43.23186,"lon":5.39982,"is_reserved":false,"is_disabled":false,"rental_uris":{"android":"levelo://app?vid=7125cda5-6cac-4f0d-b24c-2d801b2955b5","ios":"levelo://app?vid=7125cda5-6cac-4f0d-b24c-2d801b2955b5"},"vehicle_type_id":"4","last_reported":1731755235,"current_range_meters":39200,"station_id":"ce4bhn12rcd13ifvqgqg","pricing_plan_id":"cebpf4jnsgd1na2vs0mg"},{"bike_id":"77e98fa8-2403-4754-b6f6-34c4f430fecf","system_id":"levelo_inurba_marseille","lat":43.26209,"lon":5.37443,"is_reserved":false,"is_disabled":false,"rental_uris":{"android":"levelo://app?vid=77e98fa8-2403-4754-b6f6-34c4f430fecf","ios":"levelo://app?vid=77e98fa8-2403-4754-b6f6-34c4f430fecf"},"vehicle_type_id":"4","last_reported":1731755235,"current_range_meters":36000,"station_id":"ce4bhgp2rcd13ifvqfc0","pricing_plan_id":"cebpf4jnsgd1na2vs0mg"},{"bike_id":"1c1d0c67-df50-4184-b2ad-5c67dab81714","system_id":"levelo_inurba_marseille","lat":43.29719,"lon":5.37696,"is_reserved":false,"is_disabled":false,"rental_uris":{"android":"levelo://app?vid=1c1d0c67-df50-4184-b2ad-5c67dab81714","ios":"levelo://app?vid=1c1d0c67-df50-4184-b2ad-5c67dab81714"},"vehicle_type_id":"4","last_reported":1731755235,"current_range_meters":8400,"station_id":"ce4bgkh2rcd13ifvqbl0","pricing_plan_id":"cebpf4jnsgd1na2vs0mg"},{"bike_id":"d54f2dfa-2ad2-469a-8720-163ef98eb87d","system_id":"levelo_inurba_marseille","lat":43.25092,"lon":5.3952,"is_reserved":false,"is_disabled":false,"rental_uris":{"android":"levelo://app?vid=d54f2dfa-2ad2-469a-8720-163ef98eb87d","ios":"levelo://app?vid=d54f2dfa-2ad2-469a-8720-163ef98eb87d"},"vehicle_type_id":"4","last_reported":1731755235,"current_range_meters":24000,"station_id":"ce4bhm12rcd13ifvqgkg","pricing_plan_id":"cebpf4jnsgd1na2vs0mg"},{"bike_id":"755464a4-f6da-4361-8ec0-ce0aac17f0ea","system_id":"levelo_inurba_marseille","lat":43.30542,"lon":5.3653,"is_reserved":false,"is_disabled":false,"rental_uris":{"android":"levelo://app?vid=755464a4-f6da-4361-8ec0-ce0aac17f0ea","ios":"levelo://app?vid=755464a4-f6da-4361-8ec0-ce0aac17f0ea"},"vehicle_type_id":"4","last_reported":1731755235,"current_range_meters":30000,"station_id":"ce4bgs12rcd13ifvqcag","pricing_plan_id":"cebpf4jnsgd1na2vs0mg"},{"bike_id":"1cf6e9bd-b73c-49ce-a1cb-071237526ef4","system_id":"levelo_inurba_marseille","lat":43.29218,"lon":5.36073,"is_reserved":false,"is_disabled":false,"rental_uris":{"android":"levelo://app?vid=1cf6e9bd-b73c-49ce-a1cb-071237526ef4","ios":"levelo://app?vid=1cf6e9bd-b73c-49ce-a1cb-071237526ef4"},"vehicle_type_id":"4","last_reported":1731755235,"current_range_meters":32000,"station_id":"ce4bhbh2rcd13ifvqeqg","pricing_plan_id":"cebpf4jnsgd1na2vs0mg"},{"bike_id":"29a90765-585c-4227-9ddc-31b6ddca1503","system_id":"levelo_inurba_marseille","lat":43.236664,"lon":5.362602,"is_reserved":false,"is_disabled":false,"rental_uris":{"android":"levelo://app?vid=29a90765-585c-4227-9ddc-31b6ddca1503","ios":"levelo://app?vid=29a90765-585c-4227-9ddc-31b6ddca1503"},"vehicle_type_id":"4","last_reported":1731755235,"current_range_meters":37600,"station_id":"ce4bhu92rcd13ifvqi70","pricing_plan_id":"cebpf4jnsgd1na2vs0mg"},{"bike_id":"6d757fef-4f26-43f9-ac2c-ffab39bf7dae","system_id":"levelo_inurba_marseille","lat":43.32249,"lon":5.36901,"is_reserved":false,"is_disabled":false,"rental_uris":{"android":"levelo://app?vid=6d757fef-4f26-43f9-ac2c-ffab39bf7dae","ios":"levelo://app?vid=6d757fef-4f26-43f9-ac2c-ffab39bf7dae"},"vehicle_type_id":"4","last_reported":1731755235,"current_range_meters":20000,"station_id":"","pricing_plan_id":"cebpf4jnsgd1na2vs0mg"},{"bike_id":"6e30566b-c601-47bc-87e9-c49edb691bb7","system_id":"levelo_inurba_marseille","lat":43.29548,"lon":5.42287,"is_reserved":false,"is_disabled":false,"rental_uris":{"android":"levelo://app?vid=6e30566b-c601-47bc-87e9-c49edb691bb7","ios":"levelo://app?vid=6e30566b-c601-47bc-87e9-c49edb691bb7"},"vehicle_type_id":"4","last_reported":1731755235,"current_range_meters":38000,"station_id":"ce4bhph2rcd13ifvqhdg","pricing_plan_id":"cebpf4jnsgd1na2vs0mg"},{"bike_id":"7cc3a9a1-5466-4e0c-ad63-f04d4b6e526b","system_id":"levelo_inurba_marseille","lat":43.25577,"lon":5.38241,"is_reserved":false,"is_disabled":false,"rental_uris":{"android":"levelo://app?vid=7cc3a9a1-5466-4e0c-ad63-f04d4b6e526b","ios":"levelo://app?vid=7cc3a9a1-5466-4e0c-ad63-f04d4b6e526b"},"vehicle_type_id":"4","last_reported":1731755235,"current_range_meters":39200,"station_id":"ce4bhih2rcd13ifvqfs0","pricing_plan_id":"cebpf4jnsgd1na2vs0mg"},{"bike_id":"f1899089-d1e9-41d6-8110-722f73011db8","system_id":"levelo_inurba_marseille","lat":43.29618,"lon":5.37732,"is_reserved":false,"is_disabled":false,"rental_uris":{"android":"levelo://app?vid=f1899089-d1e9-41d6-8110-722f73011db8","ios":"levelo://app?vid=f1899089-d1e9-41d6-8110-722f73011db8"},"vehicle_type_id":"4","last_reported":1731755235,"current_range_meters":28000,"station_id":"ce4bgi92rcd13ifvqb90","pricing_plan_id":"cebpf4jnsgd1na2vs0mg"},{"bike_id":"0600d04a-24d2-4460-8e07-a08f3cec75a2","system_id":"levelo_inurba_marseille","lat":43.27375,"lon":5.36254,"is_reserved":false,"is_disabled":false,"rental_uris":{"android":"levelo://app?vid=0600d04a-24d2-4460-8e07-a08f3cec75a2","ios":"levelo://app?vid=0600d04a-24d2-4460-8e07-a08f3cec75a2"},"vehicle_type_id":"4","last_reported":1731755235,"current_range_meters":6400,"station_id":"ce4bhbh2rcd13ifvqeo0","pricing_plan_id":"cebpf4jnsgd1na2vs0mg"},{"bike_id":"aad4669a-3cee-431b-b28a-1ae7cd9f6df0","system_id":"levelo_inurba_marseille","lat":43.24994,"lon":5.38933,"is_reserved":false,"is_disabled":false,"rental_uris":{"android":"levelo://app?vid=aad4669a-3cee-431b-b28a-1ae7cd9f6df0","ios":"levelo://app?vid=aad4669a-3cee-431b-b28a-1ae7cd9f6df0"},"vehicle_type_id":"4","last_reported":1731755235,"current_range_meters":24800,"station_id":"ce4bhgp2rcd13ifvqfd0","pricing_plan_id":"cebpf4jnsgd1na2vs0mg"},{"bike_id":"3def47d5-da07-4acb-a4a9-5e939a90a81a","system_id":"levelo_inurba_marseille","lat":43.32657,"lon":5.40992,"is_reserved":false,"is_disabled":false,"rental_uris":{"android":"levelo://app?vid=3def47d5-da07-4acb-a4a9-5e939a90a81a","ios":"levelo://app?vid=3def47d5-da07-4acb-a4a9-5e939a90a81a"},"vehicle_type_id":"4","last_reported":1731755235,"current_range_meters":36800,"station_id":"ce4bhpp2rcd13ifvqhgg","pricing_plan_id":"cebpf4jnsgd1na2vs0mg"},{"bike_id":"a5bb31f6-2d80-4f6a-b823-66002c97c0b8","system_id":"levelo_inurba_marseille","lat":43.23152,"lon":5.43704,"is_reserved":false,"is_disabled":false,"rental_uris":{"android":"levelo://app?vid=a5bb31f6-2d80-4f6a-b823-66002c97c0b8","ios":"levelo://app?vid=a5bb31f6-2d80-4f6a-b823-66002c97c0b8"},"vehicle_type_id":"4","last_reported":1731755235,"current_range_meters":19600,"station_id":"ce4bhmp2rcd13ifvqgog","pricing_plan_id":"cebpf4jnsgd1na2vs0mg"},{"bike_id":"f3b75930-ebdf-4229-9a48-882febff1466","system_id":"levelo_inurba_marseille","lat":43.29526,"lon":5.39059,"is_reserved":false,"is_disabled":false,"rental_uris":{"android":"levelo://app?vid=f3b75930-ebdf-4229-9a48-882febff1466","ios":"levelo://app?vid=f3b75930-ebdf-4229-9a48-882febff1466"},"vehicle_type_id":"4","last_reported":1731755235,"current_range_meters":24400,"station_id":"ce4bh3p2rcd13ifvqdp0","pricing_plan_id":"cebpf4jnsgd1na2vs0mg"},{"bike_id":"e6f67e43-e116-40f2-8497-afc02a3d9a3f","system_id":"levelo_inurba_marseille","lat":43.25577,"lon":5.38236,"is_reserved":false,"is_disabled":false,"rental_uris":{"android":"levelo://app?vid=e6f67e43-e116-40f2-8497-afc02a3d9a3f","ios":"levelo://app?vid=e6f67e43-e116-40f2-8497-afc02a3d9a3f"},"vehicle_type_id":"4","last_reported":1731755235,"current_range_meters":29600,"station_id":"ce4bhih2rcd13ifvqfs0","pricing_plan_id":"cebpf4jnsgd1na2vs0mg"},{"bike_id":"89d65532-6780-451d-8295-77c745ae6df4","system_id":"levelo_inurba_marseille","lat":43.24067,"lon":5.3775,"is_reserved":false,"is_disabled":false,"rental_uris":{"android":"levelo://app?vid=89d65532-6780-451d-8295-77c745ae6df4","ios":"levelo://app?vid=89d65532-6780-451d-8295-77c745ae6df4"},"vehicle_type_id":"4","last_reported":1731755235,"current_range_meters":26800,"station_id":"ce4bhnp2rcd13ifvqgvg","pricing_plan_id":"cebpf4jnsgd1na2vs0mg"},{"bike_id":"ab1095ed-5860-414b-9ac7-cafc033cd04c","system_id":"levelo_inurba_marseille","lat":43.291031,"lon":5.380881,"is_reserved":false,"is_disabled":false,"rental_uris":{"android":"levelo://app?vid=ab1095ed-5860-414b-9ac7-cafc033cd04c","ios":"levelo://app?vid=ab1095ed-5860-414b-9ac7-cafc033cd04c"},"vehicle_type_id":"4","last_reported":1731755235,"current_range_meters":38400,"station_id":"ce4bh512rcd13ifvqe2g","pricing_plan_id":"cebpf4jnsgd1na2vs0mg"},{"bike_id":"8f7aacd3-4586-4661-8e01-8c63c46bb897","system_id":"levelo_inurba_marseille","lat":43.29582,"lon":5.36736,"is_reserved":false,"is_disabled":false,"rental_uris":{"android":"levelo://app?vid=8f7aacd3-4586-4661-8e01-8c63c46bb897","ios":"levelo://app?vid=8f7aacd3-4586-4661-8e01-8c63c46bb897"},"vehicle_type_id":"4","last_reported":1731755235,"current_range_meters":37600,"station_id":"ce4bgph2rcd13ifvqc2g","pricing_plan_id":"cebpf4jnsgd1na2vs0mg"},{"bike_id":"9a512b77-9c12-445b-80f3-ad9c6a71c1e1","system_id":"levelo_inurba_marseille","lat":43.29729,"lon":5.37691,"is_reserved":false,"is_disabled":false,"rental_uris":{"android":"levelo://app?vid=9a512b77-9c12-445b-80f3-ad9c6a71c1e1","ios":"levelo://app?vid=9a512b77-9c12-445b-80f3-ad9c6a71c1e1"},"vehicle_type_id":"4","last_reported":1731755235,"current_range_meters":35200,"station_id":"ce4bgkh2rcd13ifvqbl0","pricing_plan_id":"cebpf4jnsgd1na2vs0mg"},{"bike_id":"0c44cbb7-d5ce-467a-9d65-fdb0ac6d14cb","system_id":"levelo_inurba_marseille","lat":43.25931,"lon":5.40897,"is_reserved":false,"is_disabled":false,"rental_uris":{"android":"levelo://app?vid=0c44cbb7-d5ce-467a-9d65-fdb0ac6d14cb","ios":"levelo://app?vid=0c44cbb7-d5ce-467a-9d65-fdb0ac6d14cb"},"vehicle_type_id":"4","last_reported":1731755235,"current_range_meters":12000,"station_id":"ce4bhm92rcd13ifvqglg","pricing_plan_id":"cebpf4jnsgd1na2vs0mg"},{"bike_id":"3b677edf-45f5-444c-b758-f470521529a0","system_id":"levelo_inurba_marseille","lat":43.27492,"lon":5.42453,"is_reserved":false,"is_disabled":false,"rental_uris":{"android":"levelo://app?vid=3b677edf-45f5-444c-b758-f470521529a0","ios":"levelo://app?vid=3b677edf-45f5-444c-b758-f470521529a0"},"vehicle_type_id":"4","last_reported":1731755235,"current_range_meters":31200,"station_id":"ce4bhn92rcd13ifvqgrg","pricing_plan_id":"cebpf4jnsgd1na2vs0mg"},{"bike_id":"a4e8e96c-867e-4521-9861-087b3f6c78bd","system_id":"levelo_inurba_marseille","lat":43.24997,"lon":5.38924,"is_reserved":false,"is_disabled":false,"rental_uris":{"android":"levelo://app?vid=a4e8e96c-867e-4521-9861-087b3f6c78bd","ios":"levelo://app?vid=a4e8e96c-867e-4521-9861-087b3f6c78bd"},"vehicle_type_id":"4","last_reported":1731755235,"current_range_meters":38800,"station_id":"ce4bhgp2rcd13ifvqfd0","pricing_plan_id":"cebpf4jnsgd1na2vs0mg"},{"bike_id":"85c6faf1-caca-4be7-8bdf-3f18846bd5df","system_id":"levelo_inurba_marseille","lat":43.26804,"lon":5.40262,"is_reserved":false,"is_disabled":false,"rental_uris":{"android":"levelo://app?vid=85c6faf1-caca-4be7-8bdf-3f18846bd5df","ios":"levelo://app?vid=85c6faf1-caca-4be7-8bdf-3f18846bd5df"},"vehicle_type_id":"4","last_reported":1731755235,"current_range_meters":38000,"station_id":"ce501612rcd8frsf0b60","pricing_plan_id":"cebpf4jnsgd1na2vs0mg"},{"bike_id":"306a04fd-0d4d-472d-a74a-e7798a5d2578","system_id":"levelo_inurba_marseille","lat":43.2783,"lon":5.39204,"is_reserved":false,"is_disabled":false,"rental_uris":{"android":"levelo://app?vid=306a04fd-0d4d-472d-a74a-e7798a5d2578","ios":"levelo://app?vid=306a04fd-0d4d-472d-a74a-e7798a5d2578"},"vehicle_type_id":"4","last_reported":1731755235,"current_range_meters":2000,"station_id":"ce4bhjp2rcd13ifvqga0","pricing_plan_id":"cebpf4jnsgd1na2vs0mg"},{"bike_id":"5bc9a644-fdb8-4323-b885-2f1d744ff447","system_id":"levelo_inurba_marseille","lat":43.29602,"lon":5.38106,"is_reserved":false,"is_disabled":false,"rental_uris":{"android":"levelo://app?vid=5bc9a644-fdb8-4323-b885-2f1d744ff447","ios":"levelo://app?vid=5bc9a644-fdb8-4323-b885-2f1d744ff447"},"vehicle_type_id":"4","last_reported":1731755235,"current_range_meters":7200,"station_id":"ce4bgl12rcd13ifvqbo0","pricing_plan_id":"cebpf4jnsgd1na2vs0mg"},{"bike_id":"46ff0e60-887a-4fed-8571-c711f6e65e10","system_id":"levelo_inurba_marseille","lat":43.286194,"lon":5.38662,"is_reserved":false,"is_disabled":false,"rental_uris":{"android":"levelo://app?vid=46ff0e60-887a-4fed-8571-c711f6e65e10","ios":"levelo://app?vid=46ff0e60-887a-4fed-8571-c711f6e65e10"},"vehicle_type_id":"4","last_reported":1731755235,"current_range_meters":19200,"station_id":"ce4bh492rcd13ifvqdug","pricing_plan_id":"cebpf4jnsgd1na2vs0mg"},{"bike_id":"54a36784-235f-4bff-a31b-8d83e35c7859","system_id":"levelo_inurba_marseille","lat":43.25578,"lon":5.38234,"is_reserved":false,"is_disabled":false,"rental_uris":{"android":"levelo://app?vid=54a36784-235f-4bff-a31b-8d83e35c7859","ios":"levelo://app?vid=54a36784-235f-4bff-a31b-8d83e35c7859"},"vehicle_type_id":"4","last_reported":1731755235,"current_range_meters":23200,"station_id":"ce4bhih2rcd13ifvqfs0","pricing_plan_id":"cebpf4jnsgd1na2vs0mg"},{"bike_id":"add988a2-bb45-4c2f-8430-8a3e282ea40e","system_id":"levelo_inurba_marseille","lat":43.27205,"lon":5.39185,"is_reserved":false,"is_disabled":false,"rental_uris":{"android":"levelo://app?vid=add988a2-bb45-4c2f-8430-8a3e282ea40e","ios":"levelo://app?vid=add988a2-bb45-4c2f-8430-8a3e282ea40e"},"vehicle_type_id":"4","last_reported":1731755235,"current_range_meters":38800,"station_id":"ce4bhhp2rcd13ifvqfm0","pricing_plan_id":"cebpf4jnsgd1na2vs0mg"},{"bike_id":"d7f79274-e640-43c4-b7dd-f4e3dad6011c","system_id":"levelo_inurba_marseille","lat":43.27991,"lon":5.41658,"is_reserved":false,"is_disabled":false,"rental_uris":{"android":"levelo://app?vid=d7f79274-e640-43c4-b7dd-f4e3dad6011c","ios":"levelo://app?vid=d7f79274-e640-43c4-b7dd-f4e3dad6011c"},"vehicle_type_id":"4","last_reported":1731755235,"current_range_meters":38800,"station_id":"ce4bho12rcd13ifvqh1g","pricing_plan_id":"cebpf4jnsgd1na2vs0mg"},{"bike_id":"4ee7c982-3762-40ca-aef0-5d78a82da887","system_id":"levelo_inurba_marseille","lat":43.28103,"lon":5.37833,"is_reserved":false,"is_disabled":false,"rental_uris":{"android":"levelo://app?vid=4ee7c982-3762-40ca-aef0-5d78a82da887","ios":"levelo://app?vid=4ee7c982-3762-40ca-aef0-5d78a82da887"},"vehicle_type_id":"4","last_reported":1731755235,"current_range_meters":24800,"station_id":"ce4bha12rcd13ifvqee0","pricing_plan_id":"cebpf4jnsgd1na2vs0mg"},{"bike_id":"f095f873-3c25-4d64-9c8a-9d3a77d97165","system_id":"levelo_inurba_marseille","lat":43.24078,"lon":5.37749,"is_reserved":false,"is_disabled":false,"rental_uris":{"android":"levelo://app?vid=f095f873-3c25-4d64-9c8a-9d3a77d97165","ios":"levelo://app?vid=f095f873-3c25-4d64-9c8a-9d3a77d97165"},"vehicle_type_id":"4","last_reported":1731755235,"current_range_meters":25200,"station_id":"ce4bhnp2rcd13ifvqgvg","pricing_plan_id":"cebpf4jnsgd1na2vs0mg"},{"bike_id":"052465b0-873b-4d86-b508-197a5ec55540","system_id":"levelo_inurba_marseille","lat":43.25582,"lon":5.38237,"is_reserved":false,"is_disabled":false,"rental_uris":{"android":"levelo://app?vid=052465b0-873b-4d86-b508-197a5ec55540","ios":"levelo://app?vid=052465b0-873b-4d86-b508-197a5ec55540"},"vehicle_type_id":"4","last_reported":1731755235,"current_range_meters":22800,"station_id":"ce4bhih2rcd13ifvqfs0","pricing_plan_id":"cebpf4jnsgd1na2vs0mg"},{"bike_id":"f8934665-e424-4397-834d-235b779ccae2","system_id":"levelo_inurba_marseille","lat":43.31328,"lon":5.39699,"is_reserved":false,"is_disabled":false,"rental_uris":{"android":"levelo://app?vid=f8934665-e424-4397-834d-235b779ccae2","ios":"levelo://app?vid=f8934665-e424-4397-834d-235b779ccae2"},"vehicle_type_id":"4","last_reported":1731755235,"current_range_meters":26000,"station_id":"ce4bgvp2rcd13ifvqcu0","pricing_plan_id":"cebpf4jnsgd1na2vs0mg"},{"bike_id":"733b8fbc-d1e7-4659-8527-d71807ce14b7","system_id":"levelo_inurba_marseille","lat":43.26945,"lon":5.40253,"is_reserved":false,"is_disabled":false,"rental_uris":{"android":"levelo://app?vid=733b8fbc-d1e7-4659-8527-d71807ce14b7","ios":"levelo://app?vid=733b8fbc-d1e7-4659-8527-d71807ce14b7"},"vehicle_type_id":"4","last_reported":1731755235,"current_range_meters":39200,"station_id":"cjm6bp8fraef2m0cb0m0","pricing_plan_id":"cebpf4jnsgd1na2vs0mg"},{"bike_id":"4abfe652-f40e-49c1-ad77-c16fbfcf27b1","system_id":"levelo_inurba_marseille","lat":43.29869,"lon":5.39736,"is_reserved":false,"is_disabled":false,"rental_uris":{"android":"levelo://app?vid=4abfe652-f40e-49c1-ad77-c16fbfcf27b1","ios":"levelo://app?vid=4abfe652-f40e-49c1-ad77-c16fbfcf27b1"},"vehicle_type_id":"4","last_reported":1731755235,"current_range_meters":34000,"station_id":"ce4bh0h2rcd13ifvqd50","pricing_plan_id":"cebpf4jnsgd1na2vs0mg"},{"bike_id":"0822de53-10f1-4044-b858-548a2a7589b4","system_id":"levelo_inurba_marseille","lat":43.25821,"lon":5.39435,"is_reserved":false,"is_disabled":false,"rental_uris":{"android":"levelo://app?vid=0822de53-10f1-4044-b858-548a2a7589b4","ios":"levelo://app?vid=0822de53-10f1-4044-b858-548a2a7589b4"},"vehicle_type_id":"4","last_reported":1731755235,"current_range_meters":38400,"station_id":"ce4bhip2rcd13ifvqft0","pricing_plan_id":"cebpf4jnsgd1na2vs0mg"},{"bike_id":"a57fb143-973c-47ab-ad9f-272f194992ef","system_id":"levelo_inurba_marseille","lat":43.23153,"lon":5.43706,"is_reserved":false,"is_disabled":false,"rental_uris":{"android":"levelo://app?vid=a57fb143-973c-47ab-ad9f-272f194992ef","ios":"levelo://app?vid=a57fb143-973c-47ab-ad9f-272f194992ef"},"vehicle_type_id":"4","last_reported":1731755235,"current_range_meters":13600,"station_id":"ce4bhmp2rcd13ifvqgog","pricing_plan_id":"cebpf4jnsgd1na2vs0mg"},{"bike_id":"f1147a13-1a09-486c-be3b-5b4d79be5aaf","system_id":"levelo_inurba_marseille","lat":43.29773,"lon":5.37087,"is_reserved":false,"is_disabled":false,"rental_uris":{"android":"levelo://app?vid=f1147a13-1a09-486c-be3b-5b4d79be5aaf","ios":"levelo://app?vid=f1147a13-1a09-486c-be3b-5b4d79be5aaf"},"vehicle_type_id":"4","last_reported":1731755235,"current_range_meters":38800,"station_id":"ce4bgop2rcd13ifvqc1g","pricing_plan_id":"cebpf4jnsgd1na2vs0mg"},{"bike_id":"67b74999-7562-40a9-80d6-0bf76d158375","system_id":"levelo_inurba_marseille","lat":43.25582,"lon":5.38232,"is_reserved":false,"is_disabled":false,"rental_uris":{"android":"levelo://app?vid=67b74999-7562-40a9-80d6-0bf76d158375","ios":"levelo://app?vid=67b74999-7562-40a9-80d6-0bf76d158375"},"vehicle_type_id":"4","last_reported":1731755235,"current_range_meters":29600,"station_id":"ce4bhih2rcd13ifvqfs0","pricing_plan_id":"cebpf4jnsgd1na2vs0mg"},{"bike_id":"fcef6eeb-4dde-4e40-83d9-cfc202782f23","system_id":"levelo_inurba_marseille","lat":43.23968,"lon":5.36632,"is_reserved":false,"is_disabled":false,"rental_uris":{"android":"levelo://app?vid=fcef6eeb-4dde-4e40-83d9-cfc202782f23","ios":"levelo://app?vid=fcef6eeb-4dde-4e40-83d9-cfc202782f23"},"vehicle_type_id":"4","last_reported":1731755235,"current_range_meters":34000,"station_id":"ce4bhi12rcd13ifvqfp0","pricing_plan_id":"cebpf4jnsgd1na2vs0mg"},{"bike_id":"d759b2fa-5e8b-45c2-87d4-986fbbcf6533","system_id":"levelo_inurba_marseille","lat":43.33027,"lon":5.39042,"is_reserved":false,"is_disabled":false,"rental_uris":{"android":"levelo://app?vid=d759b2fa-5e8b-45c2-87d4-986fbbcf6533","ios":"levelo://app?vid=d759b2fa-5e8b-45c2-87d4-986fbbcf6533"},"vehicle_type_id":"4","last_reported":1731755235,"current_range_meters":22400,"station_id":"ce4bhr92rcd13ifvqhrg","pricing_plan_id":"cebpf4jnsgd1na2vs0mg"},{"bike_id":"fbe5701e-11c6-4a72-9f44-4d5166625a74","system_id":"levelo_inurba_marseille","lat":43.299805,"lon":5.371883,"is_reserved":false,"is_disabled":false,"rental_uris":{"android":"levelo://app?vid=fbe5701e-11c6-4a72-9f44-4d5166625a74","ios":"levelo://app?vid=fbe5701e-11c6-4a72-9f44-4d5166625a74"},"vehicle_type_id":"4","last_reported":1731755235,"current_range_meters":24000,"station_id":"ce4bgr92rcd13ifvqc7g","pricing_plan_id":"cebpf4jnsgd1na2vs0mg"},{"bike_id":"45156642-b4c8-42eb-82f7-126129e68141","system_id":"levelo_inurba_marseille","lat":43.25937,"lon":5.40905,"is_reserved":false,"is_disabled":false,"rental_uris":{"android":"levelo://app?vid=45156642-b4c8-42eb-82f7-126129e68141","ios":"levelo://app?vid=45156642-b4c8-42eb-82f7-126129e68141"},"vehicle_type_id":"4","last_reported":1731755235,"current_range_meters":24800,"station_id":"ce4bhm92rcd13ifvqglg","pricing_plan_id":"cebpf4jnsgd1na2vs0mg"},{"bike_id":"e4a5f773-f25f-4e1a-ad91-5d54dd653bfa","system_id":"levelo_inurba_marseille","lat":43.33024,"lon":5.39039,"is_reserved":false,"is_disabled":false,"rental_uris":{"android":"levelo://app?vid=e4a5f773-f25f-4e1a-ad91-5d54dd653bfa","ios":"levelo://app?vid=e4a5f773-f25f-4e1a-ad91-5d54dd653bfa"},"vehicle_type_id":"4","last_reported":1731755235,"current_range_meters":9200,"station_id":"ce4bhr92rcd13ifvqhrg","pricing_plan_id":"cebpf4jnsgd1na2vs0mg"},{"bike_id":"ca655f3b-8380-4045-b3f8-8acaa0e83ede","system_id":"levelo_inurba_marseille","lat":43.33739,"lon":5.37423,"is_reserved":false,"is_disabled":false,"rental_uris":{"android":"levelo://app?vid=ca655f3b-8380-4045-b3f8-8acaa0e83ede","ios":"levelo://app?vid=ca655f3b-8380-4045-b3f8-8acaa0e83ede"},"vehicle_type_id":"4","last_reported":1731755235,"current_range_meters":35200,"station_id":"","pricing_plan_id":"cebpf4jnsgd1na2vs0mg"},{"bike_id":"2e298671-80fc-4060-bd3b-6941ddfa052f","system_id":"levelo_inurba_marseille","lat":43.32475,"lon":5.3656,"is_reserved":false,"is_disabled":false,"rental_uris":{"android":"levelo://app?vid=2e298671-80fc-4060-bd3b-6941ddfa052f","ios":"levelo://app?vid=2e298671-80fc-4060-bd3b-6941ddfa052f"},"vehicle_type_id":"4","last_reported":1731755235,"current_range_meters":39200,"station_id":"ce4bhs12rcd13ifvqhvg","pricing_plan_id":"cebpf4jnsgd1na2vs0mg"},{"bike_id":"a6b8c285-acc9-4039-9531-1aae39136a33","system_id":"levelo_inurba_marseille","lat":43.312042,"lon":5.367348,"is_reserved":false,"is_disabled":false,"rental_uris":{"android":"levelo://app?vid=a6b8c285-acc9-4039-9531-1aae39136a33","ios":"levelo://app?vid=a6b8c285-acc9-4039-9531-1aae39136a33"},"vehicle_type_id":"4","last_reported":1731755235,"current_range_meters":15200,"station_id":"","pricing_plan_id":"cebpf4jnsgd1na2vs0mg"},{"bike_id":"7533f0c2-14f7-425a-b3ed-0abe750ceb15","system_id":"levelo_inurba_marseille","lat":43.25578,"lon":5.3824,"is_reserved":false,"is_disabled":false,"rental_uris":{"android":"levelo://app?vid=7533f0c2-14f7-425a-b3ed-0abe750ceb15","ios":"levelo://app?vid=7533f0c2-14f7-425a-b3ed-0abe750ceb15"},"vehicle_type_id":"4","last_reported":1731755235,"current_range_meters":39200,"station_id":"ce4bhih2rcd13ifvqfs0","pricing_plan_id":"cebpf4jnsgd1na2vs0mg"},{"bike_id":"5c254126-8805-4ed8-9520-9f63561143b3","system_id":"levelo_inurba_marseille","lat":43.24166,"lon":5.364,"is_reserved":false,"is_disabled":false,"rental_uris":{"android":"levelo://app?vid=5c254126-8805-4ed8-9520-9f63561143b3","ios":"levelo://app?vid=5c254126-8805-4ed8-9520-9f63561143b3"},"vehicle_type_id":"4","last_reported":1731755235,"current_range_meters":22000,"station_id":"cpo36qri1sfpv3e86is0","pricing_plan_id":"cebpf4jnsgd1na2vs0mg"},{"bike_id":"60b95f68-09f1-4727-980a-3fd2ba92422a","system_id":"levelo_inurba_marseille","lat":43.29568,"lon":5.37526,"is_reserved":false,"is_disabled":false,"rental_uris":{"android":"levelo://app?vid=60b95f68-09f1-4727-980a-3fd2ba92422a","ios":"levelo://app?vid=60b95f68-09f1-4727-980a-3fd2ba92422a"},"vehicle_type_id":"4","last_reported":1731755235,"current_range_meters":25200,"station_id":"ce4bgh92rcd13ifvqb50","pricing_plan_id":"cebpf4jnsgd1na2vs0mg"},{"bike_id":"95189523-b163-438d-9cb1-f7dc4435500d","system_id":"levelo_inurba_marseille","lat":43.32332,"lon":5.4062,"is_reserved":false,"is_disabled":false,"rental_uris":{"android":"levelo://app?vid=95189523-b163-438d-9cb1-f7dc4435500d","ios":"levelo://app?vid=95189523-b163-438d-9cb1-f7dc4435500d"},"vehicle_type_id":"4","last_reported":1731755235,"current_range_meters":39200,"station_id":"ce4bhq92rcd13ifvqhjg","pricing_plan_id":"cebpf4jnsgd1na2vs0mg"},{"bike_id":"32fb8fcd-9b6e-4d51-81aa-23512ba1ae91","system_id":"levelo_inurba_marseille","lat":43.27185,"lon":5.40989,"is_reserved":false,"is_disabled":false,"rental_uris":{"android":"levelo://app?vid=32fb8fcd-9b6e-4d51-81aa-23512ba1ae91","ios":"levelo://app?vid=32fb8fcd-9b6e-4d51-81aa-23512ba1ae91"},"vehicle_type_id":"4","last_reported":1731755235,"current_range_meters":38000,"station_id":"ce4bhl12rcd13ifvqgf0","pricing_plan_id":"cebpf4jnsgd1na2vs0mg"},{"bike_id":"ec8564dc-49e3-4ebe-b20f-922de91aa258","system_id":"levelo_inurba_marseille","lat":43.26068,"lon":5.394,"is_reserved":false,"is_disabled":false,"rental_uris":{"android":"levelo://app?vid=ec8564dc-49e3-4ebe-b20f-922de91aa258","ios":"levelo://app?vid=ec8564dc-49e3-4ebe-b20f-922de91aa258"},"vehicle_type_id":"4","last_reported":1731755235,"current_range_meters":6400,"station_id":"ce4bhh92rcd13ifvqfj0","pricing_plan_id":"cebpf4jnsgd1na2vs0mg"},{"bike_id":"6ef266d1-92eb-440d-9bcd-6ee947c0d029","system_id":"levelo_inurba_marseille","lat":43.27497,"lon":5.42447,"is_reserved":false,"is_disabled":false,"rental_uris":{"android":"levelo://app?vid=6ef266d1-92eb-440d-9bcd-6ee947c0d029","ios":"levelo://app?vid=6ef266d1-92eb-440d-9bcd-6ee947c0d029"},"vehicle_type_id":"4","last_reported":1731755235,"current_range_meters":39200,"station_id":"ce4bhn92rcd13ifvqgrg","pricing_plan_id":"cebpf4jnsgd1na2vs0mg"},{"bike_id":"2772329b-6f25-4394-9e29-ca8cf99b37eb","system_id":"levelo_inurba_marseille","lat":43.2781,"lon":5.40713,"is_reserved":false,"is_disabled":false,"rental_uris":{"android":"levelo://app?vid=2772329b-6f25-4394-9e29-ca8cf99b37eb","ios":"levelo://app?vid=2772329b-6f25-4394-9e29-ca8cf99b37eb"},"vehicle_type_id":"4","last_reported":1731755235,"current_range_meters":19600,"station_id":"ce4bhnh2rcd13ifvqgtg","pricing_plan_id":"cebpf4jnsgd1na2vs0mg"},{"bike_id":"1ae8fe75-00ad-479b-a755-74d45d76bfbe","system_id":"levelo_inurba_marseille","lat":43.2417,"lon":5.36402,"is_reserved":false,"is_disabled":false,"rental_uris":{"android":"levelo://app?vid=1ae8fe75-00ad-479b-a755-74d45d76bfbe","ios":"levelo://app?vid=1ae8fe75-00ad-479b-a755-74d45d76bfbe"},"vehicle_type_id":"4","last_reported":1731755235,"current_range_meters":6800,"station_id":"cpo36qri1sfpv3e86is0","pricing_plan_id":"cebpf4jnsgd1na2vs0mg"},{"bike_id":"c84b0cb0-3511-4d68-9f1a-8f2e45479831","system_id":"levelo_inurba_marseille","lat":43.26881,"lon":5.36984,"is_reserved":false,"is_disabled":false,"rental_uris":{"android":"levelo://app?vid=c84b0cb0-3511-4d68-9f1a-8f2e45479831","ios":"levelo://app?vid=c84b0cb0-3511-4d68-9f1a-8f2e45479831"},"vehicle_type_id":"4","last_reported":1731755235,"current_range_meters":26800,"station_id":"ce4bhbh2rcd13ifvqeo0","pricing_plan_id":"cebpf4jnsgd1na2vs0mg"},{"bike_id":"429ee588-e15c-46db-bfa2-fbd81c290dc5","system_id":"levelo_inurba_marseille","lat":43.317109,"lon":5.437111,"is_reserved":false,"is_disabled":false,"rental_uris":{"android":"levelo://app?vid=429ee588-e15c-46db-bfa2-fbd81c290dc5","ios":"levelo://app?vid=429ee588-e15c-46db-bfa2-fbd81c290dc5"},"vehicle_type_id":"4","last_reported":1731755235,"current_range_meters":28000,"station_id":"ce4bhp92rcd13ifvqhcg","pricing_plan_id":"cebpf4jnsgd1na2vs0mg"},{"bike_id":"92ac4858-87d6-4ceb-8f6e-004635a816a8","system_id":"levelo_inurba_marseille","lat":43.27792,"lon":5.40724,"is_reserved":false,"is_disabled":false,"rental_uris":{"android":"levelo://app?vid=92ac4858-87d6-4ceb-8f6e-004635a816a8","ios":"levelo://app?vid=92ac4858-87d6-4ceb-8f6e-004635a816a8"},"vehicle_type_id":"4","last_reported":1731755235,"current_range_meters":32000,"station_id":"ce4bhnh2rcd13ifvqgtg","pricing_plan_id":"cebpf4jnsgd1na2vs0mg"},{"bike_id":"7fca553a-78a7-45f6-b129-5840f7da7368","system_id":"levelo_inurba_marseille","lat":43.25583,"lon":5.38233,"is_reserved":false,"is_disabled":false,"rental_uris":{"android":"levelo://app?vid=7fca553a-78a7-45f6-b129-5840f7da7368","ios":"levelo://app?vid=7fca553a-78a7-45f6-b129-5840f7da7368"},"vehicle_type_id":"4","last_reported":1731755235,"current_range_meters":23200,"station_id":"ce4bhih2rcd13ifvqfs0","pricing_plan_id":"cebpf4jnsgd1na2vs0mg"},{"bike_id":"4f072872-5e38-4a4b-9811-1d9e60a837c4","system_id":"levelo_inurba_marseille","lat":43.230991,"lon":5.354776,"is_reserved":false,"is_disabled":false,"rental_uris":{"android":"levelo://app?vid=4f072872-5e38-4a4b-9811-1d9e60a837c4","ios":"levelo://app?vid=4f072872-5e38-4a4b-9811-1d9e60a837c4"},"vehicle_type_id":"4","last_reported":1731755235,"current_range_meters":12000,"station_id":"","pricing_plan_id":"cebpf4jnsgd1na2vs0mg"},{"bike_id":"347c7842-b74d-475c-9f43-0b98799e9df1","system_id":"levelo_inurba_marseille","lat":43.32333,"lon":5.40618,"is_reserved":false,"is_disabled":false,"rental_uris":{"android":"levelo://app?vid=347c7842-b74d-475c-9f43-0b98799e9df1","ios":"levelo://app?vid=347c7842-b74d-475c-9f43-0b98799e9df1"},"vehicle_type_id":"4","last_reported":1731755235,"current_range_meters":37600,"station_id":"ce4bhq92rcd13ifvqhjg","pricing_plan_id":"cebpf4jnsgd1na2vs0mg"},{"bike_id":"9e5221bc-6ba3-4f80-a78a-00e1f24bd999","system_id":"levelo_inurba_marseille","lat":43.29976,"lon":5.37175,"is_reserved":false,"is_disabled":false,"rental_uris":{"android":"levelo://app?vid=9e5221bc-6ba3-4f80-a78a-00e1f24bd999","ios":"levelo://app?vid=9e5221bc-6ba3-4f80-a78a-00e1f24bd999"},"vehicle_type_id":"4","last_reported":1731755235,"current_range_meters":38800,"station_id":"ce4bgr92rcd13ifvqc7g","pricing_plan_id":"cebpf4jnsgd1na2vs0mg"},{"bike_id":"255b6809-bda4-40c7-b943-430ff087a238","system_id":"levelo_inurba_marseille","lat":43.25578,"lon":5.38231,"is_reserved":false,"is_disabled":false,"rental_uris":{"android":"levelo://app?vid=255b6809-bda4-40c7-b943-430ff087a238","ios":"levelo://app?vid=255b6809-bda4-40c7-b943-430ff087a238"},"vehicle_type_id":"4","last_reported":1731755235,"current_range_meters":4800,"station_id":"ce4bhih2rcd13ifvqfs0","pricing_plan_id":"cebpf4jnsgd1na2vs0mg"},{"bike_id":"e79c1d71-1ce6-4d60-8fff-1fc1acef8ee4","system_id":"levelo_inurba_marseille","lat":43.23956,"lon":5.36629,"is_reserved":false,"is_disabled":false,"rental_uris":{"android":"levelo://app?vid=e79c1d71-1ce6-4d60-8fff-1fc1acef8ee4","ios":"levelo://app?vid=e79c1d71-1ce6-4d60-8fff-1fc1acef8ee4"},"vehicle_type_id":"4","last_reported":1731755235,"current_range_meters":24400,"station_id":"ce4bhi12rcd13ifvqfp0","pricing_plan_id":"cebpf4jnsgd1na2vs0mg"},{"bike_id":"a84f5389-258d-4508-9c0f-32ee5d326b43","system_id":"levelo_inurba_marseille","lat":43.33767,"lon":5.37475,"is_reserved":false,"is_disabled":false,"rental_uris":{"android":"levelo://app?vid=a84f5389-258d-4508-9c0f-32ee5d326b43","ios":"levelo://app?vid=a84f5389-258d-4508-9c0f-32ee5d326b43"},"vehicle_type_id":"4","last_reported":1731755235,"current_range_meters":34800,"station_id":"","pricing_plan_id":"cebpf4jnsgd1na2vs0mg"},{"bike_id":"bdda4347-118f-4304-b506-09b4b5e15b39","system_id":"levelo_inurba_marseille","lat":43.33717,"lon":5.39182,"is_reserved":false,"is_disabled":false,"rental_uris":{"android":"levelo://app?vid=bdda4347-118f-4304-b506-09b4b5e15b39","ios":"levelo://app?vid=bdda4347-118f-4304-b506-09b4b5e15b39"},"vehicle_type_id":"4","last_reported":1731755235,"current_range_meters":12800,"station_id":"ce4bhr92rcd13ifvqhsg","pricing_plan_id":"cebpf4jnsgd1na2vs0mg"},{"bike_id":"8f7a2fd2-00e8-4616-b1e9-524e40b21aac","system_id":"levelo_inurba_marseille","lat":43.29013,"lon":5.38143,"is_reserved":false,"is_disabled":false,"rental_uris":{"android":"levelo://app?vid=8f7a2fd2-00e8-4616-b1e9-524e40b21aac","ios":"levelo://app?vid=8f7a2fd2-00e8-4616-b1e9-524e40b21aac"},"vehicle_type_id":"4","last_reported":1731755235,"current_range_meters":38800,"station_id":"ce4bh4p2rcd13ifvqe1g","pricing_plan_id":"cebpf4jnsgd1na2vs0mg"},{"bike_id":"528354ee-6034-444a-a50e-96791b22335c","system_id":"levelo_inurba_marseille","lat":43.26568,"lon":5.39006,"is_reserved":false,"is_disabled":false,"rental_uris":{"android":"levelo://app?vid=528354ee-6034-444a-a50e-96791b22335c","ios":"levelo://app?vid=528354ee-6034-444a-a50e-96791b22335c"},"vehicle_type_id":"4","last_reported":1731755235,"current_range_meters":17600,"station_id":"ce4bhe12rcd13ifvqf30","pricing_plan_id":"cebpf4jnsgd1na2vs0mg"},{"bike_id":"24420a27-91b5-4a69-bca6-e715ce78c1dc","system_id":"levelo_inurba_marseille","lat":43.2467,"lon":5.38159,"is_reserved":false,"is_disabled":false,"rental_uris":{"android":"levelo://app?vid=24420a27-91b5-4a69-bca6-e715ce78c1dc","ios":"levelo://app?vid=24420a27-91b5-4a69-bca6-e715ce78c1dc"},"vehicle_type_id":"4","last_reported":1731755235,"current_range_meters":27600,"station_id":"ce4bhih2rcd13ifvqfr0","pricing_plan_id":"cebpf4jnsgd1na2vs0mg"},{"bike_id":"7bf18ed8-aa6e-412e-b253-1b6d6a062ccb","system_id":"levelo_inurba_marseille","lat":43.30281,"lon":5.37698,"is_reserved":false,"is_disabled":false,"rental_uris":{"android":"levelo://app?vid=7bf18ed8-aa6e-412e-b253-1b6d6a062ccb","ios":"levelo://app?vid=7bf18ed8-aa6e-412e-b253-1b6d6a062ccb"},"vehicle_type_id":"4","last_reported":1731755235,"current_range_meters":36400,"station_id":"ce4bguh2rcd13ifvqcj0","pricing_plan_id":"cebpf4jnsgd1na2vs0mg"},{"bike_id":"f72bd332-2632-4a0a-942e-83f86f05357e","system_id":"levelo_inurba_marseille","lat":43.28609,"lon":5.37061,"is_reserved":false,"is_disabled":false,"rental_uris":{"android":"levelo://app?vid=f72bd332-2632-4a0a-942e-83f86f05357e","ios":"levelo://app?vid=f72bd332-2632-4a0a-942e-83f86f05357e"},"vehicle_type_id":"4","last_reported":1731755235,"current_range_meters":22800,"station_id":"ce4bht12rcd13ifvqi60","pricing_plan_id":"cebpf4jnsgd1na2vs0mg"},{"bike_id":"eed0b17b-8ed0-4eb1-a580-b2834aeae7d4","system_id":"levelo_inurba_marseille","lat":43.26214,"lon":5.3744,"is_reserved":false,"is_disabled":false,"rental_uris":{"android":"levelo://app?vid=eed0b17b-8ed0-4eb1-a580-b2834aeae7d4","ios":"levelo://app?vid=eed0b17b-8ed0-4eb1-a580-b2834aeae7d4"},"vehicle_type_id":"4","last_reported":1731755235,"current_range_meters":18000,"station_id":"ce4bhgp2rcd13ifvqfc0","pricing_plan_id":"cebpf4jnsgd1na2vs0mg"},{"bike_id":"b5ce9235-4ffb-4d40-a9ab-7ab7ce5a79f6","system_id":"levelo_inurba_marseille","lat":43.24808,"lon":5.37455,"is_reserved":false,"is_disabled":false,"rental_uris":{"android":"levelo://app?vid=b5ce9235-4ffb-4d40-a9ab-7ab7ce5a79f6","ios":"levelo://app?vid=b5ce9235-4ffb-4d40-a9ab-7ab7ce5a79f6"},"vehicle_type_id":"4","last_reported":1731755235,"current_range_meters":38800,"station_id":"ce4bhgh2rcd13ifvqfb0","pricing_plan_id":"cebpf4jnsgd1na2vs0mg"},{"bike_id":"1905e423-9623-404a-bf2e-53fad8283f76","system_id":"levelo_inurba_marseille","lat":43.2842,"lon":5.34993,"is_reserved":false,"is_disabled":false,"rental_uris":{"android":"levelo://app?vid=1905e423-9623-404a-bf2e-53fad8283f76","ios":"levelo://app?vid=1905e423-9623-404a-bf2e-53fad8283f76"},"vehicle_type_id":"4","last_reported":1731755235,"current_range_meters":8400,"station_id":"ce4bhbh2rcd13ifvqepg","pricing_plan_id":"cebpf4jnsgd1na2vs0mg"},{"bike_id":"39f545a5-5fc2-43cb-84d1-765caf49528f","system_id":"levelo_inurba_marseille","lat":43.299792,"lon":5.399617,"is_reserved":false,"is_disabled":false,"rental_uris":{"android":"levelo://app?vid=39f545a5-5fc2-43cb-84d1-765caf49528f","ios":"levelo://app?vid=39f545a5-5fc2-43cb-84d1-765caf49528f"},"vehicle_type_id":"4","last_reported":1731755235,"current_range_meters":35200,"station_id":"ce4bh312rcd13ifvqdj0","pricing_plan_id":"cebpf4jnsgd1na2vs0mg"},{"bike_id":"650f63fe-9f16-47b2-8d39-c6d77dfc254f","system_id":"levelo_inurba_marseille","lat":43.29166,"lon":5.37147,"is_reserved":false,"is_disabled":false,"rental_uris":{"android":"levelo://app?vid=650f63fe-9f16-47b2-8d39-c6d77dfc254f","ios":"levelo://app?vid=650f63fe-9f16-47b2-8d39-c6d77dfc254f"},"vehicle_type_id":"4","last_reported":1731755235,"current_range_meters":22800,"station_id":"ce4bha92rcd13ifvqeh0","pricing_plan_id":"cebpf4jnsgd1na2vs0mg"},{"bike_id":"6d6992bf-ade3-4a22-a168-306dafdc4544","system_id":"levelo_inurba_marseille","lat":43.24169,"lon":5.36405,"is_reserved":false,"is_disabled":false,"rental_uris":{"android":"levelo://app?vid=6d6992bf-ade3-4a22-a168-306dafdc4544","ios":"levelo://app?vid=6d6992bf-ade3-4a22-a168-306dafdc4544"},"vehicle_type_id":"4","last_reported":1731755235,"current_range_meters":34000,"station_id":"cpo36qri1sfpv3e86is0","pricing_plan_id":"cebpf4jnsgd1na2vs0mg"},{"bike_id":"aef695e2-8b8f-493b-82e2-e727530906ee","system_id":"levelo_inurba_marseille","lat":43.29088,"lon":5.38153,"is_reserved":false,"is_disabled":false,"rental_uris":{"android":"levelo://app?vid=aef695e2-8b8f-493b-82e2-e727530906ee","ios":"levelo://app?vid=aef695e2-8b8f-493b-82e2-e727530906ee"},"vehicle_type_id":"4","last_reported":1731755235,"current_range_meters":26000,"station_id":"ce4bh512rcd13ifvqe2g","pricing_plan_id":"cebpf4jnsgd1na2vs0mg"},{"bike_id":"074c6971-4ae7-4906-8673-1607af29a7e1","system_id":"levelo_inurba_marseille","lat":43.25082,"lon":5.39507,"is_reserved":false,"is_disabled":false,"rental_uris":{"android":"levelo://app?vid=074c6971-4ae7-4906-8673-1607af29a7e1","ios":"levelo://app?vid=074c6971-4ae7-4906-8673-1607af29a7e1"},"vehicle_type_id":"4","last_reported":1731755235,"current_range_meters":33600,"station_id":"ce4bhm12rcd13ifvqgkg","pricing_plan_id":"cebpf4jnsgd1na2vs0mg"},{"bike_id":"82569cad-8166-47dc-82e2-c419602cc041","system_id":"levelo_inurba_marseille","lat":43.30553,"lon":5.36534,"is_reserved":false,"is_disabled":false,"rental_uris":{"android":"levelo://app?vid=82569cad-8166-47dc-82e2-c419602cc041","ios":"levelo://app?vid=82569cad-8166-47dc-82e2-c419602cc041"},"vehicle_type_id":"4","last_reported":1731755235,"current_range_meters":39200,"station_id":"ce4bgs12rcd13ifvqcag","pricing_plan_id":"cebpf4jnsgd1na2vs0mg"},{"bike_id":"9b9c4dea-fa40-4b43-b228-ae4467ca6d66","system_id":"levelo_inurba_marseille","lat":43.33022,"lon":5.39041,"is_reserved":false,"is_disabled":false,"rental_uris":{"android":"levelo://app?vid=9b9c4dea-fa40-4b43-b228-ae4467ca6d66","ios":"levelo://app?vid=9b9c4dea-fa40-4b43-b228-ae4467ca6d66"},"vehicle_type_id":"4","last_reported":1731755235,"current_range_meters":25600,"station_id":"ce4bhr92rcd13ifvqhrg","pricing_plan_id":"cebpf4jnsgd1na2vs0mg"},{"bike_id":"fd108b9d-dd59-4891-a78a-5898f6e6e763","system_id":"levelo_inurba_marseille","lat":43.33019,"lon":5.39034,"is_reserved":false,"is_disabled":false,"rental_uris":{"android":"levelo://app?vid=fd108b9d-dd59-4891-a78a-5898f6e6e763","ios":"levelo://app?vid=fd108b9d-dd59-4891-a78a-5898f6e6e763"},"vehicle_type_id":"4","last_reported":1731755235,"current_range_meters":38000,"station_id":"ce4bhr92rcd13ifvqhrg","pricing_plan_id":"cebpf4jnsgd1na2vs0mg"},{"bike_id":"2dc1bd73-ffe0-46aa-b1df-a5ede7709508","system_id":"levelo_inurba_marseille","lat":43.23186,"lon":5.39995,"is_reserved":false,"is_disabled":false,"rental_uris":{"android":"levelo://app?vid=2dc1bd73-ffe0-46aa-b1df-a5ede7709508","ios":"levelo://app?vid=2dc1bd73-ffe0-46aa-b1df-a5ede7709508"},"vehicle_type_id":"4","last_reported":1731755235,"current_range_meters":14000,"station_id":"ce4bhn12rcd13ifvqgqg","pricing_plan_id":"cebpf4jnsgd1na2vs0mg"},{"bike_id":"87f2d991-b47f-4a41-8eb4-4b3e9a63bed3","system_id":"levelo_inurba_marseille","lat":43.31843,"lon":5.40718,"is_reserved":false,"is_disabled":false,"rental_uris":{"android":"levelo://app?vid=87f2d991-b47f-4a41-8eb4-4b3e9a63bed3","ios":"levelo://app?vid=87f2d991-b47f-4a41-8eb4-4b3e9a63bed3"},"vehicle_type_id":"4","last_reported":1731755235,"current_range_meters":17600,"station_id":"ce4bhq92rcd13ifvqhjg","pricing_plan_id":"cebpf4jnsgd1na2vs0mg"},{"bike_id":"1b6a8a87-9ae2-460f-b9e5-0d61e56f2c69","system_id":"levelo_inurba_marseille","lat":43.26059,"lon":5.39395,"is_reserved":false,"is_disabled":false,"rental_uris":{"android":"levelo://app?vid=1b6a8a87-9ae2-460f-b9e5-0d61e56f2c69","ios":"levelo://app?vid=1b6a8a87-9ae2-460f-b9e5-0d61e56f2c69"},"vehicle_type_id":"4","last_reported":1731755235,"current_range_meters":24000,"station_id":"ce4bhh92rcd13ifvqfj0","pricing_plan_id":"cebpf4jnsgd1na2vs0mg"},{"bike_id":"ce99c29d-25d3-43f4-80cb-ec44086b7861","system_id":"levelo_inurba_marseille","lat":43.23957,"lon":5.36641,"is_reserved":false,"is_disabled":false,"rental_uris":{"android":"levelo://app?vid=ce99c29d-25d3-43f4-80cb-ec44086b7861","ios":"levelo://app?vid=ce99c29d-25d3-43f4-80cb-ec44086b7861"},"vehicle_type_id":"4","last_reported":1731755235,"current_range_meters":38800,"station_id":"ce4bhi12rcd13ifvqfp0","pricing_plan_id":"cebpf4jnsgd1na2vs0mg"},{"bike_id":"e5733339-e5be-40f8-beb4-5d3577bb2de6","system_id":"levelo_inurba_marseille","lat":43.27377,"lon":5.3626,"is_reserved":false,"is_disabled":false,"rental_uris":{"android":"levelo://app?vid=e5733339-e5be-40f8-beb4-5d3577bb2de6","ios":"levelo://app?vid=e5733339-e5be-40f8-beb4-5d3577bb2de6"},"vehicle_type_id":"4","last_reported":1731755235,"current_range_meters":38000,"station_id":"ce4bhbh2rcd13ifvqeo0","pricing_plan_id":"cebpf4jnsgd1na2vs0mg"},{"bike_id":"4a371c97-c804-4fa4-a319-8058ce3542ab","system_id":"levelo_inurba_marseille","lat":43.2797,"lon":5.38734,"is_reserved":false,"is_disabled":false,"rental_uris":{"android":"levelo://app?vid=4a371c97-c804-4fa4-a319-8058ce3542ab","ios":"levelo://app?vid=4a371c97-c804-4fa4-a319-8058ce3542ab"},"vehicle_type_id":"4","last_reported":1731755235,"current_range_meters":24400,"station_id":"ce4bhg12rcd13ifvqf80","pricing_plan_id":"cebpf4jnsgd1na2vs0mg"},{"bike_id":"70e089d0-d0b0-4a36-ba28-4f51863a6eb9","system_id":"levelo_inurba_marseille","lat":43.23187,"lon":5.35549,"is_reserved":false,"is_disabled":false,"rental_uris":{"android":"levelo://app?vid=70e089d0-d0b0-4a36-ba28-4f51863a6eb9","ios":"levelo://app?vid=70e089d0-d0b0-4a36-ba28-4f51863a6eb9"},"vehicle_type_id":"4","last_reported":1731755235,"current_range_meters":31200,"station_id":"ce4bhu92rcd13ifvqi70","pricing_plan_id":"cebpf4jnsgd1na2vs0mg"},{"bike_id":"b8456275-3367-4ea4-b8eb-15543c5fdf75","system_id":"levelo_inurba_marseille","lat":43.25394,"lon":5.38399,"is_reserved":false,"is_disabled":false,"rental_uris":{"android":"levelo://app?vid=b8456275-3367-4ea4-b8eb-15543c5fdf75","ios":"levelo://app?vid=b8456275-3367-4ea4-b8eb-15543c5fdf75"},"vehicle_type_id":"4","last_reported":1731755235,"current_range_meters":25200,"station_id":"","pricing_plan_id":"cebpf4jnsgd1na2vs0mg"},{"bike_id":"4ee4605c-22f2-4532-b44d-f5fb03fd5142","system_id":"levelo_inurba_marseille","lat":43.30788,"lon":5.43517,"is_reserved":false,"is_disabled":false,"rental_uris":{"android":"levelo://app?vid=4ee4605c-22f2-4532-b44d-f5fb03fd5142","ios":"levelo://app?vid=4ee4605c-22f2-4532-b44d-f5fb03fd5142"},"vehicle_type_id":"4","last_reported":1731755235,"current_range_meters":16400,"station_id":"ce4bhph2rcd13ifvqheg","pricing_plan_id":"cebpf4jnsgd1na2vs0mg"},{"bike_id":"8e86f878-ff8b-4194-ae5b-4970f59439f1","system_id":"levelo_inurba_marseille","lat":43.29269,"lon":5.38438,"is_reserved":false,"is_disabled":false,"rental_uris":{"android":"levelo://app?vid=8e86f878-ff8b-4194-ae5b-4970f59439f1","ios":"levelo://app?vid=8e86f878-ff8b-4194-ae5b-4970f59439f1"},"vehicle_type_id":"4","last_reported":1731755235,"current_range_meters":38800,"station_id":"ce4bh692rcd13ifvqea0","pricing_plan_id":"cebpf4jnsgd1na2vs0mg"},{"bike_id":"05abfaf1-44ee-4e71-96e0-d782264b6cb9","system_id":"levelo_inurba_marseille","lat":43.26943,"lon":5.40239,"is_reserved":false,"is_disabled":false,"rental_uris":{"android":"levelo://app?vid=05abfaf1-44ee-4e71-96e0-d782264b6cb9","ios":"levelo://app?vid=05abfaf1-44ee-4e71-96e0-d782264b6cb9"},"vehicle_type_id":"4","last_reported":1731755235,"current_range_meters":20400,"station_id":"cjm6bp8fraef2m0cb0m0","pricing_plan_id":"cebpf4jnsgd1na2vs0mg"},{"bike_id":"ffef1166-6a0f-4823-92f1-7bea335b50d7","system_id":"levelo_inurba_marseille","lat":43.24072,"lon":5.37754,"is_reserved":false,"is_disabled":false,"rental_uris":{"android":"levelo://app?vid=ffef1166-6a0f-4823-92f1-7bea335b50d7","ios":"levelo://app?vid=ffef1166-6a0f-4823-92f1-7bea335b50d7"},"vehicle_type_id":"4","last_reported":1731755235,"current_range_meters":39200,"station_id":"ce4bhnp2rcd13ifvqgvg","pricing_plan_id":"cebpf4jnsgd1na2vs0mg"},{"bike_id":"805193db-39c1-4581-b635-f26348c018cc","system_id":"levelo_inurba_marseille","lat":43.30328,"lon":5.40438,"is_reserved":false,"is_disabled":false,"rental_uris":{"android":"levelo://app?vid=805193db-39c1-4581-b635-f26348c018cc","ios":"levelo://app?vid=805193db-39c1-4581-b635-f26348c018cc"},"vehicle_type_id":"4","last_reported":1731755235,"current_range_meters":20000,"station_id":"ce4bh012rcd13ifvqd10","pricing_plan_id":"cebpf4jnsgd1na2vs0mg"},{"bike_id":"ee9aad37-e361-4e3a-85c1-791b5333fdc3","system_id":"levelo_inurba_marseille","lat":43.27493,"lon":5.42451,"is_reserved":false,"is_disabled":false,"rental_uris":{"android":"levelo://app?vid=ee9aad37-e361-4e3a-85c1-791b5333fdc3","ios":"levelo://app?vid=ee9aad37-e361-4e3a-85c1-791b5333fdc3"},"vehicle_type_id":"4","last_reported":1731755235,"current_range_meters":39200,"station_id":"ce4bhn92rcd13ifvqgrg","pricing_plan_id":"cebpf4jnsgd1na2vs0mg"},{"bike_id":"5bfc79ba-a7fd-48ca-85bd-7d33f7f919ce","system_id":"levelo_inurba_marseille","lat":43.25497,"lon":5.3765,"is_reserved":false,"is_disabled":false,"rental_uris":{"android":"levelo://app?vid=5bfc79ba-a7fd-48ca-85bd-7d33f7f919ce","ios":"levelo://app?vid=5bfc79ba-a7fd-48ca-85bd-7d33f7f919ce"},"vehicle_type_id":"4","last_reported":1731755235,"current_range_meters":28400,"station_id":"ce4bhh12rcd13ifvqff0","pricing_plan_id":"cebpf4jnsgd1na2vs0mg"},{"bike_id":"b84d31b7-4ac7-4e81-984c-107220c0d0fb","system_id":"levelo_inurba_marseille","lat":43.28473,"lon":5.38405,"is_reserved":false,"is_disabled":false,"rental_uris":{"android":"levelo://app?vid=b84d31b7-4ac7-4e81-984c-107220c0d0fb","ios":"levelo://app?vid=b84d31b7-4ac7-4e81-984c-107220c0d0fb"},"vehicle_type_id":"4","last_reported":1731755235,"current_range_meters":36800,"station_id":"ce4bh512rcd13ifvqe3g","pricing_plan_id":"cebpf4jnsgd1na2vs0mg"},{"bike_id":"dcf3a3e5-0fc6-41ca-99f7-f93ed30ddeb4","system_id":"levelo_inurba_marseille","lat":43.29966,"lon":5.37176,"is_reserved":false,"is_disabled":false,"rental_uris":{"android":"levelo://app?vid=dcf3a3e5-0fc6-41ca-99f7-f93ed30ddeb4","ios":"levelo://app?vid=dcf3a3e5-0fc6-41ca-99f7-f93ed30ddeb4"},"vehicle_type_id":"4","last_reported":1731755235,"current_range_meters":32000,"station_id":"ce4bgr92rcd13ifvqc7g","pricing_plan_id":"cebpf4jnsgd1na2vs0mg"},{"bike_id":"832dc837-5a56-4cbc-a761-cfa59cde04c6","system_id":"levelo_inurba_marseille","lat":43.26192,"lon":5.37449,"is_reserved":false,"is_disabled":false,"rental_uris":{"android":"levelo://app?vid=832dc837-5a56-4cbc-a761-cfa59cde04c6","ios":"levelo://app?vid=832dc837-5a56-4cbc-a761-cfa59cde04c6"},"vehicle_type_id":"4","last_reported":1731755235,"current_range_meters":28800,"station_id":"ce4bhgp2rcd13ifvqfc0","pricing_plan_id":"cebpf4jnsgd1na2vs0mg"},{"bike_id":"09e5d805-bcdf-46a1-84e2-4ecd6a3b4ec2","system_id":"levelo_inurba_marseille","lat":43.23193,"lon":5.35546,"is_reserved":false,"is_disabled":false,"rental_uris":{"android":"levelo://app?vid=09e5d805-bcdf-46a1-84e2-4ecd6a3b4ec2","ios":"levelo://app?vid=09e5d805-bcdf-46a1-84e2-4ecd6a3b4ec2"},"vehicle_type_id":"4","last_reported":1731755235,"current_range_meters":6800,"station_id":"ce4bhu92rcd13ifvqi70","pricing_plan_id":"cebpf4jnsgd1na2vs0mg"},{"bike_id":"09d0b3f8-a534-4146-9c19-f7f3c002e77d","system_id":"levelo_inurba_marseille","lat":43.26941,"lon":5.40248,"is_reserved":false,"is_disabled":false,"rental_uris":{"android":"levelo://app?vid=09d0b3f8-a534-4146-9c19-f7f3c002e77d","ios":"levelo://app?vid=09d0b3f8-a534-4146-9c19-f7f3c002e77d"},"vehicle_type_id":"4","last_reported":1731755235,"current_range_meters":39200,"station_id":"cjm6bp8fraef2m0cb0m0","pricing_plan_id":"cebpf4jnsgd1na2vs0mg"},{"bike_id":"84cdc635-20e2-4572-84ff-bf5e27e55995","system_id":"levelo_inurba_marseille","lat":43.2922,"lon":5.36058,"is_reserved":false,"is_disabled":false,"rental_uris":{"android":"levelo://app?vid=84cdc635-20e2-4572-84ff-bf5e27e55995","ios":"levelo://app?vid=84cdc635-20e2-4572-84ff-bf5e27e55995"},"vehicle_type_id":"4","last_reported":1731755235,"current_range_meters":16800,"station_id":"ce4bhbh2rcd13ifvqeqg","pricing_plan_id":"cebpf4jnsgd1na2vs0mg"},{"bike_id":"e89bd408-29ec-4161-9608-7450fc78f196","system_id":"levelo_inurba_marseille","lat":43.28155,"lon":5.42646,"is_reserved":false,"is_disabled":false,"rental_uris":{"android":"levelo://app?vid=e89bd408-29ec-4161-9608-7450fc78f196","ios":"levelo://app?vid=e89bd408-29ec-4161-9608-7450fc78f196"},"vehicle_type_id":"4","last_reported":1731755235,"current_range_meters":38400,"station_id":"ce4bhnh2rcd13ifvqgug","pricing_plan_id":"cebpf4jnsgd1na2vs0mg"},{"bike_id":"251d8918-1250-4853-9293-89ee39d3be92","system_id":"levelo_inurba_marseille","lat":43.33022,"lon":5.39038,"is_reserved":false,"is_disabled":false,"rental_uris":{"android":"levelo://app?vid=251d8918-1250-4853-9293-89ee39d3be92","ios":"levelo://app?vid=251d8918-1250-4853-9293-89ee39d3be92"},"vehicle_type_id":"4","last_reported":1731755235,"current_range_meters":36800,"station_id":"ce4bhr92rcd13ifvqhrg","pricing_plan_id":"cebpf4jnsgd1na2vs0mg"},{"bike_id":"abba66d9-bf8b-4ea9-a92b-e74cd4de9afc","system_id":"levelo_inurba_marseille","lat":43.3199,"lon":5.38168,"is_reserved":false,"is_disabled":false,"rental_uris":{"android":"levelo://app?vid=abba66d9-bf8b-4ea9-a92b-e74cd4de9afc","ios":"levelo://app?vid=abba66d9-bf8b-4ea9-a92b-e74cd4de9afc"},"vehicle_type_id":"4","last_reported":1731755235,"current_range_meters":15200,"station_id":"ce4bhr12rcd13ifvqhpg","pricing_plan_id":"cebpf4jnsgd1na2vs0mg"},