{"last_updated":1742933477,"ttl":60,"version":"2.2","data":{"bikes":[{"bike_id":"be295973-b64b-4612-a980-85ed6abce5b1","system_id":"levelo_inurba_marseille","lat":43.30432,"lon":5.39747,"is_reserved":false,"is_disabled":true,"rental_uris":{"android":"levelo://app?vid=be295973-b64b-4612-a980-85ed6abce5b1","ios":"levelo://app?vid=be295973-b64b-4612-a980-85ed6abce5b1"},"vehicle_type_id":"4","last_reported":1742933477,"current_range_meters":2800,"station_id":"ce4bh092rcd13ifvqd20","pricing_plan_id":"cebpf4jnsgd1na2vs0mg"},{"bike_id":"6e689faa-49ed-446b-bece-1fd5793e912c","system_id":"levelo_inurba_marseille","lat":43.29551,"lon":5.42284,"is_reserved":false,"is_disabled":false,"rental_uris":{"android":"levelo://app?vid=6e689faa-49ed-446b-bece-1fd5793e912c","ios":"levelo://app?vid=6e689faa-49ed-446b-bece-1fd5793e912c"},"vehicle_type_id":"4","last_reported":1742933477,"current_range_meters":2800,"station_id":"ce4bhph2rcd13ifvqhdg","pricing_plan_id":"cebpf4jnsgd1na2vs0mg"},{"bike_id":"41d2e0c9-d925-4580-b9e6-c3168ae3a300","system_id":"levelo_inurba_marseille","lat":43.29965,"lon":5.38503,"is_reserved":false,"is_disabled":false,"rental_uris":{"android":"levelo://app?vid=41d2e0c9-d925-4580-b9e6-c3168ae3a300","ios":"levelo://app?vid=41d2e0c9-d925-4580-b9e6-c3168ae3a300"},"vehicle_type_id":"4","last_reported":1742933477,"current_range_meters":3200,"station_id":"ce4bgj92rcd13ifvqbd0","pricing_plan_id":"cebpf4jnsgd1na2vs0mg"},{"bike_id":"87aedd70-b5a7-41d9-924f-7b8be80be320","system_id":"levelo_inurba_marseille","lat":43.26206,"lon":5.37463,"is_reserved":false,"is_disabled":true,"rental_uris":{"android":"levelo://app?vid=87aedd70-b5a7-41d9-924f-7b8be80be320","ios":"levelo://app?vid=87aedd70-b5a7-41d9-924f-7b8be80be320"},"vehicle_type_id":"4","last_reported":1742933477,"current_range_meters":2800,"station_id":"ce4bhgp2rcd13ifvqfc0","pricing_plan_id":"cebpf4jnsgd1na2vs0mg"},{"bike_id":"9481d78c-2339-43f7-906a-4b51b901aaf6","system_id":"levelo_inurba_marseille","lat":43.32655,"lon":5.40987,"is_reserved":false,"is_disabled":false,"rental_uris":{"android":"levelo://app?vid=9481d78c-2339-43f7-906a-4b51b901aaf6","ios":"levelo://app?vid=9481d78c-2339-43f7-906a-4b51b901aaf6"},"vehicle_type_id":"4","last_reported":1742933477,"current_range_meters":2800,"station_id":"ce4bhpp2rcd13ifvqhgg","pricing_plan_id":"cebpf4jnsgd1na2vs0mg"},{"bike_id":"135447b6-e836-48da-a6cd-5437942efdc9","system_id":"levelo_inurba_marseille","lat":43.30592,"lon":5.39355,"is_reserved":false,"is_disabled":false,"rental_uris":{"android":"levelo://app?vid=135447b6-e836-48da-a6cd-5437942efdc9","ios":"levelo://app?vid=135447b6-e836-48da-a6cd-5437942efdc9"},"vehicle_type_id":"4","last_reported":1742933477,"current_range_meters":2800,"station_id":"ce4bh0p2rcd13ifvqd80","pricing_plan_id":"cebpf4jnsgd1na2vs0mg"},{"bike_id":"66543b71-66c9-48b5-ac9a-cf074c612429","system_id":"levelo_inurba_marseille","lat":43.30994,"lon":5.39663,"is_reserved":false,"is_disabled":false,"rental_uris":{"android":"levelo://app?vid=66543b71-66c9-48b5-ac9a-cf074c612429","ios":"levelo://app?vid=66543b71-66c9-48b5-ac9a-cf074c612429"},"vehicle_type_id":"4","last_reported":1742933477,"current_range_meters":2800,"station_id":"","pricing_plan_id":"cebpf4jnsgd1na2vs0mg"},{"bike_id":"52f3bad5-884f-4229-a383-e0ecc7844259","system_id":"levelo_inurba_marseille","lat":43.27995,"lon":5.40007,"is_reserved":false,"is_disabled":false,"rental_uris":{"android":"levelo://app?vid=52f3bad5-884f-4229-a383-e0ecc7844259","ios":"levelo://app?vid=52f3bad5-884f-4229-a383-e0ecc7844259"},"vehicle_type_id":"4","last_reported":1742933477,"current_range_meters":3200,"station_id":"ce4bho92rcd13ifvqh4g","pricing_plan_id":"cebpf4jnsgd1na2vs0mg"},{"bike_id":"278040da-a0f7-414d-830f-ac2fc8621dd6","system_id":"levelo_inurba_marseille","lat":43.30093,"lon":5.39066,"is_reserved":false,"is_disabled":false,"rental_uris":{"android":"levelo://app?vid=278040da-a0f7-414d-830f-ac2fc8621dd6","ios":"levelo://app?vid=278040da-a0f7-414d-830f-ac2fc8621dd6"},"vehicle_type_id":"4","last_reported":1742933477,"current_range_meters":3200,"station_id":"ce4bh192rcd13ifvqdb0","pricing_plan_id":"cebpf4jnsgd1na2vs0mg"},{"bike_id":"2bf48672-0d01-43ce-afe3-87440cffa19a","system_id":"levelo_inurba_marseille","lat":43.270203,"lon":5.423081,"is_reserved":false,"is_disabled":false,"rental_uris":{"android":"levelo://app?vid=2bf48672-0d01-43ce-afe3-87440cffa19a","ios":"levelo://app?vid=2bf48672-0d01-43ce-afe3-87440cffa19a"},"vehicle_type_id":"4","last_reported":1742933477,"current_range_meters":3200,"station_id":"ce4bhk92rcd13ifvqgb0","pricing_plan_id":"cebpf4jnsgd1na2vs0mg"},{"bike_id":"c674abf4-d5b2-45b5-99ee-1dd3f5179b2d","system_id":"levelo_inurba_marseille","lat":43.29683,"lon":5.36201,"is_reserved":false,"is_disabled":false,"rental_uris":{"android":"levelo://app?vid=c674abf4-d5b2-45b5-99ee-1dd3f5179b2d","ios":"levelo://app?vid=c674abf4-d5b2-45b5-99ee-1dd3f5179b2d"},"vehicle_type_id":"4","last_reported":1742933477,"current_range_meters":3200,"station_id":"","pricing_plan_id":"cebpf4jnsgd1na2vs0mg"},{"bike_id":"a27bdc01-7a70-4910-bcd0-22faaa302ddb","system_id":"levelo_inurba_marseille","lat":43.3061,"lon":5.37216,"is_reserved":false,"is_disabled":false,"rental_uris":{"android":"levelo://app?vid=a27bdc01-7a70-4910-bcd0-22faaa302ddb","ios":"levelo://app?vid=a27bdc01-7a70-4910-bcd0-22faaa302ddb"},"vehicle_type_id":"4","last_reported":1742933477,"current_range_meters":3200,"station_id":"ce4bgqh2rcd13ifvqc4g","pricing_plan_id":"cebpf4jnsgd1na2vs0mg"},{"bike_id":"e46be815-7a6c-40ef-9480-8114cde7f5e6","system_id":"levelo_inurba_marseille","lat":43.30094,"lon":5.39082,"is_reserved":false,"is_disabled":false,"rental_uris":{"android":"levelo://app?vid=e46be815-7a6c-40ef-9480-8114cde7f5e6","ios":"levelo://app?vid=e46be815-7a6c-40ef-9480-8114cde7f5e6"},"vehicle_type_id":"4","last_reported":1742933477,"current_range_meters":3200,"station_id":"ce4bh192rcd13ifvqdb0","pricing_plan_id":"cebpf4jnsgd1na2vs0mg"},{"bike_id":"cf165fed-bb4c-40af-be73-561a4e304262","system_id":"levelo_inurba_marseille","lat":43.269383,"lon":5.389141,"is_reserved":false,"is_disabled":false,"rental_uris":{"android":"levelo://app?vid=cf165fed-bb4c-40af-be73-561a4e304262","ios":"levelo://app?vid=cf165fed-bb4c-40af-be73-561a4e304262"},"vehicle_type_id":"4","last_reported":1742933477,"current_range_meters":3200,"station_id":"ce4bhhh2rcd13ifvqfl0","pricing_plan_id":"cebpf4jnsgd1na2vs0mg"},{"bike_id":"33a40154-cef0-4338-9e4c-474fb4ca305e","system_id":"levelo_inurba_marseille","lat":43.27122,"lon":5.40852,"is_reserved":false,"is_disabled":false,"rental_uris":{"android":"levelo://app?vid=33a40154-cef0-4338-9e4c-474fb4ca305e","ios":"levelo://app?vid=33a40154-cef0-4338-9e4c-474fb4ca305e"},"vehicle_type_id":"4","last_reported":1742933477,"current_range_meters":3600,"station_id":"","pricing_plan_id":"cebpf4jnsgd1na2vs0mg"},{"bike_id":"5c0d655f-f54b-4169-abf1-c58af98bc308","system_id":"levelo_inurba_marseille","lat":43.286652,"lon":5.386667,"is_reserved":false,"is_disabled":false,"rental_uris":{"android":"levelo://app?vid=5c0d655f-f54b-4169-abf1-c58af98bc308","ios":"levelo://app?vid=5c0d655f-f54b-4169-abf1-c58af98bc308"},"vehicle_type_id":"4","last_reported":1742933477,"current_range_meters":3200,"station_id":"ce4bh492rcd13ifvqdug","pricing_plan_id":"cebpf4jnsgd1na2vs0mg"},{"bike_id":"b4d81f4a-e136-4152-acb8-8f45bf463c05","system_id":"levelo_inurba_marseille","lat":43.30957,"lon":5.39624,"is_reserved":false,"is_disabled":false,"rental_uris":{"android":"levelo://app?vid=b4d81f4a-e136-4152-acb8-8f45bf463c05","ios":"levelo://app?vid=b4d81f4a-e136-4152-acb8-8f45bf463c05"},"vehicle_type_id":"4","last_reported":1742933477,"current_range_meters":3600,"station_id":"","pricing_plan_id":"cebpf4jnsgd1na2vs0mg"},{"bike_id":"0b03def2-dd62-47dc-9406-cbd1eb9dcad8","system_id":"levelo_inurba_marseille","lat":43.27371,"lon":5.36263,"is_reserved":false,"is_disabled":false,"rental_uris":{"android":"levelo://app?vid=0b03def2-dd62-47dc-9406-cbd1eb9dcad8","ios":"levelo://app?vid=0b03def2-dd62-47dc-9406-cbd1eb9dcad8"},"vehicle_type_id":"4","last_reported":1742933477,"current_range_meters":3600,"station_id":"ce4bhbh2rcd13ifvqeo0","pricing_plan_id":"cebpf4jnsgd1na2vs0mg"},{"bike_id":"0570a9a6-b9f0-47d0-bdf1-df039b21914d","system_id":"levelo_inurba_marseille","lat":43.32366,"lon":5.38891,"is_reserved":false,"is_disabled":false,"rental_uris":{"android":"levelo://app?vid=0570a9a6-b9f0-47d0-bdf1-df039b21914d","ios":"levelo://app?vid=0570a9a6-b9f0-47d0-bdf1-df039b21914d"},"vehicle_type_id":"4","last_reported":1742933477,"current_range_meters":3600,"station_id":"ce4bhqp2rcd13ifvqhog","pricing_plan_id":"cebpf4jnsgd1na2vs0mg"},{"bike_id":"7554f0a2-b8a7-45a0-8eca-8075e943c3ae","system_id":"levelo_inurba_marseille","lat":43.31131,"lon":5.37783,"is_reserved":false,"is_disabled":false,"rental_uris":{"android":"levelo://app?vid=7554f0a2-b8a7-45a0-8eca-8075e943c3ae","ios":"levelo://app?vid=7554f0a2-b8a7-45a0-8eca-8075e943c3ae"},"vehicle_type_id":"4","last_reported":1742933477,"current_range_meters":3600,"station_id":"ce4bgt92rcd13ifvqcg0","pricing_plan_id":"cebpf4jnsgd1na2vs0mg"},{"bike_id":"e82df199-f20b-4fdc-89de-c8739f927754","system_id":"levelo_inurba_marseille","lat":43.26037,"lon":5.37561,"is_reserved":false,"is_disabled":false,"rental_uris":{"android":"levelo://app?vid=e82df199-f20b-4fdc-89de-c8739f927754","ios":"levelo://app?vid=e82df199-f20b-4fdc-89de-c8739f927754"},"vehicle_type_id":"4","last_reported":1742933477,"current_range_meters":4000,"station_id":"ce4bhgh2rcd13ifvqfa0","pricing_plan_id":"cebpf4jnsgd1na2vs0mg"},{"bike_id":"10ae1ac3-b460-4f57-82e4-851d6370442b","system_id":"levelo_inurba_marseille","lat":43.29259,"lon":5.37614,"is_reserved":false,"is_disabled":false,"rental_uris":{"android":"levelo://app?vid=10ae1ac3-b460-4f57-82e4-851d6370442b","ios":"levelo://app?vid=10ae1ac3-b460-4f57-82e4-851d6370442b"},"vehicle_type_id":"4","last_reported":1742933477,"current_range_meters":4000,"station_id":"ce4bgi12rcd13ifvqb80","pricing_plan_id":"cebpf4jnsgd1na2vs0mg"},{"bike_id":"bbeb21a4-d6fd-4cdf-9ab5-2e33dcbd6c52","system_id":"levelo_inurba_marseille","lat":43.29896,"lon":5.43677,"is_reserved":false,"is_disabled":false,"rental_uris":{"android":"levelo://app?vid=bbeb21a4-d6fd-4cdf-9ab5-2e33dcbd6c52","ios":"levelo://app?vid=bbeb21a4-d6fd-4cdf-9ab5-2e33dcbd6c52"},"vehicle_type_id":"4","last_reported":1742933477,"current_range_meters":4000,"station_id":"ce4bhpp2rcd13ifvqhfg","pricing_plan_id":"cebpf4jnsgd1na2vs0mg"},{"bike_id":"8637c886-d11d-4904-bfba-856b6aae2576","system_id":"levelo_inurba_marseille","lat":43.28034,"lon":5.369428,"is_reserved":false,"is_disabled":false,"rental_uris":{"android":"levelo://app?vid=8637c886-d11d-4904-bfba-856b6aae2576","ios":"levelo://app?vid=8637c886-d11d-4904-bfba-856b6aae2576"},"vehicle_type_id":"4","last_reported":1742933477,"current_range_meters":4000,"station_id":"ce4bha12rcd13ifvqef0","pricing_plan_id":"cebpf4jnsgd1na2vs0mg"},{"bike_id":"037a9894-1336-4c9c-9c2a-52b652b992c9","system_id":"levelo_inurba_marseille","lat":43.31361,"lon":5.38487,"is_reserved":false,"is_disabled":false,"rental_uris":{"android":"levelo://app?vid=037a9894-1336-4c9c-9c2a-52b652b992c9","ios":"levelo://app?vid=037a9894-1336-4c9c-9c2a-52b652b992c9"},"vehicle_type_id":"4","last_reported":1742933477,"current_range_meters":4000,"station_id":"ce4bgt92rcd13ifvqcf0","pricing_plan_id":"cebpf4jnsgd1na2vs0mg"},{"bike_id":"9ad081dd-accd-4dab-b252-44021c8f1b43","system_id":"levelo_inurba_marseille","lat":43.27373,"lon":5.36252,"is_reserved":false,"is_disabled":false,"rental_uris":{"android":"levelo://app?vid=9ad081dd-accd-4dab-b252-44021c8f1b43","ios":"levelo://app?vid=9ad081dd-accd-4dab-b252-44021c8f1b43"},"vehicle_type_id":"4","last_reported":1742933477,"current_range_meters":4000,"station_id":"ce4bhbh2rcd13ifvqeo0","pricing_plan_id":"cebpf4jnsgd1na2vs0mg"},{"bike_id":"90454063-0d49-4a4f-99cf-e0256012641c","system_id":"levelo_inurba_marseille","lat":43.2963,"lon":5.40593,"is_reserved":false,"is_disabled":false,"rental_uris":{"android":"levelo://app?vid=90454063-0d49-4a4f-99cf-e0256012641c","ios":"levelo://app?vid=90454063-0d49-4a4f-99cf-e0256012641c"},"vehicle_type_id":"4","last_reported":1742933477,"current_range_meters":3600,"station_id":"ce4bh0h2rcd13ifvqd60","pricing_plan_id":"cebpf4jnsgd1na2vs0mg"},{"bike_id":"5c0afacc-e3d9-4363-8f10-2a19150221ac","system_id":"levelo_inurba_marseille","lat":43.29422,"lon":5.37394,"is_reserved":false,"is_disabled":false,"rental_uris":{"android":"levelo://app?vid=5c0afacc-e3d9-4363-8f10-2a19150221ac","ios":"levelo://app?vid=5c0afacc-e3d9-4363-8f10-2a19150221ac"},"vehicle_type_id":"4","last_reported":1742933477,"current_range_meters":4400,"station_id":"","pricing_plan_id":"cebpf4jnsgd1na2vs0mg"},{"bike_id":"0e3f547e-3a1b-4dc9-bffb-99b13a213daa","system_id":"levelo_inurba_marseille","lat":43.30101,"lon":5.39867,"is_reserved":false,"is_disabled":false,"rental_uris":{"android":"levelo://app?vid=0e3f547e-3a1b-4dc9-bffb-99b13a213daa","ios":"levelo://app?vid=0e3f547e-3a1b-4dc9-bffb-99b13a213daa"},"vehicle_type_id":"4","last_reported":1742933477,"current_range_meters":4400,"station_id":"ce4bh0h2rcd13ifvqd40","pricing_plan_id":"cebpf4jnsgd1na2vs0mg"},{"bike_id":"6fc91dcc-3611-4185-a50d-465701074511","system_id":"levelo_inurba_marseille","lat":43.2845,"lon":5.35875,"is_reserved":false,"is_disabled":false,"rental_uris":{"android":"levelo://app?vid=6fc91dcc-3611-4185-a50d-465701074511","ios":"levelo://app?vid=6fc91dcc-3611-4185-a50d-465701074511"},"vehicle_type_id":"4","last_reported":1742933477,"current_range_meters":4400,"station_id":"ce4bhah2rcd13ifvqei0","pricing_plan_id":"cebpf4jnsgd1na2vs0mg"},{"bike_id":"daa724ce-4fa0-4b44-94d9-a797bd595134","system_id":"levelo_inurba_marseille","lat":43.27913,"lon":5.39586,"is_reserved":false,"is_disabled":false,"rental_uris":{"android":"levelo://app?vid=daa724ce-4fa0-4b44-94d9-a797bd595134","ios":"levelo://app?vid=daa724ce-4fa0-4b44-94d9-a797bd595134"},"vehicle_type_id":"4","last_reported":1742933477,"current_range_meters":4400,"station_id":"ce4bhf92rcd13ifvqf40","pricing_plan_id":"cebpf4jnsgd1na2vs0mg"},{"bike_id":"13786813-a89e-4992-a0b0-bca82bda9102","system_id":"levelo_inurba_marseille","lat":43.29272,"lon":5.38437,"is_reserved":false,"is_disabled":false,"rental_uris":{"android":"levelo://app?vid=13786813-a89e-4992-a0b0-bca82bda9102","ios":"levelo://app?vid=13786813-a89e-4992-a0b0-bca82bda9102"},"vehicle_type_id":"4","last_reported":1742933477,"current_range_meters":4800,"station_id":"ce4bh692rcd13ifvqea0","pricing_plan_id":"cebpf4jnsgd1na2vs0mg"},{"bike_id":"1826a70b-7eb4-4fa4-a0ab-5bd418a194c7","system_id":"levelo_inurba_marseille","lat":43.32365,"lon":5.38893,"is_reserved":false,"is_disabled":false,"rental_uris":{"android":"levelo://app?vid=1826a70b-7eb4-4fa4-a0ab-5bd418a194c7","ios":"levelo://app?vid=1826a70b-7eb4-4fa4-a0ab-5bd418a194c7"},"vehicle_type_id":"4","last_reported":1742933477,"current_range_meters":4800,"station_id":"ce4bhqp2rcd13ifvqhog","pricing_plan_id":"cebpf4jnsgd1na2vs0mg"},{"bike_id":"f3b679c5-bf5b-4d5f-a4f4-40436534cfe1","system_id":"levelo_inurba_marseille","lat":43.30328,"lon":5.40446,"is_reserved":false,"is_disabled":false,"rental_uris":{"android":"levelo://app?vid=f3b679c5-bf5b-4d5f-a4f4-40436534cfe1","ios":"levelo://app?vid=f3b679c5-bf5b-4d5f-a4f4-40436534cfe1"},"vehicle_type_id":"4","last_reported":1742933477,"current_range_meters":4800,"station_id":"ce4bh012rcd13ifvqd10","pricing_plan_id":"cebpf4jnsgd1na2vs0mg"},{"bike_id":"4b82f9a6-2f12-42e5-86cc-35d0acf12b8e","system_id":"levelo_inurba_marseille","lat":43.25107,"lon":5.39516,"is_reserved":false,"is_disabled":false,"rental_uris":{"android":"levelo://app?vid=4b82f9a6-2f12-42e5-86cc-35d0acf12b8e","ios":"levelo://app?vid=4b82f9a6-2f12-42e5-86cc-35d0acf12b8e"},"vehicle_type_id":"4","last_reported":1742933477,"current_range_meters":4800,"station_id":"ce4bhm12rcd13ifvqgkg","pricing_plan_id":"cebpf4jnsgd1na2vs0mg"},{"bike_id":"a74cdeab-f896-49a2-9e69-1a408c582e96","system_id":"levelo_inurba_marseille","lat":43.27803,"lon":5.40712,"is_reserved":false,"is_disabled":false,"rental_uris":{"android":"levelo://app?vid=a74cdeab-f896-49a2-9e69-1a408c582e96","ios":"levelo://app?vid=a74cdeab-f896-49a2-9e69-1a408c582e96"},"vehicle_type_id":"4","last_reported":1742933477,"current_range_meters":4800,"station_id":"ce4bhnh2rcd13ifvqgtg","pricing_plan_id":"cebpf4jnsgd1na2vs0mg"},{"bike_id":"cf30ba2d-9dd5-4d8d-b3a7-9af496f3ef85","system_id":"levelo_inurba_marseille","lat":43.289226,"lon":5.381897,"is_reserved":false,"is_disabled":false,"rental_uris":{"android":"levelo://app?vid=cf30ba2d-9dd5-4d8d-b3a7-9af496f3ef85","ios":"levelo://app?vid=cf30ba2d-9dd5-4d8d-b3a7-9af496f3ef85"},"vehicle_type_id":"4","last_reported":1742933477,"current_range_meters":4800,"station_id":"ce4bh4p2rcd13ifvqe1g","pricing_plan_id":"cebpf4jnsgd1na2vs0mg"},{"bike_id":"a8dd8374-f5f6-4866-8f7b-a6932a6872fb","system_id":"levelo_inurba_marseille","lat":43.30323,"lon":5.40433,"is_reserved":false,"is_disabled":false,"rental_uris":{"android":"levelo://app?vid=a8dd8374-f5f6-4866-8f7b-a6932a6872fb","ios":"levelo://app?vid=a8dd8374-f5f6-4866-8f7b-a6932a6872fb"},"vehicle_type_id":"4","last_reported":1742933477,"current_range_meters":4800,"station_id":"ce4bh012rcd13ifvqd10","pricing_plan_id":"cebpf4jnsgd1na2vs0mg"},{"bike_id":"d5a95a71-bdcf-4c76-90bb-f92bfc4a3cc3","system_id":"levelo_inurba_marseille","lat":43.21895,"lon":5.41965,"is_reserved":false,"is_disabled":false,"rental_uris":{"android":"levelo://app?vid=d5a95a71-bdcf-4c76-90bb-f92bfc4a3cc3","ios":"levelo://app?vid=d5a95a71-bdcf-4c76-90bb-f92bfc4a3cc3"},"vehicle_type_id":"4","last_reported":1742933477,"current_range_meters":4800,"station_id":"","pricing_plan_id":"cebpf4jnsgd1na2vs0mg"},{"bike_id":"943904f8-2ace-4be5-a19f-887b0bd689e8","system_id":"levelo_inurba_marseille","lat":43.29902,"lon":5.43671,"is_reserved":false,"is_disabled":false,"rental_uris":{"android":"levelo://app?vid=943904f8-2ace-4be5-a19f-887b0bd689e8","ios":"levelo://app?vid=943904f8-2ace-4be5-a19f-887b0bd689e8"},"vehicle_type_id":"4","last_reported":1742933477,"current_range_meters":4800,"station_id":"ce4bhpp2rcd13ifvqhfg","pricing_plan_id":"cebpf4jnsgd1na2vs0mg"},{"bike_id":"655a95ab-eca4-4fb8-a58d-b352814de455","system_id":"levelo_inurba_marseille","lat":43.29875,"lon":5.38919,"is_reserved":false,"is_disabled":false,"rental_uris":{"android":"levelo://app?vid=655a95ab-eca4-4fb8-a58d-b352814de455","ios":"levelo://app?vid=655a95ab-eca4-4fb8-a58d-b352814de455"},"vehicle_type_id":"4","last_reported":1742933477,"current_range_meters":4800,"station_id":"ce4bh392rcd13ifvqdl0","pricing_plan_id":"cebpf4jnsgd1na2vs0mg"},{"bike_id":"5eb0e2f0-8111-4362-8b3d-f072323b11aa","system_id":"levelo_inurba_marseille","lat":43.28614,"lon":5.37058,"is_reserved":false,"is_disabled":false,"rental_uris":{"android":"levelo://app?vid=5eb0e2f0-8111-4362-8b3d-f072323b11aa","ios":"levelo://app?vid=5eb0e2f0-8111-4362-8b3d-f072323b11aa"},"vehicle_type_id":"4","last_reported":1742933477,"current_range_meters":5600,"station_id":"ce4bht12rcd13ifvqi60","pricing_plan_id":"cebpf4jnsgd1na2vs0mg"},{"bike_id":"75869239-4097-422e-a978-9c6082dfa7dd","system_id":"levelo_inurba_marseille","lat":43.246599,"lon":5.381701,"is_reserved":false,"is_disabled":true,"rental_uris":{"android":"levelo://app?vid=75869239-4097-422e-a978-9c6082dfa7dd","ios":"levelo://app?vid=75869239-4097-422e-a978-9c6082dfa7dd"},"vehicle_type_id":"4","last_reported":1742933477,"current_range_meters":4800,"station_id":"ce4bhih2rcd13ifvqfr0","pricing_plan_id":"cebpf4jnsgd1na2vs0mg"},{"bike_id":"275dd732-3e7e-4d2b-8b11-a396ae8122d0","system_id":"levelo_inurba_marseille","lat":43.31701,"lon":5.43708,"is_reserved":false,"is_disabled":false,"rental_uris":{"android":"levelo://app?vid=275dd732-3e7e-4d2b-8b11-a396ae8122d0","ios":"levelo://app?vid=275dd732-3e7e-4d2b-8b11-a396ae8122d0"},"vehicle_type_id":"4","last_reported":1742933477,"current_range_meters":5600,"station_id":"ce4bhp92rcd13ifvqhcg","pricing_plan_id":"cebpf4jnsgd1na2vs0mg"},{"bike_id":"8552d831-a1aa-4c41-b1cf-41a2db1c247f","system_id":"levelo_inurba_marseille","lat":43.29527,"lon":5.38537,"is_reserved":false,"is_disabled":false,"rental_uris":{"android":"levelo://app?vid=8552d831-a1aa-4c41-b1cf-41a2db1c247f","ios":"levelo://app?vid=8552d831-a1aa-4c41-b1cf-41a2db1c247f"},"vehicle_type_id":"4","last_reported":1742933477,"current_range_meters":5600,"station_id":"ce4bgih2rcd13ifvqba0","pricing_plan_id":"cebpf4jnsgd1na2vs0mg"},{"bike_id":"ee8553ac-389d-40dc-8ff4-f6e1917ae579","system_id":"levelo_inurba_marseille","lat":43.27801,"lon":5.40725,"is_reserved":false,"is_disabled":false,"rental_uris":{"android":"levelo://app?vid=ee8553ac-389d-40dc-8ff4-f6e1917ae579","ios":"levelo://app?vid=ee8553ac-389d-40dc-8ff4-f6e1917ae579"},"vehicle_type_id":"4","last_reported":1742933477,"current_range_meters":5600,"station_id":"ce4bhnh2rcd13ifvqgtg","pricing_plan_id":"cebpf4jnsgd1na2vs0mg"},{"bike_id":"78855946-f1ec-4dd3-b1cb-78a4f8659240","system_id":"levelo_inurba_marseille","lat":43.29502,"lon":5.39032,"is_reserved":false,"is_disabled":true,"rental_uris":{"android":"levelo://app?vid=78855946-f1ec-4dd3-b1cb-78a4f8659240","ios":"levelo://app?vid=78855946-f1ec-4dd3-b1cb-78a4f8659240"},"vehicle_type_id":"4","last_reported":1742933477,"current_range_meters":5600,"station_id":"ce4bh3p2rcd13ifvqdp0","pricing_plan_id":"cebpf4jnsgd1na2vs0mg"},{"bike_id":"86c24361-5fab-4dea-a92e-d7ecae070174","system_id":"levelo_inurba_marseille","lat":43.27998,"lon":5.41667,"is_reserved":false,"is_disabled":false,"rental_uris":{"android":"levelo://app?vid=86c24361-5fab-4dea-a92e-d7ecae070174","ios":"levelo://app?vid=86c24361-5fab-4dea-a92e-d7ecae070174"},"vehicle_type_id":"4","last_reported":1742933477,"current_range_meters":5600,"station_id":"ce4bho12rcd13ifvqh1g","pricing_plan_id":"cebpf4jnsgd1na2vs0mg"},{"bike_id":"69cae312-ca8c-4ddf-a945-cb9acdf08ab6","system_id":"levelo_inurba_marseille","lat":43.28436,"lon":5.39193,"is_reserved":false,"is_disabled":false,"rental_uris":{"android":"levelo://app?vid=69cae312-ca8c-4ddf-a945-cb9acdf08ab6","ios":"levelo://app?vid=69cae312-ca8c-4ddf-a945-cb9acdf08ab6"},"vehicle_type_id":"4","last_reported":1742933477,"current_range_meters":5600,"station_id":"ce4bhoh2rcd13ifvqh5g","pricing_plan_id":"cebpf4jnsgd1na2vs0mg"},{"bike_id":"e4ea63b5-aa58-441c-9fb8-1c0ca03a99e5","system_id":"levelo_inurba_marseille","lat":43.30423,"lon":5.41297,"is_reserved":false,"is_disabled":false,"rental_uris":{"android":"levelo://app?vid=e4ea63b5-aa58-441c-9fb8-1c0ca03a99e5","ios":"levelo://app?vid=e4ea63b5-aa58-441c-9fb8-1c0ca03a99e5"},"vehicle_type_id":"4","last_reported":1742933477,"current_range_meters":5600,"station_id":"ce4bhop2rcd13ifvqh8g","pricing_plan_id":"cebpf4jnsgd1na2vs0mg"},{"bike_id":"e839169f-1178-45b5-8b7c-f773757dad6f","system_id":"levelo_inurba_marseille","lat":43.31484,"lon":5.37316,"is_reserved":false,"is_disabled":false,"rental_uris":{"android":"levelo://app?vid=e839169f-1178-45b5-8b7c-f773757dad6f","ios":"levelo://app?vid=e839169f-1178-45b5-8b7c-f773757dad6f"},"vehicle_type_id":"4","last_reported":1742933477,"current_range_meters":5600,"station_id":"ce4bgt12rcd13ifvqcd0","pricing_plan_id":"cebpf4jnsgd1na2vs0mg"},{"bike_id":"9b3df4af-6091-4feb-b2d9-618f1a0a9915","system_id":"levelo_inurba_marseille","lat":43.23198,"lon":5.35546,"is_reserved":false,"is_disabled":false,"rental_uris":{"android":"levelo://app?vid=9b3df4af-6091-4feb-b2d9-618f1a0a9915","ios":"levelo://app?vid=9b3df4af-6091-4feb-b2d9-618f1a0a9915"},"vehicle_type_id":"4","last_reported":1742933477,"current_range_meters":5600,"station_id":"ce4bhu92rcd13ifvqi70","pricing_plan_id":"cebpf4jnsgd1na2vs0mg"},{"bike_id":"88e78937-b8f6-4eb4-8385-91b44e80a13b","system_id":"levelo_inurba_marseille","lat":43.27814,"lon":5.40696,"is_reserved":false,"is_disabled":false,"rental_uris":{"android":"levelo://app?vid=88e78937-b8f6-4eb4-8385-91b44e80a13b","ios":"levelo://app?vid=88e78937-b8f6-4eb4-8385-91b44e80a13b"},"vehicle_type_id":"4","last_reported":1742933477,"current_range_meters":5600,"station_id":"ce4bhnh2rcd13ifvqgtg","pricing_plan_id":"cebpf4jnsgd1na2vs0mg"},{"bike_id":"338bd5b1-dd44-4950-8155-53304fb839e2","system_id":"levelo_inurba_marseille","lat":43.29538,"lon":5.38542,"is_reserved":false,"is_disabled":false,"rental_uris":{"android":"levelo://app?vid=338bd5b1-dd44-4950-8155-53304fb839e2","ios":"levelo://app?vid=338bd5b1-dd44-4950-8155-53304fb839e2"},"vehicle_type_id":"4","last_reported":1742933477,"current_range_meters":4800,"station_id":"ce4bgih2rcd13ifvqba0","pricing_plan_id":"cebpf4jnsgd1na2vs0mg"},{"bike_id":"6b074c37-af33-4043-b717-87eddb223e96","system_id":"levelo_inurba_marseille","lat":43.2971,"lon":5.36605,"is_reserved":false,"is_disabled":false,"rental_uris":{"android":"levelo://app?vid=6b074c37-af33-4043-b717-87eddb223e96","ios":"levelo://app?vid=6b074c37-af33-4043-b717-87eddb223e96"},"vehicle_type_id":"4","last_reported":1742933477,"current_range_meters":6000,"station_id":"ce4bgn12rcd13ifvqbt0","pricing_plan_id":"cebpf4jnsgd1na2vs0mg"},{"bike_id":"1cdb5e5f-6bda-4e07-b645-0554ed59cc39","system_id":"levelo_inurba_marseille","lat":43.25832,"lon":5.39428,"is_reserved":false,"is_disabled":false,"rental_uris":{"android":"levelo://app?vid=1cdb5e5f-6bda-4e07-b645-0554ed59cc39","ios":"levelo://app?vid=1cdb5e5f-6bda-4e07-b645-0554ed59cc39"},"vehicle_type_id":"4","last_reported":1742933477,"current_range_meters":6000,"station_id":"ce4bhip2rcd13ifvqft0","pricing_plan_id":"cebpf4jnsgd1na2vs0mg"},{"bike_id":"f3e9c38b-19ee-499b-b5ec-41c8220855f8","system_id":"levelo_inurba_marseille","lat":43.2991,"lon":5.38139,"is_reserved":false,"is_disabled":false,"rental_uris":{"android":"levelo://app?vid=f3e9c38b-19ee-499b-b5ec-41c8220855f8","ios":"levelo://app?vid=f3e9c38b-19ee-499b-b5ec-41c8220855f8"},"vehicle_type_id":"4","last_reported":1742933477,"current_range_meters":6000,"station_id":"ce4bgj12rcd13ifvqbc0","pricing_plan_id":"cebpf4jnsgd1na2vs0mg"},{"bike_id":"f231fce1-4e45-4e91-9f3a-d048500c7ded","system_id":"levelo_inurba_marseille","lat":43.30883,"lon":5.3965,"is_reserved":false,"is_disabled":false,"rental_uris":{"android":"levelo://app?vid=f231fce1-4e45-4e91-9f3a-d048500c7ded","ios":"levelo://app?vid=f231fce1-4e45-4e91-9f3a-d048500c7ded"},"vehicle_type_id":"4","last_reported":1742933477,"current_range_meters":6000,"station_id":"ce4bh012rcd13ifvqcv0","pricing_plan_id":"cebpf4jnsgd1na2vs0mg"},{"bike_id":"fc34a979-20a3-46ff-9260-1a4e3170416f","system_id":"levelo_inurba_marseille","lat":43.29814,"lon":5.38071,"is_reserved":false,"is_disabled":false,"rental_uris":{"android":"levelo://app?vid=fc34a979-20a3-46ff-9260-1a4e3170416f","ios":"levelo://app?vid=fc34a979-20a3-46ff-9260-1a4e3170416f"},"vehicle_type_id":"4","last_reported":1742933477,"current_range_meters":6000,"station_id":"ce4bgip2rcd13ifvqbb0","pricing_plan_id":"cebpf4jnsgd1na2vs0mg"},{"bike_id":"603973da-6bfd-472a-b5d0-a60f83fc1b4d","system_id":"levelo_inurba_marseille","lat":43.27996,"lon":5.4002,"is_reserved":false,"is_disabled":false,"rental_uris":{"android":"levelo://app?vid=603973da-6bfd-472a-b5d0-a60f83fc1b4d","ios":"levelo://app?vid=603973da-6bfd-472a-b5d0-a60f83fc1b4d"},"vehicle_type_id":"4","last_reported":1742933477,"current_range_meters":6000,"station_id":"ce4bho92rcd13ifvqh4g","pricing_plan_id":"cebpf4jnsgd1na2vs0mg"},{"bike_id":"ecb42ffe-a31e-4210-9fcc-a29d223e03d4","system_id":"levelo_inurba_marseille","lat":43.23194,"lon":5.35546,"is_reserved":false,"is_disabled":false,"rental_uris":{"android":"levelo://app?vid=ecb42ffe-a31e-4210-9fcc-a29d223e03d4","ios":"levelo://app?vid=ecb42ffe-a31e-4210-9fcc-a29d223e03d4"},"vehicle_type_id":"4","last_reported":1742933477,"current_range_meters":6400,"station_id":"ce4bhu92rcd13ifvqi70","pricing_plan_id":"cebpf4jnsgd1na2vs0mg"},{"bike_id":"0799628e-ae5e-4352-9b49-dc5e016977f0","system_id":"levelo_inurba_marseille","lat":43.275585,"lon":5.384275,"is_reserved":false,"is_disabled":false,"rental_uris":{"android":"levelo://app?vid=0799628e-ae5e-4352-9b49-dc5e016977f0","ios":"levelo://app?vid=0799628e-ae5e-4352-9b49-dc5e016977f0"},"vehicle_type_id":"4","last_reported":1742933477,"current_range_meters":6400,"station_id":"ce4bhh92rcd13ifvqfi0","pricing_plan_id":"cebpf4jnsgd1na2vs0mg"},{"bike_id":"a5516228-2c65-4ab1-8174-cbfa24336356","system_id":"levelo_inurba_marseille","lat":43.2816,"lon":5.42651,"is_reserved":false,"is_disabled":false,"rental_uris":{"android":"levelo://app?vid=a5516228-2c65-4ab1-8174-cbfa24336356","ios":"levelo://app?vid=a5516228-2c65-4ab1-8174-cbfa24336356"},"vehicle_type_id":"4","last_reported":1742933477,"current_range_meters":6400,"station_id":"ce4bhnh2rcd13ifvqgug","pricing_plan_id":"cebpf4jnsgd1na2vs0mg"},{"bike_id":"155ce398-2174-4900-bc69-0e43937561c5","system_id":"levelo_inurba_marseille","lat":43.28276,"lon":5.35085,"is_reserved":false,"is_disabled":false,"rental_uris":{"android":"levelo://app?vid=155ce398-2174-4900-bc69-0e43937561c5","ios":"levelo://app?vid=155ce398-2174-4900-bc69-0e43937561c5"},"vehicle_type_id":"4","last_reported":1742933477,"current_range_meters":6400,"station_id":"ce4bhbp2rcd13ifvqerg","pricing_plan_id":"cebpf4jnsgd1na2vs0mg"},{"bike_id":"40c9879f-9142-4245-a7bc-60f5721fd202","system_id":"levelo_inurba_marseille","lat":43.25715,"lon":5.41114,"is_reserved":false,"is_disabled":false,"rental_uris":{"android":"levelo://app?vid=40c9879f-9142-4245-a7bc-60f5721fd202","ios":"levelo://app?vid=40c9879f-9142-4245-a7bc-60f5721fd202"},"vehicle_type_id":"4","last_reported":1742933477,"current_range_meters":6400,"station_id":"ce4bhkp2rcd13ifvqgd0","pricing_plan_id":"cebpf4jnsgd1na2vs0mg"},{"bike_id":"fdf90970-f56a-41b8-8622-b4caf4a5172a","system_id":"levelo_inurba_marseille","lat":43.30888,"lon":5.39663,"is_reserved":false,"is_disabled":false,"rental_uris":{"android":"levelo://app?vid=fdf90970-f56a-41b8-8622-b4caf4a5172a","ios":"levelo://app?vid=fdf90970-f56a-41b8-8622-b4caf4a5172a"},"vehicle_type_id":"4","last_reported":1742933477,"current_range_meters":6400,"station_id":"ce4bh012rcd13ifvqcv0","pricing_plan_id":"cebpf4jnsgd1na2vs0mg"},{"bike_id":"3513a6f0-dbc9-4f37-8b52-79603521c288","system_id":"levelo_inurba_marseille","lat":43.23085,"lon":5.35487,"is_reserved":false,"is_disabled":false,"rental_uris":{"android":"levelo://app?vid=3513a6f0-dbc9-4f37-8b52-79603521c288","ios":"levelo://app?vid=3513a6f0-dbc9-4f37-8b52-79603521c288"},"vehicle_type_id":"4","last_reported":1742933477,"current_range_meters":6400,"station_id":"cpo3342slgdg3j2ifvpg","pricing_plan_id":"cebpf4jnsgd1na2vs0mg"},{"bike_id":"04f5cf0b-110d-4f66-ad45-f8cf5dba930c","system_id":"levelo_inurba_marseille","lat":43.30882,"lon":5.39636,"is_reserved":false,"is_disabled":false,"rental_uris":{"android":"levelo://app?vid=04f5cf0b-110d-4f66-ad45-f8cf5dba930c","ios":"levelo://app?vid=04f5cf0b-110d-4f66-ad45-f8cf5dba930c"},"vehicle_type_id":"4","last_reported":1742933477,"current_range_meters":6400,"station_id":"ce4bh012rcd13ifvqcv0","pricing_plan_id":"cebpf4jnsgd1na2vs0mg"},{"bike_id":"782fb27f-b0f1-443c-a38a-53e143c3228c","system_id":"levelo_inurba_marseille","lat":43.2941,"lon":5.38624,"is_reserved":false,"is_disabled":false,"rental_uris":{"android":"levelo://app?vid=782fb27f-b0f1-443c-a38a-53e143c3228c","ios":"levelo://app?vid=782fb27f-b0f1-443c-a38a-53e143c3228c"},"vehicle_type_id":"4","last_reported":1742933477,"current_range_meters":6400,"station_id":"ce4bh2h2rcd13ifvqdh0","pricing_plan_id":"cebpf4jnsgd1na2vs0mg"},{"bike_id":"57786e18-c24c-40d9-a822-ba617b9902ea","system_id":"levelo_inurba_marseille","lat":43.30309,"lon":5.39211,"is_reserved":false,"is_disabled":false,"rental_uris":{"android":"levelo://app?vid=57786e18-c24c-40d9-a822-ba617b9902ea","ios":"levelo://app?vid=57786e18-c24c-40d9-a822-ba617b9902ea"},"vehicle_type_id":"4","last_reported":1742933477,"current_range_meters":6400,"station_id":"ce4bgkh2rcd13ifvqbk0","pricing_plan_id":"cebpf4jnsgd1na2vs0mg"},{"bike_id":"98e6b643-9e79-4281-82fc-1dd90b5c1256","system_id":"levelo_inurba_marseille","lat":43.28682,"lon":5.38661,"is_reserved":false,"is_disabled":false,"rental_uris":{"android":"levelo://app?vid=98e6b643-9e79-4281-82fc-1dd90b5c1256","ios":"levelo://app?vid=98e6b643-9e79-4281-82fc-1dd90b5c1256"},"vehicle_type_id":"4","last_reported":1742933477,"current_range_meters":6800,"station_id":"ce4bh492rcd13ifvqdug","pricing_plan_id":"cebpf4jnsgd1na2vs0mg"},{"bike_id":"fbeeeef1-bfc7-4294-a0dd-3418d265d8e6","system_id":"levelo_inurba_marseille","lat":43.301,"lon":5.39079,"is_reserved":false,"is_disabled":false,"rental_uris":{"android":"levelo://app?vid=fbeeeef1-bfc7-4294-a0dd-3418d265d8e6","ios":"levelo://app?vid=fbeeeef1-bfc7-4294-a0dd-3418d265d8e6"},"vehicle_type_id":"4","last_reported":1742933477,"current_range_meters":6800,"station_id":"ce4bh192rcd13ifvqdb0","pricing_plan_id":"cebpf4jnsgd1na2vs0mg"},{"bike_id":"5eb00e60-b5d9-4a65-9bba-344db36c1e04","system_id":"levelo_inurba_marseille","lat":43.25827,"lon":5.39422,"is_reserved":false,"is_disabled":false,"rental_uris":{"android":"levelo://app?vid=5eb00e60-b5d9-4a65-9bba-344db36c1e04","ios":"levelo://app?vid=5eb00e60-b5d9-4a65-9bba-344db36c1e04"},"vehicle_type_id":"4","last_reported":1742933477,"current_range_meters":6800,"station_id":"ce4bhip2rcd13ifvqft0","pricing_plan_id":"cebpf4jnsgd1na2vs0mg"},{"bike_id":"535977d6-e8dc-4412-a863-e3817456f733","system_id":"levelo_inurba_marseille","lat":43.286041,"lon":5.385002,"is_reserved":false,"is_disabled":false,"rental_uris":{"android":"levelo://app?vid=535977d6-e8dc-4412-a863-e3817456f733","ios":"levelo://app?vid=535977d6-e8dc-4412-a863-e3817456f733"},"vehicle_type_id":"4","last_reported":1742933477,"current_range_meters":6800,"station_id":"ce4bh8p2rcd13ifvqeb0","pricing_plan_id":"cebpf4jnsgd1na2vs0mg"},{"bike_id":"b378f285-ebb5-4da2-bb30-295e2b092abd","system_id":"levelo_inurba_marseille","lat":43.31277,"lon":5.40167,"is_reserved":false,"is_disabled":false,"rental_uris":{"android":"levelo://app?vid=b378f285-ebb5-4da2-bb30-295e2b092abd","ios":"levelo://app?vid=b378f285-ebb5-4da2-bb30-295e2b092abd"},"vehicle_type_id":"4","last_reported":1742933477,"current_range_meters":6800,"station_id":"ce4bh092rcd13ifvqd30","pricing_plan_id":"cebpf4jnsgd1na2vs0mg"},{"bike_id":"5adaf5b4-d9f7-4d57-a355-7701dec07eb6","system_id":"levelo_inurba_marseille","lat":43.2942,"lon":5.38631,"is_reserved":false,"is_disabled":false,"rental_uris":{"android":"levelo://app?vid=5adaf5b4-d9f7-4d57-a355-7701dec07eb6","ios":"levelo://app?vid=5adaf5b4-d9f7-4d57-a355-7701dec07eb6"},"vehicle_type_id":"4","last_reported":1742933477,"current_range_meters":6800,"station_id":"ce4bh2h2rcd13ifvqdh0","pricing_plan_id":"cebpf4jnsgd1na2vs0mg"},{"bike_id":"ddf6cb6f-e318-4ef7-9a4d-5581365f4cae","system_id":"levelo_inurba_marseille","lat":43.28036,"lon":5.36943,"is_reserved":false,"is_disabled":false,"rental_uris":{"android":"levelo://app?vid=ddf6cb6f-e318-4ef7-9a4d-5581365f4cae","ios":"levelo://app?vid=ddf6cb6f-e318-4ef7-9a4d-5581365f4cae"},"vehicle_type_id":"4","last_reported":1742933477,"current_range_meters":7200,"station_id":"ce4bha12rcd13ifvqef0","pricing_plan_id":"cebpf4jnsgd1na2vs0mg"},{"bike_id":"5ebe5120-74f7-4178-9974-c52090176f15","system_id":"levelo_inurba_marseille","lat":43.28161,"lon":5.42637,"is_reserved":false,"is_disabled":false,"rental_uris":{"android":"levelo://app?vid=5ebe5120-74f7-4178-9974-c52090176f15","ios":"levelo://app?vid=5ebe5120-74f7-4178-9974-c52090176f15"},"vehicle_type_id":"4","last_reported":1742933477,"current_range_meters":7200,"station_id":"ce4bhnh2rcd13ifvqgug","pricing_plan_id":"cebpf4jnsgd1na2vs0mg"},{"bike_id":"c28932a0-1d46-4fdf-8a30-865c10785be7","system_id":"levelo_inurba_marseille","lat":43.2842,"lon":5.37533,"is_reserved":false,"is_disabled":false,"rental_uris":{"android":"levelo://app?vid=c28932a0-1d46-4fdf-8a30-865c10785be7","ios":"levelo://app?vid=c28932a0-1d46-4fdf-8a30-865c10785be7"},"vehicle_type_id":"4","last_reported":1742933477,"current_range_meters":7200,"station_id":"ce4bh412rcd13ifvqds0","pricing_plan_id":"cebpf4jnsgd1na2vs0mg"},{"bike_id":"9e1900ad-e046-4f32-a94e-e5e6f986be4d","system_id":"levelo_inurba_marseille","lat":43.24824,"lon":5.37453,"is_reserved":false,"is_disabled":false,"rental_uris":{"android":"levelo://app?vid=9e1900ad-e046-4f32-a94e-e5e6f986be4d","ios":"levelo://app?vid=9e1900ad-e046-4f32-a94e-e5e6f986be4d"},"vehicle_type_id":"4","last_reported":1742933477,"current_range_meters":7200,"station_id":"ce4bhgh2rcd13ifvqfb0","pricing_plan_id":"cebpf4jnsgd1na2vs0mg"},{"bike_id":"7dd5e58f-a9fa-43c4-a328-accf44f1ba8f","system_id":"levelo_inurba_marseille","lat":43.29575,"lon":5.37488,"is_reserved":false,"is_disabled":false,"rental_uris":{"android":"levelo://app?vid=7dd5e58f-a9fa-43c4-a328-accf44f1ba8f","ios":"levelo://app?vid=7dd5e58f-a9fa-43c4-a328-accf44f1ba8f"},"vehicle_type_id":"4","last_reported":1742933477,"current_range_meters":7200,"station_id":"ce4bgh92rcd13ifvqb50","pricing_plan_id":"cebpf4jnsgd1na2vs0mg"},{"bike_id":"4e4b00f1-770b-4273-9841-0124a825615a","system_id":"levelo_inurba_marseille","lat":43.28103,"lon":5.37839,"is_reserved":false,"is_disabled":false,"rental_uris":{"android":"levelo://app?vid=4e4b00f1-770b-4273-9841-0124a825615a","ios":"levelo://app?vid=4e4b00f1-770b-4273-9841-0124a825615a"},"vehicle_type_id":"4","last_reported":1742933477,"current_range_meters":7200,"station_id":"ce4bha12rcd13ifvqee0","pricing_plan_id":"cebpf4jnsgd1na2vs0mg"},{"bike_id":"c88a216c-dc96-4fc3-b56f-d056b7fae7cb","system_id":"levelo_inurba_marseille","lat":43.2319,"lon":5.35567,"is_reserved":false,"is_disabled":false,"rental_uris":{"android":"levelo://app?vid=c88a216c-dc96-4fc3-b56f-d056b7fae7cb","ios":"levelo://app?vid=c88a216c-dc96-4fc3-b56f-d056b7fae7cb"},"vehicle_type_id":"4","last_reported":1742933477,"current_range_meters":7200,"station_id":"ce4bhu92rcd13ifvqi70","pricing_plan_id":"cebpf4jnsgd1na2vs0mg"},{"bike_id":"e3e58b7d-a745-42d7-bf54-3a94925681f1","system_id":"levelo_inurba_marseille","lat":43.232,"lon":5.35552,"is_reserved":false,"is_disabled":false,"rental_uris":{"android":"levelo://app?vid=e3e58b7d-a745-42d7-bf54-3a94925681f1","ios":"levelo://app?vid=e3e58b7d-a745-42d7-bf54-3a94925681f1"},"vehicle_type_id":"4","last_reported":1742933477,"current_range_meters":7200,"station_id":"ce4bhu92rcd13ifvqi70","pricing_plan_id":"cebpf4jnsgd1na2vs0mg"},{"bike_id":"e06fd3a0-02a6-413f-81de-817b7da619bd","system_id":"levelo_inurba_marseille","lat":43.31281,"lon":5.40168,"is_reserved":false,"is_disabled":false,"rental_uris":{"android":"levelo://app?vid=e06fd3a0-02a6-413f-81de-817b7da619bd","ios":"levelo://app?vid=e06fd3a0-02a6-413f-81de-817b7da619bd"},"vehicle_type_id":"4","last_reported":1742933477,"current_range_meters":7200,"station_id":"ce4bh092rcd13ifvqd30","pricing_plan_id":"cebpf4jnsgd1na2vs0mg"},{"bike_id":"63e8dafc-3749-4a42-ab44-2e79325ba0f1","system_id":"levelo_inurba_marseille","lat":43.2508,"lon":5.39531,"is_reserved":false,"is_disabled":false,"rental_uris":{"android":"levelo://app?vid=63e8dafc-3749-4a42-ab44-2e79325ba0f1","ios":"levelo://app?vid=63e8dafc-3749-4a42-ab44-2e79325ba0f1"},"vehicle_type_id":"4","last_reported":1742933477,"current_range_meters":7200,"station_id":"ce4bhm12rcd13ifvqgkg","pricing_plan_id":"cebpf4jnsgd1na2vs0mg"},{"bike_id":"17e90981-4051-4909-bd6e-732dd88eb98c","system_id":"levelo_inurba_marseille","lat":43.30929,"lon":5.40155,"is_reserved":false,"is_disabled":false,"rental_uris":{"android":"levelo://app?vid=17e90981-4051-4909-bd6e-732dd88eb98c","ios":"levelo://app?vid=17e90981-4051-4909-bd6e-732dd88eb98c"},"vehicle_type_id":"4","last_reported":1742933477,"current_range_meters":7200,"station_id":"ce4bgvp2rcd13ifvqct0","pricing_plan_id":"cebpf4jnsgd1na2vs0mg"},{"bike_id":"bc5ee50c-0ee0-4b06-9aa0-2ff083787a62","system_id":"levelo_inurba_marseille","lat":43.317,"lon":5.43697,"is_reserved":false,"is_disabled":false,"rental_uris":{"android":"levelo://app?vid=bc5ee50c-0ee0-4b06-9aa0-2ff083787a62","ios":"levelo://app?vid=bc5ee50c-0ee0-4b06-9aa0-2ff083787a62"},"vehicle_type_id":"4","last_reported":1742933477,"current_range_meters":7200,"station_id":"ce4bhp92rcd13ifvqhcg","pricing_plan_id":"cebpf4jnsgd1na2vs0mg"},{"bike_id":"38e476a3-7fa7-42ff-bc10-2fcb40220abd","system_id":"levelo_inurba_marseille","lat":43.23191,"lon":5.35541,"is_reserved":false,"is_disabled":false,"rental_uris":{"android":"levelo://app?vid=38e476a3-7fa7-42ff-bc10-2fcb40220abd","ios":"levelo://app?vid=38e476a3-7fa7-42ff-bc10-2fcb40220abd"},"vehicle_type_id":"4","last_reported":1742933477,"current_range_meters":7200,"station_id":"ce4bhu92rcd13ifvqi70","pricing_plan_id":"cebpf4jnsgd1na2vs0mg"},{"bike_id":"232170bd-39f4-44b1-8888-d77bca3234b0","system_id":"levelo_inurba_marseille","lat":43.25822,"lon":5.39432,"is_reserved":false,"is_disabled":false,"rental_uris":{"android":"levelo://app?vid=232170bd-39f4-44b1-8888-d77bca3234b0","ios":"levelo://app?vid=232170bd-39f4-44b1-8888-d77bca3234b0"},"vehicle_type_id":"4","last_reported":1742933477,"current_range_meters":8000,"station_id":"ce4bhip2rcd13ifvqft0","pricing_plan_id":"cebpf4jnsgd1na2vs0mg"},{"bike_id":"2a00e69f-e8f0-4293-a71f-9f6c011d4f23","system_id":"levelo_inurba_marseille","lat":43.25019,"lon":5.38915,"is_reserved":false,"is_disabled":false,"rental_uris":{"android":"levelo://app?vid=2a00e69f-e8f0-4293-a71f-9f6c011d4f23","ios":"levelo://app?vid=2a00e69f-e8f0-4293-a71f-9f6c011d4f23"},"vehicle_type_id":"4","last_reported":1742933477,"current_range_meters":8000,"station_id":"ce4bhgp2rcd13ifvqfd0","pricing_plan_id":"cebpf4jnsgd1na2vs0mg"},{"bike_id":"497957ac-f634-47bb-825f-bbffb781347d","system_id":"levelo_inurba_marseille","lat":43.30885,"lon":5.39639,"is_reserved":false,"is_disabled":false,"rental_uris":{"android":"levelo://app?vid=497957ac-f634-47bb-825f-bbffb781347d","ios":"levelo://app?vid=497957ac-f634-47bb-825f-bbffb781347d"},"vehicle_type_id":"4","last_reported":1742933477,"current_range_meters":8000,"station_id":"ce4bh012rcd13ifvqcv0","pricing_plan_id":"cebpf4jnsgd1na2vs0mg"},{"bike_id":"a0d4632a-7a87-4031-aeeb-061ca0feaca6","system_id":"levelo_inurba_marseille","lat":43.23955,"lon":5.36643,"is_reserved":false,"is_disabled":false,"rental_uris":{"android":"levelo://app?vid=a0d4632a-7a87-4031-aeeb-061ca0feaca6","ios":"levelo://app?vid=a0d4632a-7a87-4031-aeeb-061ca0feaca6"},"vehicle_type_id":"4","last_reported":1742933477,"current_range_meters":8000,"station_id":"ce4bhi12rcd13ifvqfp0","pricing_plan_id":"cebpf4jnsgd1na2vs0mg"},{"bike_id":"e3af0f2d-a58e-4f40-9168-1e359cbcea17","system_id":"levelo_inurba_marseille","lat":43.27804,"lon":5.40741,"is_reserved":false,"is_disabled":false,"rental_uris":{"android":"levelo://app?vid=e3af0f2d-a58e-4f40-9168-1e359cbcea17","ios":"levelo://app?vid=e3af0f2d-a58e-4f40-9168-1e359cbcea17"},"vehicle_type_id":"4","last_reported":1742933477,"current_range_meters":8000,"station_id":"ce4bhnh2rcd13ifvqgtg","pricing_plan_id":"cebpf4jnsgd1na2vs0mg"},{"bike_id":"c9578b47-9857-4396-852d-050cd99a85f0","system_id":"levelo_inurba_marseille","lat":43.24683,"lon":5.38171,"is_reserved":false,"is_disabled":false,"rental_uris":{"android":"levelo://app?vid=c9578b47-9857-4396-852d-050cd99a85f0","ios":"levelo://app?vid=c9578b47-9857-4396-852d-050cd99a85f0"},"vehicle_type_id":"4","last_reported":1742933477,"current_range_meters":8000,"station_id":"ce4bhih2rcd13ifvqfr0","pricing_plan_id":"cebpf4jnsgd1na2vs0mg"},{"bike_id":"15e3e5eb-d835-4728-a546-750b58ac5259","system_id":"levelo_inurba_marseille","lat":43.31756,"lon":5.39013,"is_reserved":false,"is_disabled":false,"rental_uris":{"android":"levelo://app?vid=15e3e5eb-d835-4728-a546-750b58ac5259","ios":"levelo://app?vid=15e3e5eb-d835-4728-a546-750b58ac5259"},"vehicle_type_id":"4","last_reported":1742933477,"current_range_meters":8000,"station_id":"ce4bhqp2rcd13ifvqhng","pricing_plan_id":"cebpf4jnsgd1na2vs0mg"},{"bike_id":"463a4df3-df32-4854-9380-c2e9927dee65","system_id":"levelo_inurba_marseille","lat":43.32372,"lon":5.38869,"is_reserved":false,"is_disabled":false,"rental_uris":{"android":"levelo://app?vid=463a4df3-df32-4854-9380-c2e9927dee65","ios":"levelo://app?vid=463a4df3-df32-4854-9380-c2e9927dee65"},"vehicle_type_id":"4","last_reported":1742933477,"current_range_meters":8000,"station_id":"ce4bhqp2rcd13ifvqhog","pricing_plan_id":"cebpf4jnsgd1na2vs0mg"},{"bike_id":"e0ab8f82-2b54-4b8e-8be2-8415b76ebf0d","system_id":"levelo_inurba_marseille","lat":43.30603,"lon":5.37228,"is_reserved":false,"is_disabled":false,"rental_uris":{"android":"levelo://app?vid=e0ab8f82-2b54-4b8e-8be2-8415b76ebf0d","ios":"levelo://app?vid=e0ab8f82-2b54-4b8e-8be2-8415b76ebf0d"},"vehicle_type_id":"4","last_reported":1742933477,"current_range_meters":8000,"station_id":"ce4bgqh2rcd13ifvqc4g","pricing_plan_id":"cebpf4jnsgd1na2vs0mg"},{"bike_id":"660eae1a-31fa-4bb7-a4bf-f1a2afd0c5cf","system_id":"levelo_inurba_marseille","lat":43.27811,"lon":5.40713,"is_reserved":false,"is_disabled":false,"rental_uris":{"android":"levelo://app?vid=660eae1a-31fa-4bb7-a4bf-f1a2afd0c5cf","ios":"levelo://app?vid=660eae1a-31fa-4bb7-a4bf-f1a2afd0c5cf"},"vehicle_type_id":"4","last_reported":1742933477,"current_range_meters":8000,"station_id":"ce4bhnh2rcd13ifvqgtg","pricing_plan_id":"cebpf4jnsgd1na2vs0mg"},{"bike_id":"ef43d9bd-e531-4a59-b8a9-fdc80b41fa34","system_id":"levelo_inurba_marseille","lat":43.31236,"lon":5.40168,"is_reserved":false,"is_disabled":true,"rental_uris":{"android":"levelo://app?vid=ef43d9bd-e531-4a59-b8a9-fdc80b41fa34","ios":"levelo://app?vid=ef43d9bd-e531-4a59-b8a9-fdc80b41fa34"},"vehicle_type_id":"4","last_reported":1742933477,"current_range_meters":8000,"station_id":"ce4bh092rcd13ifvqd30","pricing_plan_id":"cebpf4jnsgd1na2vs0mg"},{"bike_id":"b7d700cc-e80e-461a-a5b3-d22a71e707a9","system_id":"levelo_inurba_marseille","lat":43.29441,"lon":5.38623,"is_reserved":false,"is_disabled":false,"rental_uris":{"android":"levelo://app?vid=b7d700cc-e80e-461a-a5b3-d22a71e707a9","ios":"levelo://app?vid=b7d700cc-e80e-461a-a5b3-d22a71e707a9"},"vehicle_type_id":"4","last_reported":1742933477,"current_range_meters":8000,"station_id":"ce4bh2h2rcd13ifvqdh0","pricing_plan_id":"cebpf4jnsgd1na2vs0mg"},{"bike_id":"956fc08e-5d98-46b2-bb5a-fa8747509ed6","system_id":"levelo_inurba_marseille","lat":43.31999,"lon":5.38154,"is_reserved":false,"is_disabled":false,"rental_uris":{"android":"levelo://app?vid=956fc08e-5d98-46b2-bb5a-fa8747509ed6","ios":"levelo://app?vid=956fc08e-5d98-46b2-bb5a-fa8747509ed6"},"vehicle_type_id":"4","last_reported":1742933477,"current_range_meters":8000,"station_id":"ce4bhr12rcd13ifvqhpg","pricing_plan_id":"cebpf4jnsgd1na2vs0mg"},{"bike_id":"6c40bd81-af13-42e4-8827-fa8af6ebc8cc","system_id":"levelo_inurba_marseille","lat":43.24817,"lon":5.37451,"is_reserved":false,"is_disabled":false,"rental_uris":{"android":"levelo://app?vid=6c40bd81-af13-42e4-8827-fa8af6ebc8cc","ios":"levelo://app?vid=6c40bd81-af13-42e4-8827-fa8af6ebc8cc"},"vehicle_type_id":"4","last_reported":1742933477,"current_range_meters":8000,"station_id":"ce4bhgh2rcd13ifvqfb0","pricing_plan_id":"cebpf4jnsgd1na2vs0mg"},{"bike_id":"3a2d0c27-58a3-45f9-bf1c-f84d25cb8c4a","system_id":"levelo_inurba_marseille","lat":43.27901,"lon":5.3801,"is_reserved":false,"is_disabled":false,"rental_uris":{"android":"levelo://app?vid=3a2d0c27-58a3-45f9-bf1c-f84d25cb8c4a","ios":"levelo://app?vid=3a2d0c27-58a3-45f9-bf1c-f84d25cb8c4a"},"vehicle_type_id":"4","last_reported":1742933477,"current_range_meters":8000,"station_id":"ce4bhf92rcd13ifvqf50","pricing_plan_id":"cebpf4jnsgd1na2vs0mg"},{"bike_id":"28608dc9-a0fa-40f5-864a-a89d151a1db8","system_id":"levelo_inurba_marseille","lat":43.27561,"lon":5.38416,"is_reserved":false,"is_disabled":false,"rental_uris":{"android":"levelo://app?vid=28608dc9-a0fa-40f5-864a-a89d151a1db8","ios":"levelo://app?vid=28608dc9-a0fa-40f5-864a-a89d151a1db8"},"vehicle_type_id":"4","last_reported":1742933477,"current_range_meters":8000,"station_id":"ce4bhh92rcd13ifvqfi0","pricing_plan_id":"cebpf4jnsgd1na2vs0mg"},{"bike_id":"c353c957-fbb8-408a-9097-46c8d6b68074","system_id":"levelo_inurba_marseille","lat":43.24173,"lon":5.39717,"is_reserved":false,"is_disabled":false,"rental_uris":{"android":"levelo://app?vid=c353c957-fbb8-408a-9097-46c8d6b68074","ios":"levelo://app?vid=c353c957-fbb8-408a-9097-46c8d6b68074"},"vehicle_type_id":"4","last_reported":1742933477,"current_range_meters":8000,"station_id":"ce4bhn12rcd13ifvqgpg","pricing_plan_id":"cebpf4jnsgd1na2vs0mg"},{"bike_id":"b139ad69-4570-465e-8346-ddb3ccb71509","system_id":"levelo_inurba_marseille","lat":43.29061,"lon":5.37148,"is_reserved":false,"is_disabled":false,"rental_uris":{"android":"levelo://app?vid=b139ad69-4570-465e-8346-ddb3ccb71509","ios":"levelo://app?vid=b139ad69-4570-465e-8346-ddb3ccb71509"},"vehicle_type_id":"4","last_reported":1742933477,"current_range_meters":8000,"station_id":"ce4bh5p2rcd13ifvqe4g","pricing_plan_id":"cebpf4jnsgd1na2vs0mg"},{"bike_id":"8ec019a6-2f06-4921-82a0-415f60f06efd","system_id":"levelo_inurba_marseille","lat":43.25578,"lon":5.38252,"is_reserved":false,"is_disabled":false,"rental_uris":{"android":"levelo://app?vid=8ec019a6-2f06-4921-82a0-415f60f06efd","ios":"levelo://app?vid=8ec019a6-2f06-4921-82a0-415f60f06efd"},"vehicle_type_id":"4","last_reported":1742933477,"current_range_meters":8000,"station_id":"ce4bhih2rcd13ifvqfs0","pricing_plan_id":"cebpf4jnsgd1na2vs0mg"},{"bike_id":"2a99ecb7-4bf0-4c00-89bb-11ff019b8a6d","system_id":"levelo_inurba_marseille","lat":43.22954,"lon":5.35387,"is_reserved":false,"is_disabled":false,"rental_uris":{"android":"levelo://app?vid=2a99ecb7-4bf0-4c00-89bb-11ff019b8a6d","ios":"levelo://app?vid=2a99ecb7-4bf0-4c00-89bb-11ff019b8a6d"},"vehicle_type_id":"4","last_reported":1742933477,"current_range_meters":8400,"station_id":"cpo3532slgdg3j2ikp40","pricing_plan_id":"cebpf4jnsgd1na2vs0mg"},{"bike_id":"48bb326d-494b-423c-85e3-b76040449462","system_id":"levelo_inurba_marseille","lat":43.29522,"lon":5.39053,"is_reserved":false,"is_disabled":false,"rental_uris":{"android":"levelo://app?vid=48bb326d-494b-423c-85e3-b76040449462","ios":"levelo://app?vid=48bb326d-494b-423c-85e3-b76040449462"},"vehicle_type_id":"4","last_reported":1742933477,"current_range_meters":8000,"station_id":"ce4bh3p2rcd13ifvqdp0","pricing_plan_id":"cebpf4jnsgd1na2vs0mg"},{"bike_id":"8c54a374-20e2-4ef3-ab2d-9e60eb6f65a4","system_id":"levelo_inurba_marseille","lat":43.29538,"lon":5.38539,"is_reserved":false,"is_disabled":false,"rental_uris":{"android":"levelo://app?vid=8c54a374-20e2-4ef3-ab2d-9e60eb6f65a4","ios":"levelo://app?vid=8c54a374-20e2-4ef3-ab2d-9e60eb6f65a4"},"vehicle_type_id":"4","last_reported":1742933477,"current_range_meters":8400,"station_id":"ce4bgih2rcd13ifvqba0","pricing_plan_id":"cebpf4jnsgd1na2vs0mg"},{"bike_id":"737b3711-1b92-493c-8220-60bf91bb8d63","system_id":"levelo_inurba_marseille","lat":43.31333,"lon":5.37472,"is_reserved":false,"is_disabled":false,"rental_uris":{"android":"levelo://app?vid=737b3711-1b92-493c-8220-60bf91bb8d63","ios":"levelo://app?vid=737b3711-1b92-493c-8220-60bf91bb8d63"},"vehicle_type_id":"4","last_reported":1742933477,"current_range_meters":8400,"station_id":"","pricing_plan_id":"cebpf4jnsgd1na2vs0mg"},{"bike_id":"d0ce6a4c-8c1a-4117-b620-bb8816808dbc","system_id":"levelo_inurba_marseille","lat":43.23962,"lon":5.36635,"is_reserved":false,"is_disabled":false,"rental_uris":{"android":"levelo://app?vid=d0ce6a4c-8c1a-4117-b620-bb8816808dbc","ios":"levelo://app?vid=d0ce6a4c-8c1a-4117-b620-bb8816808dbc"},"vehicle_type_id":"4","last_reported":1742933477,"current_range_meters":8400,"station_id":"ce4bhi12rcd13ifvqfp0","pricing_plan_id":"cebpf4jnsgd1na2vs0mg"},{"bike_id":"65d0db47-e7e4-4921-a51c-8b764efb5387","system_id":"levelo_inurba_marseille","lat":43.29887,"lon":5.38906,"is_reserved":false,"is_disabled":false,"rental_uris":{"android":"levelo://app?vid=65d0db47-e7e4-4921-a51c-8b764efb5387","ios":"levelo://app?vid=65d0db47-e7e4-4921-a51c-8b764efb5387"},"vehicle_type_id":"4","last_reported":1742933477,"current_range_meters":8000,"station_id":"ce4bh392rcd13ifvqdl0","pricing_plan_id":"cebpf4jnsgd1na2vs0mg"},{"bike_id":"8f208df7-81e0-45c5-bd98-a49c85a38fa2","system_id":"levelo_inurba_marseille","lat":43.30318,"lon":5.36911,"is_reserved":false,"is_disabled":false,"rental_uris":{"android":"levelo://app?vid=8f208df7-81e0-45c5-bd98-a49c85a38fa2","ios":"levelo://app?vid=8f208df7-81e0-45c5-bd98-a49c85a38fa2"},"vehicle_type_id":"4","last_reported":1742933477,"current_range_meters":8400,"station_id":"ce4bgqh2rcd13ifvqc5g","pricing_plan_id":"cebpf4jnsgd1na2vs0mg"},{"bike_id":"d150216f-7b99-4bf8-9473-d8c88477d92a","system_id":"levelo_inurba_marseille","lat":43.27064,"lon":5.40248,"is_reserved":false,"is_disabled":false,"rental_uris":{"android":"levelo://app?vid=d150216f-7b99-4bf8-9473-d8c88477d92a","ios":"levelo://app?vid=d150216f-7b99-4bf8-9473-d8c88477d92a"},"vehicle_type_id":"4","last_reported":1742933477,"current_range_meters":8400,"station_id":"ce4bhk92rcd13ifvqgc0","pricing_plan_id":"cebpf4jnsgd1na2vs0mg"},{"bike_id":"a57c03b7-4d8a-4199-a3fd-94a5b22d2de8","system_id":"levelo_inurba_marseille","lat":43.30146,"lon":5.38773,"is_reserved":false,"is_disabled":false,"rental_uris":{"android":"levelo://app?vid=a57c03b7-4d8a-4199-a3fd-94a5b22d2de8","ios":"levelo://app?vid=a57c03b7-4d8a-4199-a3fd-94a5b22d2de8"},"vehicle_type_id":"4","last_reported":1742933477,"current_range_meters":8400,"station_id":"ce4bghh2rcd13ifvqb60","pricing_plan_id":"cebpf4jnsgd1na2vs0mg"},{"bike_id":"94a98fcb-1ac4-4faf-969d-4ade5129a1e3","system_id":"levelo_inurba_marseille","lat":43.27978,"lon":5.38741,"is_reserved":false,"is_disabled":false,"rental_uris":{"android":"levelo://app?vid=94a98fcb-1ac4-4faf-969d-4ade5129a1e3","ios":"levelo://app?vid=94a98fcb-1ac4-4faf-969d-4ade5129a1e3"},"vehicle_type_id":"4","last_reported":1742933477,"current_range_meters":8400,"station_id":"ce4bhg12rcd13ifvqf80","pricing_plan_id":"cebpf4jnsgd1na2vs0mg"},{"bike_id":"baa5490f-75ed-4a89-b20d-d28fd6ff3a39","system_id":"levelo_inurba_marseille","lat":43.3172,"lon":5.43712,"is_reserved":false,"is_disabled":false,"rental_uris":{"android":"levelo://app?vid=baa5490f-75ed-4a89-b20d-d28fd6ff3a39","ios":"levelo://app?vid=baa5490f-75ed-4a89-b20d-d28fd6ff3a39"},"vehicle_type_id":"4","last_reported":1742933477,"current_range_meters":8400,"station_id":"ce4bhp92rcd13ifvqhcg","pricing_plan_id":"cebpf4jnsgd1na2vs0mg"},{"bike_id":"e3f76d45-4904-44a7-aac2-e04832e991bb","system_id":"levelo_inurba_marseille","lat":43.299746,"lon":5.413266,"is_reserved":false,"is_disabled":true,"rental_uris":{"android":"levelo://app?vid=e3f76d45-4904-44a7-aac2-e04832e991bb","ios":"levelo://app?vid=e3f76d45-4904-44a7-aac2-e04832e991bb"},"vehicle_type_id":"4","last_reported":1742933477,"current_range_meters":8800,"station_id":"ce4bhp12rcd13ifvqh9g","pricing_plan_id":"cebpf4jnsgd1na2vs0mg"},{"bike_id":"93d1426c-2c08-4663-9bd8-3b60ff8f45df","system_id":"levelo_inurba_marseille","lat":43.27495,"lon":5.42454,"is_reserved":false,"is_disabled":false,"rental_uris":{"android":"levelo://app?vid=93d1426c-2c08-4663-9bd8-3b60ff8f45df","ios":"levelo://app?vid=93d1426c-2c08-4663-9bd8-3b60ff8f45df"},"vehicle_type_id":"4","last_reported":1742933477,"current_range_meters":8800,"station_id":"ce4bhn92rcd13ifvqgrg","pricing_plan_id":"cebpf4jnsgd1na2vs0mg"},{"bike_id":"2f3e2a92-1301-4a27-8eaa-7b0ea525530e","system_id":"levelo_inurba_marseille","lat":43.31713,"lon":5.43697,"is_reserved":false,"is_disabled":false,"rental_uris":{"android":"levelo://app?vid=2f3e2a92-1301-4a27-8eaa-7b0ea525530e","ios":"levelo://app?vid=2f3e2a92-1301-4a27-8eaa-7b0ea525530e"},"vehicle_type_id":"4","last_reported":1742933477,"current_range_meters":8800,"station_id":"ce4bhp92rcd13ifvqhcg","pricing_plan_id":"cebpf4jnsgd1na2vs0mg"},{"bike_id":"ada4ba7b-2dc8-47ef-a5a8-9dc4e4bd1916","system_id":"levelo_inurba_marseille","lat":43.29798,"lon":5.3773,"is_reserved":false,"is_disabled":false,"rental_uris":{"android":"levelo://app?vid=ada4ba7b-2dc8-47ef-a5a8-9dc4e4bd1916","ios":"levelo://app?vid=ada4ba7b-2dc8-47ef-a5a8-9dc4e4bd1916"},"vehicle_type_id":"4","last_reported":1742933477,"current_range_meters":8800,"station_id":"","pricing_plan_id":"cebpf4jnsgd1na2vs0mg"},{"bike_id":"1a3c5e1e-498d-4bf5-b5bd-2116c210ebf5","system_id":"levelo_inurba_marseille","lat":43.24393,"lon":5.37053,"is_reserved":false,"is_disabled":false,"rental_uris":{"android":"levelo://app?vid=1a3c5e1e-498d-4bf5-b5bd-2116c210ebf5","ios":"levelo://app?vid=1a3c5e1e-498d-4bf5-b5bd-2116c210ebf5"},"vehicle_type_id":"4","last_reported":1742933477,"current_range_meters":8800,"station_id":"ce4bhhh2rcd13ifvqfk0","pricing_plan_id":"cebpf4jnsgd1na2vs0mg"},{"bike_id":"f50f2feb-0dbf-492b-8aa8-556ce23ecab8","system_id":"levelo_inurba_marseille","lat":43.29274,"lon":5.40113,"is_reserved":false,"is_disabled":false,"rental_uris":{"android":"levelo://app?vid=f50f2feb-0dbf-492b-8aa8-556ce23ecab8","ios":"levelo://app?vid=f50f2feb-0dbf-492b-8aa8-556ce23ecab8"},"vehicle_type_id":"4","last_reported":1742933477,"current_range_meters":8800,"station_id":"ce4bh312rcd13ifvqdk0","pricing_plan_id":"cebpf4jnsgd1na2vs0mg"},{"bike_id":"896d5863-1ac5-46eb-b4be-2c9a5b236c8f","system_id":"levelo_inurba_marseille","lat":43.28447,"lon":5.39211,"is_reserved":false,"is_disabled":false,"rental_uris":{"android":"levelo://app?vid=896d5863-1ac5-46eb-b4be-2c9a5b236c8f","ios":"levelo://app?vid=896d5863-1ac5-46eb-b4be-2c9a5b236c8f"},"vehicle_type_id":"4","last_reported":1742933477,"current_range_meters":8800,"station_id":"ce4bhoh2rcd13ifvqh5g","pricing_plan_id":"cebpf4jnsgd1na2vs0mg"},{"bike_id":"46f66391-61cc-4207-a31f-b758b2e5a5c0","system_id":"levelo_inurba_marseille","lat":43.29069,"lon":5.37164,"is_reserved":false,"is_disabled":false,"rental_uris":{"android":"levelo://app?vid=46f66391-61cc-4207-a31f-b758b2e5a5c0","ios":"levelo://app?vid=46f66391-61cc-4207-a31f-b758b2e5a5c0"},"vehicle_type_id":"4","last_reported":1742933477,"current_range_meters":8400,"station_id":"ce4bh5p2rcd13ifvqe4g","pricing_plan_id":"cebpf4jnsgd1na2vs0mg"},{"bike_id":"48fe2b4b-36a8-4fb0-b575-e7aa1a5a9f66","system_id":"levelo_inurba_marseille","lat":43.29098,"lon":5.38121,"is_reserved":false,"is_disabled":false,"rental_uris":{"android":"levelo://app?vid=48fe2b4b-36a8-4fb0-b575-e7aa1a5a9f66","ios":"levelo://app?vid=48fe2b4b-36a8-4fb0-b575-e7aa1a5a9f66"},"vehicle_type_id":"4","last_reported":1742933477,"current_range_meters":8800,"station_id":"ce4bh512rcd13ifvqe2g","pricing_plan_id":"cebpf4jnsgd1na2vs0mg"},{"bike_id":"b6fd1ec3-47b2-486f-8b84-f71e2b87ecef","system_id":"levelo_inurba_marseille","lat":43.31079,"lon":5.42429,"is_reserved":false,"is_disabled":true,"rental_uris":{"android":"levelo://app?vid=b6fd1ec3-47b2-486f-8b84-f71e2b87ecef","ios":"levelo://app?vid=b6fd1ec3-47b2-486f-8b84-f71e2b87ecef"},"vehicle_type_id":"4","last_reported":1742933477,"current_range_meters":8800,"station_id":"ce4bhp92rcd13ifvqhag","pricing_plan_id":"cebpf4jnsgd1na2vs0mg"},{"bike_id":"a4da66a0-8222-41b6-b7e9-87f6ed2f0427","system_id":"levelo_inurba_marseille","lat":43.28405,"lon":5.37511,"is_reserved":false,"is_disabled":false,"rental_uris":{"android":"levelo://app?vid=a4da66a0-8222-41b6-b7e9-87f6ed2f0427","ios":"levelo://app?vid=a4da66a0-8222-41b6-b7e9-87f6ed2f0427"},"vehicle_type_id":"4","last_reported":1742933477,"current_range_meters":8800,"station_id":"ce4bh412rcd13ifvqds0","pricing_plan_id":"cebpf4jnsgd1na2vs0mg"},{"bike_id":"350ac6df-f4ea-4328-82d3-2cee40539cc7","system_id":"levelo_inurba_marseille","lat":43.30128,"lon":5.38781,"is_reserved":false,"is_disabled":false,"rental_uris":{"android":"levelo://app?vid=350ac6df-f4ea-4328-82d3-2cee40539cc7","ios":"levelo://app?vid=350ac6df-f4ea-4328-82d3-2cee40539cc7"},"vehicle_type_id":"4","last_reported":1742933477,"current_range_meters":8800,"station_id":"ce4bghh2rcd13ifvqb60","pricing_plan_id":"cebpf4jnsgd1na2vs0mg"},{"bike_id":"e37b11ce-4870-4598-8006-6911b2efbb01","system_id":"levelo_inurba_marseille","lat":43.299942,"lon":5.38526,"is_reserved":false,"is_disabled":false,"rental_uris":{"android":"levelo://app?vid=e37b11ce-4870-4598-8006-6911b2efbb01","ios":"levelo://app?vid=e37b11ce-4870-4598-8006-6911b2efbb01"},"vehicle_type_id":"4","last_reported":1742933477,"current_range_meters":8400,"station_id":"ce4bgv12rcd13ifvqcp0","pricing_plan_id":"cebpf4jnsgd1na2vs0mg"},{"bike_id":"4c8c6174-794c-4225-aa51-8a7a304903b9","system_id":"levelo_inurba_marseille","lat":43.31762,"lon":5.3902,"is_reserved":false,"is_disabled":false,"rental_uris":{"android":"levelo://app?vid=4c8c6174-794c-4225-aa51-8a7a304903b9","ios":"levelo://app?vid=4c8c6174-794c-4225-aa51-8a7a304903b9"},"vehicle_type_id":"4","last_reported":1742933477,"current_range_meters":9200,"station_id":"ce4bhqp2rcd13ifvqhng","pricing_plan_id":"cebpf4jnsgd1na2vs0mg"},{"bike_id":"f294d69a-8637-46e9-95b8-3d82151d6376","system_id":"levelo_inurba_marseille","lat":43.2798,"lon":5.41661,"is_reserved":false,"is_disabled":true,"rental_uris":{"android":"levelo://app?vid=f294d69a-8637-46e9-95b8-3d82151d6376","ios":"levelo://app?vid=f294d69a-8637-46e9-95b8-3d82151d6376"},"vehicle_type_id":"4","last_reported":1742933477,"current_range_meters":9200,"station_id":"ce4bho12rcd13ifvqh1g","pricing_plan_id":"cebpf4jnsgd1na2vs0mg"},{"bike_id":"225cbe9d-4f8e-432e-b5e7-cd7e14da2d62","system_id":"levelo_inurba_marseille","lat":43.28174,"lon":5.42649,"is_reserved":false,"is_disabled":false,"rental_uris":{"android":"levelo://app?vid=225cbe9d-4f8e-432e-b5e7-cd7e14da2d62","ios":"levelo://app?vid=225cbe9d-4f8e-432e-b5e7-cd7e14da2d62"},"vehicle_type_id":"4","last_reported":1742933477,"current_range_meters":9200,"station_id":"ce4bhnh2rcd13ifvqgug","pricing_plan_id":"cebpf4jnsgd1na2vs0mg"},{"bike_id":"1a860923-e68a-49b2-b980-9319e219584f","system_id":"levelo_inurba_marseille","lat":43.28723,"lon":5.37938,"is_reserved":false,"is_disabled":false,"rental_uris":{"android":"levelo://app?vid=1a860923-e68a-49b2-b980-9319e219584f","ios":"levelo://app?vid=1a860923-e68a-49b2-b980-9319e219584f"},"vehicle_type_id":"4","last_reported":1742933477,"current_range_meters":9200,"station_id":"ce4bh9p2rcd13ifvqec0","pricing_plan_id":"cebpf4jnsgd1na2vs0mg"},{"bike_id":"287fbc36-da92-40c8-a3d2-130f45667dbf","system_id":"levelo_inurba_marseille","lat":43.30605,"lon":5.3724,"is_reserved":false,"is_disabled":false,"rental_uris":{"android":"levelo://app?vid=287fbc36-da92-40c8-a3d2-130f45667dbf","ios":"levelo://app?vid=287fbc36-da92-40c8-a3d2-130f45667dbf"},"vehicle_type_id":"4","last_reported":1742933477,"current_range_meters":8800,"station_id":"ce4bgqh2rcd13ifvqc4g","pricing_plan_id":"cebpf4jnsgd1na2vs0mg"},{"bike_id":"5947461e-f1d9-4b8a-a16b-079c1e611686","system_id":"levelo_inurba_marseille","lat":43.28263,"lon":5.35174,"is_reserved":false,"is_disabled":true,"rental_uris":{"android":"levelo://app?vid=5947461e-f1d9-4b8a-a16b-079c1e611686","ios":"levelo://app?vid=5947461e-f1d9-4b8a-a16b-079c1e611686"},"vehicle_type_id":"4","last_reported":1742933477,"current_range_meters":9200,"station_id":"ce4bhbp2rcd13ifvqerg","pricing_plan_id":"cebpf4jnsgd1na2vs0mg"},{"bike_id":"813bf6c5-6d94-4cfd-8c88-ce8790975626","system_id":"levelo_inurba_marseille","lat":43.29262,"lon":5.37624,"is_reserved":false,"is_disabled":false,"rental_uris":{"android":"levelo://app?vid=813bf6c5-6d94-4cfd-8c88-ce8790975626","ios":"levelo://app?vid=813bf6c5-6d94-4cfd-8c88-ce8790975626"},"vehicle_type_id":"4","last_reported":1742933477,"current_range_meters":9200,"station_id":"ce4bgi12rcd13ifvqb80","pricing_plan_id":"cebpf4jnsgd1na2vs0mg"},{"bike_id":"f3371853-40bf-4a23-bed4-87c9715e98c9","system_id":"levelo_inurba_marseille","lat":43.26814,"lon":5.40248,"is_reserved":false,"is_disabled":false,"rental_uris":{"android":"levelo://app?vid=f3371853-40bf-4a23-bed4-87c9715e98c9","ios":"levelo://app?vid=f3371853-40bf-4a23-bed4-87c9715e98c9"},"vehicle_type_id":"4","last_reported":1742933477,"current_range_meters":9200,"station_id":"ce501612rcd8frsf0b60","pricing_plan_id":"cebpf4jnsgd1na2vs0mg"},{"bike_id":"f9c2d6f4-4513-4b26-a173-3b2adf92e672","system_id":"levelo_inurba_marseille","lat":43.30106,"lon":5.39048,"is_reserved":false,"is_disabled":false,"rental_uris":{"android":"levelo://app?vid=f9c2d6f4-4513-4b26-a173-3b2adf92e672","ios":"levelo://app?vid=f9c2d6f4-4513-4b26-a173-3b2adf92e672"},"vehicle_type_id":"4","last_reported":1742933477,"current_range_meters":9200,"station_id":"ce4bh192rcd13ifvqdb0","pricing_plan_id":"cebpf4jnsgd1na2vs0mg"},{"bike_id":"5c4ff4a0-721e-4676-8aa9-8212e6aee240","system_id":"levelo_inurba_marseille","lat":43.28444,"lon":5.39188,"is_reserved":false,"is_disabled":false,"rental_uris":{"android":"levelo://app?vid=5c4ff4a0-721e-4676-8aa9-8212e6aee240","ios":"levelo://app?vid=5c4ff4a0-721e-4676-8aa9-8212e6aee240"},"vehicle_type_id":"4","last_reported":1742933477,"current_range_meters":9200,"station_id":"ce4bhoh2rcd13ifvqh5g","pricing_plan_id":"cebpf4jnsgd1na2vs0mg"},{"bike_id":"83fe1994-48bf-4637-81cb-76b90ec663c9","system_id":"levelo_inurba_marseille","lat":43.28947,"lon":5.39627,"is_reserved":false,"is_disabled":false,"rental_uris":{"android":"levelo://app?vid=83fe1994-48bf-4637-81cb-76b90ec663c9","ios":"levelo://app?vid=83fe1994-48bf-4637-81cb-76b90ec663c9"},"vehicle_type_id":"4","last_reported":1742933477,"current_range_meters":9200,"station_id":"ce4bh3h2rcd13ifvqdn0","pricing_plan_id":"cebpf4jnsgd1na2vs0mg"},{"bike_id":"342f19f0-681f-4097-b14f-f905cbb3bfb3","system_id":"levelo_inurba_marseille","lat":43.27372,"lon":5.36259,"is_reserved":false,"is_disabled":false,"rental_uris":{"android":"levelo://app?vid=342f19f0-681f-4097-b14f-f905cbb3bfb3","ios":"levelo://app?vid=342f19f0-681f-4097-b14f-f905cbb3bfb3"},"vehicle_type_id":"4","last_reported":1742933477,"current_range_meters":9200,"station_id":"ce4bhbh2rcd13ifvqeo0","pricing_plan_id":"cebpf4jnsgd1na2vs0mg"},{"bike_id":"f63f5481-a6f7-4d46-af84-60ed21e786f8","system_id":"levelo_inurba_marseille","lat":43.28403,"lon":5.37519,"is_reserved":false,"is_disabled":false,"rental_uris":{"android":"levelo://app?vid=f63f5481-a6f7-4d46-af84-60ed21e786f8","ios":"levelo://app?vid=f63f5481-a6f7-4d46-af84-60ed21e786f8"},"vehicle_type_id":"4","last_reported":1742933477,"current_range_meters":9200,"station_id":"ce4bh412rcd13ifvqds0","pricing_plan_id":"cebpf4jnsgd1na2vs0mg"},{"bike_id":"60be6b36-040c-4f5f-a7da-9a2b177ea19c","system_id":"levelo_inurba_marseille","lat":43.29509,"lon":5.39042,"is_reserved":false,"is_disabled":false,"rental_uris":{"android":"levelo://app?vid=60be6b36-040c-4f5f-a7da-9a2b177ea19c","ios":"levelo://app?vid=60be6b36-040c-4f5f-a7da-9a2b177ea19c"},"vehicle_type_id":"4","last_reported":1742933477,"current_range_meters":8800,"station_id":"ce4bh3p2rcd13ifvqdp0","pricing_plan_id":"cebpf4jnsgd1na2vs0mg"},{"bike_id":"1392a870-6300-4219-8b1a-6d76541db636","system_id":"levelo_inurba_marseille","lat":43.32339,"lon":5.40626,"is_reserved":false,"is_disabled":false,"rental_uris":{"android":"levelo://app?vid=1392a870-6300-4219-8b1a-6d76541db636","ios":"levelo://app?vid=1392a870-6300-4219-8b1a-6d76541db636"},"vehicle_type_id":"4","last_reported":1742933477,"current_range_meters":9200,"station_id":"ce4bhq92rcd13ifvqhjg","pricing_plan_id":"cebpf4jnsgd1na2vs0mg"},{"bike_id":"96c9f25d-fcc9-4288-a55a-fe169079e0ef","system_id":"levelo_inurba_marseille","lat":43.28704,"lon":5.37397,"is_reserved":false,"is_disabled":false,"rental_uris":{"android":"levelo://app?vid=96c9f25d-fcc9-4288-a55a-fe169079e0ef","ios":"levelo://app?vid=96c9f25d-fcc9-4288-a55a-fe169079e0ef"},"vehicle_type_id":"4","last_reported":1742933477,"current_range_meters":9200,"station_id":"ce4bh3p2rcd13ifvqdq0","pricing_plan_id":"cebpf4jnsgd1na2vs0mg"},{"bike_id":"89e75ed9-7f20-48f7-ad37-e0033e47c633","system_id":"levelo_inurba_marseille","lat":43.24658,"lon":5.38892,"is_reserved":false,"is_disabled":false,"rental_uris":{"android":"levelo://app?vid=89e75ed9-7f20-48f7-ad37-e0033e47c633","ios":"levelo://app?vid=89e75ed9-7f20-48f7-ad37-e0033e47c633"},"vehicle_type_id":"4","last_reported":1742933477,"current_range_meters":9200,"station_id":"ce4bhg12rcd13ifvqf60","pricing_plan_id":"cebpf4jnsgd1na2vs0mg"},{"bike_id":"3d35f3ff-438a-476e-8650-850e9c082871","system_id":"levelo_inurba_marseille","lat":43.28669,"lon":5.39954,"is_reserved":false,"is_disabled":false,"rental_uris":{"android":"levelo://app?vid=3d35f3ff-438a-476e-8650-850e9c082871","ios":"levelo://app?vid=3d35f3ff-438a-476e-8650-850e9c082871"},"vehicle_type_id":"4","last_reported":1742933477,"current_range_meters":9200,"station_id":"","pricing_plan_id":"cebpf4jnsgd1na2vs0mg"},{"bike_id":"4c88bcf5-d7d5-4123-8df0-8afe5b74cd19","system_id":"levelo_inurba_marseille","lat":43.33025,"lon":5.39046,"is_reserved":false,"is_disabled":false,"rental_uris":{"android":"levelo://app?vid=4c88bcf5-d7d5-4123-8df0-8afe5b74cd19","ios":"levelo://app?vid=4c88bcf5-d7d5-4123-8df0-8afe5b74cd19"},"vehicle_type_id":"4","last_reported":1742933477,"current_range_meters":9600,"station_id":"ce4bhr92rcd13ifvqhrg","pricing_plan_id":"cebpf4jnsgd1na2vs0mg"},{"bike_id":"b2ff5ddc-3f38-4888-bb14-04ff840bb30f","system_id":"levelo_inurba_marseille","lat":43.29945,"lon":5.36535,"is_reserved":false,"is_disabled":false,"rental_uris":{"android":"levelo://app?vid=b2ff5ddc-3f38-4888-bb14-04ff840bb30f","ios":"levelo://app?vid=b2ff5ddc-3f38-4888-bb14-04ff840bb30f"},"vehicle_type_id":"4","last_reported":1742933477,"current_range_meters":9600,"station_id":"ce4bgm92rcd13ifvqbr0","pricing_plan_id":"cebpf4jnsgd1na2vs0mg"},{"bike_id":"6633349b-54ae-41b8-88d5-61ec5d012302","system_id":"levelo_inurba_marseille","lat":43.32107,"lon":5.36748,"is_reserved":false,"is_disabled":false,"rental_uris":{"android":"levelo://app?vid=6633349b-54ae-41b8-88d5-61ec5d012302","ios":"levelo://app?vid=6633349b-54ae-41b8-88d5-61ec5d012302"},"vehicle_type_id":"4","last_reported":1742933477,"current_range_meters":9600,"station_id":"ce4bhrh2rcd13ifvqhug","pricing_plan_id":"cebpf4jnsgd1na2vs0mg"},{"bike_id":"d0ee8d20-19be-4028-b608-7045ab34de7b","system_id":"levelo_inurba_marseille","lat":43.2903,"lon":5.38643,"is_reserved":false,"is_disabled":false,"rental_uris":{"android":"levelo://app?vid=d0ee8d20-19be-4028-b608-7045ab34de7b","ios":"levelo://app?vid=d0ee8d20-19be-4028-b608-7045ab34de7b"},"vehicle_type_id":"4","last_reported":1742933477,"current_range_meters":9600,"station_id":"ce4bh4p2rcd13ifvqe0g","pricing_plan_id":"cebpf4jnsgd1na2vs0mg"},{"bike_id":"74406c35-ee35-437d-be26-2d7711378046","system_id":"levelo_inurba_marseille","lat":43.32374,"lon":5.36749,"is_reserved":false,"is_disabled":false,"rental_uris":{"android":"levelo://app?vid=74406c35-ee35-437d-be26-2d7711378046","ios":"levelo://app?vid=74406c35-ee35-437d-be26-2d7711378046"},"vehicle_type_id":"4","last_reported":1742933477,"current_range_meters":9600,"station_id":"ce4bhsh2rcd13ifvqi2g","pricing_plan_id":"cebpf4jnsgd1na2vs0mg"},{"bike_id":"bfcb793a-58dc-4587-be6a-54ec465a7648","system_id":"levelo_inurba_marseille","lat":43.30415,"lon":5.41294,"is_reserved":false,"is_disabled":false,"rental_uris":{"android":"levelo://app?vid=bfcb793a-58dc-4587-be6a-54ec465a7648","ios":"levelo://app?vid=bfcb793a-58dc-4587-be6a-54ec465a7648"},"vehicle_type_id":"4","last_reported":1742933477,"current_range_meters":9600,"station_id":"ce4bhop2rcd13ifvqh8g","pricing_plan_id":"cebpf4jnsgd1na2vs0mg"},{"bike_id":"ca04ffde-a7cd-493d-ba19-391db2b733b5","system_id":"levelo_inurba_marseille","lat":43.27946,"lon":5.41048,"is_reserved":false,"is_disabled":false,"rental_uris":{"android":"levelo://app?vid=ca04ffde-a7cd-493d-ba19-391db2b733b5","ios":"levelo://app?vid=ca04ffde-a7cd-493d-ba19-391db2b733b5"},"vehicle_type_id":"4","last_reported":1742933477,"current_range_meters":9600,"station_id":"ce4bhnp2rcd13ifvqh0g","pricing_plan_id":"cebpf4jnsgd1na2vs0mg"},{"bike_id":"a36af006-e489-4f01-8ba4-0bb9b506e528","system_id":"levelo_inurba_marseille","lat":43.29421,"lon":5.38633,"is_reserved":false,"is_disabled":false,"rental_uris":{"android":"levelo://app?vid=a36af006-e489-4f01-8ba4-0bb9b506e528","ios":"levelo://app?vid=a36af006-e489-4f01-8ba4-0bb9b506e528"},"vehicle_type_id":"4","last_reported":1742933477,"current_range_meters":9600,"station_id":"ce4bh2h2rcd13ifvqdh0","pricing_plan_id":"cebpf4jnsgd1na2vs0mg"},{"bike_id":"8c5e09de-c9ee-4ecd-8bf7-a9da954099c1","system_id":"levelo_inurba_marseille","lat":43.27999,"lon":5.40008,"is_reserved":false,"is_disabled":false,"rental_uris":{"android":"levelo://app?vid=8c5e09de-c9ee-4ecd-8bf7-a9da954099c1","ios":"levelo://app?vid=8c5e09de-c9ee-4ecd-8bf7-a9da954099c1"},"vehicle_type_id":"4","last_reported":1742933477,"current_range_meters":9600,"station_id":"ce4bho92rcd13ifvqh4g","pricing_plan_id":"cebpf4jnsgd1na2vs0mg"},{"bike_id":"30d2fbca-239f-49cd-b89b-17b0ba382ee0","system_id":"levelo_inurba_marseille","lat":43.24075,"lon":5.3776,"is_reserved":false,"is_disabled":false,"rental_uris":{"android":"levelo://app?vid=30d2fbca-239f-49cd-b89b-17b0ba382ee0","ios":"levelo://app?vid=30d2fbca-239f-49cd-b89b-17b0ba382ee0"},"vehicle_type_id":"4","last_reported":1742933477,"current_range_meters":9600,"station_id":"ce4bhnp2rcd13ifvqgvg","pricing_plan_id":"cebpf4jnsgd1na2vs0mg"},{"bike_id":"fc7a81c2-ab97-436f-86ca-773a2e04f065","system_id":"levelo_inurba_marseille","lat":43.31073,"lon":5.38354,"is_reserved":false,"is_disabled":false,"rental_uris":{"android":"levelo://app?vid=fc7a81c2-ab97-436f-86ca-773a2e04f065","ios":"levelo://app?vid=fc7a81c2-ab97-436f-86ca-773a2e04f065"},"vehicle_type_id":"4","last_reported":1742933477,"current_range_meters":9600,"station_id":"ce4bgv92rcd13ifvqcr0","pricing_plan_id":"cebpf4jnsgd1na2vs0mg"},{"bike_id":"eb400fbd-89b9-4498-bc8d-25c00b55139a","system_id":"levelo_inurba_marseille","lat":43.29431,"lon":5.39755,"is_reserved":false,"is_disabled":false,"rental_uris":{"android":"levelo://app?vid=eb400fbd-89b9-4498-bc8d-25c00b55139a","ios":"levelo://app?vid=eb400fbd-89b9-4498-bc8d-25c00b55139a"},"vehicle_type_id":"4","last_reported":1742933477,"current_range_meters":9600,"station_id":"ce4bh3h2rcd13ifvqdo0","pricing_plan_id":"cebpf4jnsgd1na2vs0mg"},{"bike_id":"2dc9dd28-3adf-463c-a910-459039d40689","system_id":"levelo_inurba_marseille","lat":43.2954,"lon":5.3855,"is_reserved":false,"is_disabled":false,"rental_uris":{"android":"levelo://app?vid=2dc9dd28-3adf-463c-a910-459039d40689","ios":"levelo://app?vid=2dc9dd28-3adf-463c-a910-459039d40689"},"vehicle_type_id":"4","last_reported":1742933477,"current_range_meters":9600,"station_id":"ce4bgih2rcd13ifvqba0","pricing_plan_id":"cebpf4jnsgd1na2vs0mg"},{"bike_id":"f3f174fb-0360-4d0d-a226-1f61e07e8206","system_id":"levelo_inurba_marseille","lat":43.32662,"lon":5.4099,"is_reserved":false,"is_disabled":false,"rental_uris":{"android":"levelo://app?vid=f3f174fb-0360-4d0d-a226-1f61e07e8206","ios":"levelo://app?vid=f3f174fb-0360-4d0d-a226-1f61e07e8206"},"vehicle_type_id":"4","last_reported":1742933477,"current_range_meters":9600,"station_id":"ce4bhpp2rcd13ifvqhgg","pricing_plan_id":"cebpf4jnsgd1na2vs0mg"},{"bike_id":"d350e7fd-7f35-4d26-ac3d-e43ecfe10b96","system_id":"levelo_inurba_marseille","lat":43.29422,"lon":5.38646,"is_reserved":false,"is_disabled":false,"rental_uris":{"android":"levelo://app?vid=d350e7fd-7f35-4d26-ac3d-e43ecfe10b96","ios":"levelo://app?vid=d350e7fd-7f35-4d26-ac3d-e43ecfe10b96"},"vehicle_type_id":"4","last_reported":1742933477,"current_range_meters":10000,"station_id":"ce4bh2h2rcd13ifvqdh0","pricing_plan_id":"cebpf4jnsgd1na2vs0mg"},{"bike_id":"e52b9a62-85cc-4127-8505-9c26b9db33f7","system_id":"levelo_inurba_marseille","lat":43.31082,"lon":5.42433,"is_reserved":false,"is_disabled":false,"rental_uris":{"android":"levelo://app?vid=e52b9a62-85cc-4127-8505-9c26b9db33f7","ios":"levelo://app?vid=e52b9a62-85cc-4127-8505-9c26b9db33f7"},"vehicle_type_id":"4","last_reported":1742933477,"current_range_meters":10000,"station_id":"ce4bhp92rcd13ifvqhag","pricing_plan_id":"cebpf4jnsgd1na2vs0mg"},{"bike_id":"5aeb641c-8c67-430e-bd09-77076d22412d","system_id":"levelo_inurba_marseille","lat":43.31044,"lon":5.37517,"is_reserved":false,"is_disabled":false,"rental_uris":{"android":"levelo://app?vid=5aeb641c-8c67-430e-bd09-77076d22412d","ios":"levelo://app?vid=5aeb641c-8c67-430e-bd09-77076d22412d"},"vehicle_type_id":"4","last_reported":1742933477,"current_range_meters":10000,"station_id":"","pricing_plan_id":"cebpf4jnsgd1na2vs0mg"},{"bike_id":"e668c8f2-0f27-4066-9730-9218893f5d6a","system_id":"levelo_inurba_marseille","lat":43.29298,"lon":5.37451,"is_reserved":false,"is_disabled":false,"rental_uris":{"android":"levelo://app?vid=e668c8f2-0f27-4066-9730-9218893f5d6a","ios":"levelo://app?vid=e668c8f2-0f27-4066-9730-9218893f5d6a"},"vehicle_type_id":"4","last_reported":1742933477,"current_range_meters":10000,"station_id":"ce4bgi12rcd13ifvqb70","pricing_plan_id":"cebpf4jnsgd1na2vs0mg"},{"bike_id":"bf897b90-1384-4a2f-ac27-95c9b1e77fd1","system_id":"levelo_inurba_marseille","lat":43.26808,"lon":5.4027,"is_reserved":false,"is_disabled":false,"rental_uris":{"android":"levelo://app?vid=bf897b90-1384-4a2f-ac27-95c9b1e77fd1","ios":"levelo://app?vid=bf897b90-1384-4a2f-ac27-95c9b1e77fd1"},"vehicle_type_id":"4","last_reported":1742933477,"current_range_meters":10000,"station_id":"ce501612rcd8frsf0b60","pricing_plan_id":"cebpf4jnsgd1na2vs0mg"},{"bike_id":"286daffd-13bd-4314-8a31-44c50f7b3ab4","system_id":"levelo_inurba_marseille","lat":43.29418,"lon":5.38628,"is_reserved":false,"is_disabled":false,"rental_uris":{"android":"levelo://app?vid=286daffd-13bd-4314-8a31-44c50f7b3ab4","ios":"levelo://app?vid=286daffd-13bd-4314-8a31-44c50f7b3ab4"},"vehicle_type_id":"4","last_reported":1742933477,"current_range_meters":10000,"station_id":"ce4bh2h2rcd13ifvqdh0","pricing_plan_id":"cebpf4jnsgd1na2vs0mg"},{"bike_id":"1e120c45-af79-403f-a9ee-e07197747cf6","system_id":"levelo_inurba_marseille","lat":43.29262,"lon":5.38444,"is_reserved":false,"is_disabled":false,"rental_uris":{"android":"levelo://app?vid=1e120c45-af79-403f-a9ee-e07197747cf6","ios":"levelo://app?vid=1e120c45-af79-403f-a9ee-e07197747cf6"},"vehicle_type_id":"4","last_reported":1742933477,"current_range_meters":10000,"station_id":"ce4bh692rcd13ifvqea0","pricing_plan_id":"cebpf4jnsgd1na2vs0mg"},{"bike_id":"5afadd01-05af-47f2-b106-8c57133c5065","system_id":"levelo_inurba_marseille","lat":43.29979,"lon":5.3849,"is_reserved":false,"is_disabled":true,"rental_uris":{"android":"levelo://app?vid=5afadd01-05af-47f2-b106-8c57133c5065","ios":"levelo://app?vid=5afadd01-05af-47f2-b106-8c57133c5065"},"vehicle_type_id":"4","last_reported":1742933477,"current_range_meters":10000,"station_id":"ce4bgj92rcd13ifvqbd0","pricing_plan_id":"cebpf4jnsgd1na2vs0mg"},{"bike_id":"8583bcae-e817-4db7-ab92-448c595780ea","system_id":"levelo_inurba_marseille","lat":43.33039,"lon":5.38978,"is_reserved":false,"is_disabled":false,"rental_uris":{"android":"levelo://app?vid=8583bcae-e817-4db7-ab92-448c595780ea","ios":"levelo://app?vid=8583bcae-e817-4db7-ab92-448c595780ea"},"vehicle_type_id":"4","last_reported":1742933477,"current_range_meters":10000,"station_id":"","pricing_plan_id":"cebpf4jnsgd1na2vs0mg"},{"bike_id":"2d4e687a-9c18-4086-9d00-f57175bd6e2a","system_id":"levelo_inurba_marseille","lat":43.32369,"lon":5.38894,"is_reserved":false,"is_disabled":false,"rental_uris":{"android":"levelo://app?vid=2d4e687a-9c18-4086-9d00-f57175bd6e2a","ios":"levelo://app?vid=2d4e687a-9c18-4086-9d00-f57175bd6e2a"},"vehicle_type_id":"4","last_reported":1742933477,"current_range_meters":10000,"station_id":"ce4bhqp2rcd13ifvqhog","pricing_plan_id":"cebpf4jnsgd1na2vs0mg"},{"bike_id":"b97fe132-8b67-4c8a-915c-25361d165c7e","system_id":"levelo_inurba_marseille","lat":43.2791,"lon":5.38026,"is_reserved":false,"is_disabled":false,"rental_uris":{"android":"levelo://app?vid=b97fe132-8b67-4c8a-915c-25361d165c7e","ios":"levelo://app?vid=b97fe132-8b67-4c8a-915c-25361d165c7e"},"vehicle_type_id":"4","last_reported":1742933477,"current_range_meters":10000,"station_id":"ce4bhf92rcd13ifvqf50","pricing_plan_id":"cebpf4jnsgd1na2vs0mg"},{"bike_id":"1d771927-4bf3-49f1-9e03-dad54acb74f8","system_id":"levelo_inurba_marseille","lat":43.30414,"lon":5.4128,"is_reserved":false,"is_disabled":false,"rental_uris":{"android":"levelo://app?vid=1d771927-4bf3-49f1-9e03-dad54acb74f8","ios":"levelo://app?vid=1d771927-4bf3-49f1-9e03-dad54acb74f8"},"vehicle_type_id":"4","last_reported":1742933477,"current_range_meters":10800,"station_id":"ce4bhop2rcd13ifvqh8g","pricing_plan_id":"cebpf4jnsgd1na2vs0mg"},{"bike_id":"2ce1972f-7c19-4821-9ee1-2fe37db25ac0","system_id":"levelo_inurba_marseille","lat":43.24804,"lon":5.37463,"is_reserved":false,"is_disabled":false,"rental_uris":{"android":"levelo://app?vid=2ce1972f-7c19-4821-9ee1-2fe37db25ac0","ios":"levelo://app?vid=2ce1972f-7c19-4821-9ee1-2fe37db25ac0"},"vehicle_type_id":"4","last_reported":1742933477,"current_range_meters":10800,"station_id":"ce4bhgh2rcd13ifvqfb0","pricing_plan_id":"cebpf4jnsgd1na2vs0mg"},{"bike_id":"350064bc-490b-4780-8f06-82da8f8b82fd","system_id":"levelo_inurba_marseille","lat":43.28948,"lon":5.36619,"is_reserved":false,"is_disabled":false,"rental_uris":{"android":"levelo://app?vid=350064bc-490b-4780-8f06-82da8f8b82fd","ios":"levelo://app?vid=350064bc-490b-4780-8f06-82da8f8b82fd"},"vehicle_type_id":"4","last_reported":1742933477,"current_range_meters":10800,"station_id":"ce4bhap2rcd13ifvqek0","pricing_plan_id":"cebpf4jnsgd1na2vs0mg"},{"bike_id":"db3a37d9-5fb5-4f3b-a188-d5b191baa933","system_id":"levelo_inurba_marseille","lat":43.30149,"lon":5.3987,"is_reserved":false,"is_disabled":false,"rental_uris":{"android":"levelo://app?vid=db3a37d9-5fb5-4f3b-a188-d5b191baa933","ios":"levelo://app?vid=db3a37d9-5fb5-4f3b-a188-d5b191baa933"},"vehicle_type_id":"4","last_reported":1742933477,"current_range_meters":10800,"station_id":"ce4bh0h2rcd13ifvqd40","pricing_plan_id":"cebpf4jnsgd1na2vs0mg"},{"bike_id":"d90ec8d0-7a7b-476f-be89-13cef4eeaa2a","system_id":"levelo_inurba_marseille","lat":43.28458,"lon":5.35876,"is_reserved":false,"is_disabled":false,"rental_uris":{"android":"levelo://app?vid=d90ec8d0-7a7b-476f-be89-13cef4eeaa2a","ios":"levelo://app?vid=d90ec8d0-7a7b-476f-be89-13cef4eeaa2a"},"vehicle_type_id":"4","last_reported":1742933477,"current_range_meters":10800,"station_id":"ce4bhah2rcd13ifvqei0","pricing_plan_id":"cebpf4jnsgd1na2vs0mg"},{"bike_id":"b5e2e953-2e08-406c-830e-c34ba2cf86f9","system_id":"levelo_inurba_marseille","lat":43.27801,"lon":5.40729,"is_reserved":false,"is_disabled":false,"rental_uris":{"android":"levelo://app?vid=b5e2e953-2e08-406c-830e-c34ba2cf86f9","ios":"levelo://app?vid=b5e2e953-2e08-406c-830e-c34ba2cf86f9"},"vehicle_type_id":"4","last_reported":1742933477,"current_range_meters":10800,"station_id":"ce4bhnh2rcd13ifvqgtg","pricing_plan_id":"cebpf4jnsgd1na2vs0mg"},{"bike_id":"8fb77201-a472-4e13-96d9-9a8cb04a70bd","system_id":"levelo_inurba_marseille","lat":43.27807,"lon":5.40715,"is_reserved":false,"is_disabled":false,"rental_uris":{"android":"levelo://app?vid=8fb77201-a472-4e13-96d9-9a8cb04a70bd","ios":"levelo://app?vid=8fb77201-a472-4e13-96d9-9a8cb04a70bd"},"vehicle_type_id":"4","last_reported":1742933477,"current_range_meters":10800,"station_id":"ce4bhnh2rcd13ifvqgtg","pricing_plan_id":"cebpf4jnsgd1na2vs0mg"},{"bike_id":"34a65679-9fb1-4403-90b3-341e4c2e2050","system_id":"levelo_inurba_marseille","lat":43.28403,"lon":5.37523,"is_reserved":false,"is_disabled":false,"rental_uris":{"android":"levelo://app?vid=34a65679-9fb1-4403-90b3-341e4c2e2050","ios":"levelo://app?vid=34a65679-9fb1-4403-90b3-341e4c2e2050"},"vehicle_type_id":"4","last_reported":1742933477,"current_range_meters":10800,"station_id":"ce4bh412rcd13ifvqds0","pricing_plan_id":"cebpf4jnsgd1na2vs0mg"},{"bike_id":"38351309-2dec-417c-a558-74c8bc991036","system_id":"levelo_inurba_marseille","lat":43.30829,"lon":5.40632,"is_reserved":false,"is_disabled":true,"rental_uris":{"android":"levelo://app?vid=38351309-2dec-417c-a558-74c8bc991036","ios":"levelo://app?vid=38351309-2dec-417c-a558-74c8bc991036"},"vehicle_type_id":"4","last_reported":1742933477,"current_range_meters":10800,"station_id":"","pricing_plan_id":"cebpf4jnsgd1na2vs0mg"},{"bike_id":"db980fb1-41f2-4e76-8169-c097d23619b5","system_id":"levelo_inurba_marseille","lat":43.29274,"lon":5.3844,"is_reserved":false,"is_disabled":false,"rental_uris":{"android":"levelo://app?vid=db980fb1-41f2-4e76-8169-c097d23619b5","ios":"levelo://app?vid=db980fb1-41f2-4e76-8169-c097d23619b5"},"vehicle_type_id":"4","last_reported":1742933477,"current_range_meters":10800,"station_id":"ce4bh692rcd13ifvqea0","pricing_plan_id":"cebpf4jnsgd1na2vs0mg"},{"bike_id":"fc2cc0a3-bfc1-483d-ac7a-d91e15d05d6c","system_id":"levelo_inurba_marseille","lat":43.25439,"lon":5.4127,"is_reserved":false,"is_disabled":false,"rental_uris":{"android":"levelo://app?vid=fc2cc0a3-bfc1-483d-ac7a-d91e15d05d6c","ios":"levelo://app?vid=fc2cc0a3-bfc1-483d-ac7a-d91e15d05d6c"},"vehicle_type_id":"4","last_reported":1742933477,"current_range_meters":10800,"station_id":"","pricing_plan_id":"cebpf4jnsgd1na2vs0mg"},{"bike_id":"1c79d7bb-e011-4668-a8c5-26957aed92ee","system_id":"levelo_inurba_marseille","lat":43.28264,"lon":5.35078,"is_reserved":false,"is_disabled":false,"rental_uris":{"android":"levelo://app?vid=1c79d7bb-e011-4668-a8c5-26957aed92ee","ios":"levelo://app?vid=1c79d7bb-e011-4668-a8c5-26957aed92ee"},"vehicle_type_id":"4","last_reported":1742933477,"current_range_meters":10800,"station_id":"ce4bhbp2rcd13ifvqerg","pricing_plan_id":"cebpf4jnsgd1na2vs0mg"},{"bike_id":"045b1dab-8a4b-40f0-be21-afa78e5c8029","system_id":"levelo_inurba_marseille","lat":43.292355,"lon":5.360384,"is_reserved":false,"is_disabled":false,"rental_uris":{"android":"levelo://app?vid=045b1dab-8a4b-40f0-be21-afa78e5c8029","ios":"levelo://app?vid=045b1dab-8a4b-40f0-be21-afa78e5c8029"},"vehicle_type_id":"4","last_reported":1742933477,"current_range_meters":10800,"station_id":"ce4bhbh2rcd13ifvqeqg","pricing_plan_id":"cebpf4jnsgd1na2vs0mg"},{"bike_id":"fc83455b-06ec-4d75-b829-3b33b05614fa","system_id":"levelo_inurba_marseille","lat":43.2926,"lon":5.38448,"is_reserved":false,"is_disabled":false,"rental_uris":{"android":"levelo://app?vid=fc83455b-06ec-4d75-b829-3b33b05614fa","ios":"levelo://app?vid=fc83455b-06ec-4d75-b829-3b33b05614fa"},"vehicle_type_id":"4","last_reported":1742933477,"current_range_meters":10800,"station_id":"ce4bh692rcd13ifvqea0","pricing_plan_id":"cebpf4jnsgd1na2vs0mg"},{"bike_id":"746238c7-380e-4c5b-8902-a46bc0dcd03b","system_id":"levelo_inurba_marseille","lat":43.30614,"lon":5.37236,"is_reserved":false,"is_disabled":false,"rental_uris":{"android":"levelo://app?vid=746238c7-380e-4c5b-8902-a46bc0dcd03b","ios":"levelo://app?vid=746238c7-380e-4c5b-8902-a46bc0dcd03b"},"vehicle_type_id":"4","last_reported":1742933477,"current_range_meters":10000,"station_id":"ce4bgqh2rcd13ifvqc4g","pricing_plan_id":"cebpf4jnsgd1na2vs0mg"},{"bike_id":"09f68dd2-7ea8-41d7-87a4-38bbb8853b07","system_id":"levelo_inurba_marseille","lat":43.24538,"lon":5.39517,"is_reserved":false,"is_disabled":false,"rental_uris":{"android":"levelo://app?vid=09f68dd2-7ea8-41d7-87a4-38bbb8853b07","ios":"levelo://app?vid=09f68dd2-7ea8-41d7-87a4-38bbb8853b07"},"vehicle_type_id":"4","last_reported":1742933477,"current_range_meters":10000,"station_id":"ce4bhlp2rcd13ifvqgjg","pricing_plan_id":"cebpf4jnsgd1na2vs0mg"},{"bike_id":"59162473-4ee2-4943-a5f7-01b0c9e9bebf","system_id":"levelo_inurba_marseille","lat":43.29407,"lon":5.3862,"is_reserved":false,"is_disabled":false,"rental_uris":{"android":"levelo://app?vid=59162473-4ee2-4943-a5f7-01b0c9e9bebf","ios":"levelo://app?vid=59162473-4ee2-4943-a5f7-01b0c9e9bebf"},"vehicle_type_id":"4","last_reported":1742933477,"current_range_meters":11200,"station_id":"ce4bh2h2rcd13ifvqdh0","pricing_plan_id":"cebpf4jnsgd1na2vs0mg"},{"bike_id":"1f7c0678-f79b-45df-b1c3-63ff540086d6","system_id":"levelo_inurba_marseille","lat":43.29983,"lon":5.38489,"is_reserved":false,"is_disabled":false,"rental_uris":{"android":"levelo://app?vid=1f7c0678-f79b-45df-b1c3-63ff540086d6","ios":"levelo://app?vid=1f7c0678-f79b-45df-b1c3-63ff540086d6"},"vehicle_type_id":"4","last_reported":1742933477,"current_range_meters":11200,"station_id":"ce4bgj92rcd13ifvqbd0","pricing_plan_id":"cebpf4jnsgd1na2vs0mg"},{"bike_id":"fc5b2e15-6627-4581-82c4-2b7159dbe5a0","system_id":"levelo_inurba_marseille","lat":43.29915,"lon":5.38141,"is_reserved":false,"is_disabled":false,"rental_uris":{"android":"levelo://app?vid=fc5b2e15-6627-4581-82c4-2b7159dbe5a0","ios":"levelo://app?vid=fc5b2e15-6627-4581-82c4-2b7159dbe5a0"},"vehicle_type_id":"4","last_reported":1742933477,"current_range_meters":11200,"station_id":"ce4bgj12rcd13ifvqbc0","pricing_plan_id":"cebpf4jnsgd1na2vs0mg"},{"bike_id":"a86f77b5-4f60-4373-9e14-1c36c13ffed9","system_id":"levelo_inurba_marseille","lat":43.25868,"lon":5.39925,"is_reserved":false,"is_disabled":false,"rental_uris":{"android":"levelo://app?vid=a86f77b5-4f60-4373-9e14-1c36c13ffed9","ios":"levelo://app?vid=a86f77b5-4f60-4373-9e14-1c36c13ffed9"},"vehicle_type_id":"4","last_reported":1742933477,"current_range_meters":11200,"station_id":"ce4bhl92rcd13ifvqghg","pricing_plan_id":"cebpf4jnsgd1na2vs0mg"},{"bike_id":"fa348e68-6b41-4c48-87ea-4c526fcf816d","system_id":"levelo_inurba_marseille","lat":43.281567,"lon":5.426054,"is_reserved":false,"is_disabled":false,"rental_uris":{"android":"levelo://app?vid=fa348e68-6b41-4c48-87ea-4c526fcf816d","ios":"levelo://app?vid=fa348e68-6b41-4c48-87ea-4c526fcf816d"},"vehicle_type_id":"4","last_reported":1742933477,"current_range_meters":11200,"station_id":"ce4bhnh2rcd13ifvqgug","pricing_plan_id":"cebpf4jnsgd1na2vs0mg"},{"bike_id":"3ba44278-344f-4684-bf75-31df0ec23b7d","system_id":"levelo_inurba_marseille","lat":43.260294,"lon":5.375479,"is_reserved":false,"is_disabled":false,"rental_uris":{"android":"levelo://app?vid=3ba44278-344f-4684-bf75-31df0ec23b7d","ios":"levelo://app?vid=3ba44278-344f-4684-bf75-31df0ec23b7d"},"vehicle_type_id":"4","last_reported":1742933477,"current_range_meters":10800,"station_id":"ce4bhgh2rcd13ifvqfa0","pricing_plan_id":"cebpf4jnsgd1na2vs0mg"},{"bike_id":"6bd82c37-6406-4469-9def-05b97b777f5e","system_id":"levelo_inurba_marseille","lat":43.21865,"lon":5.42,"is_reserved":false,"is_disabled":false,"rental_uris":{"android":"levelo://app?vid=6bd82c37-6406-4469-9def-05b97b777f5e","ios":"levelo://app?vid=6bd82c37-6406-4469-9def-05b97b777f5e"},"vehicle_type_id":"4","last_reported":1742933477,"current_range_meters":11200,"station_id":"","pricing_plan_id":"cebpf4jnsgd1na2vs0mg"},{"bike_id":"f7c25d2a-76f7-4aa4-a31a-c4fb21f96f14","system_id":"levelo_inurba_marseille","lat":43.30785,"lon":5.37642,"is_reserved":false,"is_disabled":false,"rental_uris":{"android":"levelo://app?vid=f7c25d2a-76f7-4aa4-a31a-c4fb21f96f14","ios":"levelo://app?vid=f7c25d2a-76f7-4aa4-a31a-c4fb21f96f14"},"vehicle_type_id":"4","last_reported":1742933477,"current_range_meters":11600,"station_id":"ce4bgv92rcd13ifvqcq0","pricing_plan_id":"cebpf4jnsgd1na2vs0mg"},{"bike_id":"e4d66e59-4f1d-4844-97f7-5ea06b1cd6a8","system_id":"levelo_inurba_marseille","lat":43.29276,"lon":5.38444,"is_reserved":false,"is_disabled":false,"rental_uris":{"android":"levelo://app?vid=e4d66e59-4f1d-4844-97f7-5ea06b1cd6a8","ios":"levelo://app?vid=e4d66e59-4f1d-4844-97f7-5ea06b1cd6a8"},"vehicle_type_id":"4","last_reported":1742933477,"current_range_meters":11600,"station_id":"ce4bh692rcd13ifvqea0","pricing_plan_id":"cebpf4jnsgd1na2vs0mg"},{"bike_id":"67ae56a4-71da-4a44-95ac-59dbc232e37b","system_id":"levelo_inurba_marseille","lat":43.23188,"lon":5.3998,"is_reserved":false,"is_disabled":false,"rental_uris":{"android":"levelo://app?vid=67ae56a4-71da-4a44-95ac-59dbc232e37b","ios":"levelo://app?vid=67ae56a4-71da-4a44-95ac-59dbc232e37b"},"vehicle_type_id":"4","last_reported":1742933477,"current_range_meters":11600,"station_id":"ce4bhn12rcd13ifvqgqg","pricing_plan_id":"cebpf4jnsgd1na2vs0mg"},{"bike_id":"e29b3975-254e-45de-8d04-d1d9d208f32d","system_id":"levelo_inurba_marseille","lat":43.29942,"lon":5.36548,"is_reserved":false,"is_disabled":false,"rental_uris":{"android":"levelo://app?vid=e29b3975-254e-45de-8d04-d1d9d208f32d","ios":"levelo://app?vid=e29b3975-254e-45de-8d04-d1d9d208f32d"},"vehicle_type_id":"4","last_reported":1742933477,"current_range_meters":11600,"station_id":"ce4bgm92rcd13ifvqbr0","pricing_plan_id":"cebpf4jnsgd1na2vs0mg"},{"bike_id":"d95168dd-c26f-4aab-8247-774a3a988359","system_id":"levelo_inurba_marseille","lat":43.28718,"lon":5.37946,"is_reserved":false,"is_disabled":false,"rental_uris":{"android":"levelo://app?vid=d95168dd-c26f-4aab-8247-774a3a988359","ios":"levelo://app?vid=d95168dd-c26f-4aab-8247-774a3a988359"},"vehicle_type_id":"4","last_reported":1742933477,"current_range_meters":12000,"station_id":"ce4bh9p2rcd13ifvqec0","pricing_plan_id":"cebpf4jnsgd1na2vs0mg"},{"bike_id":"10de7768-924a-4558-9779-5aa45bd3d6cb","system_id":"levelo_inurba_marseille","lat":43.31711,"lon":5.43707,"is_reserved":false,"is_disabled":false,"rental_uris":{"android":"levelo://app?vid=10de7768-924a-4558-9779-5aa45bd3d6cb","ios":"levelo://app?vid=10de7768-924a-4558-9779-5aa45bd3d6cb"},"vehicle_type_id":"4","last_reported":1742933477,"current_range_meters":12000,"station_id":"ce4bhp92rcd13ifvqhcg","pricing_plan_id":"cebpf4jnsgd1na2vs0mg"},{"bike_id":"b6b2292d-4fe0-46bd-b5e3-5d09e961fb66","system_id":"levelo_inurba_marseille","lat":43.29423,"lon":5.38655,"is_reserved":false,"is_disabled":false,"rental_uris":{"android":"levelo://app?vid=b6b2292d-4fe0-46bd-b5e3-5d09e961fb66","ios":"levelo://app?vid=b6b2292d-4fe0-46bd-b5e3-5d09e961fb66"},"vehicle_type_id":"4","last_reported":1742933477,"current_range_meters":12000,"station_id":"ce4bh2h2rcd13ifvqdh0","pricing_plan_id":"cebpf4jnsgd1na2vs0mg"},{"bike_id":"0c9cada4-2764-4013-a528-15089818cb84","system_id":"levelo_inurba_marseille","lat":43.27773,"lon":5.41131,"is_reserved":false,"is_disabled":false,"rental_uris":{"android":"levelo://app?vid=0c9cada4-2764-4013-a528-15089818cb84","ios":"levelo://app?vid=0c9cada4-2764-4013-a528-15089818cb84"},"vehicle_type_id":"4","last_reported":1742933477,"current_range_meters":12000,"station_id":"","pricing_plan_id":"cebpf4jnsgd1na2vs0mg"},{"bike_id":"2aaf36df-ac96-4a53-b45c-e5b1b1653e28","system_id":"levelo_inurba_marseille","lat":43.243898,"lon":5.370697,"is_reserved":false,"is_disabled":false,"rental_uris":{"android":"levelo://app?vid=2aaf36df-ac96-4a53-b45c-e5b1b1653e28","ios":"levelo://app?vid=2aaf36df-ac96-4a53-b45c-e5b1b1653e28"},"vehicle_type_id":"4","last_reported":1742933477,"current_range_meters":11600,"station_id":"ce4bhhh2rcd13ifvqfk0","pricing_plan_id":"cebpf4jnsgd1na2vs0mg"},{"bike_id":"54eba66e-0dc9-4fab-a9e6-e33c09196d8d","system_id":"levelo_inurba_marseille","lat":43.28158,"lon":5.42651,"is_reserved":false,"is_disabled":false,"rental_uris":{"android":"levelo://app?vid=54eba66e-0dc9-4fab-a9e6-e33c09196d8d","ios":"levelo://app?vid=54eba66e-0dc9-4fab-a9e6-e33c09196d8d"},"vehicle_type_id":"4","last_reported":1742933477,"current_range_meters":12000,"station_id":"ce4bhnh2rcd13ifvqgug","pricing_plan_id":"cebpf4jnsgd1na2vs0mg"},{"bike_id":"af3406ea-2d31-4d41-9256-276b7b610da4","system_id":"levelo_inurba_marseille","lat":43.29528,"lon":5.38549,"is_reserved":false,"is_disabled":false,"rental_uris":{"android":"levelo://app?vid=af3406ea-2d31-4d41-9256-276b7b610da4","ios":"levelo://app?vid=af3406ea-2d31-4d41-9256-276b7b610da4"},"vehicle_type_id":"4","last_reported":1742933477,"current_range_meters":12000,"station_id":"ce4bgih2rcd13ifvqba0","pricing_plan_id":"cebpf4jnsgd1na2vs0mg"},{"bike_id":"19b89665-83f2-4ac2-84ba-195b9ac8bcd1","system_id":"levelo_inurba_marseille","lat":43.2793,"lon":5.39564,"is_reserved":false,"is_disabled":false,"rental_uris":{"android":"levelo://app?vid=19b89665-83f2-4ac2-84ba-195b9ac8bcd1","ios":"levelo://app?vid=19b89665-83f2-4ac2-84ba-195b9ac8bcd1"},"vehicle_type_id":"4","last_reported":1742933477,"current_range_meters":12000,"station_id":"ce4bhf92rcd13ifvqf40","pricing_plan_id":"cebpf4jnsgd1na2vs0mg"},{"bike_id":"5653488a-e008-42f3-8972-82c6f9548cee","system_id":"levelo_inurba_marseille","lat":43.3109,"lon":5.42462,"is_reserved":false,"is_disabled":false,"rental_uris":{"android":"levelo://app?vid=5653488a-e008-42f3-8972-82c6f9548cee","ios":"levelo://app?vid=5653488a-e008-42f3-8972-82c6f9548cee"},"vehicle_type_id":"4","last_reported":1742933477,"current_range_meters":12000,"station_id":"ce4bhp92rcd13ifvqhag","pricing_plan_id":"cebpf4jnsgd1na2vs0mg"},{"bike_id":"19e7d5f6-5f03-4397-ba9e-f2dc515d6acd","system_id":"levelo_inurba_marseille","lat":43.28724,"lon":5.37951,"is_reserved":false,"is_disabled":false,"rental_uris":{"android":"levelo://app?vid=19e7d5f6-5f03-4397-ba9e-f2dc515d6acd","ios":"levelo://app?vid=19e7d5f6-5f03-4397-ba9e-f2dc515d6acd"},"vehicle_type_id":"4","last_reported":1742933477,"current_range_meters":12000,"station_id":"ce4bh9p2rcd13ifvqec0","pricing_plan_id":"cebpf4jnsgd1na2vs0mg"},{"bike_id":"2fac814a-43e0-4717-b417-c7b3d6c39782","system_id":"levelo_inurba_marseille","lat":43.32336,"lon":5.38255,"is_reserved":false,"is_disabled":false,"rental_uris":{"android":"levelo://app?vid=2fac814a-43e0-4717-b417-c7b3d6c39782","ios":"levelo://app?vid=2fac814a-43e0-4717-b417-c7b3d6c39782"},"vehicle_type_id":"4","last_reported":1742933477,"current_range_meters":12000,"station_id":"ce4bhr12rcd13ifvqhqg","pricing_plan_id":"cebpf4jnsgd1na2vs0mg"},{"bike_id":"1d8a3249-9200-4972-bc96-75314e87b237","system_id":"levelo_inurba_marseille","lat":43.30614,"lon":5.36799,"is_reserved":false,"is_disabled":false,"rental_uris":{"android":"levelo://app?vid=1d8a3249-9200-4972-bc96-75314e87b237","ios":"levelo://app?vid=1d8a3249-9200-4972-bc96-75314e87b237"},"vehicle_type_id":"4","last_reported":1742933477,"current_range_meters":12000,"station_id":"","pricing_plan_id":"cebpf4jnsgd1na2vs0mg"},{"bike_id":"6e59aff7-3c3a-4c10-a2d3-7167cd927d07","system_id":"levelo_inurba_marseille","lat":43.29534,"lon":5.3853,"is_reserved":false,"is_disabled":false,"rental_uris":{"android":"levelo://app?vid=6e59aff7-3c3a-4c10-a2d3-7167cd927d07","ios":"levelo://app?vid=6e59aff7-3c3a-4c10-a2d3-7167cd927d07"},"vehicle_type_id":"4","last_reported":1742933477,"current_range_meters":12000,"station_id":"ce4bgih2rcd13ifvqba0","pricing_plan_id":"cebpf4jnsgd1na2vs0mg"},{"bike_id":"c4b88c2e-98e3-4499-8e1f-4f4d33a56e5a","system_id":"levelo_inurba_marseille","lat":43.28426,"lon":5.349927,"is_reserved":false,"is_disabled":true,"rental_uris":{"android":"levelo://app?vid=c4b88c2e-98e3-4499-8e1f-4f4d33a56e5a","ios":"levelo://app?vid=c4b88c2e-98e3-4499-8e1f-4f4d33a56e5a"},"vehicle_type_id":"4","last_reported":1742933477,"current_range_meters":12000,"station_id":"ce4bhbh2rcd13ifvqepg","pricing_plan_id":"cebpf4jnsgd1na2vs0mg"},{"bike_id":"a131070a-e779-4800-86bd-eec8ea7cf525","system_id":"levelo_inurba_marseille","lat":43.28101,"lon":5.37886,"is_reserved":false,"is_disabled":false,"rental_uris":{"android":"levelo://app?vid=a131070a-e779-4800-86bd-eec8ea7cf525","ios":"levelo://app?vid=a131070a-e779-4800-86bd-eec8ea7cf525"},"vehicle_type_id":"4","last_reported":1742933477,"current_range_meters":12400,"station_id":"ce4bha12rcd13ifvqee0","pricing_plan_id":"cebpf4jnsgd1na2vs0mg"},{"bike_id":"419e95d8-b511-4804-832e-48cb7b1519ff","system_id":"levelo_inurba_marseille","lat":43.27822,"lon":5.40729,"is_reserved":false,"is_disabled":false,"rental_uris":{"android":"levelo://app?vid=419e95d8-b511-4804-832e-48cb7b1519ff","ios":"levelo://app?vid=419e95d8-b511-4804-832e-48cb7b1519ff"},"vehicle_type_id":"4","last_reported":1742933477,"current_range_meters":12400,"station_id":"ce4bhnh2rcd13ifvqgtg","pricing_plan_id":"cebpf4jnsgd1na2vs0mg"},{"bike_id":"75d89ffb-0e98-4900-bbef-b5d8ed9bccc0","system_id":"levelo_inurba_marseille","lat":43.30897,"lon":5.39641,"is_reserved":false,"is_disabled":false,"rental_uris":{"android":"levelo://app?vid=75d89ffb-0e98-4900-bbef-b5d8ed9bccc0","ios":"levelo://app?vid=75d89ffb-0e98-4900-bbef-b5d8ed9bccc0"},"vehicle_type_id":"4","last_reported":1742933477,"current_range_meters":12400,"station_id":"ce4bh012rcd13ifvqcv0","pricing_plan_id":"cebpf4jnsgd1na2vs0mg"},{"bike_id":"f227af2b-8503-4f19-ae66-00f3342d1506","system_id":"levelo_inurba_marseille","lat":43.31079,"lon":5.42431,"is_reserved":false,"is_disabled":false,"rental_uris":{"android":"levelo://app?vid=f227af2b-8503-4f19-ae66-00f3342d1506","ios":"levelo://app?vid=f227af2b-8503-4f19-ae66-00f3342d1506"},