{"last_updated":1723489660,"ttl":30,"version":"2.2","data":{"bikes":[{"bike_id":"2f04b651-001b-4734-85f7-564c9a5f0f1c","system_id":"levelo_inurba_marseille","lat":43.314937,"lon":5.373133,"is_reserved":false,"is_disabled":false,"rental_uris":{"android":"levelo://app?vid=2f04b651-001b-4734-85f7-564c9a5f0f1c","ios":"levelo://app?vid=2f04b651-001b-4734-85f7-564c9a5f0f1c"},"vehicle_type_id":"4","last_reported":1723489660,"current_range_meters":2400,"station_id":"ce4bgt12rcd13ifvqcd0","pricing_plan_id":"cebpf4jnsgd1na2vs0mg"},{"bike_id":"629d01f7-cc91-46be-847f-f0d0b6a74b82","system_id":"levelo_inurba_marseille","lat":43.309039,"lon":5.371797,"is_reserved":false,"is_disabled":false,"rental_uris":{"android":"levelo://app?vid=629d01f7-cc91-46be-847f-f0d0b6a74b82","ios":"levelo://app?vid=629d01f7-cc91-46be-847f-f0d0b6a74b82"},"vehicle_type_id":"4","last_reported":1723489660,"current_range_meters":0,"station_id":"ce4bguh2rcd13ifvqckg","pricing_plan_id":"cebpf4jnsgd1na2vs0mg"},{"bike_id":"6e2082ff-804f-411e-b408-38c886d62e56","system_id":"levelo_inurba_marseille","lat":43.309034,"lon":5.371783,"is_reserved":false,"is_disabled":false,"rental_uris":{"android":"levelo://app?vid=6e2082ff-804f-411e-b408-38c886d62e56","ios":"levelo://app?vid=6e2082ff-804f-411e-b408-38c886d62e56"},"vehicle_type_id":"4","last_reported":1723489660,"current_range_meters":29200,"station_id":"ce4bguh2rcd13ifvqckg","pricing_plan_id":"cebpf4jnsgd1na2vs0mg"},{"bike_id":"b4223c76-80c5-43b1-9871-38306a007766","system_id":"levelo_inurba_marseille","lat":43.309039,"lon":5.371797,"is_reserved":false,"is_disabled":false,"rental_uris":{"android":"levelo://app?vid=b4223c76-80c5-43b1-9871-38306a007766","ios":"levelo://app?vid=b4223c76-80c5-43b1-9871-38306a007766"},"vehicle_type_id":"4","last_reported":1723489660,"current_range_meters":400,"station_id":"ce4bguh2rcd13ifvqckg","pricing_plan_id":"cebpf4jnsgd1na2vs0mg"},{"bike_id":"d09d6eee-08ef-4230-9ef5-b9cd07de562f","system_id":"levelo_inurba_marseille","lat":43.309034,"lon":5.371783,"is_reserved":false,"is_disabled":false,"rental_uris":{"android":"levelo://app?vid=d09d6eee-08ef-4230-9ef5-b9cd07de562f","ios":"levelo://app?vid=d09d6eee-08ef-4230-9ef5-b9cd07de562f"},"vehicle_type_id":"4","last_reported":1723489660,"current_range_meters":3600,"station_id":"ce4bguh2rcd13ifvqckg","pricing_plan_id":"cebpf4jnsgd1na2vs0mg"},{"bike_id":"802ee418-d327-4584-a8d8-355bc05f5a44","system_id":"levelo_inurba_marseille","lat":43.309039,"lon":5.371797,"is_reserved":false,"is_disabled":false,"rental_uris":{"android":"levelo://app?vid=802ee418-d327-4584-a8d8-355bc05f5a44","ios":"levelo://app?vid=802ee418-d327-4584-a8d8-355bc05f5a44"},"vehicle_type_id":"4","last_reported":1723489660,"current_range_meters":0,"station_id":"ce4bguh2rcd13ifvqckg","pricing_plan_id":"cebpf4jnsgd1na2vs0mg"},{"bike_id":"90bc22fc-a561-4107-b92f-01c9be7f7050","system_id":"levelo_inurba_marseille","lat":43.30541,"lon":5.36546,"is_reserved":false,"is_disabled":false,"rental_uris":{"android":"levelo://app?vid=90bc22fc-a561-4107-b92f-01c9be7f7050","ios":"levelo://app?vid=90bc22fc-a561-4107-b92f-01c9be7f7050"},"vehicle_type_id":"4","last_reported":1723489660,"current_range_meters":21600,"station_id":"ce4bgs12rcd13ifvqcag","pricing_plan_id":"cebpf4jnsgd1na2vs0mg"},{"bike_id":"420552d5-7296-4a32-bdb8-4e9542aab52e","system_id":"levelo_inurba_marseille","lat":43.305706,"lon":5.365654,"is_reserved":false,"is_disabled":false,"rental_uris":{"android":"levelo://app?vid=420552d5-7296-4a32-bdb8-4e9542aab52e","ios":"levelo://app?vid=420552d5-7296-4a32-bdb8-4e9542aab52e"},"vehicle_type_id":"4","last_reported":1723489660,"current_range_meters":28800,"station_id":"ce4bgs12rcd13ifvqcag","pricing_plan_id":"cebpf4jnsgd1na2vs0mg"},{"bike_id":"89a851bc-633f-4b0b-97e2-e594c193a7aa","system_id":"levelo_inurba_marseille","lat":43.305706,"lon":5.365654,"is_reserved":false,"is_disabled":false,"rental_uris":{"android":"levelo://app?vid=89a851bc-633f-4b0b-97e2-e594c193a7aa","ios":"levelo://app?vid=89a851bc-633f-4b0b-97e2-e594c193a7aa"},"vehicle_type_id":"4","last_reported":1723489660,"current_range_meters":31200,"station_id":"ce4bgs12rcd13ifvqcag","pricing_plan_id":"cebpf4jnsgd1na2vs0mg"},{"bike_id":"aa74773d-5419-4cf8-a46e-5ffa25f6e788","system_id":"levelo_inurba_marseille","lat":43.311125,"lon":5.377624,"is_reserved":false,"is_disabled":false,"rental_uris":{"android":"levelo://app?vid=aa74773d-5419-4cf8-a46e-5ffa25f6e788","ios":"levelo://app?vid=aa74773d-5419-4cf8-a46e-5ffa25f6e788"},"vehicle_type_id":"4","last_reported":1723489660,"current_range_meters":1600,"station_id":"ce4bgt92rcd13ifvqcg0","pricing_plan_id":"cebpf4jnsgd1na2vs0mg"},{"bike_id":"09f1fc67-3cab-4370-819b-665eb4dff92c","system_id":"levelo_inurba_marseille","lat":43.31119,"lon":5.37767,"is_reserved":false,"is_disabled":false,"rental_uris":{"android":"levelo://app?vid=09f1fc67-3cab-4370-819b-665eb4dff92c","ios":"levelo://app?vid=09f1fc67-3cab-4370-819b-665eb4dff92c"},"vehicle_type_id":"4","last_reported":1723489660,"current_range_meters":0,"station_id":"ce4bgt92rcd13ifvqcg0","pricing_plan_id":"cebpf4jnsgd1na2vs0mg"},{"bike_id":"1bf91a1c-0c23-4911-bc45-3671d31e64b5","system_id":"levelo_inurba_marseille","lat":43.311125,"lon":5.377624,"is_reserved":false,"is_disabled":false,"rental_uris":{"android":"levelo://app?vid=1bf91a1c-0c23-4911-bc45-3671d31e64b5","ios":"levelo://app?vid=1bf91a1c-0c23-4911-bc45-3671d31e64b5"},"vehicle_type_id":"4","last_reported":1723489660,"current_range_meters":1600,"station_id":"ce4bgt92rcd13ifvqcg0","pricing_plan_id":"cebpf4jnsgd1na2vs0mg"},{"bike_id":"50c3bdf1-48d3-478b-8878-a1837862eaac","system_id":"levelo_inurba_marseille","lat":43.311125,"lon":5.377624,"is_reserved":false,"is_disabled":false,"rental_uris":{"android":"levelo://app?vid=50c3bdf1-48d3-478b-8878-a1837862eaac","ios":"levelo://app?vid=50c3bdf1-48d3-478b-8878-a1837862eaac"},"vehicle_type_id":"4","last_reported":1723489660,"current_range_meters":13200,"station_id":"ce4bgt92rcd13ifvqcg0","pricing_plan_id":"cebpf4jnsgd1na2vs0mg"},{"bike_id":"ac0a1cd0-9596-486b-a3a2-60a8b0b5f1df","system_id":"levelo_inurba_marseille","lat":43.311125,"lon":5.377624,"is_reserved":false,"is_disabled":false,"rental_uris":{"android":"levelo://app?vid=ac0a1cd0-9596-486b-a3a2-60a8b0b5f1df","ios":"levelo://app?vid=ac0a1cd0-9596-486b-a3a2-60a8b0b5f1df"},"vehicle_type_id":"4","last_reported":1723489660,"current_range_meters":1200,"station_id":"ce4bgt92rcd13ifvqcg0","pricing_plan_id":"cebpf4jnsgd1na2vs0mg"},{"bike_id":"dc6d3567-004a-45b5-ae5f-cb935a982109","system_id":"levelo_inurba_marseille","lat":43.307945,"lon":5.376487,"is_reserved":false,"is_disabled":false,"rental_uris":{"android":"levelo://app?vid=dc6d3567-004a-45b5-ae5f-cb935a982109","ios":"levelo://app?vid=dc6d3567-004a-45b5-ae5f-cb935a982109"},"vehicle_type_id":"4","last_reported":1723489660,"current_range_meters":6000,"station_id":"ce4bgv92rcd13ifvqcq0","pricing_plan_id":"cebpf4jnsgd1na2vs0mg"},{"bike_id":"4c497721-79eb-4158-aa50-4b48e50f9df3","system_id":"levelo_inurba_marseille","lat":43.30778,"lon":5.37652,"is_reserved":false,"is_disabled":false,"rental_uris":{"android":"levelo://app?vid=4c497721-79eb-4158-aa50-4b48e50f9df3","ios":"levelo://app?vid=4c497721-79eb-4158-aa50-4b48e50f9df3"},"vehicle_type_id":"4","last_reported":1723489660,"current_range_meters":19600,"station_id":"","pricing_plan_id":"cebpf4jnsgd1na2vs0mg"},{"bike_id":"5d749888-2586-495c-ab5b-d9480ce48854","system_id":"levelo_inurba_marseille","lat":43.317075,"lon":5.377367,"is_reserved":false,"is_disabled":false,"rental_uris":{"android":"levelo://app?vid=5d749888-2586-495c-ab5b-d9480ce48854","ios":"levelo://app?vid=5d749888-2586-495c-ab5b-d9480ce48854"},"vehicle_type_id":"4","last_reported":1723489660,"current_range_meters":1200,"station_id":"ce4bgth2rcd13ifvqch0","pricing_plan_id":"cebpf4jnsgd1na2vs0mg"},{"bike_id":"e43d9e2c-9d56-4741-96c8-9ef311a5fe37","system_id":"levelo_inurba_marseille","lat":43.30866,"lon":5.37902,"is_reserved":false,"is_disabled":false,"rental_uris":{"android":"levelo://app?vid=e43d9e2c-9d56-4741-96c8-9ef311a5fe37","ios":"levelo://app?vid=e43d9e2c-9d56-4741-96c8-9ef311a5fe37"},"vehicle_type_id":"4","last_reported":1723489660,"current_range_meters":19600,"station_id":"","pricing_plan_id":"cebpf4jnsgd1na2vs0mg"},{"bike_id":"49d283a4-0631-49a6-9386-6a5d3263c73b","system_id":"levelo_inurba_marseille","lat":43.301939,"lon":5.366286,"is_reserved":false,"is_disabled":false,"rental_uris":{"android":"levelo://app?vid=49d283a4-0631-49a6-9386-6a5d3263c73b","ios":"levelo://app?vid=49d283a4-0631-49a6-9386-6a5d3263c73b"},"vehicle_type_id":"4","last_reported":1723489660,"current_range_meters":14400,"station_id":"ce4bgrh2rcd13ifvqc8g","pricing_plan_id":"cebpf4jnsgd1na2vs0mg"},{"bike_id":"0c3c5926-8fd6-4c66-8f37-ea2220f64933","system_id":"levelo_inurba_marseille","lat":43.301939,"lon":5.366286,"is_reserved":false,"is_disabled":false,"rental_uris":{"android":"levelo://app?vid=0c3c5926-8fd6-4c66-8f37-ea2220f64933","ios":"levelo://app?vid=0c3c5926-8fd6-4c66-8f37-ea2220f64933"},"vehicle_type_id":"4","last_reported":1723489660,"current_range_meters":25200,"station_id":"ce4bgrh2rcd13ifvqc8g","pricing_plan_id":"cebpf4jnsgd1na2vs0mg"},{"bike_id":"92fdf15f-68cd-422f-89ad-9a9c9d3d946d","system_id":"levelo_inurba_marseille","lat":43.308012,"lon":5.381511,"is_reserved":false,"is_disabled":false,"rental_uris":{"android":"levelo://app?vid=92fdf15f-68cd-422f-89ad-9a9c9d3d946d","ios":"levelo://app?vid=92fdf15f-68cd-422f-89ad-9a9c9d3d946d"},"vehicle_type_id":"4","last_reported":1723489660,"current_range_meters":0,"station_id":"ce4bgt12rcd13ifvqce0","pricing_plan_id":"cebpf4jnsgd1na2vs0mg"},{"bike_id":"9493abe9-1450-4d6b-ba9a-bb500eadb784","system_id":"levelo_inurba_marseille","lat":43.30804,"lon":5.38161,"is_reserved":false,"is_disabled":false,"rental_uris":{"android":"levelo://app?vid=9493abe9-1450-4d6b-ba9a-bb500eadb784","ios":"levelo://app?vid=9493abe9-1450-4d6b-ba9a-bb500eadb784"},"vehicle_type_id":"4","last_reported":1723489660,"current_range_meters":22400,"station_id":"ce4bgt12rcd13ifvqce0","pricing_plan_id":"cebpf4jnsgd1na2vs0mg"},{"bike_id":"2ae08778-cdd2-4363-a578-1773c028cb39","system_id":"levelo_inurba_marseille","lat":43.308012,"lon":5.381511,"is_reserved":false,"is_disabled":false,"rental_uris":{"android":"levelo://app?vid=2ae08778-cdd2-4363-a578-1773c028cb39","ios":"levelo://app?vid=2ae08778-cdd2-4363-a578-1773c028cb39"},"vehicle_type_id":"4","last_reported":1723489660,"current_range_meters":17200,"station_id":"ce4bgt12rcd13ifvqce0","pricing_plan_id":"cebpf4jnsgd1na2vs0mg"},{"bike_id":"56b131f8-cd78-4818-8660-bb70ce1abffb","system_id":"levelo_inurba_marseille","lat":43.308012,"lon":5.381511,"is_reserved":false,"is_disabled":false,"rental_uris":{"android":"levelo://app?vid=56b131f8-cd78-4818-8660-bb70ce1abffb","ios":"levelo://app?vid=56b131f8-cd78-4818-8660-bb70ce1abffb"},"vehicle_type_id":"4","last_reported":1723489660,"current_range_meters":31200,"station_id":"ce4bgt12rcd13ifvqce0","pricing_plan_id":"cebpf4jnsgd1na2vs0mg"},{"bike_id":"6275a340-aeef-47d8-b8a5-451881ee0145","system_id":"levelo_inurba_marseille","lat":43.308012,"lon":5.381511,"is_reserved":false,"is_disabled":false,"rental_uris":{"android":"levelo://app?vid=6275a340-aeef-47d8-b8a5-451881ee0145","ios":"levelo://app?vid=6275a340-aeef-47d8-b8a5-451881ee0145"},"vehicle_type_id":"4","last_reported":1723489660,"current_range_meters":21200,"station_id":"ce4bgt12rcd13ifvqce0","pricing_plan_id":"cebpf4jnsgd1na2vs0mg"},{"bike_id":"55b7ff80-d183-43f9-8ad1-98259ae13231","system_id":"levelo_inurba_marseille","lat":43.31048,"lon":5.38319,"is_reserved":false,"is_disabled":false,"rental_uris":{"android":"levelo://app?vid=55b7ff80-d183-43f9-8ad1-98259ae13231","ios":"levelo://app?vid=55b7ff80-d183-43f9-8ad1-98259ae13231"},"vehicle_type_id":"4","last_reported":1723489660,"current_range_meters":31200,"station_id":"ce4bgv92rcd13ifvqcr0","pricing_plan_id":"cebpf4jnsgd1na2vs0mg"},{"bike_id":"4c876a2d-6f70-45f3-98fa-f3e866000dc7","system_id":"levelo_inurba_marseille","lat":43.32367,"lon":5.388836,"is_reserved":false,"is_disabled":false,"rental_uris":{"android":"levelo://app?vid=4c876a2d-6f70-45f3-98fa-f3e866000dc7","ios":"levelo://app?vid=4c876a2d-6f70-45f3-98fa-f3e866000dc7"},"vehicle_type_id":"4","last_reported":1723489660,"current_range_meters":2000,"station_id":"ce4bhqp2rcd13ifvqhog","pricing_plan_id":"cebpf4jnsgd1na2vs0mg"},{"bike_id":"b88dc79a-1906-48cd-9ee4-30cdecc5a6b6","system_id":"levelo_inurba_marseille","lat":43.324771,"lon":5.36557,"is_reserved":false,"is_disabled":false,"rental_uris":{"android":"levelo://app?vid=b88dc79a-1906-48cd-9ee4-30cdecc5a6b6","ios":"levelo://app?vid=b88dc79a-1906-48cd-9ee4-30cdecc5a6b6"},"vehicle_type_id":"4","last_reported":1723489660,"current_range_meters":8800,"station_id":"ce4bhs12rcd13ifvqhvg","pricing_plan_id":"cebpf4jnsgd1na2vs0mg"},{"bike_id":"447077f9-dc20-4cdd-bd20-1ae28b83d464","system_id":"levelo_inurba_marseille","lat":43.324771,"lon":5.36557,"is_reserved":false,"is_disabled":false,"rental_uris":{"android":"levelo://app?vid=447077f9-dc20-4cdd-bd20-1ae28b83d464","ios":"levelo://app?vid=447077f9-dc20-4cdd-bd20-1ae28b83d464"},"vehicle_type_id":"4","last_reported":1723489660,"current_range_meters":29200,"station_id":"ce4bhs12rcd13ifvqhvg","pricing_plan_id":"cebpf4jnsgd1na2vs0mg"},{"bike_id":"f811e173-4731-424a-8631-08e95fb739e8","system_id":"levelo_inurba_marseille","lat":43.324771,"lon":5.36557,"is_reserved":false,"is_disabled":false,"rental_uris":{"android":"levelo://app?vid=f811e173-4731-424a-8631-08e95fb739e8","ios":"levelo://app?vid=f811e173-4731-424a-8631-08e95fb739e8"},"vehicle_type_id":"4","last_reported":1723489660,"current_range_meters":26400,"station_id":"ce4bhs12rcd13ifvqhvg","pricing_plan_id":"cebpf4jnsgd1na2vs0mg"},{"bike_id":"fee5ce24-b754-49ab-81aa-1fc791acb66d","system_id":"levelo_inurba_marseille","lat":43.310804,"lon":5.38359,"is_reserved":false,"is_disabled":false,"rental_uris":{"android":"levelo://app?vid=fee5ce24-b754-49ab-81aa-1fc791acb66d","ios":"levelo://app?vid=fee5ce24-b754-49ab-81aa-1fc791acb66d"},"vehicle_type_id":"4","last_reported":1723489660,"current_range_meters":27600,"station_id":"ce4bgv92rcd13ifvqcr0","pricing_plan_id":"cebpf4jnsgd1na2vs0mg"},{"bike_id":"679a0990-8e62-446d-bf6e-958ed7bec67e","system_id":"levelo_inurba_marseille","lat":43.310804,"lon":5.38359,"is_reserved":false,"is_disabled":false,"rental_uris":{"android":"levelo://app?vid=679a0990-8e62-446d-bf6e-958ed7bec67e","ios":"levelo://app?vid=679a0990-8e62-446d-bf6e-958ed7bec67e"},"vehicle_type_id":"4","last_reported":1723489660,"current_range_meters":19200,"station_id":"ce4bgv92rcd13ifvqcr0","pricing_plan_id":"cebpf4jnsgd1na2vs0mg"},{"bike_id":"b2245de5-5f52-413e-853a-d1da03e9b097","system_id":"levelo_inurba_marseille","lat":43.30612,"lon":5.38149,"is_reserved":false,"is_disabled":false,"rental_uris":{"android":"levelo://app?vid=b2245de5-5f52-413e-853a-d1da03e9b097","ios":"levelo://app?vid=b2245de5-5f52-413e-853a-d1da03e9b097"},"vehicle_type_id":"4","last_reported":1723489660,"current_range_meters":21200,"station_id":"","pricing_plan_id":"cebpf4jnsgd1na2vs0mg"},{"bike_id":"02c9dd0b-9bd8-4ac8-a213-24400626f233","system_id":"levelo_inurba_marseille","lat":43.319935,"lon":5.381699,"is_reserved":false,"is_disabled":false,"rental_uris":{"android":"levelo://app?vid=02c9dd0b-9bd8-4ac8-a213-24400626f233","ios":"levelo://app?vid=02c9dd0b-9bd8-4ac8-a213-24400626f233"},"vehicle_type_id":"4","last_reported":1723489660,"current_range_meters":30400,"station_id":"ce4bhr12rcd13ifvqhpg","pricing_plan_id":"cebpf4jnsgd1na2vs0mg"},{"bike_id":"284f467e-d66c-49af-8003-ac48585e7bd7","system_id":"levelo_inurba_marseille","lat":43.313571,"lon":5.384829,"is_reserved":false,"is_disabled":false,"rental_uris":{"android":"levelo://app?vid=284f467e-d66c-49af-8003-ac48585e7bd7","ios":"levelo://app?vid=284f467e-d66c-49af-8003-ac48585e7bd7"},"vehicle_type_id":"4","last_reported":1723489660,"current_range_meters":25200,"station_id":"ce4bgt92rcd13ifvqcf0","pricing_plan_id":"cebpf4jnsgd1na2vs0mg"},{"bike_id":"2dd0fe8a-43a8-4d37-9b4f-1e467600efaa","system_id":"levelo_inurba_marseille","lat":43.299222,"lon":5.365554,"is_reserved":false,"is_disabled":false,"rental_uris":{"android":"levelo://app?vid=2dd0fe8a-43a8-4d37-9b4f-1e467600efaa","ios":"levelo://app?vid=2dd0fe8a-43a8-4d37-9b4f-1e467600efaa"},"vehicle_type_id":"4","last_reported":1723489660,"current_range_meters":0,"station_id":"ce4bgm92rcd13ifvqbr0","pricing_plan_id":"cebpf4jnsgd1na2vs0mg"},{"bike_id":"ff30ae01-34ef-4f32-aefb-ccc038a04500","system_id":"levelo_inurba_marseille","lat":43.299724,"lon":5.371829,"is_reserved":false,"is_disabled":false,"rental_uris":{"android":"levelo://app?vid=ff30ae01-34ef-4f32-aefb-ccc038a04500","ios":"levelo://app?vid=ff30ae01-34ef-4f32-aefb-ccc038a04500"},"vehicle_type_id":"4","last_reported":1723489660,"current_range_meters":800,"station_id":"ce4bgr92rcd13ifvqc7g","pricing_plan_id":"cebpf4jnsgd1na2vs0mg"},{"bike_id":"d2fae7d4-4df8-4ac1-9f24-87b1d3832829","system_id":"levelo_inurba_marseille","lat":43.30252,"lon":5.38004,"is_reserved":false,"is_disabled":false,"rental_uris":{"android":"levelo://app?vid=d2fae7d4-4df8-4ac1-9f24-87b1d3832829","ios":"levelo://app?vid=d2fae7d4-4df8-4ac1-9f24-87b1d3832829"},"vehicle_type_id":"4","last_reported":1723489660,"current_range_meters":3600,"station_id":"","pricing_plan_id":"cebpf4jnsgd1na2vs0mg"},{"bike_id":"9eac4abc-54bb-459d-9888-46b2c18f2ac8","system_id":"levelo_inurba_marseille","lat":43.298433,"lon":5.362774,"is_reserved":false,"is_disabled":false,"rental_uris":{"android":"levelo://app?vid=9eac4abc-54bb-459d-9888-46b2c18f2ac8","ios":"levelo://app?vid=9eac4abc-54bb-459d-9888-46b2c18f2ac8"},"vehicle_type_id":"4","last_reported":1723489660,"current_range_meters":16800,"station_id":"ce4bgpp2rcd13ifvqc3g","pricing_plan_id":"cebpf4jnsgd1na2vs0mg"},{"bike_id":"8fb1fcf8-bea7-4bde-9d91-f38a9b71fbff","system_id":"levelo_inurba_marseille","lat":43.305364,"lon":5.384119,"is_reserved":false,"is_disabled":false,"rental_uris":{"android":"levelo://app?vid=8fb1fcf8-bea7-4bde-9d91-f38a9b71fbff","ios":"levelo://app?vid=8fb1fcf8-bea7-4bde-9d91-f38a9b71fbff"},"vehicle_type_id":"4","last_reported":1723489660,"current_range_meters":1600,"station_id":"ce4bgg92rcd13ifvqb30","pricing_plan_id":"cebpf4jnsgd1na2vs0mg"},{"bike_id":"8d0358dd-96fe-4a7c-a760-06a5222eef69","system_id":"levelo_inurba_marseille","lat":43.298433,"lon":5.362774,"is_reserved":false,"is_disabled":false,"rental_uris":{"android":"levelo://app?vid=8d0358dd-96fe-4a7c-a760-06a5222eef69","ios":"levelo://app?vid=8d0358dd-96fe-4a7c-a760-06a5222eef69"},"vehicle_type_id":"4","last_reported":1723489660,"current_range_meters":800,"station_id":"ce4bgpp2rcd13ifvqc3g","pricing_plan_id":"cebpf4jnsgd1na2vs0mg"},{"bike_id":"3e315c03-bb88-4419-a1bb-0cce4e0eaae7","system_id":"levelo_inurba_marseille","lat":43.322872,"lon":5.382756,"is_reserved":false,"is_disabled":false,"rental_uris":{"android":"levelo://app?vid=3e315c03-bb88-4419-a1bb-0cce4e0eaae7","ios":"levelo://app?vid=3e315c03-bb88-4419-a1bb-0cce4e0eaae7"},"vehicle_type_id":"4","last_reported":1723489660,"current_range_meters":26400,"station_id":"ce4bhr12rcd13ifvqhqg","pricing_plan_id":"cebpf4jnsgd1na2vs0mg"},{"bike_id":"d506dd65-5f23-4a41-9ee5-076ed2b94f6f","system_id":"levelo_inurba_marseille","lat":43.30109,"lon":5.38065,"is_reserved":false,"is_disabled":false,"rental_uris":{"android":"levelo://app?vid=d506dd65-5f23-4a41-9ee5-076ed2b94f6f","ios":"levelo://app?vid=d506dd65-5f23-4a41-9ee5-076ed2b94f6f"},"vehicle_type_id":"4","last_reported":1723489660,"current_range_meters":4000,"station_id":"","pricing_plan_id":"cebpf4jnsgd1na2vs0mg"},{"bike_id":"1b701831-2325-420d-8f90-08930e5af163","system_id":"levelo_inurba_marseille","lat":43.297163,"lon":5.365866,"is_reserved":false,"is_disabled":false,"rental_uris":{"android":"levelo://app?vid=1b701831-2325-420d-8f90-08930e5af163","ios":"levelo://app?vid=1b701831-2325-420d-8f90-08930e5af163"},"vehicle_type_id":"4","last_reported":1723489660,"current_range_meters":0,"station_id":"ce4bgn12rcd13ifvqbt0","pricing_plan_id":"cebpf4jnsgd1na2vs0mg"},{"bike_id":"ad795254-39c6-4cf0-b8f0-4e510c12b011","system_id":"levelo_inurba_marseille","lat":43.297163,"lon":5.365866,"is_reserved":false,"is_disabled":false,"rental_uris":{"android":"levelo://app?vid=ad795254-39c6-4cf0-b8f0-4e510c12b011","ios":"levelo://app?vid=ad795254-39c6-4cf0-b8f0-4e510c12b011"},"vehicle_type_id":"4","last_reported":1723489660,"current_range_meters":0,"station_id":"ce4bgn12rcd13ifvqbt0","pricing_plan_id":"cebpf4jnsgd1na2vs0mg"},{"bike_id":"370637d6-dba0-47c4-997a-0913b3be079f","system_id":"levelo_inurba_marseille","lat":43.29642,"lon":5.36579,"is_reserved":false,"is_disabled":false,"rental_uris":{"android":"levelo://app?vid=370637d6-dba0-47c4-997a-0913b3be079f","ios":"levelo://app?vid=370637d6-dba0-47c4-997a-0913b3be079f"},"vehicle_type_id":"4","last_reported":1723489660,"current_range_meters":27200,"station_id":"","pricing_plan_id":"cebpf4jnsgd1na2vs0mg"},{"bike_id":"c2303547-c8c6-431a-a0cd-b844330d9ec1","system_id":"levelo_inurba_marseille","lat":43.2968,"lon":5.37291,"is_reserved":false,"is_disabled":false,"rental_uris":{"android":"levelo://app?vid=c2303547-c8c6-431a-a0cd-b844330d9ec1","ios":"levelo://app?vid=c2303547-c8c6-431a-a0cd-b844330d9ec1"},"vehicle_type_id":"4","last_reported":1723489660,"current_range_meters":28400,"station_id":"ce4bgk12rcd13ifvqbj0","pricing_plan_id":"cebpf4jnsgd1na2vs0mg"},{"bike_id":"8d54d57b-c47d-45a2-8308-dc89cef67e66","system_id":"levelo_inurba_marseille","lat":43.2968,"lon":5.37291,"is_reserved":false,"is_disabled":false,"rental_uris":{"android":"levelo://app?vid=8d54d57b-c47d-45a2-8308-dc89cef67e66","ios":"levelo://app?vid=8d54d57b-c47d-45a2-8308-dc89cef67e66"},"vehicle_type_id":"4","last_reported":1723489660,"current_range_meters":22800,"station_id":"ce4bgk12rcd13ifvqbj0","pricing_plan_id":"cebpf4jnsgd1na2vs0mg"},{"bike_id":"51c9e79a-3c67-417e-a5c7-3289e1c875fc","system_id":"levelo_inurba_marseille","lat":43.2968,"lon":5.37291,"is_reserved":false,"is_disabled":false,"rental_uris":{"android":"levelo://app?vid=51c9e79a-3c67-417e-a5c7-3289e1c875fc","ios":"levelo://app?vid=51c9e79a-3c67-417e-a5c7-3289e1c875fc"},"vehicle_type_id":"4","last_reported":1723489660,"current_range_meters":400,"station_id":"ce4bgk12rcd13ifvqbj0","pricing_plan_id":"cebpf4jnsgd1na2vs0mg"},{"bike_id":"1febee16-3401-454b-8097-59156309256b","system_id":"levelo_inurba_marseille","lat":43.2962,"lon":5.37158,"is_reserved":false,"is_disabled":false,"rental_uris":{"android":"levelo://app?vid=1febee16-3401-454b-8097-59156309256b","ios":"levelo://app?vid=1febee16-3401-454b-8097-59156309256b"},"vehicle_type_id":"4","last_reported":1723489660,"current_range_meters":8400,"station_id":"ce4bgnh2rcd13ifvqc0g","pricing_plan_id":"cebpf4jnsgd1na2vs0mg"},{"bike_id":"1d55633f-c805-48a3-99dc-36d2744dbf46","system_id":"levelo_inurba_marseille","lat":43.296131,"lon":5.370773,"is_reserved":false,"is_disabled":false,"rental_uris":{"android":"levelo://app?vid=1d55633f-c805-48a3-99dc-36d2744dbf46","ios":"levelo://app?vid=1d55633f-c805-48a3-99dc-36d2744dbf46"},"vehicle_type_id":"4","last_reported":1723489660,"current_range_meters":8000,"station_id":"ce4bgnh2rcd13ifvqc0g","pricing_plan_id":"cebpf4jnsgd1na2vs0mg"},{"bike_id":"f20f59c3-9d81-4d6f-ac7c-71c772792fce","system_id":"levelo_inurba_marseille","lat":43.29573,"lon":5.367355,"is_reserved":false,"is_disabled":false,"rental_uris":{"android":"levelo://app?vid=f20f59c3-9d81-4d6f-ac7c-71c772792fce","ios":"levelo://app?vid=f20f59c3-9d81-4d6f-ac7c-71c772792fce"},"vehicle_type_id":"4","last_reported":1723489660,"current_range_meters":8000,"station_id":"ce4bgph2rcd13ifvqc2g","pricing_plan_id":"cebpf4jnsgd1na2vs0mg"},{"bike_id":"04a5524e-f0ae-4254-9a87-79692c5cc2c1","system_id":"levelo_inurba_marseille","lat":43.29718,"lon":5.377,"is_reserved":false,"is_disabled":false,"rental_uris":{"android":"levelo://app?vid=04a5524e-f0ae-4254-9a87-79692c5cc2c1","ios":"levelo://app?vid=04a5524e-f0ae-4254-9a87-79692c5cc2c1"},"vehicle_type_id":"4","last_reported":1723489660,"current_range_meters":24000,"station_id":"","pricing_plan_id":"cebpf4jnsgd1na2vs0mg"},{"bike_id":"7616d157-9395-48b3-8b86-6d62acea177f","system_id":"levelo_inurba_marseille","lat":43.317557,"lon":5.390173,"is_reserved":false,"is_disabled":false,"rental_uris":{"android":"levelo://app?vid=7616d157-9395-48b3-8b86-6d62acea177f","ios":"levelo://app?vid=7616d157-9395-48b3-8b86-6d62acea177f"},"vehicle_type_id":"4","last_reported":1723489660,"current_range_meters":27600,"station_id":"ce4bhqp2rcd13ifvqhng","pricing_plan_id":"cebpf4jnsgd1na2vs0mg"},{"bike_id":"e089ef95-13b4-4f8c-9d2e-f31aaee22339","system_id":"levelo_inurba_marseille","lat":43.298037,"lon":5.381066,"is_reserved":false,"is_disabled":false,"rental_uris":{"android":"levelo://app?vid=e089ef95-13b4-4f8c-9d2e-f31aaee22339","ios":"levelo://app?vid=e089ef95-13b4-4f8c-9d2e-f31aaee22339"},"vehicle_type_id":"4","last_reported":1723489660,"current_range_meters":2800,"station_id":"ce4bgip2rcd13ifvqbb0","pricing_plan_id":"cebpf4jnsgd1na2vs0mg"},{"bike_id":"34b22b6f-a549-4d88-8b90-61717bfe7c61","system_id":"levelo_inurba_marseille","lat":43.295748,"lon":5.37522,"is_reserved":false,"is_disabled":false,"rental_uris":{"android":"levelo://app?vid=34b22b6f-a549-4d88-8b90-61717bfe7c61","ios":"levelo://app?vid=34b22b6f-a549-4d88-8b90-61717bfe7c61"},"vehicle_type_id":"4","last_reported":1723489660,"current_range_meters":29600,"station_id":"ce4bgh92rcd13ifvqb50","pricing_plan_id":"cebpf4jnsgd1na2vs0mg"},{"bike_id":"2dac3980-1868-4508-b506-a1c42cdf8f8d","system_id":"levelo_inurba_marseille","lat":43.298037,"lon":5.381066,"is_reserved":false,"is_disabled":false,"rental_uris":{"android":"levelo://app?vid=2dac3980-1868-4508-b506-a1c42cdf8f8d","ios":"levelo://app?vid=2dac3980-1868-4508-b506-a1c42cdf8f8d"},"vehicle_type_id":"4","last_reported":1723489660,"current_range_meters":400,"station_id":"ce4bgip2rcd13ifvqbb0","pricing_plan_id":"cebpf4jnsgd1na2vs0mg"},{"bike_id":"a10dc52e-4ccf-4106-af5b-0fb7758948ef","system_id":"levelo_inurba_marseille","lat":43.295748,"lon":5.37522,"is_reserved":false,"is_disabled":false,"rental_uris":{"android":"levelo://app?vid=a10dc52e-4ccf-4106-af5b-0fb7758948ef","ios":"levelo://app?vid=a10dc52e-4ccf-4106-af5b-0fb7758948ef"},"vehicle_type_id":"4","last_reported":1723489660,"current_range_meters":19600,"station_id":"ce4bgh92rcd13ifvqb50","pricing_plan_id":"cebpf4jnsgd1na2vs0mg"},{"bike_id":"75523abc-4484-47d7-8148-f8086725445f","system_id":"levelo_inurba_marseille","lat":43.304274,"lon":5.388873,"is_reserved":false,"is_disabled":false,"rental_uris":{"android":"levelo://app?vid=75523abc-4484-47d7-8148-f8086725445f","ios":"levelo://app?vid=75523abc-4484-47d7-8148-f8086725445f"},"vehicle_type_id":"4","last_reported":1723489660,"current_range_meters":4400,"station_id":"ce4bgk12rcd13ifvqbi0","pricing_plan_id":"cebpf4jnsgd1na2vs0mg"},{"bike_id":"d87bed89-de3c-4691-a4b2-f12806b32983","system_id":"levelo_inurba_marseille","lat":43.304274,"lon":5.388873,"is_reserved":false,"is_disabled":false,"rental_uris":{"android":"levelo://app?vid=d87bed89-de3c-4691-a4b2-f12806b32983","ios":"levelo://app?vid=d87bed89-de3c-4691-a4b2-f12806b32983"},"vehicle_type_id":"4","last_reported":1723489660,"current_range_meters":31600,"station_id":"ce4bgk12rcd13ifvqbi0","pricing_plan_id":"cebpf4jnsgd1na2vs0mg"},{"bike_id":"2554f7bb-99d7-4372-be38-d817ea430ba5","system_id":"levelo_inurba_marseille","lat":43.295748,"lon":5.37522,"is_reserved":false,"is_disabled":false,"rental_uris":{"android":"levelo://app?vid=2554f7bb-99d7-4372-be38-d817ea430ba5","ios":"levelo://app?vid=2554f7bb-99d7-4372-be38-d817ea430ba5"},"vehicle_type_id":"4","last_reported":1723489660,"current_range_meters":0,"station_id":"ce4bgh92rcd13ifvqb50","pricing_plan_id":"cebpf4jnsgd1na2vs0mg"},{"bike_id":"8f4ec15d-b53b-4396-ba95-fcbb7ef3e32c","system_id":"levelo_inurba_marseille","lat":43.295748,"lon":5.37522,"is_reserved":false,"is_disabled":false,"rental_uris":{"android":"levelo://app?vid=8f4ec15d-b53b-4396-ba95-fcbb7ef3e32c","ios":"levelo://app?vid=8f4ec15d-b53b-4396-ba95-fcbb7ef3e32c"},"vehicle_type_id":"4","last_reported":1723489660,"current_range_meters":16400,"station_id":"ce4bgh92rcd13ifvqb50","pricing_plan_id":"cebpf4jnsgd1na2vs0mg"},{"bike_id":"f10c55e8-fdcf-44dc-93d6-6cd76478300b","system_id":"levelo_inurba_marseille","lat":43.304278,"lon":5.388868,"is_reserved":false,"is_disabled":false,"rental_uris":{"android":"levelo://app?vid=f10c55e8-fdcf-44dc-93d6-6cd76478300b","ios":"levelo://app?vid=f10c55e8-fdcf-44dc-93d6-6cd76478300b"},"vehicle_type_id":"4","last_reported":1723489660,"current_range_meters":8000,"station_id":"ce4bgk12rcd13ifvqbi0","pricing_plan_id":"cebpf4jnsgd1na2vs0mg"},{"bike_id":"8eed9d7f-10a0-472e-b29a-4d878e7ac47a","system_id":"levelo_inurba_marseille","lat":43.29709,"lon":5.37948,"is_reserved":false,"is_disabled":false,"rental_uris":{"android":"levelo://app?vid=8eed9d7f-10a0-472e-b29a-4d878e7ac47a","ios":"levelo://app?vid=8eed9d7f-10a0-472e-b29a-4d878e7ac47a"},"vehicle_type_id":"4","last_reported":1723489660,"current_range_meters":16400,"station_id":"","pricing_plan_id":"cebpf4jnsgd1na2vs0mg"},{"bike_id":"fbbb5242-5f25-4302-a232-38baa700cb9e","system_id":"levelo_inurba_marseille","lat":43.304606,"lon":5.379026,"is_reserved":false,"is_disabled":false,"rental_uris":{"android":"levelo://app?vid=fbbb5242-5f25-4302-a232-38baa700cb9e","ios":"levelo://app?vid=fbbb5242-5f25-4302-a232-38baa700cb9e"},"vehicle_type_id":"4","last_reported":1723489660,"current_range_meters":21600,"station_id":"ce4bgup2rcd13ifvqcn0","pricing_plan_id":"cebpf4jnsgd1na2vs0mg"},{"bike_id":"523cd887-2fdc-4ebe-a5df-74dc1658ea1c","system_id":"levelo_inurba_marseille","lat":43.29532,"lon":5.37505,"is_reserved":false,"is_disabled":false,"rental_uris":{"android":"levelo://app?vid=523cd887-2fdc-4ebe-a5df-74dc1658ea1c","ios":"levelo://app?vid=523cd887-2fdc-4ebe-a5df-74dc1658ea1c"},"vehicle_type_id":"4","last_reported":1723489660,"current_range_meters":31200,"station_id":"ce4bgkp2rcd13ifvqbmg","pricing_plan_id":"cebpf4jnsgd1na2vs0mg"},{"bike_id":"a0bcce1b-2a86-43ab-b473-22c4597705b6","system_id":"levelo_inurba_marseille","lat":43.295279,"lon":5.375048,"is_reserved":false,"is_disabled":false,"rental_uris":{"android":"levelo://app?vid=a0bcce1b-2a86-43ab-b473-22c4597705b6","ios":"levelo://app?vid=a0bcce1b-2a86-43ab-b473-22c4597705b6"},"vehicle_type_id":"4","last_reported":1723489660,"current_range_meters":18800,"station_id":"ce4bgkp2rcd13ifvqbmg","pricing_plan_id":"cebpf4jnsgd1na2vs0mg"},{"bike_id":"0b34d46b-ff6a-4691-a58b-abba450e61d0","system_id":"levelo_inurba_marseille","lat":43.29531,"lon":5.37506,"is_reserved":false,"is_disabled":false,"rental_uris":{"android":"levelo://app?vid=0b34d46b-ff6a-4691-a58b-abba450e61d0","ios":"levelo://app?vid=0b34d46b-ff6a-4691-a58b-abba450e61d0"},"vehicle_type_id":"4","last_reported":1723489660,"current_range_meters":31200,"station_id":"ce4bgkp2rcd13ifvqbmg","pricing_plan_id":"cebpf4jnsgd1na2vs0mg"},{"bike_id":"293f459e-ebc1-4ebb-b567-be2d9c9828bc","system_id":"levelo_inurba_marseille","lat":43.295279,"lon":5.375048,"is_reserved":false,"is_disabled":false,"rental_uris":{"android":"levelo://app?vid=293f459e-ebc1-4ebb-b567-be2d9c9828bc","ios":"levelo://app?vid=293f459e-ebc1-4ebb-b567-be2d9c9828bc"},"vehicle_type_id":"4","last_reported":1723489660,"current_range_meters":1600,"station_id":"ce4bgkp2rcd13ifvqbmg","pricing_plan_id":"cebpf4jnsgd1na2vs0mg"},{"bike_id":"46b3f4ca-7a8a-4b11-b63d-318f163d3d02","system_id":"levelo_inurba_marseille","lat":43.299707,"lon":5.384859,"is_reserved":false,"is_disabled":false,"rental_uris":{"android":"levelo://app?vid=46b3f4ca-7a8a-4b11-b63d-318f163d3d02","ios":"levelo://app?vid=46b3f4ca-7a8a-4b11-b63d-318f163d3d02"},"vehicle_type_id":"4","last_reported":1723489660,"current_range_meters":12400,"station_id":"ce4bgj92rcd13ifvqbd0","pricing_plan_id":"cebpf4jnsgd1na2vs0mg"},{"bike_id":"5447ec8f-093c-415d-be91-ca6f7f2bdbf5","system_id":"levelo_inurba_marseille","lat":43.295279,"lon":5.375048,"is_reserved":false,"is_disabled":false,"rental_uris":{"android":"levelo://app?vid=5447ec8f-093c-415d-be91-ca6f7f2bdbf5","ios":"levelo://app?vid=5447ec8f-093c-415d-be91-ca6f7f2bdbf5"},"vehicle_type_id":"4","last_reported":1723489660,"current_range_meters":14800,"station_id":"ce4bgkp2rcd13ifvqbmg","pricing_plan_id":"cebpf4jnsgd1na2vs0mg"},{"bike_id":"d354edf8-da61-4959-9968-64b1638e0456","system_id":"levelo_inurba_marseille","lat":43.29965,"lon":5.385,"is_reserved":false,"is_disabled":false,"rental_uris":{"android":"levelo://app?vid=d354edf8-da61-4959-9968-64b1638e0456","ios":"levelo://app?vid=d354edf8-da61-4959-9968-64b1638e0456"},"vehicle_type_id":"4","last_reported":1723489660,"current_range_meters":0,"station_id":"ce4bgj92rcd13ifvqbd0","pricing_plan_id":"cebpf4jnsgd1na2vs0mg"},{"bike_id":"02f24a12-b56a-4b50-9db2-809949f3ac2a","system_id":"levelo_inurba_marseille","lat":43.295279,"lon":5.375048,"is_reserved":false,"is_disabled":false,"rental_uris":{"android":"levelo://app?vid=02f24a12-b56a-4b50-9db2-809949f3ac2a","ios":"levelo://app?vid=02f24a12-b56a-4b50-9db2-809949f3ac2a"},"vehicle_type_id":"4","last_reported":1723489660,"current_range_meters":28000,"station_id":"ce4bgkp2rcd13ifvqbmg","pricing_plan_id":"cebpf4jnsgd1na2vs0mg"},{"bike_id":"71e76595-5a89-40d2-bae9-7629089fac6c","system_id":"levelo_inurba_marseille","lat":43.3014,"lon":5.38781,"is_reserved":false,"is_disabled":false,"rental_uris":{"android":"levelo://app?vid=71e76595-5a89-40d2-bae9-7629089fac6c","ios":"levelo://app?vid=71e76595-5a89-40d2-bae9-7629089fac6c"},"vehicle_type_id":"4","last_reported":1723489660,"current_range_meters":0,"station_id":"ce4bghh2rcd13ifvqb60","pricing_plan_id":"cebpf4jnsgd1na2vs0mg"},{"bike_id":"8bc510d3-b9d7-4179-ba5c-ace2f4b4cc8c","system_id":"levelo_inurba_marseille","lat":43.301396,"lon":5.387812,"is_reserved":false,"is_disabled":false,"rental_uris":{"android":"levelo://app?vid=8bc510d3-b9d7-4179-ba5c-ace2f4b4cc8c","ios":"levelo://app?vid=8bc510d3-b9d7-4179-ba5c-ace2f4b4cc8c"},"vehicle_type_id":"4","last_reported":1723489660,"current_range_meters":20400,"station_id":"ce4bghh2rcd13ifvqb60","pricing_plan_id":"cebpf4jnsgd1na2vs0mg"},{"bike_id":"0ad202d3-e711-4133-b1a1-dfa9e00cc9bf","system_id":"levelo_inurba_marseille","lat":43.32367,"lon":5.388836,"is_reserved":false,"is_disabled":false,"rental_uris":{"android":"levelo://app?vid=0ad202d3-e711-4133-b1a1-dfa9e00cc9bf","ios":"levelo://app?vid=0ad202d3-e711-4133-b1a1-dfa9e00cc9bf"},"vehicle_type_id":"4","last_reported":1723489660,"current_range_meters":11600,"station_id":"ce4bhqp2rcd13ifvqhog","pricing_plan_id":"cebpf4jnsgd1na2vs0mg"},{"bike_id":"c8dae55d-5924-4d2b-9cfe-4fac3b2bb6a8","system_id":"levelo_inurba_marseille","lat":43.32367,"lon":5.388836,"is_reserved":false,"is_disabled":false,"rental_uris":{"android":"levelo://app?vid=c8dae55d-5924-4d2b-9cfe-4fac3b2bb6a8","ios":"levelo://app?vid=c8dae55d-5924-4d2b-9cfe-4fac3b2bb6a8"},"vehicle_type_id":"4","last_reported":1723489660,"current_range_meters":22800,"station_id":"ce4bhqp2rcd13ifvqhog","pricing_plan_id":"cebpf4jnsgd1na2vs0mg"},{"bike_id":"d1728b4a-741b-4423-a9b2-8d5ac3bc85ff","system_id":"levelo_inurba_marseille","lat":43.32367,"lon":5.388836,"is_reserved":false,"is_disabled":false,"rental_uris":{"android":"levelo://app?vid=d1728b4a-741b-4423-a9b2-8d5ac3bc85ff","ios":"levelo://app?vid=d1728b4a-741b-4423-a9b2-8d5ac3bc85ff"},"vehicle_type_id":"4","last_reported":1723489660,"current_range_meters":19200,"station_id":"ce4bhqp2rcd13ifvqhog","pricing_plan_id":"cebpf4jnsgd1na2vs0mg"},{"bike_id":"e9fa6456-2ffd-4ab3-b8ac-6eb4599e39a2","system_id":"levelo_inurba_marseille","lat":43.29602,"lon":5.381084,"is_reserved":false,"is_disabled":false,"rental_uris":{"android":"levelo://app?vid=e9fa6456-2ffd-4ab3-b8ac-6eb4599e39a2","ios":"levelo://app?vid=e9fa6456-2ffd-4ab3-b8ac-6eb4599e39a2"},"vehicle_type_id":"4","last_reported":1723489660,"current_range_meters":15200,"station_id":"ce4bgl12rcd13ifvqbo0","pricing_plan_id":"cebpf4jnsgd1na2vs0mg"},{"bike_id":"3a6f6886-e465-4cd4-8f6c-6810d29742f6","system_id":"levelo_inurba_marseille","lat":43.29606,"lon":5.38111,"is_reserved":false,"is_disabled":false,"rental_uris":{"android":"levelo://app?vid=3a6f6886-e465-4cd4-8f6c-6810d29742f6","ios":"levelo://app?vid=3a6f6886-e465-4cd4-8f6c-6810d29742f6"},"vehicle_type_id":"4","last_reported":1723489660,"current_range_meters":2400,"station_id":"ce4bgl12rcd13ifvqbo0","pricing_plan_id":"cebpf4jnsgd1na2vs0mg"},{"bike_id":"eada0dd9-30d6-45be-a3ed-cb573eaabcb6","system_id":"levelo_inurba_marseille","lat":43.29602,"lon":5.381084,"is_reserved":false,"is_disabled":false,"rental_uris":{"android":"levelo://app?vid=eada0dd9-30d6-45be-a3ed-cb573eaabcb6","ios":"levelo://app?vid=eada0dd9-30d6-45be-a3ed-cb573eaabcb6"},"vehicle_type_id":"4","last_reported":1723489660,"current_range_meters":4000,"station_id":"ce4bgl12rcd13ifvqbo0","pricing_plan_id":"cebpf4jnsgd1na2vs0mg"},{"bike_id":"7c86baad-70be-45ea-af7d-73b004c51184","system_id":"levelo_inurba_marseille","lat":43.29602,"lon":5.381084,"is_reserved":false,"is_disabled":false,"rental_uris":{"android":"levelo://app?vid=7c86baad-70be-45ea-af7d-73b004c51184","ios":"levelo://app?vid=7c86baad-70be-45ea-af7d-73b004c51184"},"vehicle_type_id":"4","last_reported":1723489660,"current_range_meters":0,"station_id":"ce4bgl12rcd13ifvqbo0","pricing_plan_id":"cebpf4jnsgd1na2vs0mg"},{"bike_id":"a2e113a5-e4ec-4722-98ab-d1ac0d640ac9","system_id":"levelo_inurba_marseille","lat":43.2936,"lon":5.37835,"is_reserved":false,"is_disabled":false,"rental_uris":{"android":"levelo://app?vid=a2e113a5-e4ec-4722-98ab-d1ac0d640ac9","ios":"levelo://app?vid=a2e113a5-e4ec-4722-98ab-d1ac0d640ac9"},"vehicle_type_id":"4","last_reported":1723489660,"current_range_meters":18400,"station_id":"ce4bgjh2rcd13ifvqbf0","pricing_plan_id":"cebpf4jnsgd1na2vs0mg"},{"bike_id":"11823539-c327-44e0-baad-2826d09b625d","system_id":"levelo_inurba_marseille","lat":43.29592,"lon":5.38096,"is_reserved":false,"is_disabled":false,"rental_uris":{"android":"levelo://app?vid=11823539-c327-44e0-baad-2826d09b625d","ios":"levelo://app?vid=11823539-c327-44e0-baad-2826d09b625d"},"vehicle_type_id":"4","last_reported":1723489660,"current_range_meters":0,"station_id":"ce4bgl12rcd13ifvqbo0","pricing_plan_id":"cebpf4jnsgd1na2vs0mg"},{"bike_id":"0cbb4ed1-89cb-4807-88d2-fa2ff3fbf29f","system_id":"levelo_inurba_marseille","lat":43.29602,"lon":5.381084,"is_reserved":false,"is_disabled":false,"rental_uris":{"android":"levelo://app?vid=0cbb4ed1-89cb-4807-88d2-fa2ff3fbf29f","ios":"levelo://app?vid=0cbb4ed1-89cb-4807-88d2-fa2ff3fbf29f"},"vehicle_type_id":"4","last_reported":1723489660,"current_range_meters":0,"station_id":"ce4bgl12rcd13ifvqbo0","pricing_plan_id":"cebpf4jnsgd1na2vs0mg"},{"bike_id":"fd2b42ea-3963-4903-b38c-4c8aa6d77105","system_id":"levelo_inurba_marseille","lat":43.292749,"lon":5.368402,"is_reserved":false,"is_disabled":false,"rental_uris":{"android":"levelo://app?vid=fd2b42ea-3963-4903-b38c-4c8aa6d77105","ios":"levelo://app?vid=fd2b42ea-3963-4903-b38c-4c8aa6d77105"},"vehicle_type_id":"4","last_reported":1723489660,"current_range_meters":800,"station_id":"ce4bhbp2rcd13ifvqesg","pricing_plan_id":"cebpf4jnsgd1na2vs0mg"},{"bike_id":"420584a8-8ec6-4883-a049-a4755531d9fc","system_id":"levelo_inurba_marseille","lat":43.29273,"lon":5.36838,"is_reserved":false,"is_disabled":false,"rental_uris":{"android":"levelo://app?vid=420584a8-8ec6-4883-a049-a4755531d9fc","ios":"levelo://app?vid=420584a8-8ec6-4883-a049-a4755531d9fc"},"vehicle_type_id":"4","last_reported":1723489660,"current_range_meters":0,"station_id":"ce4bhbp2rcd13ifvqesg","pricing_plan_id":"cebpf4jnsgd1na2vs0mg"},{"bike_id":"12da4448-f9dc-4137-a3cd-aba682985bb2","system_id":"levelo_inurba_marseille","lat":43.29302,"lon":5.37183,"is_reserved":false,"is_disabled":false,"rental_uris":{"android":"levelo://app?vid=12da4448-f9dc-4137-a3cd-aba682985bb2","ios":"levelo://app?vid=12da4448-f9dc-4137-a3cd-aba682985bb2"},"vehicle_type_id":"4","last_reported":1723489660,"current_range_meters":0,"station_id":"ce4bgh92rcd13ifvqb40","pricing_plan_id":"cebpf4jnsgd1na2vs0mg"},{"bike_id":"38831877-51ef-4db6-b446-79861ceeb1d3","system_id":"levelo_inurba_marseille","lat":43.29302,"lon":5.37449,"is_reserved":false,"is_disabled":false,"rental_uris":{"android":"levelo://app?vid=38831877-51ef-4db6-b446-79861ceeb1d3","ios":"levelo://app?vid=38831877-51ef-4db6-b446-79861ceeb1d3"},"vehicle_type_id":"4","last_reported":1723489660,"current_range_meters":0,"station_id":"ce4bgi12rcd13ifvqb70","pricing_plan_id":"cebpf4jnsgd1na2vs0mg"},{"bike_id":"fecfcd6f-0ada-4bd8-bec6-ca0cf494ca5b","system_id":"levelo_inurba_marseille","lat":43.293007,"lon":5.374427,"is_reserved":false,"is_disabled":false,"rental_uris":{"android":"levelo://app?vid=fecfcd6f-0ada-4bd8-bec6-ca0cf494ca5b","ios":"levelo://app?vid=fecfcd6f-0ada-4bd8-bec6-ca0cf494ca5b"},"vehicle_type_id":"4","last_reported":1723489660,"current_range_meters":0,"station_id":"ce4bgi12rcd13ifvqb70","pricing_plan_id":"cebpf4jnsgd1na2vs0mg"},{"bike_id":"1241db0c-2f18-4571-a361-7f258dcad0e2","system_id":"levelo_inurba_marseille","lat":43.29303,"lon":5.37456,"is_reserved":false,"is_disabled":false,"rental_uris":{"android":"levelo://app?vid=1241db0c-2f18-4571-a361-7f258dcad0e2","ios":"levelo://app?vid=1241db0c-2f18-4571-a361-7f258dcad0e2"},"vehicle_type_id":"4","last_reported":1723489660,"current_range_meters":0,"station_id":"ce4bgi12rcd13ifvqb70","pricing_plan_id":"cebpf4jnsgd1na2vs0mg"},{"bike_id":"a2cb704e-364b-4543-b570-42203f693d64","system_id":"levelo_inurba_marseille","lat":43.293009,"lon":5.374584,"is_reserved":false,"is_disabled":false,"rental_uris":{"android":"levelo://app?vid=a2cb704e-364b-4543-b570-42203f693d64","ios":"levelo://app?vid=a2cb704e-364b-4543-b570-42203f693d64"},"vehicle_type_id":"4","last_reported":1723489660,"current_range_meters":0,"station_id":"ce4bgi12rcd13ifvqb70","pricing_plan_id":"cebpf4jnsgd1na2vs0mg"},{"bike_id":"8d37495d-9961-45f8-ba67-ee81725ae3ae","system_id":"levelo_inurba_marseille","lat":43.29228,"lon":5.36363,"is_reserved":false,"is_disabled":false,"rental_uris":{"android":"levelo://app?vid=8d37495d-9961-45f8-ba67-ee81725ae3ae","ios":"levelo://app?vid=8d37495d-9961-45f8-ba67-ee81725ae3ae"},"vehicle_type_id":"4","last_reported":1723489660,"current_range_meters":400,"station_id":"","pricing_plan_id":"cebpf4jnsgd1na2vs0mg"},{"bike_id":"7d60a366-e62c-4327-8afc-5786810d6907","system_id":"levelo_inurba_marseille","lat":43.29379,"lon":5.37852,"is_reserved":false,"is_disabled":false,"rental_uris":{"android":"levelo://app?vid=7d60a366-e62c-4327-8afc-5786810d6907","ios":"levelo://app?vid=7d60a366-e62c-4327-8afc-5786810d6907"},"vehicle_type_id":"4","last_reported":1723489660,"current_range_meters":0,"station_id":"ce4bgjh2rcd13ifvqbf0","pricing_plan_id":"cebpf4jnsgd1na2vs0mg"},{"bike_id":"d62cbc6a-8eb2-4ae7-aa9f-46e19dfe9fe8","system_id":"levelo_inurba_marseille","lat":43.2936,"lon":5.37835,"is_reserved":false,"is_disabled":false,"rental_uris":{"android":"levelo://app?vid=d62cbc6a-8eb2-4ae7-aa9f-46e19dfe9fe8","ios":"levelo://app?vid=d62cbc6a-8eb2-4ae7-aa9f-46e19dfe9fe8"},"vehicle_type_id":"4","last_reported":1723489660,"current_range_meters":6400,"station_id":"ce4bgjh2rcd13ifvqbf0","pricing_plan_id":"cebpf4jnsgd1na2vs0mg"},{"bike_id":"0937e879-cd95-4bbd-97dc-c7d07b4fc2bf","system_id":"levelo_inurba_marseille","lat":43.29364,"lon":5.37843,"is_reserved":false,"is_disabled":false,"rental_uris":{"android":"levelo://app?vid=0937e879-cd95-4bbd-97dc-c7d07b4fc2bf","ios":"levelo://app?vid=0937e879-cd95-4bbd-97dc-c7d07b4fc2bf"},"vehicle_type_id":"4","last_reported":1723489660,"current_range_meters":16800,"station_id":"ce4bgjh2rcd13ifvqbf0","pricing_plan_id":"cebpf4jnsgd1na2vs0mg"},{"bike_id":"5801713b-dc08-422e-b101-539a9126df99","system_id":"levelo_inurba_marseille","lat":43.2936,"lon":5.37835,"is_reserved":false,"is_disabled":false,"rental_uris":{"android":"levelo://app?vid=5801713b-dc08-422e-b101-539a9126df99","ios":"levelo://app?vid=5801713b-dc08-422e-b101-539a9126df99"},"vehicle_type_id":"4","last_reported":1723489660,"current_range_meters":4800,"station_id":"ce4bgjh2rcd13ifvqbf0","pricing_plan_id":"cebpf4jnsgd1na2vs0mg"},{"bike_id":"30bab2b9-522c-419e-8ab5-816751868dcc","system_id":"levelo_inurba_marseille","lat":43.2936,"lon":5.37835,"is_reserved":false,"is_disabled":false,"rental_uris":{"android":"levelo://app?vid=30bab2b9-522c-419e-8ab5-816751868dcc","ios":"levelo://app?vid=30bab2b9-522c-419e-8ab5-816751868dcc"},"vehicle_type_id":"4","last_reported":1723489660,"current_range_meters":8400,"station_id":"ce4bgjh2rcd13ifvqbf0","pricing_plan_id":"cebpf4jnsgd1na2vs0mg"},{"bike_id":"41e3906f-ca2c-416b-8ded-970a27111509","system_id":"levelo_inurba_marseille","lat":43.30085,"lon":5.390856,"is_reserved":false,"is_disabled":false,"rental_uris":{"android":"levelo://app?vid=41e3906f-ca2c-416b-8ded-970a27111509","ios":"levelo://app?vid=41e3906f-ca2c-416b-8ded-970a27111509"},"vehicle_type_id":"4","last_reported":1723489660,"current_range_meters":14400,"station_id":"ce4bh192rcd13ifvqdb0","pricing_plan_id":"cebpf4jnsgd1na2vs0mg"},{"bike_id":"486b470f-b439-431f-927d-9fc3c4fd14ee","system_id":"levelo_inurba_marseille","lat":43.292223,"lon":5.360613,"is_reserved":false,"is_disabled":false,"rental_uris":{"android":"levelo://app?vid=486b470f-b439-431f-927d-9fc3c4fd14ee","ios":"levelo://app?vid=486b470f-b439-431f-927d-9fc3c4fd14ee"},"vehicle_type_id":"4","last_reported":1723489660,"current_range_meters":16400,"station_id":"ce4bhbh2rcd13ifvqeqg","pricing_plan_id":"cebpf4jnsgd1na2vs0mg"},{"bike_id":"875311b2-9a4e-48f5-ac96-e3773d555d0d","system_id":"levelo_inurba_marseille","lat":43.292311,"lon":5.360731,"is_reserved":false,"is_disabled":false,"rental_uris":{"android":"levelo://app?vid=875311b2-9a4e-48f5-ac96-e3773d555d0d","ios":"levelo://app?vid=875311b2-9a4e-48f5-ac96-e3773d555d0d"},"vehicle_type_id":"4","last_reported":1723489660,"current_range_meters":0,"station_id":"ce4bhbh2rcd13ifvqeqg","pricing_plan_id":"cebpf4jnsgd1na2vs0mg"},{"bike_id":"86b6f6b5-2f0e-4004-9134-cada1e2ba5b6","system_id":"levelo_inurba_marseille","lat":43.29329,"lon":5.378427,"is_reserved":false,"is_disabled":false,"rental_uris":{"android":"levelo://app?vid=86b6f6b5-2f0e-4004-9134-cada1e2ba5b6","ios":"levelo://app?vid=86b6f6b5-2f0e-4004-9134-cada1e2ba5b6"},"vehicle_type_id":"4","last_reported":1723489660,"current_range_meters":12000,"station_id":"ce4bgjh2rcd13ifvqbf0","pricing_plan_id":"cebpf4jnsgd1na2vs0mg"},{"bike_id":"ee9c2b4e-a72d-403b-bcdb-27f3154abc59","system_id":"levelo_inurba_marseille","lat":43.298764,"lon":5.388973,"is_reserved":false,"is_disabled":false,"rental_uris":{"android":"levelo://app?vid=ee9c2b4e-a72d-403b-bcdb-27f3154abc59","ios":"levelo://app?vid=ee9c2b4e-a72d-403b-bcdb-27f3154abc59"},"vehicle_type_id":"4","last_reported":1723489660,"current_range_meters":29600,"station_id":"ce4bh392rcd13ifvqdl0","pricing_plan_id":"cebpf4jnsgd1na2vs0mg"},{"bike_id":"b38e577d-c189-40cf-9c09-8abd791bb931","system_id":"levelo_inurba_marseille","lat":43.291671,"lon":5.371575,"is_reserved":false,"is_disabled":false,"rental_uris":{"android":"levelo://app?vid=b38e577d-c189-40cf-9c09-8abd791bb931","ios":"levelo://app?vid=b38e577d-c189-40cf-9c09-8abd791bb931"},"vehicle_type_id":"4","last_reported":1723489660,"current_range_meters":4800,"station_id":"ce4bha92rcd13ifvqeh0","pricing_plan_id":"cebpf4jnsgd1na2vs0mg"},{"bike_id":"5e466626-7481-4ce2-9353-68826f999131","system_id":"levelo_inurba_marseille","lat":43.298764,"lon":5.388973,"is_reserved":false,"is_disabled":false,"rental_uris":{"android":"levelo://app?vid=5e466626-7481-4ce2-9353-68826f999131","ios":"levelo://app?vid=5e466626-7481-4ce2-9353-68826f999131"},"vehicle_type_id":"4","last_reported":1723489660,"current_range_meters":6000,"station_id":"ce4bh392rcd13ifvqdl0","pricing_plan_id":"cebpf4jnsgd1na2vs0mg"},{"bike_id":"a69b9eda-ae45-4fd6-9de4-df8648707295","system_id":"levelo_inurba_marseille","lat":43.298764,"lon":5.388973,"is_reserved":false,"is_disabled":false,"rental_uris":{"android":"levelo://app?vid=a69b9eda-ae45-4fd6-9de4-df8648707295","ios":"levelo://app?vid=a69b9eda-ae45-4fd6-9de4-df8648707295"},"vehicle_type_id":"4","last_reported":1723489660,"current_range_meters":1600,"station_id":"ce4bh392rcd13ifvqdl0","pricing_plan_id":"cebpf4jnsgd1na2vs0mg"},{"bike_id":"775f749c-fb69-499e-8bc0-94fe233d4775","system_id":"levelo_inurba_marseille","lat":43.29878,"lon":5.38918,"is_reserved":false,"is_disabled":false,"rental_uris":{"android":"levelo://app?vid=775f749c-fb69-499e-8bc0-94fe233d4775","ios":"levelo://app?vid=775f749c-fb69-499e-8bc0-94fe233d4775"},"vehicle_type_id":"4","last_reported":1723489660,"current_range_meters":31200,"station_id":"ce4bh392rcd13ifvqdl0","pricing_plan_id":"cebpf4jnsgd1na2vs0mg"},{"bike_id":"4fd39ed2-f7cd-4379-a629-b1fa4911a0f6","system_id":"levelo_inurba_marseille","lat":43.291994,"lon":5.357886,"is_reserved":false,"is_disabled":false,"rental_uris":{"android":"levelo://app?vid=4fd39ed2-f7cd-4379-a629-b1fa4911a0f6","ios":"levelo://app?vid=4fd39ed2-f7cd-4379-a629-b1fa4911a0f6"},"vehicle_type_id":"4","last_reported":1723489660,"current_range_meters":0,"station_id":"ce4bhb12rcd13ifvqel0","pricing_plan_id":"cebpf4jnsgd1na2vs0mg"},{"bike_id":"9d4b68a5-c93f-4844-a235-5ff4a055b660","system_id":"levelo_inurba_marseille","lat":43.292385,"lon":5.37767,"is_reserved":false,"is_disabled":false,"rental_uris":{"android":"levelo://app?vid=9d4b68a5-c93f-4844-a235-5ff4a055b660","ios":"levelo://app?vid=9d4b68a5-c93f-4844-a235-5ff4a055b660"},"vehicle_type_id":"4","last_reported":1723489660,"current_range_meters":3200,"station_id":"","pricing_plan_id":"cebpf4jnsgd1na2vs0mg"},{"bike_id":"ea53cc93-bddf-470a-879f-9924033ba557","system_id":"levelo_inurba_marseille","lat":43.31327,"lon":5.39693,"is_reserved":false,"is_disabled":false,"rental_uris":{"android":"levelo://app?vid=ea53cc93-bddf-470a-879f-9924033ba557","ios":"levelo://app?vid=ea53cc93-bddf-470a-879f-9924033ba557"},"vehicle_type_id":"4","last_reported":1723489660,"current_range_meters":6400,"station_id":"ce4bgvp2rcd13ifvqcu0","pricing_plan_id":"cebpf4jnsgd1na2vs0mg"},{"bike_id":"f4df8200-490c-4d5c-9e05-7ded5445480b","system_id":"levelo_inurba_marseille","lat":43.31329,"lon":5.39693,"is_reserved":false,"is_disabled":false,"rental_uris":{"android":"levelo://app?vid=f4df8200-490c-4d5c-9e05-7ded5445480b","ios":"levelo://app?vid=f4df8200-490c-4d5c-9e05-7ded5445480b"},"vehicle_type_id":"4","last_reported":1723489660,"current_range_meters":5200,"station_id":"ce4bgvp2rcd13ifvqcu0","pricing_plan_id":"cebpf4jnsgd1na2vs0mg"},{"bike_id":"f3d54999-3381-4cce-842b-02df29928fb0","system_id":"levelo_inurba_marseille","lat":43.309047,"lon":5.396551,"is_reserved":false,"is_disabled":false,"rental_uris":{"android":"levelo://app?vid=f3d54999-3381-4cce-842b-02df29928fb0","ios":"levelo://app?vid=f3d54999-3381-4cce-842b-02df29928fb0"},"vehicle_type_id":"4","last_reported":1723489660,"current_range_meters":29200,"station_id":"ce4bh012rcd13ifvqcv0","pricing_plan_id":"cebpf4jnsgd1na2vs0mg"},{"bike_id":"41f2a558-b074-4d4b-8466-8d21492e6001","system_id":"levelo_inurba_marseille","lat":43.309038,"lon":5.396546,"is_reserved":false,"is_disabled":false,"rental_uris":{"android":"levelo://app?vid=41f2a558-b074-4d4b-8466-8d21492e6001","ios":"levelo://app?vid=41f2a558-b074-4d4b-8466-8d21492e6001"},"vehicle_type_id":"4","last_reported":1723489660,"current_range_meters":26000,"station_id":"ce4bh012rcd13ifvqcv0","pricing_plan_id":"cebpf4jnsgd1na2vs0mg"},{"bike_id":"8e0cacf4-a916-4e02-b86a-83342c533c2e","system_id":"levelo_inurba_marseille","lat":43.309038,"lon":5.396546,"is_reserved":false,"is_disabled":false,"rental_uris":{"android":"levelo://app?vid=8e0cacf4-a916-4e02-b86a-83342c533c2e","ios":"levelo://app?vid=8e0cacf4-a916-4e02-b86a-83342c533c2e"},"vehicle_type_id":"4","last_reported":1723489660,"current_range_meters":5600,"station_id":"ce4bh012rcd13ifvqcv0","pricing_plan_id":"cebpf4jnsgd1na2vs0mg"},{"bike_id":"45a05ef4-4c28-4665-9c29-7bbae8cbf65c","system_id":"levelo_inurba_marseille","lat":43.309047,"lon":5.396551,"is_reserved":false,"is_disabled":false,"rental_uris":{"android":"levelo://app?vid=45a05ef4-4c28-4665-9c29-7bbae8cbf65c","ios":"levelo://app?vid=45a05ef4-4c28-4665-9c29-7bbae8cbf65c"},"vehicle_type_id":"4","last_reported":1723489660,"current_range_meters":30400,"station_id":"ce4bh012rcd13ifvqcv0","pricing_plan_id":"cebpf4jnsgd1na2vs0mg"},{"bike_id":"a9463961-de79-4397-8e74-574f40093016","system_id":"levelo_inurba_marseille","lat":43.2936,"lon":5.37835,"is_reserved":false,"is_disabled":false,"rental_uris":{"android":"levelo://app?vid=a9463961-de79-4397-8e74-574f40093016","ios":"levelo://app?vid=a9463961-de79-4397-8e74-574f40093016"},"vehicle_type_id":"4","last_reported":1723489660,"current_range_meters":0,"station_id":"ce4bgjh2rcd13ifvqbf0","pricing_plan_id":"cebpf4jnsgd1na2vs0mg"},{"bike_id":"45fe16c4-3842-4272-b513-6005d6599426","system_id":"levelo_inurba_marseille","lat":43.29529,"lon":5.385581,"is_reserved":false,"is_disabled":false,"rental_uris":{"android":"levelo://app?vid=45fe16c4-3842-4272-b513-6005d6599426","ios":"levelo://app?vid=45fe16c4-3842-4272-b513-6005d6599426"},"vehicle_type_id":"4","last_reported":1723489660,"current_range_meters":24400,"station_id":"ce4bgih2rcd13ifvqba0","pricing_plan_id":"cebpf4jnsgd1na2vs0mg"},{"bike_id":"f64fc642-e3a4-468b-aa75-7a0679db9307","system_id":"levelo_inurba_marseille","lat":43.29532,"lon":5.38542,"is_reserved":false,"is_disabled":false,"rental_uris":{"android":"levelo://app?vid=f64fc642-e3a4-468b-aa75-7a0679db9307","ios":"levelo://app?vid=f64fc642-e3a4-468b-aa75-7a0679db9307"},"vehicle_type_id":"4","last_reported":1723489660,"current_range_meters":4000,"station_id":"ce4bgih2rcd13ifvqba0","pricing_plan_id":"cebpf4jnsgd1na2vs0mg"},{"bike_id":"74f77997-eb50-4623-aa58-64ed818a1c0c","system_id":"levelo_inurba_marseille","lat":43.29529,"lon":5.385581,"is_reserved":false,"is_disabled":false,"rental_uris":{"android":"levelo://app?vid=74f77997-eb50-4623-aa58-64ed818a1c0c","ios":"levelo://app?vid=74f77997-eb50-4623-aa58-64ed818a1c0c"},"vehicle_type_id":"4","last_reported":1723489660,"current_range_meters":800,"station_id":"ce4bgih2rcd13ifvqba0","pricing_plan_id":"cebpf4jnsgd1na2vs0mg"},{"bike_id":"6cb08b48-6d06-47e2-b605-f521a33a736e","system_id":"levelo_inurba_marseille","lat":43.290779,"lon":5.371482,"is_reserved":false,"is_disabled":false,"rental_uris":{"android":"levelo://app?vid=6cb08b48-6d06-47e2-b605-f521a33a736e","ios":"levelo://app?vid=6cb08b48-6d06-47e2-b605-f521a33a736e"},"vehicle_type_id":"4","last_reported":1723489660,"current_range_meters":3600,"station_id":"ce4bh5p2rcd13ifvqe4g","pricing_plan_id":"cebpf4jnsgd1na2vs0mg"},{"bike_id":"363aee32-8fda-46cd-842e-6fe72cb9e4d3","system_id":"levelo_inurba_marseille","lat":43.290779,"lon":5.371482,"is_reserved":false,"is_disabled":false,"rental_uris":{"android":"levelo://app?vid=363aee32-8fda-46cd-842e-6fe72cb9e4d3","ios":"levelo://app?vid=363aee32-8fda-46cd-842e-6fe72cb9e4d3"},"vehicle_type_id":"4","last_reported":1723489660,"current_range_meters":12800,"station_id":"ce4bh5p2rcd13ifvqe4g","pricing_plan_id":"cebpf4jnsgd1na2vs0mg"},{"bike_id":"a56e0623-7229-4f27-9569-51e9b85d50ac","system_id":"levelo_inurba_marseille","lat":43.302008,"lon":5.394694,"is_reserved":false,"is_disabled":false,"rental_uris":{"android":"levelo://app?vid=a56e0623-7229-4f27-9569-51e9b85d50ac","ios":"levelo://app?vid=a56e0623-7229-4f27-9569-51e9b85d50ac"},"vehicle_type_id":"4","last_reported":1723489660,"current_range_meters":10400,"station_id":"ce4bh0p2rcd13ifvqd70","pricing_plan_id":"cebpf4jnsgd1na2vs0mg"},{"bike_id":"6fce9959-66a2-43fe-b795-ce60c61a5268","system_id":"levelo_inurba_marseille","lat":43.290327,"lon":5.375711,"is_reserved":false,"is_disabled":false,"rental_uris":{"android":"levelo://app?vid=6fce9959-66a2-43fe-b795-ce60c61a5268","ios":"levelo://app?vid=6fce9959-66a2-43fe-b795-ce60c61a5268"},"vehicle_type_id":"4","last_reported":1723489660,"current_range_meters":0,"station_id":"ce4bh692rcd13ifvqe90","pricing_plan_id":"cebpf4jnsgd1na2vs0mg"},{"bike_id":"9eb5569e-cd7a-4b2b-8fae-c038fa25f6a2","system_id":"levelo_inurba_marseille","lat":43.294162,"lon":5.386292,"is_reserved":false,"is_disabled":false,"rental_uris":{"android":"levelo://app?vid=9eb5569e-cd7a-4b2b-8fae-c038fa25f6a2","ios":"levelo://app?vid=9eb5569e-cd7a-4b2b-8fae-c038fa25f6a2"},"vehicle_type_id":"4","last_reported":1723489660,"current_range_meters":800,"station_id":"ce4bh2h2rcd13ifvqdh0","pricing_plan_id":"cebpf4jnsgd1na2vs0mg"},{"bike_id":"5bec4cb2-53ae-4379-a1bb-e50d3f6951e4","system_id":"levelo_inurba_marseille","lat":43.294153,"lon":5.386305,"is_reserved":false,"is_disabled":false,"rental_uris":{"android":"levelo://app?vid=5bec4cb2-53ae-4379-a1bb-e50d3f6951e4","ios":"levelo://app?vid=5bec4cb2-53ae-4379-a1bb-e50d3f6951e4"},"vehicle_type_id":"4","last_reported":1723489660,"current_range_meters":800,"station_id":"ce4bh2h2rcd13ifvqdh0","pricing_plan_id":"cebpf4jnsgd1na2vs0mg"},{"bike_id":"5bddba81-390c-4aec-95b7-0efc845af27a","system_id":"levelo_inurba_marseille","lat":43.294153,"lon":5.386305,"is_reserved":false,"is_disabled":false,"rental_uris":{"android":"levelo://app?vid=5bddba81-390c-4aec-95b7-0efc845af27a","ios":"levelo://app?vid=5bddba81-390c-4aec-95b7-0efc845af27a"},"vehicle_type_id":"4","last_reported":1723489660,"current_range_meters":30000,"station_id":"ce4bh2h2rcd13ifvqdh0","pricing_plan_id":"cebpf4jnsgd1na2vs0mg"},{"bike_id":"0225f6d5-ca45-4e42-8d59-e31371040e50","system_id":"levelo_inurba_marseille","lat":43.294153,"lon":5.386305,"is_reserved":false,"is_disabled":false,"rental_uris":{"android":"levelo://app?vid=0225f6d5-ca45-4e42-8d59-e31371040e50","ios":"levelo://app?vid=0225f6d5-ca45-4e42-8d59-e31371040e50"},"vehicle_type_id":"4","last_reported":1723489660,"current_range_meters":2800,"station_id":"ce4bh2h2rcd13ifvqdh0","pricing_plan_id":"cebpf4jnsgd1na2vs0mg"},{"bike_id":"ed7285ce-3ada-4aa5-8c52-62c5b0393d79","system_id":"levelo_inurba_marseille","lat":43.294162,"lon":5.386292,"is_reserved":false,"is_disabled":false,"rental_uris":{"android":"levelo://app?vid=ed7285ce-3ada-4aa5-8c52-62c5b0393d79","ios":"levelo://app?vid=ed7285ce-3ada-4aa5-8c52-62c5b0393d79"},"vehicle_type_id":"4","last_reported":1723489660,"current_range_meters":30400,"station_id":"ce4bh2h2rcd13ifvqdh0","pricing_plan_id":"cebpf4jnsgd1na2vs0mg"},{"bike_id":"77ae0124-e926-49c9-9908-79fd27e65d74","system_id":"levelo_inurba_marseille","lat":43.290327,"lon":5.375711,"is_reserved":false,"is_disabled":false,"rental_uris":{"android":"levelo://app?vid=77ae0124-e926-49c9-9908-79fd27e65d74","ios":"levelo://app?vid=77ae0124-e926-49c9-9908-79fd27e65d74"},"vehicle_type_id":"4","last_reported":1723489660,"current_range_meters":16000,"station_id":"ce4bh692rcd13ifvqe90","pricing_plan_id":"cebpf4jnsgd1na2vs0mg"},{"bike_id":"4e0f87ca-e303-411a-b93b-d1e60a83e4da","system_id":"levelo_inurba_marseille","lat":43.290327,"lon":5.375711,"is_reserved":false,"is_disabled":false,"rental_uris":{"android":"levelo://app?vid=4e0f87ca-e303-411a-b93b-d1e60a83e4da","ios":"levelo://app?vid=4e0f87ca-e303-411a-b93b-d1e60a83e4da"},"vehicle_type_id":"4","last_reported":1723489660,"current_range_meters":0,"station_id":"ce4bh692rcd13ifvqe90","pricing_plan_id":"cebpf4jnsgd1na2vs0mg"},{"bike_id":"faaa93d7-7dd5-4884-8c58-d3e09a278bcb","system_id":"levelo_inurba_marseille","lat":43.294162,"lon":5.386292,"is_reserved":false,"is_disabled":false,"rental_uris":{"android":"levelo://app?vid=faaa93d7-7dd5-4884-8c58-d3e09a278bcb","ios":"levelo://app?vid=faaa93d7-7dd5-4884-8c58-d3e09a278bcb"},"vehicle_type_id":"4","last_reported":1723489660,"current_range_meters":1600,"station_id":"ce4bh2h2rcd13ifvqdh0","pricing_plan_id":"cebpf4jnsgd1na2vs0mg"},{"bike_id":"a522c943-2e57-4c2a-a91b-c940293ed12b","system_id":"levelo_inurba_marseille","lat":43.294162,"lon":5.386292,"is_reserved":false,"is_disabled":false,"rental_uris":{"android":"levelo://app?vid=a522c943-2e57-4c2a-a91b-c940293ed12b","ios":"levelo://app?vid=a522c943-2e57-4c2a-a91b-c940293ed12b"},"vehicle_type_id":"4","last_reported":1723489660,"current_range_meters":2400,"station_id":"ce4bh2h2rcd13ifvqdh0","pricing_plan_id":"cebpf4jnsgd1na2vs0mg"},{"bike_id":"31674080-52ce-4b83-a9f9-a77785dc1300","system_id":"levelo_inurba_marseille","lat":43.294162,"lon":5.386292,"is_reserved":false,"is_disabled":false,"rental_uris":{"android":"levelo://app?vid=31674080-52ce-4b83-a9f9-a77785dc1300","ios":"levelo://app?vid=31674080-52ce-4b83-a9f9-a77785dc1300"},"vehicle_type_id":"4","last_reported":1723489660,"current_range_meters":2800,"station_id":"ce4bh2h2rcd13ifvqdh0","pricing_plan_id":"cebpf4jnsgd1na2vs0mg"},{"bike_id":"943d167e-252d-4474-923d-de567831eae7","system_id":"levelo_inurba_marseille","lat":43.290327,"lon":5.375711,"is_reserved":false,"is_disabled":false,"rental_uris":{"android":"levelo://app?vid=943d167e-252d-4474-923d-de567831eae7","ios":"levelo://app?vid=943d167e-252d-4474-923d-de567831eae7"},"vehicle_type_id":"4","last_reported":1723489660,"current_range_meters":0,"station_id":"ce4bh692rcd13ifvqe90","pricing_plan_id":"cebpf4jnsgd1na2vs0mg"},{"bike_id":"18bdacde-4c6e-4650-9aa6-1753c6c92fe0","system_id":"levelo_inurba_marseille","lat":43.294162,"lon":5.386292,"is_reserved":false,"is_disabled":false,"rental_uris":{"android":"levelo://app?vid=18bdacde-4c6e-4650-9aa6-1753c6c92fe0","ios":"levelo://app?vid=18bdacde-4c6e-4650-9aa6-1753c6c92fe0"},"vehicle_type_id":"4","last_reported":1723489660,"current_range_meters":2400,"station_id":"ce4bh2h2rcd13ifvqdh0","pricing_plan_id":"cebpf4jnsgd1na2vs0mg"},{"bike_id":"88875866-4a07-43f7-9973-2b94c085a6e3","system_id":"levelo_inurba_marseille","lat":43.294153,"lon":5.386305,"is_reserved":false,"is_disabled":false,"rental_uris":{"android":"levelo://app?vid=88875866-4a07-43f7-9973-2b94c085a6e3","ios":"levelo://app?vid=88875866-4a07-43f7-9973-2b94c085a6e3"},"vehicle_type_id":"4","last_reported":1723489660,"current_range_meters":3200,"station_id":"ce4bh2h2rcd13ifvqdh0","pricing_plan_id":"cebpf4jnsgd1na2vs0mg"},{"bike_id":"abc3436e-0d06-4035-bd21-0f63fe91f6a8","system_id":"levelo_inurba_marseille","lat":43.289184,"lon":5.366408,"is_reserved":false,"is_disabled":false,"rental_uris":{"android":"levelo://app?vid=abc3436e-0d06-4035-bd21-0f63fe91f6a8","ios":"levelo://app?vid=abc3436e-0d06-4035-bd21-0f63fe91f6a8"},"vehicle_type_id":"4","last_reported":1723489660,"current_range_meters":800,"station_id":"ce4bhap2rcd13ifvqek0","pricing_plan_id":"cebpf4jnsgd1na2vs0mg"},{"bike_id":"a0364faf-5114-40d3-8b72-3aaa03bc4b19","system_id":"levelo_inurba_marseille","lat":43.294162,"lon":5.386292,"is_reserved":false,"is_disabled":false,"rental_uris":{"android":"levelo://app?vid=a0364faf-5114-40d3-8b72-3aaa03bc4b19","ios":"levelo://app?vid=a0364faf-5114-40d3-8b72-3aaa03bc4b19"},"vehicle_type_id":"4","last_reported":1723489660,"current_range_meters":12400,"station_id":"ce4bh2h2rcd13ifvqdh0","pricing_plan_id":"cebpf4jnsgd1na2vs0mg"},{"bike_id":"9ac8786f-d24e-45aa-a619-cc3482272279","system_id":"levelo_inurba_marseille","lat":43.289468,"lon":5.363719,"is_reserved":false,"is_disabled":false,"rental_uris":{"android":"levelo://app?vid=9ac8786f-d24e-45aa-a619-cc3482272279","ios":"levelo://app?vid=9ac8786f-d24e-45aa-a619-cc3482272279"},"vehicle_type_id":"4","last_reported":1723489660,"current_range_meters":5600,"station_id":"ce4bhc92rcd13ifvqetg","pricing_plan_id":"cebpf4jnsgd1na2vs0mg"},{"bike_id":"7ca56c40-d603-4fd4-aa47-b02f628852bf","system_id":"levelo_inurba_marseille","lat":43.28943,"lon":5.36402,"is_reserved":false,"is_disabled":false,"rental_uris":{"android":"levelo://app?vid=7ca56c40-d603-4fd4-aa47-b02f628852bf","ios":"levelo://app?vid=7ca56c40-d603-4fd4-aa47-b02f628852bf"},"vehicle_type_id":"4","last_reported":1723489660,"current_range_meters":0,"station_id":"ce4bhc92rcd13ifvqetg","pricing_plan_id":"cebpf4jnsgd1na2vs0mg"},{"bike_id":"e7f71677-ef8b-4485-87d5-7e5d991ab2e2","system_id":"levelo_inurba_marseille","lat":43.289184,"lon":5.366408,"is_reserved":false,"is_disabled":false,"rental_uris":{"android":"levelo://app?vid=e7f71677-ef8b-4485-87d5-7e5d991ab2e2","ios":"levelo://app?vid=e7f71677-ef8b-4485-87d5-7e5d991ab2e2"},"vehicle_type_id":"4","last_reported":1723489660,"current_range_meters":7600,"station_id":"ce4bhap2rcd13ifvqek0","pricing_plan_id":"cebpf4jnsgd1na2vs0mg"},{"bike_id":"b380623a-948e-47d6-b9b9-90d6e120faf0","system_id":"levelo_inurba_marseille","lat":43.28933,"lon":5.36643,"is_reserved":false,"is_disabled":false,"rental_uris":{"android":"levelo://app?vid=b380623a-948e-47d6-b9b9-90d6e120faf0","ios":"levelo://app?vid=b380623a-948e-47d6-b9b9-90d6e120faf0"},"vehicle_type_id":"4","last_reported":1723489660,"current_range_meters":0,"station_id":"ce4bhap2rcd13ifvqek0","pricing_plan_id":"cebpf4jnsgd1na2vs0mg"},{"bike_id":"363cfe89-bcc8-44aa-9b54-3e5ea867bbe4","system_id":"levelo_inurba_marseille","lat":43.294162,"lon":5.386292,"is_reserved":false,"is_disabled":false,"rental_uris":{"android":"levelo://app?vid=363cfe89-bcc8-44aa-9b54-3e5ea867bbe4","ios":"levelo://app?vid=363cfe89-bcc8-44aa-9b54-3e5ea867bbe4"},"vehicle_type_id":"4","last_reported":1723489660,"current_range_meters":29600,"station_id":"ce4bh2h2rcd13ifvqdh0","pricing_plan_id":"cebpf4jnsgd1na2vs0mg"},{"bike_id":"a47feb1c-1bb2-4e5b-98a8-20e122e5fdda","system_id":"levelo_inurba_marseille","lat":43.28932,"lon":5.36636,"is_reserved":false,"is_disabled":false,"rental_uris":{"android":"levelo://app?vid=a47feb1c-1bb2-4e5b-98a8-20e122e5fdda","ios":"levelo://app?vid=a47feb1c-1bb2-4e5b-98a8-20e122e5fdda"},"vehicle_type_id":"4","last_reported":1723489660,"current_range_meters":0,"station_id":"ce4bhap2rcd13ifvqek0","pricing_plan_id":"cebpf4jnsgd1na2vs0mg"},{"bike_id":"22426741-2917-4fb8-9985-7de77873f3a5","system_id":"levelo_inurba_marseille","lat":43.28938,"lon":5.364,"is_reserved":false,"is_disabled":false,"rental_uris":{"android":"levelo://app?vid=22426741-2917-4fb8-9985-7de77873f3a5","ios":"levelo://app?vid=22426741-2917-4fb8-9985-7de77873f3a5"},"vehicle_type_id":"4","last_reported":1723489660,"current_range_meters":400,"station_id":"ce4bhc92rcd13ifvqetg","pricing_plan_id":"cebpf4jnsgd1na2vs0mg"},{"bike_id":"476bacc2-82a9-4968-94cd-d6ee0606e481","system_id":"levelo_inurba_marseille","lat":43.29419,"lon":5.38668,"is_reserved":false,"is_disabled":false,"rental_uris":{"android":"levelo://app?vid=476bacc2-82a9-4968-94cd-d6ee0606e481","ios":"levelo://app?vid=476bacc2-82a9-4968-94cd-d6ee0606e481"},"vehicle_type_id":"4","last_reported":1723489660,"current_range_meters":800,"station_id":"ce4bh2h2rcd13ifvqdh0","pricing_plan_id":"cebpf4jnsgd1na2vs0mg"},{"bike_id":"63ec897a-d929-4439-9021-d69c829db1b4","system_id":"levelo_inurba_marseille","lat":43.29278,"lon":5.38446,"is_reserved":false,"is_disabled":false,"rental_uris":{"android":"levelo://app?vid=63ec897a-d929-4439-9021-d69c829db1b4","ios":"levelo://app?vid=63ec897a-d929-4439-9021-d69c829db1b4"},"vehicle_type_id":"4","last_reported":1723489660,"current_range_meters":4800,"station_id":"ce4bh692rcd13ifvqea0","pricing_plan_id":"cebpf4jnsgd1na2vs0mg"},{"bike_id":"b8170c66-9fb2-44a4-9bfa-e49ec5b61386","system_id":"levelo_inurba_marseille","lat":43.292734,"lon":5.384372,"is_reserved":false,"is_disabled":false,"rental_uris":{"android":"levelo://app?vid=b8170c66-9fb2-44a4-9bfa-e49ec5b61386","ios":"levelo://app?vid=b8170c66-9fb2-44a4-9bfa-e49ec5b61386"},"vehicle_type_id":"4","last_reported":1723489660,"current_range_meters":0,"station_id":"","pricing_plan_id":"cebpf4jnsgd1na2vs0mg"},{"bike_id":"6e500484-afa5-4658-a4f1-b7c9070bc792","system_id":"levelo_inurba_marseille","lat":43.292644,"lon":5.384257,"is_reserved":false,"is_disabled":false,"rental_uris":{"android":"levelo://app?vid=6e500484-afa5-4658-a4f1-b7c9070bc792","ios":"levelo://app?vid=6e500484-afa5-4658-a4f1-b7c9070bc792"},"vehicle_type_id":"4","last_reported":1723489660,"current_range_meters":14800,"station_id":"ce4bh692rcd13ifvqea0","pricing_plan_id":"cebpf4jnsgd1na2vs0mg"},{"bike_id":"a9f41096-5616-403c-9c49-f15618bfed56","system_id":"levelo_inurba_marseille","lat":43.292671,"lon":5.384396,"is_reserved":false,"is_disabled":false,"rental_uris":{"android":"levelo://app?vid=a9f41096-5616-403c-9c49-f15618bfed56","ios":"levelo://app?vid=a9f41096-5616-403c-9c49-f15618bfed56"},"vehicle_type_id":"4","last_reported":1723489660,"current_range_meters":0,"station_id":"ce4bh692rcd13ifvqea0","pricing_plan_id":"cebpf4jnsgd1na2vs0mg"},{"bike_id":"a9c2fc64-86fc-4599-9a1d-b858c8415194","system_id":"levelo_inurba_marseille","lat":43.292642,"lon":5.384254,"is_reserved":false,"is_disabled":false,"rental_uris":{"android":"levelo://app?vid=a9c2fc64-86fc-4599-9a1d-b858c8415194","ios":"levelo://app?vid=a9c2fc64-86fc-4599-9a1d-b858c8415194"},"vehicle_type_id":"4","last_reported":1723489660,"current_range_meters":0,"station_id":"ce4bh692rcd13ifvqea0","pricing_plan_id":"cebpf4jnsgd1na2vs0mg"},{"bike_id":"e8be5353-1353-4e40-8f00-27cd3e9c743a","system_id":"levelo_inurba_marseille","lat":43.2927,"lon":5.38449,"is_reserved":false,"is_disabled":false,"rental_uris":{"android":"levelo://app?vid=e8be5353-1353-4e40-8f00-27cd3e9c743a","ios":"levelo://app?vid=e8be5353-1353-4e40-8f00-27cd3e9c743a"},"vehicle_type_id":"4","last_reported":1723489660,"current_range_meters":0,"station_id":"ce4bh692rcd13ifvqea0","pricing_plan_id":"cebpf4jnsgd1na2vs0mg"},{"bike_id":"19546865-8ff3-4740-8312-a8d5317c796a","system_id":"levelo_inurba_marseille","lat":43.29265,"lon":5.38439,"is_reserved":false,"is_disabled":false,"rental_uris":{"android":"levelo://app?vid=19546865-8ff3-4740-8312-a8d5317c796a","ios":"levelo://app?vid=19546865-8ff3-4740-8312-a8d5317c796a"},"vehicle_type_id":"4","last_reported":1723489660,"current_range_meters":2000,"station_id":"ce4bh692rcd13ifvqea0","pricing_plan_id":"cebpf4jnsgd1na2vs0mg"},{"bike_id":"89f63c4b-9803-4ded-8ef6-58b2ae280522","system_id":"levelo_inurba_marseille","lat":43.29266,"lon":5.38442,"is_reserved":false,"is_disabled":false,"rental_uris":{"android":"levelo://app?vid=89f63c4b-9803-4ded-8ef6-58b2ae280522","ios":"levelo://app?vid=89f63c4b-9803-4ded-8ef6-58b2ae280522"},"vehicle_type_id":"4","last_reported":1723489660,"current_range_meters":2800,"station_id":"ce4bh692rcd13ifvqea0","pricing_plan_id":"cebpf4jnsgd1na2vs0mg"},{"bike_id":"de4fa0b9-92a6-4c30-adbe-604ed3623479","system_id":"levelo_inurba_marseille","lat":43.292642,"lon":5.384254,"is_reserved":false,"is_disabled":false,"rental_uris":{"android":"levelo://app?vid=de4fa0b9-92a6-4c30-adbe-604ed3623479","ios":"levelo://app?vid=de4fa0b9-92a6-4c30-adbe-604ed3623479"},"vehicle_type_id":"4","last_reported":1723489660,"current_range_meters":12800,"station_id":"ce4bh692rcd13ifvqea0","pricing_plan_id":"cebpf4jnsgd1na2vs0mg"},{"bike_id":"f30a5eb7-dda4-4cb4-bff4-6f6d920577ad","system_id":"levelo_inurba_marseille","lat":43.292644,"lon":5.384257,"is_reserved":false,"is_disabled":false,"rental_uris":{"android":"levelo://app?vid=f30a5eb7-dda4-4cb4-bff4-6f6d920577ad","ios":"levelo://app?vid=f30a5eb7-dda4-4cb4-bff4-6f6d920577ad"},"vehicle_type_id":"4","last_reported":1723489660,"current_range_meters":0,"station_id":"ce4bh692rcd13ifvqea0","pricing_plan_id":"cebpf4jnsgd1na2vs0mg"},{"bike_id":"9f9e3c31-f097-4234-97d8-fac73bde0c32","system_id":"levelo_inurba_marseille","lat":43.292644,"lon":5.384257,"is_reserved":false,"is_disabled":false,"rental_uris":{"android":"levelo://app?vid=9f9e3c31-f097-4234-97d8-fac73bde0c32","ios":"levelo://app?vid=9f9e3c31-f097-4234-97d8-fac73bde0c32"},"vehicle_type_id":"4","last_reported":1723489660,"current_range_meters":3200,"station_id":"ce4bh692rcd13ifvqea0","pricing_plan_id":"cebpf4jnsgd1na2vs0mg"},{"bike_id":"bf366dcd-b00c-4a5c-bb2f-431e6d32e946","system_id":"levelo_inurba_marseille","lat":43.304274,"lon":5.397513,"is_reserved":false,"is_disabled":false,"rental_uris":{"android":"levelo://app?vid=bf366dcd-b00c-4a5c-bb2f-431e6d32e946","ios":"levelo://app?vid=bf366dcd-b00c-4a5c-bb2f-431e6d32e946"},"vehicle_type_id":"4","last_reported":1723489660,"current_range_meters":30800,"station_id":"ce4bh092rcd13ifvqd20","pricing_plan_id":"cebpf4jnsgd1na2vs0mg"},{"bike_id":"c2a72c6e-340a-4191-816f-ae0549899780","system_id":"levelo_inurba_marseille","lat":43.29266,"lon":5.38445,"is_reserved":false,"is_disabled":false,"rental_uris":{"android":"levelo://app?vid=c2a72c6e-340a-4191-816f-ae0549899780","ios":"levelo://app?vid=c2a72c6e-340a-4191-816f-ae0549899780"},"vehicle_type_id":"4","last_reported":1723489660,"current_range_meters":25200,"station_id":"ce4bh692rcd13ifvqea0","pricing_plan_id":"cebpf4jnsgd1na2vs0mg"},{"bike_id":"182455a3-80ca-41dd-a4b2-6ad18c08f6a5","system_id":"levelo_inurba_marseille","lat":43.29264,"lon":5.38443,"is_reserved":false,"is_disabled":false,"rental_uris":{"android":"levelo://app?vid=182455a3-80ca-41dd-a4b2-6ad18c08f6a5","ios":"levelo://app?vid=182455a3-80ca-41dd-a4b2-6ad18c08f6a5"},"vehicle_type_id":"4","last_reported":1723489660,"current_range_meters":14400,"station_id":"ce4bh692rcd13ifvqea0","pricing_plan_id":"cebpf4jnsgd1na2vs0mg"},{"bike_id":"79bc8aa2-26cb-43b4-b5a1-9e9f7df47451","system_id":"levelo_inurba_marseille","lat":43.29259,"lon":5.38434,"is_reserved":false,"is_disabled":false,"rental_uris":{"android":"levelo://app?vid=79bc8aa2-26cb-43b4-b5a1-9e9f7df47451","ios":"levelo://app?vid=79bc8aa2-26cb-43b4-b5a1-9e9f7df47451"},"vehicle_type_id":"4","last_reported":1723489660,"current_range_meters":4400,"station_id":"ce4bh692rcd13ifvqea0","pricing_plan_id":"cebpf4jnsgd1na2vs0mg"},{"bike_id":"4a12a04a-2131-407e-83f7-6ddc0ea6c894","system_id":"levelo_inurba_marseille","lat":43.292642,"lon":5.384254,"is_reserved":false,"is_disabled":false,"rental_uris":{"android":"levelo://app?vid=4a12a04a-2131-407e-83f7-6ddc0ea6c894","ios":"levelo://app?vid=4a12a04a-2131-407e-83f7-6ddc0ea6c894"},"vehicle_type_id":"4","last_reported":1723489660,"current_range_meters":29200,"station_id":"ce4bh692rcd13ifvqea0","pricing_plan_id":"cebpf4jnsgd1na2vs0mg"},{"bike_id":"03e79aa3-a249-4629-b68e-26f84bb48c06","system_id":"levelo_inurba_marseille","lat":43.292642,"lon":5.384254,"is_reserved":false,"is_disabled":false,"rental_uris":{"android":"levelo://app?vid=03e79aa3-a249-4629-b68e-26f84bb48c06","ios":"levelo://app?vid=03e79aa3-a249-4629-b68e-26f84bb48c06"},"vehicle_type_id":"4","last_reported":1723489660,"current_range_meters":800,"station_id":"ce4bh692rcd13ifvqea0","pricing_plan_id":"cebpf4jnsgd1na2vs0mg"},{"bike_id":"5ff9ebba-3045-4891-b649-83b4b9fbb42f","system_id":"levelo_inurba_marseille","lat":43.292644,"lon":5.384257,"is_reserved":false,"is_disabled":false,"rental_uris":{"android":"levelo://app?vid=5ff9ebba-3045-4891-b649-83b4b9fbb42f","ios":"levelo://app?vid=5ff9ebba-3045-4891-b649-83b4b9fbb42f"},"vehicle_type_id":"4","last_reported":1723489660,"current_range_meters":23200,"station_id":"ce4bh692rcd13ifvqea0","pricing_plan_id":"cebpf4jnsgd1na2vs0mg"},{"bike_id":"4f4763a8-4917-40ed-a551-10cf62ad6d75","system_id":"levelo_inurba_marseille","lat":43.292642,"lon":5.384254,"is_reserved":false,"is_disabled":false,"rental_uris":{"android":"levelo://app?vid=4f4763a8-4917-40ed-a551-10cf62ad6d75","ios":"levelo://app?vid=4f4763a8-4917-40ed-a551-10cf62ad6d75"},"vehicle_type_id":"4","last_reported":1723489660,"current_range_meters":0,"station_id":"ce4bh692rcd13ifvqea0","pricing_plan_id":"cebpf4jnsgd1na2vs0mg"},{"bike_id":"d3914dd5-d3ec-4abb-8e9a-17919c77c78c","system_id":"levelo_inurba_marseille","lat":43.29008,"lon":5.35616,"is_reserved":false,"is_disabled":false,"rental_uris":{"android":"levelo://app?vid=d3914dd5-d3ec-4abb-8e9a-17919c77c78c","ios":"levelo://app?vid=d3914dd5-d3ec-4abb-8e9a-17919c77c78c"},"vehicle_type_id":"4","last_reported":1723489660,"current_range_meters":0,"station_id":"ce4bhb92rcd13ifvqen0","pricing_plan_id":"cebpf4jnsgd1na2vs0mg"},{"bike_id":"377d30bf-67fb-4853-8cbd-d2fc03da7397","system_id":"levelo_inurba_marseille","lat":43.29007,"lon":5.35615,"is_reserved":false,"is_disabled":false,"rental_uris":{"android":"levelo://app?vid=377d30bf-67fb-4853-8cbd-d2fc03da7397","ios":"levelo://app?vid=377d30bf-67fb-4853-8cbd-d2fc03da7397"},"vehicle_type_id":"4","last_reported":1723489660,"current_range_meters":0,"station_id":"ce4bhb92rcd13ifvqen0","pricing_plan_id":"cebpf4jnsgd1na2vs0mg"},{"bike_id":"8f6e94d7-ffb4-465d-962b-8bdb48132873","system_id":"levelo_inurba_marseille","lat":43.29006,"lon":5.356085,"is_reserved":false,"is_disabled":false,"rental_uris":{"android":"levelo://app?vid=8f6e94d7-ffb4-465d-962b-8bdb48132873","ios":"levelo://app?vid=8f6e94d7-ffb4-465d-962b-8bdb48132873"},"vehicle_type_id":"4","last_reported":1723489660,"current_range_meters":0,"station_id":"ce4bhb92rcd13ifvqen0","pricing_plan_id":"cebpf4jnsgd1na2vs0mg"},{"bike_id":"2c69cb3e-af2f-4e88-84ec-bfdb8ec464c6","system_id":"levelo_inurba_marseille","lat":43.29004,"lon":5.35609,"is_reserved":false,"is_disabled":false,"rental_uris":{"android":"levelo://app?vid=2c69cb3e-af2f-4e88-84ec-bfdb8ec464c6","ios":"levelo://app?vid=2c69cb3e-af2f-4e88-84ec-bfdb8ec464c6"},"vehicle_type_id":"4","last_reported":1723489660,"current_range_meters":0,"station_id":"ce4bhb92rcd13ifvqen0","pricing_plan_id":"cebpf4jnsgd1na2vs0mg"},{"bike_id":"56c37feb-692c-49d2-a0f1-b55e79b81dcb","system_id":"levelo_inurba_marseille","lat":43.290995,"lon":5.381361,"is_reserved":false,"is_disabled":false,"rental_uris":{"android":"levelo://app?vid=56c37feb-692c-49d2-a0f1-b55e79b81dcb","ios":"levelo://app?vid=56c37feb-692c-49d2-a0f1-b55e79b81dcb"},"vehicle_type_id":"4","last_reported":1723489660,"current_range_meters":31200,"station_id":"ce4bh512rcd13ifvqe2g","pricing_plan_id":"cebpf4jnsgd1na2vs0mg"},{"bike_id":"b836ad64-955e-4493-a702-f27b198168f5","system_id":"levelo_inurba_marseille","lat":43.290995,"lon":5.381361,"is_reserved":false,"is_disabled":false,"rental_uris":{"android":"levelo://app?vid=b836ad64-955e-4493-a702-f27b198168f5","ios":"levelo://app?vid=b836ad64-955e-4493-a702-f27b198168f5"},"vehicle_type_id":"4","last_reported":1723489660,"current_range_meters":24800,"station_id":"ce4bh512rcd13ifvqe2g","pricing_plan_id":"cebpf4jnsgd1na2vs0mg"},{"bike_id":"f4c615d6-f841-4432-935c-bfb358ab8b88","system_id":"levelo_inurba_marseille","lat":43.290995,"lon":5.381361,"is_reserved":false,"is_disabled":false,"rental_uris":{"android":"levelo://app?vid=f4c615d6-f841-4432-935c-bfb358ab8b88","ios":"levelo://app?vid=f4c615d6-f841-4432-935c-bfb358ab8b88"},"vehicle_type_id":"4","last_reported":1723489660,"current_range_meters":23600,"station_id":"ce4bh512rcd13ifvqe2g","pricing_plan_id":"cebpf4jnsgd1na2vs0mg"},{"bike_id":"77b83918-690b-4b1b-a36f-689fd6da84a9","system_id":"levelo_inurba_marseille","lat":43.290995,"lon":5.381361,"is_reserved":false,"is_disabled":false,"rental_uris":{"android":"levelo://app?vid=77b83918-690b-4b1b-a36f-689fd6da84a9","ios":"levelo://app?vid=77b83918-690b-4b1b-a36f-689fd6da84a9"},"vehicle_type_id":"4","last_reported":1723489660,"current_range_meters":4000,"station_id":"ce4bh512rcd13ifvqe2g","pricing_plan_id":"cebpf4jnsgd1na2vs0mg"},{"bike_id":"2589699d-da1b-4339-96ab-e1264469ff53","system_id":"levelo_inurba_marseille","lat":43.290995,"lon":5.381361,"is_reserved":false,"is_disabled":false,"rental_uris":{"android":"levelo://app?vid=2589699d-da1b-4339-96ab-e1264469ff53","ios":"levelo://app?vid=2589699d-da1b-4339-96ab-e1264469ff53"},"vehicle_type_id":"4","last_reported":1723489660,"current_range_meters":3200,"station_id":"ce4bh512rcd13ifvqe2g","pricing_plan_id":"cebpf4jnsgd1na2vs0mg"},{"bike_id":"452c9b68-8fcc-4ce6-a5e3-d93352253992","system_id":"levelo_inurba_marseille","lat":43.290995,"lon":5.381361,"is_reserved":false,"is_disabled":false,"rental_uris":{"android":"levelo://app?vid=452c9b68-8fcc-4ce6-a5e3-d93352253992","ios":"levelo://app?vid=452c9b68-8fcc-4ce6-a5e3-d93352253992"},"vehicle_type_id":"4","last_reported":1723489660,"current_range_meters":1200,"station_id":"ce4bh512rcd13ifvqe2g","pricing_plan_id":"cebpf4jnsgd1na2vs0mg"},{"bike_id":"4da8ab23-6162-45fa-af3f-a52235fa631f","system_id":"levelo_inurba_marseille","lat":43.2898,"lon":5.37831,"is_reserved":false,"is_disabled":false,"rental_uris":{"android":"levelo://app?vid=4da8ab23-6162-45fa-af3f-a52235fa631f","ios":"levelo://app?vid=4da8ab23-6162-45fa-af3f-a52235fa631f"},"vehicle_type_id":"4","last_reported":1723489660,"current_range_meters":28800,"station_id":"ce4bh9p2rcd13ifvqed0","pricing_plan_id":"cebpf4jnsgd1na2vs0mg"},{"bike_id":"47a0f2e1-1518-4a61-a695-69147ee313e1","system_id":"levelo_inurba_marseille","lat":43.33023,"lon":5.39035,"is_reserved":false,"is_disabled":false,"rental_uris":{"android":"levelo://app?vid=47a0f2e1-1518-4a61-a695-69147ee313e1","ios":"levelo://app?vid=47a0f2e1-1518-4a61-a695-69147ee313e1"},"vehicle_type_id":"4","last_reported":1723489660,"current_range_meters":21200,"station_id":"ce4bhr92rcd13ifvqhrg","pricing_plan_id":"cebpf4jnsgd1na2vs0mg"},{"bike_id":"be2c9243-4e94-41a0-beaa-fd492eb234a3","system_id":"levelo_inurba_marseille","lat":43.297815,"lon":5.393548,"is_reserved":false,"is_disabled":false,"rental_uris":{"android":"levelo://app?vid=be2c9243-4e94-41a0-beaa-fd492eb234a3","ios":"levelo://app?vid=be2c9243-4e94-41a0-beaa-fd492eb234a3"},"vehicle_type_id":"4","last_reported":1723489660,"current_range_meters":31200,"station_id":"chh1huq6cuj3fo74tm60","pricing_plan_id":"cebpf4jnsgd1na2vs0mg"},{"bike_id":"3364f47f-76f1-44b4-b0fd-75dd5b18631f","system_id":"levelo_inurba_marseille","lat":43.33023,"lon":5.39039,"is_reserved":false,"is_disabled":false,"rental_uris":{"android":"levelo://app?vid=3364f47f-76f1-44b4-b0fd-75dd5b18631f","ios":"levelo://app?vid=3364f47f-76f1-44b4-b0fd-75dd5b18631f"},"vehicle_type_id":"4","last_reported":1723489660,"current_range_meters":30400,"station_id":"ce4bhr92rcd13ifvqhrg","pricing_plan_id":"cebpf4jnsgd1na2vs0mg"},{"bike_id":"181eac70-2838-43e6-b1d9-4b53116e2d85","system_id":"levelo_inurba_marseille","lat":43.330442,"lon":5.389148,"is_reserved":false,"is_disabled":false,"rental_uris":{"android":"levelo://app?vid=181eac70-2838-43e6-b1d9-4b53116e2d85","ios":"levelo://app?vid=181eac70-2838-43e6-b1d9-4b53116e2d85"},"vehicle_type_id":"4","last_reported":1723489660,"current_range_meters":24000,"station_id":"ce4bhr92rcd13ifvqhrg","pricing_plan_id":"cebpf4jnsgd1na2vs0mg"},{"bike_id":"0d044e57-0ca9-4cba-8dc5-5302d8abcad5","system_id":"levelo_inurba_marseille","lat":43.295169,"lon":5.390426,"is_reserved":false,"is_disabled":false,"rental_uris":{"android":"levelo://app?vid=0d044e57-0ca9-4cba-8dc5-5302d8abcad5","ios":"levelo://app?vid=0d044e57-0ca9-4cba-8dc5-5302d8abcad5"},"vehicle_type_id":"4","last_reported":1723489660,"current_range_meters":0,"station_id":"ce4bh3p2rcd13ifvqdp0","pricing_plan_id":"cebpf4jnsgd1na2vs0mg"},{"bike_id":"5e4ed533-a1f8-4447-a028-f565b5071120","system_id":"levelo_inurba_marseille","lat":43.330442,"lon":5.389148,"is_reserved":false,"is_disabled":false,"rental_uris":{"android":"levelo://app?vid=5e4ed533-a1f8-4447-a028-f565b5071120","ios":"levelo://app?vid=5e4ed533-a1f8-4447-a028-f565b5071120"},"vehicle_type_id":"4","last_reported":1723489660,"current_range_meters":4800,"station_id":"ce4bhr92rcd13ifvqhrg","pricing_plan_id":"cebpf4jnsgd1na2vs0mg"},{"bike_id":"499f8cad-25d6-4218-b987-2b9a6408c2cc","system_id":"levelo_inurba_marseille","lat":43.28795,"lon":5.36646,"is_reserved":false,"is_disabled":false,"rental_uris":{"android":"levelo://app?vid=499f8cad-25d6-4218-b987-2b9a6408c2cc","ios":"levelo://app?vid=499f8cad-25d6-4218-b987-2b9a6408c2cc"},"vehicle_type_id":"4","last_reported":1723489660,"current_range_meters":12800,"station_id":"","pricing_plan_id":"cebpf4jnsgd1na2vs0mg"},{"bike_id":"068f937d-3c2d-4f1f-830e-fe31edd404de","system_id":"levelo_inurba_marseille","lat":43.29032,"lon":5.3815,"is_reserved":false,"is_disabled":false,"rental_uris":{"android":"levelo://app?vid=068f937d-3c2d-4f1f-830e-fe31edd404de","ios":"levelo://app?vid=068f937d-3c2d-4f1f-830e-fe31edd404de"},"vehicle_type_id":"4","last_reported":1723489660,"current_range_meters":400,"station_id":"ce4bh4p2rcd13ifvqe1g","pricing_plan_id":"cebpf4jnsgd1na2vs0mg"},{"bike_id":"f49e4836-9698-45d9-8332-b1fcb5ccf1f8","system_id":"levelo_inurba_marseille","lat":43.28856,"lon":5.358371,"is_reserved":false,"is_disabled":false,"rental_uris":{"android":"levelo://app?vid=f49e4836-9698-45d9-8332-b1fcb5ccf1f8","ios":"levelo://app?vid=f49e4836-9698-45d9-8332-b1fcb5ccf1f8"},"vehicle_type_id":"4","last_reported":1723489660,"current_range_meters":0,"station_id":"ce4bhb12rcd13ifvqem0","pricing_plan_id":"cebpf4jnsgd1na2vs0mg"},{"bike_id":"f3b227ed-338c-4355-9b51-84ca79c3566f","system_id":"levelo_inurba_marseille","lat":43.28853,"lon":5.35862,"is_reserved":false,"is_disabled":false,"rental_uris":{"android":"levelo://app?vid=f3b227ed-338c-4355-9b51-84ca79c3566f","ios":"levelo://app?vid=f3b227ed-338c-4355-9b51-84ca79c3566f"},"vehicle_type_id":"4","last_reported":1723489660,"current_range_meters":6000,"station_id":"ce4bhb12rcd13ifvqem0","pricing_plan_id":"cebpf4jnsgd1na2vs0mg"},{"bike_id":"df52d8e0-3a06-4a13-a121-e4a5c6fc4727","system_id":"levelo_inurba_marseille","lat":43.312609,"lon":5.401662,"is_reserved":false,"is_disabled":false,"rental_uris":{"android":"levelo://app?vid=df52d8e0-3a06-4a13-a121-e4a5c6fc4727","ios":"levelo://app?vid=df52d8e0-3a06-4a13-a121-e4a5c6fc4727"},"vehicle_type_id":"4","last_reported":1723489660,"current_range_meters":13600,"station_id":"ce4bh092rcd13ifvqd30","pricing_plan_id":"cebpf4jnsgd1na2vs0mg"},{"bike_id":"ac75d8e5-5139-4e43-a64e-51e7994c2517","system_id":"levelo_inurba_marseille","lat":43.337444,"lon":5.374475,"is_reserved":false,"is_disabled":false,"rental_uris":{"android":"levelo://app?vid=ac75d8e5-5139-4e43-a64e-51e7994c2517","ios":"levelo://app?vid=ac75d8e5-5139-4e43-a64e-51e7994c2517"},"vehicle_type_id":"3","last_reported":1723489660,"current_range_meters":24800,"station_id":"","pricing_plan_id":"cebpf4jnsgd1na2vs0mg"},{"bike_id":"371a6b8f-ffb9-4e73-ac76-195cd4ded502","system_id":"levelo_inurba_marseille","lat":43.312609,"lon":5.401662,"is_reserved":false,"is_disabled":false,"rental_uris":{"android":"levelo://app?vid=371a6b8f-ffb9-4e73-ac76-195cd4ded502","ios":"levelo://app?vid=371a6b8f-ffb9-4e73-ac76-195cd4ded502"},"vehicle_type_id":"4","last_reported":1723489660,"current_range_meters":30400,"station_id":"ce4bh092rcd13ifvqd30","pricing_plan_id":"cebpf4jnsgd1na2vs0mg"},{"bike_id":"43f21911-683d-4ba4-93d3-8a7e20e1c78c","system_id":"levelo_inurba_marseille","lat":43.337455,"lon":5.374565,"is_reserved":false,"is_disabled":false,"rental_uris":{"android":"levelo://app?vid=43f21911-683d-4ba4-93d3-8a7e20e1c78c","ios":"levelo://app?vid=43f21911-683d-4ba4-93d3-8a7e20e1c78c"},"vehicle_type_id":"4","last_reported":1723489660,"current_range_meters":24000,"station_id":"","pricing_plan_id":"cebpf4jnsgd1na2vs0mg"},{"bike_id":"72a19679-b776-4d7f-ab8a-e9fd288ad661","system_id":"levelo_inurba_marseille","lat":43.312609,"lon":5.401662,"is_reserved":false,"is_disabled":false,"rental_uris":{"android":"levelo://app?vid=72a19679-b776-4d7f-ab8a-e9fd288ad661","ios":"levelo://app?vid=72a19679-b776-4d7f-ab8a-e9fd288ad661"},"vehicle_type_id":"4","last_reported":1723489660,"current_range_meters":1200,"station_id":"ce4bh092rcd13ifvqd30","pricing_plan_id":"cebpf4jnsgd1na2vs0mg"},{"bike_id":"6086599c-14e6-492d-8b53-d8808720b8a6","system_id":"levelo_inurba_marseille","lat":43.287839,"lon":5.373678,"is_reserved":false,"is_disabled":false,"rental_uris":{"android":"levelo://app?vid=6086599c-14e6-492d-8b53-d8808720b8a6","ios":"levelo://app?vid=6086599c-14e6-492d-8b53-d8808720b8a6"},"vehicle_type_id":"4","last_reported":1723489660,"current_range_meters":8000,"station_id":"","pricing_plan_id":"cebpf4jnsgd1na2vs0mg"},{"bike_id":"50503b1c-23de-412c-8bb5-4f40012a64e8","system_id":"levelo_inurba_marseille","lat":43.33756,"lon":5.37446,"is_reserved":false,"is_disabled":false,"rental_uris":{"android":"levelo://app?vid=50503b1c-23de-412c-8bb5-4f40012a64e8","ios":"levelo://app?vid=50503b1c-23de-412c-8bb5-4f40012a64e8"},"vehicle_type_id":"4","last_reported":1723489660,"current_range_meters":24000,"station_id":"","pricing_plan_id":"cebpf4jnsgd1na2vs0mg"},{"bike_id":"1ece39e8-5ec5-465b-b0d5-bdea3554c74d","system_id":"levelo_inurba_marseille","lat":43.337587,"lon":5.374508,"is_reserved":false,"is_disabled":false,"rental_uris":{"android":"levelo://app?vid=1ece39e8-5ec5-465b-b0d5-bdea3554c74d","ios":"levelo://app?vid=1ece39e8-5ec5-465b-b0d5-bdea3554c74d"},"vehicle_type_id":"4","last_reported":1723489660,"current_range_meters":15600,"station_id":"","pricing_plan_id":"cebpf4jnsgd1na2vs0mg"},{"bike_id":"7b9e8744-1a62-4d79-83e6-366501021f18","system_id":"levelo_inurba_marseille","lat":43.3376,"lon":5.37453,"is_reserved":false,"is_disabled":false,"rental_uris":{"android":"levelo://app?vid=7b9e8744-1a62-4d79-83e6-366501021f18","ios":"levelo://app?vid=7b9e8744-1a62-4d79-83e6-366501021f18"},"vehicle_type_id":"4","last_reported":1723489660,"current_range_meters":31200,"station_id":"","pricing_plan_id":"cebpf4jnsgd1na2vs0mg"},{"bike_id":"10fd9ae8-5d43-4fe7-bde3-9a758a7918aa","system_id":"levelo_inurba_marseille","lat":43.306412,"lon":5.401035,"is_reserved":false,"is_disabled":false,"rental_uris":{"android":"levelo://app?vid=10fd9ae8-5d43-4fe7-bde3-9a758a7918aa","ios":"levelo://app?vid=10fd9ae8-5d43-4fe7-bde3-9a758a7918aa"},"vehicle_type_id":"4","last_reported":1723489660,"current_range_meters":1600,"station_id":"ce4bh112rcd13ifvqda0","pricing_plan_id":"cebpf4jnsgd1na2vs0mg"},{"bike_id":"b2d6b700-be3e-4c27-ab3b-d1fbb5513dee","system_id":"levelo_inurba_marseille","lat":43.33769,"lon":5.37468,"is_reserved":false,"is_disabled":false,"rental_uris":{"android":"levelo://app?vid=b2d6b700-be3e-4c27-ab3b-d1fbb5513dee","ios":"levelo://app?vid=b2d6b700-be3e-4c27-ab3b-d1fbb5513dee"},"vehicle_type_id":"4","last_reported":1723489660,"current_range_meters":26800,"station_id":"","pricing_plan_id":"cebpf4jnsgd1na2vs0mg"},{"bike_id":"22d23e81-d601-4c76-9973-e595fa549c3b","system_id":"levelo_inurba_marseille","lat":43.33769,"lon":5.37477,"is_reserved":false,"is_disabled":false,"rental_uris":{"android":"levelo://app?vid=22d23e81-d601-4c76-9973-e595fa549c3b","ios":"levelo://app?vid=22d23e81-d601-4c76-9973-e595fa549c3b"},"vehicle_type_id":"4","last_reported":1723489660,"current_range_meters":1200,"station_id":"","pricing_plan_id":"cebpf4jnsgd1na2vs0mg"},{"bike_id":"a0eeb4a3-6ae3-44c3-8527-155da571cd64","system_id":"levelo_inurba_marseille","lat":43.3377,"lon":5.37475,"is_reserved":false,"is_disabled":false,"rental_uris":{"android":"levelo://app?vid=a0eeb4a3-6ae3-44c3-8527-155da571cd64","ios":"levelo://app?vid=a0eeb4a3-6ae3-44c3-8527-155da571cd64"},"vehicle_type_id":"4","last_reported":1723489660,"current_range_meters":22800,"station_id":"","pricing_plan_id":"cebpf4jnsgd1na2vs0mg"},{"bike_id":"ace12e57-f66f-4efa-96db-c6aa50a829e9","system_id":"levelo_inurba_marseille","lat":43.33773,"lon":5.37477,"is_reserved":false,"is_disabled":false,"rental_uris":{"android":"levelo://app?vid=ace12e57-f66f-4efa-96db-c6aa50a829e9","ios":"levelo://app?vid=ace12e57-f66f-4efa-96db-c6aa50a829e9"},"vehicle_type_id":"4","last_reported":1723489660,"current_range_meters":19200,"station_id":"","pricing_plan_id":"cebpf4jnsgd1na2vs0mg"},{"bike_id":"ffcfff9b-e44f-472f-aa9a-50292fc95629","system_id":"levelo_inurba_marseille","lat":43.30137,"lon":5.39852,"is_reserved":false,"is_disabled":false,"rental_uris":{"android":"levelo://app?vid=ffcfff9b-e44f-472f-aa9a-50292fc95629","ios":"levelo://app?vid=ffcfff9b-e44f-472f-aa9a-50292fc95629"},"vehicle_type_id":"4","last_reported":1723489660,"current_range_meters":5200,"station_id":"ce4bh0h2rcd13ifvqd40","pricing_plan_id":"cebpf4jnsgd1na2vs0mg"},{"bike_id":"8580717d-eb3f-4f14-b031-ffa8a147d520","system_id":"levelo_inurba_marseille","lat":43.33776,"lon":5.37482,"is_reserved":false,"is_disabled":false,"rental_uris":{"android":"levelo://app?vid=8580717d-eb3f-4f14-b031-ffa8a147d520","ios":"levelo://app?vid=8580717d-eb3f-4f14-b031-ffa8a147d520"},"vehicle_type_id":"4","last_reported":1723489660,"current_range_meters":15200,"station_id":"","pricing_plan_id":"cebpf4jnsgd1na2vs0mg"},{"bike_id":"fc4d1eea-5828-494c-ab1b-9f4ddebc0cb1","system_id":"levelo_inurba_marseille","lat":43.30128,"lon":5.39862,"is_reserved":false,"is_disabled":false,"rental_uris":{"android":"levelo://app?vid=fc4d1eea-5828-494c-ab1b-9f4ddebc0cb1","ios":"levelo://app?vid=fc4d1eea-5828-494c-ab1b-9f4ddebc0cb1"},"vehicle_type_id":"4","last_reported":1723489660,"current_range_meters":12000,"station_id":"ce4bh0h2rcd13ifvqd40","pricing_plan_id":"cebpf4jnsgd1na2vs0mg"},{"bike_id":"c6ca1b0d-fd65-4d59-a501-2c5c5f3aba9e","system_id":"levelo_inurba_marseille","lat":43.301318,"lon":5.3989,"is_reserved":false,"is_disabled":false,"rental_uris":{"android":"levelo://app?vid=c6ca1b0d-fd65-4d59-a501-2c5c5f3aba9e","ios":"levelo://app?vid=c6ca1b0d-fd65-4d59-a501-2c5c5f3aba9e"},"vehicle_type_id":"4","last_reported":1723489660,"current_range_meters":31200,"station_id":"ce4bh0h2rcd13ifvqd40","pricing_plan_id":"cebpf4jnsgd1na2vs0mg"},{"bike_id":"4d194d65-5b37-4c67-a7be-4dde56969850","system_id":"levelo_inurba_marseille","lat":43.298681,"lon":5.397225,"is_reserved":false,"is_disabled":false,"rental_uris":{"android":"levelo://app?vid=4d194d65-5b37-4c67-a7be-4dde56969850","ios":"levelo://app?vid=4d194d65-5b37-4c67-a7be-4dde56969850"},"vehicle_type_id":"4","last_reported":1723489660,"current_range_meters":0,"station_id":"ce4bh0h2rcd13ifvqd50","pricing_plan_id":"cebpf4jnsgd1na2vs0mg"},{"bike_id":"b9114623-9cf0-4c5b-a25a-c82a2f5fbe44","system_id":"levelo_inurba_marseille","lat":43.33888,"lon":5.36605,"is_reserved":false,"is_disabled":false,"rental_uris":{"android":"levelo://app?vid=b9114623-9cf0-4c5b-a25a-c82a2f5fbe44","ios":"levelo://app?vid=b9114623-9cf0-4c5b-a25a-c82a2f5fbe44"},"vehicle_type_id":"4","last_reported":1723489660,"current_range_meters":4400,"station_id":"","pricing_plan_id":"cebpf4jnsgd1na2vs0mg"},{"bike_id":"0baa12ba-f952-4af8-9647-eb840c97cb6f","system_id":"levelo_inurba_marseille","lat":43.286961,"lon":5.373785,"is_reserved":false,"is_disabled":false,"rental_uris":{"android":"levelo://app?vid=0baa12ba-f952-4af8-9647-eb840c97cb6f","ios":"levelo://app?vid=0baa12ba-f952-4af8-9647-eb840c97cb6f"},"vehicle_type_id":"4","last_reported":1723489660,"current_range_meters":30400,"station_id":"ce4bh3p2rcd13ifvqdq0","pricing_plan_id":"cebpf4jnsgd1na2vs0mg"},{"bike_id":"a330d055-00af-4e53-9b46-235e39b2853d","system_id":"levelo_inurba_marseille","lat":43.298681,"lon":5.397225,"is_reserved":false,"is_disabled":false,"rental_uris":{"android":"levelo://app?vid=a330d055-00af-4e53-9b46-235e39b2853d","ios":"levelo://app?vid=a330d055-00af-4e53-9b46-235e39b2853d"},"vehicle_type_id":"4","last_reported":1723489660,"current_range_meters":15600,"station_id":"ce4bh0h2rcd13ifvqd50","pricing_plan_id":"cebpf4jnsgd1na2vs0mg"},{"bike_id":"77ec4bbb-602e-4616-b07a-871ab0e58838","system_id":"levelo_inurba_marseille","lat":43.298681,"lon":5.397225,"is_reserved":false,"is_disabled":false,"rental_uris":{"android":"levelo://app?vid=77ec4bbb-602e-4616-b07a-871ab0e58838","ios":"levelo://app?vid=77ec4bbb-602e-4616-b07a-871ab0e58838"},"vehicle_type_id":"4","last_reported":1723489660,"current_range_meters":13200,"station_id":"ce4bh0h2rcd13ifvqd50","pricing_plan_id":"cebpf4jnsgd1na2vs0mg"},{"bike_id":"97fa2eab-b258-4abe-9e99-0d60fea31097","system_id":"levelo_inurba_marseille","lat":43.289298,"lon":5.383883,"is_reserved":false,"is_disabled":false,"rental_uris":{"android":"levelo://app?vid=97fa2eab-b258-4abe-9e99-0d60fea31097","ios":"levelo://app?vid=97fa2eab-b258-4abe-9e99-0d60fea31097"},"vehicle_type_id":"4","last_reported":1723489660,"current_range_meters":0,"station_id":"ce4bh612rcd13ifvqe6g","pricing_plan_id":"cebpf4jnsgd1na2vs0mg"},{"bike_id":"878cff72-3438-44ba-9a72-01ec32ed8a6e","system_id":"levelo_inurba_marseille","lat":43.290336,"lon":5.386425,"is_reserved":false,"is_disabled":false,"rental_uris":{"android":"levelo://app?vid=878cff72-3438-44ba-9a72-01ec32ed8a6e","ios":"levelo://app?vid=878cff72-3438-44ba-9a72-01ec32ed8a6e"},"vehicle_type_id":"4","last_reported":1723489660,"current_range_meters":0,"station_id":"ce4bh4p2rcd13ifvqe0g","pricing_plan_id":"cebpf4jnsgd1na2vs0mg"},{"bike_id":"a6b4697f-b78a-4edc-b136-c1959c069351","system_id":"levelo_inurba_marseille","lat":43.28931,"lon":5.38403,"is_reserved":false,"is_disabled":false,"rental_uris":{"android":"levelo://app?vid=a6b4697f-b78a-4edc-b136-c1959c069351","ios":"levelo://app?vid=a6b4697f-b78a-4edc-b136-c1959c069351"},"vehicle_type_id":"4","last_reported":1723489660,"current_range_meters":0,"station_id":"ce4bh612rcd13ifvqe6g","pricing_plan_id":"cebpf4jnsgd1na2vs0mg"},{"bike_id":"91eec156-30cf-475a-a620-ce7f19cf84b8","system_id":"levelo_inurba_marseille","lat":43.28928,"lon":5.384,"is_reserved":false,"is_disabled":false,"rental_uris":{"android":"levelo://app?vid=91eec156-30cf-475a-a620-ce7f19cf84b8","ios":"levelo://app?vid=91eec156-30cf-475a-a620-ce7f19cf84b8"},"vehicle_type_id":"4","last_reported":1723489660,"current_range_meters":30800,"station_id":"ce4bh612rcd13ifvqe6g","pricing_plan_id":"cebpf4jnsgd1na2vs0mg"},{"bike_id":"809cbca1-74c6-424f-b6b5-342b6c3571a1","system_id":"levelo_inurba_marseille","lat":43.28928,"lon":5.38404,"is_reserved":false,"is_disabled":false,"rental_uris":{"android":"levelo://app?vid=809cbca1-74c6-424f-b6b5-342b6c3571a1","ios":"levelo://app?vid=809cbca1-74c6-424f-b6b5-342b6c3571a1"},"vehicle_type_id":"4","last_reported":1723489660,"current_range_meters":10000,"station_id":"ce4bh612rcd13ifvqe6g","pricing_plan_id":"cebpf4jnsgd1na2vs0mg"},{"bike_id":"e90bbfb0-61f9-4e63-b28e-c6210d4a5bc1","system_id":"levelo_inurba_marseille","lat":43.290336,"lon":5.386425,"is_reserved":false,"is_disabled":false,"rental_uris":{"android":"levelo://app?vid=e90bbfb0-61f9-4e63-b28e-c6210d4a5bc1","ios":"levelo://app?vid=e90bbfb0-61f9-4e63-b28e-c6210d4a5bc1"},"vehicle_type_id":"4","last_reported":1723489660,"current_range_meters":20000,"station_id":"ce4bh4p2rcd13ifvqe0g","pricing_plan_id":"cebpf4jnsgd1na2vs0mg"},{"bike_id":"b60c8dd4-4b63-4590-9cbe-a5d4ce572296","system_id":"levelo_inurba_marseille","lat":43.290336,"lon":5.386425,"is_reserved":false,"is_disabled":false,"rental_uris":{"android":"levelo://app?vid=b60c8dd4-4b63-4590-9cbe-a5d4ce572296","ios":"levelo://app?vid=b60c8dd4-4b63-4590-9cbe-a5d4ce572296"},"vehicle_type_id":"4","last_reported":1723489660,"current_range_meters":0,"station_id":"ce4bh4p2rcd13ifvqe0g","pricing_plan_id":"cebpf4jnsgd1na2vs0mg"},{"bike_id":"03638af7-1941-44fd-99f4-feb5aacf1a10","system_id":"levelo_inurba_marseille","lat":43.290336,"lon":5.386425,"is_reserved":false,"is_disabled":false,"rental_uris":{"android":"levelo://app?vid=03638af7-1941-44fd-99f4-feb5aacf1a10","ios":"levelo://app?vid=03638af7-1941-44fd-99f4-feb5aacf1a10"},"vehicle_type_id":"4","last_reported":1723489660,"current_range_meters":400,"station_id":"ce4bh4p2rcd13ifvqe0g","pricing_plan_id":"cebpf4jnsgd1na2vs0mg"},{"bike_id":"cc2f1b3e-0fee-4677-8d16-b7fc0c744af9","system_id":"levelo_inurba_marseille","lat":43.290336,"lon":5.386425,"is_reserved":false,"is_disabled":false,"rental_uris":{"android":"levelo://app?vid=cc2f1b3e-0fee-4677-8d16-b7fc0c744af9","ios":"levelo://app?vid=cc2f1b3e-0fee-4677-8d16-b7fc0c744af9"},"vehicle_type_id":"4","last_reported":1723489660,"current_range_meters":29600,"station_id":"ce4bh4p2rcd13ifvqe0g","pricing_plan_id":"cebpf4jnsgd1na2vs0mg"},{"bike_id":"36cb1ab4-fe0b-4049-9cc4-fa4727f2358d","system_id":"levelo_inurba_marseille","lat":43.286039,"lon":5.370679,"is_reserved":false,"is_disabled":false,"rental_uris":{"android":"levelo://app?vid=36cb1ab4-fe0b-4049-9cc4-fa4727f2358d","ios":"levelo://app?vid=36cb1ab4-fe0b-4049-9cc4-fa4727f2358d"},"vehicle_type_id":"4","last_reported":1723489660,"current_range_meters":4000,"station_id":"ce4bht12rcd13ifvqi60","pricing_plan_id":"cebpf4jnsgd1na2vs0mg"},{"bike_id":"9f267e8a-2959-4f4f-9423-421c7df767f9","system_id":"levelo_inurba_marseille","lat":43.286039,"lon":5.370679,"is_reserved":false,"is_disabled":false,"rental_uris":{"android":"levelo://app?vid=9f267e8a-2959-4f4f-9423-421c7df767f9","ios":"levelo://app?vid=9f267e8a-2959-4f4f-9423-421c7df767f9"},