{"last_updated":1735830542,"ttl":60,"version":"2.2","data":{"bikes":[{"bike_id":"8068a4c3-66c3-4632-9f38-dde5ab31dac2","system_id":"levelo_inurba_marseille","lat":43.27455,"lon":5.39399,"is_reserved":false,"is_disabled":false,"rental_uris":{"android":"levelo://app?vid=8068a4c3-66c3-4632-9f38-dde5ab31dac2","ios":"levelo://app?vid=8068a4c3-66c3-4632-9f38-dde5ab31dac2"},"vehicle_type_id":"4","last_reported":1735830542,"current_range_meters":25200,"station_id":"ce4bhdp2rcd13ifvqf20","pricing_plan_id":"cebpf4jnsgd1na2vs0mg"},{"bike_id":"5ee06d1f-f474-4883-9d52-622f82f42531","system_id":"levelo_inurba_marseille","lat":43.32539,"lon":5.41429,"is_reserved":false,"is_disabled":false,"rental_uris":{"android":"levelo://app?vid=5ee06d1f-f474-4883-9d52-622f82f42531","ios":"levelo://app?vid=5ee06d1f-f474-4883-9d52-622f82f42531"},"vehicle_type_id":"4","last_reported":1735830542,"current_range_meters":38800,"station_id":"ce4bhq12rcd13ifvqhhg","pricing_plan_id":"cebpf4jnsgd1na2vs0mg"},{"bike_id":"172ccd61-d49f-41ee-9d70-c90aa70835fe","system_id":"levelo_inurba_marseille","lat":43.27422,"lon":5.39376,"is_reserved":false,"is_disabled":false,"rental_uris":{"android":"levelo://app?vid=172ccd61-d49f-41ee-9d70-c90aa70835fe","ios":"levelo://app?vid=172ccd61-d49f-41ee-9d70-c90aa70835fe"},"vehicle_type_id":"4","last_reported":1735830542,"current_range_meters":34000,"station_id":"ce4bhdp2rcd13ifvqf20","pricing_plan_id":"cebpf4jnsgd1na2vs0mg"},{"bike_id":"9f53e4dc-a826-426b-9ca9-adccc5d43e1f","system_id":"levelo_inurba_marseille","lat":43.25927,"lon":5.40897,"is_reserved":false,"is_disabled":false,"rental_uris":{"android":"levelo://app?vid=9f53e4dc-a826-426b-9ca9-adccc5d43e1f","ios":"levelo://app?vid=9f53e4dc-a826-426b-9ca9-adccc5d43e1f"},"vehicle_type_id":"4","last_reported":1735830542,"current_range_meters":25600,"station_id":"ce4bhm92rcd13ifvqglg","pricing_plan_id":"cebpf4jnsgd1na2vs0mg"},{"bike_id":"bc774450-9e82-4b77-bec0-9757df77a13c","system_id":"levelo_inurba_marseille","lat":43.26493,"lon":5.39562,"is_reserved":false,"is_disabled":false,"rental_uris":{"android":"levelo://app?vid=bc774450-9e82-4b77-bec0-9757df77a13c","ios":"levelo://app?vid=bc774450-9e82-4b77-bec0-9757df77a13c"},"vehicle_type_id":"4","last_reported":1735830542,"current_range_meters":38800,"station_id":"ce4bhi12rcd13ifvqfq0","pricing_plan_id":"cebpf4jnsgd1na2vs0mg"},{"bike_id":"e5283131-43d6-4916-8f6d-52a61b377012","system_id":"levelo_inurba_marseille","lat":43.2762,"lon":5.36109,"is_reserved":false,"is_disabled":false,"rental_uris":{"android":"levelo://app?vid=e5283131-43d6-4916-8f6d-52a61b377012","ios":"levelo://app?vid=e5283131-43d6-4916-8f6d-52a61b377012"},"vehicle_type_id":"4","last_reported":1735830542,"current_range_meters":6800,"station_id":"ce4bgj92rcd13ifvqbe0","pricing_plan_id":"cebpf4jnsgd1na2vs0mg"},{"bike_id":"560708f2-ae95-4dfd-8b78-ccea905bada6","system_id":"levelo_inurba_marseille","lat":43.25824,"lon":5.39429,"is_reserved":false,"is_disabled":false,"rental_uris":{"android":"levelo://app?vid=560708f2-ae95-4dfd-8b78-ccea905bada6","ios":"levelo://app?vid=560708f2-ae95-4dfd-8b78-ccea905bada6"},"vehicle_type_id":"4","last_reported":1735830542,"current_range_meters":38400,"station_id":"ce4bhip2rcd13ifvqft0","pricing_plan_id":"cebpf4jnsgd1na2vs0mg"},{"bike_id":"500b707c-a845-4793-94a2-128c074745d7","system_id":"levelo_inurba_marseille","lat":43.29839,"lon":5.36268,"is_reserved":false,"is_disabled":false,"rental_uris":{"android":"levelo://app?vid=500b707c-a845-4793-94a2-128c074745d7","ios":"levelo://app?vid=500b707c-a845-4793-94a2-128c074745d7"},"vehicle_type_id":"4","last_reported":1735830542,"current_range_meters":38800,"station_id":"ce4bgpp2rcd13ifvqc3g","pricing_plan_id":"cebpf4jnsgd1na2vs0mg"},{"bike_id":"860672fd-cd0b-4562-a919-e7e9cb704193","system_id":"levelo_inurba_marseille","lat":43.29806,"lon":5.380885,"is_reserved":false,"is_disabled":false,"rental_uris":{"android":"levelo://app?vid=860672fd-cd0b-4562-a919-e7e9cb704193","ios":"levelo://app?vid=860672fd-cd0b-4562-a919-e7e9cb704193"},"vehicle_type_id":"4","last_reported":1735830542,"current_range_meters":33200,"station_id":"ce4bgip2rcd13ifvqbb0","pricing_plan_id":"cebpf4jnsgd1na2vs0mg"},{"bike_id":"0cc226b6-5f36-4e90-9e5b-497bf45d78e0","system_id":"levelo_inurba_marseille","lat":43.27982,"lon":5.40029,"is_reserved":false,"is_disabled":false,"rental_uris":{"android":"levelo://app?vid=0cc226b6-5f36-4e90-9e5b-497bf45d78e0","ios":"levelo://app?vid=0cc226b6-5f36-4e90-9e5b-497bf45d78e0"},"vehicle_type_id":"4","last_reported":1735830542,"current_range_meters":6800,"station_id":"ce4bho92rcd13ifvqh4g","pricing_plan_id":"cebpf4jnsgd1na2vs0mg"},{"bike_id":"6dd9b101-07bd-489c-b195-e62b0c2af1a2","system_id":"levelo_inurba_marseille","lat":43.29097,"lon":5.38137,"is_reserved":false,"is_disabled":false,"rental_uris":{"android":"levelo://app?vid=6dd9b101-07bd-489c-b195-e62b0c2af1a2","ios":"levelo://app?vid=6dd9b101-07bd-489c-b195-e62b0c2af1a2"},"vehicle_type_id":"4","last_reported":1735830542,"current_range_meters":34000,"station_id":"ce4bh512rcd13ifvqe2g","pricing_plan_id":"cebpf4jnsgd1na2vs0mg"},{"bike_id":"4f0e48e8-dea6-4dd3-8a4d-81200aae256f","system_id":"levelo_inurba_marseille","lat":43.2408,"lon":5.37736,"is_reserved":false,"is_disabled":false,"rental_uris":{"android":"levelo://app?vid=4f0e48e8-dea6-4dd3-8a4d-81200aae256f","ios":"levelo://app?vid=4f0e48e8-dea6-4dd3-8a4d-81200aae256f"},"vehicle_type_id":"4","last_reported":1735830542,"current_range_meters":21600,"station_id":"ce4bhnp2rcd13ifvqgvg","pricing_plan_id":"cebpf4jnsgd1na2vs0mg"},{"bike_id":"116f92ae-65b4-4f7c-a23b-1117c0a69b33","system_id":"levelo_inurba_marseille","lat":43.286287,"lon":5.351075,"is_reserved":false,"is_disabled":false,"rental_uris":{"android":"levelo://app?vid=116f92ae-65b4-4f7c-a23b-1117c0a69b33","ios":"levelo://app?vid=116f92ae-65b4-4f7c-a23b-1117c0a69b33"},"vehicle_type_id":"4","last_reported":1735830542,"current_range_meters":30400,"station_id":"ce4bhch2rcd13ifvqeug","pricing_plan_id":"cebpf4jnsgd1na2vs0mg"},{"bike_id":"e423629e-caf1-4427-8702-b30357fe9b81","system_id":"levelo_inurba_marseille","lat":43.250114,"lon":5.38923,"is_reserved":false,"is_disabled":false,"rental_uris":{"android":"levelo://app?vid=e423629e-caf1-4427-8702-b30357fe9b81","ios":"levelo://app?vid=e423629e-caf1-4427-8702-b30357fe9b81"},"vehicle_type_id":"4","last_reported":1735830542,"current_range_meters":13600,"station_id":"ce4bhgp2rcd13ifvqfd0","pricing_plan_id":"cebpf4jnsgd1na2vs0mg"},{"bike_id":"f8a13c78-dd72-4903-ab37-d5b976fcaf91","system_id":"levelo_inurba_marseille","lat":43.28427,"lon":5.34985,"is_reserved":false,"is_disabled":false,"rental_uris":{"android":"levelo://app?vid=f8a13c78-dd72-4903-ab37-d5b976fcaf91","ios":"levelo://app?vid=f8a13c78-dd72-4903-ab37-d5b976fcaf91"},"vehicle_type_id":"4","last_reported":1735830542,"current_range_meters":19200,"station_id":"ce4bhbh2rcd13ifvqepg","pricing_plan_id":"cebpf4jnsgd1na2vs0mg"},{"bike_id":"5430a545-a0f1-45ad-a500-b4193006fdcf","system_id":"levelo_inurba_marseille","lat":43.28454,"lon":5.35898,"is_reserved":false,"is_disabled":false,"rental_uris":{"android":"levelo://app?vid=5430a545-a0f1-45ad-a500-b4193006fdcf","ios":"levelo://app?vid=5430a545-a0f1-45ad-a500-b4193006fdcf"},"vehicle_type_id":"4","last_reported":1735830542,"current_range_meters":19600,"station_id":"ce4bhah2rcd13ifvqei0","pricing_plan_id":"cebpf4jnsgd1na2vs0mg"},{"bike_id":"e32d7aa6-4586-4a07-a65b-f19ace97ad67","system_id":"levelo_inurba_marseille","lat":43.26932,"lon":5.38634,"is_reserved":false,"is_disabled":false,"rental_uris":{"android":"levelo://app?vid=e32d7aa6-4586-4a07-a65b-f19ace97ad67","ios":"levelo://app?vid=e32d7aa6-4586-4a07-a65b-f19ace97ad67"},"vehicle_type_id":"4","last_reported":1735830542,"current_range_meters":38800,"station_id":"ce4bhh92rcd13ifvqfh0","pricing_plan_id":"cebpf4jnsgd1na2vs0mg"},{"bike_id":"76d392c8-6dd4-4fbf-b626-27c2990c047b","system_id":"levelo_inurba_marseille","lat":43.28151,"lon":5.42848,"is_reserved":false,"is_disabled":false,"rental_uris":{"android":"levelo://app?vid=76d392c8-6dd4-4fbf-b626-27c2990c047b","ios":"levelo://app?vid=76d392c8-6dd4-4fbf-b626-27c2990c047b"},"vehicle_type_id":"4","last_reported":1735830542,"current_range_meters":24800,"station_id":"","pricing_plan_id":"cebpf4jnsgd1na2vs0mg"},{"bike_id":"ebb56956-e2e2-4f51-8f7a-80ccc26c078c","system_id":"levelo_inurba_marseille","lat":43.2818,"lon":5.42667,"is_reserved":false,"is_disabled":false,"rental_uris":{"android":"levelo://app?vid=ebb56956-e2e2-4f51-8f7a-80ccc26c078c","ios":"levelo://app?vid=ebb56956-e2e2-4f51-8f7a-80ccc26c078c"},"vehicle_type_id":"4","last_reported":1735830542,"current_range_meters":35200,"station_id":"ce4bhnh2rcd13ifvqgug","pricing_plan_id":"cebpf4jnsgd1na2vs0mg"},{"bike_id":"7a2fe0cb-f5cc-4229-98b4-5f695cb9af0f","system_id":"levelo_inurba_marseille","lat":43.29923,"lon":5.36532,"is_reserved":false,"is_disabled":false,"rental_uris":{"android":"levelo://app?vid=7a2fe0cb-f5cc-4229-98b4-5f695cb9af0f","ios":"levelo://app?vid=7a2fe0cb-f5cc-4229-98b4-5f695cb9af0f"},"vehicle_type_id":"4","last_reported":1735830542,"current_range_meters":34800,"station_id":"ce4bgm92rcd13ifvqbr0","pricing_plan_id":"cebpf4jnsgd1na2vs0mg"},{"bike_id":"bbf5d308-84e5-4fc1-83d2-24314118f290","system_id":"levelo_inurba_marseille","lat":43.2767,"lon":5.38883,"is_reserved":false,"is_disabled":false,"rental_uris":{"android":"levelo://app?vid=bbf5d308-84e5-4fc1-83d2-24314118f290","ios":"levelo://app?vid=bbf5d308-84e5-4fc1-83d2-24314118f290"},"vehicle_type_id":"4","last_reported":1735830542,"current_range_meters":19600,"station_id":"ce4bhi12rcd13ifvqfo0","pricing_plan_id":"cebpf4jnsgd1na2vs0mg"},{"bike_id":"439818dc-86f0-4179-8c0e-05632c3a5134","system_id":"levelo_inurba_marseille","lat":43.231867,"lon":5.355307,"is_reserved":false,"is_disabled":false,"rental_uris":{"android":"levelo://app?vid=439818dc-86f0-4179-8c0e-05632c3a5134","ios":"levelo://app?vid=439818dc-86f0-4179-8c0e-05632c3a5134"},"vehicle_type_id":"4","last_reported":1735830542,"current_range_meters":38800,"station_id":"ce4bhu92rcd13ifvqi70","pricing_plan_id":"cebpf4jnsgd1na2vs0mg"},{"bike_id":"97717a3a-5240-48fe-b29e-9e7f0d2b5fba","system_id":"levelo_inurba_marseille","lat":43.31731,"lon":5.43696,"is_reserved":false,"is_disabled":false,"rental_uris":{"android":"levelo://app?vid=97717a3a-5240-48fe-b29e-9e7f0d2b5fba","ios":"levelo://app?vid=97717a3a-5240-48fe-b29e-9e7f0d2b5fba"},"vehicle_type_id":"4","last_reported":1735830542,"current_range_meters":30800,"station_id":"ce4bhp92rcd13ifvqhcg","pricing_plan_id":"cebpf4jnsgd1na2vs0mg"},{"bike_id":"bf58d35b-1c50-426c-9faf-f666c64d4774","system_id":"levelo_inurba_marseille","lat":43.24808,"lon":5.37461,"is_reserved":false,"is_disabled":false,"rental_uris":{"android":"levelo://app?vid=bf58d35b-1c50-426c-9faf-f666c64d4774","ios":"levelo://app?vid=bf58d35b-1c50-426c-9faf-f666c64d4774"},"vehicle_type_id":"4","last_reported":1735830542,"current_range_meters":22400,"station_id":"ce4bhgh2rcd13ifvqfb0","pricing_plan_id":"cebpf4jnsgd1na2vs0mg"},{"bike_id":"84eb5d38-88df-4670-810e-6edcb5c9f5e3","system_id":"levelo_inurba_marseille","lat":43.25508,"lon":5.37656,"is_reserved":false,"is_disabled":false,"rental_uris":{"android":"levelo://app?vid=84eb5d38-88df-4670-810e-6edcb5c9f5e3","ios":"levelo://app?vid=84eb5d38-88df-4670-810e-6edcb5c9f5e3"},"vehicle_type_id":"4","last_reported":1735830542,"current_range_meters":24400,"station_id":"ce4bhh12rcd13ifvqff0","pricing_plan_id":"cebpf4jnsgd1na2vs0mg"},{"bike_id":"dcd711c6-0b92-490f-97df-470d44c16843","system_id":"levelo_inurba_marseille","lat":43.27923,"lon":5.3959,"is_reserved":false,"is_disabled":false,"rental_uris":{"android":"levelo://app?vid=dcd711c6-0b92-490f-97df-470d44c16843","ios":"levelo://app?vid=dcd711c6-0b92-490f-97df-470d44c16843"},"vehicle_type_id":"4","last_reported":1735830542,"current_range_meters":38400,"station_id":"ce4bhf92rcd13ifvqf40","pricing_plan_id":"cebpf4jnsgd1na2vs0mg"},{"bike_id":"fd50b697-d9f0-4fa5-99ea-df76e8566611","system_id":"levelo_inurba_marseille","lat":43.30591,"lon":5.3936,"is_reserved":false,"is_disabled":false,"rental_uris":{"android":"levelo://app?vid=fd50b697-d9f0-4fa5-99ea-df76e8566611","ios":"levelo://app?vid=fd50b697-d9f0-4fa5-99ea-df76e8566611"},"vehicle_type_id":"4","last_reported":1735830542,"current_range_meters":22000,"station_id":"ce4bh0p2rcd13ifvqd80","pricing_plan_id":"cebpf4jnsgd1na2vs0mg"},{"bike_id":"1efb6e70-f243-4ee4-8c73-08ef2a2c6772","system_id":"levelo_inurba_marseille","lat":43.25824,"lon":5.39428,"is_reserved":false,"is_disabled":false,"rental_uris":{"android":"levelo://app?vid=1efb6e70-f243-4ee4-8c73-08ef2a2c6772","ios":"levelo://app?vid=1efb6e70-f243-4ee4-8c73-08ef2a2c6772"},"vehicle_type_id":"4","last_reported":1735830542,"current_range_meters":39200,"station_id":"ce4bhip2rcd13ifvqft0","pricing_plan_id":"cebpf4jnsgd1na2vs0mg"},{"bike_id":"279941e0-8b8d-409f-b9fe-e90c023c416a","system_id":"levelo_inurba_marseille","lat":43.2993,"lon":5.36536,"is_reserved":false,"is_disabled":false,"rental_uris":{"android":"levelo://app?vid=279941e0-8b8d-409f-b9fe-e90c023c416a","ios":"levelo://app?vid=279941e0-8b8d-409f-b9fe-e90c023c416a"},"vehicle_type_id":"4","last_reported":1735830542,"current_range_meters":36000,"station_id":"ce4bgm92rcd13ifvqbr0","pricing_plan_id":"cebpf4jnsgd1na2vs0mg"},{"bike_id":"90be4ecf-e9e3-49e6-8acd-ca50a85b4085","system_id":"levelo_inurba_marseille","lat":43.31281,"lon":5.36872,"is_reserved":false,"is_disabled":true,"rental_uris":{"android":"levelo://app?vid=90be4ecf-e9e3-49e6-8acd-ca50a85b4085","ios":"levelo://app?vid=90be4ecf-e9e3-49e6-8acd-ca50a85b4085"},"vehicle_type_id":"4","last_reported":1735830542,"current_range_meters":26800,"station_id":"ce4bgl92rcd13ifvqbq0","pricing_plan_id":"cebpf4jnsgd1na2vs0mg"},{"bike_id":"bcc47b98-405a-4d86-8e5f-bbe262abbd0d","system_id":"levelo_inurba_marseille","lat":43.321077,"lon":5.367829,"is_reserved":false,"is_disabled":false,"rental_uris":{"android":"levelo://app?vid=bcc47b98-405a-4d86-8e5f-bbe262abbd0d","ios":"levelo://app?vid=bcc47b98-405a-4d86-8e5f-bbe262abbd0d"},"vehicle_type_id":"4","last_reported":1735830542,"current_range_meters":29600,"station_id":"ce4bhrh2rcd13ifvqhug","pricing_plan_id":"cebpf4jnsgd1na2vs0mg"},{"bike_id":"4ff02992-46d1-4939-b33e-7e9de4ef7281","system_id":"levelo_inurba_marseille","lat":43.25821,"lon":5.39439,"is_reserved":false,"is_disabled":false,"rental_uris":{"android":"levelo://app?vid=4ff02992-46d1-4939-b33e-7e9de4ef7281","ios":"levelo://app?vid=4ff02992-46d1-4939-b33e-7e9de4ef7281"},"vehicle_type_id":"4","last_reported":1735830542,"current_range_meters":32800,"station_id":"ce4bhip2rcd13ifvqft0","pricing_plan_id":"cebpf4jnsgd1na2vs0mg"},{"bike_id":"0c16cdcd-f841-4761-811e-4eaf0ad8cae7","system_id":"levelo_inurba_marseille","lat":43.24175,"lon":5.3972,"is_reserved":false,"is_disabled":false,"rental_uris":{"android":"levelo://app?vid=0c16cdcd-f841-4761-811e-4eaf0ad8cae7","ios":"levelo://app?vid=0c16cdcd-f841-4761-811e-4eaf0ad8cae7"},"vehicle_type_id":"4","last_reported":1735830542,"current_range_meters":11600,"station_id":"ce4bhn12rcd13ifvqgpg","pricing_plan_id":"cebpf4jnsgd1na2vs0mg"},{"bike_id":"027085de-3c06-4c90-8099-b9537f78e863","system_id":"levelo_inurba_marseille","lat":43.23168,"lon":5.43669,"is_reserved":false,"is_disabled":false,"rental_uris":{"android":"levelo://app?vid=027085de-3c06-4c90-8099-b9537f78e863","ios":"levelo://app?vid=027085de-3c06-4c90-8099-b9537f78e863"},"vehicle_type_id":"4","last_reported":1735830542,"current_range_meters":30000,"station_id":"ce4bhmp2rcd13ifvqgog","pricing_plan_id":"cebpf4jnsgd1na2vs0mg"},{"bike_id":"7e6326d8-0475-4259-9437-f3937534dc0f","system_id":"levelo_inurba_marseille","lat":43.28395,"lon":5.37531,"is_reserved":false,"is_disabled":false,"rental_uris":{"android":"levelo://app?vid=7e6326d8-0475-4259-9437-f3937534dc0f","ios":"levelo://app?vid=7e6326d8-0475-4259-9437-f3937534dc0f"},"vehicle_type_id":"4","last_reported":1735830542,"current_range_meters":38800,"station_id":"ce4bh412rcd13ifvqds0","pricing_plan_id":"cebpf4jnsgd1na2vs0mg"},{"bike_id":"747cdc20-1e87-471e-9182-016e75c83978","system_id":"levelo_inurba_marseille","lat":43.24652,"lon":5.38903,"is_reserved":false,"is_disabled":false,"rental_uris":{"android":"levelo://app?vid=747cdc20-1e87-471e-9182-016e75c83978","ios":"levelo://app?vid=747cdc20-1e87-471e-9182-016e75c83978"},"vehicle_type_id":"4","last_reported":1735830542,"current_range_meters":38800,"station_id":"ce4bhg12rcd13ifvqf60","pricing_plan_id":"cebpf4jnsgd1na2vs0mg"},{"bike_id":"7a63d77d-b3e4-4713-9060-b918ad8247d2","system_id":"levelo_inurba_marseille","lat":43.22931,"lon":5.35381,"is_reserved":false,"is_disabled":false,"rental_uris":{"android":"levelo://app?vid=7a63d77d-b3e4-4713-9060-b918ad8247d2","ios":"levelo://app?vid=7a63d77d-b3e4-4713-9060-b918ad8247d2"},"vehicle_type_id":"4","last_reported":1735830542,"current_range_meters":36400,"station_id":"cpo3532slgdg3j2ikp40","pricing_plan_id":"cebpf4jnsgd1na2vs0mg"},{"bike_id":"6903f890-7fc4-46b4-bda9-d6177c9b8416","system_id":"levelo_inurba_marseille","lat":43.299153,"lon":5.374761,"is_reserved":false,"is_disabled":false,"rental_uris":{"android":"levelo://app?vid=6903f890-7fc4-46b4-bda9-d6177c9b8416","ios":"levelo://app?vid=6903f890-7fc4-46b4-bda9-d6177c9b8416"},"vehicle_type_id":"4","last_reported":1735830542,"current_range_meters":32800,"station_id":"ce4bgjh2rcd13ifvqbg0","pricing_plan_id":"cebpf4jnsgd1na2vs0mg"},{"bike_id":"567d75a6-eca0-476a-b5c6-8f1794c20090","system_id":"levelo_inurba_marseille","lat":43.27198,"lon":5.39169,"is_reserved":false,"is_disabled":false,"rental_uris":{"android":"levelo://app?vid=567d75a6-eca0-476a-b5c6-8f1794c20090","ios":"levelo://app?vid=567d75a6-eca0-476a-b5c6-8f1794c20090"},"vehicle_type_id":"4","last_reported":1735830542,"current_range_meters":10800,"station_id":"ce4bhhp2rcd13ifvqfm0","pricing_plan_id":"cebpf4jnsgd1na2vs0mg"},{"bike_id":"3c7472a4-a45c-4f46-a692-aa44ebf92f21","system_id":"levelo_inurba_marseille","lat":43.27441,"lon":5.39407,"is_reserved":false,"is_disabled":false,"rental_uris":{"android":"levelo://app?vid=3c7472a4-a45c-4f46-a692-aa44ebf92f21","ios":"levelo://app?vid=3c7472a4-a45c-4f46-a692-aa44ebf92f21"},"vehicle_type_id":"4","last_reported":1735830542,"current_range_meters":36000,"station_id":"ce4bhdp2rcd13ifvqf20","pricing_plan_id":"cebpf4jnsgd1na2vs0mg"},{"bike_id":"e7f418a5-86c5-4de0-9591-919713e68bae","system_id":"levelo_inurba_marseille","lat":43.29898,"lon":5.38148,"is_reserved":false,"is_disabled":false,"rental_uris":{"android":"levelo://app?vid=e7f418a5-86c5-4de0-9591-919713e68bae","ios":"levelo://app?vid=e7f418a5-86c5-4de0-9591-919713e68bae"},"vehicle_type_id":"4","last_reported":1735830542,"current_range_meters":38800,"station_id":"ce4bgj12rcd13ifvqbc0","pricing_plan_id":"cebpf4jnsgd1na2vs0mg"},{"bike_id":"60aa8768-465e-4e59-8359-ab05b91a90a1","system_id":"levelo_inurba_marseille","lat":43.2893,"lon":5.36391,"is_reserved":false,"is_disabled":false,"rental_uris":{"android":"levelo://app?vid=60aa8768-465e-4e59-8359-ab05b91a90a1","ios":"levelo://app?vid=60aa8768-465e-4e59-8359-ab05b91a90a1"},"vehicle_type_id":"4","last_reported":1735830542,"current_range_meters":39200,"station_id":"ce4bhc92rcd13ifvqetg","pricing_plan_id":"cebpf4jnsgd1na2vs0mg"},{"bike_id":"4b9b3c02-7773-410b-a74d-2537aad0fdc1","system_id":"levelo_inurba_marseille","lat":43.28426,"lon":5.37532,"is_reserved":false,"is_disabled":false,"rental_uris":{"android":"levelo://app?vid=4b9b3c02-7773-410b-a74d-2537aad0fdc1","ios":"levelo://app?vid=4b9b3c02-7773-410b-a74d-2537aad0fdc1"},"vehicle_type_id":"4","last_reported":1735830542,"current_range_meters":26800,"station_id":"ce4bh412rcd13ifvqds0","pricing_plan_id":"cebpf4jnsgd1na2vs0mg"},{"bike_id":"69b36294-72cf-430d-bb74-658f51cf0187","system_id":"levelo_inurba_marseille","lat":43.29261,"lon":5.38445,"is_reserved":false,"is_disabled":false,"rental_uris":{"android":"levelo://app?vid=69b36294-72cf-430d-bb74-658f51cf0187","ios":"levelo://app?vid=69b36294-72cf-430d-bb74-658f51cf0187"},"vehicle_type_id":"4","last_reported":1735830542,"current_range_meters":24000,"station_id":"ce4bh692rcd13ifvqea0","pricing_plan_id":"cebpf4jnsgd1na2vs0mg"},{"bike_id":"f4241179-c5a4-4138-ad6d-77aee71c704b","system_id":"levelo_inurba_marseille","lat":43.29361,"lon":5.37408,"is_reserved":false,"is_disabled":false,"rental_uris":{"android":"levelo://app?vid=f4241179-c5a4-4138-ad6d-77aee71c704b","ios":"levelo://app?vid=f4241179-c5a4-4138-ad6d-77aee71c704b"},"vehicle_type_id":"4","last_reported":1735830542,"current_range_meters":35600,"station_id":"","pricing_plan_id":"cebpf4jnsgd1na2vs0mg"},{"bike_id":"3534919e-1fc0-4219-adf4-07aff9ac394a","system_id":"levelo_inurba_marseille","lat":43.32047,"lon":5.41545,"is_reserved":false,"is_disabled":false,"rental_uris":{"android":"levelo://app?vid=3534919e-1fc0-4219-adf4-07aff9ac394a","ios":"levelo://app?vid=3534919e-1fc0-4219-adf4-07aff9ac394a"},"vehicle_type_id":"4","last_reported":1735830542,"current_range_meters":32400,"station_id":"ce4bhq92rcd13ifvqhkg","pricing_plan_id":"cebpf4jnsgd1na2vs0mg"},{"bike_id":"f4e21194-bae0-47dd-9943-53bf3035cc9f","system_id":"levelo_inurba_marseille","lat":43.2464,"lon":5.38802,"is_reserved":false,"is_disabled":false,"rental_uris":{"android":"levelo://app?vid=f4e21194-bae0-47dd-9943-53bf3035cc9f","ios":"levelo://app?vid=f4e21194-bae0-47dd-9943-53bf3035cc9f"},"vehicle_type_id":"4","last_reported":1735830542,"current_range_meters":38800,"station_id":"ce4bhg12rcd13ifvqf60","pricing_plan_id":"cebpf4jnsgd1na2vs0mg"},{"bike_id":"0d3b1a98-2a0d-4744-9b96-0bb0b1f05cc1","system_id":"levelo_inurba_marseille","lat":43.30308,"lon":5.36917,"is_reserved":false,"is_disabled":false,"rental_uris":{"android":"levelo://app?vid=0d3b1a98-2a0d-4744-9b96-0bb0b1f05cc1","ios":"levelo://app?vid=0d3b1a98-2a0d-4744-9b96-0bb0b1f05cc1"},"vehicle_type_id":"4","last_reported":1735830542,"current_range_meters":30800,"station_id":"ce4bgqh2rcd13ifvqc5g","pricing_plan_id":"cebpf4jnsgd1na2vs0mg"},{"bike_id":"e6fa8bd9-5f74-401a-b12e-57e85af877cf","system_id":"levelo_inurba_marseille","lat":43.30355,"lon":5.36919,"is_reserved":false,"is_disabled":false,"rental_uris":{"android":"levelo://app?vid=e6fa8bd9-5f74-401a-b12e-57e85af877cf","ios":"levelo://app?vid=e6fa8bd9-5f74-401a-b12e-57e85af877cf"},"vehicle_type_id":"4","last_reported":1735830542,"current_range_meters":28800,"station_id":"","pricing_plan_id":"cebpf4jnsgd1na2vs0mg"},{"bike_id":"e5fc90b8-f4d7-48fe-9b1b-e04042412667","system_id":"levelo_inurba_marseille","lat":43.31992,"lon":5.38145,"is_reserved":false,"is_disabled":false,"rental_uris":{"android":"levelo://app?vid=e5fc90b8-f4d7-48fe-9b1b-e04042412667","ios":"levelo://app?vid=e5fc90b8-f4d7-48fe-9b1b-e04042412667"},"vehicle_type_id":"4","last_reported":1735830542,"current_range_meters":38800,"station_id":"ce4bhr12rcd13ifvqhpg","pricing_plan_id":"cebpf4jnsgd1na2vs0mg"},{"bike_id":"e62be8ed-c268-492c-aa2c-0f49000a195a","system_id":"levelo_inurba_marseille","lat":43.305329,"lon":5.365371,"is_reserved":false,"is_disabled":false,"rental_uris":{"android":"levelo://app?vid=e62be8ed-c268-492c-aa2c-0f49000a195a","ios":"levelo://app?vid=e62be8ed-c268-492c-aa2c-0f49000a195a"},"vehicle_type_id":"4","last_reported":1735830542,"current_range_meters":39200,"station_id":"ce4bgs12rcd13ifvqcag","pricing_plan_id":"cebpf4jnsgd1na2vs0mg"},{"bike_id":"eff839e1-87e4-4c52-800a-ce95a924733f","system_id":"levelo_inurba_marseille","lat":43.28172,"lon":5.42636,"is_reserved":false,"is_disabled":false,"rental_uris":{"android":"levelo://app?vid=eff839e1-87e4-4c52-800a-ce95a924733f","ios":"levelo://app?vid=eff839e1-87e4-4c52-800a-ce95a924733f"},"vehicle_type_id":"4","last_reported":1735830542,"current_range_meters":15200,"station_id":"ce4bhnh2rcd13ifvqgug","pricing_plan_id":"cebpf4jnsgd1na2vs0mg"},{"bike_id":"a0817f80-8e30-434a-aa5f-56b5f3a3d83c","system_id":"levelo_inurba_marseille","lat":43.26568,"lon":5.39017,"is_reserved":false,"is_disabled":false,"rental_uris":{"android":"levelo://app?vid=a0817f80-8e30-434a-aa5f-56b5f3a3d83c","ios":"levelo://app?vid=a0817f80-8e30-434a-aa5f-56b5f3a3d83c"},"vehicle_type_id":"4","last_reported":1735830542,"current_range_meters":35600,"station_id":"ce4bhe12rcd13ifvqf30","pricing_plan_id":"cebpf4jnsgd1na2vs0mg"},{"bike_id":"1b35b75e-5ee3-4fe5-a70b-959a9bbf258d","system_id":"levelo_inurba_marseille","lat":43.29258,"lon":5.38441,"is_reserved":false,"is_disabled":false,"rental_uris":{"android":"levelo://app?vid=1b35b75e-5ee3-4fe5-a70b-959a9bbf258d","ios":"levelo://app?vid=1b35b75e-5ee3-4fe5-a70b-959a9bbf258d"},"vehicle_type_id":"4","last_reported":1735830542,"current_range_meters":20000,"station_id":"ce4bh692rcd13ifvqea0","pricing_plan_id":"cebpf4jnsgd1na2vs0mg"},{"bike_id":"9ec22bb6-ddde-4544-bfca-bd222a10c5d4","system_id":"levelo_inurba_marseille","lat":43.28619,"lon":5.35112,"is_reserved":false,"is_disabled":false,"rental_uris":{"android":"levelo://app?vid=9ec22bb6-ddde-4544-bfca-bd222a10c5d4","ios":"levelo://app?vid=9ec22bb6-ddde-4544-bfca-bd222a10c5d4"},"vehicle_type_id":"4","last_reported":1735830542,"current_range_meters":12800,"station_id":"ce4bhch2rcd13ifvqeug","pricing_plan_id":"cebpf4jnsgd1na2vs0mg"},{"bike_id":"1c062351-f698-4ee4-87ae-fce7281bfbb0","system_id":"levelo_inurba_marseille","lat":43.29535,"lon":5.38547,"is_reserved":false,"is_disabled":true,"rental_uris":{"android":"levelo://app?vid=1c062351-f698-4ee4-87ae-fce7281bfbb0","ios":"levelo://app?vid=1c062351-f698-4ee4-87ae-fce7281bfbb0"},"vehicle_type_id":"4","last_reported":1735830542,"current_range_meters":8800,"station_id":"ce4bgih2rcd13ifvqba0","pricing_plan_id":"cebpf4jnsgd1na2vs0mg"},{"bike_id":"816bfa92-80ce-4261-bbed-dbf3f54f8f62","system_id":"levelo_inurba_marseille","lat":43.28416,"lon":5.34973,"is_reserved":false,"is_disabled":false,"rental_uris":{"android":"levelo://app?vid=816bfa92-80ce-4261-bbed-dbf3f54f8f62","ios":"levelo://app?vid=816bfa92-80ce-4261-bbed-dbf3f54f8f62"},"vehicle_type_id":"4","last_reported":1735830542,"current_range_meters":22000,"station_id":"ce4bhbh2rcd13ifvqepg","pricing_plan_id":"cebpf4jnsgd1na2vs0mg"},{"bike_id":"a1c87532-6196-402b-916e-8ad945b95f72","system_id":"levelo_inurba_marseille","lat":43.25147,"lon":5.40352,"is_reserved":false,"is_disabled":false,"rental_uris":{"android":"levelo://app?vid=a1c87532-6196-402b-916e-8ad945b95f72","ios":"levelo://app?vid=a1c87532-6196-402b-916e-8ad945b95f72"},"vehicle_type_id":"4","last_reported":1735830542,"current_range_meters":13600,"station_id":"","pricing_plan_id":"cebpf4jnsgd1na2vs0mg"},{"bike_id":"4ce38f45-b3ef-4ce1-84b1-8cf7c7ee4592","system_id":"levelo_inurba_marseille","lat":43.27944,"lon":5.41046,"is_reserved":false,"is_disabled":false,"rental_uris":{"android":"levelo://app?vid=4ce38f45-b3ef-4ce1-84b1-8cf7c7ee4592","ios":"levelo://app?vid=4ce38f45-b3ef-4ce1-84b1-8cf7c7ee4592"},"vehicle_type_id":"4","last_reported":1735830542,"current_range_meters":33200,"station_id":"ce4bhnp2rcd13ifvqh0g","pricing_plan_id":"cebpf4jnsgd1na2vs0mg"},{"bike_id":"2585ba0c-a53b-4534-a4d1-06bca0cf6b30","system_id":"levelo_inurba_marseille","lat":43.30208,"lon":5.36643,"is_reserved":false,"is_disabled":false,"rental_uris":{"android":"levelo://app?vid=2585ba0c-a53b-4534-a4d1-06bca0cf6b30","ios":"levelo://app?vid=2585ba0c-a53b-4534-a4d1-06bca0cf6b30"},"vehicle_type_id":"4","last_reported":1735830542,"current_range_meters":34000,"station_id":"ce4bgrh2rcd13ifvqc8g","pricing_plan_id":"cebpf4jnsgd1na2vs0mg"},{"bike_id":"3d493544-507b-4790-90fd-469054522dd7","system_id":"levelo_inurba_marseille","lat":43.29978,"lon":5.38492,"is_reserved":false,"is_disabled":false,"rental_uris":{"android":"levelo://app?vid=3d493544-507b-4790-90fd-469054522dd7","ios":"levelo://app?vid=3d493544-507b-4790-90fd-469054522dd7"},"vehicle_type_id":"4","last_reported":1735830542,"current_range_meters":7200,"station_id":"ce4bgj92rcd13ifvqbd0","pricing_plan_id":"cebpf4jnsgd1na2vs0mg"},{"bike_id":"b28248d4-d04b-4a00-b204-f937fcd930dd","system_id":"levelo_inurba_marseille","lat":43.31326,"lon":5.39694,"is_reserved":false,"is_disabled":false,"rental_uris":{"android":"levelo://app?vid=b28248d4-d04b-4a00-b204-f937fcd930dd","ios":"levelo://app?vid=b28248d4-d04b-4a00-b204-f937fcd930dd"},"vehicle_type_id":"4","last_reported":1735830542,"current_range_meters":17200,"station_id":"ce4bgvp2rcd13ifvqcu0","pricing_plan_id":"cebpf4jnsgd1na2vs0mg"},{"bike_id":"c2f52897-290d-4e21-9183-2beb52ef49f6","system_id":"levelo_inurba_marseille","lat":43.31505,"lon":5.37275,"is_reserved":false,"is_disabled":false,"rental_uris":{"android":"levelo://app?vid=c2f52897-290d-4e21-9183-2beb52ef49f6","ios":"levelo://app?vid=c2f52897-290d-4e21-9183-2beb52ef49f6"},"vehicle_type_id":"4","last_reported":1735830542,"current_range_meters":37600,"station_id":"ce4bgt12rcd13ifvqcd0","pricing_plan_id":"cebpf4jnsgd1na2vs0mg"},{"bike_id":"c464127c-cb94-43bf-a3da-15cd6a8a7a95","system_id":"levelo_inurba_marseille","lat":43.27423,"lon":5.39414,"is_reserved":false,"is_disabled":false,"rental_uris":{"android":"levelo://app?vid=c464127c-cb94-43bf-a3da-15cd6a8a7a95","ios":"levelo://app?vid=c464127c-cb94-43bf-a3da-15cd6a8a7a95"},"vehicle_type_id":"4","last_reported":1735830542,"current_range_meters":27200,"station_id":"ce4bhdp2rcd13ifvqf20","pricing_plan_id":"cebpf4jnsgd1na2vs0mg"},{"bike_id":"c0c39a2d-836b-4997-be36-dfa91a1d9936","system_id":"levelo_inurba_marseille","lat":43.2848,"lon":5.38424,"is_reserved":false,"is_disabled":false,"rental_uris":{"android":"levelo://app?vid=c0c39a2d-836b-4997-be36-dfa91a1d9936","ios":"levelo://app?vid=c0c39a2d-836b-4997-be36-dfa91a1d9936"},"vehicle_type_id":"4","last_reported":1735830542,"current_range_meters":16000,"station_id":"ce4bh512rcd13ifvqe3g","pricing_plan_id":"cebpf4jnsgd1na2vs0mg"},{"bike_id":"9d74cd0d-1085-4fb3-bb94-9e11e4165971","system_id":"levelo_inurba_marseille","lat":43.26941,"lon":5.38645,"is_reserved":false,"is_disabled":false,"rental_uris":{"android":"levelo://app?vid=9d74cd0d-1085-4fb3-bb94-9e11e4165971","ios":"levelo://app?vid=9d74cd0d-1085-4fb3-bb94-9e11e4165971"},"vehicle_type_id":"4","last_reported":1735830542,"current_range_meters":20800,"station_id":"ce4bhh92rcd13ifvqfh0","pricing_plan_id":"cebpf4jnsgd1na2vs0mg"},{"bike_id":"b171a102-ddb5-4c44-9670-1d3f9de72841","system_id":"levelo_inurba_marseille","lat":43.27835,"lon":5.39212,"is_reserved":false,"is_disabled":false,"rental_uris":{"android":"levelo://app?vid=b171a102-ddb5-4c44-9670-1d3f9de72841","ios":"levelo://app?vid=b171a102-ddb5-4c44-9670-1d3f9de72841"},"vehicle_type_id":"4","last_reported":1735830542,"current_range_meters":30800,"station_id":"ce4bhjp2rcd13ifvqga0","pricing_plan_id":"cebpf4jnsgd1na2vs0mg"},{"bike_id":"a77cb61b-7bf4-4634-bc34-29d17b6073d0","system_id":"levelo_inurba_marseille","lat":43.24391,"lon":5.37054,"is_reserved":false,"is_disabled":false,"rental_uris":{"android":"levelo://app?vid=a77cb61b-7bf4-4634-bc34-29d17b6073d0","ios":"levelo://app?vid=a77cb61b-7bf4-4634-bc34-29d17b6073d0"},"vehicle_type_id":"4","last_reported":1735830542,"current_range_meters":38800,"station_id":"ce4bhhh2rcd13ifvqfk0","pricing_plan_id":"cebpf4jnsgd1na2vs0mg"},{"bike_id":"aa4a309c-614a-442c-9013-f1e5df2c297a","system_id":"levelo_inurba_marseille","lat":43.29528,"lon":5.38544,"is_reserved":false,"is_disabled":false,"rental_uris":{"android":"levelo://app?vid=aa4a309c-614a-442c-9013-f1e5df2c297a","ios":"levelo://app?vid=aa4a309c-614a-442c-9013-f1e5df2c297a"},"vehicle_type_id":"4","last_reported":1735830542,"current_range_meters":27600,"station_id":"ce4bgih2rcd13ifvqba0","pricing_plan_id":"cebpf4jnsgd1na2vs0mg"},{"bike_id":"d3de7267-a10c-459d-a30b-9e5323df0740","system_id":"levelo_inurba_marseille","lat":43.29716,"lon":5.36611,"is_reserved":false,"is_disabled":false,"rental_uris":{"android":"levelo://app?vid=d3de7267-a10c-459d-a30b-9e5323df0740","ios":"levelo://app?vid=d3de7267-a10c-459d-a30b-9e5323df0740"},"vehicle_type_id":"4","last_reported":1735830542,"current_range_meters":32800,"station_id":"ce4bgn12rcd13ifvqbt0","pricing_plan_id":"cebpf4jnsgd1na2vs0mg"},{"bike_id":"7563e90b-d8e5-4b35-80a3-3d09b997067b","system_id":"levelo_inurba_marseille","lat":43.25104,"lon":5.40351,"is_reserved":false,"is_disabled":false,"rental_uris":{"android":"levelo://app?vid=7563e90b-d8e5-4b35-80a3-3d09b997067b","ios":"levelo://app?vid=7563e90b-d8e5-4b35-80a3-3d09b997067b"},"vehicle_type_id":"4","last_reported":1735830542,"current_range_meters":37600,"station_id":"ce4bhlh2rcd13ifvqgig","pricing_plan_id":"cebpf4jnsgd1na2vs0mg"},{"bike_id":"36b44304-4e81-43c8-b291-bd90ab2e4e78","system_id":"levelo_inurba_marseille","lat":43.26791,"lon":5.39416,"is_reserved":false,"is_disabled":false,"rental_uris":{"android":"levelo://app?vid=36b44304-4e81-43c8-b291-bd90ab2e4e78","ios":"levelo://app?vid=36b44304-4e81-43c8-b291-bd90ab2e4e78"},"vehicle_type_id":"4","last_reported":1735830542,"current_range_meters":29600,"station_id":"ce4bhh12rcd13ifvqfg0","pricing_plan_id":"cebpf4jnsgd1na2vs0mg"},{"bike_id":"e2f87f50-800f-43d7-be5f-0b22c55a0eba","system_id":"levelo_inurba_marseille","lat":43.30467,"lon":5.3791,"is_reserved":false,"is_disabled":false,"rental_uris":{"android":"levelo://app?vid=e2f87f50-800f-43d7-be5f-0b22c55a0eba","ios":"levelo://app?vid=e2f87f50-800f-43d7-be5f-0b22c55a0eba"},"vehicle_type_id":"4","last_reported":1735830542,"current_range_meters":36800,"station_id":"ce4bgup2rcd13ifvqcn0","pricing_plan_id":"cebpf4jnsgd1na2vs0mg"},{"bike_id":"6ed3fdbb-b150-4868-b3fe-dcf7dbba80db","system_id":"levelo_inurba_marseille","lat":43.27346,"lon":5.39105,"is_reserved":false,"is_disabled":false,"rental_uris":{"android":"levelo://app?vid=6ed3fdbb-b150-4868-b3fe-dcf7dbba80db","ios":"levelo://app?vid=6ed3fdbb-b150-4868-b3fe-dcf7dbba80db"},"vehicle_type_id":"4","last_reported":1735830542,"current_range_meters":28000,"station_id":"ce4bhgp2rcd13ifvqfe0","pricing_plan_id":"cebpf4jnsgd1na2vs0mg"},{"bike_id":"971bd521-576b-4c26-b482-75bc329316be","system_id":"levelo_inurba_marseille","lat":43.30556,"lon":5.36531,"is_reserved":false,"is_disabled":false,"rental_uris":{"android":"levelo://app?vid=971bd521-576b-4c26-b482-75bc329316be","ios":"levelo://app?vid=971bd521-576b-4c26-b482-75bc329316be"},"vehicle_type_id":"4","last_reported":1735830542,"current_range_meters":38800,"station_id":"ce4bgs12rcd13ifvqcag","pricing_plan_id":"cebpf4jnsgd1na2vs0mg"},{"bike_id":"3ef5ee40-dafc-4c27-8dbc-f24b53b4bafa","system_id":"levelo_inurba_marseille","lat":43.29975,"lon":5.37144,"is_reserved":false,"is_disabled":false,"rental_uris":{"android":"levelo://app?vid=3ef5ee40-dafc-4c27-8dbc-f24b53b4bafa","ios":"levelo://app?vid=3ef5ee40-dafc-4c27-8dbc-f24b53b4bafa"},"vehicle_type_id":"4","last_reported":1735830542,"current_range_meters":39200,"station_id":"ce4bgr92rcd13ifvqc7g","pricing_plan_id":"cebpf4jnsgd1na2vs0mg"},{"bike_id":"c67909f7-424c-446d-8555-7c8db0998347","system_id":"levelo_inurba_marseille","lat":43.29568,"lon":5.37529,"is_reserved":false,"is_disabled":false,"rental_uris":{"android":"levelo://app?vid=c67909f7-424c-446d-8555-7c8db0998347","ios":"levelo://app?vid=c67909f7-424c-446d-8555-7c8db0998347"},"vehicle_type_id":"4","last_reported":1735830542,"current_range_meters":35600,"station_id":"ce4bgh92rcd13ifvqb50","pricing_plan_id":"cebpf4jnsgd1na2vs0mg"},{"bike_id":"b9483ae2-c489-4c3a-b4d3-949223301e70","system_id":"levelo_inurba_marseille","lat":43.26776,"lon":5.39428,"is_reserved":false,"is_disabled":false,"rental_uris":{"android":"levelo://app?vid=b9483ae2-c489-4c3a-b4d3-949223301e70","ios":"levelo://app?vid=b9483ae2-c489-4c3a-b4d3-949223301e70"},"vehicle_type_id":"4","last_reported":1735830542,"current_range_meters":38400,"station_id":"ce4bhh12rcd13ifvqfg0","pricing_plan_id":"cebpf4jnsgd1na2vs0mg"},{"bike_id":"9296373e-a8da-4ff9-a488-98089ece75a4","system_id":"levelo_inurba_marseille","lat":43.28421,"lon":5.34996,"is_reserved":false,"is_disabled":false,"rental_uris":{"android":"levelo://app?vid=9296373e-a8da-4ff9-a488-98089ece75a4","ios":"levelo://app?vid=9296373e-a8da-4ff9-a488-98089ece75a4"},"vehicle_type_id":"4","last_reported":1735830542,"current_range_meters":32000,"station_id":"ce4bhbh2rcd13ifvqepg","pricing_plan_id":"cebpf4jnsgd1na2vs0mg"},{"bike_id":"6de7bc3a-46e4-46e1-b71c-383b6ab6cf63","system_id":"levelo_inurba_marseille","lat":43.30564,"lon":5.36591,"is_reserved":false,"is_disabled":false,"rental_uris":{"android":"levelo://app?vid=6de7bc3a-46e4-46e1-b71c-383b6ab6cf63","ios":"levelo://app?vid=6de7bc3a-46e4-46e1-b71c-383b6ab6cf63"},"vehicle_type_id":"4","last_reported":1735830542,"current_range_meters":35200,"station_id":"ce4bgs12rcd13ifvqcag","pricing_plan_id":"cebpf4jnsgd1na2vs0mg"},{"bike_id":"5becd014-2ea4-4e6e-af75-6157a5a38862","system_id":"levelo_inurba_marseille","lat":43.29898,"lon":5.37483,"is_reserved":false,"is_disabled":false,"rental_uris":{"android":"levelo://app?vid=5becd014-2ea4-4e6e-af75-6157a5a38862","ios":"levelo://app?vid=5becd014-2ea4-4e6e-af75-6157a5a38862"},"vehicle_type_id":"4","last_reported":1735830542,"current_range_meters":38400,"station_id":"ce4bgjh2rcd13ifvqbg0","pricing_plan_id":"cebpf4jnsgd1na2vs0mg"},{"bike_id":"0d22c007-f5b2-4481-9b21-08f35f061702","system_id":"levelo_inurba_marseille","lat":43.296428,"lon":5.371628,"is_reserved":false,"is_disabled":true,"rental_uris":{"android":"levelo://app?vid=0d22c007-f5b2-4481-9b21-08f35f061702","ios":"levelo://app?vid=0d22c007-f5b2-4481-9b21-08f35f061702"},"vehicle_type_id":"4","last_reported":1735830542,"current_range_meters":0,"station_id":"ce4bgnh2rcd13ifvqc0g","pricing_plan_id":"cebpf4jnsgd1na2vs0mg"},{"bike_id":"f255d782-85f9-4c7d-89c2-87e885e47442","system_id":"levelo_inurba_marseille","lat":43.30454,"lon":5.37907,"is_reserved":false,"is_disabled":false,"rental_uris":{"android":"levelo://app?vid=f255d782-85f9-4c7d-89c2-87e885e47442","ios":"levelo://app?vid=f255d782-85f9-4c7d-89c2-87e885e47442"},"vehicle_type_id":"4","last_reported":1735830542,"current_range_meters":19200,"station_id":"ce4bgup2rcd13ifvqcn0","pricing_plan_id":"cebpf4jnsgd1na2vs0mg"},{"bike_id":"da9df9ae-5b9d-4ca1-b119-c5177ebab938","system_id":"levelo_inurba_marseille","lat":43.29845,"lon":5.3626,"is_reserved":false,"is_disabled":false,"rental_uris":{"android":"levelo://app?vid=da9df9ae-5b9d-4ca1-b119-c5177ebab938","ios":"levelo://app?vid=da9df9ae-5b9d-4ca1-b119-c5177ebab938"},"vehicle_type_id":"4","last_reported":1735830542,"current_range_meters":11600,"station_id":"ce4bgpp2rcd13ifvqc3g","pricing_plan_id":"cebpf4jnsgd1na2vs0mg"},{"bike_id":"82ea1174-d504-4076-b3e0-e9c7f3721e22","system_id":"levelo_inurba_marseille","lat":43.24385,"lon":5.3703,"is_reserved":false,"is_disabled":false,"rental_uris":{"android":"levelo://app?vid=82ea1174-d504-4076-b3e0-e9c7f3721e22","ios":"levelo://app?vid=82ea1174-d504-4076-b3e0-e9c7f3721e22"},"vehicle_type_id":"4","last_reported":1735830542,"current_range_meters":22400,"station_id":"ce4bhhh2rcd13ifvqfk0","pricing_plan_id":"cebpf4jnsgd1na2vs0mg"},{"bike_id":"82f0d5f4-a2f7-43b5-9adb-f04ad4f66e09","system_id":"levelo_inurba_marseille","lat":43.2953,"lon":5.38549,"is_reserved":false,"is_disabled":false,"rental_uris":{"android":"levelo://app?vid=82f0d5f4-a2f7-43b5-9adb-f04ad4f66e09","ios":"levelo://app?vid=82f0d5f4-a2f7-43b5-9adb-f04ad4f66e09"},"vehicle_type_id":"4","last_reported":1735830542,"current_range_meters":38800,"station_id":"ce4bgih2rcd13ifvqba0","pricing_plan_id":"cebpf4jnsgd1na2vs0mg"},{"bike_id":"6e58432b-0c4c-41e2-ae7e-8bda39fce857","system_id":"levelo_inurba_marseille","lat":43.273757,"lon":5.3625,"is_reserved":false,"is_disabled":false,"rental_uris":{"android":"levelo://app?vid=6e58432b-0c4c-41e2-ae7e-8bda39fce857","ios":"levelo://app?vid=6e58432b-0c4c-41e2-ae7e-8bda39fce857"},"vehicle_type_id":"4","last_reported":1735830542,"current_range_meters":30400,"station_id":"ce4bhbh2rcd13ifvqeo0","pricing_plan_id":"cebpf4jnsgd1na2vs0mg"},{"bike_id":"8f236aa0-69d9-4777-af98-8397a0b1ff94","system_id":"levelo_inurba_marseille","lat":43.28161,"lon":5.42631,"is_reserved":false,"is_disabled":true,"rental_uris":{"android":"levelo://app?vid=8f236aa0-69d9-4777-af98-8397a0b1ff94","ios":"levelo://app?vid=8f236aa0-69d9-4777-af98-8397a0b1ff94"},"vehicle_type_id":"4","last_reported":1735830542,"current_range_meters":9200,"station_id":"ce4bhnh2rcd13ifvqgug","pricing_plan_id":"cebpf4jnsgd1na2vs0mg"},{"bike_id":"77219e2c-6b35-4634-aad9-c10b435669fd","system_id":"levelo_inurba_marseille","lat":43.32367,"lon":5.38886,"is_reserved":false,"is_disabled":false,"rental_uris":{"android":"levelo://app?vid=77219e2c-6b35-4634-aad9-c10b435669fd","ios":"levelo://app?vid=77219e2c-6b35-4634-aad9-c10b435669fd"},"vehicle_type_id":"4","last_reported":1735830542,"current_range_meters":26000,"station_id":"ce4bhqp2rcd13ifvqhog","pricing_plan_id":"cebpf4jnsgd1na2vs0mg"},{"bike_id":"8e936699-fb94-4c05-a18e-6a31521ab968","system_id":"levelo_inurba_marseille","lat":43.28452,"lon":5.35895,"is_reserved":false,"is_disabled":false,"rental_uris":{"android":"levelo://app?vid=8e936699-fb94-4c05-a18e-6a31521ab968","ios":"levelo://app?vid=8e936699-fb94-4c05-a18e-6a31521ab968"},"vehicle_type_id":"4","last_reported":1735830542,"current_range_meters":38800,"station_id":"ce4bhah2rcd13ifvqei0","pricing_plan_id":"cebpf4jnsgd1na2vs0mg"},{"bike_id":"01de914a-72cd-4732-981a-40c6fffcb3c3","system_id":"levelo_inurba_marseille","lat":43.25933,"lon":5.40879,"is_reserved":false,"is_disabled":false,"rental_uris":{"android":"levelo://app?vid=01de914a-72cd-4732-981a-40c6fffcb3c3","ios":"levelo://app?vid=01de914a-72cd-4732-981a-40c6fffcb3c3"},"vehicle_type_id":"4","last_reported":1735830542,"current_range_meters":34800,"station_id":"ce4bhm92rcd13ifvqglg","pricing_plan_id":"cebpf4jnsgd1na2vs0mg"},{"bike_id":"d9039fb6-1526-43a5-ab47-bf6c74051347","system_id":"levelo_inurba_marseille","lat":43.28168,"lon":5.42694,"is_reserved":false,"is_disabled":true,"rental_uris":{"android":"levelo://app?vid=d9039fb6-1526-43a5-ab47-bf6c74051347","ios":"levelo://app?vid=d9039fb6-1526-43a5-ab47-bf6c74051347"},"vehicle_type_id":"4","last_reported":1735830542,"current_range_meters":1200,"station_id":"ce4bhnh2rcd13ifvqgug","pricing_plan_id":"cebpf4jnsgd1na2vs0mg"},{"bike_id":"b5e3865b-10bc-4c4f-ad14-18834fa7a270","system_id":"levelo_inurba_marseille","lat":43.30322,"lon":5.36914,"is_reserved":false,"is_disabled":false,"rental_uris":{"android":"levelo://app?vid=b5e3865b-10bc-4c4f-ad14-18834fa7a270","ios":"levelo://app?vid=b5e3865b-10bc-4c4f-ad14-18834fa7a270"},"vehicle_type_id":"4","last_reported":1735830542,"current_range_meters":39200,"station_id":"ce4bgqh2rcd13ifvqc5g","pricing_plan_id":"cebpf4jnsgd1na2vs0mg"},{"bike_id":"628a5455-080f-4414-969d-c062a978390e","system_id":"levelo_inurba_marseille","lat":43.28495,"lon":5.38538,"is_reserved":false,"is_disabled":false,"rental_uris":{"android":"levelo://app?vid=628a5455-080f-4414-969d-c062a978390e","ios":"levelo://app?vid=628a5455-080f-4414-969d-c062a978390e"},"vehicle_type_id":"4","last_reported":1735830542,"current_range_meters":39200,"station_id":"ce4bh8p2rcd13ifvqeb0","pricing_plan_id":"cebpf4jnsgd1na2vs0mg"},{"bike_id":"500974a2-52ea-4adc-b6c0-61e58c07e2c4","system_id":"levelo_inurba_marseille","lat":43.29787,"lon":5.38087,"is_reserved":false,"is_disabled":false,"rental_uris":{"android":"levelo://app?vid=500974a2-52ea-4adc-b6c0-61e58c07e2c4","ios":"levelo://app?vid=500974a2-52ea-4adc-b6c0-61e58c07e2c4"},"vehicle_type_id":"4","last_reported":1735830542,"current_range_meters":10000,"station_id":"ce4bgip2rcd13ifvqbb0","pricing_plan_id":"cebpf4jnsgd1na2vs0mg"},{"bike_id":"022d826a-d31d-48ef-b07e-f8dd0ceaa746","system_id":"levelo_inurba_marseille","lat":43.24996,"lon":5.38935,"is_reserved":false,"is_disabled":false,"rental_uris":{"android":"levelo://app?vid=022d826a-d31d-48ef-b07e-f8dd0ceaa746","ios":"levelo://app?vid=022d826a-d31d-48ef-b07e-f8dd0ceaa746"},"vehicle_type_id":"4","last_reported":1735830542,"current_range_meters":27600,"station_id":"ce4bhgp2rcd13ifvqfd0","pricing_plan_id":"cebpf4jnsgd1na2vs0mg"},{"bike_id":"ec856b10-1b11-4255-894f-98d10cccee25","system_id":"levelo_inurba_marseille","lat":43.28423,"lon":5.34986,"is_reserved":false,"is_disabled":false,"rental_uris":{"android":"levelo://app?vid=ec856b10-1b11-4255-894f-98d10cccee25","ios":"levelo://app?vid=ec856b10-1b11-4255-894f-98d10cccee25"},"vehicle_type_id":"4","last_reported":1735830542,"current_range_meters":8000,"station_id":"ce4bhbh2rcd13ifvqepg","pricing_plan_id":"cebpf4jnsgd1na2vs0mg"},{"bike_id":"50176627-d699-4b76-b542-59c9ea28881b","system_id":"levelo_inurba_marseille","lat":43.31175,"lon":5.38716,"is_reserved":false,"is_disabled":false,"rental_uris":{"android":"levelo://app?vid=50176627-d699-4b76-b542-59c9ea28881b","ios":"levelo://app?vid=50176627-d699-4b76-b542-59c9ea28881b"},"vehicle_type_id":"4","last_reported":1735830542,"current_range_meters":26000,"station_id":"ce4bgv12rcd13ifvqcp0","pricing_plan_id":"cebpf4jnsgd1na2vs0mg"},{"bike_id":"1769f4a6-cf6e-48fc-b35d-6379787292e2","system_id":"levelo_inurba_marseille","lat":43.28267,"lon":5.35081,"is_reserved":false,"is_disabled":false,"rental_uris":{"android":"levelo://app?vid=1769f4a6-cf6e-48fc-b35d-6379787292e2","ios":"levelo://app?vid=1769f4a6-cf6e-48fc-b35d-6379787292e2"},"vehicle_type_id":"4","last_reported":1735830542,"current_range_meters":22400,"station_id":"ce4bhbp2rcd13ifvqerg","pricing_plan_id":"cebpf4jnsgd1na2vs0mg"},{"bike_id":"5e52bb4f-2972-4ad9-938b-f5466012b8a1","system_id":"levelo_inurba_marseille","lat":43.27318,"lon":5.39079,"is_reserved":false,"is_disabled":false,"rental_uris":{"android":"levelo://app?vid=5e52bb4f-2972-4ad9-938b-f5466012b8a1","ios":"levelo://app?vid=5e52bb4f-2972-4ad9-938b-f5466012b8a1"},"vehicle_type_id":"4","last_reported":1735830542,"current_range_meters":27200,"station_id":"ce4bhgp2rcd13ifvqfe0","pricing_plan_id":"cebpf4jnsgd1na2vs0mg"},{"bike_id":"4fddba13-1e7b-4cbb-a7ff-2b7342e1322f","system_id":"levelo_inurba_marseille","lat":43.26225,"lon":5.37454,"is_reserved":false,"is_disabled":false,"rental_uris":{"android":"levelo://app?vid=4fddba13-1e7b-4cbb-a7ff-2b7342e1322f","ios":"levelo://app?vid=4fddba13-1e7b-4cbb-a7ff-2b7342e1322f"},"vehicle_type_id":"4","last_reported":1735830542,"current_range_meters":12400,"station_id":"","pricing_plan_id":"cebpf4jnsgd1na2vs0mg"},{"bike_id":"44d177c7-eea4-4936-8fb2-f4e78401eb94","system_id":"levelo_inurba_marseille","lat":43.25917,"lon":5.40913,"is_reserved":false,"is_disabled":false,"rental_uris":{"android":"levelo://app?vid=44d177c7-eea4-4936-8fb2-f4e78401eb94","ios":"levelo://app?vid=44d177c7-eea4-4936-8fb2-f4e78401eb94"},"vehicle_type_id":"4","last_reported":1735830542,"current_range_meters":36400,"station_id":"ce4bhm92rcd13ifvqglg","pricing_plan_id":"cebpf4jnsgd1na2vs0mg"},{"bike_id":"189d832f-528f-4b42-a3f9-2aa8c8b4f686","system_id":"levelo_inurba_marseille","lat":43.298929,"lon":5.436666,"is_reserved":false,"is_disabled":false,"rental_uris":{"android":"levelo://app?vid=189d832f-528f-4b42-a3f9-2aa8c8b4f686","ios":"levelo://app?vid=189d832f-528f-4b42-a3f9-2aa8c8b4f686"},"vehicle_type_id":"4","last_reported":1735830542,"current_range_meters":38800,"station_id":"ce4bhpp2rcd13ifvqhfg","pricing_plan_id":"cebpf4jnsgd1na2vs0mg"},{"bike_id":"375263f7-8be8-4e9c-8273-54301f8efcdc","system_id":"levelo_inurba_marseille","lat":43.28186,"lon":5.42648,"is_reserved":false,"is_disabled":false,"rental_uris":{"android":"levelo://app?vid=375263f7-8be8-4e9c-8273-54301f8efcdc","ios":"levelo://app?vid=375263f7-8be8-4e9c-8273-54301f8efcdc"},"vehicle_type_id":"4","last_reported":1735830542,"current_range_meters":9200,"station_id":"ce4bhnh2rcd13ifvqgug","pricing_plan_id":"cebpf4jnsgd1na2vs0mg"},{"bike_id":"9a3c5300-d055-4b05-88d5-7438b5100332","system_id":"levelo_inurba_marseille","lat":43.29577,"lon":5.37511,"is_reserved":false,"is_disabled":false,"rental_uris":{"android":"levelo://app?vid=9a3c5300-d055-4b05-88d5-7438b5100332","ios":"levelo://app?vid=9a3c5300-d055-4b05-88d5-7438b5100332"},"vehicle_type_id":"4","last_reported":1735830542,"current_range_meters":36400,"station_id":"ce4bgh92rcd13ifvqb50","pricing_plan_id":"cebpf4jnsgd1na2vs0mg"},{"bike_id":"60e4e94d-0b8b-4f36-b41d-fdf9c77a6bb7","system_id":"levelo_inurba_marseille","lat":43.29006,"lon":5.35616,"is_reserved":false,"is_disabled":false,"rental_uris":{"android":"levelo://app?vid=60e4e94d-0b8b-4f36-b41d-fdf9c77a6bb7","ios":"levelo://app?vid=60e4e94d-0b8b-4f36-b41d-fdf9c77a6bb7"},"vehicle_type_id":"4","last_reported":1735830542,"current_range_meters":38800,"station_id":"ce4bhb92rcd13ifvqen0","pricing_plan_id":"cebpf4jnsgd1na2vs0mg"},{"bike_id":"9c8ab5a0-f631-4b77-aa56-685a9194767c","system_id":"levelo_inurba_marseille","lat":43.27943,"lon":5.4105,"is_reserved":false,"is_disabled":false,"rental_uris":{"android":"levelo://app?vid=9c8ab5a0-f631-4b77-aa56-685a9194767c","ios":"levelo://app?vid=9c8ab5a0-f631-4b77-aa56-685a9194767c"},"vehicle_type_id":"4","last_reported":1735830542,"current_range_meters":33200,"station_id":"ce4bhnp2rcd13ifvqh0g","pricing_plan_id":"cebpf4jnsgd1na2vs0mg"},{"bike_id":"875ddf3d-2cfd-49c8-bd8d-f51a9265e541","system_id":"levelo_inurba_marseille","lat":43.26702,"lon":5.38289,"is_reserved":false,"is_disabled":false,"rental_uris":{"android":"levelo://app?vid=875ddf3d-2cfd-49c8-bd8d-f51a9265e541","ios":"levelo://app?vid=875ddf3d-2cfd-49c8-bd8d-f51a9265e541"},"vehicle_type_id":"4","last_reported":1735830542,"current_range_meters":24400,"station_id":"ce4bhg92rcd13ifvqf90","pricing_plan_id":"cebpf4jnsgd1na2vs0mg"},{"bike_id":"e7f232e6-9751-45f4-a24f-005b95d10947","system_id":"levelo_inurba_marseille","lat":43.29598,"lon":5.37735,"is_reserved":false,"is_disabled":true,"rental_uris":{"android":"levelo://app?vid=e7f232e6-9751-45f4-a24f-005b95d10947","ios":"levelo://app?vid=e7f232e6-9751-45f4-a24f-005b95d10947"},"vehicle_type_id":"4","last_reported":1735830542,"current_range_meters":2000,"station_id":"ce4bgi92rcd13ifvqb90","pricing_plan_id":"cebpf4jnsgd1na2vs0mg"},{"bike_id":"20bcfc0e-ce4b-4a55-a910-2c3c546797cb","system_id":"levelo_inurba_marseille","lat":43.299129,"lon":5.374774,"is_reserved":false,"is_disabled":false,"rental_uris":{"android":"levelo://app?vid=20bcfc0e-ce4b-4a55-a910-2c3c546797cb","ios":"levelo://app?vid=20bcfc0e-ce4b-4a55-a910-2c3c546797cb"},"vehicle_type_id":"4","last_reported":1735830542,"current_range_meters":34800,"station_id":"ce4bgjh2rcd13ifvqbg0","pricing_plan_id":"cebpf4jnsgd1na2vs0mg"},{"bike_id":"f3998a04-3b93-4948-8eb7-aa16047370fd","system_id":"levelo_inurba_marseille","lat":43.27978,"lon":5.41054,"is_reserved":false,"is_disabled":false,"rental_uris":{"android":"levelo://app?vid=f3998a04-3b93-4948-8eb7-aa16047370fd","ios":"levelo://app?vid=f3998a04-3b93-4948-8eb7-aa16047370fd"},"vehicle_type_id":"4","last_reported":1735830542,"current_range_meters":23200,"station_id":"ce4bhnp2rcd13ifvqh0g","pricing_plan_id":"cebpf4jnsgd1na2vs0mg"},{"bike_id":"1c5434c6-81cf-4ea8-9bf2-abfb41c12665","system_id":"levelo_inurba_marseille","lat":43.30936,"lon":5.37173,"is_reserved":false,"is_disabled":true,"rental_uris":{"android":"levelo://app?vid=1c5434c6-81cf-4ea8-9bf2-abfb41c12665","ios":"levelo://app?vid=1c5434c6-81cf-4ea8-9bf2-abfb41c12665"},"vehicle_type_id":"4","last_reported":1735830542,"current_range_meters":38000,"station_id":"ce4bguh2rcd13ifvqckg","pricing_plan_id":"cebpf4jnsgd1na2vs0mg"},{"bike_id":"bbb173c2-5fa6-4439-999a-e24a3ecc81ee","system_id":"levelo_inurba_marseille","lat":43.29567,"lon":5.42272,"is_reserved":false,"is_disabled":false,"rental_uris":{"android":"levelo://app?vid=bbb173c2-5fa6-4439-999a-e24a3ecc81ee","ios":"levelo://app?vid=bbb173c2-5fa6-4439-999a-e24a3ecc81ee"},"vehicle_type_id":"4","last_reported":1735830542,"current_range_meters":32000,"station_id":"ce4bhph2rcd13ifvqhdg","pricing_plan_id":"cebpf4jnsgd1na2vs0mg"},{"bike_id":"e7877106-7c26-41e9-9340-4ce416d1117d","system_id":"levelo_inurba_marseille","lat":43.30094,"lon":5.39081,"is_reserved":false,"is_disabled":false,"rental_uris":{"android":"levelo://app?vid=e7877106-7c26-41e9-9340-4ce416d1117d","ios":"levelo://app?vid=e7877106-7c26-41e9-9340-4ce416d1117d"},"vehicle_type_id":"4","last_reported":1735830542,"current_range_meters":28000,"station_id":"ce4bh192rcd13ifvqdb0","pricing_plan_id":"cebpf4jnsgd1na2vs0mg"},{"bike_id":"ab5b4ee9-498e-4800-a90a-53f482a01e7e","system_id":"levelo_inurba_marseille","lat":43.29519,"lon":5.37495,"is_reserved":false,"is_disabled":false,"rental_uris":{"android":"levelo://app?vid=ab5b4ee9-498e-4800-a90a-53f482a01e7e","ios":"levelo://app?vid=ab5b4ee9-498e-4800-a90a-53f482a01e7e"},"vehicle_type_id":"4","last_reported":1735830542,"current_range_meters":36800,"station_id":"ce4bgkp2rcd13ifvqbmg","pricing_plan_id":"cebpf4jnsgd1na2vs0mg"},{"bike_id":"e157af35-862f-4ff3-a971-0cec14143385","system_id":"levelo_inurba_marseille","lat":43.27943,"lon":5.41046,"is_reserved":false,"is_disabled":false,"rental_uris":{"android":"levelo://app?vid=e157af35-862f-4ff3-a971-0cec14143385","ios":"levelo://app?vid=e157af35-862f-4ff3-a971-0cec14143385"},"vehicle_type_id":"4","last_reported":1735830542,"current_range_meters":28000,"station_id":"ce4bhnp2rcd13ifvqh0g","pricing_plan_id":"cebpf4jnsgd1na2vs0mg"},{"bike_id":"6fe5355b-116c-46f6-9047-7fa55eaf7d8a","system_id":"levelo_inurba_marseille","lat":43.31491,"lon":5.37296,"is_reserved":false,"is_disabled":false,"rental_uris":{"android":"levelo://app?vid=6fe5355b-116c-46f6-9047-7fa55eaf7d8a","ios":"levelo://app?vid=6fe5355b-116c-46f6-9047-7fa55eaf7d8a"},"vehicle_type_id":"4","last_reported":1735830542,"current_range_meters":38800,"station_id":"ce4bgt12rcd13ifvqcd0","pricing_plan_id":"cebpf4jnsgd1na2vs0mg"},{"bike_id":"000ad212-aa9b-4305-b51c-845b4cab09ae","system_id":"levelo_inurba_marseille","lat":43.27182,"lon":5.40973,"is_reserved":false,"is_disabled":false,"rental_uris":{"android":"levelo://app?vid=000ad212-aa9b-4305-b51c-845b4cab09ae","ios":"levelo://app?vid=000ad212-aa9b-4305-b51c-845b4cab09ae"},"vehicle_type_id":"4","last_reported":1735830542,"current_range_meters":38800,"station_id":"ce4bhl12rcd13ifvqgf0","pricing_plan_id":"cebpf4jnsgd1na2vs0mg"},{"bike_id":"f5997a88-606e-48c9-933e-041b10894cea","system_id":"levelo_inurba_marseille","lat":43.27142,"lon":5.42411,"is_reserved":false,"is_disabled":false,"rental_uris":{"android":"levelo://app?vid=f5997a88-606e-48c9-933e-041b10894cea","ios":"levelo://app?vid=f5997a88-606e-48c9-933e-041b10894cea"},"vehicle_type_id":"4","last_reported":1735830542,"current_range_meters":12400,"station_id":"ce4bhk92rcd13ifvqgb0","pricing_plan_id":"cebpf4jnsgd1na2vs0mg"},{"bike_id":"d8e25b92-fb7e-472b-8904-2b656e7155df","system_id":"levelo_inurba_marseille","lat":43.29717,"lon":5.37695,"is_reserved":false,"is_disabled":false,"rental_uris":{"android":"levelo://app?vid=d8e25b92-fb7e-472b-8904-2b656e7155df","ios":"levelo://app?vid=d8e25b92-fb7e-472b-8904-2b656e7155df"},"vehicle_type_id":"4","last_reported":1735830542,"current_range_meters":34800,"station_id":"ce4bgkh2rcd13ifvqbl0","pricing_plan_id":"cebpf4jnsgd1na2vs0mg"},{"bike_id":"29b1b685-5847-4b1b-9aee-f79329eb34c5","system_id":"levelo_inurba_marseille","lat":43.24183,"lon":5.39728,"is_reserved":false,"is_disabled":false,"rental_uris":{"android":"levelo://app?vid=29b1b685-5847-4b1b-9aee-f79329eb34c5","ios":"levelo://app?vid=29b1b685-5847-4b1b-9aee-f79329eb34c5"},"vehicle_type_id":"4","last_reported":1735830542,"current_range_meters":3600,"station_id":"ce4bhn12rcd13ifvqgpg","pricing_plan_id":"cebpf4jnsgd1na2vs0mg"},{"bike_id":"e78c5abe-64a4-4422-a037-82a4cc7a01cc","system_id":"levelo_inurba_marseille","lat":43.26934,"lon":5.40258,"is_reserved":false,"is_disabled":false,"rental_uris":{"android":"levelo://app?vid=e78c5abe-64a4-4422-a037-82a4cc7a01cc","ios":"levelo://app?vid=e78c5abe-64a4-4422-a037-82a4cc7a01cc"},"vehicle_type_id":"4","last_reported":1735830542,"current_range_meters":30000,"station_id":"cjm6bp8fraef2m0cb0m0","pricing_plan_id":"cebpf4jnsgd1na2vs0mg"},{"bike_id":"c039c639-5d4f-4bd0-9ca9-b244f2c21fce","system_id":"levelo_inurba_marseille","lat":43.29227,"lon":5.36056,"is_reserved":false,"is_disabled":false,"rental_uris":{"android":"levelo://app?vid=c039c639-5d4f-4bd0-9ca9-b244f2c21fce","ios":"levelo://app?vid=c039c639-5d4f-4bd0-9ca9-b244f2c21fce"},"vehicle_type_id":"4","last_reported":1735830542,"current_range_meters":19600,"station_id":"ce4bhbh2rcd13ifvqeqg","pricing_plan_id":"cebpf4jnsgd1na2vs0mg"},{"bike_id":"1758e404-548a-4b20-87fe-a9470e99ef0f","system_id":"levelo_inurba_marseille","lat":43.283701,"lon":5.386358,"is_reserved":false,"is_disabled":false,"rental_uris":{"android":"levelo://app?vid=1758e404-548a-4b20-87fe-a9470e99ef0f","ios":"levelo://app?vid=1758e404-548a-4b20-87fe-a9470e99ef0f"},"vehicle_type_id":"4","last_reported":1735830542,"current_range_meters":39200,"station_id":"ce4bh492rcd13ifvqdvg","pricing_plan_id":"cebpf4jnsgd1na2vs0mg"},{"bike_id":"6b5ddd73-18e9-4cb5-ac17-3961e31a1d3c","system_id":"levelo_inurba_marseille","lat":43.28269,"lon":5.35071,"is_reserved":false,"is_disabled":false,"rental_uris":{"android":"levelo://app?vid=6b5ddd73-18e9-4cb5-ac17-3961e31a1d3c","ios":"levelo://app?vid=6b5ddd73-18e9-4cb5-ac17-3961e31a1d3c"},"vehicle_type_id":"4","last_reported":1735830542,"current_range_meters":16400,"station_id":"ce4bhbp2rcd13ifvqerg","pricing_plan_id":"cebpf4jnsgd1na2vs0mg"},{"bike_id":"bcd20683-a7d2-4d73-b9c6-b696fde50e59","system_id":"levelo_inurba_marseille","lat":43.2708,"lon":5.42282,"is_reserved":false,"is_disabled":false,"rental_uris":{"android":"levelo://app?vid=bcd20683-a7d2-4d73-b9c6-b696fde50e59","ios":"levelo://app?vid=bcd20683-a7d2-4d73-b9c6-b696fde50e59"},"vehicle_type_id":"4","last_reported":1735830542,"current_range_meters":11600,"station_id":"ce4bhk92rcd13ifvqgb0","pricing_plan_id":"cebpf4jnsgd1na2vs0mg"},{"bike_id":"313a9a0d-cbde-465d-8a65-140655419224","system_id":"levelo_inurba_marseille","lat":43.25508,"lon":5.37679,"is_reserved":false,"is_disabled":false,"rental_uris":{"android":"levelo://app?vid=313a9a0d-cbde-465d-8a65-140655419224","ios":"levelo://app?vid=313a9a0d-cbde-465d-8a65-140655419224"},"vehicle_type_id":"4","last_reported":1735830542,"current_range_meters":38800,"station_id":"ce4bhh12rcd13ifvqff0","pricing_plan_id":"cebpf4jnsgd1na2vs0mg"},{"bike_id":"660aed1d-cdeb-4a3c-a6d4-d19ef9a2563b","system_id":"levelo_inurba_marseille","lat":43.29905,"lon":5.43663,"is_reserved":false,"is_disabled":false,"rental_uris":{"android":"levelo://app?vid=660aed1d-cdeb-4a3c-a6d4-d19ef9a2563b","ios":"levelo://app?vid=660aed1d-cdeb-4a3c-a6d4-d19ef9a2563b"},"vehicle_type_id":"4","last_reported":1735830542,"current_range_meters":18000,"station_id":"ce4bhpp2rcd13ifvqhfg","pricing_plan_id":"cebpf4jnsgd1na2vs0mg"},{"bike_id":"7d44431e-ed83-438c-86a7-892d7e053d01","system_id":"levelo_inurba_marseille","lat":43.320553,"lon":5.41546,"is_reserved":false,"is_disabled":false,"rental_uris":{"android":"levelo://app?vid=7d44431e-ed83-438c-86a7-892d7e053d01","ios":"levelo://app?vid=7d44431e-ed83-438c-86a7-892d7e053d01"},"vehicle_type_id":"4","last_reported":1735830542,"current_range_meters":38800,"station_id":"ce4bhq92rcd13ifvqhkg","pricing_plan_id":"cebpf4jnsgd1na2vs0mg"},{"bike_id":"84ff672c-254b-42d1-ad81-4f7d674dca47","system_id":"levelo_inurba_marseille","lat":43.24384,"lon":5.37058,"is_reserved":false,"is_disabled":false,"rental_uris":{"android":"levelo://app?vid=84ff672c-254b-42d1-ad81-4f7d674dca47","ios":"levelo://app?vid=84ff672c-254b-42d1-ad81-4f7d674dca47"},"vehicle_type_id":"4","last_reported":1735830542,"current_range_meters":38800,"station_id":"ce4bhhh2rcd13ifvqfk0","pricing_plan_id":"cebpf4jnsgd1na2vs0mg"},{"bike_id":"ae01fda9-000a-4238-a1f5-8e8b8e2c7eaa","system_id":"levelo_inurba_marseille","lat":43.29186,"lon":5.35818,"is_reserved":false,"is_disabled":false,"rental_uris":{"android":"levelo://app?vid=ae01fda9-000a-4238-a1f5-8e8b8e2c7eaa","ios":"levelo://app?vid=ae01fda9-000a-4238-a1f5-8e8b8e2c7eaa"},"vehicle_type_id":"4","last_reported":1735830542,"current_range_meters":30800,"station_id":"ce4bhb12rcd13ifvqel0","pricing_plan_id":"cebpf4jnsgd1na2vs0mg"},{"bike_id":"66403481-7c15-42eb-bf53-512ff64f614f","system_id":"levelo_inurba_marseille","lat":43.28726,"lon":5.37923,"is_reserved":false,"is_disabled":false,"rental_uris":{"android":"levelo://app?vid=66403481-7c15-42eb-bf53-512ff64f614f","ios":"levelo://app?vid=66403481-7c15-42eb-bf53-512ff64f614f"},"vehicle_type_id":"4","last_reported":1735830542,"current_range_meters":37600,"station_id":"ce4bh9p2rcd13ifvqec0","pricing_plan_id":"cebpf4jnsgd1na2vs0mg"},{"bike_id":"cf71aac8-1e52-435d-bf91-cac39ef804d5","system_id":"levelo_inurba_marseille","lat":43.3414,"lon":5.40908,"is_reserved":false,"is_disabled":false,"rental_uris":{"android":"levelo://app?vid=cf71aac8-1e52-435d-bf91-cac39ef804d5","ios":"levelo://app?vid=cf71aac8-1e52-435d-bf91-cac39ef804d5"},"vehicle_type_id":"4","last_reported":1735830542,"current_range_meters":39200,"station_id":"ce4bhqh2rcd13ifvqhlg","pricing_plan_id":"cebpf4jnsgd1na2vs0mg"},{"bike_id":"c6d92bc5-dca9-45fe-9473-4ea5e9cb8d02","system_id":"levelo_inurba_marseille","lat":43.29906,"lon":5.38155,"is_reserved":false,"is_disabled":false,"rental_uris":{"android":"levelo://app?vid=c6d92bc5-dca9-45fe-9473-4ea5e9cb8d02","ios":"levelo://app?vid=c6d92bc5-dca9-45fe-9473-4ea5e9cb8d02"},"vehicle_type_id":"4","last_reported":1735830542,"current_range_meters":38800,"station_id":"ce4bgj12rcd13ifvqbc0","pricing_plan_id":"cebpf4jnsgd1na2vs0mg"},{"bike_id":"85f66c35-cf00-496f-866f-ed1cc2019cfb","system_id":"levelo_inurba_marseille","lat":43.2812,"lon":5.37844,"is_reserved":false,"is_disabled":false,"rental_uris":{"android":"levelo://app?vid=85f66c35-cf00-496f-866f-ed1cc2019cfb","ios":"levelo://app?vid=85f66c35-cf00-496f-866f-ed1cc2019cfb"},"vehicle_type_id":"4","last_reported":1735830542,"current_range_meters":37600,"station_id":"ce4bha12rcd13ifvqee0","pricing_plan_id":"cebpf4jnsgd1na2vs0mg"},{"bike_id":"266d0dd1-a622-4eaf-adb0-2532890c9527","system_id":"levelo_inurba_marseille","lat":43.2909,"lon":5.38149,"is_reserved":false,"is_disabled":false,"rental_uris":{"android":"levelo://app?vid=266d0dd1-a622-4eaf-adb0-2532890c9527","ios":"levelo://app?vid=266d0dd1-a622-4eaf-adb0-2532890c9527"},"vehicle_type_id":"4","last_reported":1735830542,"current_range_meters":34000,"station_id":"ce4bh512rcd13ifvqe2g","pricing_plan_id":"cebpf4jnsgd1na2vs0mg"},{"bike_id":"80918c45-89b7-4fd7-996f-c047d892f254","system_id":"levelo_inurba_marseille","lat":43.28423,"lon":5.34981,"is_reserved":false,"is_disabled":false,"rental_uris":{"android":"levelo://app?vid=80918c45-89b7-4fd7-996f-c047d892f254","ios":"levelo://app?vid=80918c45-89b7-4fd7-996f-c047d892f254"},"vehicle_type_id":"4","last_reported":1735830542,"current_range_meters":23200,"station_id":"ce4bhbh2rcd13ifvqepg","pricing_plan_id":"cebpf4jnsgd1na2vs0mg"},{"bike_id":"2b39d94b-e223-4f48-92ad-225a84ac0870","system_id":"levelo_inurba_marseille","lat":43.28351,"lon":5.38114,"is_reserved":false,"is_disabled":false,"rental_uris":{"android":"levelo://app?vid=2b39d94b-e223-4f48-92ad-225a84ac0870","ios":"levelo://app?vid=2b39d94b-e223-4f48-92ad-225a84ac0870"},"vehicle_type_id":"4","last_reported":1735830542,"current_range_meters":24000,"station_id":"ce4bh412rcd13ifvqdr0","pricing_plan_id":"cebpf4jnsgd1na2vs0mg"},{"bike_id":"2a3ee495-54a6-4f06-9833-38f47b15ce57","system_id":"levelo_inurba_marseille","lat":43.33734,"lon":5.37459,"is_reserved":false,"is_disabled":true,"rental_uris":{"android":"levelo://app?vid=2a3ee495-54a6-4f06-9833-38f47b15ce57","ios":"levelo://app?vid=2a3ee495-54a6-4f06-9833-38f47b15ce57"},"vehicle_type_id":"4","last_reported":1735830542,"current_range_meters":36400,"station_id":"","pricing_plan_id":"cebpf4jnsgd1na2vs0mg"},{"bike_id":"4e2e926a-cc62-4529-8b24-3abbcf0f0be2","system_id":"levelo_inurba_marseille","lat":43.231913,"lon":5.355546,"is_reserved":false,"is_disabled":false,"rental_uris":{"android":"levelo://app?vid=4e2e926a-cc62-4529-8b24-3abbcf0f0be2","ios":"levelo://app?vid=4e2e926a-cc62-4529-8b24-3abbcf0f0be2"},"vehicle_type_id":"4","last_reported":1735830542,"current_range_meters":36400,"station_id":"ce4bhu92rcd13ifvqi70","pricing_plan_id":"cebpf4jnsgd1na2vs0mg"},{"bike_id":"576c3c6b-bcf6-433f-9d79-5f33ae917960","system_id":"levelo_inurba_marseille","lat":43.29557,"lon":5.42272,"is_reserved":false,"is_disabled":false,"rental_uris":{"android":"levelo://app?vid=576c3c6b-bcf6-433f-9d79-5f33ae917960","ios":"levelo://app?vid=576c3c6b-bcf6-433f-9d79-5f33ae917960"},"vehicle_type_id":"4","last_reported":1735830542,"current_range_meters":38800,"station_id":"ce4bhph2rcd13ifvqhdg","pricing_plan_id":"cebpf4jnsgd1na2vs0mg"},{"bike_id":"ee7da7e1-0487-4a7b-838f-676e9c820e80","system_id":"levelo_inurba_marseille","lat":43.30431,"lon":5.39751,"is_reserved":false,"is_disabled":true,"rental_uris":{"android":"levelo://app?vid=ee7da7e1-0487-4a7b-838f-676e9c820e80","ios":"levelo://app?vid=ee7da7e1-0487-4a7b-838f-676e9c820e80"},"vehicle_type_id":"4","last_reported":1735830542,"current_range_meters":37600,"station_id":"ce4bh092rcd13ifvqd20","pricing_plan_id":"cebpf4jnsgd1na2vs0mg"},{"bike_id":"51a5f624-b4e4-41b0-8f4d-d0fc09faf50f","system_id":"levelo_inurba_marseille","lat":43.2884,"lon":5.35859,"is_reserved":false,"is_disabled":false,"rental_uris":{"android":"levelo://app?vid=51a5f624-b4e4-41b0-8f4d-d0fc09faf50f","ios":"levelo://app?vid=51a5f624-b4e4-41b0-8f4d-d0fc09faf50f"},"vehicle_type_id":"4","last_reported":1735830542,"current_range_meters":28400,"station_id":"ce4bhb12rcd13ifvqem0","pricing_plan_id":"cebpf4jnsgd1na2vs0mg"},{"bike_id":"7ab036cf-df33-4ea0-afca-939ac3f77aec","system_id":"levelo_inurba_marseille","lat":43.29931,"lon":5.36523,"is_reserved":false,"is_disabled":false,"rental_uris":{"android":"levelo://app?vid=7ab036cf-df33-4ea0-afca-939ac3f77aec","ios":"levelo://app?vid=7ab036cf-df33-4ea0-afca-939ac3f77aec"},"vehicle_type_id":"4","last_reported":1735830542,"current_range_meters":25600,"station_id":"ce4bgm92rcd13ifvqbr0","pricing_plan_id":"cebpf4jnsgd1na2vs0mg"},{"bike_id":"6143990e-f7e7-4500-846e-085b8e8441f3","system_id":"levelo_inurba_marseille","lat":43.2559,"lon":5.38235,"is_reserved":false,"is_disabled":false,"rental_uris":{"android":"levelo://app?vid=6143990e-f7e7-4500-846e-085b8e8441f3","ios":"levelo://app?vid=6143990e-f7e7-4500-846e-085b8e8441f3"},"vehicle_type_id":"4","last_reported":1735830542,"current_range_meters":21600,"station_id":"ce4bhih2rcd13ifvqfs0","pricing_plan_id":"cebpf4jnsgd1na2vs0mg"},{"bike_id":"ddb30629-1cf4-4f5b-b2bb-82301a5c6798","system_id":"levelo_inurba_marseille","lat":43.27185,"lon":5.40995,"is_reserved":false,"is_disabled":false,"rental_uris":{"android":"levelo://app?vid=ddb30629-1cf4-4f5b-b2bb-82301a5c6798","ios":"levelo://app?vid=ddb30629-1cf4-4f5b-b2bb-82301a5c6798"},"vehicle_type_id":"4","last_reported":1735830542,"current_range_meters":38400,"station_id":"ce4bhl12rcd13ifvqgf0","pricing_plan_id":"cebpf4jnsgd1na2vs0mg"},{"bike_id":"583adf00-139d-403f-8366-744378ddbd7e","system_id":"levelo_inurba_marseille","lat":43.28375,"lon":5.38638,"is_reserved":false,"is_disabled":false,"rental_uris":{"android":"levelo://app?vid=583adf00-139d-403f-8366-744378ddbd7e","ios":"levelo://app?vid=583adf00-139d-403f-8366-744378ddbd7e"},"vehicle_type_id":"4","last_reported":1735830542,"current_range_meters":38000,"station_id":"ce4bh492rcd13ifvqdvg","pricing_plan_id":"cebpf4jnsgd1na2vs0mg"},{"bike_id":"bf74f451-112d-425a-a196-c988ca0cd039","system_id":"levelo_inurba_marseille","lat":43.30211,"lon":5.39456,"is_reserved":false,"is_disabled":false,"rental_uris":{"android":"levelo://app?vid=bf74f451-112d-425a-a196-c988ca0cd039","ios":"levelo://app?vid=bf74f451-112d-425a-a196-c988ca0cd039"},"vehicle_type_id":"4","last_reported":1735830542,"current_range_meters":38400,"station_id":"ce4bh0p2rcd13ifvqd70","pricing_plan_id":"cebpf4jnsgd1na2vs0mg"},{"bike_id":"3815e6bf-fae6-4941-ab15-7c70eefa9203","system_id":"levelo_inurba_marseille","lat":43.29974,"lon":5.38491,"is_reserved":false,"is_disabled":false,"rental_uris":{"android":"levelo://app?vid=3815e6bf-fae6-4941-ab15-7c70eefa9203","ios":"levelo://app?vid=3815e6bf-fae6-4941-ab15-7c70eefa9203"},"vehicle_type_id":"4","last_reported":1735830542,"current_range_meters":17200,"station_id":"ce4bgj92rcd13ifvqbd0","pricing_plan_id":"cebpf4jnsgd1na2vs0mg"},{"bike_id":"a10cb38b-c0a9-46c5-81e3-8b36eafcdd96","system_id":"levelo_inurba_marseille","lat":43.289693,"lon":5.378405,"is_reserved":false,"is_disabled":true,"rental_uris":{"android":"levelo://app?vid=a10cb38b-c0a9-46c5-81e3-8b36eafcdd96","ios":"levelo://app?vid=a10cb38b-c0a9-46c5-81e3-8b36eafcdd96"},"vehicle_type_id":"4","last_reported":1735830542,"current_range_meters":36800,"station_id":"ce4bh9p2rcd13ifvqed0","pricing_plan_id":"cebpf4jnsgd1na2vs0mg"},{"bike_id":"176dc94c-6fa3-4dff-84cb-4c4762966efe","system_id":"levelo_inurba_marseille","lat":43.27434,"lon":5.39426,"is_reserved":false,"is_disabled":false,"rental_uris":{"android":"levelo://app?vid=176dc94c-6fa3-4dff-84cb-4c4762966efe","ios":"levelo://app?vid=176dc94c-6fa3-4dff-84cb-4c4762966efe"},"vehicle_type_id":"4","last_reported":1735830542,"current_range_meters":32000,"station_id":"ce4bhdp2rcd13ifvqf20","pricing_plan_id":"cebpf4jnsgd1na2vs0mg"},{"bike_id":"c25dfa90-8357-4c06-945d-14c7820c2818","system_id":"levelo_inurba_marseille","lat":43.30926,"lon":5.36851,"is_reserved":false,"is_disabled":false,"rental_uris":{"android":"levelo://app?vid=c25dfa90-8357-4c06-945d-14c7820c2818","ios":"levelo://app?vid=c25dfa90-8357-4c06-945d-14c7820c2818"},"vehicle_type_id":"4","last_reported":1735830542,"current_range_meters":24000,"station_id":"ce4bgn92rcd13ifvqbvg","pricing_plan_id":"cebpf4jnsgd1na2vs0mg"},{"bike_id":"5367a292-5564-4681-91cd-97babb89fc00","system_id":"levelo_inurba_marseille","lat":43.22935,"lon":5.35381,"is_reserved":false,"is_disabled":false,"rental_uris":{"android":"levelo://app?vid=5367a292-5564-4681-91cd-97babb89fc00","ios":"levelo://app?vid=5367a292-5564-4681-91cd-97babb89fc00"},"vehicle_type_id":"4","last_reported":1735830542,"current_range_meters":17600,"station_id":"cpo3532slgdg3j2ikp40","pricing_plan_id":"cebpf4jnsgd1na2vs0mg"},{"bike_id":"e3e4b08f-5375-4166-a7a6-743bae28edbd","system_id":"levelo_inurba_marseille","lat":43.24072,"lon":5.3776,"is_reserved":false,"is_disabled":false,"rental_uris":{"android":"levelo://app?vid=e3e4b08f-5375-4166-a7a6-743bae28edbd","ios":"levelo://app?vid=e3e4b08f-5375-4166-a7a6-743bae28edbd"},"vehicle_type_id":"4","last_reported":1735830542,"current_range_meters":16400,"station_id":"ce4bhnp2rcd13ifvqgvg","pricing_plan_id":"cebpf4jnsgd1na2vs0mg"},{"bike_id":"25b19130-30ce-4313-960d-971420f24360","system_id":"levelo_inurba_marseille","lat":43.29031,"lon":5.38131,"is_reserved":false,"is_disabled":false,"rental_uris":{"android":"levelo://app?vid=25b19130-30ce-4313-960d-971420f24360","ios":"levelo://app?vid=25b19130-30ce-4313-960d-971420f24360"},"vehicle_type_id":"4","last_reported":1735830542,"current_range_meters":39200,"station_id":"ce4bh4p2rcd13ifvqe1g","pricing_plan_id":"cebpf4jnsgd1na2vs0mg"},{"bike_id":"f98fde69-1f61-4a82-80ea-97f37f2d8cf7","system_id":"levelo_inurba_marseille","lat":43.30216,"lon":5.36624,"is_reserved":false,"is_disabled":false,"rental_uris":{"android":"levelo://app?vid=f98fde69-1f61-4a82-80ea-97f37f2d8cf7","ios":"levelo://app?vid=f98fde69-1f61-4a82-80ea-97f37f2d8cf7"},"vehicle_type_id":"4","last_reported":1735830542,"current_range_meters":36000,"station_id":"ce4bgrh2rcd13ifvqc8g","pricing_plan_id":"cebpf4jnsgd1na2vs0mg"},{"bike_id":"536b70a3-fc64-47f8-88ea-2d090653c6fc","system_id":"levelo_inurba_marseille","lat":43.28358,"lon":5.38103,"is_reserved":false,"is_disabled":false,"rental_uris":{"android":"levelo://app?vid=536b70a3-fc64-47f8-88ea-2d090653c6fc","ios":"levelo://app?vid=536b70a3-fc64-47f8-88ea-2d090653c6fc"},"vehicle_type_id":"4","last_reported":1735830542,"current_range_meters":28000,"station_id":"ce4bh412rcd13ifvqdr0","pricing_plan_id":"cebpf4jnsgd1na2vs0mg"},{"bike_id":"d3bbc23a-977b-4b81-88be-f7e0b1a7ab38","system_id":"levelo_inurba_marseille","lat":43.29441,"lon":5.39762,"is_reserved":false,"is_disabled":true,"rental_uris":{"android":"levelo://app?vid=d3bbc23a-977b-4b81-88be-f7e0b1a7ab38","ios":"levelo://app?vid=d3bbc23a-977b-4b81-88be-f7e0b1a7ab38"},"vehicle_type_id":"4","last_reported":1735830542,"current_range_meters":38800,"station_id":"ce4bh3h2rcd13ifvqdo0","pricing_plan_id":"cebpf4jnsgd1na2vs0mg"},{"bike_id":"5a7b0a0d-9b5d-4077-8329-5348777b0903","system_id":"levelo_inurba_marseille","lat":43.29412,"lon":5.38625,"is_reserved":false,"is_disabled":false,"rental_uris":{"android":"levelo://app?vid=5a7b0a0d-9b5d-4077-8329-5348777b0903","ios":"levelo://app?vid=5a7b0a0d-9b5d-4077-8329-5348777b0903"},"vehicle_type_id":"4","last_reported":1735830542,"current_range_meters":29600,"station_id":"ce4bh2h2rcd13ifvqdh0","pricing_plan_id":"cebpf4jnsgd1na2vs0mg"},{"bike_id":"921c161c-81a9-4f62-88c9-fa7031ed1ea4","system_id":"levelo_inurba_marseille","lat":43.30194,"lon":5.36624,"is_reserved":false,"is_disabled":false,"rental_uris":{"android":"levelo://app?vid=921c161c-81a9-4f62-88c9-fa7031ed1ea4","ios":"levelo://app?vid=921c161c-81a9-4f62-88c9-fa7031ed1ea4"},"vehicle_type_id":"4","last_reported":1735830542,"current_range_meters":38800,"station_id":"ce4bgrh2rcd13ifvqc8g","pricing_plan_id":"cebpf4jnsgd1na2vs0mg"},{"bike_id":"4b18fc74-124a-4026-8735-302c08bbdf7e","system_id":"levelo_inurba_marseille","lat":43.28678,"lon":5.38673,"is_reserved":false,"is_disabled":false,"rental_uris":{"android":"levelo://app?vid=4b18fc74-124a-4026-8735-302c08bbdf7e","ios":"levelo://app?vid=4b18fc74-124a-4026-8735-302c08bbdf7e"},"vehicle_type_id":"4","last_reported":1735830542,"current_range_meters":36400,"station_id":"ce4bh492rcd13ifvqdug","pricing_plan_id":"cebpf4jnsgd1na2vs0mg"},{"bike_id":"1c02ae40-e43c-4632-b75b-2df9308dc3fe","system_id":"levelo_inurba_marseille","lat":43.337613,"lon":5.374348,"is_reserved":false,"is_disabled":false,"rental_uris":{"android":"levelo://app?vid=1c02ae40-e43c-4632-b75b-2df9308dc3fe","ios":"levelo://app?vid=1c02ae40-e43c-4632-b75b-2df9308dc3fe"},"vehicle_type_id":"4","last_reported":1735830542,"current_range_meters":38800,"station_id":"","pricing_plan_id":"cebpf4jnsgd1na2vs0mg"},{"bike_id":"476d371d-3017-49e2-b5c2-c13863f0b3e3","system_id":"levelo_inurba_marseille","lat":43.29583,"lon":5.36745,"is_reserved":false,"is_disabled":false,"rental_uris":{"android":"levelo://app?vid=476d371d-3017-49e2-b5c2-c13863f0b3e3","ios":"levelo://app?vid=476d371d-3017-49e2-b5c2-c13863f0b3e3"},"vehicle_type_id":"4","last_reported":1735830542,"current_range_meters":34800,"station_id":"ce4bgph2rcd13ifvqc2g","pricing_plan_id":"cebpf4jnsgd1na2vs0mg"},{"bike_id":"e9be51a1-ef71-4ae5-8ab2-1ac8e1634659","system_id":"levelo_inurba_marseille","lat":43.30153,"lon":5.38094,"is_reserved":false,"is_disabled":false,"rental_uris":{"android":"levelo://app?vid=e9be51a1-ef71-4ae5-8ab2-1ac8e1634659","ios":"levelo://app?vid=e9be51a1-ef71-4ae5-8ab2-1ac8e1634659"},"vehicle_type_id":"4","last_reported":1735830542,"current_range_meters":38800,"station_id":"ce4bgjp2rcd13ifvqbh0","pricing_plan_id":"cebpf4jnsgd1na2vs0mg"},{"bike_id":"8c737257-551a-4388-b542-afefb3c2b631","system_id":"levelo_inurba_marseille","lat":43.25566,"lon":5.38245,"is_reserved":false,"is_disabled":false,"rental_uris":{"android":"levelo://app?vid=8c737257-551a-4388-b542-afefb3c2b631","ios":"levelo://app?vid=8c737257-551a-4388-b542-afefb3c2b631"},"vehicle_type_id":"4","last_reported":1735830542,"current_range_meters":10800,"station_id":"ce4bhih2rcd13ifvqfs0","pricing_plan_id":"cebpf4jnsgd1na2vs0mg"},{"bike_id":"8da4c67d-2ed0-418e-b038-2836a9c86265","system_id":"levelo_inurba_marseille","lat":43.31713,"lon":5.43708,"is_reserved":false,"is_disabled":false,"rental_uris":{"android":"levelo://app?vid=8da4c67d-2ed0-418e-b038-2836a9c86265","ios":"levelo://app?vid=8da4c67d-2ed0-418e-b038-2836a9c86265"},"vehicle_type_id":"4","last_reported":1735830542,"current_range_meters":39200,"station_id":"ce4bhp92rcd13ifvqhcg","pricing_plan_id":"cebpf4jnsgd1na2vs0mg"},{"bike_id":"9fc11948-a0d1-4b39-8d46-5ede6d39db06","system_id":"levelo_inurba_marseille","lat":43.27003,"lon":5.36594,"is_reserved":false,"is_disabled":false,"rental_uris":{"android":"levelo://app?vid=9fc11948-a0d1-4b39-8d46-5ede6d39db06","ios":"levelo://app?vid=9fc11948-a0d1-4b39-8d46-5ede6d39db06"},"vehicle_type_id":"4","last_reported":1735830542,"current_range_meters":3600,"station_id":"","pricing_plan_id":"cebpf4jnsgd1na2vs0mg"},{"bike_id":"dac94ecf-3203-4c89-acc0-21c14e979588","system_id":"levelo_inurba_marseille","lat":43.26719,"lon":5.38276,"is_reserved":false,"is_disabled":false,"rental_uris":{"android":"levelo://app?vid=dac94ecf-3203-4c89-acc0-21c14e979588","ios":"levelo://app?vid=dac94ecf-3203-4c89-acc0-21c14e979588"},"vehicle_type_id":"4","last_reported":1735830542,"current_range_meters":4400,"station_id":"ce4bhg92rcd13ifvqf90","pricing_plan_id":"cebpf4jnsgd1na2vs0mg"},{"bike_id":"3a82e84c-bdfc-4e89-99b4-e43949e92912","system_id":"levelo_inurba_marseille","lat":43.28154,"lon":5.42646,"is_reserved":false,"is_disabled":false,"rental_uris":{"android":"levelo://app?vid=3a82e84c-bdfc-4e89-99b4-e43949e92912","ios":"levelo://app?vid=3a82e84c-bdfc-4e89-99b4-e43949e92912"},"vehicle_type_id":"4","last_reported":1735830542,"current_range_meters":30000,"station_id":"ce4bhnh2rcd13ifvqgug","pricing_plan_id":"cebpf4jnsgd1na2vs0mg"},{"bike_id":"d37ae5cd-3db6-44f8-b62e-f49aa672ae18","system_id":"levelo_inurba_marseille","lat":43.29843,"lon":5.36294,"is_reserved":false,"is_disabled":false,"rental_uris":{"android":"levelo://app?vid=d37ae5cd-3db6-44f8-b62e-f49aa672ae18","ios":"levelo://app?vid=d37ae5cd-3db6-44f8-b62e-f49aa672ae18"},"vehicle_type_id":"4","last_reported":1735830542,"current_range_meters":10000,"station_id":"ce4bgpp2rcd13ifvqc3g","pricing_plan_id":"cebpf4jnsgd1na2vs0mg"},{"bike_id":"9c42c59a-a990-48ee-91ac-32ebebcaabf5","system_id":"levelo_inurba_marseille","lat":43.28483,"lon":5.38412,"is_reserved":false,"is_disabled":false,"rental_uris":{"android":"levelo://app?vid=9c42c59a-a990-48ee-91ac-32ebebcaabf5","ios":"levelo://app?vid=9c42c59a-a990-48ee-91ac-32ebebcaabf5"},"vehicle_type_id":"4","last_reported":1735830542,"current_range_meters":38800,"station_id":"ce4bh512rcd13ifvqe3g","pricing_plan_id":"cebpf4jnsgd1na2vs0mg"},{"bike_id":"69291bfe-1fbc-47bb-943e-968af5fd7747","system_id":"levelo_inurba_marseille","lat":43.26202,"lon":5.37934,"is_reserved":false,"is_disabled":false,"rental_uris":{"android":"levelo://app?vid=69291bfe-1fbc-47bb-943e-968af5fd7747","ios":"levelo://app?vid=69291bfe-1fbc-47bb-943e-968af5fd7747"},"vehicle_type_id":"4","last_reported":1735830542,"current_range_meters":36800,"station_id":"ce4bhjp2rcd13ifvqg90","pricing_plan_id":"cebpf4jnsgd1na2vs0mg"},{"bike_id":"a4dbce69-9906-4587-85ab-874b3da4c1e0","system_id":"levelo_inurba_marseille","lat":43.28422,"lon":5.37511,"is_reserved":false,"is_disabled":false,"rental_uris":{"android":"levelo://app?vid=a4dbce69-9906-4587-85ab-874b3da4c1e0","ios":"levelo://app?vid=a4dbce69-9906-4587-85ab-874b3da4c1e0"},"vehicle_type_id":"4","last_reported":1735830542,"current_range_meters":32000,"station_id":"ce4bh412rcd13ifvqds0","pricing_plan_id":"cebpf4jnsgd1na2vs0mg"},{"bike_id":"283dd65f-1e69-479b-aa6a-9faa4044ac77","system_id":"levelo_inurba_marseille","lat":43.25581,"lon":5.38228,"is_reserved":false,"is_disabled":false,"rental_uris":{"android":"levelo://app?vid=283dd65f-1e69-479b-aa6a-9faa4044ac77","ios":"levelo://app?vid=283dd65f-1e69-479b-aa6a-9faa4044ac77"},"vehicle_type_id":"4","last_reported":1735830542,"current_range_meters":11200,"station_id":"ce4bhih2rcd13ifvqfs0","pricing_plan_id":"cebpf4jnsgd1na2vs0mg"},{"bike_id":"156fbe89-ec74-4e78-81ed-622e3af99409","system_id":"levelo_inurba_marseille","lat":43.29029,"lon":5.38152,"is_reserved":false,"is_disabled":true,"rental_uris":{"android":"levelo://app?vid=156fbe89-ec74-4e78-81ed-622e3af99409","ios":"levelo://app?vid=156fbe89-ec74-4e78-81ed-622e3af99409"},"vehicle_type_id":"4","last_reported":1735830542,"current_range_meters":0,"station_id":"ce4bh4p2rcd13ifvqe1g","pricing_plan_id":"cebpf4jnsgd1na2vs0mg"},{"bike_id":"92288265-5b5f-4e5b-b029-7cd5c66fb395","system_id":"levelo_inurba_marseille","lat":43.29718,"lon":5.37692,"is_reserved":false,"is_disabled":false,"rental_uris":{"android":"levelo://app?vid=92288265-5b5f-4e5b-b029-7cd5c66fb395","ios":"levelo://app?vid=92288265-5b5f-4e5b-b029-7cd5c66fb395"},"vehicle_type_id":"4","last_reported":1735830542,"current_range_meters":25600,"station_id":"ce4bgkh2rcd13ifvqbl0","pricing_plan_id":"cebpf4jnsgd1na2vs0mg"},{"bike_id":"9bf2c934-e80a-4b69-9369-b6399c81de01","system_id":"levelo_inurba_marseille","lat":43.25133,"lon":5.40335,"is_reserved":false,"is_disabled":false,"rental_uris":{"android":"levelo://app?vid=9bf2c934-e80a-4b69-9369-b6399c81de01","ios":"levelo://app?vid=9bf2c934-e80a-4b69-9369-b6399c81de01"},"vehicle_type_id":"4","last_reported":1735830542,"current_range_meters":37600,"station_id":"ce4bhlh2rcd13ifvqgig","pricing_plan_id":"cebpf4jnsgd1na2vs0mg"},{"bike_id":"ff3724d3-70be-4346-8180-67541c2e6bb4","system_id":"levelo_inurba_marseille","lat":43.28928,"lon":5.38405,"is_reserved":false,"is_disabled":false,"rental_uris":{"android":"levelo://app?vid=ff3724d3-70be-4346-8180-67541c2e6bb4","ios":"levelo://app?vid=ff3724d3-70be-4346-8180-67541c2e6bb4"},"vehicle_type_id":"4","last_reported":1735830542,"current_range_meters":24800,"station_id":"ce4bh612rcd13ifvqe6g","pricing_plan_id":"cebpf4jnsgd1na2vs0mg"},{"bike_id":"e3c45917-4591-4255-99bc-34f4c7c9f645","system_id":"levelo_inurba_marseille","lat":43.29303,"lon":5.37455,"is_reserved":false,"is_disabled":false,"rental_uris":{"android":"levelo://app?vid=e3c45917-4591-4255-99bc-34f4c7c9f645","ios":"levelo://app?vid=e3c45917-4591-4255-99bc-34f4c7c9f645"},"vehicle_type_id":"4","last_reported":1735830542,"current_range_meters":9600,"station_id":"ce4bgi12rcd13ifvqb70","pricing_plan_id":"cebpf4jnsgd1na2vs0mg"},{"bike_id":"b29c6439-d85b-4fbb-adb7-0b98b69a6e6c","system_id":"levelo_inurba_marseille","lat":43.28709,"lon":5.39972,"is_reserved":false,"is_disabled":false,"rental_uris":{"android":"levelo://app?vid=b29c6439-d85b-4fbb-adb7-0b98b69a6e6c","ios":"levelo://app?vid=b29c6439-d85b-4fbb-adb7-0b98b69a6e6c"},"vehicle_type_id":"4","last_reported":1735830542,"current_range_meters":36800,"station_id":"ce4bho92rcd13ifvqh3g","pricing_plan_id":"cebpf4jnsgd1na2vs0mg"},{"bike_id":"5f5ba368-4235-4a9c-98c8-f0ef0a814acd","system_id":"levelo_inurba_marseille","lat":43.29799,"lon":5.40407,"is_reserved":false,"is_disabled":false,"rental_uris":{"android":"levelo://app?vid=5f5ba368-4235-4a9c-98c8-f0ef0a814acd","ios":"levelo://app?vid=5f5ba368-4235-4a9c-98c8-f0ef0a814acd"},"vehicle_type_id":"4","last_reported":1735830542,"current_range_meters":8400,"station_id":"ce4bh112rcd13ifvqd90","pricing_plan_id":"cebpf4jnsgd1na2vs0mg"},{"bike_id":"9c23194b-edc8-4913-abc5-3db87f1bd370","system_id":"levelo_inurba_marseille","lat":43.28162,"lon":5.42641,"is_reserved":false,"is_disabled":false,"rental_uris":{"android":"levelo://app?vid=9c23194b-edc8-4913-abc5-3db87f1bd370","ios":"levelo://app?vid=9c23194b-edc8-4913-abc5-3db87f1bd370"},"vehicle_type_id":"4","last_reported":1735830542,"current_range_meters":18800,"station_id":"ce4bhnh2rcd13ifvqgug","pricing_plan_id":"cebpf4jnsgd1na2vs0mg"},{"bike_id":"c14d1989-a72f-4241-a582-39661d0bcfcf","system_id":"levelo_inurba_marseille","lat":43.23199,"lon":5.35546,"is_reserved":false,"is_disabled":false,"rental_uris":{"android":"levelo://app?vid=c14d1989-a72f-4241-a582-39661d0bcfcf","ios":"levelo://app?vid=c14d1989-a72f-4241-a582-39661d0bcfcf"},"vehicle_type_id":"4","last_reported":1735830542,"current_range_meters":38800,"station_id":"ce4bhu92rcd13ifvqi70","pricing_plan_id":"cebpf4jnsgd1na2vs0mg"},{"bike_id":"ef72cdb4-465d-4178-b952-49906f159c48","system_id":"levelo_inurba_marseille","lat":43.28156,"lon":5.42624,"is_reserved":false,"is_disabled":false,"rental_uris":{"android":"levelo://app?vid=ef72cdb4-465d-4178-b952-49906f159c48","ios":"levelo://app?vid=ef72cdb4-465d-4178-b952-49906f159c48"},"vehicle_type_id":"4","last_reported":1735830542,"current_range_meters":26800,"station_id":"ce4bhnh2rcd13ifvqgug","pricing_plan_id":"cebpf4jnsgd1na2vs0mg"},{"bike_id":"11a2c895-12fd-42f9-96c6-24892dc7f066","system_id":"levelo_inurba_marseille","lat":43.29708,"lon":5.37701,"is_reserved":false,"is_disabled":false,"rental_uris":{"android":"levelo://app?vid=11a2c895-12fd-42f9-96c6-24892dc7f066","ios":"levelo://app?vid=11a2c895-12fd-42f9-96c6-24892dc7f066"},"vehicle_type_id":"4","last_reported":1735830542,"current_range_meters":38800,"station_id":"ce4bgkh2rcd13ifvqbl0","pricing_plan_id":"cebpf4jnsgd1na2vs0mg"},{"bike_id":"737328a8-9137-4f2e-bc7e-78311a9298e7","system_id":"levelo_inurba_marseille","lat":43.317097,"lon":5.377453,"is_reserved":false,"is_disabled":false,"rental_uris":{"android":"levelo://app?vid=737328a8-9137-4f2e-bc7e-78311a9298e7","ios":"levelo://app?vid=737328a8-9137-4f2e-bc7e-78311a9298e7"},"vehicle_type_id":"4","last_reported":1735830542,"current_range_meters":28800,"station_id":"ce4bgth2rcd13ifvqch0","pricing_plan_id":"cebpf4jnsgd1na2vs0mg"},{"bike_id":"3911872f-e1d9-46a4-81c8-8061d134e344","system_id":"levelo_inurba_marseille","lat":43.31304,"lon":5.36825,"is_reserved":false,"is_disabled":false,"rental_uris":{"android":"levelo://app?vid=3911872f-e1d9-46a4-81c8-8061d134e344","ios":"levelo://app?vid=3911872f-e1d9-46a4-81c8-8061d134e344"},"vehicle_type_id":"4","last_reported":1735830542,"current_range_meters":6400,"station_id":"","pricing_plan_id":"cebpf4jnsgd1na2vs0mg"},{"bike_id":"0b1c27a8-912f-47de-83f1-1d9fe5bc3168","system_id":"levelo_inurba_marseille","lat":43.24828,"lon":5.375088,"is_reserved":false,"is_disabled":true,"rental_uris":{"android":"levelo://app?vid=0b1c27a8-912f-47de-83f1-1d9fe5bc3168","ios":"levelo://app?vid=0b1c27a8-912f-47de-83f1-1d9fe5bc3168"},"vehicle_type_id":"4","last_reported":1735830542,"current_range_meters":2000,"station_id":"ce4bhgh2rcd13ifvqfb0","pricing_plan_id":"cebpf4jnsgd1na2vs0mg"},{"bike_id":"bb1456c3-905a-4166-afeb-abbb20ced929","system_id":"levelo_inurba_marseille","lat":43.29691,"lon":5.37695,"is_reserved":false,"is_disabled":false,"rental_uris":{"android":"levelo://app?vid=bb1456c3-905a-4166-afeb-abbb20ced929","ios":"levelo://app?vid=bb1456c3-905a-4166-afeb-abbb20ced929"},"vehicle_type_id":"4","last_reported":1735830542,"current_range_meters":30800,"station_id":"ce4bgkh2rcd13ifvqbl0","pricing_plan_id":"cebpf4jnsgd1na2vs0mg"},{"bike_id":"33e409ac-8abf-45c8-a1a1-e962bf9a8b41","system_id":"levelo_inurba_marseille","lat":43.302958,"lon":5.392027,"is_reserved":false,"is_disabled":false,"rental_uris":{"android":"levelo://app?vid=33e409ac-8abf-45c8-a1a1-e962bf9a8b41","ios":"levelo://app?vid=33e409ac-8abf-45c8-a1a1-e962bf9a8b41"},"vehicle_type_id":"4","last_reported":1735830542,"current_range_meters":38800,"station_id":"ce4bgkh2rcd13ifvqbk0","pricing_plan_id":"cebpf4jnsgd1na2vs0mg"},{"bike_id":"3a40591d-900b-4d7f-952b-f556f174a72a","system_id":"levelo_inurba_marseille","lat":43.27832,"lon":5.40768,"is_reserved":false,"is_disabled":false,"rental_uris":{"android":"levelo://app?vid=3a40591d-900b-4d7f-952b-f556f174a72a","ios":"levelo://app?vid=3a40591d-900b-4d7f-952b-f556f174a72a"},"vehicle_type_id":"4","last_reported":1735830542,"current_range_meters":14800,"station_id":"ce4bhnh2rcd13ifvqgtg","pricing_plan_id":"cebpf4jnsgd1na2vs0mg"},{"bike_id":"44377e14-c431-47f9-879d-d27236127509","system_id":"levelo_inurba_marseille","lat":43.25837,"lon":5.39428,"is_reserved":false,"is_disabled":false,"rental_uris":{"android":"levelo://app?vid=44377e14-c431-47f9-879d-d27236127509","ios":"levelo://app?vid=44377e14-c431-47f9-879d-d27236127509"},"vehicle_type_id":"4","last_reported":1735830542,"current_range_meters":18000,"station_id":"ce4bhip2rcd13ifvqft0","pricing_plan_id":"cebpf4jnsgd1na2vs0mg"},{"bike_id":"d1adadd0-7c87-44a2-90dd-d7efa9d56566","system_id":"levelo_inurba_marseille","lat":43.23188,"lon":5.39994,"is_reserved":false,"is_disabled":false,"rental_uris":{"android":"levelo://app?vid=d1adadd0-7c87-44a2-90dd-d7efa9d56566","ios":"levelo://app?vid=d1adadd0-7c87-44a2-90dd-d7efa9d56566"},"vehicle_type_id":"4","last_reported":1735830542,"current_range_meters":26800,"station_id":"ce4bhn12rcd13ifvqgqg","pricing_plan_id":"cebpf4jnsgd1na2vs0mg"},{"bike_id":"34535594-ceb9-4842-97f7-a9b9fbaa6b25","system_id":"levelo_inurba_marseille","lat":43.29579,"lon":5.37505,"is_reserved":false,"is_disabled":true,"rental_uris":{"android":"levelo://app?vid=34535594-ceb9-4842-97f7-a9b9fbaa6b25","ios":"levelo://app?vid=34535594-ceb9-4842-97f7-a9b9fbaa6b25"},"vehicle_type_id":"4","last_reported":1735830542,"current_range_meters":0,"station_id":"ce4bgh92rcd13ifvqb50","pricing_plan_id":"cebpf4jnsgd1na2vs0mg"},{"bike_id":"ea17ce47-a95a-42b4-a1e2-424273d06b74","system_id":"levelo_inurba_marseille","lat":43.30462,"lon":5.37904,"is_reserved":false,"is_disabled":false,"rental_uris":{"android":"levelo://app?vid=ea17ce47-a95a-42b4-a1e2-424273d06b74","ios":"levelo://app?vid=ea17ce47-a95a-42b4-a1e2-424273d06b74"},"vehicle_type_id":"4","last_reported":1735830542,"current_range_meters":38000,"station_id":"ce4bgup2rcd13ifvqcn0","pricing_plan_id":"cebpf4jnsgd1na2vs0mg"},{"bike_id":"ba4e6e02-b58c-4fd7-9cef-9f6d57669527","system_id":"levelo_inurba_marseille","lat":43.25125,"lon":5.4034,"is_reserved":false,"is_disabled":false,"rental_uris":{"android":"levelo://app?vid=ba4e6e02-b58c-4fd7-9cef-9f6d57669527","ios":"levelo://app?vid=ba4e6e02-b58c-4fd7-9cef-9f6d57669527"},"vehicle_type_id":"4","last_reported":1735830542,"current_range_meters":38800,"station_id":"ce4bhlh2rcd13ifvqgig","pricing_plan_id":"cebpf4jnsgd1na2vs0mg"},{"bike_id":"98a7827d-a1bc-4718-8b56-9f96635e2a7b","system_id":"levelo_inurba_marseille","lat":43.29446,"lon":5.39746,"is_reserved":false,"is_disabled":false,"rental_uris":{"android":"levelo://app?vid=98a7827d-a1bc-4718-8b56-9f96635e2a7b","ios":"levelo://app?vid=98a7827d-a1bc-4718-8b56-9f96635e2a7b"},"vehicle_type_id":"4","last_reported":1735830542,"current_range_meters":35200,"station_id":"ce4bh3h2rcd13ifvqdo0","pricing_plan_id":"cebpf4jnsgd1na2vs0mg"},{"bike_id":"4f4774d1-7ef7-4db5-bcb5-0e3ebe33e321","system_id":"levelo_inurba_marseille","lat":43.29008,"lon":5.3561,"is_reserved":false,"is_disabled":false,"rental_uris":{"android":"levelo://app?vid=4f4774d1-7ef7-4db5-bcb5-0e3ebe33e321","ios":"levelo://app?vid=4f4774d1-7ef7-4db5-bcb5-0e3ebe33e321"},"vehicle_type_id":"4","last_reported":1735830542,"current_range_meters":38800,"station_id":"ce4bhb92rcd13ifvqen0","pricing_plan_id":"cebpf4jnsgd1na2vs0mg"},{"bike_id":"11ea363d-af94-43d2-b014-a650d73520e3","system_id":"levelo_inurba_marseille","lat":43.29005,"lon":5.35611,"is_reserved":false,"is_disabled":false,"rental_uris":{"android":"levelo://app?vid=11ea363d-af94-43d2-b014-a650d73520e3","ios":"levelo://app?vid=11ea363d-af94-43d2-b014-a650d73520e3"},"vehicle_type_id":"4","last_reported":1735830542,"current_range_meters":29600,"station_id":"ce4bhb92rcd13ifvqen0","pricing_plan_id":"cebpf4jnsgd1na2vs0mg"},{"bike_id":"ffafa3ee-52dc-40b9-ad12-7f89cbac4b6a","system_id":"levelo_inurba_marseille","lat":43.25128,"lon":5.40325,"is_reserved":false,"is_disabled":false,"rental_uris":{"android":"levelo://app?vid=ffafa3ee-52dc-40b9-ad12-7f89cbac4b6a","ios":"levelo://app?vid=ffafa3ee-52dc-40b9-ad12-7f89cbac4b6a"},"vehicle_type_id":"4","last_reported":1735830542,"current_range_meters":29600,"station_id":"ce4bhlh2rcd13ifvqgig","pricing_plan_id":"cebpf4jnsgd1na2vs0mg"},{"bike_id":"13a9cb8a-0f28-4655-9171-9a226e701240","system_id":"levelo_inurba_marseille","lat":43.32545,"lon":5.41451,"is_reserved":false,"is_disabled":false,"rental_uris":{"android":"levelo://app?vid=13a9cb8a-0f28-4655-9171-9a226e701240","ios":"levelo://app?vid=13a9cb8a-0f28-4655-9171-9a226e701240"},"vehicle_type_id":"4","last_reported":1735830542,"current_range_meters":38800,"station_id":"ce4bhq12rcd13ifvqhhg","pricing_plan_id":"cebpf4jnsgd1na2vs0mg"},{"bike_id":"c99361f9-cd33-473e-aa31-2f12f62d942d","system_id":"levelo_inurba_marseille","lat":43.29192,"lon":5.35819,"is_reserved":false,"is_disabled":false,"rental_uris":{"android":"levelo://app?vid=c99361f9-cd33-473e-aa31-2f12f62d942d","ios":"levelo://app?vid=c99361f9-cd33-473e-aa31-2f12f62d942d"},"vehicle_type_id":"4","last_reported":1735830542,"current_range_meters":38400,"station_id":"ce4bhb12rcd13ifvqel0","pricing_plan_id":"cebpf4jnsgd1na2vs0mg"},{"bike_id":"d154997f-b603-4fcb-bd08-5830818e5c30","system_id":"levelo_inurba_marseille","lat":43.26788,"lon":5.39429,"is_reserved":false,"is_disabled":false,"rental_uris":{"android":"levelo://app?vid=d154997f-b603-4fcb-bd08-5830818e5c30","ios":"levelo://app?vid=d154997f-b603-4fcb-bd08-5830818e5c30"},"vehicle_type_id":"4","last_reported":1735830542,"current_range_meters":12000,"station_id":"ce4bhh12rcd13ifvqfg0","pricing_plan_id":"cebpf4jnsgd1na2vs0mg"},{"bike_id":"264735d6-4cb8-459d-b029-fe9440eef554","system_id":"levelo_inurba_marseille","lat":43.29899,"lon":5.38148,"is_reserved":false,"is_disabled":false,"rental_uris":{"android":"levelo://app?vid=264735d6-4cb8-459d-b029-fe9440eef554","ios":"levelo://app?vid=264735d6-4cb8-459d-b029-fe9440eef554"},"vehicle_type_id":"4","last_reported":1735830542,"current_range_meters":38800,"station_id":"ce4bgj12rcd13ifvqbc0","pricing_plan_id":"cebpf4jnsgd1na2vs0mg"},{"bike_id":"4b8ba28b-f315-429e-87d4-6eba71298996","system_id":"levelo_inurba_marseille","lat":43.27421,"lon":5.3941,"is_reserved":false,"is_disabled":false,"rental_uris":{"android":"levelo://app?vid=4b8ba28b-f315-429e-87d4-6eba71298996","ios":"levelo://app?vid=4b8ba28b-f315-429e-87d4-6eba71298996"},"vehicle_type_id":"4","last_reported":1735830542,"current_range_meters":38800,"station_id":"ce4bhdp2rcd13ifvqf20","pricing_plan_id":"cebpf4jnsgd1na2vs0mg"},{"bike_id":"c58be060-f93a-4598-be18-5003b52344c0","system_id":"levelo_inurba_marseille","lat":43.297262,"lon":5.376933,"is_reserved":false,"is_disabled":false,"rental_uris":{"android":"levelo://app?vid=c58be060-f93a-4598-be18-5003b52344c0","ios":"levelo://app?vid=c58be060-f93a-4598-be18-5003b52344c0"},"vehicle_type_id":"4","last_reported":1735830542,"current_range_meters":30800,"station_id":"ce4bgkh2rcd13ifvqbl0","pricing_plan_id":"cebpf4jnsgd1na2vs0mg"},{"bike_id":"5d18ea76-125e-4d6b-b841-4035a68bb93b","system_id":"levelo_inurba_marseille","lat":43.27944,"lon":5.41055,"is_reserved":false,"is_disabled":false,"rental_uris":{"android":"levelo://app?vid=5d18ea76-125e-4d6b-b841-4035a68bb93b","ios":"levelo://app?vid=5d18ea76-125e-4d6b-b841-4035a68bb93b"},"vehicle_type_id":"4","last_reported":1735830542,"current_range_meters":13600,"station_id":"ce4bhnp2rcd13ifvqh0g","pricing_plan_id":"cebpf4jnsgd1na2vs0mg"},{"bike_id":"029f43dd-752f-4e3f-bb44-2a712d214ab7","system_id":"levelo_inurba_marseille","lat":43.32369,"lon":5.38886,"is_reserved":false,"is_disabled":false,"rental_uris":{"android":"levelo://app?vid=029f43dd-752f-4e3f-bb44-2a712d214ab7","ios":"levelo://app?vid=029f43dd-752f-4e3f-bb44-2a712d214ab7"},"vehicle_type_id":"4","last_reported":1735830542,"current_range_meters":36800,"station_id":"ce4bhqp2rcd13ifvqhog","pricing_plan_id":"cebpf4jnsgd1na2vs0mg"},{"bike_id":"8c92294b-d0a1-481c-8871-670eb8537207","system_id":"levelo_inurba_marseille","lat":43.29192,"lon":5.35808,"is_reserved":false,"is_disabled":false,"rental_uris":{"android":"levelo://app?vid=8c92294b-d0a1-481c-8871-670eb8537207","ios":"levelo://app?vid=8c92294b-d0a1-481c-8871-670eb8537207"},"vehicle_type_id":"4","last_reported":1735830542,"current_range_meters":22000,"station_id":"ce4bhb12rcd13ifvqel0","pricing_plan_id":"cebpf4jnsgd1na2vs0mg"},{"bike_id":"a3f2337c-b9d8-470b-974d-da6ebb6f627f","system_id":"levelo_inurba_marseille","lat":43.27206,"lon":5.392,"is_reserved":false,"is_disabled":false,"rental_uris":{"android":"levelo://app?vid=a3f2337c-b9d8-470b-974d-da6ebb6f627f","ios":"levelo://app?vid=a3f2337c-b9d8-470b-974d-da6ebb6f627f"},"vehicle_type_id":"4","last_reported":1735830542,"current_range_meters":38800,"station_id":"ce4bhhp2rcd13ifvqfm0","pricing_plan_id":"cebpf4jnsgd1na2vs0mg"},{"bike_id":"a3568aab-1d34-4bdf-8c0c-ec81886f6177","system_id":"levelo_inurba_marseille","lat":43.33752,"lon":5.37413,"is_reserved":false,"is_disabled":true,"rental_uris":{"android":"levelo://app?vid=a3568aab-1d34-4bdf-8c0c-ec81886f6177","ios":"levelo://app?vid=a3568aab-1d34-4bdf-8c0c-ec81886f6177"},"vehicle_type_id":"4","last_reported":1735830542,"current_range_meters":23200,"station_id":"","pricing_plan_id":"cebpf4jnsgd1na2vs0mg"},{"bike_id":"ed4dbcc4-f608-4426-b6bf-fd3c5a96d3bc","system_id":"levelo_inurba_marseille","lat":43.2623,"lon":5.37449,"is_reserved":false,"is_disabled":false,"rental_uris":{"android":"levelo://app?vid=ed4dbcc4-f608-4426-b6bf-fd3c5a96d3bc","ios":"levelo://app?vid=ed4dbcc4-f608-4426-b6bf-fd3c5a96d3bc"},"vehicle_type_id":"4","last_reported":1735830542,"current_range_meters":32000,"station_id":"","pricing_plan_id":"cebpf4jnsgd1na2vs0mg"},{"bike_id":"f81f8f42-4e97-4dba-bc28-54596ffdcc3b","system_id":"levelo_inurba_marseille","lat":43.27995,"lon":5.40019,"is_reserved":false,"is_disabled":false,"rental_uris":{"android":"levelo://app?vid=f81f8f42-4e97-4dba-bc28-54596ffdcc3b","ios":"levelo://app?vid=f81f8f42-4e97-4dba-bc28-54596ffdcc3b"},"vehicle_type_id":"4","last_reported":1735830542,"current_range_meters":38800,"station_id":"ce4bho92rcd13ifvqh4g","pricing_plan_id":"cebpf4jnsgd1na2vs0mg"},{"bike_id":"fb3c7c74-4485-4687-9089-75f131321341","system_id":"levelo_inurba_marseille","lat":43.29715,"lon":5.36581,"is_reserved":false,"is_disabled":false,"rental_uris":{"android":"levelo://app?vid=fb3c7c74-4485-4687-9089-75f131321341","ios":"levelo://app?vid=fb3c7c74-4485-4687-9089-75f131321341"},"vehicle_type_id":"4","last_reported":1735830542,"current_range_meters":38800,"station_id":"ce4bgn12rcd13ifvqbt0","pricing_plan_id":"cebpf4jnsgd1na2vs0mg"},{"bike_id":"3cb0697e-140d-4785-82a6-d1feb2912436","system_id":"levelo_inurba_marseille","lat":43.27445,"lon":5.39407,"is_reserved":false,"is_disabled":false,"rental_uris":{"android":"levelo://app?vid=3cb0697e-140d-4785-82a6-d1feb2912436","ios":"levelo://app?vid=3cb0697e-140d-4785-82a6-d1feb2912436"},"vehicle_type_id":"4","last_reported":1735830542,"current_range_meters":33600,"station_id":"ce4bhdp2rcd13ifvqf20","pricing_plan_id":"cebpf4jnsgd1na2vs0mg"},{"bike_id":"b076777c-c7d4-4d57-a362-f7c06db05aa2","system_id":"levelo_inurba_marseille","lat":43.23288,"lon":5.43614,"is_reserved":false,"is_disabled":false,"rental_uris":{"android":"levelo://app?vid=b076777c-c7d4-4d57-a362-f7c06db05aa2","ios":"levelo://app?vid=b076777c-c7d4-4d57-a362-f7c06db05aa2"},"vehicle_type_id":"4","last_reported":1735830542,"current_range_meters":37600,"station_id":"ce4bhmp2rcd13ifvqgog","pricing_plan_id":"cebpf4jnsgd1na2vs0mg"},{"bike_id":"4c7f73e7-45b8-44e8-949d-529480765a7e","system_id":"levelo_inurba_marseille","lat":43.28042,"lon":5.36932,"is_reserved":false,"is_disabled":true,"rental_uris":{"android":"levelo://app?vid=4c7f73e7-45b8-44e8-949d-529480765a7e","ios":"levelo://app?vid=4c7f73e7-45b8-44e8-949d-529480765a7e"},"vehicle_type_id":"4","last_reported":1735830542,"current_range_meters":9600,"station_id":"ce4bha12rcd13ifvqef0","pricing_plan_id":"cebpf4jnsgd1na2vs0mg"},{"bike_id":"c103fcd5-2a23-4194-8689-29c87be28f87","system_id":"levelo_inurba_marseille","lat":43.29045,"lon":5.38161,"is_reserved":false,"is_disabled":true,"rental_uris":{"android":"levelo://app?vid=c103fcd5-2a23-4194-8689-29c87be28f87","ios":"levelo://app?vid=c103fcd5-2a23-4194-8689-29c87be28f87"},"vehicle_type_id":"4","last_reported":1735830542,"current_range_meters":38800,"station_id":"ce4bh4p2rcd13ifvqe1g","pricing_plan_id":"cebpf4jnsgd1na2vs0mg"},{"bike_id":"ba88c1fc-4eef-473f-abb5-6e0d155a0d19","system_id":"levelo_inurba_marseille","lat":43.2905,"lon":5.39961,"is_reserved":false,"is_disabled":false,"rental_uris":{"android":"levelo://app?vid=ba88c1fc-4eef-473f-abb5-6e0d155a0d19","ios":"levelo://app?vid=ba88c1fc-4eef-473f-abb5-6e0d155a0d19"},"vehicle_type_id":"4","last_reported":1735830542,"current_range_meters":28800,"station_id":"ce4bh392rcd13ifvqdm0","pricing_plan_id":"cebpf4jnsgd1na2vs0mg"},