{"last_updated":1749802514,"ttl":60,"version":"2.2","data":{"bikes":[{"bike_id":"b31f0139-170f-4194-984f-4386218a1e9d","system_id":"levelo_inurba_marseille","lat":43.33771,"lon":5.37424,"is_reserved":false,"is_disabled":true,"rental_uris":{"android":"levelo://app?vid=b31f0139-170f-4194-984f-4386218a1e9d","ios":"levelo://app?vid=b31f0139-170f-4194-984f-4386218a1e9d"},"vehicle_type_id":"4","last_reported":1749802515,"current_range_meters":0,"station_id":"","pricing_plan_id":"cebpf4jnsgd1na2vs0mg"},{"bike_id":"1acfb620-cad7-48c0-8901-d7a5b74a5b65","system_id":"levelo_inurba_marseille","lat":43.33751,"lon":5.37456,"is_reserved":false,"is_disabled":false,"rental_uris":{"android":"levelo://app?vid=1acfb620-cad7-48c0-8901-d7a5b74a5b65","ios":"levelo://app?vid=1acfb620-cad7-48c0-8901-d7a5b74a5b65"},"vehicle_type_id":"4","last_reported":1749802515,"current_range_meters":4400,"station_id":"","pricing_plan_id":"cebpf4jnsgd1na2vs0mg"},{"bike_id":"bf89d78c-eb96-40d5-beb0-f402ef102cc1","system_id":"levelo_inurba_marseille","lat":43.337444,"lon":5.374475,"is_reserved":false,"is_disabled":true,"rental_uris":{"android":"levelo://app?vid=bf89d78c-eb96-40d5-beb0-f402ef102cc1","ios":"levelo://app?vid=bf89d78c-eb96-40d5-beb0-f402ef102cc1"},"vehicle_type_id":"4","last_reported":1749802515,"current_range_meters":0,"station_id":"","pricing_plan_id":"cebpf4jnsgd1na2vs0mg"},{"bike_id":"18bbd17f-ef9e-4818-b6a1-2959feee4372","system_id":"levelo_inurba_marseille","lat":43.307,"lon":5.37038,"is_reserved":false,"is_disabled":true,"rental_uris":{"android":"levelo://app?vid=18bbd17f-ef9e-4818-b6a1-2959feee4372","ios":"levelo://app?vid=18bbd17f-ef9e-4818-b6a1-2959feee4372"},"vehicle_type_id":"4","last_reported":1749802515,"current_range_meters":0,"station_id":"","pricing_plan_id":"cebpf4jnsgd1na2vs0mg"},{"bike_id":"7c6a9c32-3bbe-4d4c-8294-1969d0688a87","system_id":"levelo_inurba_marseille","lat":43.28472,"lon":5.42067,"is_reserved":false,"is_disabled":true,"rental_uris":{"android":"levelo://app?vid=7c6a9c32-3bbe-4d4c-8294-1969d0688a87","ios":"levelo://app?vid=7c6a9c32-3bbe-4d4c-8294-1969d0688a87"},"vehicle_type_id":"4","last_reported":1749802515,"current_range_meters":0,"station_id":"","pricing_plan_id":"cebpf4jnsgd1na2vs0mg"},{"bike_id":"66b1cbfb-c132-4ef4-922c-0beab9b5a350","system_id":"levelo_inurba_marseille","lat":43.29755,"lon":5.46014,"is_reserved":false,"is_disabled":true,"rental_uris":{"android":"levelo://app?vid=66b1cbfb-c132-4ef4-922c-0beab9b5a350","ios":"levelo://app?vid=66b1cbfb-c132-4ef4-922c-0beab9b5a350"},"vehicle_type_id":"4","last_reported":1749802515,"current_range_meters":0,"station_id":"","pricing_plan_id":"cebpf4jnsgd1na2vs0mg"},{"bike_id":"492f4bbd-1190-4ef2-b66a-479ffe91b09b","system_id":"levelo_inurba_marseille","lat":43.337444,"lon":5.374475,"is_reserved":false,"is_disabled":true,"rental_uris":{"android":"levelo://app?vid=492f4bbd-1190-4ef2-b66a-479ffe91b09b","ios":"levelo://app?vid=492f4bbd-1190-4ef2-b66a-479ffe91b09b"},"vehicle_type_id":"4","last_reported":1749802515,"current_range_meters":0,"station_id":"","pricing_plan_id":"cebpf4jnsgd1na2vs0mg"},{"bike_id":"b7223bce-535c-4df5-bb89-a04f8cb64b97","system_id":"levelo_inurba_marseille","lat":43.31294,"lon":5.37562,"is_reserved":false,"is_disabled":true,"rental_uris":{"android":"levelo://app?vid=b7223bce-535c-4df5-bb89-a04f8cb64b97","ios":"levelo://app?vid=b7223bce-535c-4df5-bb89-a04f8cb64b97"},"vehicle_type_id":"4","last_reported":1749802515,"current_range_meters":0,"station_id":"","pricing_plan_id":"cebpf4jnsgd1na2vs0mg"},{"bike_id":"a9b6bf99-4070-4437-bb20-72962ae30b90","system_id":"levelo_inurba_marseille","lat":43.27455,"lon":5.36403,"is_reserved":false,"is_disabled":true,"rental_uris":{"android":"levelo://app?vid=a9b6bf99-4070-4437-bb20-72962ae30b90","ios":"levelo://app?vid=a9b6bf99-4070-4437-bb20-72962ae30b90"},"vehicle_type_id":"4","last_reported":1749802515,"current_range_meters":0,"station_id":"","pricing_plan_id":"cebpf4jnsgd1na2vs0mg"},{"bike_id":"70c4721e-13ce-4ce0-899d-526851a9f63a","system_id":"levelo_inurba_marseille","lat":43.29937,"lon":5.36544,"is_reserved":false,"is_disabled":true,"rental_uris":{"android":"levelo://app?vid=70c4721e-13ce-4ce0-899d-526851a9f63a","ios":"levelo://app?vid=70c4721e-13ce-4ce0-899d-526851a9f63a"},"vehicle_type_id":"4","last_reported":1749802515,"current_range_meters":0,"station_id":"ce4bgm92rcd13ifvqbr0","pricing_plan_id":"cebpf4jnsgd1na2vs0mg"},{"bike_id":"915ad2b1-7600-48d8-874e-2481dd9ca06d","system_id":"levelo_inurba_marseille","lat":43.30955,"lon":5.39027,"is_reserved":false,"is_disabled":true,"rental_uris":{"android":"levelo://app?vid=915ad2b1-7600-48d8-874e-2481dd9ca06d","ios":"levelo://app?vid=915ad2b1-7600-48d8-874e-2481dd9ca06d"},"vehicle_type_id":"4","last_reported":1749802515,"current_range_meters":0,"station_id":"ce4bgup2rcd13ifvqco0","pricing_plan_id":"cebpf4jnsgd1na2vs0mg"},{"bike_id":"4e650c3c-fcda-4c43-ab0a-0720e4a729ee","system_id":"levelo_inurba_marseille","lat":43.29008,"lon":5.356149,"is_reserved":false,"is_disabled":true,"rental_uris":{"android":"levelo://app?vid=4e650c3c-fcda-4c43-ab0a-0720e4a729ee","ios":"levelo://app?vid=4e650c3c-fcda-4c43-ab0a-0720e4a729ee"},"vehicle_type_id":"4","last_reported":1749802515,"current_range_meters":0,"station_id":"ce4bhb92rcd13ifvqen0","pricing_plan_id":"cebpf4jnsgd1na2vs0mg"},{"bike_id":"378106bf-445a-4ca9-8b32-89b28c5f3486","system_id":"levelo_inurba_marseille","lat":43.24205,"lon":5.3972,"is_reserved":false,"is_disabled":true,"rental_uris":{"android":"levelo://app?vid=378106bf-445a-4ca9-8b32-89b28c5f3486","ios":"levelo://app?vid=378106bf-445a-4ca9-8b32-89b28c5f3486"},"vehicle_type_id":"4","last_reported":1749802515,"current_range_meters":0,"station_id":"ce4bhn12rcd13ifvqgpg","pricing_plan_id":"cebpf4jnsgd1na2vs0mg"},{"bike_id":"a6059978-6375-44f1-965f-99de05c08aaf","system_id":"levelo_inurba_marseille","lat":43.30349,"lon":5.41888,"is_reserved":false,"is_disabled":true,"rental_uris":{"android":"levelo://app?vid=a6059978-6375-44f1-965f-99de05c08aaf","ios":"levelo://app?vid=a6059978-6375-44f1-965f-99de05c08aaf"},"vehicle_type_id":"4","last_reported":1749802515,"current_range_meters":0,"station_id":"ce4bhop2rcd13ifvqh7g","pricing_plan_id":"cebpf4jnsgd1na2vs0mg"},{"bike_id":"b3e697f7-00b4-4362-b589-55d2d2ef404d","system_id":"levelo_inurba_marseille","lat":43.34141,"lon":5.40903,"is_reserved":false,"is_disabled":true,"rental_uris":{"android":"levelo://app?vid=b3e697f7-00b4-4362-b589-55d2d2ef404d","ios":"levelo://app?vid=b3e697f7-00b4-4362-b589-55d2d2ef404d"},"vehicle_type_id":"4","last_reported":1749802515,"current_range_meters":0,"station_id":"ce4bhqh2rcd13ifvqhlg","pricing_plan_id":"cebpf4jnsgd1na2vs0mg"},{"bike_id":"5077581b-cebb-46fc-ba69-4fa8272d4810","system_id":"levelo_inurba_marseille","lat":43.21389,"lon":5.35552,"is_reserved":false,"is_disabled":true,"rental_uris":{"android":"levelo://app?vid=5077581b-cebb-46fc-ba69-4fa8272d4810","ios":"levelo://app?vid=5077581b-cebb-46fc-ba69-4fa8272d4810"},"vehicle_type_id":"4","last_reported":1749802515,"current_range_meters":800,"station_id":"","pricing_plan_id":"cebpf4jnsgd1na2vs0mg"},{"bike_id":"f8663a1a-32f7-434b-b63a-fa8cfc115c27","system_id":"levelo_inurba_marseille","lat":43.27308,"lon":5.39083,"is_reserved":false,"is_disabled":true,"rental_uris":{"android":"levelo://app?vid=f8663a1a-32f7-434b-b63a-fa8cfc115c27","ios":"levelo://app?vid=f8663a1a-32f7-434b-b63a-fa8cfc115c27"},"vehicle_type_id":"4","last_reported":1749802515,"current_range_meters":800,"station_id":"ce4bhgp2rcd13ifvqfe0","pricing_plan_id":"cebpf4jnsgd1na2vs0mg"},{"bike_id":"a5652db6-c4dd-41f1-afe5-06a93e19d8ff","system_id":"levelo_inurba_marseille","lat":43.24618,"lon":5.39322,"is_reserved":false,"is_disabled":true,"rental_uris":{"android":"levelo://app?vid=a5652db6-c4dd-41f1-afe5-06a93e19d8ff","ios":"levelo://app?vid=a5652db6-c4dd-41f1-afe5-06a93e19d8ff"},"vehicle_type_id":"4","last_reported":1749802515,"current_range_meters":1200,"station_id":"","pricing_plan_id":"cebpf4jnsgd1na2vs0mg"},{"bike_id":"4a586e67-3452-4999-bf60-d930a99907c2","system_id":"levelo_inurba_marseille","lat":43.30457,"lon":5.37907,"is_reserved":false,"is_disabled":true,"rental_uris":{"android":"levelo://app?vid=4a586e67-3452-4999-bf60-d930a99907c2","ios":"levelo://app?vid=4a586e67-3452-4999-bf60-d930a99907c2"},"vehicle_type_id":"4","last_reported":1749802515,"current_range_meters":1200,"station_id":"ce4bgup2rcd13ifvqcn0","pricing_plan_id":"cebpf4jnsgd1na2vs0mg"},{"bike_id":"e5708a3e-75b1-4cc3-9a1d-a05b35bc1aea","system_id":"levelo_inurba_marseille","lat":43.33715,"lon":5.39181,"is_reserved":false,"is_disabled":true,"rental_uris":{"android":"levelo://app?vid=e5708a3e-75b1-4cc3-9a1d-a05b35bc1aea","ios":"levelo://app?vid=e5708a3e-75b1-4cc3-9a1d-a05b35bc1aea"},"vehicle_type_id":"4","last_reported":1749802515,"current_range_meters":1200,"station_id":"ce4bhr92rcd13ifvqhsg","pricing_plan_id":"cebpf4jnsgd1na2vs0mg"},{"bike_id":"9c88183c-e15f-4769-92fe-1278b8bd9656","system_id":"levelo_inurba_marseille","lat":43.26213,"lon":5.37443,"is_reserved":false,"is_disabled":true,"rental_uris":{"android":"levelo://app?vid=9c88183c-e15f-4769-92fe-1278b8bd9656","ios":"levelo://app?vid=9c88183c-e15f-4769-92fe-1278b8bd9656"},"vehicle_type_id":"4","last_reported":1749802515,"current_range_meters":1600,"station_id":"ce4bhgp2rcd13ifvqfc0","pricing_plan_id":"cebpf4jnsgd1na2vs0mg"},{"bike_id":"5c219ba0-bd6f-4ec1-8199-9fc28d07f25c","system_id":"levelo_inurba_marseille","lat":43.32317,"lon":5.4468,"is_reserved":false,"is_disabled":true,"rental_uris":{"android":"levelo://app?vid=5c219ba0-bd6f-4ec1-8199-9fc28d07f25c","ios":"levelo://app?vid=5c219ba0-bd6f-4ec1-8199-9fc28d07f25c"},"vehicle_type_id":"4","last_reported":1749802515,"current_range_meters":2000,"station_id":"","pricing_plan_id":"cebpf4jnsgd1na2vs0mg"},{"bike_id":"6e8a0cf4-0b90-4d9d-b02e-d9158f4060d2","system_id":"levelo_inurba_marseille","lat":43.24649,"lon":5.38894,"is_reserved":false,"is_disabled":false,"rental_uris":{"android":"levelo://app?vid=6e8a0cf4-0b90-4d9d-b02e-d9158f4060d2","ios":"levelo://app?vid=6e8a0cf4-0b90-4d9d-b02e-d9158f4060d2"},"vehicle_type_id":"4","last_reported":1749802515,"current_range_meters":2000,"station_id":"ce4bhg12rcd13ifvqf60","pricing_plan_id":"cebpf4jnsgd1na2vs0mg"},{"bike_id":"ee8d726f-4e37-4d8a-9566-859048660264","system_id":"levelo_inurba_marseille","lat":43.26212,"lon":5.37441,"is_reserved":false,"is_disabled":true,"rental_uris":{"android":"levelo://app?vid=ee8d726f-4e37-4d8a-9566-859048660264","ios":"levelo://app?vid=ee8d726f-4e37-4d8a-9566-859048660264"},"vehicle_type_id":"4","last_reported":1749802515,"current_range_meters":2000,"station_id":"ce4bhgp2rcd13ifvqfc0","pricing_plan_id":"cebpf4jnsgd1na2vs0mg"},{"bike_id":"28939657-8c6e-4adf-8f9e-f4678b18073c","system_id":"levelo_inurba_marseille","lat":43.24088,"lon":5.37747,"is_reserved":false,"is_disabled":true,"rental_uris":{"android":"levelo://app?vid=28939657-8c6e-4adf-8f9e-f4678b18073c","ios":"levelo://app?vid=28939657-8c6e-4adf-8f9e-f4678b18073c"},"vehicle_type_id":"4","last_reported":1749802515,"current_range_meters":2000,"station_id":"ce4bhnp2rcd13ifvqgvg","pricing_plan_id":"cebpf4jnsgd1na2vs0mg"},{"bike_id":"7d47230e-1fba-4bc8-999d-6a56b930b97c","system_id":"levelo_inurba_marseille","lat":43.31248,"lon":5.36869,"is_reserved":false,"is_disabled":false,"rental_uris":{"android":"levelo://app?vid=7d47230e-1fba-4bc8-999d-6a56b930b97c","ios":"levelo://app?vid=7d47230e-1fba-4bc8-999d-6a56b930b97c"},"vehicle_type_id":"4","last_reported":1749802515,"current_range_meters":3200,"station_id":"ce4bgl92rcd13ifvqbq0","pricing_plan_id":"cebpf4jnsgd1na2vs0mg"},{"bike_id":"924730cd-1594-4166-8f0e-f14305858ff0","system_id":"levelo_inurba_marseille","lat":43.28615,"lon":5.35101,"is_reserved":false,"is_disabled":false,"rental_uris":{"android":"levelo://app?vid=924730cd-1594-4166-8f0e-f14305858ff0","ios":"levelo://app?vid=924730cd-1594-4166-8f0e-f14305858ff0"},"vehicle_type_id":"4","last_reported":1749802515,"current_range_meters":3200,"station_id":"ce4bhch2rcd13ifvqeug","pricing_plan_id":"cebpf4jnsgd1na2vs0mg"},{"bike_id":"8e108a83-e2bf-43e0-9b41-3765b051abd1","system_id":"levelo_inurba_marseille","lat":43.28046,"lon":5.34953,"is_reserved":false,"is_disabled":false,"rental_uris":{"android":"levelo://app?vid=8e108a83-e2bf-43e0-9b41-3765b051abd1","ios":"levelo://app?vid=8e108a83-e2bf-43e0-9b41-3765b051abd1"},"vehicle_type_id":"4","last_reported":1749802515,"current_range_meters":3600,"station_id":"","pricing_plan_id":"cebpf4jnsgd1na2vs0mg"},{"bike_id":"29081f26-98ce-4cc2-8c14-dddbd6948b90","system_id":"levelo_inurba_marseille","lat":43.29639,"lon":5.40593,"is_reserved":false,"is_disabled":false,"rental_uris":{"android":"levelo://app?vid=29081f26-98ce-4cc2-8c14-dddbd6948b90","ios":"levelo://app?vid=29081f26-98ce-4cc2-8c14-dddbd6948b90"},"vehicle_type_id":"4","last_reported":1749802515,"current_range_meters":3600,"station_id":"ce4bh0h2rcd13ifvqd60","pricing_plan_id":"cebpf4jnsgd1na2vs0mg"},{"bike_id":"e1982154-916e-4f61-befa-5d8dec3bf6ad","system_id":"levelo_inurba_marseille","lat":43.32549,"lon":5.41469,"is_reserved":false,"is_disabled":false,"rental_uris":{"android":"levelo://app?vid=e1982154-916e-4f61-befa-5d8dec3bf6ad","ios":"levelo://app?vid=e1982154-916e-4f61-befa-5d8dec3bf6ad"},"vehicle_type_id":"4","last_reported":1749802515,"current_range_meters":3600,"station_id":"ce4bhq12rcd13ifvqhhg","pricing_plan_id":"cebpf4jnsgd1na2vs0mg"},{"bike_id":"f3d3964c-09c9-4d95-b321-cf740495e94b","system_id":"levelo_inurba_marseille","lat":43.297058,"lon":5.366111,"is_reserved":false,"is_disabled":false,"rental_uris":{"android":"levelo://app?vid=f3d3964c-09c9-4d95-b321-cf740495e94b","ios":"levelo://app?vid=f3d3964c-09c9-4d95-b321-cf740495e94b"},"vehicle_type_id":"4","last_reported":1749802515,"current_range_meters":4400,"station_id":"ce4bgn12rcd13ifvqbt0","pricing_plan_id":"cebpf4jnsgd1na2vs0mg"},{"bike_id":"32a1e25c-a62f-4fff-9598-8ef34b5419ef","system_id":"levelo_inurba_marseille","lat":43.33717,"lon":5.39189,"is_reserved":false,"is_disabled":false,"rental_uris":{"android":"levelo://app?vid=32a1e25c-a62f-4fff-9598-8ef34b5419ef","ios":"levelo://app?vid=32a1e25c-a62f-4fff-9598-8ef34b5419ef"},"vehicle_type_id":"4","last_reported":1749802515,"current_range_meters":4400,"station_id":"ce4bhr92rcd13ifvqhsg","pricing_plan_id":"cebpf4jnsgd1na2vs0mg"},{"bike_id":"46a9eef6-6dd9-475c-ad71-3067ce821886","system_id":"levelo_inurba_marseille","lat":43.28438,"lon":5.392,"is_reserved":false,"is_disabled":false,"rental_uris":{"android":"levelo://app?vid=46a9eef6-6dd9-475c-ad71-3067ce821886","ios":"levelo://app?vid=46a9eef6-6dd9-475c-ad71-3067ce821886"},"vehicle_type_id":"4","last_reported":1749802515,"current_range_meters":4800,"station_id":"ce4bhoh2rcd13ifvqh5g","pricing_plan_id":"cebpf4jnsgd1na2vs0mg"},{"bike_id":"eca9f850-90e8-48cc-8bc7-1d06cbe1c36b","system_id":"levelo_inurba_marseille","lat":43.3014,"lon":5.37411,"is_reserved":false,"is_disabled":false,"rental_uris":{"android":"levelo://app?vid=eca9f850-90e8-48cc-8bc7-1d06cbe1c36b","ios":"levelo://app?vid=eca9f850-90e8-48cc-8bc7-1d06cbe1c36b"},"vehicle_type_id":"4","last_reported":1749802515,"current_range_meters":6000,"station_id":"ce4bgs92rcd13ifvqcc0","pricing_plan_id":"cebpf4jnsgd1na2vs0mg"},{"bike_id":"2b331b85-6253-4c1e-9665-bce8dbdd6890","system_id":"levelo_inurba_marseille","lat":43.304652,"lon":5.379147,"is_reserved":false,"is_disabled":false,"rental_uris":{"android":"levelo://app?vid=2b331b85-6253-4c1e-9665-bce8dbdd6890","ios":"levelo://app?vid=2b331b85-6253-4c1e-9665-bce8dbdd6890"},"vehicle_type_id":"4","last_reported":1749802515,"current_range_meters":6000,"station_id":"ce4bgup2rcd13ifvqcn0","pricing_plan_id":"cebpf4jnsgd1na2vs0mg"},{"bike_id":"308cbf69-b866-4a48-b377-e4f7d5e7c70b","system_id":"levelo_inurba_marseille","lat":43.329299,"lon":5.390171,"is_reserved":false,"is_disabled":false,"rental_uris":{"android":"levelo://app?vid=308cbf69-b866-4a48-b377-e4f7d5e7c70b","ios":"levelo://app?vid=308cbf69-b866-4a48-b377-e4f7d5e7c70b"},"vehicle_type_id":"4","last_reported":1749802515,"current_range_meters":6400,"station_id":"","pricing_plan_id":"cebpf4jnsgd1na2vs0mg"},{"bike_id":"aff06fd1-0b0f-4f78-a996-c737d5b35ca6","system_id":"levelo_inurba_marseille","lat":43.30531,"lon":5.38422,"is_reserved":false,"is_disabled":false,"rental_uris":{"android":"levelo://app?vid=aff06fd1-0b0f-4f78-a996-c737d5b35ca6","ios":"levelo://app?vid=aff06fd1-0b0f-4f78-a996-c737d5b35ca6"},"vehicle_type_id":"4","last_reported":1749802515,"current_range_meters":6400,"station_id":"ce4bgg92rcd13ifvqb30","pricing_plan_id":"cebpf4jnsgd1na2vs0mg"},{"bike_id":"9be6034f-5a67-45b8-ad1f-b3cf90fc3066","system_id":"levelo_inurba_marseille","lat":43.313493,"lon":5.367137,"is_reserved":false,"is_disabled":false,"rental_uris":{"android":"levelo://app?vid=9be6034f-5a67-45b8-ad1f-b3cf90fc3066","ios":"levelo://app?vid=9be6034f-5a67-45b8-ad1f-b3cf90fc3066"},"vehicle_type_id":"4","last_reported":1749802515,"current_range_meters":6800,"station_id":"ce4bgr92rcd13ifvqc6g","pricing_plan_id":"cebpf4jnsgd1na2vs0mg"},{"bike_id":"bd1a489a-1070-4007-8c0a-1dcc413c2770","system_id":"levelo_inurba_marseille","lat":43.32507,"lon":5.36588,"is_reserved":false,"is_disabled":false,"rental_uris":{"android":"levelo://app?vid=bd1a489a-1070-4007-8c0a-1dcc413c2770","ios":"levelo://app?vid=bd1a489a-1070-4007-8c0a-1dcc413c2770"},"vehicle_type_id":"4","last_reported":1749802515,"current_range_meters":6800,"station_id":"ce4bhs12rcd13ifvqhvg","pricing_plan_id":"cebpf4jnsgd1na2vs0mg"},{"bike_id":"33dae478-7d0d-41c8-b7f2-9d1e5b106752","system_id":"levelo_inurba_marseille","lat":43.30471,"lon":5.37895,"is_reserved":false,"is_disabled":false,"rental_uris":{"android":"levelo://app?vid=33dae478-7d0d-41c8-b7f2-9d1e5b106752","ios":"levelo://app?vid=33dae478-7d0d-41c8-b7f2-9d1e5b106752"},"vehicle_type_id":"4","last_reported":1749802515,"current_range_meters":7200,"station_id":"ce4bgup2rcd13ifvqcn0","pricing_plan_id":"cebpf4jnsgd1na2vs0mg"},{"bike_id":"dc0cde41-26cd-4418-b2db-97af8450df34","system_id":"levelo_inurba_marseille","lat":43.24385,"lon":5.37056,"is_reserved":false,"is_disabled":false,"rental_uris":{"android":"levelo://app?vid=dc0cde41-26cd-4418-b2db-97af8450df34","ios":"levelo://app?vid=dc0cde41-26cd-4418-b2db-97af8450df34"},"vehicle_type_id":"4","last_reported":1749802515,"current_range_meters":7200,"station_id":"ce4bhhh2rcd13ifvqfk0","pricing_plan_id":"cebpf4jnsgd1na2vs0mg"},{"bike_id":"4d239061-6c70-4e42-9aee-a6c0fccd81bb","system_id":"levelo_inurba_marseille","lat":43.24183,"lon":5.39711,"is_reserved":false,"is_disabled":false,"rental_uris":{"android":"levelo://app?vid=4d239061-6c70-4e42-9aee-a6c0fccd81bb","ios":"levelo://app?vid=4d239061-6c70-4e42-9aee-a6c0fccd81bb"},"vehicle_type_id":"4","last_reported":1749802515,"current_range_meters":7200,"station_id":"ce4bhn12rcd13ifvqgpg","pricing_plan_id":"cebpf4jnsgd1na2vs0mg"},{"bike_id":"7e66f4db-dca5-4241-afd7-05dd80eb151d","system_id":"levelo_inurba_marseille","lat":43.323483,"lon":5.406107,"is_reserved":false,"is_disabled":false,"rental_uris":{"android":"levelo://app?vid=7e66f4db-dca5-4241-afd7-05dd80eb151d","ios":"levelo://app?vid=7e66f4db-dca5-4241-afd7-05dd80eb151d"},"vehicle_type_id":"4","last_reported":1749802515,"current_range_meters":7200,"station_id":"ce4bhq92rcd13ifvqhjg","pricing_plan_id":"cebpf4jnsgd1na2vs0mg"},{"bike_id":"a2421370-e442-436f-a98a-844d44299694","system_id":"levelo_inurba_marseille","lat":43.32351,"lon":5.36746,"is_reserved":false,"is_disabled":false,"rental_uris":{"android":"levelo://app?vid=a2421370-e442-436f-a98a-844d44299694","ios":"levelo://app?vid=a2421370-e442-436f-a98a-844d44299694"},"vehicle_type_id":"4","last_reported":1749802515,"current_range_meters":7200,"station_id":"ce4bhsh2rcd13ifvqi2g","pricing_plan_id":"cebpf4jnsgd1na2vs0mg"},{"bike_id":"a426bcb6-9733-433a-b425-ccc13f254a65","system_id":"levelo_inurba_marseille","lat":43.29561,"lon":5.4424,"is_reserved":false,"is_disabled":false,"rental_uris":{"android":"levelo://app?vid=a426bcb6-9733-433a-b425-ccc13f254a65","ios":"levelo://app?vid=a426bcb6-9733-433a-b425-ccc13f254a65"},"vehicle_type_id":"4","last_reported":1749802515,"current_range_meters":8000,"station_id":"","pricing_plan_id":"cebpf4jnsgd1na2vs0mg"},{"bike_id":"6bff8f35-611c-4484-87fe-657017f57085","system_id":"levelo_inurba_marseille","lat":43.31322,"lon":5.36733,"is_reserved":false,"is_disabled":false,"rental_uris":{"android":"levelo://app?vid=6bff8f35-611c-4484-87fe-657017f57085","ios":"levelo://app?vid=6bff8f35-611c-4484-87fe-657017f57085"},"vehicle_type_id":"4","last_reported":1749802515,"current_range_meters":8000,"station_id":"ce4bgr92rcd13ifvqc6g","pricing_plan_id":"cebpf4jnsgd1na2vs0mg"},{"bike_id":"ac6dfcbb-1806-40ee-b61c-5cbb73114693","system_id":"levelo_inurba_marseille","lat":43.32119,"lon":5.36806,"is_reserved":false,"is_disabled":false,"rental_uris":{"android":"levelo://app?vid=ac6dfcbb-1806-40ee-b61c-5cbb73114693","ios":"levelo://app?vid=ac6dfcbb-1806-40ee-b61c-5cbb73114693"},"vehicle_type_id":"4","last_reported":1749802515,"current_range_meters":8000,"station_id":"ce4bhrh2rcd13ifvqhug","pricing_plan_id":"cebpf4jnsgd1na2vs0mg"},{"bike_id":"538be204-294c-44d3-be2e-ddd41840eef1","system_id":"levelo_inurba_marseille","lat":43.21775,"lon":5.34616,"is_reserved":false,"is_disabled":false,"rental_uris":{"android":"levelo://app?vid=538be204-294c-44d3-be2e-ddd41840eef1","ios":"levelo://app?vid=538be204-294c-44d3-be2e-ddd41840eef1"},"vehicle_type_id":"4","last_reported":1749802515,"current_range_meters":8000,"station_id":"st_cvj6r9ubvosntc0bgbag","pricing_plan_id":"cebpf4jnsgd1na2vs0mg"},{"bike_id":"501fe5cc-ec9f-4031-8e12-9c9a87dfd25d","system_id":"levelo_inurba_marseille","lat":43.31794,"lon":5.40593,"is_reserved":false,"is_disabled":false,"rental_uris":{"android":"levelo://app?vid=501fe5cc-ec9f-4031-8e12-9c9a87dfd25d","ios":"levelo://app?vid=501fe5cc-ec9f-4031-8e12-9c9a87dfd25d"},"vehicle_type_id":"4","last_reported":1749802515,"current_range_meters":8400,"station_id":"","pricing_plan_id":"cebpf4jnsgd1na2vs0mg"},{"bike_id":"a25b84b4-c252-4eda-97fb-1a1f22303c5d","system_id":"levelo_inurba_marseille","lat":43.31386,"lon":5.374206,"is_reserved":false,"is_disabled":false,"rental_uris":{"android":"levelo://app?vid=a25b84b4-c252-4eda-97fb-1a1f22303c5d","ios":"levelo://app?vid=a25b84b4-c252-4eda-97fb-1a1f22303c5d"},"vehicle_type_id":"4","last_reported":1749802515,"current_range_meters":8400,"station_id":"","pricing_plan_id":"cebpf4jnsgd1na2vs0mg"},{"bike_id":"0002f675-9397-43e8-a2c4-c6559bc2f189","system_id":"levelo_inurba_marseille","lat":43.30915,"lon":5.36852,"is_reserved":false,"is_disabled":false,"rental_uris":{"android":"levelo://app?vid=0002f675-9397-43e8-a2c4-c6559bc2f189","ios":"levelo://app?vid=0002f675-9397-43e8-a2c4-c6559bc2f189"},"vehicle_type_id":"4","last_reported":1749802515,"current_range_meters":8400,"station_id":"ce4bgn92rcd13ifvqbvg","pricing_plan_id":"cebpf4jnsgd1na2vs0mg"},{"bike_id":"bb69628e-7c1c-44d7-b9a6-70629593d010","system_id":"levelo_inurba_marseille","lat":43.30962,"lon":5.39025,"is_reserved":false,"is_disabled":false,"rental_uris":{"android":"levelo://app?vid=bb69628e-7c1c-44d7-b9a6-70629593d010","ios":"levelo://app?vid=bb69628e-7c1c-44d7-b9a6-70629593d010"},"vehicle_type_id":"4","last_reported":1749802515,"current_range_meters":8400,"station_id":"ce4bgup2rcd13ifvqco0","pricing_plan_id":"cebpf4jnsgd1na2vs0mg"},{"bike_id":"f9fd3463-cf9c-46ea-8305-4847b4ac3ce4","system_id":"levelo_inurba_marseille","lat":43.30953,"lon":5.39031,"is_reserved":false,"is_disabled":false,"rental_uris":{"android":"levelo://app?vid=f9fd3463-cf9c-46ea-8305-4847b4ac3ce4","ios":"levelo://app?vid=f9fd3463-cf9c-46ea-8305-4847b4ac3ce4"},"vehicle_type_id":"4","last_reported":1749802515,"current_range_meters":8400,"station_id":"ce4bgup2rcd13ifvqco0","pricing_plan_id":"cebpf4jnsgd1na2vs0mg"},{"bike_id":"1b25ad3d-790a-4c23-8eb6-ebc02fb0d295","system_id":"levelo_inurba_marseille","lat":43.27364,"lon":5.36254,"is_reserved":false,"is_disabled":false,"rental_uris":{"android":"levelo://app?vid=1b25ad3d-790a-4c23-8eb6-ebc02fb0d295","ios":"levelo://app?vid=1b25ad3d-790a-4c23-8eb6-ebc02fb0d295"},"vehicle_type_id":"4","last_reported":1749802515,"current_range_meters":8400,"station_id":"ce4bhbh2rcd13ifvqeo0","pricing_plan_id":"cebpf4jnsgd1na2vs0mg"},{"bike_id":"b6dd7842-2a8a-4cee-9157-1a034f9308fe","system_id":"levelo_inurba_marseille","lat":43.29838,"lon":5.36273,"is_reserved":false,"is_disabled":false,"rental_uris":{"android":"levelo://app?vid=b6dd7842-2a8a-4cee-9157-1a034f9308fe","ios":"levelo://app?vid=b6dd7842-2a8a-4cee-9157-1a034f9308fe"},"vehicle_type_id":"4","last_reported":1749802515,"current_range_meters":8800,"station_id":"ce4bgpp2rcd13ifvqc3g","pricing_plan_id":"cebpf4jnsgd1na2vs0mg"},{"bike_id":"9dc5ae5f-330e-4add-b7b0-2140df5d6f58","system_id":"levelo_inurba_marseille","lat":43.30587,"lon":5.3723,"is_reserved":false,"is_disabled":false,"rental_uris":{"android":"levelo://app?vid=9dc5ae5f-330e-4add-b7b0-2140df5d6f58","ios":"levelo://app?vid=9dc5ae5f-330e-4add-b7b0-2140df5d6f58"},"vehicle_type_id":"4","last_reported":1749802515,"current_range_meters":8800,"station_id":"ce4bgqh2rcd13ifvqc4g","pricing_plan_id":"cebpf4jnsgd1na2vs0mg"},{"bike_id":"334ca4fe-1c59-4830-b157-be5ac16af9c7","system_id":"levelo_inurba_marseille","lat":43.24183,"lon":5.3972,"is_reserved":false,"is_disabled":false,"rental_uris":{"android":"levelo://app?vid=334ca4fe-1c59-4830-b157-be5ac16af9c7","ios":"levelo://app?vid=334ca4fe-1c59-4830-b157-be5ac16af9c7"},"vehicle_type_id":"4","last_reported":1749802515,"current_range_meters":8800,"station_id":"ce4bhn12rcd13ifvqgpg","pricing_plan_id":"cebpf4jnsgd1na2vs0mg"},{"bike_id":"3bdb47fe-0f4d-4e36-bfdb-2d2509b0a553","system_id":"levelo_inurba_marseille","lat":43.25096,"lon":5.3792,"is_reserved":false,"is_disabled":false,"rental_uris":{"android":"levelo://app?vid=3bdb47fe-0f4d-4e36-bfdb-2d2509b0a553","ios":"levelo://app?vid=3bdb47fe-0f4d-4e36-bfdb-2d2509b0a553"},"vehicle_type_id":"4","last_reported":1749802515,"current_range_meters":9200,"station_id":"","pricing_plan_id":"cebpf4jnsgd1na2vs0mg"},{"bike_id":"8d60347d-541c-40fb-90ca-203bf6bd520a","system_id":"levelo_inurba_marseille","lat":43.271222,"lon":5.363994,"is_reserved":false,"is_disabled":false,"rental_uris":{"android":"levelo://app?vid=8d60347d-541c-40fb-90ca-203bf6bd520a","ios":"levelo://app?vid=8d60347d-541c-40fb-90ca-203bf6bd520a"},"vehicle_type_id":"4","last_reported":1749802515,"current_range_meters":9200,"station_id":"","pricing_plan_id":"cebpf4jnsgd1na2vs0mg"},{"bike_id":"7db892a7-47b2-4df3-86a0-1a095197db95","system_id":"levelo_inurba_marseille","lat":43.31703,"lon":5.40463,"is_reserved":false,"is_disabled":false,"rental_uris":{"android":"levelo://app?vid=7db892a7-47b2-4df3-86a0-1a095197db95","ios":"levelo://app?vid=7db892a7-47b2-4df3-86a0-1a095197db95"},"vehicle_type_id":"4","last_reported":1749802515,"current_range_meters":9200,"station_id":"ce4bh012rcd13ifvqd00","pricing_plan_id":"cebpf4jnsgd1na2vs0mg"},{"bike_id":"65941710-89ce-4ee6-bb02-49a0cba14d4d","system_id":"levelo_inurba_marseille","lat":43.28969,"lon":5.37829,"is_reserved":false,"is_disabled":false,"rental_uris":{"android":"levelo://app?vid=65941710-89ce-4ee6-bb02-49a0cba14d4d","ios":"levelo://app?vid=65941710-89ce-4ee6-bb02-49a0cba14d4d"},"vehicle_type_id":"4","last_reported":1749802515,"current_range_meters":9200,"station_id":"ce4bh9p2rcd13ifvqed0","pricing_plan_id":"cebpf4jnsgd1na2vs0mg"},{"bike_id":"abc78fa0-198a-44c4-81ba-0dd7efe04434","system_id":"levelo_inurba_marseille","lat":43.23145,"lon":5.43725,"is_reserved":false,"is_disabled":false,"rental_uris":{"android":"levelo://app?vid=abc78fa0-198a-44c4-81ba-0dd7efe04434","ios":"levelo://app?vid=abc78fa0-198a-44c4-81ba-0dd7efe04434"},"vehicle_type_id":"4","last_reported":1749802515,"current_range_meters":9200,"station_id":"ce4bhmp2rcd13ifvqgog","pricing_plan_id":"cebpf4jnsgd1na2vs0mg"},{"bike_id":"1268e070-f02d-4537-93df-0bfd5c4daa05","system_id":"levelo_inurba_marseille","lat":43.32695,"lon":5.37648,"is_reserved":false,"is_disabled":false,"rental_uris":{"android":"levelo://app?vid=1268e070-f02d-4537-93df-0bfd5c4daa05","ios":"levelo://app?vid=1268e070-f02d-4537-93df-0bfd5c4daa05"},"vehicle_type_id":"4","last_reported":1749802515,"current_range_meters":9600,"station_id":"","pricing_plan_id":"cebpf4jnsgd1na2vs0mg"},{"bike_id":"97421c04-2630-4fc1-9da9-b17d88602c5f","system_id":"levelo_inurba_marseille","lat":43.337599,"lon":5.374395,"is_reserved":false,"is_disabled":false,"rental_uris":{"android":"levelo://app?vid=97421c04-2630-4fc1-9da9-b17d88602c5f","ios":"levelo://app?vid=97421c04-2630-4fc1-9da9-b17d88602c5f"},"vehicle_type_id":"4","last_reported":1749802515,"current_range_meters":9600,"station_id":"","pricing_plan_id":"cebpf4jnsgd1na2vs0mg"},{"bike_id":"7d56a784-e936-4f13-b7ad-9fccdd1fe89b","system_id":"levelo_inurba_marseille","lat":43.3053,"lon":5.36527,"is_reserved":false,"is_disabled":false,"rental_uris":{"android":"levelo://app?vid=7d56a784-e936-4f13-b7ad-9fccdd1fe89b","ios":"levelo://app?vid=7d56a784-e936-4f13-b7ad-9fccdd1fe89b"},"vehicle_type_id":"4","last_reported":1749802515,"current_range_meters":9600,"station_id":"ce4bgs12rcd13ifvqcag","pricing_plan_id":"cebpf4jnsgd1na2vs0mg"},{"bike_id":"94ba6f4b-428d-4ab6-ab1a-43165113acc6","system_id":"levelo_inurba_marseille","lat":43.31117,"lon":5.37772,"is_reserved":false,"is_disabled":false,"rental_uris":{"android":"levelo://app?vid=94ba6f4b-428d-4ab6-ab1a-43165113acc6","ios":"levelo://app?vid=94ba6f4b-428d-4ab6-ab1a-43165113acc6"},"vehicle_type_id":"4","last_reported":1749802515,"current_range_meters":9600,"station_id":"ce4bgt92rcd13ifvqcg0","pricing_plan_id":"cebpf4jnsgd1na2vs0mg"},{"bike_id":"cbdfe8c0-29d8-4f67-8934-2c101fdc00fc","system_id":"levelo_inurba_marseille","lat":43.25494,"lon":5.37649,"is_reserved":false,"is_disabled":false,"rental_uris":{"android":"levelo://app?vid=cbdfe8c0-29d8-4f67-8934-2c101fdc00fc","ios":"levelo://app?vid=cbdfe8c0-29d8-4f67-8934-2c101fdc00fc"},"vehicle_type_id":"4","last_reported":1749802515,"current_range_meters":9600,"station_id":"ce4bhh12rcd13ifvqff0","pricing_plan_id":"cebpf4jnsgd1na2vs0mg"},{"bike_id":"ccc384bc-c3b1-4664-a05a-c69fdcd7d0ae","system_id":"levelo_inurba_marseille","lat":43.23179,"lon":5.39987,"is_reserved":false,"is_disabled":false,"rental_uris":{"android":"levelo://app?vid=ccc384bc-c3b1-4664-a05a-c69fdcd7d0ae","ios":"levelo://app?vid=ccc384bc-c3b1-4664-a05a-c69fdcd7d0ae"},"vehicle_type_id":"4","last_reported":1749802515,"current_range_meters":9600,"station_id":"ce4bhn12rcd13ifvqgqg","pricing_plan_id":"cebpf4jnsgd1na2vs0mg"},{"bike_id":"20d53eb5-f1cf-4bbc-a2ae-fbdabe142edb","system_id":"levelo_inurba_marseille","lat":43.28701,"lon":5.3998,"is_reserved":false,"is_disabled":false,"rental_uris":{"android":"levelo://app?vid=20d53eb5-f1cf-4bbc-a2ae-fbdabe142edb","ios":"levelo://app?vid=20d53eb5-f1cf-4bbc-a2ae-fbdabe142edb"},"vehicle_type_id":"4","last_reported":1749802515,"current_range_meters":9600,"station_id":"ce4bho92rcd13ifvqh3g","pricing_plan_id":"cebpf4jnsgd1na2vs0mg"},{"bike_id":"8d077453-18da-4e23-9305-ee493a72b0b4","system_id":"levelo_inurba_marseille","lat":43.34137,"lon":5.40902,"is_reserved":false,"is_disabled":false,"rental_uris":{"android":"levelo://app?vid=8d077453-18da-4e23-9305-ee493a72b0b4","ios":"levelo://app?vid=8d077453-18da-4e23-9305-ee493a72b0b4"},"vehicle_type_id":"4","last_reported":1749802515,"current_range_meters":9600,"station_id":"ce4bhqh2rcd13ifvqhlg","pricing_plan_id":"cebpf4jnsgd1na2vs0mg"},{"bike_id":"415ae651-19f2-4161-a374-d53ba201227b","system_id":"levelo_inurba_marseille","lat":43.33576,"lon":5.40987,"is_reserved":false,"is_disabled":false,"rental_uris":{"android":"levelo://app?vid=415ae651-19f2-4161-a374-d53ba201227b","ios":"levelo://app?vid=415ae651-19f2-4161-a374-d53ba201227b"},"vehicle_type_id":"4","last_reported":1749802515,"current_range_meters":9600,"station_id":"ce4bhqh2rcd13ifvqhmg","pricing_plan_id":"cebpf4jnsgd1na2vs0mg"},{"bike_id":"dd0db329-349e-41be-a4d3-65def3190f5d","system_id":"levelo_inurba_marseille","lat":43.32485,"lon":5.36567,"is_reserved":false,"is_disabled":false,"rental_uris":{"android":"levelo://app?vid=dd0db329-349e-41be-a4d3-65def3190f5d","ios":"levelo://app?vid=dd0db329-349e-41be-a4d3-65def3190f5d"},"vehicle_type_id":"4","last_reported":1749802515,"current_range_meters":9600,"station_id":"ce4bhs12rcd13ifvqhvg","pricing_plan_id":"cebpf4jnsgd1na2vs0mg"},{"bike_id":"d39e359e-7226-48f8-ae4b-6ffe5052fffa","system_id":"levelo_inurba_marseille","lat":43.29679,"lon":5.37289,"is_reserved":false,"is_disabled":false,"rental_uris":{"android":"levelo://app?vid=d39e359e-7226-48f8-ae4b-6ffe5052fffa","ios":"levelo://app?vid=d39e359e-7226-48f8-ae4b-6ffe5052fffa"},"vehicle_type_id":"4","last_reported":1749802515,"current_range_meters":10000,"station_id":"ce4bgk12rcd13ifvqbj0","pricing_plan_id":"cebpf4jnsgd1na2vs0mg"},{"bike_id":"2ae3497c-45b2-474e-a61b-246541dfb5a5","system_id":"levelo_inurba_marseille","lat":43.31354,"lon":5.36713,"is_reserved":false,"is_disabled":false,"rental_uris":{"android":"levelo://app?vid=2ae3497c-45b2-474e-a61b-246541dfb5a5","ios":"levelo://app?vid=2ae3497c-45b2-474e-a61b-246541dfb5a5"},"vehicle_type_id":"4","last_reported":1749802515,"current_range_meters":10000,"station_id":"ce4bgr92rcd13ifvqc6g","pricing_plan_id":"cebpf4jnsgd1na2vs0mg"},{"bike_id":"d868bd62-3c5e-4130-a7d2-3bd9b314843a","system_id":"levelo_inurba_marseille","lat":43.26994,"lon":5.42808,"is_reserved":false,"is_disabled":false,"rental_uris":{"android":"levelo://app?vid=d868bd62-3c5e-4130-a7d2-3bd9b314843a","ios":"levelo://app?vid=d868bd62-3c5e-4130-a7d2-3bd9b314843a"},"vehicle_type_id":"4","last_reported":1749802515,"current_range_meters":10800,"station_id":"","pricing_plan_id":"cebpf4jnsgd1na2vs0mg"},{"bike_id":"063eff84-b62e-4128-85ed-5896eed2f5f4","system_id":"levelo_inurba_marseille","lat":43.313052,"lon":5.375207,"is_reserved":false,"is_disabled":false,"rental_uris":{"android":"levelo://app?vid=063eff84-b62e-4128-85ed-5896eed2f5f4","ios":"levelo://app?vid=063eff84-b62e-4128-85ed-5896eed2f5f4"},"vehicle_type_id":"4","last_reported":1749802515,"current_range_meters":10800,"station_id":"","pricing_plan_id":"cebpf4jnsgd1na2vs0mg"},{"bike_id":"efef7ea9-dfe7-4a71-9a42-eb2cee9bc37e","system_id":"levelo_inurba_marseille","lat":43.31206,"lon":5.37221,"is_reserved":false,"is_disabled":false,"rental_uris":{"android":"levelo://app?vid=efef7ea9-dfe7-4a71-9a42-eb2cee9bc37e","ios":"levelo://app?vid=efef7ea9-dfe7-4a71-9a42-eb2cee9bc37e"},"vehicle_type_id":"4","last_reported":1749802515,"current_range_meters":10800,"station_id":"","pricing_plan_id":"cebpf4jnsgd1na2vs0mg"},{"bike_id":"6e464720-93b0-4699-80fe-881649eb71cd","system_id":"levelo_inurba_marseille","lat":43.23246,"lon":5.355858,"is_reserved":false,"is_disabled":false,"rental_uris":{"android":"levelo://app?vid=6e464720-93b0-4699-80fe-881649eb71cd","ios":"levelo://app?vid=6e464720-93b0-4699-80fe-881649eb71cd"},"vehicle_type_id":"4","last_reported":1749802515,"current_range_meters":10800,"station_id":"","pricing_plan_id":"cebpf4jnsgd1na2vs0mg"},{"bike_id":"e5ef7447-82af-477b-846f-d44631249354","system_id":"levelo_inurba_marseille","lat":43.32485,"lon":5.38819,"is_reserved":false,"is_disabled":false,"rental_uris":{"android":"levelo://app?vid=e5ef7447-82af-477b-846f-d44631249354","ios":"levelo://app?vid=e5ef7447-82af-477b-846f-d44631249354"},"vehicle_type_id":"4","last_reported":1749802515,"current_range_meters":10800,"station_id":"","pricing_plan_id":"cebpf4jnsgd1na2vs0mg"},{"bike_id":"4175af16-7388-4da5-ba9c-dd9951c1adfa","system_id":"levelo_inurba_marseille","lat":43.31195,"lon":5.38704,"is_reserved":false,"is_disabled":false,"rental_uris":{"android":"levelo://app?vid=4175af16-7388-4da5-ba9c-dd9951c1adfa","ios":"levelo://app?vid=4175af16-7388-4da5-ba9c-dd9951c1adfa"},"vehicle_type_id":"4","last_reported":1749802515,"current_range_meters":10800,"station_id":"ce4bgv12rcd13ifvqcp0","pricing_plan_id":"cebpf4jnsgd1na2vs0mg"},{"bike_id":"62c0da7f-aff9-4ffa-86b8-6966d8f0e555","system_id":"levelo_inurba_marseille","lat":43.21204,"lon":5.35072,"is_reserved":false,"is_disabled":false,"rental_uris":{"android":"levelo://app?vid=62c0da7f-aff9-4ffa-86b8-6966d8f0e555","ios":"levelo://app?vid=62c0da7f-aff9-4ffa-86b8-6966d8f0e555"},"vehicle_type_id":"4","last_reported":1749802515,"current_range_meters":10800,"station_id":"st_cvj6sg6p6f1abm77japg","pricing_plan_id":"cebpf4jnsgd1na2vs0mg"},{"bike_id":"3a11c5a8-e636-4a8e-97c5-5f95a0b7cfbb","system_id":"levelo_inurba_marseille","lat":43.33776,"lon":5.39205,"is_reserved":false,"is_disabled":false,"rental_uris":{"android":"levelo://app?vid=3a11c5a8-e636-4a8e-97c5-5f95a0b7cfbb","ios":"levelo://app?vid=3a11c5a8-e636-4a8e-97c5-5f95a0b7cfbb"},"vehicle_type_id":"4","last_reported":1749802515,"current_range_meters":11200,"station_id":"","pricing_plan_id":"cebpf4jnsgd1na2vs0mg"},{"bike_id":"cac16850-0e6d-465a-bbca-79973376e09f","system_id":"levelo_inurba_marseille","lat":43.275,"lon":5.3898,"is_reserved":false,"is_disabled":false,"rental_uris":{"android":"levelo://app?vid=cac16850-0e6d-465a-bbca-79973376e09f","ios":"levelo://app?vid=cac16850-0e6d-465a-bbca-79973376e09f"},"vehicle_type_id":"4","last_reported":1749802515,"current_range_meters":11200,"station_id":"","pricing_plan_id":"cebpf4jnsgd1na2vs0mg"},{"bike_id":"022ee428-9592-430f-ad4b-3d7250547165","system_id":"levelo_inurba_marseille","lat":43.30787,"lon":5.38143,"is_reserved":false,"is_disabled":false,"rental_uris":{"android":"levelo://app?vid=022ee428-9592-430f-ad4b-3d7250547165","ios":"levelo://app?vid=022ee428-9592-430f-ad4b-3d7250547165"},"vehicle_type_id":"4","last_reported":1749802515,"current_range_meters":11200,"station_id":"ce4bgt12rcd13ifvqce0","pricing_plan_id":"cebpf4jnsgd1na2vs0mg"},{"bike_id":"ef9ed1ee-80d9-463a-95c2-40320932a141","system_id":"levelo_inurba_marseille","lat":43.29091,"lon":5.38128,"is_reserved":false,"is_disabled":false,"rental_uris":{"android":"levelo://app?vid=ef9ed1ee-80d9-463a-95c2-40320932a141","ios":"levelo://app?vid=ef9ed1ee-80d9-463a-95c2-40320932a141"},"vehicle_type_id":"4","last_reported":1749802515,"current_range_meters":11200,"station_id":"ce4bh512rcd13ifvqe2g","pricing_plan_id":"cebpf4jnsgd1na2vs0mg"},{"bike_id":"c78f0ca1-7c15-4bad-bc13-93848eb37568","system_id":"levelo_inurba_marseille","lat":43.30298,"lon":5.3689,"is_reserved":false,"is_disabled":false,"rental_uris":{"android":"levelo://app?vid=c78f0ca1-7c15-4bad-bc13-93848eb37568","ios":"levelo://app?vid=c78f0ca1-7c15-4bad-bc13-93848eb37568"},"vehicle_type_id":"4","last_reported":1749802515,"current_range_meters":11600,"station_id":"ce4bgqh2rcd13ifvqc5g","pricing_plan_id":"cebpf4jnsgd1na2vs0mg"},{"bike_id":"66b9d1c2-2638-4fd1-9b6c-904c930dc1e5","system_id":"levelo_inurba_marseille","lat":43.30945,"lon":5.39055,"is_reserved":false,"is_disabled":false,"rental_uris":{"android":"levelo://app?vid=66b9d1c2-2638-4fd1-9b6c-904c930dc1e5","ios":"levelo://app?vid=66b9d1c2-2638-4fd1-9b6c-904c930dc1e5"},"vehicle_type_id":"4","last_reported":1749802515,"current_range_meters":11600,"station_id":"ce4bgup2rcd13ifvqco0","pricing_plan_id":"cebpf4jnsgd1na2vs0mg"},{"bike_id":"78e4331f-c67f-4812-a1cf-4af0acc5e2d6","system_id":"levelo_inurba_marseille","lat":43.32319,"lon":5.36682,"is_reserved":false,"is_disabled":false,"rental_uris":{"android":"levelo://app?vid=78e4331f-c67f-4812-a1cf-4af0acc5e2d6","ios":"levelo://app?vid=78e4331f-c67f-4812-a1cf-4af0acc5e2d6"},"vehicle_type_id":"4","last_reported":1749802515,"current_range_meters":11600,"station_id":"ce4bhsh2rcd13ifvqi2g","pricing_plan_id":"cebpf4jnsgd1na2vs0mg"},{"bike_id":"3fe50ebb-7407-4c5c-803b-1cd761668abb","system_id":"levelo_inurba_marseille","lat":43.22928,"lon":5.35372,"is_reserved":false,"is_disabled":false,"rental_uris":{"android":"levelo://app?vid=3fe50ebb-7407-4c5c-803b-1cd761668abb","ios":"levelo://app?vid=3fe50ebb-7407-4c5c-803b-1cd761668abb"},"vehicle_type_id":"4","last_reported":1749802515,"current_range_meters":11600,"station_id":"cpo3532slgdg3j2ikp40","pricing_plan_id":"cebpf4jnsgd1na2vs0mg"},{"bike_id":"f22caa41-3995-4026-a4ad-c9ebbcaa8154","system_id":"levelo_inurba_marseille","lat":43.29789,"lon":5.38081,"is_reserved":false,"is_disabled":false,"rental_uris":{"android":"levelo://app?vid=f22caa41-3995-4026-a4ad-c9ebbcaa8154","ios":"levelo://app?vid=f22caa41-3995-4026-a4ad-c9ebbcaa8154"},"vehicle_type_id":"4","last_reported":1749802515,"current_range_meters":12000,"station_id":"ce4bgip2rcd13ifvqbb0","pricing_plan_id":"cebpf4jnsgd1na2vs0mg"},{"bike_id":"1a5bde47-bf3b-4cd4-b091-da658f66aa67","system_id":"levelo_inurba_marseille","lat":43.32537,"lon":5.41471,"is_reserved":false,"is_disabled":false,"rental_uris":{"android":"levelo://app?vid=1a5bde47-bf3b-4cd4-b091-da658f66aa67","ios":"levelo://app?vid=1a5bde47-bf3b-4cd4-b091-da658f66aa67"},"vehicle_type_id":"4","last_reported":1749802515,"current_range_meters":12000,"station_id":"ce4bhq12rcd13ifvqhhg","pricing_plan_id":"cebpf4jnsgd1na2vs0mg"},{"bike_id":"41902e46-3363-402b-89a9-77321257c96b","system_id":"levelo_inurba_marseille","lat":43.32337,"lon":5.36718,"is_reserved":false,"is_disabled":false,"rental_uris":{"android":"levelo://app?vid=41902e46-3363-402b-89a9-77321257c96b","ios":"levelo://app?vid=41902e46-3363-402b-89a9-77321257c96b"},"vehicle_type_id":"4","last_reported":1749802515,"current_range_meters":12000,"station_id":"ce4bhsh2rcd13ifvqi2g","pricing_plan_id":"cebpf4jnsgd1na2vs0mg"},{"bike_id":"177f5631-1c1c-45f3-8f60-4d2ef5b162d0","system_id":"levelo_inurba_marseille","lat":43.29589,"lon":5.36747,"is_reserved":false,"is_disabled":false,"rental_uris":{"android":"levelo://app?vid=177f5631-1c1c-45f3-8f60-4d2ef5b162d0","ios":"levelo://app?vid=177f5631-1c1c-45f3-8f60-4d2ef5b162d0"},"vehicle_type_id":"4","last_reported":1749802515,"current_range_meters":12400,"station_id":"ce4bgph2rcd13ifvqc2g","pricing_plan_id":"cebpf4jnsgd1na2vs0mg"},{"bike_id":"7b832c61-2fe1-4639-b9fe-d5b771087ce6","system_id":"levelo_inurba_marseille","lat":43.30526,"lon":5.36544,"is_reserved":false,"is_disabled":false,"rental_uris":{"android":"levelo://app?vid=7b832c61-2fe1-4639-b9fe-d5b771087ce6","ios":"levelo://app?vid=7b832c61-2fe1-4639-b9fe-d5b771087ce6"},"vehicle_type_id":"4","last_reported":1749802515,"current_range_meters":12400,"station_id":"ce4bgs12rcd13ifvqcag","pricing_plan_id":"cebpf4jnsgd1na2vs0mg"},{"bike_id":"b601b45f-6dc5-41ac-9716-35fcc2d4ea0c","system_id":"levelo_inurba_marseille","lat":43.29004,"lon":5.35613,"is_reserved":false,"is_disabled":false,"rental_uris":{"android":"levelo://app?vid=b601b45f-6dc5-41ac-9716-35fcc2d4ea0c","ios":"levelo://app?vid=b601b45f-6dc5-41ac-9716-35fcc2d4ea0c"},"vehicle_type_id":"4","last_reported":1749802515,"current_range_meters":12400,"station_id":"ce4bhb92rcd13ifvqen0","pricing_plan_id":"cebpf4jnsgd1na2vs0mg"},{"bike_id":"1c336cb7-fb52-456e-b3f0-4f1dc2a1b11b","system_id":"levelo_inurba_marseille","lat":43.25492,"lon":5.37645,"is_reserved":false,"is_disabled":false,"rental_uris":{"android":"levelo://app?vid=1c336cb7-fb52-456e-b3f0-4f1dc2a1b11b","ios":"levelo://app?vid=1c336cb7-fb52-456e-b3f0-4f1dc2a1b11b"},"vehicle_type_id":"4","last_reported":1749802515,"current_range_meters":12400,"station_id":"ce4bhh12rcd13ifvqff0","pricing_plan_id":"cebpf4jnsgd1na2vs0mg"},{"bike_id":"2de973a3-f4bd-4f47-b4bd-2a61c67c98ed","system_id":"levelo_inurba_marseille","lat":43.25928,"lon":5.40905,"is_reserved":false,"is_disabled":false,"rental_uris":{"android":"levelo://app?vid=2de973a3-f4bd-4f47-b4bd-2a61c67c98ed","ios":"levelo://app?vid=2de973a3-f4bd-4f47-b4bd-2a61c67c98ed"},"vehicle_type_id":"4","last_reported":1749802515,"current_range_meters":12400,"station_id":"ce4bhm92rcd13ifvqglg","pricing_plan_id":"cebpf4jnsgd1na2vs0mg"},{"bike_id":"3b1aa8d6-29c6-4d9a-9b94-98e4f7865148","system_id":"levelo_inurba_marseille","lat":43.24181,"lon":5.39717,"is_reserved":false,"is_disabled":false,"rental_uris":{"android":"levelo://app?vid=3b1aa8d6-29c6-4d9a-9b94-98e4f7865148","ios":"levelo://app?vid=3b1aa8d6-29c6-4d9a-9b94-98e4f7865148"},"vehicle_type_id":"4","last_reported":1749802515,"current_range_meters":12400,"station_id":"ce4bhn12rcd13ifvqgpg","pricing_plan_id":"cebpf4jnsgd1na2vs0mg"},{"bike_id":"566c7291-85cb-414c-ace7-f588a8181d84","system_id":"levelo_inurba_marseille","lat":43.240615,"lon":5.377625,"is_reserved":false,"is_disabled":false,"rental_uris":{"android":"levelo://app?vid=566c7291-85cb-414c-ace7-f588a8181d84","ios":"levelo://app?vid=566c7291-85cb-414c-ace7-f588a8181d84"},"vehicle_type_id":"4","last_reported":1749802515,"current_range_meters":12400,"station_id":"ce4bhnp2rcd13ifvqgvg","pricing_plan_id":"cebpf4jnsgd1na2vs0mg"},{"bike_id":"7389b02b-e562-41c8-9cc6-01c25d9fca9a","system_id":"levelo_inurba_marseille","lat":43.33586,"lon":5.4098,"is_reserved":false,"is_disabled":false,"rental_uris":{"android":"levelo://app?vid=7389b02b-e562-41c8-9cc6-01c25d9fca9a","ios":"levelo://app?vid=7389b02b-e562-41c8-9cc6-01c25d9fca9a"},"vehicle_type_id":"4","last_reported":1749802515,"current_range_meters":12400,"station_id":"ce4bhqh2rcd13ifvqhmg","pricing_plan_id":"cebpf4jnsgd1na2vs0mg"},{"bike_id":"346f3f80-6b15-4406-b905-bb78596f5bac","system_id":"levelo_inurba_marseille","lat":43.32372,"lon":5.36744,"is_reserved":false,"is_disabled":false,"rental_uris":{"android":"levelo://app?vid=346f3f80-6b15-4406-b905-bb78596f5bac","ios":"levelo://app?vid=346f3f80-6b15-4406-b905-bb78596f5bac"},"vehicle_type_id":"4","last_reported":1749802515,"current_range_meters":12400,"station_id":"ce4bhsh2rcd13ifvqi2g","pricing_plan_id":"cebpf4jnsgd1na2vs0mg"},{"bike_id":"dfe86e4d-732f-444a-affa-bc91e3d641f2","system_id":"levelo_inurba_marseille","lat":43.3169,"lon":5.40466,"is_reserved":false,"is_disabled":false,"rental_uris":{"android":"levelo://app?vid=dfe86e4d-732f-444a-affa-bc91e3d641f2","ios":"levelo://app?vid=dfe86e4d-732f-444a-affa-bc91e3d641f2"},"vehicle_type_id":"4","last_reported":1749802515,"current_range_meters":12800,"station_id":"ce4bh012rcd13ifvqd00","pricing_plan_id":"cebpf4jnsgd1na2vs0mg"},{"bike_id":"32061525-bea0-4411-b7ed-f0817b132ff9","system_id":"levelo_inurba_marseille","lat":43.26673,"lon":5.38271,"is_reserved":false,"is_disabled":false,"rental_uris":{"android":"levelo://app?vid=32061525-bea0-4411-b7ed-f0817b132ff9","ios":"levelo://app?vid=32061525-bea0-4411-b7ed-f0817b132ff9"},"vehicle_type_id":"4","last_reported":1749802515,"current_range_meters":12800,"station_id":"ce4bhg92rcd13ifvqf90","pricing_plan_id":"cebpf4jnsgd1na2vs0mg"},{"bike_id":"d43412a6-ed5f-43b0-a573-b370e795a12a","system_id":"levelo_inurba_marseille","lat":43.3236,"lon":5.36765,"is_reserved":false,"is_disabled":false,"rental_uris":{"android":"levelo://app?vid=d43412a6-ed5f-43b0-a573-b370e795a12a","ios":"levelo://app?vid=d43412a6-ed5f-43b0-a573-b370e795a12a"},"vehicle_type_id":"4","last_reported":1749802515,"current_range_meters":12800,"station_id":"ce4bhsh2rcd13ifvqi2g","pricing_plan_id":"cebpf4jnsgd1na2vs0mg"},{"bike_id":"d095f971-1e10-4677-a18d-d984077f0439","system_id":"levelo_inurba_marseille","lat":43.31225,"lon":5.36867,"is_reserved":false,"is_disabled":false,"rental_uris":{"android":"levelo://app?vid=d095f971-1e10-4677-a18d-d984077f0439","ios":"levelo://app?vid=d095f971-1e10-4677-a18d-d984077f0439"},"vehicle_type_id":"4","last_reported":1749802515,"current_range_meters":13600,"station_id":"ce4bgl92rcd13ifvqbq0","pricing_plan_id":"cebpf4jnsgd1na2vs0mg"},{"bike_id":"82149e16-ef34-4380-9e4d-a8dd0b448c7e","system_id":"levelo_inurba_marseille","lat":43.3123,"lon":5.36847,"is_reserved":false,"is_disabled":false,"rental_uris":{"android":"levelo://app?vid=82149e16-ef34-4380-9e4d-a8dd0b448c7e","ios":"levelo://app?vid=82149e16-ef34-4380-9e4d-a8dd0b448c7e"},"vehicle_type_id":"4","last_reported":1749802515,"current_range_meters":13600,"station_id":"ce4bgl92rcd13ifvqbq0","pricing_plan_id":"cebpf4jnsgd1na2vs0mg"},{"bike_id":"2dfd9119-cb0a-4111-9b9e-f4df4c3e91ef","system_id":"levelo_inurba_marseille","lat":43.29575,"lon":5.36744,"is_reserved":false,"is_disabled":false,"rental_uris":{"android":"levelo://app?vid=2dfd9119-cb0a-4111-9b9e-f4df4c3e91ef","ios":"levelo://app?vid=2dfd9119-cb0a-4111-9b9e-f4df4c3e91ef"},"vehicle_type_id":"4","last_reported":1749802515,"current_range_meters":13600,"station_id":"ce4bgph2rcd13ifvqc2g","pricing_plan_id":"cebpf4jnsgd1na2vs0mg"},{"bike_id":"81953c65-090f-4f52-a98d-2ff9ca5eac92","system_id":"levelo_inurba_marseille","lat":43.30536,"lon":5.36554,"is_reserved":false,"is_disabled":false,"rental_uris":{"android":"levelo://app?vid=81953c65-090f-4f52-a98d-2ff9ca5eac92","ios":"levelo://app?vid=81953c65-090f-4f52-a98d-2ff9ca5eac92"},"vehicle_type_id":"4","last_reported":1749802515,"current_range_meters":13600,"station_id":"ce4bgs12rcd13ifvqcag","pricing_plan_id":"cebpf4jnsgd1na2vs0mg"},{"bike_id":"b80ffbe8-7f2c-4ee7-81f0-0d376e26981a","system_id":"levelo_inurba_marseille","lat":43.30539,"lon":5.36549,"is_reserved":false,"is_disabled":false,"rental_uris":{"android":"levelo://app?vid=b80ffbe8-7f2c-4ee7-81f0-0d376e26981a","ios":"levelo://app?vid=b80ffbe8-7f2c-4ee7-81f0-0d376e26981a"},"vehicle_type_id":"4","last_reported":1749802515,"current_range_meters":13600,"station_id":"ce4bgs12rcd13ifvqcag","pricing_plan_id":"cebpf4jnsgd1na2vs0mg"},{"bike_id":"87e43786-709d-40a6-a32a-471e1146dd6c","system_id":"levelo_inurba_marseille","lat":43.23188,"lon":5.39977,"is_reserved":false,"is_disabled":false,"rental_uris":{"android":"levelo://app?vid=87e43786-709d-40a6-a32a-471e1146dd6c","ios":"levelo://app?vid=87e43786-709d-40a6-a32a-471e1146dd6c"},"vehicle_type_id":"4","last_reported":1749802515,"current_range_meters":13600,"station_id":"ce4bhn12rcd13ifvqgqg","pricing_plan_id":"cebpf4jnsgd1na2vs0mg"},{"bike_id":"d50edbe8-35c7-40ef-bb5c-70dbe20e345a","system_id":"levelo_inurba_marseille","lat":43.24068,"lon":5.37766,"is_reserved":false,"is_disabled":false,"rental_uris":{"android":"levelo://app?vid=d50edbe8-35c7-40ef-bb5c-70dbe20e345a","ios":"levelo://app?vid=d50edbe8-35c7-40ef-bb5c-70dbe20e345a"},"vehicle_type_id":"4","last_reported":1749802515,"current_range_meters":13600,"station_id":"ce4bhnp2rcd13ifvqgvg","pricing_plan_id":"cebpf4jnsgd1na2vs0mg"},{"bike_id":"5b1dc913-ef52-474a-a059-f97098481037","system_id":"levelo_inurba_marseille","lat":43.29524,"lon":5.375,"is_reserved":false,"is_disabled":false,"rental_uris":{"android":"levelo://app?vid=5b1dc913-ef52-474a-a059-f97098481037","ios":"levelo://app?vid=5b1dc913-ef52-474a-a059-f97098481037"},"vehicle_type_id":"4","last_reported":1749802515,"current_range_meters":14000,"station_id":"ce4bgkp2rcd13ifvqbmg","pricing_plan_id":"cebpf4jnsgd1na2vs0mg"},{"bike_id":"98eb4940-5212-4261-a0c9-1036b2a31d6f","system_id":"levelo_inurba_marseille","lat":43.28484,"lon":5.38559,"is_reserved":false,"is_disabled":false,"rental_uris":{"android":"levelo://app?vid=98eb4940-5212-4261-a0c9-1036b2a31d6f","ios":"levelo://app?vid=98eb4940-5212-4261-a0c9-1036b2a31d6f"},"vehicle_type_id":"4","last_reported":1749802515,"current_range_meters":14000,"station_id":"ce4bh8p2rcd13ifvqeb0","pricing_plan_id":"cebpf4jnsgd1na2vs0mg"},{"bike_id":"6b7135ce-cce1-474c-96d0-0b3d4b709e28","system_id":"levelo_inurba_marseille","lat":43.26219,"lon":5.40446,"is_reserved":false,"is_disabled":false,"rental_uris":{"android":"levelo://app?vid=6b7135ce-cce1-474c-96d0-0b3d4b709e28","ios":"levelo://app?vid=6b7135ce-cce1-474c-96d0-0b3d4b709e28"},"vehicle_type_id":"4","last_reported":1749802515,"current_range_meters":14000,"station_id":"ce4bhmh2rcd13ifvqgmg","pricing_plan_id":"cebpf4jnsgd1na2vs0mg"},{"bike_id":"713f94e3-c67e-4836-bdd5-cfe7bb1b1281","system_id":"levelo_inurba_marseille","lat":43.22507,"lon":5.34784,"is_reserved":false,"is_disabled":false,"rental_uris":{"android":"levelo://app?vid=713f94e3-c67e-4836-bdd5-cfe7bb1b1281","ios":"levelo://app?vid=713f94e3-c67e-4836-bdd5-cfe7bb1b1281"},"vehicle_type_id":"4","last_reported":1749802515,"current_range_meters":14000,"station_id":"st_cvj5dfep6f1abm77gieg","pricing_plan_id":"cebpf4jnsgd1na2vs0mg"},{"bike_id":"6facbc0d-f1b5-4dc3-86d4-5c1204834925","system_id":"levelo_inurba_marseille","lat":43.28054,"lon":5.34798,"is_reserved":false,"is_disabled":false,"rental_uris":{"android":"levelo://app?vid=6facbc0d-f1b5-4dc3-86d4-5c1204834925","ios":"levelo://app?vid=6facbc0d-f1b5-4dc3-86d4-5c1204834925"},"vehicle_type_id":"4","last_reported":1749802515,"current_range_meters":14400,"station_id":"","pricing_plan_id":"cebpf4jnsgd1na2vs0mg"},{"bike_id":"51469e64-8508-406e-a5b6-eb41193a8055","system_id":"levelo_inurba_marseille","lat":43.29579,"lon":5.36746,"is_reserved":false,"is_disabled":false,"rental_uris":{"android":"levelo://app?vid=51469e64-8508-406e-a5b6-eb41193a8055","ios":"levelo://app?vid=51469e64-8508-406e-a5b6-eb41193a8055"},"vehicle_type_id":"4","last_reported":1749802515,"current_range_meters":14400,"station_id":"ce4bgph2rcd13ifvqc2g","pricing_plan_id":"cebpf4jnsgd1na2vs0mg"},{"bike_id":"98e548ab-de52-49a0-b255-e3415fec5b7c","system_id":"levelo_inurba_marseille","lat":43.31701,"lon":5.37679,"is_reserved":false,"is_disabled":false,"rental_uris":{"android":"levelo://app?vid=98e548ab-de52-49a0-b255-e3415fec5b7c","ios":"levelo://app?vid=98e548ab-de52-49a0-b255-e3415fec5b7c"},"vehicle_type_id":"4","last_reported":1749802515,"current_range_meters":14400,"station_id":"ce4bgth2rcd13ifvqch0","pricing_plan_id":"cebpf4jnsgd1na2vs0mg"},{"bike_id":"4a12b1da-58ad-43c1-9cf3-c569193f8048","system_id":"levelo_inurba_marseille","lat":43.29035,"lon":5.3997,"is_reserved":false,"is_disabled":false,"rental_uris":{"android":"levelo://app?vid=4a12b1da-58ad-43c1-9cf3-c569193f8048","ios":"levelo://app?vid=4a12b1da-58ad-43c1-9cf3-c569193f8048"},"vehicle_type_id":"4","last_reported":1749802515,"current_range_meters":14400,"station_id":"ce4bh392rcd13ifvqdm0","pricing_plan_id":"cebpf4jnsgd1na2vs0mg"},{"bike_id":"157208a8-fc2b-4fb9-8e8d-a8edbd71740d","system_id":"levelo_inurba_marseille","lat":43.27059,"lon":5.40271,"is_reserved":false,"is_disabled":false,"rental_uris":{"android":"levelo://app?vid=157208a8-fc2b-4fb9-8e8d-a8edbd71740d","ios":"levelo://app?vid=157208a8-fc2b-4fb9-8e8d-a8edbd71740d"},"vehicle_type_id":"4","last_reported":1749802515,"current_range_meters":14400,"station_id":"ce4bhk92rcd13ifvqgc0","pricing_plan_id":"cebpf4jnsgd1na2vs0mg"},{"bike_id":"394a929d-1a63-4d49-9628-26307385d1d4","system_id":"levelo_inurba_marseille","lat":43.231598,"lon":5.437241,"is_reserved":false,"is_disabled":false,"rental_uris":{"android":"levelo://app?vid=394a929d-1a63-4d49-9628-26307385d1d4","ios":"levelo://app?vid=394a929d-1a63-4d49-9628-26307385d1d4"},"vehicle_type_id":"4","last_reported":1749802515,"current_range_meters":14400,"station_id":"ce4bhmp2rcd13ifvqgog","pricing_plan_id":"cebpf4jnsgd1na2vs0mg"},{"bike_id":"ef8f2924-50e0-41af-91d5-338d180db502","system_id":"levelo_inurba_marseille","lat":43.217522,"lon":5.346054,"is_reserved":false,"is_disabled":false,"rental_uris":{"android":"levelo://app?vid=ef8f2924-50e0-41af-91d5-338d180db502","ios":"levelo://app?vid=ef8f2924-50e0-41af-91d5-338d180db502"},"vehicle_type_id":"4","last_reported":1749802515,"current_range_meters":14400,"station_id":"st_cvj6r9ubvosntc0bgbag","pricing_plan_id":"cebpf4jnsgd1na2vs0mg"},{"bike_id":"4befabab-b2ad-40ca-8a59-2e8290dfa17a","system_id":"levelo_inurba_marseille","lat":43.30144,"lon":5.37403,"is_reserved":false,"is_disabled":false,"rental_uris":{"android":"levelo://app?vid=4befabab-b2ad-40ca-8a59-2e8290dfa17a","ios":"levelo://app?vid=4befabab-b2ad-40ca-8a59-2e8290dfa17a"},"vehicle_type_id":"4","last_reported":1749802515,"current_range_meters":14800,"station_id":"ce4bgs92rcd13ifvqcc0","pricing_plan_id":"cebpf4jnsgd1na2vs0mg"},{"bike_id":"69f4af3c-c96f-406b-b941-50b65d1e21f6","system_id":"levelo_inurba_marseille","lat":43.26211,"lon":5.37444,"is_reserved":false,"is_disabled":false,"rental_uris":{"android":"levelo://app?vid=69f4af3c-c96f-406b-b941-50b65d1e21f6","ios":"levelo://app?vid=69f4af3c-c96f-406b-b941-50b65d1e21f6"},"vehicle_type_id":"4","last_reported":1749802515,"current_range_meters":14800,"station_id":"ce4bhgp2rcd13ifvqfc0","pricing_plan_id":"cebpf4jnsgd1na2vs0mg"},{"bike_id":"b9744627-1737-453c-b7ed-c1681c0ddfbb","system_id":"levelo_inurba_marseille","lat":43.27488,"lon":5.42457,"is_reserved":false,"is_disabled":false,"rental_uris":{"android":"levelo://app?vid=b9744627-1737-453c-b7ed-c1681c0ddfbb","ios":"levelo://app?vid=b9744627-1737-453c-b7ed-c1681c0ddfbb"},"vehicle_type_id":"4","last_reported":1749802515,"current_range_meters":14800,"station_id":"ce4bhn92rcd13ifvqgrg","pricing_plan_id":"cebpf4jnsgd1na2vs0mg"},{"bike_id":"c6c38e3c-8bc6-4973-96fe-75d10e8751f4","system_id":"levelo_inurba_marseille","lat":43.30381,"lon":5.42481,"is_reserved":false,"is_disabled":false,"rental_uris":{"android":"levelo://app?vid=c6c38e3c-8bc6-4973-96fe-75d10e8751f4","ios":"levelo://app?vid=c6c38e3c-8bc6-4973-96fe-75d10e8751f4"},"vehicle_type_id":"4","last_reported":1749802515,"current_range_meters":14800,"station_id":"ce4bhoh2rcd13ifvqh6g","pricing_plan_id":"cebpf4jnsgd1na2vs0mg"},{"bike_id":"326cc913-bdbc-48c2-9a88-414846f09512","system_id":"levelo_inurba_marseille","lat":43.32346,"lon":5.36743,"is_reserved":false,"is_disabled":false,"rental_uris":{"android":"levelo://app?vid=326cc913-bdbc-48c2-9a88-414846f09512","ios":"levelo://app?vid=326cc913-bdbc-48c2-9a88-414846f09512"},"vehicle_type_id":"4","last_reported":1749802515,"current_range_meters":14800,"station_id":"ce4bhsh2rcd13ifvqi2g","pricing_plan_id":"cebpf4jnsgd1na2vs0mg"},{"bike_id":"db4b43d2-2d11-4c47-83cd-2a38575cb3f3","system_id":"levelo_inurba_marseille","lat":43.30907,"lon":5.36857,"is_reserved":false,"is_disabled":false,"rental_uris":{"android":"levelo://app?vid=db4b43d2-2d11-4c47-83cd-2a38575cb3f3","ios":"levelo://app?vid=db4b43d2-2d11-4c47-83cd-2a38575cb3f3"},"vehicle_type_id":"4","last_reported":1749802515,"current_range_meters":15200,"station_id":"ce4bgn92rcd13ifvqbvg","pricing_plan_id":"cebpf4jnsgd1na2vs0mg"},{"bike_id":"075c05ec-b3c9-44c3-b57f-1083abf2ca61","system_id":"levelo_inurba_marseille","lat":43.2712,"lon":5.42643,"is_reserved":false,"is_disabled":false,"rental_uris":{"android":"levelo://app?vid=075c05ec-b3c9-44c3-b57f-1083abf2ca61","ios":"levelo://app?vid=075c05ec-b3c9-44c3-b57f-1083abf2ca61"},"vehicle_type_id":"4","last_reported":1749802515,"current_range_meters":16000,"station_id":"","pricing_plan_id":"cebpf4jnsgd1na2vs0mg"},{"bike_id":"c0bd4251-d527-48a7-9378-e4e80c1c274f","system_id":"levelo_inurba_marseille","lat":43.31827,"lon":5.37401,"is_reserved":false,"is_disabled":false,"rental_uris":{"android":"levelo://app?vid=c0bd4251-d527-48a7-9378-e4e80c1c274f","ios":"levelo://app?vid=c0bd4251-d527-48a7-9378-e4e80c1c274f"},"vehicle_type_id":"4","last_reported":1749802515,"current_range_meters":16000,"station_id":"","pricing_plan_id":"cebpf4jnsgd1na2vs0mg"},{"bike_id":"f8af74af-8f41-4136-9b82-bf7d4f87baeb","system_id":"levelo_inurba_marseille","lat":43.30176,"lon":5.38079,"is_reserved":false,"is_disabled":false,"rental_uris":{"android":"levelo://app?vid=f8af74af-8f41-4136-9b82-bf7d4f87baeb","ios":"levelo://app?vid=f8af74af-8f41-4136-9b82-bf7d4f87baeb"},"vehicle_type_id":"4","last_reported":1749802515,"current_range_meters":16000,"station_id":"ce4bgjp2rcd13ifvqbh0","pricing_plan_id":"cebpf4jnsgd1na2vs0mg"},{"bike_id":"f38ab1a7-3078-4364-a5da-31d8874fee8e","system_id":"levelo_inurba_marseille","lat":43.30914,"lon":5.36848,"is_reserved":false,"is_disabled":false,"rental_uris":{"android":"levelo://app?vid=f38ab1a7-3078-4364-a5da-31d8874fee8e","ios":"levelo://app?vid=f38ab1a7-3078-4364-a5da-31d8874fee8e"},"vehicle_type_id":"4","last_reported":1749802515,"current_range_meters":16000,"station_id":"ce4bgn92rcd13ifvqbvg","pricing_plan_id":"cebpf4jnsgd1na2vs0mg"},{"bike_id":"caca3031-d7c1-4d5d-9ad0-c67b41e48a83","system_id":"levelo_inurba_marseille","lat":43.25862,"lon":5.39899,"is_reserved":false,"is_disabled":false,"rental_uris":{"android":"levelo://app?vid=caca3031-d7c1-4d5d-9ad0-c67b41e48a83","ios":"levelo://app?vid=caca3031-d7c1-4d5d-9ad0-c67b41e48a83"},"vehicle_type_id":"4","last_reported":1749802515,"current_range_meters":16000,"station_id":"ce4bhl92rcd13ifvqghg","pricing_plan_id":"cebpf4jnsgd1na2vs0mg"},{"bike_id":"b861b270-1a8b-430a-9ace-373192b06cc4","system_id":"levelo_inurba_marseille","lat":43.23148,"lon":5.43723,"is_reserved":false,"is_disabled":false,"rental_uris":{"android":"levelo://app?vid=b861b270-1a8b-430a-9ace-373192b06cc4","ios":"levelo://app?vid=b861b270-1a8b-430a-9ace-373192b06cc4"},"vehicle_type_id":"4","last_reported":1749802515,"current_range_meters":16000,"station_id":"ce4bhmp2rcd13ifvqgog","pricing_plan_id":"cebpf4jnsgd1na2vs0mg"},{"bike_id":"7835a476-bf82-41b7-87e3-950cf4d733b9","system_id":"levelo_inurba_marseille","lat":43.28069,"lon":5.3562,"is_reserved":false,"is_disabled":false,"rental_uris":{"android":"levelo://app?vid=7835a476-bf82-41b7-87e3-950cf4d733b9","ios":"levelo://app?vid=7835a476-bf82-41b7-87e3-950cf4d733b9"},"vehicle_type_id":"4","last_reported":1749802515,"current_range_meters":16400,"station_id":"","pricing_plan_id":"cebpf4jnsgd1na2vs0mg"},{"bike_id":"3b2851dc-cdc3-4c74-bb7a-6b50ea5674bc","system_id":"levelo_inurba_marseille","lat":43.30183,"lon":5.3807,"is_reserved":false,"is_disabled":false,"rental_uris":{"android":"levelo://app?vid=3b2851dc-cdc3-4c74-bb7a-6b50ea5674bc","ios":"levelo://app?vid=3b2851dc-cdc3-4c74-bb7a-6b50ea5674bc"},"vehicle_type_id":"4","last_reported":1749802515,"current_range_meters":16400,"station_id":"ce4bgjp2rcd13ifvqbh0","pricing_plan_id":"cebpf4jnsgd1na2vs0mg"},{"bike_id":"bdc5a330-457d-4912-b76a-c30a160326aa","system_id":"levelo_inurba_marseille","lat":43.24166,"lon":5.3972,"is_reserved":false,"is_disabled":false,"rental_uris":{"android":"levelo://app?vid=bdc5a330-457d-4912-b76a-c30a160326aa","ios":"levelo://app?vid=bdc5a330-457d-4912-b76a-c30a160326aa"},"vehicle_type_id":"4","last_reported":1749802515,"current_range_meters":16400,"station_id":"ce4bhn12rcd13ifvqgpg","pricing_plan_id":"cebpf4jnsgd1na2vs0mg"},{"bike_id":"2d9eb491-ef60-4c87-8fa5-c0a977f848da","system_id":"levelo_inurba_marseille","lat":43.211916,"lon":5.350756,"is_reserved":false,"is_disabled":false,"rental_uris":{"android":"levelo://app?vid=2d9eb491-ef60-4c87-8fa5-c0a977f848da","ios":"levelo://app?vid=2d9eb491-ef60-4c87-8fa5-c0a977f848da"},"vehicle_type_id":"4","last_reported":1749802515,"current_range_meters":16400,"station_id":"st_cvj6sg6p6f1abm77japg","pricing_plan_id":"cebpf4jnsgd1na2vs0mg"},{"bike_id":"da391f59-8f54-408c-a8c3-f3bb9496cd31","system_id":"levelo_inurba_marseille","lat":43.30306,"lon":5.36906,"is_reserved":false,"is_disabled":false,"rental_uris":{"android":"levelo://app?vid=da391f59-8f54-408c-a8c3-f3bb9496cd31","ios":"levelo://app?vid=da391f59-8f54-408c-a8c3-f3bb9496cd31"},"vehicle_type_id":"4","last_reported":1749802515,"current_range_meters":16800,"station_id":"ce4bgqh2rcd13ifvqc5g","pricing_plan_id":"cebpf4jnsgd1na2vs0mg"},{"bike_id":"d1d355d8-7375-431f-9a83-7a3c66687761","system_id":"levelo_inurba_marseille","lat":43.29005,"lon":5.35606,"is_reserved":false,"is_disabled":false,"rental_uris":{"android":"levelo://app?vid=d1d355d8-7375-431f-9a83-7a3c66687761","ios":"levelo://app?vid=d1d355d8-7375-431f-9a83-7a3c66687761"},"vehicle_type_id":"4","last_reported":1749802515,"current_range_meters":16800,"station_id":"ce4bhb92rcd13ifvqen0","pricing_plan_id":"cebpf4jnsgd1na2vs0mg"},{"bike_id":"a929aecd-f470-421f-b178-b963c549fae6","system_id":"levelo_inurba_marseille","lat":43.27313,"lon":5.39088,"is_reserved":false,"is_disabled":false,"rental_uris":{"android":"levelo://app?vid=a929aecd-f470-421f-b178-b963c549fae6","ios":"levelo://app?vid=a929aecd-f470-421f-b178-b963c549fae6"},"vehicle_type_id":"4","last_reported":1749802515,"current_range_meters":16800,"station_id":"ce4bhgp2rcd13ifvqfe0","pricing_plan_id":"cebpf4jnsgd1na2vs0mg"},{"bike_id":"5fdf9217-5622-4379-8e75-aafa0aa634ee","system_id":"levelo_inurba_marseille","lat":43.27672,"lon":5.38875,"is_reserved":false,"is_disabled":false,"rental_uris":{"android":"levelo://app?vid=5fdf9217-5622-4379-8e75-aafa0aa634ee","ios":"levelo://app?vid=5fdf9217-5622-4379-8e75-aafa0aa634ee"},"vehicle_type_id":"4","last_reported":1749802515,"current_range_meters":16800,"station_id":"ce4bhi12rcd13ifvqfo0","pricing_plan_id":"cebpf4jnsgd1na2vs0mg"},{"bike_id":"ba0042d0-63d3-4ad7-809b-aef890f577cf","system_id":"levelo_inurba_marseille","lat":43.25885,"lon":5.4088,"is_reserved":false,"is_disabled":false,"rental_uris":{"android":"levelo://app?vid=ba0042d0-63d3-4ad7-809b-aef890f577cf","ios":"levelo://app?vid=ba0042d0-63d3-4ad7-809b-aef890f577cf"},"vehicle_type_id":"4","last_reported":1749802515,"current_range_meters":16800,"station_id":"ce4bhm92rcd13ifvqglg","pricing_plan_id":"cebpf4jnsgd1na2vs0mg"},{"bike_id":"ac1f682a-971e-40a1-812f-8cbbceb7aff8","system_id":"levelo_inurba_marseille","lat":43.28696,"lon":5.39981,"is_reserved":false,"is_disabled":false,"rental_uris":{"android":"levelo://app?vid=ac1f682a-971e-40a1-812f-8cbbceb7aff8","ios":"levelo://app?vid=ac1f682a-971e-40a1-812f-8cbbceb7aff8"},"vehicle_type_id":"4","last_reported":1749802515,"current_range_meters":16800,"station_id":"ce4bho92rcd13ifvqh3g","pricing_plan_id":"cebpf4jnsgd1na2vs0mg"},{"bike_id":"57da9616-2dc1-40f2-b27d-a68fbadb7cd5","system_id":"levelo_inurba_marseille","lat":43.33598,"lon":5.41001,"is_reserved":false,"is_disabled":false,"rental_uris":{"android":"levelo://app?vid=57da9616-2dc1-40f2-b27d-a68fbadb7cd5","ios":"levelo://app?vid=57da9616-2dc1-40f2-b27d-a68fbadb7cd5"},"vehicle_type_id":"4","last_reported":1749802515,"current_range_meters":16800,"station_id":"ce4bhqh2rcd13ifvqhmg","pricing_plan_id":"cebpf4jnsgd1na2vs0mg"},{"bike_id":"fbe1d875-c023-4ad2-bd94-b5b806f33e2a","system_id":"levelo_inurba_marseille","lat":43.317584,"lon":5.390086,"is_reserved":false,"is_disabled":false,"rental_uris":{"android":"levelo://app?vid=fbe1d875-c023-4ad2-bd94-b5b806f33e2a","ios":"levelo://app?vid=fbe1d875-c023-4ad2-bd94-b5b806f33e2a"},"vehicle_type_id":"4","last_reported":1749802515,"current_range_meters":16800,"station_id":"ce4bhqp2rcd13ifvqhng","pricing_plan_id":"cebpf4jnsgd1na2vs0mg"},{"bike_id":"e6b5ecaa-5ef1-4155-8bfd-8280851d5e9d","system_id":"levelo_inurba_marseille","lat":43.26938,"lon":5.40268,"is_reserved":false,"is_disabled":false,"rental_uris":{"android":"levelo://app?vid=e6b5ecaa-5ef1-4155-8bfd-8280851d5e9d","ios":"levelo://app?vid=e6b5ecaa-5ef1-4155-8bfd-8280851d5e9d"},"vehicle_type_id":"4","last_reported":1749802515,"current_range_meters":16800,"station_id":"cjm6bp8fraef2m0cb0m0","pricing_plan_id":"cebpf4jnsgd1na2vs0mg"},{"bike_id":"2ff0307b-dccf-4255-8a96-f5d9a3771077","system_id":"levelo_inurba_marseille","lat":43.29706,"lon":5.36611,"is_reserved":false,"is_disabled":false,"rental_uris":{"android":"levelo://app?vid=2ff0307b-dccf-4255-8a96-f5d9a3771077","ios":"levelo://app?vid=2ff0307b-dccf-4255-8a96-f5d9a3771077"},"vehicle_type_id":"4","last_reported":1749802515,"current_range_meters":17200,"station_id":"ce4bgn12rcd13ifvqbt0","pricing_plan_id":"cebpf4jnsgd1na2vs0mg"},{"bike_id":"63c7b2fc-a38f-4bfd-b144-b33b75d1f9f5","system_id":"levelo_inurba_marseille","lat":43.25826,"lon":5.39435,"is_reserved":false,"is_disabled":false,"rental_uris":{"android":"levelo://app?vid=63c7b2fc-a38f-4bfd-b144-b33b75d1f9f5","ios":"levelo://app?vid=63c7b2fc-a38f-4bfd-b144-b33b75d1f9f5"},"vehicle_type_id":"4","last_reported":1749802515,"current_range_meters":17200,"station_id":"ce4bhip2rcd13ifvqft0","pricing_plan_id":"cebpf4jnsgd1na2vs0mg"},{"bike_id":"f1241d94-da8c-4658-bd8b-e80d20110507","system_id":"levelo_inurba_marseille","lat":43.27051,"lon":5.40265,"is_reserved":false,"is_disabled":false,"rental_uris":{"android":"levelo://app?vid=f1241d94-da8c-4658-bd8b-e80d20110507","ios":"levelo://app?vid=f1241d94-da8c-4658-bd8b-e80d20110507"},"vehicle_type_id":"4","last_reported":1749802515,"current_range_meters":17200,"station_id":"ce4bhk92rcd13ifvqgc0","pricing_plan_id":"cebpf4jnsgd1na2vs0mg"},{"bike_id":"d70da658-c3cd-4933-a29e-f42d13bc6db4","system_id":"levelo_inurba_marseille","lat":43.27056,"lon":5.40267,"is_reserved":false,"is_disabled":false,"rental_uris":{"android":"levelo://app?vid=d70da658-c3cd-4933-a29e-f42d13bc6db4","ios":"levelo://app?vid=d70da658-c3cd-4933-a29e-f42d13bc6db4"},"vehicle_type_id":"4","last_reported":1749802515,"current_range_meters":17200,"station_id":"ce4bhk92rcd13ifvqgc0","pricing_plan_id":"cebpf4jnsgd1na2vs0mg"},{"bike_id":"090e9744-4c4c-46bd-9369-095ed307f547","system_id":"levelo_inurba_marseille","lat":43.27502,"lon":5.4245,"is_reserved":false,"is_disabled":false,"rental_uris":{"android":"levelo://app?vid=090e9744-4c4c-46bd-9369-095ed307f547","ios":"levelo://app?vid=090e9744-4c4c-46bd-9369-095ed307f547"},"vehicle_type_id":"4","last_reported":1749802515,"current_range_meters":17200,"station_id":"ce4bhn92rcd13ifvqgrg","pricing_plan_id":"cebpf4jnsgd1na2vs0mg"},{"bike_id":"370797df-7a54-4279-83d7-5eca14579627","system_id":"levelo_inurba_marseille","lat":43.30385,"lon":5.42492,"is_reserved":false,"is_disabled":false,"rental_uris":{"android":"levelo://app?vid=370797df-7a54-4279-83d7-5eca14579627","ios":"levelo://app?vid=370797df-7a54-4279-83d7-5eca14579627"},"vehicle_type_id":"4","last_reported":1749802515,"current_range_meters":17200,"station_id":"ce4bhoh2rcd13ifvqh6g","pricing_plan_id":"cebpf4jnsgd1na2vs0mg"},{"bike_id":"2ab31527-f915-4286-b3a0-0beafd2cdd50","system_id":"levelo_inurba_marseille","lat":43.29988,"lon":5.3704,"is_reserved":false,"is_disabled":false,"rental_uris":{"android":"levelo://app?vid=2ab31527-f915-4286-b3a0-0beafd2cdd50","ios":"levelo://app?vid=2ab31527-f915-4286-b3a0-0beafd2cdd50"},"vehicle_type_id":"4","last_reported":1749802515,"current_range_meters":17600,"station_id":"","pricing_plan_id":"cebpf4jnsgd1na2vs0mg"},{"bike_id":"a3d8ed61-ad96-4794-9377-3745ebafc863","system_id":"levelo_inurba_marseille","lat":43.29129,"lon":5.38112,"is_reserved":false,"is_disabled":false,"rental_uris":{"android":"levelo://app?vid=a3d8ed61-ad96-4794-9377-3745ebafc863","ios":"levelo://app?vid=a3d8ed61-ad96-4794-9377-3745ebafc863"},"vehicle_type_id":"4","last_reported":1749802515,"current_range_meters":17600,"station_id":"ce4bh512rcd13ifvqe2g","pricing_plan_id":"cebpf4jnsgd1na2vs0mg"},{"bike_id":"2a580a26-d80d-449e-806f-9387192f9cb0","system_id":"levelo_inurba_marseille","lat":43.27501,"lon":5.42461,"is_reserved":false,"is_disabled":false,"rental_uris":{"android":"levelo://app?vid=2a580a26-d80d-449e-806f-9387192f9cb0","ios":"levelo://app?vid=2a580a26-d80d-449e-806f-9387192f9cb0"},"vehicle_type_id":"4","last_reported":1749802515,"current_range_meters":17600,"station_id":"ce4bhn92rcd13ifvqgrg","pricing_plan_id":"cebpf4jnsgd1na2vs0mg"},{"bike_id":"8f831077-cb20-4c40-8a3b-06c2e84e8201","system_id":"levelo_inurba_marseille","lat":43.295492,"lon":5.42289,"is_reserved":false,"is_disabled":false,"rental_uris":{"android":"levelo://app?vid=8f831077-cb20-4c40-8a3b-06c2e84e8201","ios":"levelo://app?vid=8f831077-cb20-4c40-8a3b-06c2e84e8201"},"vehicle_type_id":"4","last_reported":1749802515,"current_range_meters":17600,"station_id":"ce4bhph2rcd13ifvqhdg","pricing_plan_id":"cebpf4jnsgd1na2vs0mg"},{"bike_id":"35d2d225-4975-47e1-82d8-5ff3989080a4","system_id":"levelo_inurba_marseille","lat":43.336,"lon":5.41033,"is_reserved":false,"is_disabled":false,"rental_uris":{"android":"levelo://app?vid=35d2d225-4975-47e1-82d8-5ff3989080a4","ios":"levelo://app?vid=35d2d225-4975-47e1-82d8-5ff3989080a4"},"vehicle_type_id":"4","last_reported":1749802515,"current_range_meters":17600,"station_id":"ce4bhqh2rcd13ifvqhmg","pricing_plan_id":"cebpf4jnsgd1na2vs0mg"},{"bike_id":"f3ec16b2-8afd-4ecb-8d58-15a6a90ff603","system_id":"levelo_inurba_marseille","lat":43.32361,"lon":5.36761,"is_reserved":false,"is_disabled":false,"rental_uris":{"android":"levelo://app?vid=f3ec16b2-8afd-4ecb-8d58-15a6a90ff603","ios":"levelo://app?vid=f3ec16b2-8afd-4ecb-8d58-15a6a90ff603"},"vehicle_type_id":"4","last_reported":1749802515,"current_range_meters":17600,"station_id":"ce4bhsh2rcd13ifvqi2g","pricing_plan_id":"cebpf4jnsgd1na2vs0mg"},{"bike_id":"a172b0cf-62c4-4c52-a818-ce564350df02","system_id":"levelo_inurba_marseille","lat":43.21202,"lon":5.35077,"is_reserved":false,"is_disabled":false,"rental_uris":{"android":"levelo://app?vid=a172b0cf-62c4-4c52-a818-ce564350df02","ios":"levelo://app?vid=a172b0cf-62c4-4c52-a818-ce564350df02"},"vehicle_type_id":"4","last_reported":1749802515,"current_range_meters":17600,"station_id":"st_cvj6sg6p6f1abm77japg","pricing_plan_id":"cebpf4jnsgd1na2vs0mg"},{"bike_id":"b8be75ca-a70d-4aee-a2e8-3271c5b2ff0f","system_id":"levelo_inurba_marseille","lat":43.3137,"lon":5.36682,"is_reserved":false,"is_disabled":false,"rental_uris":{"android":"levelo://app?vid=b8be75ca-a70d-4aee-a2e8-3271c5b2ff0f","ios":"levelo://app?vid=b8be75ca-a70d-4aee-a2e8-3271c5b2ff0f"},"vehicle_type_id":"4","last_reported":1749802515,"current_range_meters":18000,"station_id":"ce4bgr92rcd13ifvqc6g","pricing_plan_id":"cebpf4jnsgd1na2vs0mg"},{"bike_id":"5f85d7b9-d7c0-46c3-aa28-8b41f1578e6e","system_id":"levelo_inurba_marseille","lat":43.2995,"lon":5.37145,"is_reserved":false,"is_disabled":false,"rental_uris":{"android":"levelo://app?vid=5f85d7b9-d7c0-46c3-aa28-8b41f1578e6e","ios":"levelo://app?vid=5f85d7b9-d7c0-46c3-aa28-8b41f1578e6e"},"vehicle_type_id":"4","last_reported":1749802515,"current_range_meters":18000,"station_id":"ce4bgr92rcd13ifvqc7g","pricing_plan_id":"cebpf4jnsgd1na2vs0mg"},{"bike_id":"5eb59d75-eee5-44da-84ba-67f5d82ee098","system_id":"levelo_inurba_marseille","lat":43.301826,"lon":5.366156,"is_reserved":false,"is_disabled":false,"rental_uris":{"android":"levelo://app?vid=5eb59d75-eee5-44da-84ba-67f5d82ee098","ios":"levelo://app?vid=5eb59d75-eee5-44da-84ba-67f5d82ee098"},"vehicle_type_id":"4","last_reported":1749802515,"current_range_meters":18000,"station_id":"ce4bgrh2rcd13ifvqc8g","pricing_plan_id":"cebpf4jnsgd1na2vs0mg"},{"bike_id":"64b990fa-86d1-4cbe-9c7c-7d49193d6452","system_id":"levelo_inurba_marseille","lat":43.26669,"lon":5.38274,"is_reserved":false,"is_disabled":false,"rental_uris":{"android":"levelo://app?vid=64b990fa-86d1-4cbe-9c7c-7d49193d6452","ios":"levelo://app?vid=64b990fa-86d1-4cbe-9c7c-7d49193d6452"},"vehicle_type_id":"4","last_reported":1749802515,"current_range_meters":18000,"station_id":"ce4bhg92rcd13ifvqf90","pricing_plan_id":"cebpf4jnsgd1na2vs0mg"},{"bike_id":"a072c188-bd42-470e-b8a1-77ddbfa5ef13","system_id":"levelo_inurba_marseille","lat":43.26679,"lon":5.38272,"is_reserved":false,"is_disabled":false,"rental_uris":{"android":"levelo://app?vid=a072c188-bd42-470e-b8a1-77ddbfa5ef13","ios":"levelo://app?vid=a072c188-bd42-470e-b8a1-77ddbfa5ef13"},"vehicle_type_id":"4","last_reported":1749802515,"current_range_meters":18000,"station_id":"ce4bhg92rcd13ifvqf90","pricing_plan_id":"cebpf4jnsgd1na2vs0mg"},{"bike_id":"033f15e1-5ed0-4098-a7ec-2a49aba179ae","system_id":"levelo_inurba_marseille","lat":43.285083,"lon":5.353541,"is_reserved":false,"is_disabled":false,"rental_uris":{"android":"levelo://app?vid=033f15e1-5ed0-4098-a7ec-2a49aba179ae","ios":"levelo://app?vid=033f15e1-5ed0-4098-a7ec-2a49aba179ae"},"vehicle_type_id":"4","last_reported":1749802515,"current_range_meters":18800,"station_id":"","pricing_plan_id":"cebpf4jnsgd1na2vs0mg"},{"bike_id":"0ec9defd-0e2a-4009-8545-dad67a44be7c","system_id":"levelo_inurba_marseille","lat":43.30483,"lon":5.37913,"is_reserved":false,"is_disabled":false,"rental_uris":{"android":"levelo://app?vid=0ec9defd-0e2a-4009-8545-dad67a44be7c","ios":"levelo://app?vid=0ec9defd-0e2a-4009-8545-dad67a44be7c"},"vehicle_type_id":"4","last_reported":1749802515,"current_range_meters":18800,"station_id":"ce4bgup2rcd13ifvqcn0","pricing_plan_id":"cebpf4jnsgd1na2vs0mg"},{"bike_id":"b78e7ab2-ce35-4885-8d6a-0160c87e7d67","system_id":"levelo_inurba_marseille","lat":43.30461,"lon":5.37913,"is_reserved":false,"is_disabled":false,"rental_uris":{"android":"levelo://app?vid=b78e7ab2-ce35-4885-8d6a-0160c87e7d67","ios":"levelo://app?vid=b78e7ab2-ce35-4885-8d6a-0160c87e7d67"},"vehicle_type_id":"4","last_reported":1749802515,"current_range_meters":18800,"station_id":"ce4bgup2rcd13ifvqcn0","pricing_plan_id":"cebpf4jnsgd1na2vs0mg"},{"bike_id":"1ba114cf-0bfe-4baf-b5b3-06d7533c55dd","system_id":"levelo_inurba_marseille","lat":43.25865,"lon":5.39899,"is_reserved":false,"is_disabled":false,"rental_uris":{"android":"levelo://app?vid=1ba114cf-0bfe-4baf-b5b3-06d7533c55dd","ios":"levelo://app?vid=1ba114cf-0bfe-4baf-b5b3-06d7533c55dd"},"vehicle_type_id":"4","last_reported":1749802515,"current_range_meters":18800,"station_id":"ce4bhl92rcd13ifvqghg","pricing_plan_id":"cebpf4jnsgd1na2vs0mg"},{"bike_id":"f1c160cf-2487-4cad-80b6-5d7679e0d40e","system_id":"levelo_inurba_marseille","lat":43.25942,"lon":5.40876,"is_reserved":false,"is_disabled":false,"rental_uris":{"android":"levelo://app?vid=f1c160cf-2487-4cad-80b6-5d7679e0d40e","ios":"levelo://app?vid=f1c160cf-2487-4cad-80b6-5d7679e0d40e"},"vehicle_type_id":"4","last_reported":1749802515,"current_range_meters":18800,"station_id":"ce4bhm92rcd13ifvqglg","pricing_plan_id":"cebpf4jnsgd1na2vs0mg"},{"bike_id":"e1e7bdb4-e820-4ffb-b6a7-06084909fb4b","system_id":"levelo_inurba_marseille","lat":43.34145,"lon":5.40897,"is_reserved":false,"is_disabled":false,"rental_uris":{"android":"levelo://app?vid=e1e7bdb4-e820-4ffb-b6a7-06084909fb4b","ios":"levelo://app?vid=e1e7bdb4-e820-4ffb-b6a7-06084909fb4b"},"vehicle_type_id":"4","last_reported":1749802515,"current_range_meters":18800,"station_id":"ce4bhqh2rcd13ifvqhlg","pricing_plan_id":"cebpf4jnsgd1na2vs0mg"},{"bike_id":"9c219669-262c-4c59-afaf-456a86f8cec0","system_id":"levelo_inurba_marseille","lat":43.29614,"lon":5.37105,"is_reserved":false,"is_disabled":false,"rental_uris":{"android":"levelo://app?vid=9c219669-262c-4c59-afaf-456a86f8cec0","ios":"levelo://app?vid=9c219669-262c-4c59-afaf-456a86f8cec0"},"vehicle_type_id":"4","last_reported":1749802515,"current_range_meters":19200,"station_id":"ce4bgnh2rcd13ifvqc0g","pricing_plan_id":"cebpf4jnsgd1na2vs0mg"},{"bike_id":"89511dfc-7d62-45cd-a94a-940e5444bd92","system_id":"levelo_inurba_marseille","lat":43.31363,"lon":5.3672,"is_reserved":false,"is_disabled":false,"rental_uris":{"android":"levelo://app?vid=89511dfc-7d62-45cd-a94a-940e5444bd92","ios":"levelo://app?vid=89511dfc-7d62-45cd-a94a-940e5444bd92"},"vehicle_type_id":"4","last_reported":1749802515,"current_range_meters":19200,"station_id":"ce4bgr92rcd13ifvqc6g","pricing_plan_id":"cebpf4jnsgd1na2vs0mg"},{"bike_id":"df60d3c8-3dab-4f09-89b3-85a6660ead58","system_id":"levelo_inurba_marseille","lat":43.30945,"lon":5.39074,"is_reserved":false,"is_disabled":false,"rental_uris":{"android":"levelo://app?vid=df60d3c8-3dab-4f09-89b3-85a6660ead58","ios":"levelo://app?vid=df60d3c8-3dab-4f09-89b3-85a6660ead58"},"vehicle_type_id":"4","last_reported":1749802515,"current_range_meters":19200,"station_id":"ce4bgup2rcd13ifvqco0","pricing_plan_id":"cebpf4jnsgd1na2vs0mg"},{"bike_id":"46496c0d-8543-4c91-91ce-a69ae600a787","system_id":"levelo_inurba_marseille","lat":43.26197,"lon":5.37448,"is_reserved":false,"is_disabled":false,"rental_uris":{"android":"levelo://app?vid=46496c0d-8543-4c91-91ce-a69ae600a787","ios":"levelo://app?vid=46496c0d-8543-4c91-91ce-a69ae600a787"},"vehicle_type_id":"4","last_reported":1749802515,"current_range_meters":19200,"station_id":"ce4bhgp2rcd13ifvqfc0","pricing_plan_id":"cebpf4jnsgd1na2vs0mg"},{"bike_id":"d85fab4b-5d5f-4080-ac16-2f467d0a6db6","system_id":"levelo_inurba_marseille","lat":43.27496,"lon":5.42436,"is_reserved":false,"is_disabled":false,"rental_uris":{"android":"levelo://app?vid=d85fab4b-5d5f-4080-ac16-2f467d0a6db6","ios":"levelo://app?vid=d85fab4b-5d5f-4080-ac16-2f467d0a6db6"},"vehicle_type_id":"4","last_reported":1749802515,"current_range_meters":19200,"station_id":"ce4bhn92rcd13ifvqgrg","pricing_plan_id":"cebpf4jnsgd1na2vs0mg"},{"bike_id":"1bb47bc4-ac4c-4fbc-a363-58471cffd209","system_id":"levelo_inurba_marseille","lat":43.34147,"lon":5.40907,"is_reserved":false,"is_disabled":false,"rental_uris":{"android":"levelo://app?vid=1bb47bc4-ac4c-4fbc-a363-58471cffd209","ios":"levelo://app?vid=1bb47bc4-ac4c-4fbc-a363-58471cffd209"},"vehicle_type_id":"4","last_reported":1749802515,"current_range_meters":19200,"station_id":"ce4bhqh2rcd13ifvqhlg","pricing_plan_id":"cebpf4jnsgd1na2vs0mg"},{"bike_id":"cb6fde58-267b-4acf-95e6-99425e18e595","system_id":"levelo_inurba_marseille","lat":43.2593,"lon":5.40909,"is_reserved":false,"is_disabled":false,"rental_uris":{"android":"levelo://app?vid=cb6fde58-267b-4acf-95e6-99425e18e595","ios":"levelo://app?vid=cb6fde58-267b-4acf-95e6-99425e18e595"},"vehicle_type_id":"4","last_reported":1749802515,"current_range_meters":19600,"station_id":"ce4bhm92rcd13ifvqglg","pricing_plan_id":"cebpf4jnsgd1na2vs0mg"},{"bike_id":"c3c5e2ae-f869-49fd-9524-cf505693e6b5","system_id":"levelo_inurba_marseille","lat":43.275,"lon":5.42441,"is_reserved":false,"is_disabled":false,"rental_uris":{"android":"levelo://app?vid=c3c5e2ae-f869-49fd-9524-cf505693e6b5","ios":"levelo://app?vid=c3c5e2ae-f869-49fd-9524-cf505693e6b5"},"vehicle_type_id":"4","last_reported":1749802515,"current_range_meters":19600,"station_id":"ce4bhn92rcd13ifvqgrg","pricing_plan_id":"cebpf4jnsgd1na2vs0mg"},{"bike_id":"d0e0617d-5016-40ba-b4c5-1a83d3add731","system_id":"levelo_inurba_marseille","lat":43.3236,"lon":5.36754,"is_reserved":false,"is_disabled":false,"rental_uris":{"android":"levelo://app?vid=d0e0617d-5016-40ba-b4c5-1a83d3add731","ios":"levelo://app?vid=d0e0617d-5016-40ba-b4c5-1a83d3add731"},"vehicle_type_id":"4","last_reported":1749802515,"current_range_meters":19600,"station_id":"ce4bhsh2rcd13ifvqi2g","pricing_plan_id":"cebpf4jnsgd1na2vs0mg"},{"bike_id":"ccb9975b-34a8-47da-b755-e17344ae18d3","system_id":"levelo_inurba_marseille","lat":43.23206,"lon":5.35556,"is_reserved":false,"is_disabled":false,"rental_uris":{"android":"levelo://app?vid=ccb9975b-34a8-47da-b755-e17344ae18d3","ios":"levelo://app?vid=ccb9975b-34a8-47da-b755-e17344ae18d3"},"vehicle_type_id":"4","last_reported":1749802515,"current_range_meters":19600,"station_id":"ce4bhu92rcd13ifvqi70","pricing_plan_id":"cebpf4jnsgd1na2vs0mg"},{"bike_id":"ab397cef-f29c-445d-ac29-b4089dce55fc","system_id":"levelo_inurba_marseille","lat":43.29965,"lon":5.38661,"is_reserved":false,"is_disabled":false,"rental_uris":{"android":"levelo://app?vid=ab397cef-f29c-445d-ac29-b4089dce55fc","ios":"levelo://app?vid=ab397cef-f29c-445d-ac29-b4089dce55fc"},"vehicle_type_id":"4","last_reported":1749802515,"current_range_meters":20000,"station_id":"","pricing_plan_id":"cebpf4jnsgd1na2vs0mg"},{"bike_id":"54a5cf50-7aaf-4484-87d0-a3c2302cecd6","system_id":"levelo_inurba_marseille","lat":43.30919,"lon":5.36839,"is_reserved":false,"is_disabled":false,"rental_uris":{"android":"levelo://app?vid=54a5cf50-7aaf-4484-87d0-a3c2302cecd6","ios":"levelo://app?vid=54a5cf50-7aaf-4484-87d0-a3c2302cecd6"},"vehicle_type_id":"4","last_reported":1749802515,"current_range_meters":20000,"station_id":"ce4bgn92rcd13ifvqbvg","pricing_plan_id":"cebpf4jnsgd1na2vs0mg"},{"bike_id":"ec3cd680-e9ea-48e9-8001-ebe2a5d536e5","system_id":"levelo_inurba_marseille","lat":43.29031,"lon":5.39966,"is_reserved":false,"is_disabled":false,"rental_uris":{"android":"levelo://app?vid=ec3cd680-e9ea-48e9-8001-ebe2a5d536e5","ios":"levelo://app?vid=ec3cd680-e9ea-48e9-8001-ebe2a5d536e5"},"vehicle_type_id":"4","last_reported":1749802515,"current_range_meters":20000,"station_id":"ce4bh392rcd13ifvqdm0","pricing_plan_id":"cebpf4jnsgd1na2vs0mg"},{"bike_id":"3f7ba403-0c40-4699-b73a-a91a135adabd","system_id":"levelo_inurba_marseille","lat":43.34133,"lon":5.40904,"is_reserved":false,"is_disabled":false,"rental_uris":{"android":"levelo://app?vid=3f7ba403-0c40-4699-b73a-a91a135adabd","ios":"levelo://app?vid=3f7ba403-0c40-4699-b73a-a91a135adabd"},"vehicle_type_id":"4","last_reported":1749802515,"current_range_meters":20000,"station_id":"ce4bhqh2rcd13ifvqhlg","pricing_plan_id":"cebpf4jnsgd1na2vs0mg"},{"bike_id":"558cd456-1017-4899-a5e0-10f264e95a8c","system_id":"levelo_inurba_marseille","lat":43.3224,"lon":5.38098,"is_reserved":false,"is_disabled":false,"rental_uris":{"android":"levelo://app?vid=558cd456-1017-4899-a5e0-10f264e95a8c","ios":"levelo://app?vid=558cd456-1017-4899-a5e0-10f264e95a8c"},"vehicle_type_id":"4","last_reported":1749802515,"current_range_meters":20400,"station_id":"","pricing_plan_id":"cebpf4jnsgd1na2vs0mg"},{"bike_id":"eed20c1b-5e85-441c-af31-8df29b5f0d65","system_id":"levelo_inurba_marseille","lat":43.27631,"lon":5.35978,"is_reserved":false,"is_disabled":false,"rental_uris":{"android":"levelo://app?vid=eed20c1b-5e85-441c-af31-8df29b5f0d65","ios":"levelo://app?vid=eed20c1b-5e85-441c-af31-8df29b5f0d65"},"vehicle_type_id":"4","last_reported":1749802515,"current_range_meters":20400,"station_id":"ce4bgj92rcd13ifvqbe0","pricing_plan_id":"cebpf4jnsgd1na2vs0mg"},{"bike_id":"d1ab4b43-dbe6-4d2d-8ea0-e70f37bcd9b8","system_id":"levelo_inurba_marseille","lat":43.29914,"lon":5.37478,"is_reserved":false,"is_disabled":false,"rental_uris":{"android":"levelo://app?vid=d1ab4b43-dbe6-4d2d-8ea0-e70f37bcd9b8","ios":"levelo://app?vid=d1ab4b43-dbe6-4d2d-8ea0-e70f37bcd9b8"},"vehicle_type_id":"4","last_reported":1749802515,"current_range_meters":20400,"station_id":"ce4bgjh2rcd13ifvqbg0","pricing_plan_id":"cebpf4jnsgd1na2vs0mg"},{"bike_id":"5ea37827-fbd3-4e1d-b49d-18972d09672a","system_id":"levelo_inurba_marseille","lat":43.30917,"lon":5.36854,"is_reserved":false,"is_disabled":false,"rental_uris":{"android":"levelo://app?vid=5ea37827-fbd3-4e1d-b49d-18972d09672a","ios":"levelo://app?vid=5ea37827-fbd3-4e1d-b49d-18972d09672a"},"vehicle_type_id":"4","last_reported":1749802515,"current_range_meters":20400,"station_id":"ce4bgn92rcd13ifvqbvg","pricing_plan_id":"cebpf4jnsgd1na2vs0mg"},{"bike_id":"889e876f-9e89-422c-846c-529a076ae4bd","system_id":"levelo_inurba_marseille","lat":43.29279,"lon":5.40119,"is_reserved":false,"is_disabled":false,"rental_uris":{"android":"levelo://app?vid=889e876f-9e89-422c-846c-529a076ae4bd","ios":"levelo://app?vid=889e876f-9e89-422c-846c-529a076ae4bd"},"vehicle_type_id":"4","last_reported":1749802515,"current_range_meters":20400,"station_id":"ce4bh312rcd13ifvqdk0","pricing_plan_id":"cebpf4jnsgd1na2vs0mg"},{"bike_id":"3c50d737-1c05-4bc7-b2f8-4d7f8d67d6de","system_id":"levelo_inurba_marseille","lat":43.24643,"lon":5.38907,"is_reserved":false,"is_disabled":false,"rental_uris":{"android":"levelo://app?vid=3c50d737-1c05-4bc7-b2f8-4d7f8d67d6de","ios":"levelo://app?vid=3c50d737-1c05-4bc7-b2f8-4d7f8d67d6de"},"vehicle_type_id":"4","last_reported":1749802515,"current_range_meters":20400,"station_id":"ce4bhg12rcd13ifvqf60","pricing_plan_id":"cebpf4jnsgd1na2vs0mg"},{"bike_id":"354e1ed3-3b21-4228-95e2-811b1e126665","system_id":"levelo_inurba_marseille","lat":43.25503,"lon":5.37627,"is_reserved":false,"is_disabled":false,"rental_uris":{"android":"levelo://app?vid=354e1ed3-3b21-4228-95e2-811b1e126665","ios":"levelo://app?vid=354e1ed3-3b21-4228-95e2-811b1e126665"},"vehicle_type_id":"4","last_reported":1749802515,"current_range_meters":20400,"station_id":"ce4bhh12rcd13ifvqff0","pricing_plan_id":"cebpf4jnsgd1na2vs0mg"},{"bike_id":"f70e99be-1dc7-4609-aeda-fc545b24e723","system_id":"levelo_inurba_marseille","lat":43.30924,"lon":5.39088,"is_reserved":false,"is_disabled":false,"rental_uris":{"android":"levelo://app?vid=f70e99be-1dc7-4609-aeda-fc545b24e723","ios":"levelo://app?vid=f70e99be-1dc7-4609-aeda-fc545b24e723"},"vehicle_type_id":"4","last_reported":1749802515,"current_range_meters":20800,"station_id":"","pricing_plan_id":"cebpf4jnsgd1na2vs0mg"},{"bike_id":"a419b8ff-7300-4eb4-b9e4-286faaf8c8fd","system_id":"levelo_inurba_marseille","lat":43.30537,"lon":5.36705,"is_reserved":false,"is_disabled":false,"rental_uris":{"android":"levelo://app?vid=a419b8ff-7300-4eb4-b9e4-286faaf8c8fd","ios":"levelo://app?vid=a419b8ff-7300-4eb4-b9e4-286faaf8c8fd"},"vehicle_type_id":"4","last_reported":1749802515,"current_range_meters":20800,"station_id":"ce4bgrp2rcd13ifvqc9g","pricing_plan_id":"cebpf4jnsgd1na2vs0mg"},{"bike_id":"83e5b45f-19f1-4c29-89c8-841132bd9a02","system_id":"levelo_inurba_marseille","lat":43.305597,"lon":5.365501,"is_reserved":false,"is_disabled":false,"rental_uris":{"android":"levelo://app?vid=83e5b45f-19f1-4c29-89c8-841132bd9a02","ios":"levelo://app?vid=83e5b45f-19f1-4c29-89c8-841132bd9a02"},"vehicle_type_id":"4","last_reported":1749802515,"current_range_meters":20800,"station_id":"ce4bgs12rcd13ifvqcag","pricing_plan_id":"cebpf4jnsgd1na2vs0mg"},{"bike_id":"7079a0cd-d62e-4e6d-a1d8-9c548285623e","system_id":"levelo_inurba_marseille","lat":43.30145,"lon":5.37413,"is_reserved":false,"is_disabled":false,"rental_uris":{"android":"levelo://app?vid=7079a0cd-d62e-4e6d-a1d8-9c548285623e","ios":"levelo://app?vid=7079a0cd-d62e-4e6d-a1d8-9c548285623e"},"vehicle_type_id":"4","last_reported":1749802515,"current_range_meters":20800,"station_id":"ce4bgs92rcd13ifvqcc0","pricing_plan_id":"cebpf4jnsgd1na2vs0mg"},{"bike_id":"576531e6-a646-40fa-a66b-c2e9e1018c90","system_id":"levelo_inurba_marseille","lat":43.30952,"lon":5.39045,"is_reserved":false,"is_disabled":false,"rental_uris":{"android":"levelo://app?vid=576531e6-a646-40fa-a66b-c2e9e1018c90","ios":"levelo://app?vid=576531e6-a646-40fa-a66b-c2e9e1018c90"},"vehicle_type_id":"4","last_reported":1749802515,"current_range_meters":20800,"station_id":"ce4bgup2rcd13ifvqco0","pricing_plan_id":"cebpf4jnsgd1na2vs0mg"},{"bike_id":"b35d1f8f-1c2e-4129-81c1-4e7af758d967","system_id":"levelo_inurba_marseille","lat":43.24173,"lon":5.39711,"is_reserved":false,"is_disabled":false,"rental_uris":{"android":"levelo://app?vid=b35d1f8f-1c2e-4129-81c1-4e7af758d967","ios":"levelo://app?vid=b35d1f8f-1c2e-4129-81c1-4e7af758d967"},"vehicle_type_id":"4","last_reported":1749802515,"current_range_meters":20800,"station_id":"ce4bhn12rcd13ifvqgpg","pricing_plan_id":"cebpf4jnsgd1na2vs0mg"},{"bike_id":"c82f75f2-635c-40da-9f67-77d82cb74c97","system_id":"levelo_inurba_marseille","lat":43.21206,"lon":5.35079,"is_reserved":false,"is_disabled":false,"rental_uris":{"android":"levelo://app?vid=c82f75f2-635c-40da-9f67-77d82cb74c97","ios":"levelo://app?vid=c82f75f2-635c-40da-9f67-77d82cb74c97"},"vehicle_type_id":"4","last_reported":1749802515,"current_range_meters":21600,"station_id":"","pricing_plan_id":"cebpf4jnsgd1na2vs0mg"},{"bike_id":"679d881d-2dfe-4ec2-babb-8b09d0832382","system_id":"levelo_inurba_marseille","lat":43.32788,"lon":5.39149,"is_reserved":false,"is_disabled":false,"rental_uris":{"android":"levelo://app?vid=679d881d-2dfe-4ec2-babb-8b09d0832382","ios":"levelo://app?vid=679d881d-2dfe-4ec2-babb-8b09d0832382"},"vehicle_type_id":"4","last_reported":1749802515,"current_range_meters":21600,"station_id":"","pricing_plan_id":"cebpf4jnsgd1na2vs0mg"},{"bike_id":"42757089-7ece-4dc3-8f2a-11b09543e079","system_id":"levelo_inurba_marseille","lat":43.29836,"lon":5.36267,"is_reserved":false,"is_disabled":false,"rental_uris":{"android":"levelo://app?vid=42757089-7ece-4dc3-8f2a-11b09543e079","ios":"levelo://app?vid=42757089-7ece-4dc3-8f2a-11b09543e079"},"vehicle_type_id":"4","last_reported":1749802515,"current_range_meters":21600,"station_id":"ce4bgpp2rcd13ifvqc3g","pricing_plan_id":"cebpf4jnsgd1na2vs0mg"},{"bike_id":"771ab0dd-19e1-47b5-9cc4-4ed5680cbe9c","system_id":"levelo_inurba_marseille","lat":43.267964,"lon":5.395281,"is_reserved":false,"is_disabled":false,"rental_uris":{"android":"levelo://app?vid=771ab0dd-19e1-47b5-9cc4-4ed5680cbe9c","ios":"levelo://app?vid=771ab0dd-19e1-47b5-9cc4-4ed5680cbe9c"},"vehicle_type_id":"4","last_reported":1749802515,"current_range_meters":21600,"station_id":"ce4bhh12rcd13ifvqfg0","pricing_plan_id":"cebpf4jnsgd1na2vs0mg"},{"bike_id":"442222a9-43d4-4779-aa38-71617039870d","system_id":"levelo_inurba_marseille","lat":43.26804,"lon":5.40269,"is_reserved":false,"is_disabled":false,"rental_uris":{"android":"levelo://app?vid=442222a9-43d4-4779-aa38-71617039870d","ios":"levelo://app?vid=442222a9-43d4-4779-aa38-71617039870d"},"vehicle_type_id":"4","last_reported":1749802515,"current_range_meters":21600,"station_id":"ce501612rcd8frsf0b60","pricing_plan_id":"cebpf4jnsgd1na2vs0mg"},{"bike_id":"3755101c-e794-446f-bff2-669d021983c9","system_id":"levelo_inurba_marseille","lat":43.30189,"lon":5.36618,"is_reserved":false,"is_disabled":false,"rental_uris":{"android":"levelo://app?vid=3755101c-e794-446f-bff2-669d021983c9","ios":"levelo://app?vid=3755101c-e794-446f-bff2-669d021983c9"},"vehicle_type_id":"4","last_reported":1749802515,"current_range_meters":22000,"station_id":"ce4bgrh2rcd13ifvqc8g","pricing_plan_id":"cebpf4jnsgd1na2vs0mg"},{"bike_id":"9657cbc6-92a6-46eb-8524-a1202c5063b8","system_id":"levelo_inurba_marseille","lat":43.28568,"lon":5.39488,"is_reserved":false,"is_disabled":false,"rental_uris":{"android":"levelo://app?vid=9657cbc6-92a6-46eb-8524-a1202c5063b8","ios":"levelo://app?vid=9657cbc6-92a6-46eb-8524-a1202c5063b8"},"vehicle_type_id":"4","last_reported":1749802515,"current_range_meters":22000,"station_id":"ce4bh292rcd13ifvqdg0","pricing_plan_id":"cebpf4jnsgd1na2vs0mg"},{"bike_id":"f4608cc4-b573-4793-af96-f8de7aabd845","system_id":"levelo_inurba_marseille","lat":43.25086,"lon":5.39524,"is_reserved":false,"is_disabled":false,"rental_uris":{"android":"levelo://app?vid=f4608cc4-b573-4793-af96-f8de7aabd845","ios":"levelo://app?vid=f4608cc4-b573-4793-af96-f8de7aabd845"},"vehicle_type_id":"4","last_reported":1749802515,"current_range_meters":22000,"station_id":"ce4bhm12rcd13ifvqgkg","pricing_plan_id":"cebpf4jnsgd1na2vs0mg"},{"bike_id":"34696b75-37cd-41f3-a7c3-ff3a44c14df4","system_id":"levelo_inurba_marseille","lat":43.23147,"lon":5.43717,"is_reserved":false,"is_disabled":false,"rental_uris":{"android":"levelo://app?vid=34696b75-37cd-41f3-a7c3-ff3a44c14df4","ios":"levelo://app?vid=34696b75-37cd-41f3-a7c3-ff3a44c14df4"},"vehicle_type_id":"4","last_reported":1749802515,"current_range_meters":22000,"station_id":"ce4bhmp2rcd13ifvqgog","pricing_plan_id":"cebpf4jnsgd1na2vs0mg"},{"bike_id":"20f95c71-b040-48ef-8179-2a842e4db563","system_id":"levelo_inurba_marseille","lat":43.30549,"lon":5.36711,"is_reserved":false,"is_disabled":false,"rental_uris":{"android":"levelo://app?vid=20f95c71-b040-48ef-8179-2a842e4db563","ios":"levelo://app?vid=20f95c71-b040-48ef-8179-2a842e4db563"},"vehicle_type_id":"4","last_reported":1749802515,"current_range_meters":22400,"station_id":"ce4bgrp2rcd13ifvqc9g","pricing_plan_id":"cebpf4jnsgd1na2vs0mg"},{"bike_id":"00167165-4fc7-4470-b198-ce35681182e3","system_id":"levelo_inurba_marseille","lat":43.30546,"lon":5.36702,"is_reserved":false,"is_disabled":false,"rental_uris":{"android":"levelo://app?vid=00167165-4fc7-4470-b198-ce35681182e3","ios":"levelo://app?vid=00167165-4fc7-4470-b198-ce35681182e3"},"vehicle_type_id":"4","last_reported":1749802515,"current_range_meters":22400,"station_id":"ce4bgrp2rcd13ifvqc9g","pricing_plan_id":"cebpf4jnsgd1na2vs0mg"},{"bike_id":"5f18cc40-e1f6-46d4-bd78-4feb7f6b406b","system_id":"levelo_inurba_marseille","lat":43.29803,"lon":5.4041,"is_reserved":false,"is_disabled":false,"rental_uris":{"android":"levelo://app?vid=5f18cc40-e1f6-46d4-bd78-4feb7f6b406b","ios":"levelo://app?vid=5f18cc40-e1f6-46d4-bd78-4feb7f6b406b"},"vehicle_type_id":"4","last_reported":1749802515,"current_range_meters":22400,"station_id":"ce4bh112rcd13ifvqd90","pricing_plan_id":"cebpf4jnsgd1na2vs0mg"},{"bike_id":"e74735d5-5ac7-4893-a240-ca98bf9b361a","system_id":"levelo_inurba_marseille","lat":43.29209,"lon":5.35786,"is_reserved":false,"is_disabled":false,"rental_uris":{"android":"levelo://app?vid=e74735d5-5ac7-4893-a240-ca98bf9b361a","ios":"levelo://app?vid=e74735d5-5ac7-4893-a240-ca98bf9b361a"},"vehicle_type_id":"4","last_reported":1749802515,"current_range_meters":22400,"station_id":"ce4bhb12rcd13ifvqel0","pricing_plan_id":"cebpf4jnsgd1na2vs0mg"},{"bike_id":"5a6c3772-1ae9-4e32-9ebc-1f9ab5529594","system_id":"levelo_inurba_marseille","lat":43.23153,"lon":5.43709,"is_reserved":false,"is_disabled":false,"rental_uris":{"android":"levelo://app?vid=5a6c3772-1ae9-4e32-9ebc-1f9ab5529594","ios":"levelo://app?vid=5a6c3772-1ae9-4e32-9ebc-1f9ab5529594"},"vehicle_type_id":"4","last_reported":1749802515,"current_range_meters":22400,"station_id":"ce4bhmp2rcd13ifvqgog","pricing_plan_id":"cebpf4jnsgd1na2vs0mg"},{"bike_id":"aa82e35c-1a4c-4063-a32b-4c03ea8ab1f4","system_id":"levelo_inurba_marseille","lat":43.28154,"lon":5.42638,"is_reserved":false,"is_disabled":false,"rental_uris":{"android":"levelo://app?vid=aa82e35c-1a4c-4063-a32b-4c03ea8ab1f4","ios":"levelo://app?vid=aa82e35c-1a4c-4063-a32b-4c03ea8ab1f4"},"vehicle_type_id":"4","last_reported":1749802515,"current_range_meters":22400,"station_id":"ce4bhnh2rcd13ifvqgug","pricing_plan_id":"cebpf4jnsgd1na2vs0mg"},{"bike_id":"6dffafd5-1a4c-4101-bc3f-c64cd1754739","system_id":"levelo_inurba_marseille","lat":43.29559,"lon":5.42292,"is_reserved":false,"is_disabled":false,"rental_uris":{"android":"levelo://app?vid=6dffafd5-1a4c-4101-bc3f-c64cd1754739","ios":"levelo://app?vid=6dffafd5-1a4c-4101-bc3f-c64cd1754739"},"vehicle_type_id":"4","last_reported":1749802515,"current_range_meters":22400,"station_id":"ce4bhph2rcd13ifvqhdg","pricing_plan_id":"cebpf4jnsgd1na2vs0mg"},{"bike_id":"b7de2daa-196c-4111-9244-8dff16c1dcca","system_id":"levelo_inurba_marseille","lat":43.32103,"lon":5.36772,"is_reserved":false,"is_disabled":false,"rental_uris":{"android":"levelo://app?vid=b7de2daa-196c-4111-9244-8dff16c1dcca","ios":"levelo://app?vid=b7de2daa-196c-4111-9244-8dff16c1dcca"},"vehicle_type_id":"4","last_reported":1749802515,"current_range_meters":22400,"station_id":"ce4bhrh2rcd13ifvqhug","pricing_plan_id":"cebpf4jnsgd1na2vs0mg"},{"bike_id":"f2c9af96-1c1f-4ce9-b7e8-1282fcb6fec2","system_id":"levelo_inurba_marseille","lat":43.24356,"lon":5.41168,"is_reserved":false,"is_disabled":false,"rental_uris":{"android":"levelo://app?vid=f2c9af96-1c1f-4ce9-b7e8-1282fcb6fec2","ios":"levelo://app?vid=f2c9af96-1c1f-4ce9-b7e8-1282fcb6fec2"},"vehicle_type_id":"4","last_reported":1749802515,"current_range_meters":22800,"station_id":"","pricing_plan_id":"cebpf4jnsgd1na2vs0mg"},{"bike_id":"d81ebef1-def3-4b3b-8a2c-e915262efa10","system_id":"levelo_inurba_marseille","lat":43.328681,"lon":5.391654,"is_reserved":false,"is_disabled":false,"rental_uris":{"android":"levelo://app?vid=d81ebef1-def3-4b3b-8a2c-e915262efa10","ios":"levelo://app?vid=d81ebef1-def3-4b3b-8a2c-e915262efa10"},"vehicle_type_id":"4","last_reported":1749802515,"current_range_meters":22800,"station_id":"","pricing_plan_id":"cebpf4jnsgd1na2vs0mg"},{"bike_id":"5cde8349-6ec3-4886-88b7-be6262c0cbd4","system_id":"levelo_inurba_marseille","lat":43.31417,"lon":5.36701,"is_reserved":false,"is_disabled":false,"rental_uris":{"android":"levelo://app?vid=5cde8349-6ec3-4886-88b7-be6262c0cbd4","ios":"levelo://app?vid=5cde8349-6ec3-4886-88b7-be6262c0cbd4"},"vehicle_type_id":"4","last_reported":1749802515,"current_range_meters":22800,"station_id":"","pricing_plan_id":"cebpf4jnsgd1na2vs0mg"},{"bike_id":"ed5e421d-8d27-4375-a1e3-5d9dba74a515","system_id":"levelo_inurba_marseille","lat":43.29624,"lon":5.37734,"is_reserved":false,"is_disabled":false,"rental_uris":{"android":"levelo://app?vid=ed5e421d-8d27-4375-a1e3-5d9dba74a515","ios":"levelo://app?vid=ed5e421d-8d27-4375-a1e3-5d9dba74a515"},"vehicle_type_id":"4","last_reported":1749802515,"current_range_meters":22800,"station_id":"ce4bgi92rcd13ifvqb90","pricing_plan_id":"cebpf4jnsgd1na2vs0mg"},{"bike_id":"5ca6dcd3-7241-42c3-b23c-4bf7e1fbacab","system_id":"levelo_inurba_marseille","lat":43.29679,"lon":5.37296,"is_reserved":false,"is_disabled":false,"rental_uris":{"android":"levelo://app?vid=5ca6dcd3-7241-42c3-b23c-4bf7e1fbacab","ios":"levelo://app?vid=5ca6dcd3-7241-42c3-b23c-4bf7e1fbacab"},"vehicle_type_id":"4","last_reported":1749802515,"current_range_meters":22800,"station_id":"ce4bgk12rcd13ifvqbj0","pricing_plan_id":"cebpf4jnsgd1na2vs0mg"},{"bike_id":"e88201b0-2955-4db9-b79f-a7e699eaea9a","system_id":"levelo_inurba_marseille","lat":43.29531,"lon":5.375,"is_reserved":false,"is_disabled":false,"rental_uris":{"android":"levelo://app?vid=e88201b0-2955-4db9-b79f-a7e699eaea9a","ios":"levelo://app?vid=e88201b0-2955-4db9-b79f-a7e699eaea9a"},