{"last_updated":1745597517,"ttl":60,"version":"2.2","data":{"bikes":[{"bike_id":"78ccf9cf-3886-40f2-9dbf-f0a3a0dfc102","system_id":"levelo_inurba_marseille","lat":43.29418,"lon":5.38621,"is_reserved":false,"is_disabled":true,"rental_uris":{"android":"levelo://app?vid=78ccf9cf-3886-40f2-9dbf-f0a3a0dfc102","ios":"levelo://app?vid=78ccf9cf-3886-40f2-9dbf-f0a3a0dfc102"},"vehicle_type_id":"4","last_reported":1745597517,"current_range_meters":2800,"station_id":"ce4bh2h2rcd13ifvqdh0","pricing_plan_id":"cebpf4jnsgd1na2vs0mg"},{"bike_id":"474ce7f0-0441-4fab-b372-5a2cfc9fe9fd","system_id":"levelo_inurba_marseille","lat":43.24386,"lon":5.37056,"is_reserved":false,"is_disabled":false,"rental_uris":{"android":"levelo://app?vid=474ce7f0-0441-4fab-b372-5a2cfc9fe9fd","ios":"levelo://app?vid=474ce7f0-0441-4fab-b372-5a2cfc9fe9fd"},"vehicle_type_id":"4","last_reported":1745597517,"current_range_meters":2800,"station_id":"ce4bhhh2rcd13ifvqfk0","pricing_plan_id":"cebpf4jnsgd1na2vs0mg"},{"bike_id":"87d16dac-093e-4c0f-8979-aea7db08513e","system_id":"levelo_inurba_marseille","lat":43.28657,"lon":5.38667,"is_reserved":false,"is_disabled":false,"rental_uris":{"android":"levelo://app?vid=87d16dac-093e-4c0f-8979-aea7db08513e","ios":"levelo://app?vid=87d16dac-093e-4c0f-8979-aea7db08513e"},"vehicle_type_id":"4","last_reported":1745597517,"current_range_meters":2000,"station_id":"ce4bh492rcd13ifvqdug","pricing_plan_id":"cebpf4jnsgd1na2vs0mg"},{"bike_id":"2ca0546f-d5f7-441e-84d9-fc50b2a3ac97","system_id":"levelo_inurba_marseille","lat":43.25586,"lon":5.38245,"is_reserved":false,"is_disabled":true,"rental_uris":{"android":"levelo://app?vid=2ca0546f-d5f7-441e-84d9-fc50b2a3ac97","ios":"levelo://app?vid=2ca0546f-d5f7-441e-84d9-fc50b2a3ac97"},"vehicle_type_id":"4","last_reported":1745597517,"current_range_meters":2800,"station_id":"ce4bhih2rcd13ifvqfs0","pricing_plan_id":"cebpf4jnsgd1na2vs0mg"},{"bike_id":"434fe295-ae14-48ea-95d3-5ceaea0e810f","system_id":"levelo_inurba_marseille","lat":43.29003,"lon":5.35619,"is_reserved":false,"is_disabled":false,"rental_uris":{"android":"levelo://app?vid=434fe295-ae14-48ea-95d3-5ceaea0e810f","ios":"levelo://app?vid=434fe295-ae14-48ea-95d3-5ceaea0e810f"},"vehicle_type_id":"4","last_reported":1745597517,"current_range_meters":2800,"station_id":"ce4bhb92rcd13ifvqen0","pricing_plan_id":"cebpf4jnsgd1na2vs0mg"},{"bike_id":"8cf8da14-e1fd-4fcc-b81a-bf72a0e4400c","system_id":"levelo_inurba_marseille","lat":43.26729,"lon":5.38294,"is_reserved":false,"is_disabled":true,"rental_uris":{"android":"levelo://app?vid=8cf8da14-e1fd-4fcc-b81a-bf72a0e4400c","ios":"levelo://app?vid=8cf8da14-e1fd-4fcc-b81a-bf72a0e4400c"},"vehicle_type_id":"4","last_reported":1745597517,"current_range_meters":2800,"station_id":"","pricing_plan_id":"cebpf4jnsgd1na2vs0mg"},{"bike_id":"2b066f96-2981-498f-8727-597f1a38d022","system_id":"levelo_inurba_marseille","lat":43.24075,"lon":5.37761,"is_reserved":false,"is_disabled":false,"rental_uris":{"android":"levelo://app?vid=2b066f96-2981-498f-8727-597f1a38d022","ios":"levelo://app?vid=2b066f96-2981-498f-8727-597f1a38d022"},"vehicle_type_id":"4","last_reported":1745597517,"current_range_meters":3600,"station_id":"ce4bhnp2rcd13ifvqgvg","pricing_plan_id":"cebpf4jnsgd1na2vs0mg"},{"bike_id":"88908c9d-3d57-4b58-8816-ec919687f814","system_id":"levelo_inurba_marseille","lat":43.2862,"lon":5.35104,"is_reserved":false,"is_disabled":false,"rental_uris":{"android":"levelo://app?vid=88908c9d-3d57-4b58-8816-ec919687f814","ios":"levelo://app?vid=88908c9d-3d57-4b58-8816-ec919687f814"},"vehicle_type_id":"4","last_reported":1745597517,"current_range_meters":3200,"station_id":"ce4bhch2rcd13ifvqeug","pricing_plan_id":"cebpf4jnsgd1na2vs0mg"},{"bike_id":"3b48947f-563f-496a-ac43-79af2b085b9e","system_id":"levelo_inurba_marseille","lat":43.303075,"lon":5.368943,"is_reserved":false,"is_disabled":false,"rental_uris":{"android":"levelo://app?vid=3b48947f-563f-496a-ac43-79af2b085b9e","ios":"levelo://app?vid=3b48947f-563f-496a-ac43-79af2b085b9e"},"vehicle_type_id":"4","last_reported":1745597517,"current_range_meters":2800,"station_id":"ce4bgqh2rcd13ifvqc5g","pricing_plan_id":"cebpf4jnsgd1na2vs0mg"},{"bike_id":"f2d7aa92-ab47-4e56-9b87-4bbabc0a244e","system_id":"levelo_inurba_marseille","lat":43.27903,"lon":5.38018,"is_reserved":false,"is_disabled":false,"rental_uris":{"android":"levelo://app?vid=f2d7aa92-ab47-4e56-9b87-4bbabc0a244e","ios":"levelo://app?vid=f2d7aa92-ab47-4e56-9b87-4bbabc0a244e"},"vehicle_type_id":"4","last_reported":1745597517,"current_range_meters":2800,"station_id":"ce4bhf92rcd13ifvqf50","pricing_plan_id":"cebpf4jnsgd1na2vs0mg"},{"bike_id":"6bd39fd9-caa0-478d-9c2b-acab3915d13b","system_id":"levelo_inurba_marseille","lat":43.24552,"lon":5.3952,"is_reserved":false,"is_disabled":false,"rental_uris":{"android":"levelo://app?vid=6bd39fd9-caa0-478d-9c2b-acab3915d13b","ios":"levelo://app?vid=6bd39fd9-caa0-478d-9c2b-acab3915d13b"},"vehicle_type_id":"4","last_reported":1745597517,"current_range_meters":3200,"station_id":"ce4bhlp2rcd13ifvqgjg","pricing_plan_id":"cebpf4jnsgd1na2vs0mg"},{"bike_id":"04de76c4-a1ad-45bf-9e28-7c78bfcbb5c0","system_id":"levelo_inurba_marseille","lat":43.25201,"lon":5.37424,"is_reserved":false,"is_disabled":false,"rental_uris":{"android":"levelo://app?vid=04de76c4-a1ad-45bf-9e28-7c78bfcbb5c0","ios":"levelo://app?vid=04de76c4-a1ad-45bf-9e28-7c78bfcbb5c0"},"vehicle_type_id":"4","last_reported":1745597517,"current_range_meters":3200,"station_id":"","pricing_plan_id":"cebpf4jnsgd1na2vs0mg"},{"bike_id":"4faae9d7-fcd0-45e3-92ec-6f3e338c613a","system_id":"levelo_inurba_marseille","lat":43.23209,"lon":5.39974,"is_reserved":false,"is_disabled":false,"rental_uris":{"android":"levelo://app?vid=4faae9d7-fcd0-45e3-92ec-6f3e338c613a","ios":"levelo://app?vid=4faae9d7-fcd0-45e3-92ec-6f3e338c613a"},"vehicle_type_id":"4","last_reported":1745597517,"current_range_meters":3200,"station_id":"ce4bhn12rcd13ifvqgqg","pricing_plan_id":"cebpf4jnsgd1na2vs0mg"},{"bike_id":"6e3abe62-c4e5-42e2-84f5-24f00292925b","system_id":"levelo_inurba_marseille","lat":43.22959,"lon":5.35351,"is_reserved":false,"is_disabled":false,"rental_uris":{"android":"levelo://app?vid=6e3abe62-c4e5-42e2-84f5-24f00292925b","ios":"levelo://app?vid=6e3abe62-c4e5-42e2-84f5-24f00292925b"},"vehicle_type_id":"4","last_reported":1745597517,"current_range_meters":3600,"station_id":"cpo3532slgdg3j2ikp40","pricing_plan_id":"cebpf4jnsgd1na2vs0mg"},{"bike_id":"1f1ef0a5-17b6-4552-b615-3c56ab229adc","system_id":"levelo_inurba_marseille","lat":43.23182,"lon":5.39992,"is_reserved":false,"is_disabled":false,"rental_uris":{"android":"levelo://app?vid=1f1ef0a5-17b6-4552-b615-3c56ab229adc","ios":"levelo://app?vid=1f1ef0a5-17b6-4552-b615-3c56ab229adc"},"vehicle_type_id":"4","last_reported":1745597517,"current_range_meters":3600,"station_id":"ce4bhn12rcd13ifvqgqg","pricing_plan_id":"cebpf4jnsgd1na2vs0mg"},{"bike_id":"6ec352d0-225c-4376-92b1-a3b5c2ebe940","system_id":"levelo_inurba_marseille","lat":43.27496,"lon":5.42447,"is_reserved":false,"is_disabled":false,"rental_uris":{"android":"levelo://app?vid=6ec352d0-225c-4376-92b1-a3b5c2ebe940","ios":"levelo://app?vid=6ec352d0-225c-4376-92b1-a3b5c2ebe940"},"vehicle_type_id":"4","last_reported":1745597517,"current_range_meters":3600,"station_id":"ce4bhn92rcd13ifvqgrg","pricing_plan_id":"cebpf4jnsgd1na2vs0mg"},{"bike_id":"98635f2b-e15d-453d-a28b-b57fac4e7bb3","system_id":"levelo_inurba_marseille","lat":43.28419,"lon":5.34994,"is_reserved":false,"is_disabled":false,"rental_uris":{"android":"levelo://app?vid=98635f2b-e15d-453d-a28b-b57fac4e7bb3","ios":"levelo://app?vid=98635f2b-e15d-453d-a28b-b57fac4e7bb3"},"vehicle_type_id":"4","last_reported":1745597517,"current_range_meters":4000,"station_id":"ce4bhbh2rcd13ifvqepg","pricing_plan_id":"cebpf4jnsgd1na2vs0mg"},{"bike_id":"fd265570-119b-4158-9264-8701f39090e6","system_id":"levelo_inurba_marseille","lat":43.29067,"lon":5.37161,"is_reserved":false,"is_disabled":true,"rental_uris":{"android":"levelo://app?vid=fd265570-119b-4158-9264-8701f39090e6","ios":"levelo://app?vid=fd265570-119b-4158-9264-8701f39090e6"},"vehicle_type_id":"4","last_reported":1745597517,"current_range_meters":4000,"station_id":"ce4bh5p2rcd13ifvqe4g","pricing_plan_id":"cebpf4jnsgd1na2vs0mg"},{"bike_id":"8756a3f1-5cdb-411a-81b4-20bb94f4c362","system_id":"levelo_inurba_marseille","lat":43.310736,"lon":5.383486,"is_reserved":false,"is_disabled":false,"rental_uris":{"android":"levelo://app?vid=8756a3f1-5cdb-411a-81b4-20bb94f4c362","ios":"levelo://app?vid=8756a3f1-5cdb-411a-81b4-20bb94f4c362"},"vehicle_type_id":"4","last_reported":1745597517,"current_range_meters":4000,"station_id":"ce4bgt12rcd13ifvqce0","pricing_plan_id":"cebpf4jnsgd1na2vs0mg"},{"bike_id":"0665421a-052d-4840-9df9-d527b568d595","system_id":"levelo_inurba_marseille","lat":43.32412,"lon":5.39086,"is_reserved":false,"is_disabled":false,"rental_uris":{"android":"levelo://app?vid=0665421a-052d-4840-9df9-d527b568d595","ios":"levelo://app?vid=0665421a-052d-4840-9df9-d527b568d595"},"vehicle_type_id":"4","last_reported":1745597517,"current_range_meters":4000,"station_id":"","pricing_plan_id":"cebpf4jnsgd1na2vs0mg"},{"bike_id":"47c415eb-9c02-4094-bc4c-e5bc6add6cc6","system_id":"levelo_inurba_marseille","lat":43.21193,"lon":5.35077,"is_reserved":false,"is_disabled":false,"rental_uris":{"android":"levelo://app?vid=47c415eb-9c02-4094-bc4c-e5bc6add6cc6","ios":"levelo://app?vid=47c415eb-9c02-4094-bc4c-e5bc6add6cc6"},"vehicle_type_id":"4","last_reported":1745597517,"current_range_meters":4000,"station_id":"st_cvj6sg6p6f1abm77japg","pricing_plan_id":"cebpf4jnsgd1na2vs0mg"},{"bike_id":"d77e00b5-286c-4755-89a5-edfe488fa4e2","system_id":"levelo_inurba_marseille","lat":43.26225,"lon":5.40443,"is_reserved":false,"is_disabled":false,"rental_uris":{"android":"levelo://app?vid=d77e00b5-286c-4755-89a5-edfe488fa4e2","ios":"levelo://app?vid=d77e00b5-286c-4755-89a5-edfe488fa4e2"},"vehicle_type_id":"4","last_reported":1745597517,"current_range_meters":4400,"station_id":"ce4bhmh2rcd13ifvqgmg","pricing_plan_id":"cebpf4jnsgd1na2vs0mg"},{"bike_id":"893d83fa-1bf4-4917-aac4-3da024f71238","system_id":"levelo_inurba_marseille","lat":43.26574,"lon":5.39012,"is_reserved":false,"is_disabled":false,"rental_uris":{"android":"levelo://app?vid=893d83fa-1bf4-4917-aac4-3da024f71238","ios":"levelo://app?vid=893d83fa-1bf4-4917-aac4-3da024f71238"},"vehicle_type_id":"4","last_reported":1745597517,"current_range_meters":4400,"station_id":"ce4bhe12rcd13ifvqf30","pricing_plan_id":"cebpf4jnsgd1na2vs0mg"},{"bike_id":"c7effd13-b050-4da8-87a4-d9e1a3329a06","system_id":"levelo_inurba_marseille","lat":43.292622,"lon":5.383968,"is_reserved":false,"is_disabled":false,"rental_uris":{"android":"levelo://app?vid=c7effd13-b050-4da8-87a4-d9e1a3329a06","ios":"levelo://app?vid=c7effd13-b050-4da8-87a4-d9e1a3329a06"},"vehicle_type_id":"4","last_reported":1745597517,"current_range_meters":4400,"station_id":"ce4bh692rcd13ifvqea0","pricing_plan_id":"cebpf4jnsgd1na2vs0mg"},{"bike_id":"18b33eca-6872-43c6-a9ae-b8e888658417","system_id":"levelo_inurba_marseille","lat":43.28673,"lon":5.36355,"is_reserved":false,"is_disabled":false,"rental_uris":{"android":"levelo://app?vid=18b33eca-6872-43c6-a9ae-b8e888658417","ios":"levelo://app?vid=18b33eca-6872-43c6-a9ae-b8e888658417"},"vehicle_type_id":"4","last_reported":1745597517,"current_range_meters":4000,"station_id":"ce4bhah2rcd13ifvqej0","pricing_plan_id":"cebpf4jnsgd1na2vs0mg"},{"bike_id":"483b104d-fc64-4923-b8e3-3eaf51110cbf","system_id":"levelo_inurba_marseille","lat":43.281,"lon":5.37848,"is_reserved":false,"is_disabled":false,"rental_uris":{"android":"levelo://app?vid=483b104d-fc64-4923-b8e3-3eaf51110cbf","ios":"levelo://app?vid=483b104d-fc64-4923-b8e3-3eaf51110cbf"},"vehicle_type_id":"4","last_reported":1745597517,"current_range_meters":4400,"station_id":"ce4bha12rcd13ifvqee0","pricing_plan_id":"cebpf4jnsgd1na2vs0mg"},{"bike_id":"f58313cc-9a94-4531-b09f-ba2b44367568","system_id":"levelo_inurba_marseille","lat":43.26558,"lon":5.3729,"is_reserved":false,"is_disabled":false,"rental_uris":{"android":"levelo://app?vid=f58313cc-9a94-4531-b09f-ba2b44367568","ios":"levelo://app?vid=f58313cc-9a94-4531-b09f-ba2b44367568"},"vehicle_type_id":"4","last_reported":1745597517,"current_range_meters":4800,"station_id":"ce4bhg12rcd13ifvqf70","pricing_plan_id":"cebpf4jnsgd1na2vs0mg"},{"bike_id":"141535cf-fb3b-46b7-aef5-8d6d20a2c722","system_id":"levelo_inurba_marseille","lat":43.281208,"lon":5.378446,"is_reserved":false,"is_disabled":false,"rental_uris":{"android":"levelo://app?vid=141535cf-fb3b-46b7-aef5-8d6d20a2c722","ios":"levelo://app?vid=141535cf-fb3b-46b7-aef5-8d6d20a2c722"},"vehicle_type_id":"4","last_reported":1745597517,"current_range_meters":4800,"station_id":"ce4bha12rcd13ifvqee0","pricing_plan_id":"cebpf4jnsgd1na2vs0mg"},{"bike_id":"eba9d0fe-b348-48b5-8010-f5c3c45e4d3f","system_id":"levelo_inurba_marseille","lat":43.23963,"lon":5.36629,"is_reserved":false,"is_disabled":false,"rental_uris":{"android":"levelo://app?vid=eba9d0fe-b348-48b5-8010-f5c3c45e4d3f","ios":"levelo://app?vid=eba9d0fe-b348-48b5-8010-f5c3c45e4d3f"},"vehicle_type_id":"4","last_reported":1745597517,"current_range_meters":4800,"station_id":"ce4bhi12rcd13ifvqfp0","pricing_plan_id":"cebpf4jnsgd1na2vs0mg"},{"bike_id":"064ad93e-785c-46d9-b3cb-fa1f5570af3a","system_id":"levelo_inurba_marseille","lat":43.2721,"lon":5.3918,"is_reserved":false,"is_disabled":false,"rental_uris":{"android":"levelo://app?vid=064ad93e-785c-46d9-b3cb-fa1f5570af3a","ios":"levelo://app?vid=064ad93e-785c-46d9-b3cb-fa1f5570af3a"},"vehicle_type_id":"4","last_reported":1745597517,"current_range_meters":5600,"station_id":"ce4bhhp2rcd13ifvqfm0","pricing_plan_id":"cebpf4jnsgd1na2vs0mg"},{"bike_id":"b731a9ab-795a-4143-a799-af460b37252f","system_id":"levelo_inurba_marseille","lat":43.30944,"lon":5.40144,"is_reserved":false,"is_disabled":false,"rental_uris":{"android":"levelo://app?vid=b731a9ab-795a-4143-a799-af460b37252f","ios":"levelo://app?vid=b731a9ab-795a-4143-a799-af460b37252f"},"vehicle_type_id":"4","last_reported":1745597517,"current_range_meters":5600,"station_id":"ce4bgvp2rcd13ifvqct0","pricing_plan_id":"cebpf4jnsgd1na2vs0mg"},{"bike_id":"9df70fca-52e0-4caf-a203-2e5f063f1006","system_id":"levelo_inurba_marseille","lat":43.290283,"lon":5.386369,"is_reserved":false,"is_disabled":false,"rental_uris":{"android":"levelo://app?vid=9df70fca-52e0-4caf-a203-2e5f063f1006","ios":"levelo://app?vid=9df70fca-52e0-4caf-a203-2e5f063f1006"},"vehicle_type_id":"4","last_reported":1745597517,"current_range_meters":4800,"station_id":"ce4bh692rcd13ifvqe90","pricing_plan_id":"cebpf4jnsgd1na2vs0mg"},{"bike_id":"009b4d31-b1e1-449b-99fe-26b589d67db6","system_id":"levelo_inurba_marseille","lat":43.286133,"lon":5.370622,"is_reserved":false,"is_disabled":false,"rental_uris":{"android":"levelo://app?vid=009b4d31-b1e1-449b-99fe-26b589d67db6","ios":"levelo://app?vid=009b4d31-b1e1-449b-99fe-26b589d67db6"},"vehicle_type_id":"4","last_reported":1745597517,"current_range_meters":5600,"station_id":"ce4bht12rcd13ifvqi60","pricing_plan_id":"cebpf4jnsgd1na2vs0mg"},{"bike_id":"031ee173-ce82-4325-ae40-35a80994f369","system_id":"levelo_inurba_marseille","lat":43.27812,"lon":5.40709,"is_reserved":false,"is_disabled":false,"rental_uris":{"android":"levelo://app?vid=031ee173-ce82-4325-ae40-35a80994f369","ios":"levelo://app?vid=031ee173-ce82-4325-ae40-35a80994f369"},"vehicle_type_id":"4","last_reported":1745597517,"current_range_meters":4800,"station_id":"ce4bhnh2rcd13ifvqgtg","pricing_plan_id":"cebpf4jnsgd1na2vs0mg"},{"bike_id":"4bf0cade-afa0-4731-b40e-ef3f8f4a4fe5","system_id":"levelo_inurba_marseille","lat":43.30096,"lon":5.3909,"is_reserved":false,"is_disabled":true,"rental_uris":{"android":"levelo://app?vid=4bf0cade-afa0-4731-b40e-ef3f8f4a4fe5","ios":"levelo://app?vid=4bf0cade-afa0-4731-b40e-ef3f8f4a4fe5"},"vehicle_type_id":"4","last_reported":1745597517,"current_range_meters":6000,"station_id":"ce4bh192rcd13ifvqdb0","pricing_plan_id":"cebpf4jnsgd1na2vs0mg"},{"bike_id":"f3bdcc21-deb1-4d92-a06c-cbcbfc5452f0","system_id":"levelo_inurba_marseille","lat":43.23197,"lon":5.35559,"is_reserved":false,"is_disabled":false,"rental_uris":{"android":"levelo://app?vid=f3bdcc21-deb1-4d92-a06c-cbcbfc5452f0","ios":"levelo://app?vid=f3bdcc21-deb1-4d92-a06c-cbcbfc5452f0"},"vehicle_type_id":"4","last_reported":1745597517,"current_range_meters":6000,"station_id":"ce4bhu92rcd13ifvqi70","pricing_plan_id":"cebpf4jnsgd1na2vs0mg"},{"bike_id":"bb664823-1e3a-4e2f-b7f5-6efbbef03efb","system_id":"levelo_inurba_marseille","lat":43.27811,"lon":5.40707,"is_reserved":false,"is_disabled":false,"rental_uris":{"android":"levelo://app?vid=bb664823-1e3a-4e2f-b7f5-6efbbef03efb","ios":"levelo://app?vid=bb664823-1e3a-4e2f-b7f5-6efbbef03efb"},"vehicle_type_id":"4","last_reported":1745597517,"current_range_meters":6000,"station_id":"ce4bhnh2rcd13ifvqgtg","pricing_plan_id":"cebpf4jnsgd1na2vs0mg"},{"bike_id":"93816a58-87b9-4716-aa86-00402b0b20cf","system_id":"levelo_inurba_marseille","lat":43.24167,"lon":5.36405,"is_reserved":false,"is_disabled":false,"rental_uris":{"android":"levelo://app?vid=93816a58-87b9-4716-aa86-00402b0b20cf","ios":"levelo://app?vid=93816a58-87b9-4716-aa86-00402b0b20cf"},"vehicle_type_id":"4","last_reported":1745597517,"current_range_meters":6000,"station_id":"cpo36qri1sfpv3e86is0","pricing_plan_id":"cebpf4jnsgd1na2vs0mg"},{"bike_id":"46374c49-3adc-4c5a-8966-e00f056c0d57","system_id":"levelo_inurba_marseille","lat":43.27846,"lon":5.35442,"is_reserved":false,"is_disabled":false,"rental_uris":{"android":"levelo://app?vid=46374c49-3adc-4c5a-8966-e00f056c0d57","ios":"levelo://app?vid=46374c49-3adc-4c5a-8966-e00f056c0d57"},"vehicle_type_id":"4","last_reported":1745597517,"current_range_meters":6400,"station_id":"","pricing_plan_id":"cebpf4jnsgd1na2vs0mg"},{"bike_id":"0ef090c8-b30d-42aa-a986-f1a5509bf3d5","system_id":"levelo_inurba_marseille","lat":43.26029,"lon":5.37561,"is_reserved":false,"is_disabled":false,"rental_uris":{"android":"levelo://app?vid=0ef090c8-b30d-42aa-a986-f1a5509bf3d5","ios":"levelo://app?vid=0ef090c8-b30d-42aa-a986-f1a5509bf3d5"},"vehicle_type_id":"4","last_reported":1745597517,"current_range_meters":6400,"station_id":"ce4bhgh2rcd13ifvqfa0","pricing_plan_id":"cebpf4jnsgd1na2vs0mg"},{"bike_id":"566af3c7-55e6-47d8-98d6-26dbaee4cf9e","system_id":"levelo_inurba_marseille","lat":43.30216,"lon":5.37088,"is_reserved":false,"is_disabled":false,"rental_uris":{"android":"levelo://app?vid=566af3c7-55e6-47d8-98d6-26dbaee4cf9e","ios":"levelo://app?vid=566af3c7-55e6-47d8-98d6-26dbaee4cf9e"},"vehicle_type_id":"4","last_reported":1745597517,"current_range_meters":6800,"station_id":"","pricing_plan_id":"cebpf4jnsgd1na2vs0mg"},{"bike_id":"6c3f648e-7532-4c10-9398-55d017752011","system_id":"levelo_inurba_marseille","lat":43.27614,"lon":5.36109,"is_reserved":false,"is_disabled":false,"rental_uris":{"android":"levelo://app?vid=6c3f648e-7532-4c10-9398-55d017752011","ios":"levelo://app?vid=6c3f648e-7532-4c10-9398-55d017752011"},"vehicle_type_id":"4","last_reported":1745597517,"current_range_meters":6000,"station_id":"ce4bgj92rcd13ifvqbe0","pricing_plan_id":"cebpf4jnsgd1na2vs0mg"},{"bike_id":"7343ebe6-93e8-4342-821e-4fb7422af288","system_id":"levelo_inurba_marseille","lat":43.24555,"lon":5.39522,"is_reserved":false,"is_disabled":false,"rental_uris":{"android":"levelo://app?vid=7343ebe6-93e8-4342-821e-4fb7422af288","ios":"levelo://app?vid=7343ebe6-93e8-4342-821e-4fb7422af288"},"vehicle_type_id":"4","last_reported":1745597517,"current_range_meters":6400,"station_id":"ce4bhlp2rcd13ifvqgjg","pricing_plan_id":"cebpf4jnsgd1na2vs0mg"},{"bike_id":"41528498-d76f-4998-934c-429ad804d4cc","system_id":"levelo_inurba_marseille","lat":43.2902,"lon":5.3814,"is_reserved":false,"is_disabled":true,"rental_uris":{"android":"levelo://app?vid=41528498-d76f-4998-934c-429ad804d4cc","ios":"levelo://app?vid=41528498-d76f-4998-934c-429ad804d4cc"},"vehicle_type_id":"4","last_reported":1745597517,"current_range_meters":6800,"station_id":"ce4bh4p2rcd13ifvqe1g","pricing_plan_id":"cebpf4jnsgd1na2vs0mg"},{"bike_id":"ed847aed-10f7-42fe-9b85-ff21e9036c9c","system_id":"levelo_inurba_marseille","lat":43.28618,"lon":5.35078,"is_reserved":false,"is_disabled":false,"rental_uris":{"android":"levelo://app?vid=ed847aed-10f7-42fe-9b85-ff21e9036c9c","ios":"levelo://app?vid=ed847aed-10f7-42fe-9b85-ff21e9036c9c"},"vehicle_type_id":"4","last_reported":1745597517,"current_range_meters":6800,"station_id":"ce4bhch2rcd13ifvqeug","pricing_plan_id":"cebpf4jnsgd1na2vs0mg"},{"bike_id":"055ab2ec-7297-4df7-8adb-e9a91ea4d5be","system_id":"levelo_inurba_marseille","lat":43.24159,"lon":5.36444,"is_reserved":false,"is_disabled":false,"rental_uris":{"android":"levelo://app?vid=055ab2ec-7297-4df7-8adb-e9a91ea4d5be","ios":"levelo://app?vid=055ab2ec-7297-4df7-8adb-e9a91ea4d5be"},"vehicle_type_id":"4","last_reported":1745597517,"current_range_meters":6800,"station_id":"cpo36qri1sfpv3e86is0","pricing_plan_id":"cebpf4jnsgd1na2vs0mg"},{"bike_id":"f587b1ad-8767-42fd-bb98-bdf1bb330f9a","system_id":"levelo_inurba_marseille","lat":43.32371,"lon":5.4211,"is_reserved":false,"is_disabled":false,"rental_uris":{"android":"levelo://app?vid=f587b1ad-8767-42fd-bb98-bdf1bb330f9a","ios":"levelo://app?vid=f587b1ad-8767-42fd-bb98-bdf1bb330f9a"},"vehicle_type_id":"4","last_reported":1745597517,"current_range_meters":6800,"station_id":"","pricing_plan_id":"cebpf4jnsgd1na2vs0mg"},{"bike_id":"7fc5ed43-b2c3-4cf7-b081-488a7cbcc12f","system_id":"levelo_inurba_marseille","lat":43.30214,"lon":5.3705,"is_reserved":false,"is_disabled":false,"rental_uris":{"android":"levelo://app?vid=7fc5ed43-b2c3-4cf7-b081-488a7cbcc12f","ios":"levelo://app?vid=7fc5ed43-b2c3-4cf7-b081-488a7cbcc12f"},"vehicle_type_id":"4","last_reported":1745597517,"current_range_meters":7200,"station_id":"","pricing_plan_id":"cebpf4jnsgd1na2vs0mg"},{"bike_id":"52cb41a7-5096-4f42-a09a-abce4785d5e2","system_id":"levelo_inurba_marseille","lat":43.27072,"lon":5.4228,"is_reserved":false,"is_disabled":true,"rental_uris":{"android":"levelo://app?vid=52cb41a7-5096-4f42-a09a-abce4785d5e2","ios":"levelo://app?vid=52cb41a7-5096-4f42-a09a-abce4785d5e2"},"vehicle_type_id":"4","last_reported":1745597517,"current_range_meters":6800,"station_id":"ce4bhk92rcd13ifvqgb0","pricing_plan_id":"cebpf4jnsgd1na2vs0mg"},{"bike_id":"98182166-4fcb-4dc0-9c52-de1b349f298b","system_id":"levelo_inurba_marseille","lat":43.287059,"lon":5.400002,"is_reserved":false,"is_disabled":true,"rental_uris":{"android":"levelo://app?vid=98182166-4fcb-4dc0-9c52-de1b349f298b","ios":"levelo://app?vid=98182166-4fcb-4dc0-9c52-de1b349f298b"},"vehicle_type_id":"4","last_reported":1745597517,"current_range_meters":6800,"station_id":"ce4bho92rcd13ifvqh3g","pricing_plan_id":"cebpf4jnsgd1na2vs0mg"},{"bike_id":"77d7ee04-86e1-4739-b971-ff752593c6c0","system_id":"levelo_inurba_marseille","lat":43.29787,"lon":5.381,"is_reserved":false,"is_disabled":false,"rental_uris":{"android":"levelo://app?vid=77d7ee04-86e1-4739-b971-ff752593c6c0","ios":"levelo://app?vid=77d7ee04-86e1-4739-b971-ff752593c6c0"},"vehicle_type_id":"4","last_reported":1745597517,"current_range_meters":7200,"station_id":"ce4bgip2rcd13ifvqbb0","pricing_plan_id":"cebpf4jnsgd1na2vs0mg"},{"bike_id":"3fd7bce0-937b-4943-b396-af56af6d055c","system_id":"levelo_inurba_marseille","lat":43.265537,"lon":5.372807,"is_reserved":false,"is_disabled":false,"rental_uris":{"android":"levelo://app?vid=3fd7bce0-937b-4943-b396-af56af6d055c","ios":"levelo://app?vid=3fd7bce0-937b-4943-b396-af56af6d055c"},"vehicle_type_id":"4","last_reported":1745597517,"current_range_meters":6800,"station_id":"ce4bgqh2rcd13ifvqc4g","pricing_plan_id":"cebpf4jnsgd1na2vs0mg"},{"bike_id":"916311ad-d349-4ad0-888d-6616cfa70b7c","system_id":"levelo_inurba_marseille","lat":43.24179,"lon":5.39725,"is_reserved":false,"is_disabled":false,"rental_uris":{"android":"levelo://app?vid=916311ad-d349-4ad0-888d-6616cfa70b7c","ios":"levelo://app?vid=916311ad-d349-4ad0-888d-6616cfa70b7c"},"vehicle_type_id":"4","last_reported":1745597517,"current_range_meters":7200,"station_id":"ce4bhn12rcd13ifvqgpg","pricing_plan_id":"cebpf4jnsgd1na2vs0mg"},{"bike_id":"73648265-77b8-4464-80e0-c5a608db46fd","system_id":"levelo_inurba_marseille","lat":43.32054,"lon":5.41555,"is_reserved":false,"is_disabled":false,"rental_uris":{"android":"levelo://app?vid=73648265-77b8-4464-80e0-c5a608db46fd","ios":"levelo://app?vid=73648265-77b8-4464-80e0-c5a608db46fd"},"vehicle_type_id":"4","last_reported":1745597517,"current_range_meters":7200,"station_id":"ce4bhq92rcd13ifvqhkg","pricing_plan_id":"cebpf4jnsgd1na2vs0mg"},{"bike_id":"3cb68874-9bcd-4b72-aa80-911d9f3d30fc","system_id":"levelo_inurba_marseille","lat":43.28148,"lon":5.4264,"is_reserved":false,"is_disabled":false,"rental_uris":{"android":"levelo://app?vid=3cb68874-9bcd-4b72-aa80-911d9f3d30fc","ios":"levelo://app?vid=3cb68874-9bcd-4b72-aa80-911d9f3d30fc"},"vehicle_type_id":"4","last_reported":1745597517,"current_range_meters":7200,"station_id":"ce4bhnh2rcd13ifvqgug","pricing_plan_id":"cebpf4jnsgd1na2vs0mg"},{"bike_id":"fa0185c9-1645-44df-9823-639cb4f559d6","system_id":"levelo_inurba_marseille","lat":43.286537,"lon":5.363311,"is_reserved":false,"is_disabled":false,"rental_uris":{"android":"levelo://app?vid=fa0185c9-1645-44df-9823-639cb4f559d6","ios":"levelo://app?vid=fa0185c9-1645-44df-9823-639cb4f559d6"},"vehicle_type_id":"4","last_reported":1745597517,"current_range_meters":7200,"station_id":"ce4bhah2rcd13ifvqej0","pricing_plan_id":"cebpf4jnsgd1na2vs0mg"},{"bike_id":"04663d91-d838-47b4-bbe2-bfcefeb9bfda","system_id":"levelo_inurba_marseille","lat":43.29847,"lon":5.3627,"is_reserved":false,"is_disabled":false,"rental_uris":{"android":"levelo://app?vid=04663d91-d838-47b4-bbe2-bfcefeb9bfda","ios":"levelo://app?vid=04663d91-d838-47b4-bbe2-bfcefeb9bfda"},"vehicle_type_id":"4","last_reported":1745597517,"current_range_meters":7200,"station_id":"ce4bgpp2rcd13ifvqc3g","pricing_plan_id":"cebpf4jnsgd1na2vs0mg"},{"bike_id":"fa08c917-15f0-46bf-9b4b-3ce0e752e62f","system_id":"levelo_inurba_marseille","lat":43.33476,"lon":5.40079,"is_reserved":false,"is_disabled":false,"rental_uris":{"android":"levelo://app?vid=fa08c917-15f0-46bf-9b4b-3ce0e752e62f","ios":"levelo://app?vid=fa08c917-15f0-46bf-9b4b-3ce0e752e62f"},"vehicle_type_id":"4","last_reported":1745597517,"current_range_meters":8000,"station_id":"","pricing_plan_id":"cebpf4jnsgd1na2vs0mg"},{"bike_id":"34c6306f-f64b-4ebf-9120-af14c5b5b18a","system_id":"levelo_inurba_marseille","lat":43.29375,"lon":5.37868,"is_reserved":false,"is_disabled":false,"rental_uris":{"android":"levelo://app?vid=34c6306f-f64b-4ebf-9120-af14c5b5b18a","ios":"levelo://app?vid=34c6306f-f64b-4ebf-9120-af14c5b5b18a"},"vehicle_type_id":"4","last_reported":1745597517,"current_range_meters":8000,"station_id":"ce4bgjh2rcd13ifvqbf0","pricing_plan_id":"cebpf4jnsgd1na2vs0mg"},{"bike_id":"3595f4d0-dc62-45a4-9dfc-bd3e09c15284","system_id":"levelo_inurba_marseille","lat":43.23192,"lon":5.39979,"is_reserved":false,"is_disabled":false,"rental_uris":{"android":"levelo://app?vid=3595f4d0-dc62-45a4-9dfc-bd3e09c15284","ios":"levelo://app?vid=3595f4d0-dc62-45a4-9dfc-bd3e09c15284"},"vehicle_type_id":"4","last_reported":1745597517,"current_range_meters":8000,"station_id":"ce4bhn12rcd13ifvqgqg","pricing_plan_id":"cebpf4jnsgd1na2vs0mg"},{"bike_id":"d54ef0f7-9ac7-4dc7-af22-0d437d9b8e0b","system_id":"levelo_inurba_marseille","lat":43.21203,"lon":5.35073,"is_reserved":false,"is_disabled":false,"rental_uris":{"android":"levelo://app?vid=d54ef0f7-9ac7-4dc7-af22-0d437d9b8e0b","ios":"levelo://app?vid=d54ef0f7-9ac7-4dc7-af22-0d437d9b8e0b"},"vehicle_type_id":"4","last_reported":1745597517,"current_range_meters":8400,"station_id":"st_cvj6sg6p6f1abm77japg","pricing_plan_id":"cebpf4jnsgd1na2vs0mg"},{"bike_id":"e84297b4-9fe0-4038-b96e-27f678e816d2","system_id":"levelo_inurba_marseille","lat":43.30603,"lon":5.37225,"is_reserved":false,"is_disabled":false,"rental_uris":{"android":"levelo://app?vid=e84297b4-9fe0-4038-b96e-27f678e816d2","ios":"levelo://app?vid=e84297b4-9fe0-4038-b96e-27f678e816d2"},"vehicle_type_id":"4","last_reported":1745597517,"current_range_meters":7200,"station_id":"ce4bgqh2rcd13ifvqc4g","pricing_plan_id":"cebpf4jnsgd1na2vs0mg"},{"bike_id":"038df18e-0724-4def-b572-86f426e0ae9d","system_id":"levelo_inurba_marseille","lat":43.29855,"lon":5.36283,"is_reserved":false,"is_disabled":false,"rental_uris":{"android":"levelo://app?vid=038df18e-0724-4def-b572-86f426e0ae9d","ios":"levelo://app?vid=038df18e-0724-4def-b572-86f426e0ae9d"},"vehicle_type_id":"4","last_reported":1745597517,"current_range_meters":8400,"station_id":"ce4bgpp2rcd13ifvqc3g","pricing_plan_id":"cebpf4jnsgd1na2vs0mg"},{"bike_id":"ab49b0ae-90ee-4214-bbd8-e0867a6763e8","system_id":"levelo_inurba_marseille","lat":43.31255,"lon":5.37167,"is_reserved":false,"is_disabled":false,"rental_uris":{"android":"levelo://app?vid=ab49b0ae-90ee-4214-bbd8-e0867a6763e8","ios":"levelo://app?vid=ab49b0ae-90ee-4214-bbd8-e0867a6763e8"},"vehicle_type_id":"4","last_reported":1745597517,"current_range_meters":8400,"station_id":"","pricing_plan_id":"cebpf4jnsgd1na2vs0mg"},{"bike_id":"3767ba54-0ee2-464a-8805-d28bad95405b","system_id":"levelo_inurba_marseille","lat":43.25943,"lon":5.37546,"is_reserved":false,"is_disabled":false,"rental_uris":{"android":"levelo://app?vid=3767ba54-0ee2-464a-8805-d28bad95405b","ios":"levelo://app?vid=3767ba54-0ee2-464a-8805-d28bad95405b"},"vehicle_type_id":"4","last_reported":1745597517,"current_range_meters":8400,"station_id":"","pricing_plan_id":"cebpf4jnsgd1na2vs0mg"},{"bike_id":"c1ccd199-3bfe-4293-a4cb-6829c97c125f","system_id":"levelo_inurba_marseille","lat":43.32415,"lon":5.39097,"is_reserved":false,"is_disabled":false,"rental_uris":{"android":"levelo://app?vid=c1ccd199-3bfe-4293-a4cb-6829c97c125f","ios":"levelo://app?vid=c1ccd199-3bfe-4293-a4cb-6829c97c125f"},"vehicle_type_id":"4","last_reported":1745597517,"current_range_meters":8800,"station_id":"","pricing_plan_id":"cebpf4jnsgd1na2vs0mg"},{"bike_id":"1c762556-d1a5-47cf-8b55-79517f258d48","system_id":"levelo_inurba_marseille","lat":43.21218,"lon":5.35077,"is_reserved":false,"is_disabled":false,"rental_uris":{"android":"levelo://app?vid=1c762556-d1a5-47cf-8b55-79517f258d48","ios":"levelo://app?vid=1c762556-d1a5-47cf-8b55-79517f258d48"},"vehicle_type_id":"4","last_reported":1745597517,"current_range_meters":8800,"station_id":"st_cvj6sg6p6f1abm77japg","pricing_plan_id":"cebpf4jnsgd1na2vs0mg"},{"bike_id":"7403a997-f989-4daa-826c-6c87f07c8354","system_id":"levelo_inurba_marseille","lat":43.29352,"lon":5.37848,"is_reserved":false,"is_disabled":false,"rental_uris":{"android":"levelo://app?vid=7403a997-f989-4daa-826c-6c87f07c8354","ios":"levelo://app?vid=7403a997-f989-4daa-826c-6c87f07c8354"},"vehicle_type_id":"4","last_reported":1745597517,"current_range_meters":9200,"station_id":"ce4bgjh2rcd13ifvqbf0","pricing_plan_id":"cebpf4jnsgd1na2vs0mg"},{"bike_id":"1746265e-27ad-4913-8a06-b6dc5372d844","system_id":"levelo_inurba_marseille","lat":43.2601,"lon":5.37494,"is_reserved":false,"is_disabled":false,"rental_uris":{"android":"levelo://app?vid=1746265e-27ad-4913-8a06-b6dc5372d844","ios":"levelo://app?vid=1746265e-27ad-4913-8a06-b6dc5372d844"},"vehicle_type_id":"4","last_reported":1745597517,"current_range_meters":9200,"station_id":"ce4bhgh2rcd13ifvqfa0","pricing_plan_id":"cebpf4jnsgd1na2vs0mg"},{"bike_id":"be81c54e-a5e2-4685-825e-944fdd31f8a1","system_id":"levelo_inurba_marseille","lat":43.31116,"lon":5.37761,"is_reserved":false,"is_disabled":false,"rental_uris":{"android":"levelo://app?vid=be81c54e-a5e2-4685-825e-944fdd31f8a1","ios":"levelo://app?vid=be81c54e-a5e2-4685-825e-944fdd31f8a1"},"vehicle_type_id":"4","last_reported":1745597517,"current_range_meters":9200,"station_id":"ce4bgt92rcd13ifvqcg0","pricing_plan_id":"cebpf4jnsgd1na2vs0mg"},{"bike_id":"4c79909e-3dc1-4e69-b98e-60c41d6d3d0c","system_id":"levelo_inurba_marseille","lat":43.23066,"lon":5.35491,"is_reserved":false,"is_disabled":false,"rental_uris":{"android":"levelo://app?vid=4c79909e-3dc1-4e69-b98e-60c41d6d3d0c","ios":"levelo://app?vid=4c79909e-3dc1-4e69-b98e-60c41d6d3d0c"},"vehicle_type_id":"4","last_reported":1745597517,"current_range_meters":9200,"station_id":"cpo3342slgdg3j2ifvpg","pricing_plan_id":"cebpf4jnsgd1na2vs0mg"},{"bike_id":"cfa34a75-efec-4eb8-a020-77feca0ad5e2","system_id":"levelo_inurba_marseille","lat":43.21198,"lon":5.35072,"is_reserved":false,"is_disabled":false,"rental_uris":{"android":"levelo://app?vid=cfa34a75-efec-4eb8-a020-77feca0ad5e2","ios":"levelo://app?vid=cfa34a75-efec-4eb8-a020-77feca0ad5e2"},"vehicle_type_id":"4","last_reported":1745597517,"current_range_meters":9200,"station_id":"st_cvj6sg6p6f1abm77japg","pricing_plan_id":"cebpf4jnsgd1na2vs0mg"},{"bike_id":"c5c23996-963a-41e5-8cf9-b3bb0bb12e26","system_id":"levelo_inurba_marseille","lat":43.24166,"lon":5.36399,"is_reserved":false,"is_disabled":false,"rental_uris":{"android":"levelo://app?vid=c5c23996-963a-41e5-8cf9-b3bb0bb12e26","ios":"levelo://app?vid=c5c23996-963a-41e5-8cf9-b3bb0bb12e26"},"vehicle_type_id":"4","last_reported":1745597517,"current_range_meters":9200,"station_id":"cpo36qri1sfpv3e86is0","pricing_plan_id":"cebpf4jnsgd1na2vs0mg"},{"bike_id":"fb41776d-fc9e-4b07-b6c2-878f7cdb8073","system_id":"levelo_inurba_marseille","lat":43.29165,"lon":5.37165,"is_reserved":false,"is_disabled":false,"rental_uris":{"android":"levelo://app?vid=fb41776d-fc9e-4b07-b6c2-878f7cdb8073","ios":"levelo://app?vid=fb41776d-fc9e-4b07-b6c2-878f7cdb8073"},"vehicle_type_id":"4","last_reported":1745597517,"current_range_meters":9200,"station_id":"ce4bha92rcd13ifvqeh0","pricing_plan_id":"cebpf4jnsgd1na2vs0mg"},{"bike_id":"ba500a31-e329-4853-8d7a-6c436d72843e","system_id":"levelo_inurba_marseille","lat":43.296,"lon":5.37725,"is_reserved":false,"is_disabled":false,"rental_uris":{"android":"levelo://app?vid=ba500a31-e329-4853-8d7a-6c436d72843e","ios":"levelo://app?vid=ba500a31-e329-4853-8d7a-6c436d72843e"},"vehicle_type_id":"4","last_reported":1745597517,"current_range_meters":7200,"station_id":"ce4bgi92rcd13ifvqb90","pricing_plan_id":"cebpf4jnsgd1na2vs0mg"},{"bike_id":"1d6d102f-89dc-4052-9661-a1eaff1c6b0a","system_id":"levelo_inurba_marseille","lat":43.248111,"lon":5.374551,"is_reserved":false,"is_disabled":false,"rental_uris":{"android":"levelo://app?vid=1d6d102f-89dc-4052-9661-a1eaff1c6b0a","ios":"levelo://app?vid=1d6d102f-89dc-4052-9661-a1eaff1c6b0a"},"vehicle_type_id":"4","last_reported":1745597517,"current_range_meters":9200,"station_id":"ce4bhgh2rcd13ifvqfb0","pricing_plan_id":"cebpf4jnsgd1na2vs0mg"},{"bike_id":"c0cd61d1-2ae9-40ef-8d0d-dea0cf1f406f","system_id":"levelo_inurba_marseille","lat":43.28039,"lon":5.36941,"is_reserved":false,"is_disabled":false,"rental_uris":{"android":"levelo://app?vid=c0cd61d1-2ae9-40ef-8d0d-dea0cf1f406f","ios":"levelo://app?vid=c0cd61d1-2ae9-40ef-8d0d-dea0cf1f406f"},"vehicle_type_id":"4","last_reported":1745597517,"current_range_meters":8800,"station_id":"ce4bha12rcd13ifvqef0","pricing_plan_id":"cebpf4jnsgd1na2vs0mg"},{"bike_id":"2fb3abd8-0eb9-4d86-bc27-ab4d4f6eb674","system_id":"levelo_inurba_marseille","lat":43.2951,"lon":5.37507,"is_reserved":false,"is_disabled":false,"rental_uris":{"android":"levelo://app?vid=2fb3abd8-0eb9-4d86-bc27-ab4d4f6eb674","ios":"levelo://app?vid=2fb3abd8-0eb9-4d86-bc27-ab4d4f6eb674"},"vehicle_type_id":"4","last_reported":1745597517,"current_range_meters":9600,"station_id":"ce4bgkp2rcd13ifvqbmg","pricing_plan_id":"cebpf4jnsgd1na2vs0mg"},{"bike_id":"6b7935cc-eb0b-4c0e-877a-21a18063e5f5","system_id":"levelo_inurba_marseille","lat":43.30357,"lon":5.41928,"is_reserved":false,"is_disabled":false,"rental_uris":{"android":"levelo://app?vid=6b7935cc-eb0b-4c0e-877a-21a18063e5f5","ios":"levelo://app?vid=6b7935cc-eb0b-4c0e-877a-21a18063e5f5"},"vehicle_type_id":"4","last_reported":1745597517,"current_range_meters":9600,"station_id":"","pricing_plan_id":"cebpf4jnsgd1na2vs0mg"},{"bike_id":"412f41fa-8101-4f67-83ef-ebc650b263e0","system_id":"levelo_inurba_marseille","lat":43.2863,"lon":5.35094,"is_reserved":false,"is_disabled":false,"rental_uris":{"android":"levelo://app?vid=412f41fa-8101-4f67-83ef-ebc650b263e0","ios":"levelo://app?vid=412f41fa-8101-4f67-83ef-ebc650b263e0"},"vehicle_type_id":"4","last_reported":1745597517,"current_range_meters":9600,"station_id":"ce4bhch2rcd13ifvqeug","pricing_plan_id":"cebpf4jnsgd1na2vs0mg"},{"bike_id":"3341b49d-e198-4290-b017-3196fa1d4a22","system_id":"levelo_inurba_marseille","lat":43.23207,"lon":5.35542,"is_reserved":false,"is_disabled":false,"rental_uris":{"android":"levelo://app?vid=3341b49d-e198-4290-b017-3196fa1d4a22","ios":"levelo://app?vid=3341b49d-e198-4290-b017-3196fa1d4a22"},"vehicle_type_id":"4","last_reported":1745597517,"current_range_meters":10000,"station_id":"ce4bhu92rcd13ifvqi70","pricing_plan_id":"cebpf4jnsgd1na2vs0mg"},{"bike_id":"b6bd63eb-81ae-43b9-8ba0-51d3a4fef13e","system_id":"levelo_inurba_marseille","lat":43.29073,"lon":5.37154,"is_reserved":false,"is_disabled":false,"rental_uris":{"android":"levelo://app?vid=b6bd63eb-81ae-43b9-8ba0-51d3a4fef13e","ios":"levelo://app?vid=b6bd63eb-81ae-43b9-8ba0-51d3a4fef13e"},"vehicle_type_id":"4","last_reported":1745597517,"current_range_meters":9600,"station_id":"ce4bh5p2rcd13ifvqe4g","pricing_plan_id":"cebpf4jnsgd1na2vs0mg"},{"bike_id":"88af5f64-30da-401c-b1e6-4770d1245582","system_id":"levelo_inurba_marseille","lat":43.29073,"lon":5.37166,"is_reserved":false,"is_disabled":false,"rental_uris":{"android":"levelo://app?vid=88af5f64-30da-401c-b1e6-4770d1245582","ios":"levelo://app?vid=88af5f64-30da-401c-b1e6-4770d1245582"},"vehicle_type_id":"4","last_reported":1745597517,"current_range_meters":9600,"station_id":"ce4bh5p2rcd13ifvqe4g","pricing_plan_id":"cebpf4jnsgd1na2vs0mg"},{"bike_id":"8e7fdd3f-1441-4413-bd62-8797526aa30a","system_id":"levelo_inurba_marseille","lat":43.31064,"lon":5.38342,"is_reserved":false,"is_disabled":false,"rental_uris":{"android":"levelo://app?vid=8e7fdd3f-1441-4413-bd62-8797526aa30a","ios":"levelo://app?vid=8e7fdd3f-1441-4413-bd62-8797526aa30a"},"vehicle_type_id":"4","last_reported":1745597517,"current_range_meters":10000,"station_id":"ce4bgv92rcd13ifvqcr0","pricing_plan_id":"cebpf4jnsgd1na2vs0mg"},{"bike_id":"2c83c168-d356-49f6-8bb0-0bf3ccb3a93d","system_id":"levelo_inurba_marseille","lat":43.30421,"lon":5.41278,"is_reserved":false,"is_disabled":false,"rental_uris":{"android":"levelo://app?vid=2c83c168-d356-49f6-8bb0-0bf3ccb3a93d","ios":"levelo://app?vid=2c83c168-d356-49f6-8bb0-0bf3ccb3a93d"},"vehicle_type_id":"4","last_reported":1745597517,"current_range_meters":10000,"station_id":"ce4bhop2rcd13ifvqh8g","pricing_plan_id":"cebpf4jnsgd1na2vs0mg"},{"bike_id":"3cde735b-0dcd-4ecc-945c-45cd3a839d04","system_id":"levelo_inurba_marseille","lat":43.3133,"lon":5.39685,"is_reserved":false,"is_disabled":false,"rental_uris":{"android":"levelo://app?vid=3cde735b-0dcd-4ecc-945c-45cd3a839d04","ios":"levelo://app?vid=3cde735b-0dcd-4ecc-945c-45cd3a839d04"},"vehicle_type_id":"4","last_reported":1745597517,"current_range_meters":10000,"station_id":"ce4bgvp2rcd13ifvqcu0","pricing_plan_id":"cebpf4jnsgd1na2vs0mg"},{"bike_id":"6af27718-a240-4511-b105-026b1985396f","system_id":"levelo_inurba_marseille","lat":43.28614,"lon":5.37061,"is_reserved":false,"is_disabled":false,"rental_uris":{"android":"levelo://app?vid=6af27718-a240-4511-b105-026b1985396f","ios":"levelo://app?vid=6af27718-a240-4511-b105-026b1985396f"},"vehicle_type_id":"4","last_reported":1745597517,"current_range_meters":10000,"station_id":"ce4bht12rcd13ifvqi60","pricing_plan_id":"cebpf4jnsgd1na2vs0mg"},{"bike_id":"a9193099-440e-4ca9-b0ab-6bcfbd5c3301","system_id":"levelo_inurba_marseille","lat":43.28416,"lon":5.35001,"is_reserved":false,"is_disabled":false,"rental_uris":{"android":"levelo://app?vid=a9193099-440e-4ca9-b0ab-6bcfbd5c3301","ios":"levelo://app?vid=a9193099-440e-4ca9-b0ab-6bcfbd5c3301"},"vehicle_type_id":"4","last_reported":1745597517,"current_range_meters":10800,"station_id":"ce4bhbh2rcd13ifvqepg","pricing_plan_id":"cebpf4jnsgd1na2vs0mg"},{"bike_id":"dba5d5fb-c373-4186-b4bd-cd0687e4fef9","system_id":"levelo_inurba_marseille","lat":43.22939,"lon":5.35375,"is_reserved":false,"is_disabled":false,"rental_uris":{"android":"levelo://app?vid=dba5d5fb-c373-4186-b4bd-cd0687e4fef9","ios":"levelo://app?vid=dba5d5fb-c373-4186-b4bd-cd0687e4fef9"},"vehicle_type_id":"4","last_reported":1745597517,"current_range_meters":10800,"station_id":"cpo3532slgdg3j2ikp40","pricing_plan_id":"cebpf4jnsgd1na2vs0mg"},{"bike_id":"f1712a7d-5871-41e3-9b46-1f2f2ece89a0","system_id":"levelo_inurba_marseille","lat":43.23195,"lon":5.39992,"is_reserved":false,"is_disabled":false,"rental_uris":{"android":"levelo://app?vid=f1712a7d-5871-41e3-9b46-1f2f2ece89a0","ios":"levelo://app?vid=f1712a7d-5871-41e3-9b46-1f2f2ece89a0"},"vehicle_type_id":"4","last_reported":1745597517,"current_range_meters":10800,"station_id":"ce4bhn12rcd13ifvqgqg","pricing_plan_id":"cebpf4jnsgd1na2vs0mg"},{"bike_id":"5c8dde23-03af-4ec7-8c64-b6a7b95cfa5a","system_id":"levelo_inurba_marseille","lat":43.33725,"lon":5.39182,"is_reserved":false,"is_disabled":false,"rental_uris":{"android":"levelo://app?vid=5c8dde23-03af-4ec7-8c64-b6a7b95cfa5a","ios":"levelo://app?vid=5c8dde23-03af-4ec7-8c64-b6a7b95cfa5a"},"vehicle_type_id":"4","last_reported":1745597517,"current_range_meters":10800,"station_id":"ce4bhr92rcd13ifvqhsg","pricing_plan_id":"cebpf4jnsgd1na2vs0mg"},{"bike_id":"bd95f0bb-c5b1-4d5c-837c-b505e5069d47","system_id":"levelo_inurba_marseille","lat":43.33133,"lon":5.39831,"is_reserved":false,"is_disabled":false,"rental_uris":{"android":"levelo://app?vid=bd95f0bb-c5b1-4d5c-837c-b505e5069d47","ios":"levelo://app?vid=bd95f0bb-c5b1-4d5c-837c-b505e5069d47"},"vehicle_type_id":"4","last_reported":1745597517,"current_range_meters":10800,"station_id":"","pricing_plan_id":"cebpf4jnsgd1na2vs0mg"},{"bike_id":"db942de8-d264-48a0-b5b8-01b16737dbf2","system_id":"levelo_inurba_marseille","lat":43.23189,"lon":5.39973,"is_reserved":false,"is_disabled":false,"rental_uris":{"android":"levelo://app?vid=db942de8-d264-48a0-b5b8-01b16737dbf2","ios":"levelo://app?vid=db942de8-d264-48a0-b5b8-01b16737dbf2"},"vehicle_type_id":"4","last_reported":1745597517,"current_range_meters":11200,"station_id":"ce4bhn12rcd13ifvqgqg","pricing_plan_id":"cebpf4jnsgd1na2vs0mg"},{"bike_id":"58c3fb6a-603b-4fe2-9f5b-6f791dd8c3be","system_id":"levelo_inurba_marseille","lat":43.23188,"lon":5.39986,"is_reserved":false,"is_disabled":false,"rental_uris":{"android":"levelo://app?vid=58c3fb6a-603b-4fe2-9f5b-6f791dd8c3be","ios":"levelo://app?vid=58c3fb6a-603b-4fe2-9f5b-6f791dd8c3be"},"vehicle_type_id":"4","last_reported":1745597517,"current_range_meters":11200,"station_id":"ce4bhn12rcd13ifvqgqg","pricing_plan_id":"cebpf4jnsgd1na2vs0mg"},{"bike_id":"1296bb22-8368-4419-b84c-63f4212f2fb0","system_id":"levelo_inurba_marseille","lat":43.27371,"lon":5.36243,"is_reserved":false,"is_disabled":false,"rental_uris":{"android":"levelo://app?vid=1296bb22-8368-4419-b84c-63f4212f2fb0","ios":"levelo://app?vid=1296bb22-8368-4419-b84c-63f4212f2fb0"},"vehicle_type_id":"4","last_reported":1745597517,"current_range_meters":10800,"station_id":"ce4bhbh2rcd13ifvqeo0","pricing_plan_id":"cebpf4jnsgd1na2vs0mg"},{"bike_id":"bd55ec1a-1f49-48a5-bcaa-a005d610bdcc","system_id":"levelo_inurba_marseille","lat":43.30653,"lon":5.40097,"is_reserved":false,"is_disabled":false,"rental_uris":{"android":"levelo://app?vid=bd55ec1a-1f49-48a5-bcaa-a005d610bdcc","ios":"levelo://app?vid=bd55ec1a-1f49-48a5-bcaa-a005d610bdcc"},"vehicle_type_id":"4","last_reported":1745597517,"current_range_meters":11200,"station_id":"ce4bh112rcd13ifvqda0","pricing_plan_id":"cebpf4jnsgd1na2vs0mg"},{"bike_id":"e9b40b8c-aa8b-493b-9704-ac204b4fdb74","system_id":"levelo_inurba_marseille","lat":43.22516,"lon":5.34756,"is_reserved":false,"is_disabled":false,"rental_uris":{"android":"levelo://app?vid=e9b40b8c-aa8b-493b-9704-ac204b4fdb74","ios":"levelo://app?vid=e9b40b8c-aa8b-493b-9704-ac204b4fdb74"},"vehicle_type_id":"4","last_reported":1745597517,"current_range_meters":11200,"station_id":"st_cvj5dfep6f1abm77gieg","pricing_plan_id":"cebpf4jnsgd1na2vs0mg"},{"bike_id":"db09287a-0ef4-4f88-8d76-6d7a6ddf5bf8","system_id":"levelo_inurba_marseille","lat":43.29383,"lon":5.37871,"is_reserved":false,"is_disabled":true,"rental_uris":{"android":"levelo://app?vid=db09287a-0ef4-4f88-8d76-6d7a6ddf5bf8","ios":"levelo://app?vid=db09287a-0ef4-4f88-8d76-6d7a6ddf5bf8"},"vehicle_type_id":"4","last_reported":1745597517,"current_range_meters":11200,"station_id":"ce4bgjh2rcd13ifvqbf0","pricing_plan_id":"cebpf4jnsgd1na2vs0mg"},{"bike_id":"dc01f0b5-b1ff-492a-9187-c2aa24895f43","system_id":"levelo_inurba_marseille","lat":43.23202,"lon":5.40015,"is_reserved":false,"is_disabled":false,"rental_uris":{"android":"levelo://app?vid=dc01f0b5-b1ff-492a-9187-c2aa24895f43","ios":"levelo://app?vid=dc01f0b5-b1ff-492a-9187-c2aa24895f43"},"vehicle_type_id":"4","last_reported":1745597517,"current_range_meters":11200,"station_id":"ce4bhn12rcd13ifvqgqg","pricing_plan_id":"cebpf4jnsgd1na2vs0mg"},{"bike_id":"162263a7-8d3a-48ff-9061-0faf5429d5ca","system_id":"levelo_inurba_marseille","lat":43.30889,"lon":5.39643,"is_reserved":false,"is_disabled":false,"rental_uris":{"android":"levelo://app?vid=162263a7-8d3a-48ff-9061-0faf5429d5ca","ios":"levelo://app?vid=162263a7-8d3a-48ff-9061-0faf5429d5ca"},"vehicle_type_id":"4","last_reported":1745597517,"current_range_meters":11200,"station_id":"ce4bh012rcd13ifvqcv0","pricing_plan_id":"cebpf4jnsgd1na2vs0mg"},{"bike_id":"b4c858c7-9a94-49ec-85d2-dab74476eee0","system_id":"levelo_inurba_marseille","lat":43.29599,"lon":5.37707,"is_reserved":false,"is_disabled":false,"rental_uris":{"android":"levelo://app?vid=b4c858c7-9a94-49ec-85d2-dab74476eee0","ios":"levelo://app?vid=b4c858c7-9a94-49ec-85d2-dab74476eee0"},"vehicle_type_id":"4","last_reported":1745597517,"current_range_meters":11200,"station_id":"ce4bgi92rcd13ifvqb90","pricing_plan_id":"cebpf4jnsgd1na2vs0mg"},{"bike_id":"51da85fc-c691-4424-a36f-600ea4532cf6","system_id":"levelo_inurba_marseille","lat":43.28616,"lon":5.35094,"is_reserved":false,"is_disabled":false,"rental_uris":{"android":"levelo://app?vid=51da85fc-c691-4424-a36f-600ea4532cf6","ios":"levelo://app?vid=51da85fc-c691-4424-a36f-600ea4532cf6"},"vehicle_type_id":"4","last_reported":1745597517,"current_range_meters":11600,"station_id":"ce4bhch2rcd13ifvqeug","pricing_plan_id":"cebpf4jnsgd1na2vs0mg"},{"bike_id":"8ac37f25-f334-40e3-aebf-785f75b36e99","system_id":"levelo_inurba_marseille","lat":43.24805,"lon":5.37456,"is_reserved":false,"is_disabled":false,"rental_uris":{"android":"levelo://app?vid=8ac37f25-f334-40e3-aebf-785f75b36e99","ios":"levelo://app?vid=8ac37f25-f334-40e3-aebf-785f75b36e99"},"vehicle_type_id":"4","last_reported":1745597517,"current_range_meters":11600,"station_id":"ce4bhgh2rcd13ifvqfb0","pricing_plan_id":"cebpf4jnsgd1na2vs0mg"},{"bike_id":"fa72b649-3018-4187-96fe-d31c0b11e0f8","system_id":"levelo_inurba_marseille","lat":43.28614,"lon":5.37057,"is_reserved":false,"is_disabled":false,"rental_uris":{"android":"levelo://app?vid=fa72b649-3018-4187-96fe-d31c0b11e0f8","ios":"levelo://app?vid=fa72b649-3018-4187-96fe-d31c0b11e0f8"},"vehicle_type_id":"4","last_reported":1745597517,"current_range_meters":12000,"station_id":"ce4bht12rcd13ifvqi60","pricing_plan_id":"cebpf4jnsgd1na2vs0mg"},{"bike_id":"e857184b-427a-4782-b3ec-f969523d51fe","system_id":"levelo_inurba_marseille","lat":43.32361,"lon":5.36752,"is_reserved":false,"is_disabled":false,"rental_uris":{"android":"levelo://app?vid=e857184b-427a-4782-b3ec-f969523d51fe","ios":"levelo://app?vid=e857184b-427a-4782-b3ec-f969523d51fe"},"vehicle_type_id":"4","last_reported":1745597517,"current_range_meters":12000,"station_id":"ce4bhsh2rcd13ifvqi2g","pricing_plan_id":"cebpf4jnsgd1na2vs0mg"},{"bike_id":"13833de9-6c55-415c-a4e9-0c22a131e0fc","system_id":"levelo_inurba_marseille","lat":43.3036,"lon":5.4186,"is_reserved":false,"is_disabled":false,"rental_uris":{"android":"levelo://app?vid=13833de9-6c55-415c-a4e9-0c22a131e0fc","ios":"levelo://app?vid=13833de9-6c55-415c-a4e9-0c22a131e0fc"},"vehicle_type_id":"4","last_reported":1745597517,"current_range_meters":12000,"station_id":"ce4bhop2rcd13ifvqh7g","pricing_plan_id":"cebpf4jnsgd1na2vs0mg"},{"bike_id":"03ec5728-5a8d-475c-be69-d63e54c8d683","system_id":"levelo_inurba_marseille","lat":43.32471,"lon":5.3673,"is_reserved":false,"is_disabled":false,"rental_uris":{"android":"levelo://app?vid=03ec5728-5a8d-475c-be69-d63e54c8d683","ios":"levelo://app?vid=03ec5728-5a8d-475c-be69-d63e54c8d683"},"vehicle_type_id":"4","last_reported":1745597517,"current_range_meters":12400,"station_id":"","pricing_plan_id":"cebpf4jnsgd1na2vs0mg"},{"bike_id":"d339b0af-a0a8-4af8-affc-6585a20b02db","system_id":"levelo_inurba_marseille","lat":43.23184,"lon":5.3998,"is_reserved":false,"is_disabled":false,"rental_uris":{"android":"levelo://app?vid=d339b0af-a0a8-4af8-affc-6585a20b02db","ios":"levelo://app?vid=d339b0af-a0a8-4af8-affc-6585a20b02db"},"vehicle_type_id":"4","last_reported":1745597517,"current_range_meters":12400,"station_id":"ce4bhn12rcd13ifvqgqg","pricing_plan_id":"cebpf4jnsgd1na2vs0mg"},{"bike_id":"9923e6c3-49eb-48e9-91e0-a80e3129161c","system_id":"levelo_inurba_marseille","lat":43.28617,"lon":5.35112,"is_reserved":false,"is_disabled":false,"rental_uris":{"android":"levelo://app?vid=9923e6c3-49eb-48e9-91e0-a80e3129161c","ios":"levelo://app?vid=9923e6c3-49eb-48e9-91e0-a80e3129161c"},"vehicle_type_id":"4","last_reported":1745597517,"current_range_meters":12400,"station_id":"ce4bhch2rcd13ifvqeug","pricing_plan_id":"cebpf4jnsgd1na2vs0mg"},{"bike_id":"9cb8d187-15a9-42ad-b937-513721b5dbe0","system_id":"levelo_inurba_marseille","lat":43.280287,"lon":5.3694,"is_reserved":false,"is_disabled":false,"rental_uris":{"android":"levelo://app?vid=9cb8d187-15a9-42ad-b937-513721b5dbe0","ios":"levelo://app?vid=9cb8d187-15a9-42ad-b937-513721b5dbe0"},"vehicle_type_id":"4","last_reported":1745597517,"current_range_meters":12400,"station_id":"ce4bha12rcd13ifvqef0","pricing_plan_id":"cebpf4jnsgd1na2vs0mg"},{"bike_id":"46cf4a45-8f33-4647-9593-a3d85cf0068a","system_id":"levelo_inurba_marseille","lat":43.26227,"lon":5.40448,"is_reserved":false,"is_disabled":false,"rental_uris":{"android":"levelo://app?vid=46cf4a45-8f33-4647-9593-a3d85cf0068a","ios":"levelo://app?vid=46cf4a45-8f33-4647-9593-a3d85cf0068a"},"vehicle_type_id":"4","last_reported":1745597517,"current_range_meters":12400,"station_id":"ce4bhmh2rcd13ifvqgmg","pricing_plan_id":"cebpf4jnsgd1na2vs0mg"},{"bike_id":"422b5989-c8b6-43aa-b2b9-3bfeb2e1ddc0","system_id":"levelo_inurba_marseille","lat":43.24711,"lon":5.41187,"is_reserved":false,"is_disabled":false,"rental_uris":{"android":"levelo://app?vid=422b5989-c8b6-43aa-b2b9-3bfeb2e1ddc0","ios":"levelo://app?vid=422b5989-c8b6-43aa-b2b9-3bfeb2e1ddc0"},"vehicle_type_id":"4","last_reported":1745597517,"current_range_meters":12800,"station_id":"","pricing_plan_id":"cebpf4jnsgd1na2vs0mg"},{"bike_id":"4c11ff0f-a579-4f78-9960-a443174b0bdd","system_id":"levelo_inurba_marseille","lat":43.21186,"lon":5.35097,"is_reserved":false,"is_disabled":false,"rental_uris":{"android":"levelo://app?vid=4c11ff0f-a579-4f78-9960-a443174b0bdd","ios":"levelo://app?vid=4c11ff0f-a579-4f78-9960-a443174b0bdd"},"vehicle_type_id":"4","last_reported":1745597517,"current_range_meters":12800,"station_id":"st_cvj6sg6p6f1abm77japg","pricing_plan_id":"cebpf4jnsgd1na2vs0mg"},{"bike_id":"49a5be0b-2b23-4d57-a2bd-3a5d802fab0b","system_id":"levelo_inurba_marseille","lat":43.29002,"lon":5.35614,"is_reserved":false,"is_disabled":true,"rental_uris":{"android":"levelo://app?vid=49a5be0b-2b23-4d57-a2bd-3a5d802fab0b","ios":"levelo://app?vid=49a5be0b-2b23-4d57-a2bd-3a5d802fab0b"},"vehicle_type_id":"4","last_reported":1745597517,"current_range_meters":12800,"station_id":"ce4bhb92rcd13ifvqen0","pricing_plan_id":"cebpf4jnsgd1na2vs0mg"},{"bike_id":"e2dcabcf-64d8-4394-bb9a-ff877bee611a","system_id":"levelo_inurba_marseille","lat":43.32063,"lon":5.41478,"is_reserved":false,"is_disabled":false,"rental_uris":{"android":"levelo://app?vid=e2dcabcf-64d8-4394-bb9a-ff877bee611a","ios":"levelo://app?vid=e2dcabcf-64d8-4394-bb9a-ff877bee611a"},"vehicle_type_id":"4","last_reported":1745597517,"current_range_meters":13600,"station_id":"","pricing_plan_id":"cebpf4jnsgd1na2vs0mg"},{"bike_id":"c65adb3e-50be-42af-92da-68dd7e4eacc9","system_id":"levelo_inurba_marseille","lat":43.30162,"lon":5.38083,"is_reserved":false,"is_disabled":true,"rental_uris":{"android":"levelo://app?vid=c65adb3e-50be-42af-92da-68dd7e4eacc9","ios":"levelo://app?vid=c65adb3e-50be-42af-92da-68dd7e4eacc9"},"vehicle_type_id":"4","last_reported":1745597517,"current_range_meters":13600,"station_id":"ce4bgjp2rcd13ifvqbh0","pricing_plan_id":"cebpf4jnsgd1na2vs0mg"},{"bike_id":"0bfff189-ec6a-4439-b345-e9dd168ab867","system_id":"levelo_inurba_marseille","lat":43.33712,"lon":5.39209,"is_reserved":false,"is_disabled":false,"rental_uris":{"android":"levelo://app?vid=0bfff189-ec6a-4439-b345-e9dd168ab867","ios":"levelo://app?vid=0bfff189-ec6a-4439-b345-e9dd168ab867"},"vehicle_type_id":"4","last_reported":1745597517,"current_range_meters":13600,"station_id":"ce4bhr92rcd13ifvqhsg","pricing_plan_id":"cebpf4jnsgd1na2vs0mg"},{"bike_id":"c8fdc4d9-8cd2-4e6b-aa3e-2372e86d795a","system_id":"levelo_inurba_marseille","lat":43.24077,"lon":5.37734,"is_reserved":false,"is_disabled":false,"rental_uris":{"android":"levelo://app?vid=c8fdc4d9-8cd2-4e6b-aa3e-2372e86d795a","ios":"levelo://app?vid=c8fdc4d9-8cd2-4e6b-aa3e-2372e86d795a"},"vehicle_type_id":"4","last_reported":1745597517,"current_range_meters":13600,"station_id":"ce4bhnp2rcd13ifvqgvg","pricing_plan_id":"cebpf4jnsgd1na2vs0mg"},{"bike_id":"84e7be22-8aac-4b77-96ac-5afa58364bb9","system_id":"levelo_inurba_marseille","lat":43.23186,"lon":5.39985,"is_reserved":false,"is_disabled":false,"rental_uris":{"android":"levelo://app?vid=84e7be22-8aac-4b77-96ac-5afa58364bb9","ios":"levelo://app?vid=84e7be22-8aac-4b77-96ac-5afa58364bb9"},"vehicle_type_id":"4","last_reported":1745597517,"current_range_meters":14000,"station_id":"ce4bhn12rcd13ifvqgqg","pricing_plan_id":"cebpf4jnsgd1na2vs0mg"},{"bike_id":"cf321fcd-510e-4cab-abc0-429185b210f0","system_id":"levelo_inurba_marseille","lat":43.23064,"lon":5.35493,"is_reserved":false,"is_disabled":false,"rental_uris":{"android":"levelo://app?vid=cf321fcd-510e-4cab-abc0-429185b210f0","ios":"levelo://app?vid=cf321fcd-510e-4cab-abc0-429185b210f0"},"vehicle_type_id":"4","last_reported":1745597517,"current_range_meters":14000,"station_id":"cpo3342slgdg3j2ifvpg","pricing_plan_id":"cebpf4jnsgd1na2vs0mg"},{"bike_id":"2508d271-a40e-46cc-85b6-3fc05e6cc526","system_id":"levelo_inurba_marseille","lat":43.24169,"lon":5.36398,"is_reserved":false,"is_disabled":false,"rental_uris":{"android":"levelo://app?vid=2508d271-a40e-46cc-85b6-3fc05e6cc526","ios":"levelo://app?vid=2508d271-a40e-46cc-85b6-3fc05e6cc526"},"vehicle_type_id":"4","last_reported":1745597517,"current_range_meters":14000,"station_id":"cpo36qri1sfpv3e86is0","pricing_plan_id":"cebpf4jnsgd1na2vs0mg"},{"bike_id":"a530890d-2b61-4b2e-b7cb-f7df22ee4697","system_id":"levelo_inurba_marseille","lat":43.27946,"lon":5.41049,"is_reserved":false,"is_disabled":false,"rental_uris":{"android":"levelo://app?vid=a530890d-2b61-4b2e-b7cb-f7df22ee4697","ios":"levelo://app?vid=a530890d-2b61-4b2e-b7cb-f7df22ee4697"},"vehicle_type_id":"4","last_reported":1745597517,"current_range_meters":14000,"station_id":"ce4bhnp2rcd13ifvqh0g","pricing_plan_id":"cebpf4jnsgd1na2vs0mg"},{"bike_id":"5de78b69-0e0a-4d04-99c3-4f65b249431d","system_id":"levelo_inurba_marseille","lat":43.25578,"lon":5.38248,"is_reserved":false,"is_disabled":false,"rental_uris":{"android":"levelo://app?vid=5de78b69-0e0a-4d04-99c3-4f65b249431d","ios":"levelo://app?vid=5de78b69-0e0a-4d04-99c3-4f65b249431d"},"vehicle_type_id":"4","last_reported":1745597517,"current_range_meters":14400,"station_id":"ce4bhih2rcd13ifvqfs0","pricing_plan_id":"cebpf4jnsgd1na2vs0mg"},{"bike_id":"b6c6d9f7-b123-42c6-8ea7-68299b7c9958","system_id":"levelo_inurba_marseille","lat":43.32369,"lon":5.38886,"is_reserved":false,"is_disabled":false,"rental_uris":{"android":"levelo://app?vid=b6c6d9f7-b123-42c6-8ea7-68299b7c9958","ios":"levelo://app?vid=b6c6d9f7-b123-42c6-8ea7-68299b7c9958"},"vehicle_type_id":"4","last_reported":1745597517,"current_range_meters":14800,"station_id":"ce4bhqp2rcd13ifvqhog","pricing_plan_id":"cebpf4jnsgd1na2vs0mg"},{"bike_id":"071c1165-d0c3-4152-8608-afc3b64c18ee","system_id":"levelo_inurba_marseille","lat":43.21195,"lon":5.35092,"is_reserved":false,"is_disabled":false,"rental_uris":{"android":"levelo://app?vid=071c1165-d0c3-4152-8608-afc3b64c18ee","ios":"levelo://app?vid=071c1165-d0c3-4152-8608-afc3b64c18ee"},"vehicle_type_id":"4","last_reported":1745597517,"current_range_meters":14800,"station_id":"st_cvj6sg6p6f1abm77japg","pricing_plan_id":"cebpf4jnsgd1na2vs0mg"},{"bike_id":"3a5ceee6-209b-4e68-b140-88392d166375","system_id":"levelo_inurba_marseille","lat":43.29558,"lon":5.42293,"is_reserved":false,"is_disabled":false,"rental_uris":{"android":"levelo://app?vid=3a5ceee6-209b-4e68-b140-88392d166375","ios":"levelo://app?vid=3a5ceee6-209b-4e68-b140-88392d166375"},"vehicle_type_id":"4","last_reported":1745597517,"current_range_meters":14400,"station_id":"ce4bhph2rcd13ifvqhdg","pricing_plan_id":"cebpf4jnsgd1na2vs0mg"},{"bike_id":"673fb378-f0d0-4f1e-8626-d53bdeb286e9","system_id":"levelo_inurba_marseille","lat":43.28617,"lon":5.35109,"is_reserved":false,"is_disabled":false,"rental_uris":{"android":"levelo://app?vid=673fb378-f0d0-4f1e-8626-d53bdeb286e9","ios":"levelo://app?vid=673fb378-f0d0-4f1e-8626-d53bdeb286e9"},"vehicle_type_id":"4","last_reported":1745597517,"current_range_meters":15200,"station_id":"ce4bhch2rcd13ifvqeug","pricing_plan_id":"cebpf4jnsgd1na2vs0mg"},{"bike_id":"5267f34e-fce0-44b4-ad50-2f11d4f8abac","system_id":"levelo_inurba_marseille","lat":43.28278,"lon":5.35092,"is_reserved":false,"is_disabled":false,"rental_uris":{"android":"levelo://app?vid=5267f34e-fce0-44b4-ad50-2f11d4f8abac","ios":"levelo://app?vid=5267f34e-fce0-44b4-ad50-2f11d4f8abac"},"vehicle_type_id":"4","last_reported":1745597517,"current_range_meters":15200,"station_id":"ce4bhbp2rcd13ifvqerg","pricing_plan_id":"cebpf4jnsgd1na2vs0mg"},{"bike_id":"524afa0c-c9c2-4bbb-a98a-f9bef9f4ca68","system_id":"levelo_inurba_marseille","lat":43.28443,"lon":5.35898,"is_reserved":false,"is_disabled":false,"rental_uris":{"android":"levelo://app?vid=524afa0c-c9c2-4bbb-a98a-f9bef9f4ca68","ios":"levelo://app?vid=524afa0c-c9c2-4bbb-a98a-f9bef9f4ca68"},"vehicle_type_id":"4","last_reported":1745597517,"current_range_meters":16000,"station_id":"ce4bhah2rcd13ifvqei0","pricing_plan_id":"cebpf4jnsgd1na2vs0mg"},{"bike_id":"ec5f1667-0436-4eda-ad90-b2165f76a59a","system_id":"levelo_inurba_marseille","lat":43.281537,"lon":5.426396,"is_reserved":false,"is_disabled":false,"rental_uris":{"android":"levelo://app?vid=ec5f1667-0436-4eda-ad90-b2165f76a59a","ios":"levelo://app?vid=ec5f1667-0436-4eda-ad90-b2165f76a59a"},"vehicle_type_id":"4","last_reported":1745597517,"current_range_meters":16000,"station_id":"ce4bhnh2rcd13ifvqgug","pricing_plan_id":"cebpf4jnsgd1na2vs0mg"},{"bike_id":"568053e1-9183-4cee-acca-959027493876","system_id":"levelo_inurba_marseille","lat":43.30898,"lon":5.36868,"is_reserved":false,"is_disabled":true,"rental_uris":{"android":"levelo://app?vid=568053e1-9183-4cee-acca-959027493876","ios":"levelo://app?vid=568053e1-9183-4cee-acca-959027493876"},"vehicle_type_id":"4","last_reported":1745597517,"current_range_meters":16000,"station_id":"ce4bgn92rcd13ifvqbvg","pricing_plan_id":"cebpf4jnsgd1na2vs0mg"},{"bike_id":"af6af1ea-83a0-4448-a6b9-d143557f7290","system_id":"levelo_inurba_marseille","lat":43.27048,"lon":5.40249,"is_reserved":false,"is_disabled":false,"rental_uris":{"android":"levelo://app?vid=af6af1ea-83a0-4448-a6b9-d143557f7290","ios":"levelo://app?vid=af6af1ea-83a0-4448-a6b9-d143557f7290"},"vehicle_type_id":"4","last_reported":1745597517,"current_range_meters":16000,"station_id":"ce4bhk92rcd13ifvqgc0","pricing_plan_id":"cebpf4jnsgd1na2vs0mg"},{"bike_id":"5fd43ecb-dcd1-4ae5-8869-37f330a657a1","system_id":"levelo_inurba_marseille","lat":43.29622,"lon":5.37154,"is_reserved":false,"is_disabled":false,"rental_uris":{"android":"levelo://app?vid=5fd43ecb-dcd1-4ae5-8869-37f330a657a1","ios":"levelo://app?vid=5fd43ecb-dcd1-4ae5-8869-37f330a657a1"},"vehicle_type_id":"4","last_reported":1745597517,"current_range_meters":16000,"station_id":"ce4bgnh2rcd13ifvqc0g","pricing_plan_id":"cebpf4jnsgd1na2vs0mg"},{"bike_id":"3f3a62c5-4f10-428b-84cf-61f55d24a2ee","system_id":"levelo_inurba_marseille","lat":43.25582,"lon":5.38239,"is_reserved":false,"is_disabled":false,"rental_uris":{"android":"levelo://app?vid=3f3a62c5-4f10-428b-84cf-61f55d24a2ee","ios":"levelo://app?vid=3f3a62c5-4f10-428b-84cf-61f55d24a2ee"},"vehicle_type_id":"4","last_reported":1745597517,"current_range_meters":16000,"station_id":"ce4bhih2rcd13ifvqfs0","pricing_plan_id":"cebpf4jnsgd1na2vs0mg"},{"bike_id":"7c108040-11ac-4ff4-8ab2-98d92c6c0874","system_id":"levelo_inurba_marseille","lat":43.303813,"lon":5.385839,"is_reserved":false,"is_disabled":false,"rental_uris":{"android":"levelo://app?vid=7c108040-11ac-4ff4-8ab2-98d92c6c0874","ios":"levelo://app?vid=7c108040-11ac-4ff4-8ab2-98d92c6c0874"},"vehicle_type_id":"4","last_reported":1745597517,"current_range_meters":16000,"station_id":"ce4bgt12rcd13ifvqce0","pricing_plan_id":"cebpf4jnsgd1na2vs0mg"},{"bike_id":"0154f2de-edfa-4e06-84eb-4f0c8c68a2fe","system_id":"levelo_inurba_marseille","lat":43.29782,"lon":5.38098,"is_reserved":false,"is_disabled":false,"rental_uris":{"android":"levelo://app?vid=0154f2de-edfa-4e06-84eb-4f0c8c68a2fe","ios":"levelo://app?vid=0154f2de-edfa-4e06-84eb-4f0c8c68a2fe"},"vehicle_type_id":"4","last_reported":1745597517,"current_range_meters":16400,"station_id":"ce4bgip2rcd13ifvqbb0","pricing_plan_id":"cebpf4jnsgd1na2vs0mg"},{"bike_id":"e4d6a394-039b-4f95-bdab-e744b2caff1c","system_id":"levelo_inurba_marseille","lat":43.32295,"lon":5.38263,"is_reserved":false,"is_disabled":false,"rental_uris":{"android":"levelo://app?vid=e4d6a394-039b-4f95-bdab-e744b2caff1c","ios":"levelo://app?vid=e4d6a394-039b-4f95-bdab-e744b2caff1c"},"vehicle_type_id":"4","last_reported":1745597517,"current_range_meters":16400,"station_id":"ce4bhr12rcd13ifvqhqg","pricing_plan_id":"cebpf4jnsgd1na2vs0mg"},{"bike_id":"a753d502-6bd9-4d93-a6f0-ad59a13330bf","system_id":"levelo_inurba_marseille","lat":43.25493,"lon":5.37649,"is_reserved":false,"is_disabled":false,"rental_uris":{"android":"levelo://app?vid=a753d502-6bd9-4d93-a6f0-ad59a13330bf","ios":"levelo://app?vid=a753d502-6bd9-4d93-a6f0-ad59a13330bf"},"vehicle_type_id":"4","last_reported":1745597517,"current_range_meters":16000,"station_id":"ce4bhh12rcd13ifvqff0","pricing_plan_id":"cebpf4jnsgd1na2vs0mg"},{"bike_id":"f6e592cf-4324-48e2-bc27-9e9a6d646e0b","system_id":"levelo_inurba_marseille","lat":43.25002,"lon":5.38939,"is_reserved":false,"is_disabled":false,"rental_uris":{"android":"levelo://app?vid=f6e592cf-4324-48e2-bc27-9e9a6d646e0b","ios":"levelo://app?vid=f6e592cf-4324-48e2-bc27-9e9a6d646e0b"},"vehicle_type_id":"4","last_reported":1745597517,"current_range_meters":16000,"station_id":"ce4bhgp2rcd13ifvqfd0","pricing_plan_id":"cebpf4jnsgd1na2vs0mg"},{"bike_id":"23affa0f-1bf5-4473-ac76-75134badcfcb","system_id":"levelo_inurba_marseille","lat":43.281536,"lon":5.426505,"is_reserved":false,"is_disabled":false,"rental_uris":{"android":"levelo://app?vid=23affa0f-1bf5-4473-ac76-75134badcfcb","ios":"levelo://app?vid=23affa0f-1bf5-4473-ac76-75134badcfcb"},"vehicle_type_id":"4","last_reported":1745597517,"current_range_meters":16400,"station_id":"ce4bhnh2rcd13ifvqgug","pricing_plan_id":"cebpf4jnsgd1na2vs0mg"},{"bike_id":"5d9c1574-7299-43ae-a032-cbfe0be61242","system_id":"levelo_inurba_marseille","lat":43.23067,"lon":5.35479,"is_reserved":false,"is_disabled":false,"rental_uris":{"android":"levelo://app?vid=5d9c1574-7299-43ae-a032-cbfe0be61242","ios":"levelo://app?vid=5d9c1574-7299-43ae-a032-cbfe0be61242"},"vehicle_type_id":"4","last_reported":1745597517,"current_range_meters":16400,"station_id":"cpo3342slgdg3j2ifvpg","pricing_plan_id":"cebpf4jnsgd1na2vs0mg"},{"bike_id":"a1bcb16c-1d19-421a-8980-69201a0f1471","system_id":"levelo_inurba_marseille","lat":43.28616,"lon":5.351,"is_reserved":false,"is_disabled":false,"rental_uris":{"android":"levelo://app?vid=a1bcb16c-1d19-421a-8980-69201a0f1471","ios":"levelo://app?vid=a1bcb16c-1d19-421a-8980-69201a0f1471"},"vehicle_type_id":"4","last_reported":1745597517,"current_range_meters":16400,"station_id":"ce4bhch2rcd13ifvqeug","pricing_plan_id":"cebpf4jnsgd1na2vs0mg"},{"bike_id":"1ebb1eb1-592d-42f5-a5c8-14d38c1e10b4","system_id":"levelo_inurba_marseille","lat":43.28424,"lon":5.3498,"is_reserved":false,"is_disabled":false,"rental_uris":{"android":"levelo://app?vid=1ebb1eb1-592d-42f5-a5c8-14d38c1e10b4","ios":"levelo://app?vid=1ebb1eb1-592d-42f5-a5c8-14d38c1e10b4"},"vehicle_type_id":"4","last_reported":1745597517,"current_range_meters":16400,"station_id":"ce4bhbh2rcd13ifvqepg","pricing_plan_id":"cebpf4jnsgd1na2vs0mg"},{"bike_id":"4534d7e3-24a6-4022-8d6e-c87dbbcde225","system_id":"levelo_inurba_marseille","lat":43.22512,"lon":5.34792,"is_reserved":false,"is_disabled":false,"rental_uris":{"android":"levelo://app?vid=4534d7e3-24a6-4022-8d6e-c87dbbcde225","ios":"levelo://app?vid=4534d7e3-24a6-4022-8d6e-c87dbbcde225"},"vehicle_type_id":"4","last_reported":1745597517,"current_range_meters":16400,"station_id":"st_cvj5dfep6f1abm77gieg","pricing_plan_id":"cebpf4jnsgd1na2vs0mg"},{"bike_id":"987d7900-bb2a-45cb-bed7-6d69f6fd4fa3","system_id":"levelo_inurba_marseille","lat":43.28492,"lon":5.38463,"is_reserved":false,"is_disabled":false,"rental_uris":{"android":"levelo://app?vid=987d7900-bb2a-45cb-bed7-6d69f6fd4fa3","ios":"levelo://app?vid=987d7900-bb2a-45cb-bed7-6d69f6fd4fa3"},"vehicle_type_id":"4","last_reported":1745597517,"current_range_meters":16400,"station_id":"ce4bh512rcd13ifvqe3g","pricing_plan_id":"cebpf4jnsgd1na2vs0mg"},{"bike_id":"808dd04f-45a7-4e5e-a30a-c7ef09b55bb5","system_id":"levelo_inurba_marseille","lat":43.22505,"lon":5.34782,"is_reserved":false,"is_disabled":false,"rental_uris":{"android":"levelo://app?vid=808dd04f-45a7-4e5e-a30a-c7ef09b55bb5","ios":"levelo://app?vid=808dd04f-45a7-4e5e-a30a-c7ef09b55bb5"},"vehicle_type_id":"4","last_reported":1745597517,"current_range_meters":16800,"station_id":"st_cvj5dfep6f1abm77gieg","pricing_plan_id":"cebpf4jnsgd1na2vs0mg"},{"bike_id":"2e21323c-7982-403f-afdc-4848abf1f65f","system_id":"levelo_inurba_marseille","lat":43.286591,"lon":5.363469,"is_reserved":false,"is_disabled":false,"rental_uris":{"android":"levelo://app?vid=2e21323c-7982-403f-afdc-4848abf1f65f","ios":"levelo://app?vid=2e21323c-7982-403f-afdc-4848abf1f65f"},"vehicle_type_id":"4","last_reported":1745597517,"current_range_meters":17200,"station_id":"ce4bhah2rcd13ifvqej0","pricing_plan_id":"cebpf4jnsgd1na2vs0mg"},{"bike_id":"c6ec32c7-a1b5-47c3-8cbf-5fbd75de7902","system_id":"levelo_inurba_marseille","lat":43.2846,"lon":5.359,"is_reserved":false,"is_disabled":false,"rental_uris":{"android":"levelo://app?vid=c6ec32c7-a1b5-47c3-8cbf-5fbd75de7902","ios":"levelo://app?vid=c6ec32c7-a1b5-47c3-8cbf-5fbd75de7902"},"vehicle_type_id":"4","last_reported":1745597517,"current_range_meters":17200,"station_id":"ce4bhah2rcd13ifvqei0","pricing_plan_id":"cebpf4jnsgd1na2vs0mg"},{"bike_id":"51a4b1f4-4cfb-4b9e-b7e6-50254ee4c796","system_id":"levelo_inurba_marseille","lat":43.28638,"lon":5.37084,"is_reserved":false,"is_disabled":true,"rental_uris":{"android":"levelo://app?vid=51a4b1f4-4cfb-4b9e-b7e6-50254ee4c796","ios":"levelo://app?vid=51a4b1f4-4cfb-4b9e-b7e6-50254ee4c796"},"vehicle_type_id":"4","last_reported":1745597517,"current_range_meters":17200,"station_id":"ce4bht12rcd13ifvqi60","pricing_plan_id":"cebpf4jnsgd1na2vs0mg"},{"bike_id":"3bc9a89b-9194-4ae2-934b-d4975a20a1fd","system_id":"levelo_inurba_marseille","lat":43.26788,"lon":5.39427,"is_reserved":false,"is_disabled":false,"rental_uris":{"android":"levelo://app?vid=3bc9a89b-9194-4ae2-934b-d4975a20a1fd","ios":"levelo://app?vid=3bc9a89b-9194-4ae2-934b-d4975a20a1fd"},"vehicle_type_id":"4","last_reported":1745597517,"current_range_meters":17600,"station_id":"ce4bhh12rcd13ifvqfg0","pricing_plan_id":"cebpf4jnsgd1na2vs0mg"},{"bike_id":"5c59969d-437f-43ab-990f-664c9830a931","system_id":"levelo_inurba_marseille","lat":43.31371,"lon":5.38674,"is_reserved":false,"is_disabled":false,"rental_uris":{"android":"levelo://app?vid=5c59969d-437f-43ab-990f-664c9830a931","ios":"levelo://app?vid=5c59969d-437f-43ab-990f-664c9830a931"},"vehicle_type_id":"4","last_reported":1745597517,"current_range_meters":17600,"station_id":"","pricing_plan_id":"cebpf4jnsgd1na2vs0mg"},{"bike_id":"08ba14c4-5e90-4e60-968a-650c59a213a8","system_id":"levelo_inurba_marseille","lat":43.25795,"lon":5.39456,"is_reserved":false,"is_disabled":false,"rental_uris":{"android":"levelo://app?vid=08ba14c4-5e90-4e60-968a-650c59a213a8","ios":"levelo://app?vid=08ba14c4-5e90-4e60-968a-650c59a213a8"},"vehicle_type_id":"4","last_reported":1745597517,"current_range_meters":17600,"station_id":"ce4bhip2rcd13ifvqft0","pricing_plan_id":"cebpf4jnsgd1na2vs0mg"},{"bike_id":"31de0553-c9b8-4cd4-844d-7d7b36fa3ecd","system_id":"levelo_inurba_marseille","lat":43.28146,"lon":5.42638,"is_reserved":false,"is_disabled":false,"rental_uris":{"android":"levelo://app?vid=31de0553-c9b8-4cd4-844d-7d7b36fa3ecd","ios":"levelo://app?vid=31de0553-c9b8-4cd4-844d-7d7b36fa3ecd"},"vehicle_type_id":"4","last_reported":1745597517,"current_range_meters":17600,"station_id":"ce4bhnh2rcd13ifvqgug","pricing_plan_id":"cebpf4jnsgd1na2vs0mg"},{"bike_id":"f8918494-09aa-4f0f-b89c-be49ec40c84a","system_id":"levelo_inurba_marseille","lat":43.28612,"lon":5.35109,"is_reserved":false,"is_disabled":false,"rental_uris":{"android":"levelo://app?vid=f8918494-09aa-4f0f-b89c-be49ec40c84a","ios":"levelo://app?vid=f8918494-09aa-4f0f-b89c-be49ec40c84a"},"vehicle_type_id":"4","last_reported":1745597517,"current_range_meters":17600,"station_id":"ce4bhch2rcd13ifvqeug","pricing_plan_id":"cebpf4jnsgd1na2vs0mg"},{"bike_id":"abca1288-ae9a-4a2e-a1f9-c37cd8c1116e","system_id":"levelo_inurba_marseille","lat":43.23188,"lon":5.40022,"is_reserved":false,"is_disabled":false,"rental_uris":{"android":"levelo://app?vid=abca1288-ae9a-4a2e-a1f9-c37cd8c1116e","ios":"levelo://app?vid=abca1288-ae9a-4a2e-a1f9-c37cd8c1116e"},"vehicle_type_id":"4","last_reported":1745597517,"current_range_meters":18000,"station_id":"ce4bhn12rcd13ifvqgqg","pricing_plan_id":"cebpf4jnsgd1na2vs0mg"},{"bike_id":"f1a2a92a-3d43-433b-b001-b253652fe8a5","system_id":"levelo_inurba_marseille","lat":43.287267,"lon":5.361129,"is_reserved":false,"is_disabled":false,"rental_uris":{"android":"levelo://app?vid=f1a2a92a-3d43-433b-b001-b253652fe8a5","ios":"levelo://app?vid=f1a2a92a-3d43-433b-b001-b253652fe8a5"},"vehicle_type_id":"4","last_reported":1745597517,"current_range_meters":18000,"station_id":"ce4bguh2rcd13ifvqckg","pricing_plan_id":"cebpf4jnsgd1na2vs0mg"},{"bike_id":"79ffd577-c06f-4898-b813-2dd8142120d9","system_id":"levelo_inurba_marseille","lat":43.2862,"lon":5.35119,"is_reserved":false,"is_disabled":false,"rental_uris":{"android":"levelo://app?vid=79ffd577-c06f-4898-b813-2dd8142120d9","ios":"levelo://app?vid=79ffd577-c06f-4898-b813-2dd8142120d9"},"vehicle_type_id":"4","last_reported":1745597517,"current_range_meters":18000,"station_id":"ce4bhch2rcd13ifvqeug","pricing_plan_id":"cebpf4jnsgd1na2vs0mg"},{"bike_id":"d8ff4b45-d764-4117-82e3-bce145635bf8","system_id":"levelo_inurba_marseille","lat":43.27212,"lon":5.39183,"is_reserved":false,"is_disabled":false,"rental_uris":{"android":"levelo://app?vid=d8ff4b45-d764-4117-82e3-bce145635bf8","ios":"levelo://app?vid=d8ff4b45-d764-4117-82e3-bce145635bf8"},"vehicle_type_id":"4","last_reported":1745597517,"current_range_meters":18000,"station_id":"ce4bhhp2rcd13ifvqfm0","pricing_plan_id":"cebpf4jnsgd1na2vs0mg"},{"bike_id":"4046a82f-66e8-4b55-bd0a-356edea772d8","system_id":"levelo_inurba_marseille","lat":43.30787,"lon":5.3745,"is_reserved":false,"is_disabled":false,"rental_uris":{"android":"levelo://app?vid=4046a82f-66e8-4b55-bd0a-356edea772d8","ios":"levelo://app?vid=4046a82f-66e8-4b55-bd0a-356edea772d8"},"vehicle_type_id":"4","last_reported":1745597517,"current_range_meters":18800,"station_id":"","pricing_plan_id":"cebpf4jnsgd1na2vs0mg"},{"bike_id":"43b40735-793a-4f22-9ed7-abf7abaf25fb","system_id":"levelo_inurba_marseille","lat":43.28421,"lon":5.37513,"is_reserved":false,"is_disabled":false,"rental_uris":{"android":"levelo://app?vid=43b40735-793a-4f22-9ed7-abf7abaf25fb","ios":"levelo://app?vid=43b40735-793a-4f22-9ed7-abf7abaf25fb"},"vehicle_type_id":"4","last_reported":1745597517,"current_range_meters":18800,"station_id":"ce4bh412rcd13ifvqds0","pricing_plan_id":"cebpf4jnsgd1na2vs0mg"},{"bike_id":"d28bf9af-5868-40cf-bc78-dd7cb5c022b5","system_id":"levelo_inurba_marseille","lat":43.29966,"lon":5.38498,"is_reserved":false,"is_disabled":true,"rental_uris":{"android":"levelo://app?vid=d28bf9af-5868-40cf-bc78-dd7cb5c022b5","ios":"levelo://app?vid=d28bf9af-5868-40cf-bc78-dd7cb5c022b5"},"vehicle_type_id":"4","last_reported":1745597517,"current_range_meters":18800,"station_id":"ce4bgj92rcd13ifvqbd0","pricing_plan_id":"cebpf4jnsgd1na2vs0mg"},{"bike_id":"b996973b-ddc6-4199-b209-83728d92939e","system_id":"levelo_inurba_marseille","lat":43.28725,"lon":5.36081,"is_reserved":false,"is_disabled":false,"rental_uris":{"android":"levelo://app?vid=b996973b-ddc6-4199-b209-83728d92939e","ios":"levelo://app?vid=b996973b-ddc6-4199-b209-83728d92939e"},"vehicle_type_id":"4","last_reported":1745597517,"current_range_meters":18000,"station_id":"cki0cbj6b192h4jlfktg","pricing_plan_id":"cebpf4jnsgd1na2vs0mg"},{"bike_id":"b8435741-779b-42e2-abbc-ac3ecfbe5d32","system_id":"levelo_inurba_marseille","lat":43.30246,"lon":5.400753,"is_reserved":false,"is_disabled":false,"rental_uris":{"android":"levelo://app?vid=b8435741-779b-42e2-abbc-ac3ecfbe5d32","ios":"levelo://app?vid=b8435741-779b-42e2-abbc-ac3ecfbe5d32"},"vehicle_type_id":"4","last_reported":1745597517,"current_range_meters":18800,"station_id":"ce4bgvp2rcd13ifvqcu0","pricing_plan_id":"cebpf4jnsgd1na2vs0mg"},{"bike_id":"9ac7ab83-7def-4e8a-9bc9-9f3bfb03cb5a","system_id":"levelo_inurba_marseille","lat":43.289403,"lon":5.363973,"is_reserved":false,"is_disabled":false,"rental_uris":{"android":"levelo://app?vid=9ac7ab83-7def-4e8a-9bc9-9f3bfb03cb5a","ios":"levelo://app?vid=9ac7ab83-7def-4e8a-9bc9-9f3bfb03cb5a"},"vehicle_type_id":"4","last_reported":1745597517,"current_range_meters":18000,"station_id":"ce4bhnp2rcd13ifvqgvg","pricing_plan_id":"cebpf4jnsgd1na2vs0mg"},{"bike_id":"eb55b5d3-d5e8-4533-8d0a-a2ae5cdd94a0","system_id":"levelo_inurba_marseille","lat":43.25028,"lon":5.40377,"is_reserved":false,"is_disabled":false,"rental_uris":{"android":"levelo://app?vid=eb55b5d3-d5e8-4533-8d0a-a2ae5cdd94a0","ios":"levelo://app?vid=eb55b5d3-d5e8-4533-8d0a-a2ae5cdd94a0"},"vehicle_type_id":"4","last_reported":1745597517,"current_range_meters":18800,"station_id":"","pricing_plan_id":"cebpf4jnsgd1na2vs0mg"},{"bike_id":"9fac8949-580c-4814-ac69-31148581f4a2","system_id":"levelo_inurba_marseille","lat":43.33011,"lon":5.39122,"is_reserved":false,"is_disabled":false,"rental_uris":{"android":"levelo://app?vid=9fac8949-580c-4814-ac69-31148581f4a2","ios":"levelo://app?vid=9fac8949-580c-4814-ac69-31148581f4a2"},"vehicle_type_id":"4","last_reported":1745597517,"current_range_meters":18800,"station_id":"","pricing_plan_id":"cebpf4jnsgd1na2vs0mg"},{"bike_id":"1b00902e-9828-420c-9c00-0b049aecf473","system_id":"levelo_inurba_marseille","lat":43.24169,"lon":5.36392,"is_reserved":false,"is_disabled":false,"rental_uris":{"android":"levelo://app?vid=1b00902e-9828-420c-9c00-0b049aecf473","ios":"levelo://app?vid=1b00902e-9828-420c-9c00-0b049aecf473"},"vehicle_type_id":"4","last_reported":1745597517,"current_range_meters":19200,"station_id":"cpo36qri1sfpv3e86is0","pricing_plan_id":"cebpf4jnsgd1na2vs0mg"},{"bike_id":"8e5b50db-6bdf-48c5-8e5e-134abf9b9b3c","system_id":"levelo_inurba_marseille","lat":43.31722,"lon":5.43684,"is_reserved":false,"is_disabled":false,"rental_uris":{"android":"levelo://app?vid=8e5b50db-6bdf-48c5-8e5e-134abf9b9b3c","ios":"levelo://app?vid=8e5b50db-6bdf-48c5-8e5e-134abf9b9b3c"},"vehicle_type_id":"4","last_reported":1745597517,"current_range_meters":19600,"station_id":"ce4bhp92rcd13ifvqhcg","pricing_plan_id":"cebpf4jnsgd1na2vs0mg"},{"bike_id":"0dd63919-30e0-4a89-8174-07ec462211a4","system_id":"levelo_inurba_marseille","lat":43.26489,"lon":5.39555,"is_reserved":false,"is_disabled":false,"rental_uris":{"android":"levelo://app?vid=0dd63919-30e0-4a89-8174-07ec462211a4","ios":"levelo://app?vid=0dd63919-30e0-4a89-8174-07ec462211a4"},"vehicle_type_id":"4","last_reported":1745597517,"current_range_meters":19600,"station_id":"ce4bhi12rcd13ifvqfq0","pricing_plan_id":"cebpf4jnsgd1na2vs0mg"},{"bike_id":"95d8abb5-bc81-4acd-b701-48efccb08e73","system_id":"levelo_inurba_marseille","lat":43.29522,"lon":5.37504,"is_reserved":false,"is_disabled":false,"rental_uris":{"android":"levelo://app?vid=95d8abb5-bc81-4acd-b701-48efccb08e73","ios":"levelo://app?vid=95d8abb5-bc81-4acd-b701-48efccb08e73"},"vehicle_type_id":"4","last_reported":1745597517,"current_range_meters":19600,"station_id":"ce4bgkp2rcd13ifvqbmg","pricing_plan_id":"cebpf4jnsgd1na2vs0mg"},{"bike_id":"9cebde0f-95e9-4436-a07a-faf0a2ea7218","system_id":"levelo_inurba_marseille","lat":43.29069,"lon":5.37164,"is_reserved":false,"is_disabled":false,"rental_uris":{"android":"levelo://app?vid=9cebde0f-95e9-4436-a07a-faf0a2ea7218","ios":"levelo://app?vid=9cebde0f-95e9-4436-a07a-faf0a2ea7218"},"vehicle_type_id":"4","last_reported":1745597517,"current_range_meters":19200,"station_id":"ce4bh5p2rcd13ifvqe4g","pricing_plan_id":"cebpf4jnsgd1na2vs0mg"},{"bike_id":"617fbf20-bb15-4117-b0a0-f63054ce20f7","system_id":"levelo_inurba_marseille","lat":43.21196,"lon":5.35054,"is_reserved":false,"is_disabled":false,"rental_uris":{"android":"levelo://app?vid=617fbf20-bb15-4117-b0a0-f63054ce20f7","ios":"levelo://app?vid=617fbf20-bb15-4117-b0a0-f63054ce20f7"},"vehicle_type_id":"4","last_reported":1745597517,"current_range_meters":19600,"station_id":"st_cvj6sg6p6f1abm77japg","pricing_plan_id":"cebpf4jnsgd1na2vs0mg"},{"bike_id":"ce635803-bedf-40bc-9360-b1dbbf17902e","system_id":"levelo_inurba_marseille","lat":43.28574,"lon":5.35129,"is_reserved":false,"is_disabled":false,"rental_uris":{"android":"levelo://app?vid=ce635803-bedf-40bc-9360-b1dbbf17902e","ios":"levelo://app?vid=ce635803-bedf-40bc-9360-b1dbbf17902e"},"vehicle_type_id":"4","last_reported":1745597517,"current_range_meters":19600,"station_id":"","pricing_plan_id":"cebpf4jnsgd1na2vs0mg"},{"bike_id":"ec3a60c9-6759-4e96-bba1-3ba15baa6e1b","system_id":"levelo_inurba_marseille","lat":43.29803,"lon":5.38093,"is_reserved":false,"is_disabled":false,"rental_uris":{"android":"levelo://app?vid=ec3a60c9-6759-4e96-bba1-3ba15baa6e1b","ios":"levelo://app?vid=ec3a60c9-6759-4e96-bba1-3ba15baa6e1b"},"vehicle_type_id":"4","last_reported":1745597517,"current_range_meters":20000,"station_id":"ce4bgip2rcd13ifvqbb0","pricing_plan_id":"cebpf4jnsgd1na2vs0mg"},{"bike_id":"f6f62903-2c1f-4702-b214-c0cee9d65f7f","system_id":"levelo_inurba_marseille","lat":43.32662,"lon":5.40994,"is_reserved":false,"is_disabled":false,"rental_uris":{"android":"levelo://app?vid=f6f62903-2c1f-4702-b214-c0cee9d65f7f","ios":"levelo://app?vid=f6f62903-2c1f-4702-b214-c0cee9d65f7f"},"vehicle_type_id":"4","last_reported":1745597517,"current_range_meters":19600,"station_id":"ce4bhpp2rcd13ifvqhgg","pricing_plan_id":"cebpf4jnsgd1na2vs0mg"},{"bike_id":"e6f0b5a2-c895-4d4d-b478-a988bec1679c","system_id":"levelo_inurba_marseille","lat":43.21202,"lon":5.35078,"is_reserved":false,"is_disabled":false,"rental_uris":{"android":"levelo://app?vid=e6f0b5a2-c895-4d4d-b478-a988bec1679c","ios":"levelo://app?vid=e6f0b5a2-c895-4d4d-b478-a988bec1679c"},"vehicle_type_id":"4","last_reported":1745597517,"current_range_meters":20000,"station_id":"st_cvj6sg6p6f1abm77japg","pricing_plan_id":"cebpf4jnsgd1na2vs0mg"},{"bike_id":"5dc1d8c8-2a72-427a-98f4-19bd16d4eab0","system_id":"levelo_inurba_marseille","lat":43.31224,"lon":5.36846,"is_reserved":false,"is_disabled":false,"rental_uris":{"android":"levelo://app?vid=5dc1d8c8-2a72-427a-98f4-19bd16d4eab0","ios":"levelo://app?vid=5dc1d8c8-2a72-427a-98f4-19bd16d4eab0"},"vehicle_type_id":"4","last_reported":1745597517,"current_range_meters":20000,"station_id":"ce4bgl92rcd13ifvqbq0","pricing_plan_id":"cebpf4jnsgd1na2vs0mg"},{"bike_id":"26e6efc1-07c5-4b2b-b4c3-743d789c13ef","system_id":"levelo_inurba_marseille","lat":43.25102,"lon":5.39494,"is_reserved":false,"is_disabled":false,"rental_uris":{"android":"levelo://app?vid=26e6efc1-07c5-4b2b-b4c3-743d789c13ef","ios":"levelo://app?vid=26e6efc1-07c5-4b2b-b4c3-743d789c13ef"},"vehicle_type_id":"4","last_reported":1745597517,"current_range_meters":20000,"station_id":"ce4bhm12rcd13ifvqgkg","pricing_plan_id":"cebpf4jnsgd1na2vs0mg"},{"bike_id":"f415d2f2-0682-467a-80ca-9aa7e2bfd0fa","system_id":"levelo_inurba_marseille","lat":43.29189,"lon":5.35802,"is_reserved":false,"is_disabled":true,"rental_uris":{"android":"levelo://app?vid=f415d2f2-0682-467a-80ca-9aa7e2bfd0fa","ios":"levelo://app?vid=f415d2f2-0682-467a-80ca-9aa7e2bfd0fa"},"vehicle_type_id":"4","last_reported":1745597517,"current_range_meters":20000,"station_id":"ce4bhb12rcd13ifvqel0","pricing_plan_id":"cebpf4jnsgd1na2vs0mg"},{"bike_id":"9e494dcd-738c-4811-8f1c-af9096119303","system_id":"levelo_inurba_marseille","lat":43.286185,"lon":5.351015,"is_reserved":false,"is_disabled":false,"rental_uris":{"android":"levelo://app?vid=9e494dcd-738c-4811-8f1c-af9096119303","ios":"levelo://app?vid=9e494dcd-738c-4811-8f1c-af9096119303"},"vehicle_type_id":"4","last_reported":1745597517,"current_range_meters":20000,"station_id":"ce4bhch2rcd13ifvqeug","pricing_plan_id":"cebpf4jnsgd1na2vs0mg"},{"bike_id":"9ecba9b9-e0a8-4884-8161-e16828a9b2a1","system_id":"levelo_inurba_marseille","lat":43.29073,"lon":5.37149,"is_reserved":false,"is_disabled":false,"rental_uris":{"android":"levelo://app?vid=9ecba9b9-e0a8-4884-8161-e16828a9b2a1","ios":"levelo://app?vid=9ecba9b9-e0a8-4884-8161-e16828a9b2a1"},"vehicle_type_id":"4","last_reported":1745597517,"current_range_meters":20000,"station_id":"ce4bh5p2rcd13ifvqe4g","pricing_plan_id":"cebpf4jnsgd1na2vs0mg"},{"bike_id":"92603e56-cf3d-4b6a-a986-8cb1f5fe9eec","system_id":"levelo_inurba_marseille","lat":43.27948,"lon":5.4105,"is_reserved":false,"is_disabled":false,"rental_uris":{"android":"levelo://app?vid=92603e56-cf3d-4b6a-a986-8cb1f5fe9eec","ios":"levelo://app?vid=92603e56-cf3d-4b6a-a986-8cb1f5fe9eec"},"vehicle_type_id":"4","last_reported":1745597517,"current_range_meters":20400,"station_id":"ce4bhnp2rcd13ifvqh0g","pricing_plan_id":"cebpf4jnsgd1na2vs0mg"},{"bike_id":"39825670-1295-465c-811b-6e433f38f6e4","system_id":"levelo_inurba_marseille","lat":43.28617,"lon":5.35106,"is_reserved":false,"is_disabled":false,"rental_uris":{"android":"levelo://app?vid=39825670-1295-465c-811b-6e433f38f6e4","ios":"levelo://app?vid=39825670-1295-465c-811b-6e433f38f6e4"},"vehicle_type_id":"4","last_reported":1745597517,"current_range_meters":20400,"station_id":"ce4bhch2rcd13ifvqeug","pricing_plan_id":"cebpf4jnsgd1na2vs0mg"},{"bike_id":"3ea242bb-dc31-44a9-8d1d-ecdbc103752c","system_id":"levelo_inurba_marseille","lat":43.28426,"lon":5.35004,"is_reserved":false,"is_disabled":false,"rental_uris":{"android":"levelo://app?vid=3ea242bb-dc31-44a9-8d1d-ecdbc103752c","ios":"levelo://app?vid=3ea242bb-dc31-44a9-8d1d-ecdbc103752c"},"vehicle_type_id":"4","last_reported":1745597517,"current_range_meters":20400,"station_id":"ce4bhbh2rcd13ifvqepg","pricing_plan_id":"cebpf4jnsgd1na2vs0mg"},{"bike_id":"3d8c5914-383a-4509-8539-1561f0bf8036","system_id":"levelo_inurba_marseille","lat":43.29046,"lon":5.39964,"is_reserved":false,"is_disabled":true,"rental_uris":{"android":"levelo://app?vid=3d8c5914-383a-4509-8539-1561f0bf8036","ios":"levelo://app?vid=3d8c5914-383a-4509-8539-1561f0bf8036"},"vehicle_type_id":"4","last_reported":1745597517,"current_range_meters":20400,"station_id":"ce4bh392rcd13ifvqdm0","pricing_plan_id":"cebpf4jnsgd1na2vs0mg"},{"bike_id":"5acc9e68-9019-47de-a3b0-b16e90a01968","system_id":"levelo_inurba_marseille","lat":43.30359,"lon":5.41877,"is_reserved":false,"is_disabled":false,"rental_uris":{"android":"levelo://app?vid=5acc9e68-9019-47de-a3b0-b16e90a01968","ios":"levelo://app?vid=5acc9e68-9019-47de-a3b0-b16e90a01968"},"vehicle_type_id":"4","last_reported":1745597517,"current_range_meters":20400,"station_id":"ce4bhop2rcd13ifvqh7g","pricing_plan_id":"cebpf4jnsgd1na2vs0mg"},{"bike_id":"3d3dd6dc-4d3f-46b1-811a-bd1fda2771bd","system_id":"levelo_inurba_marseille","lat":43.225085,"lon":5.347821,"is_reserved":false,"is_disabled":false,"rental_uris":{"android":"levelo://app?vid=3d3dd6dc-4d3f-46b1-811a-bd1fda2771bd","ios":"levelo://app?vid=3d3dd6dc-4d3f-46b1-811a-bd1fda2771bd"},"vehicle_type_id":"4","last_reported":1745597517,"current_range_meters":20400,"station_id":"st_cvj5dfep6f1abm77gieg","pricing_plan_id":"cebpf4jnsgd1na2vs0mg"},{"bike_id":"faa8334f-d698-4b2b-8f65-d27f28dd59cc","system_id":"levelo_inurba_marseille","lat":43.33709,"lon":5.39148,"is_reserved":false,"is_disabled":false,"rental_uris":{"android":"levelo://app?vid=faa8334f-d698-4b2b-8f65-d27f28dd59cc","ios":"levelo://app?vid=faa8334f-d698-4b2b-8f65-d27f28dd59cc"},"vehicle_type_id":"4","last_reported":1745597517,"current_range_meters":20400,"station_id":"ce4bhr92rcd13ifvqhsg","pricing_plan_id":"cebpf4jnsgd1na2vs0mg"},{"bike_id":"1504a7b4-3c2b-41cd-85cd-57aa88641e7e","system_id":"levelo_inurba_marseille","lat":43.29717,"lon":5.36633,"is_reserved":false,"is_disabled":true,"rental_uris":{"android":"levelo://app?vid=1504a7b4-3c2b-41cd-85cd-57aa88641e7e","ios":"levelo://app?vid=1504a7b4-3c2b-41cd-85cd-57aa88641e7e"},"vehicle_type_id":"4","last_reported":1745597517,"current_range_meters":20800,"station_id":"ce4bgn12rcd13ifvqbt0","pricing_plan_id":"cebpf4jnsgd1na2vs0mg"},{"bike_id":"07c04693-0211-4648-9d9d-017823a9f671","system_id":"levelo_inurba_marseille","lat":43.28046,"lon":5.36952,"is_reserved":false,"is_disabled":false,"rental_uris":{"android":"levelo://app?vid=07c04693-0211-4648-9d9d-017823a9f671","ios":"levelo://app?vid=07c04693-0211-4648-9d9d-017823a9f671"},"vehicle_type_id":"4","last_reported":1745597517,"current_range_meters":20400,"station_id":"ce4bha12rcd13ifvqef0","pricing_plan_id":"cebpf4jnsgd1na2vs0mg"},{"bike_id":"8155edae-7028-4c5a-830f-67942d6ec45a","system_id":"levelo_inurba_marseille","lat":43.28415,"lon":5.37546,"is_reserved":false,"is_disabled":false,"rental_uris":{"android":"levelo://app?vid=8155edae-7028-4c5a-830f-67942d6ec45a","ios":"levelo://app?vid=8155edae-7028-4c5a-830f-67942d6ec45a"},"vehicle_type_id":"4","last_reported":1745597517,"current_range_meters":21600,"station_id":"ce4bh412rcd13ifvqds0","pricing_plan_id":"cebpf4jnsgd1na2vs0mg"},{"bike_id":"f2563252-fa00-419c-8cc9-ce7a582026c4","system_id":"levelo_inurba_marseille","lat":43.23183,"lon":5.39996,"is_reserved":false,"is_disabled":false,"rental_uris":{"android":"levelo://app?vid=f2563252-fa00-419c-8cc9-ce7a582026c4","ios":"levelo://app?vid=f2563252-fa00-419c-8cc9-ce7a582026c4"},"vehicle_type_id":"4","last_reported":1745597517,"current_range_meters":21600,"station_id":"ce4bhn12rcd13ifvqgqg","pricing_plan_id":"cebpf4jnsgd1na2vs0mg"},{"bike_id":"0d620dd6-dce6-4960-9a34-19ca8a3243d1","system_id":"levelo_inurba_marseille","lat":43.29716,"lon":5.36613,"is_reserved":false,"is_disabled":false,"rental_uris":{"android":"levelo://app?vid=0d620dd6-dce6-4960-9a34-19ca8a3243d1","ios":"levelo://app?vid=0d620dd6-dce6-4960-9a34-19ca8a3243d1"},"vehicle_type_id":"4","last_reported":1745597517,"current_range_meters":20800,"station_id":"ce4bgn12rcd13ifvqbt0","pricing_plan_id":"cebpf4jnsgd1na2vs0mg"},{"bike_id":"e10849ab-f14c-42eb-bf35-8ad4ea47ec28","system_id":"levelo_inurba_marseille","lat":43.30317,"lon":5.40449,"is_reserved":false,"is_disabled":true,"rental_uris":{"android":"levelo://app?vid=e10849ab-f14c-42eb-bf35-8ad4ea47ec28","ios":"levelo://app?vid=e10849ab-f14c-42eb-bf35-8ad4ea47ec28"},"vehicle_type_id":"4","last_reported":1745597517,"current_range_meters":22000,"station_id":"ce4bh012rcd13ifvqd10","pricing_plan_id":"cebpf4jnsgd1na2vs0mg"},{"bike_id":"67f487ae-c8eb-423d-bb3f-fd07ea613906","system_id":"levelo_inurba_marseille","lat":43.30134,"lon":5.38777,"is_reserved":false,"is_disabled":false,"rental_uris":{"android":"levelo://app?vid=67f487ae-c8eb-423d-bb3f-fd07ea613906","ios":"levelo://app?vid=67f487ae-c8eb-423d-bb3f-fd07ea613906"},"vehicle_type_id":"4","last_reported":1745597517,"current_range_meters":21600,"station_id":"ce4bghh2rcd13ifvqb60","pricing_plan_id":"cebpf4jnsgd1na2vs0mg"},{"bike_id":"586a9560-e195-49db-87da-295974d8b67a","system_id":"levelo_inurba_marseille","lat":43.29301,"lon":5.37191,"is_reserved":false,"is_disabled":true,"rental_uris":{"android":"levelo://app?vid=586a9560-e195-49db-87da-295974d8b67a","ios":"levelo://app?vid=586a9560-e195-49db-87da-295974d8b67a"},"vehicle_type_id":"4","last_reported":1745597517,"current_range_meters":22000,"station_id":"ce4bgh92rcd13ifvqb40","pricing_plan_id":"cebpf4jnsgd1na2vs0mg"},{"bike_id":"2b550a5f-effa-42fe-a3b3-be332a383f25","system_id":"levelo_inurba_marseille","lat":43.32337,"lon":5.40623,"is_reserved":false,"is_disabled":false,"rental_uris":{"android":"levelo://app?vid=2b550a5f-effa-42fe-a3b3-be332a383f25","ios":"levelo://app?vid=2b550a5f-effa-42fe-a3b3-be332a383f25"},"vehicle_type_id":"4","last_reported":1745597517,"current_range_meters":22000,"station_id":"ce4bhq92rcd13ifvqhjg","pricing_plan_id":"cebpf4jnsgd1na2vs0mg"},{"bike_id":"3b33c6e3-7364-4477-b141-49e8fd0e2d54","system_id":"levelo_inurba_marseille","lat":43.28621,"lon":5.35108,"is_reserved":false,"is_disabled":false,"rental_uris":{"android":"levelo://app?vid=3b33c6e3-7364-4477-b141-49e8fd0e2d54","ios":"levelo://app?vid=3b33c6e3-7364-4477-b141-49e8fd0e2d54"},"vehicle_type_id":"4","last_reported":1745597517,"current_range_meters":22000,"station_id":"ce4bhch2rcd13ifvqeug","pricing_plan_id":"cebpf4jnsgd1na2vs0mg"},{"bike_id":"532fd114-81e4-4dce-8f26-7eaf1d8121c9","system_id":"levelo_inurba_marseille","lat":43.28628,"lon":5.35161,"is_reserved":false,"is_disabled":false,"rental_uris":{"android":"levelo://app?vid=532fd114-81e4-4dce-8f26-7eaf1d8121c9","ios":"levelo://app?vid=532fd114-81e4-4dce-8f26-7eaf1d8121c9"},"vehicle_type_id":"4","last_reported":1745597517,"current_range_meters":22000,"station_id":"ce4bhch2rcd13ifvqeug","pricing_plan_id":"cebpf4jnsgd1na2vs0mg"},{"bike_id":"39b2b193-959f-4cc3-887a-0d520b38f9f2","system_id":"levelo_inurba_marseille","lat":43.280737,"lon":5.396505,"is_reserved":false,"is_disabled":false,"rental_uris":{"android":"levelo://app?vid=39b2b193-959f-4cc3-887a-0d520b38f9f2","ios":"levelo://app?vid=39b2b193-959f-4cc3-887a-0d520b38f9f2"},"vehicle_type_id":"4","last_reported":1745597517,"current_range_meters":22000,"station_id":"ce4bho12rcd13ifvqh2g","pricing_plan_id":"cebpf4jnsgd1na2vs0mg"},{"bike_id":"b64aa273-5cc3-449e-ba92-14833edf0136","system_id":"levelo_inurba_marseille","lat":43.30888,"lon":5.39657,"is_reserved":false,"is_disabled":true,"rental_uris":{"android":"levelo://app?vid=b64aa273-5cc3-449e-ba92-14833edf0136","ios":"levelo://app?vid=b64aa273-5cc3-449e-ba92-14833edf0136"},"vehicle_type_id":"4","last_reported":1745597517,"current_range_meters":22400,"station_id":"ce4bh012rcd13ifvqcv0","pricing_plan_id":"cebpf4jnsgd1na2vs0mg"},{"bike_id":"83140c59-0a85-46e8-80a1-22de4646f85a","system_id":"levelo_inurba_marseille","lat":43.27997,"lon":5.41671,"is_reserved":false,"is_disabled":false,"rental_uris":{"android":"levelo://app?vid=83140c59-0a85-46e8-80a1-22de4646f85a","ios":"levelo://app?vid=83140c59-0a85-46e8-80a1-22de4646f85a"},"vehicle_type_id":"4","last_reported":1745597517,"current_range_meters":22400,"station_id":"ce4bho12rcd13ifvqh1g","pricing_plan_id":"cebpf4jnsgd1na2vs0mg"},{"bike_id":"a6707c49-3ebc-400c-87dd-b68a13432882","system_id":"levelo_inurba_marseille","lat":43.29893,"lon":5.436712,"is_reserved":false,"is_disabled":false,"rental_uris":{"android":"levelo://app?vid=a6707c49-3ebc-400c-87dd-b68a13432882","ios":"levelo://app?vid=a6707c49-3ebc-400c-87dd-b68a13432882"},"vehicle_type_id":"4","last_reported":1745597517,"current_range_meters":22400,"station_id":"","pricing_plan_id":"cebpf4jnsgd1na2vs0mg"},{"bike_id":"5ef11b30-e74f-4ca2-95fc-092c1510b2bf","system_id":"levelo_inurba_marseille","lat":43.288577,"lon":5.35842,"is_reserved":false,"is_disabled":false,"rental_uris":{"android":"levelo://app?vid=5ef11b30-e74f-4ca2-95fc-092c1510b2bf","ios":"levelo://app?vid=5ef11b30-e74f-4ca2-95fc-092c1510b2bf"},"vehicle_type_id":"4","last_reported":1745597517,"current_range_meters":22800,"station_id":"","pricing_plan_id":"cebpf4jnsgd1na2vs0mg"},{"bike_id":"cd5e0ceb-ae29-49ae-88da-399fcd4d21ef","system_id":"levelo_inurba_marseille","lat":43.23179,"lon":5.39995,"is_reserved":false,"is_disabled":false,"rental_uris":{"android":"levelo://app?vid=cd5e0ceb-ae29-49ae-88da-399fcd4d21ef","ios":"levelo://app?vid=cd5e0ceb-ae29-49ae-88da-399fcd4d21ef"},"vehicle_type_id":"4","last_reported":1745597517,"current_range_meters":23200,"station_id":"ce4bhn12rcd13ifvqgqg","pricing_plan_id":"cebpf4jnsgd1na2vs0mg"},{"bike_id":"da3e423e-00bf-4930-9de2-7a959dfa1f14","system_id":"levelo_inurba_marseille","lat":43.294198,"lon":5.386224,"is_reserved":false,"is_disabled":false,"rental_uris":{"android":"levelo://app?vid=da3e423e-00bf-4930-9de2-7a959dfa1f14","ios":"levelo://app?vid=da3e423e-00bf-4930-9de2-7a959dfa1f14"},"vehicle_type_id":"4","last_reported":1745597517,"current_range_meters":22800,"station_id":"ce4bh2h2rcd13ifvqdh0","pricing_plan_id":"cebpf4jnsgd1na2vs0mg"},{"bike_id":"4430328c-353b-483f-9e5f-2614e9bc9eb8","system_id":"levelo_inurba_marseille","lat":43.29271,"lon":5.38425,"is_reserved":false,"is_disabled":false,"rental_uris":{"android":"levelo://app?vid=4430328c-353b-483f-9e5f-2614e9bc9eb8","ios":"levelo://app?vid=4430328c-353b-483f-9e5f-2614e9bc9eb8"},"vehicle_type_id":"4","last_reported":1745597517,"current_range_meters":22800,"station_id":"ce4bh692rcd13ifvqea0","pricing_plan_id":"cebpf4jnsgd1na2vs0mg"},{"bike_id":"782afda6-6173-4209-8a5f-c85f71528e7a","system_id":"levelo_inurba_marseille","lat":43.286102,"lon":5.351183,"is_reserved":false,"is_disabled":false,"rental_uris":{"android":"levelo://app?vid=782afda6-6173-4209-8a5f-c85f71528e7a","ios":"levelo://app?vid=782afda6-6173-4209-8a5f-c85f71528e7a"},"vehicle_type_id":"4","last_reported":1745597517,"current_range_meters":22800,"station_id":"ce4bhch2rcd13ifvqeug","pricing_plan_id":"cebpf4jnsgd1na2vs0mg"},{"bike_id":"8e2b9fc2-007f-457f-ace0-12d01892f6b3","system_id":"levelo_inurba_marseille","lat":43.267501,"lon":5.394117,"is_reserved":false,"is_disabled":false,"rental_uris":{"android":"levelo://app?vid=8e2b9fc2-007f-457f-ace0-12d01892f6b3","ios":"levelo://app?vid=8e2b9fc2-007f-457f-ace0-12d01892f6b3"},"vehicle_type_id":"4","last_reported":1745597517,"current_range_meters":22800,"station_id":"ce4bhg12rcd13ifvqf60","pricing_plan_id":"cebpf4jnsgd1na2vs0mg"},{"bike_id":"e5ce5eac-a09c-42ed-b277-156ae210e8ee","system_id":"levelo_inurba_marseille","lat":43.33725,"lon":5.39189,"is_reserved":false,"is_disabled":false,"rental_uris":{"android":"levelo://app?vid=e5ce5eac-a09c-42ed-b277-156ae210e8ee","ios":"levelo://app?vid=e5ce5eac-a09c-42ed-b277-156ae210e8ee"},"vehicle_type_id":"4","last_reported":1745597517,"current_range_meters":23200,"station_id":"ce4bhr92rcd13ifvqhsg","pricing_plan_id":"cebpf4jnsgd1na2vs0mg"},{"bike_id":"3e49b3b9-5270-45fb-8f74-1f3acaf8237a","system_id":"levelo_inurba_marseille","lat":43.28154,"lon":5.42642,"is_reserved":false,"is_disabled":false,"rental_uris":{"android":"levelo://app?vid=3e49b3b9-5270-45fb-8f74-1f3acaf8237a","ios":"levelo://app?vid=3e49b3b9-5270-45fb-8f74-1f3acaf8237a"},"vehicle_type_id":"4","last_reported":1745597517,"current_range_meters":23200,"station_id":"ce4bhnh2rcd13ifvqgug","pricing_plan_id":"cebpf4jnsgd1na2vs0mg"},{"bike_id":"ff9298bd-a58f-4e1e-9153-c4f7863c482f","system_id":"levelo_inurba_marseille","lat":43.29685,"lon":5.3728,"is_reserved":false,"is_disabled":false,"rental_uris":{"android":"levelo://app?vid=ff9298bd-a58f-4e1e-9153-c4f7863c482f","ios":"levelo://app?vid=ff9298bd-a58f-4e1e-9153-c4f7863c482f"},"vehicle_type_id":"4","last_reported":1745597517,"current_range_meters":23200,"station_id":"ce4bgk12rcd13ifvqbj0","pricing_plan_id":"cebpf4jnsgd1na2vs0mg"},{"bike_id":"89287ab9-46b7-4af4-84ed-6890333f66ed","system_id":"levelo_inurba_marseille","lat":43.28611,"lon":5.35107,"is_reserved":false,"is_disabled":false,"rental_uris":{"android":"levelo://app?vid=89287ab9-46b7-4af4-84ed-6890333f66ed","ios":"levelo://app?vid=89287ab9-46b7-4af4-84ed-6890333f66ed"},"vehicle_type_id":"4","last_reported":1745597517,"current_range_meters":23200,"station_id":"ce4bhch2rcd13ifvqeug","pricing_plan_id":"cebpf4jnsgd1na2vs0mg"},{"bike_id":"22b960e3-08a2-4671-a54a-07f30a8e8144","system_id":"levelo_inurba_marseille","lat":43.286156,"lon":5.351017,"is_reserved":false,"is_disabled":false,"rental_uris":{"android":"levelo://app?vid=22b960e3-08a2-4671-a54a-07f30a8e8144","ios":"levelo://app?vid=22b960e3-08a2-4671-a54a-07f30a8e8144"},"vehicle_type_id":"4","last_reported":1745597517,"current_range_meters":23200,"station_id":"ce4bhch2rcd13ifvqeug","pricing_plan_id":"cebpf4jnsgd1na2vs0mg"},{"bike_id":"db7d7242-8c7e-4f94-b69e-661206cd7af4","system_id":"levelo_inurba_marseille","lat":43.28607,"lon":5.35101,"is_reserved":false,"is_disabled":false,"rental_uris":{"android":"levelo://app?vid=db7d7242-8c7e-4f94-b69e-661206cd7af4","ios":"levelo://app?vid=db7d7242-8c7e-4f94-b69e-661206cd7af4"},"vehicle_type_id":"4","last_reported":1745597517,"current_range_meters":23200,"station_id":"","pricing_plan_id":"cebpf4jnsgd1na2vs0mg"},{"bike_id":"bac6966c-432e-4d1c-8a4e-0db7f1f95d59","system_id":"levelo_inurba_marseille","lat":43.31759,"lon":5.3902,"is_reserved":false,"is_disabled":false,"rental_uris":{"android":"levelo://app?vid=bac6966c-432e-4d1c-8a4e-0db7f1f95d59","ios":"levelo://app?vid=bac6966c-432e-4d1c-8a4e-0db7f1f95d59"},"vehicle_type_id":"4","last_reported":1745597517,"current_range_meters":23200,"station_id":"ce4bhqp2rcd13ifvqhng","pricing_plan_id":"cebpf4jnsgd1na2vs0mg"},{"bike_id":"2e3a0ccd-2a71-42ad-90f9-c219932f0167","system_id":"levelo_inurba_marseille","lat":43.30302,"lon":5.39216,"is_reserved":false,"is_disabled":false,"rental_uris":{"android":"levelo://app?vid=2e3a0ccd-2a71-42ad-90f9-c219932f0167","ios":"levelo://app?vid=2e3a0ccd-2a71-42ad-90f9-c219932f0167"},"vehicle_type_id":"4","last_reported":1745597517,"current_range_meters":24000,"station_id":"ce4bgt92rcd13ifvqcg0","pricing_plan_id":"cebpf4jnsgd1na2vs0mg"},{"bike_id":"c60e9794-4041-4841-9877-c947d23d2d25","system_id":"levelo_inurba_marseille","lat":43.28358,"lon":5.38092,"is_reserved":false,"is_disabled":false,"rental_uris":{"android":"levelo://app?vid=c60e9794-4041-4841-9877-c947d23d2d25","ios":"levelo://app?vid=c60e9794-4041-4841-9877-c947d23d2d25"},"vehicle_type_id":"4","last_reported":1745597517,"current_range_meters":23200,"station_id":"ce4bh412rcd13ifvqdr0","pricing_plan_id":"cebpf4jnsgd1na2vs0mg"},{"bike_id":"a3381eee-e486-4bb3-9820-880c30db6661","system_id":"levelo_inurba_marseille","lat":43.33726,"lon":5.39175,"is_reserved":false,"is_disabled":false,"rental_uris":{"android":"levelo://app?vid=a3381eee-e486-4bb3-9820-880c30db6661","ios":"levelo://app?vid=a3381eee-e486-4bb3-9820-880c30db6661"},"vehicle_type_id":"4","last_reported":1745597517,"current_range_meters":24000,"station_id":"ce4bhr92rcd13ifvqhsg","pricing_plan_id":"cebpf4jnsgd1na2vs0mg"},{"bike_id":"0f6ec158-cd8b-4c3c-8ee9-6b9a4702205e","system_id":"levelo_inurba_marseille","lat":43.22516,"lon":5.34777,"is_reserved":false,"is_disabled":false,"rental_uris":{"android":"levelo://app?vid=0f6ec158-cd8b-4c3c-8ee9-6b9a4702205e","ios":"levelo://app?vid=0f6ec158-cd8b-4c3c-8ee9-6b9a4702205e"},