{"last_updated":1727104181,"ttl":30,"version":"2.2","data":{"bikes":[{"bike_id":"66c1e985-6c40-4bd3-82a6-4ca66cf5dbc2","system_id":"levelo_inurba_marseille","lat":43.30158,"lon":5.38092,"is_reserved":false,"is_disabled":false,"rental_uris":{"android":"levelo://app?vid=66c1e985-6c40-4bd3-82a6-4ca66cf5dbc2","ios":"levelo://app?vid=66c1e985-6c40-4bd3-82a6-4ca66cf5dbc2"},"vehicle_type_id":"4","last_reported":1727104181,"current_range_meters":6800,"station_id":"ce4bgjp2rcd13ifvqbh0","pricing_plan_id":"cebpf4jnsgd1na2vs0mg"},{"bike_id":"8ef36bea-7fc1-452a-96e4-4a0ce0295ffb","system_id":"levelo_inurba_marseille","lat":43.31755,"lon":5.3901,"is_reserved":false,"is_disabled":false,"rental_uris":{"android":"levelo://app?vid=8ef36bea-7fc1-452a-96e4-4a0ce0295ffb","ios":"levelo://app?vid=8ef36bea-7fc1-452a-96e4-4a0ce0295ffb"},"vehicle_type_id":"4","last_reported":1727104181,"current_range_meters":28400,"station_id":"ce4bhqp2rcd13ifvqhng","pricing_plan_id":"cebpf4jnsgd1na2vs0mg"},{"bike_id":"8844d7d6-ef53-4c18-a965-bd154889b49c","system_id":"levelo_inurba_marseille","lat":43.27323,"lon":5.39075,"is_reserved":false,"is_disabled":false,"rental_uris":{"android":"levelo://app?vid=8844d7d6-ef53-4c18-a965-bd154889b49c","ios":"levelo://app?vid=8844d7d6-ef53-4c18-a965-bd154889b49c"},"vehicle_type_id":"4","last_reported":1727104181,"current_range_meters":38000,"station_id":"ce4bhgp2rcd13ifvqfe0","pricing_plan_id":"cebpf4jnsgd1na2vs0mg"},{"bike_id":"91467015-7987-468a-87d0-b4bdc2578c59","system_id":"levelo_inurba_marseille","lat":43.326609,"lon":5.409939,"is_reserved":false,"is_disabled":false,"rental_uris":{"android":"levelo://app?vid=91467015-7987-468a-87d0-b4bdc2578c59","ios":"levelo://app?vid=91467015-7987-468a-87d0-b4bdc2578c59"},"vehicle_type_id":"4","last_reported":1727104181,"current_range_meters":39200,"station_id":"ce4bhpp2rcd13ifvqhgg","pricing_plan_id":"cebpf4jnsgd1na2vs0mg"},{"bike_id":"099dffb0-b2ea-49d9-a307-2a269b9c6e87","system_id":"levelo_inurba_marseille","lat":43.299031,"lon":5.381439,"is_reserved":false,"is_disabled":false,"rental_uris":{"android":"levelo://app?vid=099dffb0-b2ea-49d9-a307-2a269b9c6e87","ios":"levelo://app?vid=099dffb0-b2ea-49d9-a307-2a269b9c6e87"},"vehicle_type_id":"4","last_reported":1727104181,"current_range_meters":18800,"station_id":"ce4bgj12rcd13ifvqbc0","pricing_plan_id":"cebpf4jnsgd1na2vs0mg"},{"bike_id":"a5b836f7-5e5e-4902-857f-75218f726c33","system_id":"levelo_inurba_marseille","lat":43.298676,"lon":5.397221,"is_reserved":false,"is_disabled":false,"rental_uris":{"android":"levelo://app?vid=a5b836f7-5e5e-4902-857f-75218f726c33","ios":"levelo://app?vid=a5b836f7-5e5e-4902-857f-75218f726c33"},"vehicle_type_id":"4","last_reported":1727104181,"current_range_meters":37600,"station_id":"ce4bh0h2rcd13ifvqd50","pricing_plan_id":"cebpf4jnsgd1na2vs0mg"},{"bike_id":"fd00cc78-3320-4f3b-95f5-2ce02dd32081","system_id":"levelo_inurba_marseille","lat":43.31758,"lon":5.3901,"is_reserved":false,"is_disabled":false,"rental_uris":{"android":"levelo://app?vid=fd00cc78-3320-4f3b-95f5-2ce02dd32081","ios":"levelo://app?vid=fd00cc78-3320-4f3b-95f5-2ce02dd32081"},"vehicle_type_id":"4","last_reported":1727104181,"current_range_meters":38000,"station_id":"ce4bhqp2rcd13ifvqhng","pricing_plan_id":"cebpf4jnsgd1na2vs0mg"},{"bike_id":"afa49be1-7bbf-46ba-bffe-bcb3fa42053a","system_id":"levelo_inurba_marseille","lat":43.30599,"lon":5.37221,"is_reserved":false,"is_disabled":false,"rental_uris":{"android":"levelo://app?vid=afa49be1-7bbf-46ba-bffe-bcb3fa42053a","ios":"levelo://app?vid=afa49be1-7bbf-46ba-bffe-bcb3fa42053a"},"vehicle_type_id":"4","last_reported":1727104181,"current_range_meters":21600,"station_id":"ce4bgqh2rcd13ifvqc4g","pricing_plan_id":"cebpf4jnsgd1na2vs0mg"},{"bike_id":"44b05815-7a5c-4ed2-b709-3eb9fb9ad5bb","system_id":"levelo_inurba_marseille","lat":43.29871,"lon":5.3973,"is_reserved":false,"is_disabled":false,"rental_uris":{"android":"levelo://app?vid=44b05815-7a5c-4ed2-b709-3eb9fb9ad5bb","ios":"levelo://app?vid=44b05815-7a5c-4ed2-b709-3eb9fb9ad5bb"},"vehicle_type_id":"4","last_reported":1727104181,"current_range_meters":15200,"station_id":"ce4bh0h2rcd13ifvqd50","pricing_plan_id":"cebpf4jnsgd1na2vs0mg"},{"bike_id":"9e5645bd-cdff-4f75-8622-e0a8fc94999e","system_id":"levelo_inurba_marseille","lat":43.28587,"lon":5.39489,"is_reserved":false,"is_disabled":false,"rental_uris":{"android":"levelo://app?vid=9e5645bd-cdff-4f75-8622-e0a8fc94999e","ios":"levelo://app?vid=9e5645bd-cdff-4f75-8622-e0a8fc94999e"},"vehicle_type_id":"4","last_reported":1727104181,"current_range_meters":12000,"station_id":"ce4bh292rcd13ifvqdg0","pricing_plan_id":"cebpf4jnsgd1na2vs0mg"},{"bike_id":"a40515cd-70ef-4295-90e1-aaec47dbe487","system_id":"levelo_inurba_marseille","lat":43.28662,"lon":5.36352,"is_reserved":false,"is_disabled":false,"rental_uris":{"android":"levelo://app?vid=a40515cd-70ef-4295-90e1-aaec47dbe487","ios":"levelo://app?vid=a40515cd-70ef-4295-90e1-aaec47dbe487"},"vehicle_type_id":"4","last_reported":1727104181,"current_range_meters":14000,"station_id":"ce4bhah2rcd13ifvqej0","pricing_plan_id":"cebpf4jnsgd1na2vs0mg"},{"bike_id":"419a3f4b-7f15-4391-8257-2b2efb6ae8db","system_id":"levelo_inurba_marseille","lat":43.28259,"lon":5.35065,"is_reserved":false,"is_disabled":false,"rental_uris":{"android":"levelo://app?vid=419a3f4b-7f15-4391-8257-2b2efb6ae8db","ios":"levelo://app?vid=419a3f4b-7f15-4391-8257-2b2efb6ae8db"},"vehicle_type_id":"4","last_reported":1727104181,"current_range_meters":5600,"station_id":"ce4bhbp2rcd13ifvqerg","pricing_plan_id":"cebpf4jnsgd1na2vs0mg"},{"bike_id":"20a042f1-81aa-4cde-8548-4f002e395336","system_id":"levelo_inurba_marseille","lat":43.30198,"lon":5.39818,"is_reserved":false,"is_disabled":false,"rental_uris":{"android":"levelo://app?vid=20a042f1-81aa-4cde-8548-4f002e395336","ios":"levelo://app?vid=20a042f1-81aa-4cde-8548-4f002e395336"},"vehicle_type_id":"4","last_reported":1727104181,"current_range_meters":30400,"station_id":"ce4bgvp2rcd13ifvqct0","pricing_plan_id":"cebpf4jnsgd1na2vs0mg"},{"bike_id":"8caa57b5-327a-46e9-9e2b-d0d662b2674f","system_id":"levelo_inurba_marseille","lat":43.25723,"lon":5.41115,"is_reserved":false,"is_disabled":false,"rental_uris":{"android":"levelo://app?vid=8caa57b5-327a-46e9-9e2b-d0d662b2674f","ios":"levelo://app?vid=8caa57b5-327a-46e9-9e2b-d0d662b2674f"},"vehicle_type_id":"4","last_reported":1727104181,"current_range_meters":28800,"station_id":"ce4bhkp2rcd13ifvqgd0","pricing_plan_id":"cebpf4jnsgd1na2vs0mg"},{"bike_id":"9021727d-d889-4091-9b8b-0f27a4d3e6c8","system_id":"levelo_inurba_marseille","lat":43.26685,"lon":5.3827,"is_reserved":false,"is_disabled":false,"rental_uris":{"android":"levelo://app?vid=9021727d-d889-4091-9b8b-0f27a4d3e6c8","ios":"levelo://app?vid=9021727d-d889-4091-9b8b-0f27a4d3e6c8"},"vehicle_type_id":"4","last_reported":1727104181,"current_range_meters":30000,"station_id":"ce4bhg92rcd13ifvqf90","pricing_plan_id":"cebpf4jnsgd1na2vs0mg"},{"bike_id":"346de1e4-8d81-4f87-adde-29256788a40a","system_id":"levelo_inurba_marseille","lat":43.25502,"lon":5.3765,"is_reserved":false,"is_disabled":false,"rental_uris":{"android":"levelo://app?vid=346de1e4-8d81-4f87-adde-29256788a40a","ios":"levelo://app?vid=346de1e4-8d81-4f87-adde-29256788a40a"},"vehicle_type_id":"4","last_reported":1727104181,"current_range_meters":10800,"station_id":"ce4bhh12rcd13ifvqff0","pricing_plan_id":"cebpf4jnsgd1na2vs0mg"},{"bike_id":"f7adb0ea-e195-40b9-9d71-9b4f032c7ddb","system_id":"levelo_inurba_marseille","lat":43.23151,"lon":5.43707,"is_reserved":false,"is_disabled":false,"rental_uris":{"android":"levelo://app?vid=f7adb0ea-e195-40b9-9d71-9b4f032c7ddb","ios":"levelo://app?vid=f7adb0ea-e195-40b9-9d71-9b4f032c7ddb"},"vehicle_type_id":"4","last_reported":1727104181,"current_range_meters":38000,"station_id":"ce4bhmp2rcd13ifvqgog","pricing_plan_id":"cebpf4jnsgd1na2vs0mg"},{"bike_id":"206a5c6a-b19f-4676-97f7-f424800f4b67","system_id":"levelo_inurba_marseille","lat":43.27173,"lon":5.40992,"is_reserved":false,"is_disabled":false,"rental_uris":{"android":"levelo://app?vid=206a5c6a-b19f-4676-97f7-f424800f4b67","ios":"levelo://app?vid=206a5c6a-b19f-4676-97f7-f424800f4b67"},"vehicle_type_id":"4","last_reported":1727104181,"current_range_meters":17600,"station_id":"ce4bhl12rcd13ifvqgf0","pricing_plan_id":"cebpf4jnsgd1na2vs0mg"},{"bike_id":"80eca223-4a73-4a65-a903-bcf7afbbc7bd","system_id":"levelo_inurba_marseille","lat":43.23151,"lon":5.43709,"is_reserved":false,"is_disabled":false,"rental_uris":{"android":"levelo://app?vid=80eca223-4a73-4a65-a903-bcf7afbbc7bd","ios":"levelo://app?vid=80eca223-4a73-4a65-a903-bcf7afbbc7bd"},"vehicle_type_id":"4","last_reported":1727104181,"current_range_meters":38800,"station_id":"ce4bhmp2rcd13ifvqgog","pricing_plan_id":"cebpf4jnsgd1na2vs0mg"},{"bike_id":"17e09b40-bbb0-4f4c-8417-ac13c4a396b4","system_id":"levelo_inurba_marseille","lat":43.303287,"lon":5.368556,"is_reserved":false,"is_disabled":false,"rental_uris":{"android":"levelo://app?vid=17e09b40-bbb0-4f4c-8417-ac13c4a396b4","ios":"levelo://app?vid=17e09b40-bbb0-4f4c-8417-ac13c4a396b4"},"vehicle_type_id":"4","last_reported":1727104181,"current_range_meters":12800,"station_id":"ce4bgqh2rcd13ifvqc5g","pricing_plan_id":"cebpf4jnsgd1na2vs0mg"},{"bike_id":"f08b0c71-7fca-4b9f-bc88-965db4fdb2c8","system_id":"levelo_inurba_marseille","lat":43.255847,"lon":5.382481,"is_reserved":false,"is_disabled":false,"rental_uris":{"android":"levelo://app?vid=f08b0c71-7fca-4b9f-bc88-965db4fdb2c8","ios":"levelo://app?vid=f08b0c71-7fca-4b9f-bc88-965db4fdb2c8"},"vehicle_type_id":"4","last_reported":1727104181,"current_range_meters":11600,"station_id":"ce4bhih2rcd13ifvqfs0","pricing_plan_id":"cebpf4jnsgd1na2vs0mg"},{"bike_id":"4117225d-fbf7-489f-a9f9-a7903758f15d","system_id":"levelo_inurba_marseille","lat":43.337444,"lon":5.374475,"is_reserved":false,"is_disabled":false,"rental_uris":{"android":"levelo://app?vid=4117225d-fbf7-489f-a9f9-a7903758f15d","ios":"levelo://app?vid=4117225d-fbf7-489f-a9f9-a7903758f15d"},"vehicle_type_id":"4","last_reported":1727104181,"current_range_meters":25600,"station_id":"","pricing_plan_id":"cebpf4jnsgd1na2vs0mg"},{"bike_id":"96bba420-4282-4fe4-894f-bc1c72461062","system_id":"levelo_inurba_marseille","lat":43.31761,"lon":5.39012,"is_reserved":false,"is_disabled":false,"rental_uris":{"android":"levelo://app?vid=96bba420-4282-4fe4-894f-bc1c72461062","ios":"levelo://app?vid=96bba420-4282-4fe4-894f-bc1c72461062"},"vehicle_type_id":"4","last_reported":1727104181,"current_range_meters":38800,"station_id":"ce4bhqp2rcd13ifvqhng","pricing_plan_id":"cebpf4jnsgd1na2vs0mg"},{"bike_id":"fd2edee2-88df-458c-bc05-32da566c5ff2","system_id":"levelo_inurba_marseille","lat":43.28458,"lon":5.35889,"is_reserved":false,"is_disabled":false,"rental_uris":{"android":"levelo://app?vid=fd2edee2-88df-458c-bc05-32da566c5ff2","ios":"levelo://app?vid=fd2edee2-88df-458c-bc05-32da566c5ff2"},"vehicle_type_id":"4","last_reported":1727104181,"current_range_meters":35600,"station_id":"ce4bhah2rcd13ifvqei0","pricing_plan_id":"cebpf4jnsgd1na2vs0mg"},{"bike_id":"4790abdb-080e-457d-bd89-71c298f4f56f","system_id":"levelo_inurba_marseille","lat":43.25501,"lon":5.3765,"is_reserved":false,"is_disabled":false,"rental_uris":{"android":"levelo://app?vid=4790abdb-080e-457d-bd89-71c298f4f56f","ios":"levelo://app?vid=4790abdb-080e-457d-bd89-71c298f4f56f"},"vehicle_type_id":"4","last_reported":1727104181,"current_range_meters":15200,"station_id":"ce4bhh12rcd13ifvqff0","pricing_plan_id":"cebpf4jnsgd1na2vs0mg"},{"bike_id":"fb393e0c-478d-4b6e-9798-120a64d86fcc","system_id":"levelo_inurba_marseille","lat":43.24176,"lon":5.364,"is_reserved":false,"is_disabled":false,"rental_uris":{"android":"levelo://app?vid=fb393e0c-478d-4b6e-9798-120a64d86fcc","ios":"levelo://app?vid=fb393e0c-478d-4b6e-9798-120a64d86fcc"},"vehicle_type_id":"4","last_reported":1727104181,"current_range_meters":36400,"station_id":"cpo36qri1sfpv3e86is0","pricing_plan_id":"cebpf4jnsgd1na2vs0mg"},{"bike_id":"1c4295e2-3117-4a80-8b1a-f2135a1c9a14","system_id":"levelo_inurba_marseille","lat":43.304345,"lon":5.397269,"is_reserved":false,"is_disabled":false,"rental_uris":{"android":"levelo://app?vid=1c4295e2-3117-4a80-8b1a-f2135a1c9a14","ios":"levelo://app?vid=1c4295e2-3117-4a80-8b1a-f2135a1c9a14"},"vehicle_type_id":"4","last_reported":1727104181,"current_range_meters":24400,"station_id":"ce4bh092rcd13ifvqd20","pricing_plan_id":"cebpf4jnsgd1na2vs0mg"},{"bike_id":"2fc34bba-a2b4-4632-bf54-64bcff937e6e","system_id":"levelo_inurba_marseille","lat":43.32478,"lon":5.36556,"is_reserved":false,"is_disabled":false,"rental_uris":{"android":"levelo://app?vid=2fc34bba-a2b4-4632-bf54-64bcff937e6e","ios":"levelo://app?vid=2fc34bba-a2b4-4632-bf54-64bcff937e6e"},"vehicle_type_id":"4","last_reported":1727104181,"current_range_meters":39200,"station_id":"ce4bhs12rcd13ifvqhvg","pricing_plan_id":"cebpf4jnsgd1na2vs0mg"},{"bike_id":"a0edd235-9112-4738-ae17-f58c690ab2f4","system_id":"levelo_inurba_marseille","lat":43.32483,"lon":5.36553,"is_reserved":false,"is_disabled":false,"rental_uris":{"android":"levelo://app?vid=a0edd235-9112-4738-ae17-f58c690ab2f4","ios":"levelo://app?vid=a0edd235-9112-4738-ae17-f58c690ab2f4"},"vehicle_type_id":"4","last_reported":1727104181,"current_range_meters":40000,"station_id":"ce4bhs12rcd13ifvqhvg","pricing_plan_id":"cebpf4jnsgd1na2vs0mg"},{"bike_id":"f34821c3-57a6-4e95-b55c-67fe8f68e691","system_id":"levelo_inurba_marseille","lat":43.25721,"lon":5.41111,"is_reserved":false,"is_disabled":false,"rental_uris":{"android":"levelo://app?vid=f34821c3-57a6-4e95-b55c-67fe8f68e691","ios":"levelo://app?vid=f34821c3-57a6-4e95-b55c-67fe8f68e691"},"vehicle_type_id":"4","last_reported":1727104181,"current_range_meters":10000,"station_id":"ce4bhkp2rcd13ifvqgd0","pricing_plan_id":"cebpf4jnsgd1na2vs0mg"},{"bike_id":"62c68933-58f3-461a-b35e-7805ba38e9d0","system_id":"levelo_inurba_marseille","lat":43.2587,"lon":5.39896,"is_reserved":false,"is_disabled":false,"rental_uris":{"android":"levelo://app?vid=62c68933-58f3-461a-b35e-7805ba38e9d0","ios":"levelo://app?vid=62c68933-58f3-461a-b35e-7805ba38e9d0"},"vehicle_type_id":"4","last_reported":1727104181,"current_range_meters":11600,"station_id":"ce4bhl92rcd13ifvqghg","pricing_plan_id":"cebpf4jnsgd1na2vs0mg"},{"bike_id":"eb854808-7c92-46c5-957f-652344786cca","system_id":"levelo_inurba_marseille","lat":43.24186,"lon":5.39729,"is_reserved":false,"is_disabled":false,"rental_uris":{"android":"levelo://app?vid=eb854808-7c92-46c5-957f-652344786cca","ios":"levelo://app?vid=eb854808-7c92-46c5-957f-652344786cca"},"vehicle_type_id":"4","last_reported":1727104181,"current_range_meters":11200,"station_id":"ce4bhn12rcd13ifvqgpg","pricing_plan_id":"cebpf4jnsgd1na2vs0mg"},{"bike_id":"860c8e9d-4001-4aaa-b1f1-ab02b2cccfa4","system_id":"levelo_inurba_marseille","lat":43.32482,"lon":5.36569,"is_reserved":false,"is_disabled":false,"rental_uris":{"android":"levelo://app?vid=860c8e9d-4001-4aaa-b1f1-ab02b2cccfa4","ios":"levelo://app?vid=860c8e9d-4001-4aaa-b1f1-ab02b2cccfa4"},"vehicle_type_id":"4","last_reported":1727104181,"current_range_meters":24400,"station_id":"ce4bhs12rcd13ifvqhvg","pricing_plan_id":"cebpf4jnsgd1na2vs0mg"},{"bike_id":"84daa11a-5876-4f90-8c91-9e2c87df8f28","system_id":"levelo_inurba_marseille","lat":43.28154,"lon":5.42645,"is_reserved":false,"is_disabled":false,"rental_uris":{"android":"levelo://app?vid=84daa11a-5876-4f90-8c91-9e2c87df8f28","ios":"levelo://app?vid=84daa11a-5876-4f90-8c91-9e2c87df8f28"},"vehicle_type_id":"4","last_reported":1727104181,"current_range_meters":8400,"station_id":"ce4bhnh2rcd13ifvqgug","pricing_plan_id":"cebpf4jnsgd1na2vs0mg"},{"bike_id":"04e552ce-25b2-4fb0-9e44-f9a97a16d69d","system_id":"levelo_inurba_marseille","lat":43.3137,"lon":5.38498,"is_reserved":false,"is_disabled":false,"rental_uris":{"android":"levelo://app?vid=04e552ce-25b2-4fb0-9e44-f9a97a16d69d","ios":"levelo://app?vid=04e552ce-25b2-4fb0-9e44-f9a97a16d69d"},"vehicle_type_id":"4","last_reported":1727104181,"current_range_meters":11200,"station_id":"ce4bgt92rcd13ifvqcf0","pricing_plan_id":"cebpf4jnsgd1na2vs0mg"},{"bike_id":"3ebaaaec-15d2-494c-ab9e-13e8bcbe1874","system_id":"levelo_inurba_marseille","lat":43.29276,"lon":5.3686,"is_reserved":false,"is_disabled":false,"rental_uris":{"android":"levelo://app?vid=3ebaaaec-15d2-494c-ab9e-13e8bcbe1874","ios":"levelo://app?vid=3ebaaaec-15d2-494c-ab9e-13e8bcbe1874"},"vehicle_type_id":"4","last_reported":1727104181,"current_range_meters":30000,"station_id":"ce4bhbp2rcd13ifvqesg","pricing_plan_id":"cebpf4jnsgd1na2vs0mg"},{"bike_id":"624e3f94-9568-469c-ab6c-878c70b3a213","system_id":"levelo_inurba_marseille","lat":43.315,"lon":5.37306,"is_reserved":false,"is_disabled":false,"rental_uris":{"android":"levelo://app?vid=624e3f94-9568-469c-ab6c-878c70b3a213","ios":"levelo://app?vid=624e3f94-9568-469c-ab6c-878c70b3a213"},"vehicle_type_id":"4","last_reported":1727104181,"current_range_meters":28800,"station_id":"ce4bgt12rcd13ifvqcd0","pricing_plan_id":"cebpf4jnsgd1na2vs0mg"},{"bike_id":"5632390e-03af-4541-960f-fec03f55a325","system_id":"levelo_inurba_marseille","lat":43.2707,"lon":5.4228,"is_reserved":false,"is_disabled":false,"rental_uris":{"android":"levelo://app?vid=5632390e-03af-4541-960f-fec03f55a325","ios":"levelo://app?vid=5632390e-03af-4541-960f-fec03f55a325"},"vehicle_type_id":"4","last_reported":1727104181,"current_range_meters":11600,"station_id":"ce4bhk92rcd13ifvqgb0","pricing_plan_id":"cebpf4jnsgd1na2vs0mg"},{"bike_id":"2b26ac36-e341-4854-a9d6-915450d3500a","system_id":"levelo_inurba_marseille","lat":43.2707,"lon":5.42275,"is_reserved":false,"is_disabled":false,"rental_uris":{"android":"levelo://app?vid=2b26ac36-e341-4854-a9d6-915450d3500a","ios":"levelo://app?vid=2b26ac36-e341-4854-a9d6-915450d3500a"},"vehicle_type_id":"4","last_reported":1727104181,"current_range_meters":37600,"station_id":"ce4bhk92rcd13ifvqgb0","pricing_plan_id":"cebpf4jnsgd1na2vs0mg"},{"bike_id":"276aa096-2b51-40c0-926e-66d0d5399356","system_id":"levelo_inurba_marseille","lat":43.27374,"lon":5.36257,"is_reserved":false,"is_disabled":false,"rental_uris":{"android":"levelo://app?vid=276aa096-2b51-40c0-926e-66d0d5399356","ios":"levelo://app?vid=276aa096-2b51-40c0-926e-66d0d5399356"},"vehicle_type_id":"4","last_reported":1727104181,"current_range_meters":35200,"station_id":"ce4bhbh2rcd13ifvqeo0","pricing_plan_id":"cebpf4jnsgd1na2vs0mg"},{"bike_id":"fa090c64-0734-4975-ab45-e8b8480d2407","system_id":"levelo_inurba_marseille","lat":43.28348,"lon":5.38101,"is_reserved":false,"is_disabled":false,"rental_uris":{"android":"levelo://app?vid=fa090c64-0734-4975-ab45-e8b8480d2407","ios":"levelo://app?vid=fa090c64-0734-4975-ab45-e8b8480d2407"},"vehicle_type_id":"4","last_reported":1727104181,"current_range_meters":27600,"station_id":"ce4bh412rcd13ifvqdr0","pricing_plan_id":"cebpf4jnsgd1na2vs0mg"},{"bike_id":"f82bbb91-ffce-4d21-bad2-951547b19c5f","system_id":"levelo_inurba_marseille","lat":43.30532,"lon":5.38416,"is_reserved":false,"is_disabled":false,"rental_uris":{"android":"levelo://app?vid=f82bbb91-ffce-4d21-bad2-951547b19c5f","ios":"levelo://app?vid=f82bbb91-ffce-4d21-bad2-951547b19c5f"},"vehicle_type_id":"4","last_reported":1727104181,"current_range_meters":25200,"station_id":"ce4bgg92rcd13ifvqb30","pricing_plan_id":"cebpf4jnsgd1na2vs0mg"},{"bike_id":"0ba2cc93-d70c-4d15-b4be-a0351ddeb414","system_id":"levelo_inurba_marseille","lat":43.27071,"lon":5.42273,"is_reserved":false,"is_disabled":false,"rental_uris":{"android":"levelo://app?vid=0ba2cc93-d70c-4d15-b4be-a0351ddeb414","ios":"levelo://app?vid=0ba2cc93-d70c-4d15-b4be-a0351ddeb414"},"vehicle_type_id":"4","last_reported":1727104181,"current_range_meters":4800,"station_id":"ce4bhk92rcd13ifvqgb0","pricing_plan_id":"cebpf4jnsgd1na2vs0mg"},{"bike_id":"e9478b72-5b9a-4a28-ada0-7c5354444737","system_id":"levelo_inurba_marseille","lat":43.30431,"lon":5.39747,"is_reserved":false,"is_disabled":false,"rental_uris":{"android":"levelo://app?vid=e9478b72-5b9a-4a28-ada0-7c5354444737","ios":"levelo://app?vid=e9478b72-5b9a-4a28-ada0-7c5354444737"},"vehicle_type_id":"4","last_reported":1727104181,"current_range_meters":9600,"station_id":"ce4bh092rcd13ifvqd20","pricing_plan_id":"cebpf4jnsgd1na2vs0mg"},{"bike_id":"36c416da-9158-44af-aa3a-06b103bea7bf","system_id":"levelo_inurba_marseille","lat":43.337444,"lon":5.374475,"is_reserved":false,"is_disabled":false,"rental_uris":{"android":"levelo://app?vid=36c416da-9158-44af-aa3a-06b103bea7bf","ios":"levelo://app?vid=36c416da-9158-44af-aa3a-06b103bea7bf"},"vehicle_type_id":"4","last_reported":1727104181,"current_range_meters":23200,"station_id":"","pricing_plan_id":"cebpf4jnsgd1na2vs0mg"},{"bike_id":"dd524c5a-f4c2-43e1-a10a-1028cca6bbcb","system_id":"levelo_inurba_marseille","lat":43.25867,"lon":5.39894,"is_reserved":false,"is_disabled":false,"rental_uris":{"android":"levelo://app?vid=dd524c5a-f4c2-43e1-a10a-1028cca6bbcb","ios":"levelo://app?vid=dd524c5a-f4c2-43e1-a10a-1028cca6bbcb"},"vehicle_type_id":"4","last_reported":1727104181,"current_range_meters":26800,"station_id":"ce4bhl92rcd13ifvqghg","pricing_plan_id":"cebpf4jnsgd1na2vs0mg"},{"bike_id":"14bcbdfd-0044-4414-82b7-c589790b3645","system_id":"levelo_inurba_marseille","lat":43.29553,"lon":5.42277,"is_reserved":false,"is_disabled":false,"rental_uris":{"android":"levelo://app?vid=14bcbdfd-0044-4414-82b7-c589790b3645","ios":"levelo://app?vid=14bcbdfd-0044-4414-82b7-c589790b3645"},"vehicle_type_id":"4","last_reported":1727104181,"current_range_meters":37600,"station_id":"ce4bhph2rcd13ifvqhdg","pricing_plan_id":"cebpf4jnsgd1na2vs0mg"},{"bike_id":"f49ced8c-bc80-4aa1-b7c0-85fa29e13289","system_id":"levelo_inurba_marseille","lat":43.30785,"lon":5.37658,"is_reserved":false,"is_disabled":false,"rental_uris":{"android":"levelo://app?vid=f49ced8c-bc80-4aa1-b7c0-85fa29e13289","ios":"levelo://app?vid=f49ced8c-bc80-4aa1-b7c0-85fa29e13289"},"vehicle_type_id":"4","last_reported":1727104181,"current_range_meters":27200,"station_id":"ce4bgv92rcd13ifvqcq0","pricing_plan_id":"cebpf4jnsgd1na2vs0mg"},{"bike_id":"885f7651-590d-469f-b8df-99ab199f51dd","system_id":"levelo_inurba_marseille","lat":43.29237,"lon":5.3645,"is_reserved":false,"is_disabled":false,"rental_uris":{"android":"levelo://app?vid=885f7651-590d-469f-b8df-99ab199f51dd","ios":"levelo://app?vid=885f7651-590d-469f-b8df-99ab199f51dd"},"vehicle_type_id":"4","last_reported":1727104181,"current_range_meters":16800,"station_id":"ce4bhah2rcd13ifvqej0","pricing_plan_id":"cebpf4jnsgd1na2vs0mg"},{"bike_id":"5abf3738-3056-45d0-ad36-b5f63eb6c7bd","system_id":"levelo_inurba_marseille","lat":43.31713,"lon":5.43699,"is_reserved":false,"is_disabled":false,"rental_uris":{"android":"levelo://app?vid=5abf3738-3056-45d0-ad36-b5f63eb6c7bd","ios":"levelo://app?vid=5abf3738-3056-45d0-ad36-b5f63eb6c7bd"},"vehicle_type_id":"4","last_reported":1727104181,"current_range_meters":20400,"station_id":"ce4bhp92rcd13ifvqhcg","pricing_plan_id":"cebpf4jnsgd1na2vs0mg"},{"bike_id":"bcfab92a-dc6c-4038-8477-18be1eec815d","system_id":"levelo_inurba_marseille","lat":43.28158,"lon":5.42648,"is_reserved":false,"is_disabled":false,"rental_uris":{"android":"levelo://app?vid=bcfab92a-dc6c-4038-8477-18be1eec815d","ios":"levelo://app?vid=bcfab92a-dc6c-4038-8477-18be1eec815d"},"vehicle_type_id":"4","last_reported":1727104181,"current_range_meters":6400,"station_id":"ce4bhnh2rcd13ifvqgug","pricing_plan_id":"cebpf4jnsgd1na2vs0mg"},{"bike_id":"9535c4c1-db43-4da9-bd59-0e6bec13b4df","system_id":"levelo_inurba_marseille","lat":43.23151,"lon":5.43707,"is_reserved":false,"is_disabled":false,"rental_uris":{"android":"levelo://app?vid=9535c4c1-db43-4da9-bd59-0e6bec13b4df","ios":"levelo://app?vid=9535c4c1-db43-4da9-bd59-0e6bec13b4df"},"vehicle_type_id":"4","last_reported":1727104181,"current_range_meters":37600,"station_id":"ce4bhmp2rcd13ifvqgog","pricing_plan_id":"cebpf4jnsgd1na2vs0mg"},{"bike_id":"3fc1c1d4-eb16-464d-8000-73a852fc314f","system_id":"levelo_inurba_marseille","lat":43.29259,"lon":5.40902,"is_reserved":false,"is_disabled":false,"rental_uris":{"android":"levelo://app?vid=3fc1c1d4-eb16-464d-8000-73a852fc314f","ios":"levelo://app?vid=3fc1c1d4-eb16-464d-8000-73a852fc314f"},"vehicle_type_id":"4","last_reported":1727104181,"current_range_meters":34000,"station_id":"ce4bh192rcd13ifvqdc0","pricing_plan_id":"cebpf4jnsgd1na2vs0mg"},{"bike_id":"38edc0b6-4d37-4b76-a7f6-5cdb62268cb8","system_id":"levelo_inurba_marseille","lat":43.2916,"lon":5.3999,"is_reserved":false,"is_disabled":false,"rental_uris":{"android":"levelo://app?vid=38edc0b6-4d37-4b76-a7f6-5cdb62268cb8","ios":"levelo://app?vid=38edc0b6-4d37-4b76-a7f6-5cdb62268cb8"},"vehicle_type_id":"4","last_reported":1727104181,"current_range_meters":18000,"station_id":"","pricing_plan_id":"cebpf4jnsgd1na2vs0mg"},{"bike_id":"fb395218-860a-499f-9680-d29c3e883621","system_id":"levelo_inurba_marseille","lat":43.26063,"lon":5.39396,"is_reserved":false,"is_disabled":false,"rental_uris":{"android":"levelo://app?vid=fb395218-860a-499f-9680-d29c3e883621","ios":"levelo://app?vid=fb395218-860a-499f-9680-d29c3e883621"},"vehicle_type_id":"4","last_reported":1727104181,"current_range_meters":8800,"station_id":"ce4bhh92rcd13ifvqfj0","pricing_plan_id":"cebpf4jnsgd1na2vs0mg"},{"bike_id":"8261812b-44ce-44d0-8542-1f5eb0d4e986","system_id":"levelo_inurba_marseille","lat":43.23966,"lon":5.36638,"is_reserved":false,"is_disabled":false,"rental_uris":{"android":"levelo://app?vid=8261812b-44ce-44d0-8542-1f5eb0d4e986","ios":"levelo://app?vid=8261812b-44ce-44d0-8542-1f5eb0d4e986"},"vehicle_type_id":"4","last_reported":1727104181,"current_range_meters":20400,"station_id":"ce4bhi12rcd13ifvqfp0","pricing_plan_id":"cebpf4jnsgd1na2vs0mg"},{"bike_id":"149779fc-bc45-458a-857f-33707eedaf6a","system_id":"levelo_inurba_marseille","lat":43.23196,"lon":5.3555,"is_reserved":false,"is_disabled":false,"rental_uris":{"android":"levelo://app?vid=149779fc-bc45-458a-857f-33707eedaf6a","ios":"levelo://app?vid=149779fc-bc45-458a-857f-33707eedaf6a"},"vehicle_type_id":"4","last_reported":1727104181,"current_range_meters":8800,"station_id":"ce4bhu92rcd13ifvqi70","pricing_plan_id":"cebpf4jnsgd1na2vs0mg"},{"bike_id":"152a840b-6c54-4e65-9a93-7c31b019e940","system_id":"levelo_inurba_marseille","lat":43.305123,"lon":5.401645,"is_reserved":false,"is_disabled":false,"rental_uris":{"android":"levelo://app?vid=152a840b-6c54-4e65-9a93-7c31b019e940","ios":"levelo://app?vid=152a840b-6c54-4e65-9a93-7c31b019e940"},"vehicle_type_id":"4","last_reported":1727104181,"current_range_meters":36000,"station_id":"ce4bh0h2rcd13ifvqd50","pricing_plan_id":"cebpf4jnsgd1na2vs0mg"},{"bike_id":"97b7a43b-cedc-4ed1-903e-6243f72dea61","system_id":"levelo_inurba_marseille","lat":43.28462,"lon":5.35877,"is_reserved":false,"is_disabled":false,"rental_uris":{"android":"levelo://app?vid=97b7a43b-cedc-4ed1-903e-6243f72dea61","ios":"levelo://app?vid=97b7a43b-cedc-4ed1-903e-6243f72dea61"},"vehicle_type_id":"4","last_reported":1727104181,"current_range_meters":13600,"station_id":"ce4bhah2rcd13ifvqei0","pricing_plan_id":"cebpf4jnsgd1na2vs0mg"},{"bike_id":"42605be8-369e-4a1c-8998-3722eda13610","system_id":"levelo_inurba_marseille","lat":43.2807,"lon":5.39654,"is_reserved":false,"is_disabled":false,"rental_uris":{"android":"levelo://app?vid=42605be8-369e-4a1c-8998-3722eda13610","ios":"levelo://app?vid=42605be8-369e-4a1c-8998-3722eda13610"},"vehicle_type_id":"4","last_reported":1727104181,"current_range_meters":8800,"station_id":"ce4bho12rcd13ifvqh2g","pricing_plan_id":"cebpf4jnsgd1na2vs0mg"},{"bike_id":"64b1e4ad-89e5-4801-b483-f448d1e9fa76","system_id":"levelo_inurba_marseille","lat":43.3149,"lon":5.3731,"is_reserved":false,"is_disabled":false,"rental_uris":{"android":"levelo://app?vid=64b1e4ad-89e5-4801-b483-f448d1e9fa76","ios":"levelo://app?vid=64b1e4ad-89e5-4801-b483-f448d1e9fa76"},"vehicle_type_id":"4","last_reported":1727104181,"current_range_meters":12400,"station_id":"ce4bgt12rcd13ifvqcd0","pricing_plan_id":"cebpf4jnsgd1na2vs0mg"},{"bike_id":"8e1ff20a-a456-4b30-b4b3-dc315666f641","system_id":"levelo_inurba_marseille","lat":43.294006,"lon":5.386564,"is_reserved":false,"is_disabled":false,"rental_uris":{"android":"levelo://app?vid=8e1ff20a-a456-4b30-b4b3-dc315666f641","ios":"levelo://app?vid=8e1ff20a-a456-4b30-b4b3-dc315666f641"},"vehicle_type_id":"4","last_reported":1727104181,"current_range_meters":25200,"station_id":"ce4bh2h2rcd13ifvqdh0","pricing_plan_id":"cebpf4jnsgd1na2vs0mg"},{"bike_id":"94e2c874-02a1-468f-aea7-f59ff2b39dce","system_id":"levelo_inurba_marseille","lat":43.29572,"lon":5.39981,"is_reserved":false,"is_disabled":false,"rental_uris":{"android":"levelo://app?vid=94e2c874-02a1-468f-aea7-f59ff2b39dce","ios":"levelo://app?vid=94e2c874-02a1-468f-aea7-f59ff2b39dce"},"vehicle_type_id":"4","last_reported":1727104181,"current_range_meters":25200,"station_id":"ce4bh312rcd13ifvqdj0","pricing_plan_id":"cebpf4jnsgd1na2vs0mg"},{"bike_id":"b51429ed-0ab6-4928-998f-593ac11e1fa0","system_id":"levelo_inurba_marseille","lat":43.240845,"lon":5.377511,"is_reserved":false,"is_disabled":false,"rental_uris":{"android":"levelo://app?vid=b51429ed-0ab6-4928-998f-593ac11e1fa0","ios":"levelo://app?vid=b51429ed-0ab6-4928-998f-593ac11e1fa0"},"vehicle_type_id":"4","last_reported":1727104181,"current_range_meters":35600,"station_id":"ce4bhnp2rcd13ifvqgvg","pricing_plan_id":"cebpf4jnsgd1na2vs0mg"},{"bike_id":"aaaf008b-a177-45bc-b9cd-c09c6b67193f","system_id":"levelo_inurba_marseille","lat":43.26062,"lon":5.39396,"is_reserved":false,"is_disabled":false,"rental_uris":{"android":"levelo://app?vid=aaaf008b-a177-45bc-b9cd-c09c6b67193f","ios":"levelo://app?vid=aaaf008b-a177-45bc-b9cd-c09c6b67193f"},"vehicle_type_id":"4","last_reported":1727104181,"current_range_meters":25600,"station_id":"ce4bhh92rcd13ifvqfj0","pricing_plan_id":"cebpf4jnsgd1na2vs0mg"},{"bike_id":"edacaea2-2c6d-4687-9047-d763322a30c6","system_id":"levelo_inurba_marseille","lat":43.26556,"lon":5.3728,"is_reserved":false,"is_disabled":false,"rental_uris":{"android":"levelo://app?vid=edacaea2-2c6d-4687-9047-d763322a30c6","ios":"levelo://app?vid=edacaea2-2c6d-4687-9047-d763322a30c6"},"vehicle_type_id":"4","last_reported":1727104181,"current_range_meters":19600,"station_id":"ce4bhg12rcd13ifvqf70","pricing_plan_id":"cebpf4jnsgd1na2vs0mg"},{"bike_id":"a1130285-14c1-471d-a411-fb2eed577eff","system_id":"levelo_inurba_marseille","lat":43.23145,"lon":5.43699,"is_reserved":false,"is_disabled":false,"rental_uris":{"android":"levelo://app?vid=a1130285-14c1-471d-a411-fb2eed577eff","ios":"levelo://app?vid=a1130285-14c1-471d-a411-fb2eed577eff"},"vehicle_type_id":"4","last_reported":1727104181,"current_range_meters":28000,"station_id":"ce4bhmp2rcd13ifvqgog","pricing_plan_id":"cebpf4jnsgd1na2vs0mg"},{"bike_id":"320cc2ab-e32a-4a17-aa9c-41e07b7e6b23","system_id":"levelo_inurba_marseille","lat":43.28426,"lon":5.34985,"is_reserved":false,"is_disabled":false,"rental_uris":{"android":"levelo://app?vid=320cc2ab-e32a-4a17-aa9c-41e07b7e6b23","ios":"levelo://app?vid=320cc2ab-e32a-4a17-aa9c-41e07b7e6b23"},"vehicle_type_id":"4","last_reported":1727104181,"current_range_meters":21600,"station_id":"ce4bhbh2rcd13ifvqepg","pricing_plan_id":"cebpf4jnsgd1na2vs0mg"},{"bike_id":"580aeed1-6fd3-4455-b9e6-792e55b32ea1","system_id":"levelo_inurba_marseille","lat":43.28442,"lon":5.39196,"is_reserved":false,"is_disabled":false,"rental_uris":{"android":"levelo://app?vid=580aeed1-6fd3-4455-b9e6-792e55b32ea1","ios":"levelo://app?vid=580aeed1-6fd3-4455-b9e6-792e55b32ea1"},"vehicle_type_id":"4","last_reported":1727104181,"current_range_meters":18800,"station_id":"ce4bhoh2rcd13ifvqh5g","pricing_plan_id":"cebpf4jnsgd1na2vs0mg"},{"bike_id":"74aa6fcd-a58a-47cf-8750-937c3663d543","system_id":"levelo_inurba_marseille","lat":43.29691,"lon":5.37311,"is_reserved":false,"is_disabled":false,"rental_uris":{"android":"levelo://app?vid=74aa6fcd-a58a-47cf-8750-937c3663d543","ios":"levelo://app?vid=74aa6fcd-a58a-47cf-8750-937c3663d543"},"vehicle_type_id":"4","last_reported":1727104181,"current_range_meters":22400,"station_id":"ce4bgk12rcd13ifvqbj0","pricing_plan_id":"cebpf4jnsgd1na2vs0mg"},{"bike_id":"fc33a208-87b7-44c3-be04-b8ba5f50ce93","system_id":"levelo_inurba_marseille","lat":43.29533,"lon":5.38547,"is_reserved":false,"is_disabled":false,"rental_uris":{"android":"levelo://app?vid=fc33a208-87b7-44c3-be04-b8ba5f50ce93","ios":"levelo://app?vid=fc33a208-87b7-44c3-be04-b8ba5f50ce93"},"vehicle_type_id":"4","last_reported":1727104181,"current_range_meters":33600,"station_id":"ce4bgih2rcd13ifvqba0","pricing_plan_id":"cebpf4jnsgd1na2vs0mg"},{"bike_id":"c0bf08f8-39b8-43bf-8302-ac2a4dd5ad58","system_id":"levelo_inurba_marseille","lat":43.29553,"lon":5.42281,"is_reserved":false,"is_disabled":false,"rental_uris":{"android":"levelo://app?vid=c0bf08f8-39b8-43bf-8302-ac2a4dd5ad58","ios":"levelo://app?vid=c0bf08f8-39b8-43bf-8302-ac2a4dd5ad58"},"vehicle_type_id":"4","last_reported":1727104181,"current_range_meters":27200,"station_id":"ce4bhph2rcd13ifvqhdg","pricing_plan_id":"cebpf4jnsgd1na2vs0mg"},{"bike_id":"88e4c0fa-72f1-440f-996a-774d6383e494","system_id":"levelo_inurba_marseille","lat":43.29844,"lon":5.36272,"is_reserved":false,"is_disabled":false,"rental_uris":{"android":"levelo://app?vid=88e4c0fa-72f1-440f-996a-774d6383e494","ios":"levelo://app?vid=88e4c0fa-72f1-440f-996a-774d6383e494"},"vehicle_type_id":"4","last_reported":1727104181,"current_range_meters":38800,"station_id":"ce4bgpp2rcd13ifvqc3g","pricing_plan_id":"cebpf4jnsgd1na2vs0mg"},{"bike_id":"44b50cd5-9fec-40b7-88e0-c89ccba3762c","system_id":"levelo_inurba_marseille","lat":43.2315,"lon":5.43707,"is_reserved":false,"is_disabled":false,"rental_uris":{"android":"levelo://app?vid=44b50cd5-9fec-40b7-88e0-c89ccba3762c","ios":"levelo://app?vid=44b50cd5-9fec-40b7-88e0-c89ccba3762c"},"vehicle_type_id":"4","last_reported":1727104181,"current_range_meters":38800,"station_id":"ce4bhmp2rcd13ifvqgog","pricing_plan_id":"cebpf4jnsgd1na2vs0mg"},{"bike_id":"9e3d11ee-12e3-424c-9d82-e73ba29122f8","system_id":"levelo_inurba_marseille","lat":43.33728,"lon":5.39165,"is_reserved":false,"is_disabled":false,"rental_uris":{"android":"levelo://app?vid=9e3d11ee-12e3-424c-9d82-e73ba29122f8","ios":"levelo://app?vid=9e3d11ee-12e3-424c-9d82-e73ba29122f8"},"vehicle_type_id":"4","last_reported":1727104181,"current_range_meters":20800,"station_id":"ce4bhr92rcd13ifvqhsg","pricing_plan_id":"cebpf4jnsgd1na2vs0mg"},{"bike_id":"7ef0fddf-c363-449b-a26a-b4dba570e586","system_id":"levelo_inurba_marseille","lat":43.25114,"lon":5.40315,"is_reserved":false,"is_disabled":false,"rental_uris":{"android":"levelo://app?vid=7ef0fddf-c363-449b-a26a-b4dba570e586","ios":"levelo://app?vid=7ef0fddf-c363-449b-a26a-b4dba570e586"},"vehicle_type_id":"4","last_reported":1727104181,"current_range_meters":9200,"station_id":"ce4bhlh2rcd13ifvqgig","pricing_plan_id":"cebpf4jnsgd1na2vs0mg"},{"bike_id":"9d1e4a78-5d2a-463f-a26f-6f1d43371c33","system_id":"levelo_inurba_marseille","lat":43.31332,"lon":5.39683,"is_reserved":false,"is_disabled":false,"rental_uris":{"android":"levelo://app?vid=9d1e4a78-5d2a-463f-a26f-6f1d43371c33","ios":"levelo://app?vid=9d1e4a78-5d2a-463f-a26f-6f1d43371c33"},"vehicle_type_id":"4","last_reported":1727104181,"current_range_meters":39200,"station_id":"ce4bgvp2rcd13ifvqcu0","pricing_plan_id":"cebpf4jnsgd1na2vs0mg"},{"bike_id":"e1d5a9ec-e77a-4a65-9872-eddfdf81794d","system_id":"levelo_inurba_marseille","lat":43.23196,"lon":5.3555,"is_reserved":false,"is_disabled":false,"rental_uris":{"android":"levelo://app?vid=e1d5a9ec-e77a-4a65-9872-eddfdf81794d","ios":"levelo://app?vid=e1d5a9ec-e77a-4a65-9872-eddfdf81794d"},"vehicle_type_id":"4","last_reported":1727104181,"current_range_meters":18000,"station_id":"ce4bhu92rcd13ifvqi70","pricing_plan_id":"cebpf4jnsgd1na2vs0mg"},{"bike_id":"3c62f824-7506-4c44-a7ff-d78b1c251a88","system_id":"levelo_inurba_marseille","lat":43.23191,"lon":5.35545,"is_reserved":false,"is_disabled":false,"rental_uris":{"android":"levelo://app?vid=3c62f824-7506-4c44-a7ff-d78b1c251a88","ios":"levelo://app?vid=3c62f824-7506-4c44-a7ff-d78b1c251a88"},"vehicle_type_id":"4","last_reported":1727104181,"current_range_meters":26800,"station_id":"ce4bhu92rcd13ifvqi70","pricing_plan_id":"cebpf4jnsgd1na2vs0mg"},{"bike_id":"6cbc2fdc-96a1-4bca-b822-56394ecb85a1","system_id":"levelo_inurba_marseille","lat":43.29557,"lon":5.42283,"is_reserved":false,"is_disabled":false,"rental_uris":{"android":"levelo://app?vid=6cbc2fdc-96a1-4bca-b822-56394ecb85a1","ios":"levelo://app?vid=6cbc2fdc-96a1-4bca-b822-56394ecb85a1"},"vehicle_type_id":"4","last_reported":1727104181,"current_range_meters":37600,"station_id":"ce4bhph2rcd13ifvqhdg","pricing_plan_id":"cebpf4jnsgd1na2vs0mg"},{"bike_id":"35909c8d-5481-401b-bf28-ace7ac383edb","system_id":"levelo_inurba_marseille","lat":43.23069,"lon":5.35493,"is_reserved":false,"is_disabled":false,"rental_uris":{"android":"levelo://app?vid=35909c8d-5481-401b-bf28-ace7ac383edb","ios":"levelo://app?vid=35909c8d-5481-401b-bf28-ace7ac383edb"},"vehicle_type_id":"4","last_reported":1727104181,"current_range_meters":9600,"station_id":"cpo3342slgdg3j2ifvpg","pricing_plan_id":"cebpf4jnsgd1na2vs0mg"},{"bike_id":"1cd34231-e1e8-434c-abad-c03953d418ff","system_id":"levelo_inurba_marseille","lat":43.29561,"lon":5.42284,"is_reserved":false,"is_disabled":false,"rental_uris":{"android":"levelo://app?vid=1cd34231-e1e8-434c-abad-c03953d418ff","ios":"levelo://app?vid=1cd34231-e1e8-434c-abad-c03953d418ff"},"vehicle_type_id":"4","last_reported":1727104181,"current_range_meters":29600,"station_id":"ce4bhph2rcd13ifvqhdg","pricing_plan_id":"cebpf4jnsgd1na2vs0mg"},{"bike_id":"07d8f534-fad7-4cc7-b215-5b333899476f","system_id":"levelo_inurba_marseille","lat":43.24181,"lon":5.397319,"is_reserved":false,"is_disabled":false,"rental_uris":{"android":"levelo://app?vid=07d8f534-fad7-4cc7-b215-5b333899476f","ios":"levelo://app?vid=07d8f534-fad7-4cc7-b215-5b333899476f"},"vehicle_type_id":"4","last_reported":1727104181,"current_range_meters":24400,"station_id":"ce4bhn12rcd13ifvqgpg","pricing_plan_id":"cebpf4jnsgd1na2vs0mg"},{"bike_id":"2955fe10-a677-4bd6-a112-1e72e543e991","system_id":"levelo_inurba_marseille","lat":43.2587,"lon":5.39892,"is_reserved":false,"is_disabled":false,"rental_uris":{"android":"levelo://app?vid=2955fe10-a677-4bd6-a112-1e72e543e991","ios":"levelo://app?vid=2955fe10-a677-4bd6-a112-1e72e543e991"},"vehicle_type_id":"4","last_reported":1727104181,"current_range_meters":4400,"station_id":"ce4bhl92rcd13ifvqghg","pricing_plan_id":"cebpf4jnsgd1na2vs0mg"},{"bike_id":"3b2b32b1-081b-464a-b5e2-ce0b7792839b","system_id":"levelo_inurba_marseille","lat":43.2682,"lon":5.38027,"is_reserved":false,"is_disabled":false,"rental_uris":{"android":"levelo://app?vid=3b2b32b1-081b-464a-b5e2-ce0b7792839b","ios":"levelo://app?vid=3b2b32b1-081b-464a-b5e2-ce0b7792839b"},"vehicle_type_id":"4","last_reported":1727104181,"current_range_meters":11600,"station_id":"","pricing_plan_id":"cebpf4jnsgd1na2vs0mg"},{"bike_id":"fea683b7-0b42-4db3-b2c4-48550e41f392","system_id":"levelo_inurba_marseille","lat":43.31486,"lon":5.37298,"is_reserved":false,"is_disabled":false,"rental_uris":{"android":"levelo://app?vid=fea683b7-0b42-4db3-b2c4-48550e41f392","ios":"levelo://app?vid=fea683b7-0b42-4db3-b2c4-48550e41f392"},"vehicle_type_id":"4","last_reported":1727104181,"current_range_meters":38800,"station_id":"ce4bgt12rcd13ifvqcd0","pricing_plan_id":"cebpf4jnsgd1na2vs0mg"},{"bike_id":"715c4804-6a86-4398-98ec-b57358573177","system_id":"levelo_inurba_marseille","lat":43.22929,"lon":5.35374,"is_reserved":false,"is_disabled":false,"rental_uris":{"android":"levelo://app?vid=715c4804-6a86-4398-98ec-b57358573177","ios":"levelo://app?vid=715c4804-6a86-4398-98ec-b57358573177"},"vehicle_type_id":"4","last_reported":1727104181,"current_range_meters":34800,"station_id":"cpo3532slgdg3j2ikp40","pricing_plan_id":"cebpf4jnsgd1na2vs0mg"},{"bike_id":"c2e0a82a-d759-495f-8efb-0e986c5a7e53","system_id":"levelo_inurba_marseille","lat":43.31761,"lon":5.39007,"is_reserved":false,"is_disabled":false,"rental_uris":{"android":"levelo://app?vid=c2e0a82a-d759-495f-8efb-0e986c5a7e53","ios":"levelo://app?vid=c2e0a82a-d759-495f-8efb-0e986c5a7e53"},"vehicle_type_id":"4","last_reported":1727104181,"current_range_meters":39200,"station_id":"ce4bhqp2rcd13ifvqhng","pricing_plan_id":"cebpf4jnsgd1na2vs0mg"},{"bike_id":"ae3bfa8a-7841-445d-931f-23a11d4b4b80","system_id":"levelo_inurba_marseille","lat":43.29848,"lon":5.36293,"is_reserved":false,"is_disabled":false,"rental_uris":{"android":"levelo://app?vid=ae3bfa8a-7841-445d-931f-23a11d4b4b80","ios":"levelo://app?vid=ae3bfa8a-7841-445d-931f-23a11d4b4b80"},"vehicle_type_id":"4","last_reported":1727104181,"current_range_meters":38000,"station_id":"ce4bgpp2rcd13ifvqc3g","pricing_plan_id":"cebpf4jnsgd1na2vs0mg"},{"bike_id":"ba2542eb-4a30-47aa-b57a-68ac954d789a","system_id":"levelo_inurba_marseille","lat":43.23192,"lon":5.35552,"is_reserved":false,"is_disabled":false,"rental_uris":{"android":"levelo://app?vid=ba2542eb-4a30-47aa-b57a-68ac954d789a","ios":"levelo://app?vid=ba2542eb-4a30-47aa-b57a-68ac954d789a"},"vehicle_type_id":"4","last_reported":1727104181,"current_range_meters":17600,"station_id":"ce4bhu92rcd13ifvqi70","pricing_plan_id":"cebpf4jnsgd1na2vs0mg"},{"bike_id":"9407d1ef-adc6-40cf-a4b3-97930d2ecef1","system_id":"levelo_inurba_marseille","lat":43.24777,"lon":5.37455,"is_reserved":false,"is_disabled":false,"rental_uris":{"android":"levelo://app?vid=9407d1ef-adc6-40cf-a4b3-97930d2ecef1","ios":"levelo://app?vid=9407d1ef-adc6-40cf-a4b3-97930d2ecef1"},"vehicle_type_id":"4","last_reported":1727104181,"current_range_meters":2800,"station_id":"ce4bhih2rcd13ifvqfs0","pricing_plan_id":"cebpf4jnsgd1na2vs0mg"},{"bike_id":"a8216729-a25f-4a7a-a7e3-e32a9ef7c058","system_id":"levelo_inurba_marseille","lat":43.31715,"lon":5.37743,"is_reserved":false,"is_disabled":false,"rental_uris":{"android":"levelo://app?vid=a8216729-a25f-4a7a-a7e3-e32a9ef7c058","ios":"levelo://app?vid=a8216729-a25f-4a7a-a7e3-e32a9ef7c058"},"vehicle_type_id":"4","last_reported":1727104181,"current_range_meters":11600,"station_id":"ce4bgth2rcd13ifvqch0","pricing_plan_id":"cebpf4jnsgd1na2vs0mg"},{"bike_id":"6dd65d0e-8b7a-4b77-9bf9-ede98b693613","system_id":"levelo_inurba_marseille","lat":43.30313,"lon":5.36905,"is_reserved":false,"is_disabled":false,"rental_uris":{"android":"levelo://app?vid=6dd65d0e-8b7a-4b77-9bf9-ede98b693613","ios":"levelo://app?vid=6dd65d0e-8b7a-4b77-9bf9-ede98b693613"},"vehicle_type_id":"4","last_reported":1727104181,"current_range_meters":31200,"station_id":"ce4bgqh2rcd13ifvqc5g","pricing_plan_id":"cebpf4jnsgd1na2vs0mg"},{"bike_id":"9ab84b17-eb9b-4fc9-9b75-8115dd9a0898","system_id":"levelo_inurba_marseille","lat":43.28264,"lon":5.35065,"is_reserved":false,"is_disabled":false,"rental_uris":{"android":"levelo://app?vid=9ab84b17-eb9b-4fc9-9b75-8115dd9a0898","ios":"levelo://app?vid=9ab84b17-eb9b-4fc9-9b75-8115dd9a0898"},"vehicle_type_id":"4","last_reported":1727104181,"current_range_meters":16800,"station_id":"ce4bhbp2rcd13ifvqerg","pricing_plan_id":"cebpf4jnsgd1na2vs0mg"},{"bike_id":"74504cc9-19d0-4206-abb7-642e67d3d589","system_id":"levelo_inurba_marseille","lat":43.31651,"lon":5.40488,"is_reserved":false,"is_disabled":false,"rental_uris":{"android":"levelo://app?vid=74504cc9-19d0-4206-abb7-642e67d3d589","ios":"levelo://app?vid=74504cc9-19d0-4206-abb7-642e67d3d589"},"vehicle_type_id":"4","last_reported":1727104181,"current_range_meters":22400,"station_id":"ce4bh012rcd13ifvqd00","pricing_plan_id":"cebpf4jnsgd1na2vs0mg"},{"bike_id":"6c1b457e-fb32-401b-8d63-f6965417de07","system_id":"levelo_inurba_marseille","lat":43.24184,"lon":5.39724,"is_reserved":false,"is_disabled":false,"rental_uris":{"android":"levelo://app?vid=6c1b457e-fb32-401b-8d63-f6965417de07","ios":"levelo://app?vid=6c1b457e-fb32-401b-8d63-f6965417de07"},"vehicle_type_id":"4","last_reported":1727104181,"current_range_meters":28400,"station_id":"ce4bhn12rcd13ifvqgpg","pricing_plan_id":"cebpf4jnsgd1na2vs0mg"},{"bike_id":"dfc0fdbd-cf4a-4060-a8ee-bb721d603e1d","system_id":"levelo_inurba_marseille","lat":43.25502,"lon":5.37651,"is_reserved":false,"is_disabled":false,"rental_uris":{"android":"levelo://app?vid=dfc0fdbd-cf4a-4060-a8ee-bb721d603e1d","ios":"levelo://app?vid=dfc0fdbd-cf4a-4060-a8ee-bb721d603e1d"},"vehicle_type_id":"4","last_reported":1727104181,"current_range_meters":30800,"station_id":"ce4bhh12rcd13ifvqff0","pricing_plan_id":"cebpf4jnsgd1na2vs0mg"},{"bike_id":"bc3aae08-94d3-4fe4-9573-7b452697681d","system_id":"levelo_inurba_marseille","lat":43.28152,"lon":5.42654,"is_reserved":false,"is_disabled":false,"rental_uris":{"android":"levelo://app?vid=bc3aae08-94d3-4fe4-9573-7b452697681d","ios":"levelo://app?vid=bc3aae08-94d3-4fe4-9573-7b452697681d"},"vehicle_type_id":"4","last_reported":1727104181,"current_range_meters":10800,"station_id":"ce4bhnh2rcd13ifvqgug","pricing_plan_id":"cebpf4jnsgd1na2vs0mg"},{"bike_id":"438971c7-8dfd-405e-8f81-34c440e8ec23","system_id":"levelo_inurba_marseille","lat":43.276191,"lon":5.361067,"is_reserved":false,"is_disabled":false,"rental_uris":{"android":"levelo://app?vid=438971c7-8dfd-405e-8f81-34c440e8ec23","ios":"levelo://app?vid=438971c7-8dfd-405e-8f81-34c440e8ec23"},"vehicle_type_id":"4","last_reported":1727104181,"current_range_meters":24800,"station_id":"ce4bgj92rcd13ifvqbe0","pricing_plan_id":"cebpf4jnsgd1na2vs0mg"},{"bike_id":"7b73b428-3f20-4790-a66b-76c9e11c0d10","system_id":"levelo_inurba_marseille","lat":43.28269,"lon":5.35072,"is_reserved":false,"is_disabled":false,"rental_uris":{"android":"levelo://app?vid=7b73b428-3f20-4790-a66b-76c9e11c0d10","ios":"levelo://app?vid=7b73b428-3f20-4790-a66b-76c9e11c0d10"},"vehicle_type_id":"4","last_reported":1727104181,"current_range_meters":4800,"station_id":"ce4bhbp2rcd13ifvqerg","pricing_plan_id":"cebpf4jnsgd1na2vs0mg"},{"bike_id":"73683e78-0eb9-4791-8bd8-8dc107c43625","system_id":"levelo_inurba_marseille","lat":43.258211,"lon":5.394417,"is_reserved":false,"is_disabled":false,"rental_uris":{"android":"levelo://app?vid=73683e78-0eb9-4791-8bd8-8dc107c43625","ios":"levelo://app?vid=73683e78-0eb9-4791-8bd8-8dc107c43625"},"vehicle_type_id":"4","last_reported":1727104181,"current_range_meters":16400,"station_id":"ce4bhip2rcd13ifvqft0","pricing_plan_id":"cebpf4jnsgd1na2vs0mg"},{"bike_id":"b9469d10-de06-44d2-954a-a765140d2f48","system_id":"levelo_inurba_marseille","lat":43.29028,"lon":5.38646,"is_reserved":false,"is_disabled":false,"rental_uris":{"android":"levelo://app?vid=b9469d10-de06-44d2-954a-a765140d2f48","ios":"levelo://app?vid=b9469d10-de06-44d2-954a-a765140d2f48"},"vehicle_type_id":"4","last_reported":1727104181,"current_range_meters":27200,"station_id":"ce4bh4p2rcd13ifvqe0g","pricing_plan_id":"cebpf4jnsgd1na2vs0mg"},{"bike_id":"2cb4d48c-c41a-4327-844b-c5c0fd6c0242","system_id":"levelo_inurba_marseille","lat":43.31485,"lon":5.37297,"is_reserved":false,"is_disabled":false,"rental_uris":{"android":"levelo://app?vid=2cb4d48c-c41a-4327-844b-c5c0fd6c0242","ios":"levelo://app?vid=2cb4d48c-c41a-4327-844b-c5c0fd6c0242"},"vehicle_type_id":"4","last_reported":1727104181,"current_range_meters":16000,"station_id":"ce4bgt12rcd13ifvqcd0","pricing_plan_id":"cebpf4jnsgd1na2vs0mg"},{"bike_id":"57c33fa0-eb25-4b89-8b6a-b37ca2a3d2cb","system_id":"levelo_inurba_marseille","lat":43.29252,"lon":5.4091,"is_reserved":false,"is_disabled":false,"rental_uris":{"android":"levelo://app?vid=57c33fa0-eb25-4b89-8b6a-b37ca2a3d2cb","ios":"levelo://app?vid=57c33fa0-eb25-4b89-8b6a-b37ca2a3d2cb"},"vehicle_type_id":"4","last_reported":1727104181,"current_range_meters":7200,"station_id":"ce4bh192rcd13ifvqdc0","pricing_plan_id":"cebpf4jnsgd1na2vs0mg"},{"bike_id":"fce734b4-6c36-4cb6-983c-c95238702258","system_id":"levelo_inurba_marseille","lat":43.31071,"lon":5.3811,"is_reserved":false,"is_disabled":false,"rental_uris":{"android":"levelo://app?vid=fce734b4-6c36-4cb6-983c-c95238702258","ios":"levelo://app?vid=fce734b4-6c36-4cb6-983c-c95238702258"},"vehicle_type_id":"4","last_reported":1727104181,"current_range_meters":7200,"station_id":"","pricing_plan_id":"cebpf4jnsgd1na2vs0mg"},{"bike_id":"56c9a565-5309-4191-8087-1f6ab03a11d7","system_id":"levelo_inurba_marseille","lat":43.28423,"lon":5.34991,"is_reserved":false,"is_disabled":false,"rental_uris":{"android":"levelo://app?vid=56c9a565-5309-4191-8087-1f6ab03a11d7","ios":"levelo://app?vid=56c9a565-5309-4191-8087-1f6ab03a11d7"},"vehicle_type_id":"4","last_reported":1727104181,"current_range_meters":31200,"station_id":"ce4bhbh2rcd13ifvqepg","pricing_plan_id":"cebpf4jnsgd1na2vs0mg"},{"bike_id":"c371314f-2cd1-4a92-8738-0c7ece0f5842","system_id":"levelo_inurba_marseille","lat":43.26808,"lon":5.40261,"is_reserved":false,"is_disabled":false,"rental_uris":{"android":"levelo://app?vid=c371314f-2cd1-4a92-8738-0c7ece0f5842","ios":"levelo://app?vid=c371314f-2cd1-4a92-8738-0c7ece0f5842"},"vehicle_type_id":"4","last_reported":1727104181,"current_range_meters":38800,"station_id":"ce501612rcd8frsf0b60","pricing_plan_id":"cebpf4jnsgd1na2vs0mg"},{"bike_id":"8808c221-dae8-4c3c-9aaf-b049fdd07712","system_id":"levelo_inurba_marseille","lat":43.27985,"lon":5.41659,"is_reserved":false,"is_disabled":false,"rental_uris":{"android":"levelo://app?vid=8808c221-dae8-4c3c-9aaf-b049fdd07712","ios":"levelo://app?vid=8808c221-dae8-4c3c-9aaf-b049fdd07712"},"vehicle_type_id":"4","last_reported":1727104181,"current_range_meters":22000,"station_id":"ce4bho12rcd13ifvqh1g","pricing_plan_id":"cebpf4jnsgd1na2vs0mg"},{"bike_id":"5d04256a-e679-4059-83c6-0ae42b4a755b","system_id":"levelo_inurba_marseille","lat":43.28272,"lon":5.35069,"is_reserved":false,"is_disabled":false,"rental_uris":{"android":"levelo://app?vid=5d04256a-e679-4059-83c6-0ae42b4a755b","ios":"levelo://app?vid=5d04256a-e679-4059-83c6-0ae42b4a755b"},"vehicle_type_id":"4","last_reported":1727104181,"current_range_meters":16000,"station_id":"ce4bhbp2rcd13ifvqerg","pricing_plan_id":"cebpf4jnsgd1na2vs0mg"},{"bike_id":"0fbec96d-ff78-4b59-8d11-e64c22030132","system_id":"levelo_inurba_marseille","lat":43.26789,"lon":5.39407,"is_reserved":false,"is_disabled":false,"rental_uris":{"android":"levelo://app?vid=0fbec96d-ff78-4b59-8d11-e64c22030132","ios":"levelo://app?vid=0fbec96d-ff78-4b59-8d11-e64c22030132"},"vehicle_type_id":"4","last_reported":1727104181,"current_range_meters":31200,"station_id":"ce4bhh12rcd13ifvqfg0","pricing_plan_id":"cebpf4jnsgd1na2vs0mg"},{"bike_id":"7fe4ee8e-e947-49bd-b31f-dea2a52c712f","system_id":"levelo_inurba_marseille","lat":43.29257,"lon":5.40903,"is_reserved":false,"is_disabled":false,"rental_uris":{"android":"levelo://app?vid=7fe4ee8e-e947-49bd-b31f-dea2a52c712f","ios":"levelo://app?vid=7fe4ee8e-e947-49bd-b31f-dea2a52c712f"},"vehicle_type_id":"4","last_reported":1727104181,"current_range_meters":8000,"station_id":"ce4bh192rcd13ifvqdc0","pricing_plan_id":"cebpf4jnsgd1na2vs0mg"},{"bike_id":"6e3f1c76-110c-4206-8065-75afc7d2fd09","system_id":"levelo_inurba_marseille","lat":43.24662,"lon":5.38161,"is_reserved":false,"is_disabled":false,"rental_uris":{"android":"levelo://app?vid=6e3f1c76-110c-4206-8065-75afc7d2fd09","ios":"levelo://app?vid=6e3f1c76-110c-4206-8065-75afc7d2fd09"},"vehicle_type_id":"4","last_reported":1727104181,"current_range_meters":8800,"station_id":"ce4bhih2rcd13ifvqfr0","pricing_plan_id":"cebpf4jnsgd1na2vs0mg"},{"bike_id":"aa625c04-189a-4360-934e-ff204f15a73e","system_id":"levelo_inurba_marseille","lat":43.30785,"lon":5.3766,"is_reserved":false,"is_disabled":false,"rental_uris":{"android":"levelo://app?vid=aa625c04-189a-4360-934e-ff204f15a73e","ios":"levelo://app?vid=aa625c04-189a-4360-934e-ff204f15a73e"},"vehicle_type_id":"4","last_reported":1727104181,"current_range_meters":37600,"station_id":"ce4bgv92rcd13ifvqcq0","pricing_plan_id":"cebpf4jnsgd1na2vs0mg"},{"bike_id":"b25d5151-5158-4297-a9ae-3d9a6de1b15f","system_id":"levelo_inurba_marseille","lat":43.28459,"lon":5.3588,"is_reserved":false,"is_disabled":false,"rental_uris":{"android":"levelo://app?vid=b25d5151-5158-4297-a9ae-3d9a6de1b15f","ios":"levelo://app?vid=b25d5151-5158-4297-a9ae-3d9a6de1b15f"},"vehicle_type_id":"4","last_reported":1727104181,"current_range_meters":36800,"station_id":"ce4bhah2rcd13ifvqei0","pricing_plan_id":"cebpf4jnsgd1na2vs0mg"},{"bike_id":"c959ca8d-ba53-4b69-b028-aa3156c88619","system_id":"levelo_inurba_marseille","lat":43.33745,"lon":5.37461,"is_reserved":false,"is_disabled":false,"rental_uris":{"android":"levelo://app?vid=c959ca8d-ba53-4b69-b028-aa3156c88619","ios":"levelo://app?vid=c959ca8d-ba53-4b69-b028-aa3156c88619"},"vehicle_type_id":"4","last_reported":1727104181,"current_range_meters":36400,"station_id":"","pricing_plan_id":"cebpf4jnsgd1na2vs0mg"},{"bike_id":"79b9fb56-448a-4beb-bee1-72b2929a319c","system_id":"levelo_inurba_marseille","lat":43.28273,"lon":5.35066,"is_reserved":false,"is_disabled":false,"rental_uris":{"android":"levelo://app?vid=79b9fb56-448a-4beb-bee1-72b2929a319c","ios":"levelo://app?vid=79b9fb56-448a-4beb-bee1-72b2929a319c"},"vehicle_type_id":"4","last_reported":1727104181,"current_range_meters":8000,"station_id":"ce4bhbp2rcd13ifvqerg","pricing_plan_id":"cebpf4jnsgd1na2vs0mg"},{"bike_id":"b8b418fd-7f1a-4ee0-b078-2f6522de760a","system_id":"levelo_inurba_marseille","lat":43.3033,"lon":5.4043,"is_reserved":false,"is_disabled":false,"rental_uris":{"android":"levelo://app?vid=b8b418fd-7f1a-4ee0-b078-2f6522de760a","ios":"levelo://app?vid=b8b418fd-7f1a-4ee0-b078-2f6522de760a"},"vehicle_type_id":"4","last_reported":1727104181,"current_range_meters":34800,"station_id":"ce4bh012rcd13ifvqd10","pricing_plan_id":"cebpf4jnsgd1na2vs0mg"},{"bike_id":"c4d81431-ee19-4b2b-9a19-a027dc40bf9b","system_id":"levelo_inurba_marseille","lat":43.27069,"lon":5.42272,"is_reserved":false,"is_disabled":false,"rental_uris":{"android":"levelo://app?vid=c4d81431-ee19-4b2b-9a19-a027dc40bf9b","ios":"levelo://app?vid=c4d81431-ee19-4b2b-9a19-a027dc40bf9b"},"vehicle_type_id":"4","last_reported":1727104181,"current_range_meters":28000,"station_id":"ce4bhk92rcd13ifvqgb0","pricing_plan_id":"cebpf4jnsgd1na2vs0mg"},{"bike_id":"fa690805-233a-4a70-a9f3-33f1b67cdb1f","system_id":"levelo_inurba_marseille","lat":43.32291,"lon":5.38248,"is_reserved":false,"is_disabled":false,"rental_uris":{"android":"levelo://app?vid=fa690805-233a-4a70-a9f3-33f1b67cdb1f","ios":"levelo://app?vid=fa690805-233a-4a70-a9f3-33f1b67cdb1f"},"vehicle_type_id":"4","last_reported":1727104181,"current_range_meters":37600,"station_id":"ce4bhr12rcd13ifvqhqg","pricing_plan_id":"cebpf4jnsgd1na2vs0mg"},{"bike_id":"3d2b9d00-3614-484a-a81c-5c37e3a6002f","system_id":"levelo_inurba_marseille","lat":43.275586,"lon":5.360193,"is_reserved":false,"is_disabled":false,"rental_uris":{"android":"levelo://app?vid=3d2b9d00-3614-484a-a81c-5c37e3a6002f","ios":"levelo://app?vid=3d2b9d00-3614-484a-a81c-5c37e3a6002f"},"vehicle_type_id":"4","last_reported":1727104181,"current_range_meters":14400,"station_id":"ce4bgj92rcd13ifvqbe0","pricing_plan_id":"cebpf4jnsgd1na2vs0mg"},{"bike_id":"cb6f5245-af44-45f0-a415-dc7d5990293b","system_id":"levelo_inurba_marseille","lat":43.26032,"lon":5.37544,"is_reserved":false,"is_disabled":false,"rental_uris":{"android":"levelo://app?vid=cb6f5245-af44-45f0-a415-dc7d5990293b","ios":"levelo://app?vid=cb6f5245-af44-45f0-a415-dc7d5990293b"},"vehicle_type_id":"4","last_reported":1727104181,"current_range_meters":36800,"station_id":"ce4bhgh2rcd13ifvqfa0","pricing_plan_id":"cebpf4jnsgd1na2vs0mg"},{"bike_id":"dcfffee2-327c-40b5-b037-0a21abc45bba","system_id":"levelo_inurba_marseille","lat":43.29614,"lon":5.37707,"is_reserved":false,"is_disabled":false,"rental_uris":{"android":"levelo://app?vid=dcfffee2-327c-40b5-b037-0a21abc45bba","ios":"levelo://app?vid=dcfffee2-327c-40b5-b037-0a21abc45bba"},"vehicle_type_id":"4","last_reported":1727104181,"current_range_meters":38000,"station_id":"ce4bgi92rcd13ifvqb90","pricing_plan_id":"cebpf4jnsgd1na2vs0mg"},{"bike_id":"2e0c2915-9a6c-4af9-a946-bc1c60c0ed78","system_id":"levelo_inurba_marseille","lat":43.28,"lon":5.41659,"is_reserved":false,"is_disabled":false,"rental_uris":{"android":"levelo://app?vid=2e0c2915-9a6c-4af9-a946-bc1c60c0ed78","ios":"levelo://app?vid=2e0c2915-9a6c-4af9-a946-bc1c60c0ed78"},"vehicle_type_id":"4","last_reported":1727104181,"current_range_meters":18800,"station_id":"ce4bho12rcd13ifvqh1g","pricing_plan_id":"cebpf4jnsgd1na2vs0mg"},{"bike_id":"51d2452f-b5bc-41fd-824c-d809238680f5","system_id":"levelo_inurba_marseille","lat":43.313611,"lon":5.384869,"is_reserved":false,"is_disabled":false,"rental_uris":{"android":"levelo://app?vid=51d2452f-b5bc-41fd-824c-d809238680f5","ios":"levelo://app?vid=51d2452f-b5bc-41fd-824c-d809238680f5"},"vehicle_type_id":"4","last_reported":1727104181,"current_range_meters":24000,"station_id":"ce4bgip2rcd13ifvqbb0","pricing_plan_id":"cebpf4jnsgd1na2vs0mg"},{"bike_id":"7ee89815-3f87-4dc0-ac87-de45448091bf","system_id":"levelo_inurba_marseille","lat":43.26038,"lon":5.37548,"is_reserved":false,"is_disabled":false,"rental_uris":{"android":"levelo://app?vid=7ee89815-3f87-4dc0-ac87-de45448091bf","ios":"levelo://app?vid=7ee89815-3f87-4dc0-ac87-de45448091bf"},"vehicle_type_id":"4","last_reported":1727104181,"current_range_meters":38800,"station_id":"ce4bhgh2rcd13ifvqfa0","pricing_plan_id":"cebpf4jnsgd1na2vs0mg"},{"bike_id":"39ee486f-3634-4ca4-8f53-c60521013a38","system_id":"levelo_inurba_marseille","lat":43.28151,"lon":5.42641,"is_reserved":false,"is_disabled":false,"rental_uris":{"android":"levelo://app?vid=39ee486f-3634-4ca4-8f53-c60521013a38","ios":"levelo://app?vid=39ee486f-3634-4ca4-8f53-c60521013a38"},"vehicle_type_id":"4","last_reported":1727104181,"current_range_meters":33600,"station_id":"ce4bhnh2rcd13ifvqgug","pricing_plan_id":"cebpf4jnsgd1na2vs0mg"},{"bike_id":"81bd6cc0-2105-456f-9faf-e4b066662c88","system_id":"levelo_inurba_marseille","lat":43.28417,"lon":5.34988,"is_reserved":false,"is_disabled":false,"rental_uris":{"android":"levelo://app?vid=81bd6cc0-2105-456f-9faf-e4b066662c88","ios":"levelo://app?vid=81bd6cc0-2105-456f-9faf-e4b066662c88"},"vehicle_type_id":"4","last_reported":1727104181,"current_range_meters":25200,"station_id":"ce4bhbh2rcd13ifvqepg","pricing_plan_id":"cebpf4jnsgd1na2vs0mg"},{"bike_id":"9bc1be1d-3d30-46b9-92a3-bceef644d1b2","system_id":"levelo_inurba_marseille","lat":43.25727,"lon":5.41104,"is_reserved":false,"is_disabled":false,"rental_uris":{"android":"levelo://app?vid=9bc1be1d-3d30-46b9-92a3-bceef644d1b2","ios":"levelo://app?vid=9bc1be1d-3d30-46b9-92a3-bceef644d1b2"},"vehicle_type_id":"4","last_reported":1727104181,"current_range_meters":20800,"station_id":"ce4bhkp2rcd13ifvqgd0","pricing_plan_id":"cebpf4jnsgd1na2vs0mg"},{"bike_id":"b779a3b1-b472-4100-8b5e-ecefdee76074","system_id":"levelo_inurba_marseille","lat":43.26199,"lon":5.37934,"is_reserved":false,"is_disabled":false,"rental_uris":{"android":"levelo://app?vid=b779a3b1-b472-4100-8b5e-ecefdee76074","ios":"levelo://app?vid=b779a3b1-b472-4100-8b5e-ecefdee76074"},"vehicle_type_id":"4","last_reported":1727104181,"current_range_meters":19200,"station_id":"ce4bhjp2rcd13ifvqg90","pricing_plan_id":"cebpf4jnsgd1na2vs0mg"},{"bike_id":"cde20c1b-6bb9-45ba-ae7b-86f4a4173b0e","system_id":"levelo_inurba_marseille","lat":43.32045,"lon":5.41549,"is_reserved":false,"is_disabled":false,"rental_uris":{"android":"levelo://app?vid=cde20c1b-6bb9-45ba-ae7b-86f4a4173b0e","ios":"levelo://app?vid=cde20c1b-6bb9-45ba-ae7b-86f4a4173b0e"},"vehicle_type_id":"4","last_reported":1727104181,"current_range_meters":6400,"station_id":"ce4bhq92rcd13ifvqhkg","pricing_plan_id":"cebpf4jnsgd1na2vs0mg"},{"bike_id":"b0f4d08d-9574-447c-9f76-6a11e8a82ce4","system_id":"levelo_inurba_marseille","lat":43.31334,"lon":5.39696,"is_reserved":false,"is_disabled":false,"rental_uris":{"android":"levelo://app?vid=b0f4d08d-9574-447c-9f76-6a11e8a82ce4","ios":"levelo://app?vid=b0f4d08d-9574-447c-9f76-6a11e8a82ce4"},"vehicle_type_id":"4","last_reported":1727104181,"current_range_meters":38800,"station_id":"ce4bgvp2rcd13ifvqcu0","pricing_plan_id":"cebpf4jnsgd1na2vs0mg"},{"bike_id":"0074696f-e649-4639-9210-689b92842bdc","system_id":"levelo_inurba_marseille","lat":43.30805,"lon":5.43528,"is_reserved":false,"is_disabled":false,"rental_uris":{"android":"levelo://app?vid=0074696f-e649-4639-9210-689b92842bdc","ios":"levelo://app?vid=0074696f-e649-4639-9210-689b92842bdc"},"vehicle_type_id":"4","last_reported":1727104181,"current_range_meters":38800,"station_id":"ce4bhph2rcd13ifvqheg","pricing_plan_id":"cebpf4jnsgd1na2vs0mg"},{"bike_id":"877753fc-658d-4c7a-bbb8-46de59f59494","system_id":"levelo_inurba_marseille","lat":43.33024,"lon":5.39045,"is_reserved":false,"is_disabled":false,"rental_uris":{"android":"levelo://app?vid=877753fc-658d-4c7a-bbb8-46de59f59494","ios":"levelo://app?vid=877753fc-658d-4c7a-bbb8-46de59f59494"},"vehicle_type_id":"4","last_reported":1727104181,"current_range_meters":12000,"station_id":"ce4bhr92rcd13ifvqhrg","pricing_plan_id":"cebpf4jnsgd1na2vs0mg"},{"bike_id":"48f266b4-12e6-4bfe-b91e-632577e826a6","system_id":"levelo_inurba_marseille","lat":43.24667,"lon":5.38163,"is_reserved":false,"is_disabled":false,"rental_uris":{"android":"levelo://app?vid=48f266b4-12e6-4bfe-b91e-632577e826a6","ios":"levelo://app?vid=48f266b4-12e6-4bfe-b91e-632577e826a6"},"vehicle_type_id":"4","last_reported":1727104181,"current_range_meters":28000,"station_id":"ce4bhih2rcd13ifvqfr0","pricing_plan_id":"cebpf4jnsgd1na2vs0mg"},{"bike_id":"6a9f45df-04c5-44d5-b656-eb73494e9cef","system_id":"levelo_inurba_marseille","lat":43.23972,"lon":5.36632,"is_reserved":false,"is_disabled":false,"rental_uris":{"android":"levelo://app?vid=6a9f45df-04c5-44d5-b656-eb73494e9cef","ios":"levelo://app?vid=6a9f45df-04c5-44d5-b656-eb73494e9cef"},"vehicle_type_id":"4","last_reported":1727104181,"current_range_meters":20400,"station_id":"ce4bhi12rcd13ifvqfp0","pricing_plan_id":"cebpf4jnsgd1na2vs0mg"},{"bike_id":"4dba677d-464b-4cab-a3b3-77beebf1b009","system_id":"levelo_inurba_marseille","lat":43.29303,"lon":5.37455,"is_reserved":false,"is_disabled":false,"rental_uris":{"android":"levelo://app?vid=4dba677d-464b-4cab-a3b3-77beebf1b009","ios":"levelo://app?vid=4dba677d-464b-4cab-a3b3-77beebf1b009"},"vehicle_type_id":"4","last_reported":1727104181,"current_range_meters":21600,"station_id":"","pricing_plan_id":"cebpf4jnsgd1na2vs0mg"},{"bike_id":"5e2f72d5-4559-41b2-b3d0-9bec673a16db","system_id":"levelo_inurba_marseille","lat":43.28269,"lon":5.3507,"is_reserved":false,"is_disabled":false,"rental_uris":{"android":"levelo://app?vid=5e2f72d5-4559-41b2-b3d0-9bec673a16db","ios":"levelo://app?vid=5e2f72d5-4559-41b2-b3d0-9bec673a16db"},"vehicle_type_id":"4","last_reported":1727104181,"current_range_meters":39200,"station_id":"ce4bhbp2rcd13ifvqerg","pricing_plan_id":"cebpf4jnsgd1na2vs0mg"},{"bike_id":"45df9051-e725-4f5a-af06-a6afcf9ece7e","system_id":"levelo_inurba_marseille","lat":43.26807,"lon":5.40268,"is_reserved":false,"is_disabled":false,"rental_uris":{"android":"levelo://app?vid=45df9051-e725-4f5a-af06-a6afcf9ece7e","ios":"levelo://app?vid=45df9051-e725-4f5a-af06-a6afcf9ece7e"},"vehicle_type_id":"4","last_reported":1727104181,"current_range_meters":38400,"station_id":"ce501612rcd8frsf0b60","pricing_plan_id":"cebpf4jnsgd1na2vs0mg"},{"bike_id":"5d646be7-6f08-4485-8caa-430922346353","system_id":"levelo_inurba_marseille","lat":43.32484,"lon":5.36556,"is_reserved":false,"is_disabled":false,"rental_uris":{"android":"levelo://app?vid=5d646be7-6f08-4485-8caa-430922346353","ios":"levelo://app?vid=5d646be7-6f08-4485-8caa-430922346353"},"vehicle_type_id":"4","last_reported":1727104181,"current_range_meters":40000,"station_id":"ce4bhs12rcd13ifvqhvg","pricing_plan_id":"cebpf4jnsgd1na2vs0mg"},{"bike_id":"fa389a28-fbc0-443d-ae17-61deeb7eddc4","system_id":"levelo_inurba_marseille","lat":43.29792,"lon":5.3935,"is_reserved":false,"is_disabled":false,"rental_uris":{"android":"levelo://app?vid=fa389a28-fbc0-443d-ae17-61deeb7eddc4","ios":"levelo://app?vid=fa389a28-fbc0-443d-ae17-61deeb7eddc4"},"vehicle_type_id":"4","last_reported":1727104181,"current_range_meters":36800,"station_id":"chh1huq6cuj3fo74tm60","pricing_plan_id":"cebpf4jnsgd1na2vs0mg"},{"bike_id":"ec75ceb7-fd1b-4f03-a428-24e108a6c8cb","system_id":"levelo_inurba_marseille","lat":43.31367,"lon":5.38486,"is_reserved":false,"is_disabled":false,"rental_uris":{"android":"levelo://app?vid=ec75ceb7-fd1b-4f03-a428-24e108a6c8cb","ios":"levelo://app?vid=ec75ceb7-fd1b-4f03-a428-24e108a6c8cb"},"vehicle_type_id":"4","last_reported":1727104181,"current_range_meters":16800,"station_id":"ce4bgt92rcd13ifvqcf0","pricing_plan_id":"cebpf4jnsgd1na2vs0mg"},{"bike_id":"7d1ef8e2-8e29-41c7-a776-cf5bdff04cd7","system_id":"levelo_inurba_marseille","lat":43.2836,"lon":5.386272,"is_reserved":false,"is_disabled":false,"rental_uris":{"android":"levelo://app?vid=7d1ef8e2-8e29-41c7-a776-cf5bdff04cd7","ios":"levelo://app?vid=7d1ef8e2-8e29-41c7-a776-cf5bdff04cd7"},"vehicle_type_id":"4","last_reported":1727104181,"current_range_meters":27200,"station_id":"ce4bh492rcd13ifvqdvg","pricing_plan_id":"cebpf4jnsgd1na2vs0mg"},{"bike_id":"ef80ef96-f0ae-47f4-a656-30940101fb28","system_id":"levelo_inurba_marseille","lat":43.26203,"lon":5.37922,"is_reserved":false,"is_disabled":false,"rental_uris":{"android":"levelo://app?vid=ef80ef96-f0ae-47f4-a656-30940101fb28","ios":"levelo://app?vid=ef80ef96-f0ae-47f4-a656-30940101fb28"},"vehicle_type_id":"4","last_reported":1727104181,"current_range_meters":24800,"station_id":"ce4bhjp2rcd13ifvqg90","pricing_plan_id":"cebpf4jnsgd1na2vs0mg"},{"bike_id":"54b92d67-f490-4c84-bfd0-5b4cca51b812","system_id":"levelo_inurba_marseille","lat":43.28608,"lon":5.37063,"is_reserved":false,"is_disabled":false,"rental_uris":{"android":"levelo://app?vid=54b92d67-f490-4c84-bfd0-5b4cca51b812","ios":"levelo://app?vid=54b92d67-f490-4c84-bfd0-5b4cca51b812"},"vehicle_type_id":"4","last_reported":1727104181,"current_range_meters":15200,"station_id":"ce4bht12rcd13ifvqi60","pricing_plan_id":"cebpf4jnsgd1na2vs0mg"},{"bike_id":"26e43ab1-84b6-40bf-9271-f47129192d7e","system_id":"levelo_inurba_marseille","lat":43.24389,"lon":5.37054,"is_reserved":false,"is_disabled":false,"rental_uris":{"android":"levelo://app?vid=26e43ab1-84b6-40bf-9271-f47129192d7e","ios":"levelo://app?vid=26e43ab1-84b6-40bf-9271-f47129192d7e"},"vehicle_type_id":"4","last_reported":1727104181,"current_range_meters":40000,"station_id":"ce4bhhh2rcd13ifvqfk0","pricing_plan_id":"cebpf4jnsgd1na2vs0mg"},{"bike_id":"9327b15d-2365-4849-b0e4-af37adad04b2","system_id":"levelo_inurba_marseille","lat":43.323395,"lon":5.406221,"is_reserved":false,"is_disabled":false,"rental_uris":{"android":"levelo://app?vid=9327b15d-2365-4849-b0e4-af37adad04b2","ios":"levelo://app?vid=9327b15d-2365-4849-b0e4-af37adad04b2"},"vehicle_type_id":"4","last_reported":1727104181,"current_range_meters":4800,"station_id":"ce4bhq92rcd13ifvqhjg","pricing_plan_id":"cebpf4jnsgd1na2vs0mg"},{"bike_id":"16ae6180-f6e5-47e0-8f4b-70a0144490cf","system_id":"levelo_inurba_marseille","lat":43.30414,"lon":5.41285,"is_reserved":false,"is_disabled":false,"rental_uris":{"android":"levelo://app?vid=16ae6180-f6e5-47e0-8f4b-70a0144490cf","ios":"levelo://app?vid=16ae6180-f6e5-47e0-8f4b-70a0144490cf"},"vehicle_type_id":"4","last_reported":1727104181,"current_range_meters":14800,"station_id":"ce4bhop2rcd13ifvqh8g","pricing_plan_id":"cebpf4jnsgd1na2vs0mg"},{"bike_id":"ef16905c-20ca-499e-8321-59ef30aec101","system_id":"levelo_inurba_marseille","lat":43.290039,"lon":5.366872,"is_reserved":false,"is_disabled":false,"rental_uris":{"android":"levelo://app?vid=ef16905c-20ca-499e-8321-59ef30aec101","ios":"levelo://app?vid=ef16905c-20ca-499e-8321-59ef30aec101"},"vehicle_type_id":"4","last_reported":1727104181,"current_range_meters":8400,"station_id":"ce4bhap2rcd13ifvqek0","pricing_plan_id":"cebpf4jnsgd1na2vs0mg"},{"bike_id":"574c9140-a877-4f8f-9509-467fd055d53d","system_id":"levelo_inurba_marseille","lat":43.255,"lon":5.3765,"is_reserved":false,"is_disabled":false,"rental_uris":{"android":"levelo://app?vid=574c9140-a877-4f8f-9509-467fd055d53d","ios":"levelo://app?vid=574c9140-a877-4f8f-9509-467fd055d53d"},"vehicle_type_id":"4","last_reported":1727104181,"current_range_meters":30000,"station_id":"ce4bhh12rcd13ifvqff0","pricing_plan_id":"cebpf4jnsgd1na2vs0mg"},{"bike_id":"4134913b-e74f-460d-a363-0fb462a239fd","system_id":"levelo_inurba_marseille","lat":43.26941,"lon":5.40247,"is_reserved":false,"is_disabled":false,"rental_uris":{"android":"levelo://app?vid=4134913b-e74f-460d-a363-0fb462a239fd","ios":"levelo://app?vid=4134913b-e74f-460d-a363-0fb462a239fd"},"vehicle_type_id":"4","last_reported":1727104181,"current_range_meters":23200,"station_id":"cjm6bp8fraef2m0cb0m0","pricing_plan_id":"cebpf4jnsgd1na2vs0mg"},{"bike_id":"8e73d858-27ae-41b9-b56c-e856b9116f1e","system_id":"levelo_inurba_marseille","lat":43.27616,"lon":5.39723,"is_reserved":false,"is_disabled":false,"rental_uris":{"android":"levelo://app?vid=8e73d858-27ae-41b9-b56c-e856b9116f1e","ios":"levelo://app?vid=8e73d858-27ae-41b9-b56c-e856b9116f1e"},"vehicle_type_id":"4","last_reported":1727104181,"current_range_meters":32800,"station_id":"ce4bhhp2rcd13ifvqfm0","pricing_plan_id":"cebpf4jnsgd1na2vs0mg"},{"bike_id":"575ac3e2-351c-4543-8509-e175ab4a1007","system_id":"levelo_inurba_marseille","lat":43.27991,"lon":5.41659,"is_reserved":false,"is_disabled":false,"rental_uris":{"android":"levelo://app?vid=575ac3e2-351c-4543-8509-e175ab4a1007","ios":"levelo://app?vid=575ac3e2-351c-4543-8509-e175ab4a1007"},"vehicle_type_id":"4","last_reported":1727104181,"current_range_meters":23200,"station_id":"ce4bho12rcd13ifvqh1g","pricing_plan_id":"cebpf4jnsgd1na2vs0mg"},{"bike_id":"043c748e-bd21-4472-a7db-3bd39ce8590b","system_id":"levelo_inurba_marseille","lat":43.30141,"lon":5.37408,"is_reserved":false,"is_disabled":false,"rental_uris":{"android":"levelo://app?vid=043c748e-bd21-4472-a7db-3bd39ce8590b","ios":"levelo://app?vid=043c748e-bd21-4472-a7db-3bd39ce8590b"},"vehicle_type_id":"4","last_reported":1727104181,"current_range_meters":6400,"station_id":"ce4bgs92rcd13ifvqcc0","pricing_plan_id":"cebpf4jnsgd1na2vs0mg"},{"bike_id":"26b1a119-bf2a-4f08-b867-d5c9fdd53b8e","system_id":"levelo_inurba_marseille","lat":43.29966,"lon":5.38493,"is_reserved":false,"is_disabled":false,"rental_uris":{"android":"levelo://app?vid=26b1a119-bf2a-4f08-b867-d5c9fdd53b8e","ios":"levelo://app?vid=26b1a119-bf2a-4f08-b867-d5c9fdd53b8e"},"vehicle_type_id":"4","last_reported":1727104181,"current_range_meters":28400,"station_id":"ce4bgj92rcd13ifvqbd0","pricing_plan_id":"cebpf4jnsgd1na2vs0mg"},{"bike_id":"3e37a602-124f-4351-9411-0e5738ddf92c","system_id":"levelo_inurba_marseille","lat":43.292665,"lon":5.367799,"is_reserved":false,"is_disabled":false,"rental_uris":{"android":"levelo://app?vid=3e37a602-124f-4351-9411-0e5738ddf92c","ios":"levelo://app?vid=3e37a602-124f-4351-9411-0e5738ddf92c"},"vehicle_type_id":"4","last_reported":1727104181,"current_range_meters":36000,"station_id":"ce4bhap2rcd13ifvqek0","pricing_plan_id":"cebpf4jnsgd1na2vs0mg"},{"bike_id":"b32b7998-9389-446d-a0d9-9cd0c927f775","system_id":"levelo_inurba_marseille","lat":43.23063,"lon":5.35492,"is_reserved":false,"is_disabled":false,"rental_uris":{"android":"levelo://app?vid=b32b7998-9389-446d-a0d9-9cd0c927f775","ios":"levelo://app?vid=b32b7998-9389-446d-a0d9-9cd0c927f775"},"vehicle_type_id":"4","last_reported":1727104181,"current_range_meters":22000,"station_id":"cpo3342slgdg3j2ifvpg","pricing_plan_id":"cebpf4jnsgd1na2vs0mg"},{"bike_id":"d05ec35d-f63e-43c6-84c2-224a47082cea","system_id":"levelo_inurba_marseille","lat":43.30137,"lon":5.38057,"is_reserved":false,"is_disabled":false,"rental_uris":{"android":"levelo://app?vid=d05ec35d-f63e-43c6-84c2-224a47082cea","ios":"levelo://app?vid=d05ec35d-f63e-43c6-84c2-224a47082cea"},"vehicle_type_id":"4","last_reported":1727104181,"current_range_meters":22000,"station_id":"ce4bgjp2rcd13ifvqbh0","pricing_plan_id":"cebpf4jnsgd1na2vs0mg"},{"bike_id":"2580f843-1ae7-4601-99d3-c56d58faa38d","system_id":"levelo_inurba_marseille","lat":43.32031,"lon":5.41575,"is_reserved":false,"is_disabled":false,"rental_uris":{"android":"levelo://app?vid=2580f843-1ae7-4601-99d3-c56d58faa38d","ios":"levelo://app?vid=2580f843-1ae7-4601-99d3-c56d58faa38d"},"vehicle_type_id":"4","last_reported":1727104181,"current_range_meters":20000,"station_id":"ce4bhq92rcd13ifvqhkg","pricing_plan_id":"cebpf4jnsgd1na2vs0mg"},{"bike_id":"9b566256-8dc3-4522-b2ed-5a4d5dc31cd3","system_id":"levelo_inurba_marseille","lat":43.303406,"lon":5.392541,"is_reserved":false,"is_disabled":false,"rental_uris":{"android":"levelo://app?vid=9b566256-8dc3-4522-b2ed-5a4d5dc31cd3","ios":"levelo://app?vid=9b566256-8dc3-4522-b2ed-5a4d5dc31cd3"},"vehicle_type_id":"4","last_reported":1727104181,"current_range_meters":3600,"station_id":"ce4bgkh2rcd13ifvqbk0","pricing_plan_id":"cebpf4jnsgd1na2vs0mg"},{"bike_id":"0316eee3-8d78-4cad-825a-3ce2e1482439","system_id":"levelo_inurba_marseille","lat":43.28421,"lon":5.349902,"is_reserved":false,"is_disabled":false,"rental_uris":{"android":"levelo://app?vid=0316eee3-8d78-4cad-825a-3ce2e1482439","ios":"levelo://app?vid=0316eee3-8d78-4cad-825a-3ce2e1482439"},"vehicle_type_id":"4","last_reported":1727104181,"current_range_meters":24800,"station_id":"ce4bhbh2rcd13ifvqepg","pricing_plan_id":"cebpf4jnsgd1na2vs0mg"},{"bike_id":"36dc71fe-bfc9-4a4d-b2ef-39ebb067c458","system_id":"levelo_inurba_marseille","lat":43.29554,"lon":5.42284,"is_reserved":false,"is_disabled":false,"rental_uris":{"android":"levelo://app?vid=36dc71fe-bfc9-4a4d-b2ef-39ebb067c458","ios":"levelo://app?vid=36dc71fe-bfc9-4a4d-b2ef-39ebb067c458"},"vehicle_type_id":"4","last_reported":1727104181,"current_range_meters":38800,"station_id":"ce4bhph2rcd13ifvqhdg","pricing_plan_id":"cebpf4jnsgd1na2vs0mg"},{"bike_id":"4e442a34-1c41-4d3c-9b65-5b0b3be50276","system_id":"levelo_inurba_marseille","lat":43.33725,"lon":5.39192,"is_reserved":false,"is_disabled":false,"rental_uris":{"android":"levelo://app?vid=4e442a34-1c41-4d3c-9b65-5b0b3be50276","ios":"levelo://app?vid=4e442a34-1c41-4d3c-9b65-5b0b3be50276"},"vehicle_type_id":"4","last_reported":1727104181,"current_range_meters":36800,"station_id":"ce4bhr92rcd13ifvqhsg","pricing_plan_id":"cebpf4jnsgd1na2vs0mg"},{"bike_id":"4b66e4d7-5c48-4d69-b9c1-f4b1f1fd90e4","system_id":"levelo_inurba_marseille","lat":43.26554,"lon":5.37286,"is_reserved":false,"is_disabled":false,"rental_uris":{"android":"levelo://app?vid=4b66e4d7-5c48-4d69-b9c1-f4b1f1fd90e4","ios":"levelo://app?vid=4b66e4d7-5c48-4d69-b9c1-f4b1f1fd90e4"},"vehicle_type_id":"4","last_reported":1727104181,"current_range_meters":7200,"station_id":"ce4bhg12rcd13ifvqf70","pricing_plan_id":"cebpf4jnsgd1na2vs0mg"},{"bike_id":"93f0e6a6-81f9-4525-a1b9-0d5042e57e1c","system_id":"levelo_inurba_marseille","lat":43.31218,"lon":5.36856,"is_reserved":false,"is_disabled":false,"rental_uris":{"android":"levelo://app?vid=93f0e6a6-81f9-4525-a1b9-0d5042e57e1c","ios":"levelo://app?vid=93f0e6a6-81f9-4525-a1b9-0d5042e57e1c"},"vehicle_type_id":"4","last_reported":1727104181,"current_range_meters":38000,"station_id":"ce4bgl92rcd13ifvqbq0","pricing_plan_id":"cebpf4jnsgd1na2vs0mg"},{"bike_id":"fef87482-fdb2-434f-9d64-b9f20ce4516e","system_id":"levelo_inurba_marseille","lat":43.29254,"lon":5.40912,"is_reserved":false,"is_disabled":false,"rental_uris":{"android":"levelo://app?vid=fef87482-fdb2-434f-9d64-b9f20ce4516e","ios":"levelo://app?vid=fef87482-fdb2-434f-9d64-b9f20ce4516e"},"vehicle_type_id":"4","last_reported":1727104181,"current_range_meters":31200,"station_id":"ce4bh192rcd13ifvqdc0","pricing_plan_id":"cebpf4jnsgd1na2vs0mg"},{"bike_id":"c1acc738-8ce7-48ae-a119-4043a6e488a5","system_id":"levelo_inurba_marseille","lat":43.299654,"lon":5.384992,"is_reserved":false,"is_disabled":false,"rental_uris":{"android":"levelo://app?vid=c1acc738-8ce7-48ae-a119-4043a6e488a5","ios":"levelo://app?vid=c1acc738-8ce7-48ae-a119-4043a6e488a5"},"vehicle_type_id":"4","last_reported":1727104181,"current_range_meters":38000,"station_id":"ce4bgj92rcd13ifvqbd0","pricing_plan_id":"cebpf4jnsgd1na2vs0mg"},{"bike_id":"7ae379da-9440-4378-a690-86693789de4b","system_id":"levelo_inurba_marseille","lat":43.29557,"lon":5.42272,"is_reserved":false,"is_disabled":false,"rental_uris":{"android":"levelo://app?vid=7ae379da-9440-4378-a690-86693789de4b","ios":"levelo://app?vid=7ae379da-9440-4378-a690-86693789de4b"},"vehicle_type_id":"4","last_reported":1727104181,"current_range_meters":10800,"station_id":"ce4bhph2rcd13ifvqhdg","pricing_plan_id":"cebpf4jnsgd1na2vs0mg"},{"bike_id":"02552a84-93ac-4f47-9115-b594cbf16674","system_id":"levelo_inurba_marseille","lat":43.29552,"lon":5.42278,"is_reserved":false,"is_disabled":false,"rental_uris":{"android":"levelo://app?vid=02552a84-93ac-4f47-9115-b594cbf16674","ios":"levelo://app?vid=02552a84-93ac-4f47-9115-b594cbf16674"},"vehicle_type_id":"4","last_reported":1727104181,"current_range_meters":38800,"station_id":"ce4bhph2rcd13ifvqhdg","pricing_plan_id":"cebpf4jnsgd1na2vs0mg"},{"bike_id":"21dd7bb4-856c-4ec9-9f2c-aee3dc5f15a4","system_id":"levelo_inurba_marseille","lat":43.27498,"lon":5.42451,"is_reserved":false,"is_disabled":false,"rental_uris":{"android":"levelo://app?vid=21dd7bb4-856c-4ec9-9f2c-aee3dc5f15a4","ios":"levelo://app?vid=21dd7bb4-856c-4ec9-9f2c-aee3dc5f15a4"},"vehicle_type_id":"4","last_reported":1727104181,"current_range_meters":38000,"station_id":"ce4bhn92rcd13ifvqgrg","pricing_plan_id":"cebpf4jnsgd1na2vs0mg"},{"bike_id":"b49e8aa4-b4d7-4f9d-a437-8d1bbdfe618a","system_id":"levelo_inurba_marseille","lat":43.29558,"lon":5.42285,"is_reserved":false,"is_disabled":false,"rental_uris":{"android":"levelo://app?vid=b49e8aa4-b4d7-4f9d-a437-8d1bbdfe618a","ios":"levelo://app?vid=b49e8aa4-b4d7-4f9d-a437-8d1bbdfe618a"},"vehicle_type_id":"4","last_reported":1727104181,"current_range_meters":38800,"station_id":"ce4bhph2rcd13ifvqhdg","pricing_plan_id":"cebpf4jnsgd1na2vs0mg"},{"bike_id":"fb55b0d4-7a07-4448-a5d2-d862f2f1d002","system_id":"levelo_inurba_marseille","lat":43.278086,"lon":5.407148,"is_reserved":false,"is_disabled":false,"rental_uris":{"android":"levelo://app?vid=fb55b0d4-7a07-4448-a5d2-d862f2f1d002","ios":"levelo://app?vid=fb55b0d4-7a07-4448-a5d2-d862f2f1d002"},"vehicle_type_id":"4","last_reported":1727104181,"current_range_meters":18000,"station_id":"ce4bhnh2rcd13ifvqgtg","pricing_plan_id":"cebpf4jnsgd1na2vs0mg"},{"bike_id":"f51b077d-6d7c-4185-a8bf-70460012e124","system_id":"levelo_inurba_marseille","lat":43.27069,"lon":5.42269,"is_reserved":false,"is_disabled":false,"rental_uris":{"android":"levelo://app?vid=f51b077d-6d7c-4185-a8bf-70460012e124","ios":"levelo://app?vid=f51b077d-6d7c-4185-a8bf-70460012e124"},"vehicle_type_id":"4","last_reported":1727104181,"current_range_meters":38800,"station_id":"ce4bhk92rcd13ifvqgb0","pricing_plan_id":"cebpf4jnsgd1na2vs0mg"},{"bike_id":"b5a165f3-e49a-440a-adfa-052bda61f233","system_id":"levelo_inurba_marseille","lat":43.30546,"lon":5.36544,"is_reserved":false,"is_disabled":false,"rental_uris":{"android":"levelo://app?vid=b5a165f3-e49a-440a-adfa-052bda61f233","ios":"levelo://app?vid=b5a165f3-e49a-440a-adfa-052bda61f233"},"vehicle_type_id":"4","last_reported":1727104181,"current_range_meters":8400,"station_id":"ce4bgs12rcd13ifvqcag","pricing_plan_id":"cebpf4jnsgd1na2vs0mg"},{"bike_id":"1b424706-aab3-4959-99b9-2559df57b28b","system_id":"levelo_inurba_marseille","lat":43.26486,"lon":5.39592,"is_reserved":false,"is_disabled":false,"rental_uris":{"android":"levelo://app?vid=1b424706-aab3-4959-99b9-2559df57b28b","ios":"levelo://app?vid=1b424706-aab3-4959-99b9-2559df57b28b"},"vehicle_type_id":"4","last_reported":1727104181,"current_range_meters":38800,"station_id":"","pricing_plan_id":"cebpf4jnsgd1na2vs0mg"},{"bike_id":"bd7e0d11-60f1-4ba0-84e3-96a9bc39c4f0","system_id":"levelo_inurba_marseille","lat":43.29782,"lon":5.38109,"is_reserved":false,"is_disabled":false,"rental_uris":{"android":"levelo://app?vid=bd7e0d11-60f1-4ba0-84e3-96a9bc39c4f0","ios":"levelo://app?vid=bd7e0d11-60f1-4ba0-84e3-96a9bc39c4f0"},"vehicle_type_id":"4","last_reported":1727104181,"current_range_meters":30000,"station_id":"ce4bgip2rcd13ifvqbb0","pricing_plan_id":"cebpf4jnsgd1na2vs0mg"},{"bike_id":"3145db79-1d5c-467e-89ce-6eb575510c9b","system_id":"levelo_inurba_marseille","lat":43.29027,"lon":5.38134,"is_reserved":false,"is_disabled":false,"rental_uris":{"android":"levelo://app?vid=3145db79-1d5c-467e-89ce-6eb575510c9b","ios":"levelo://app?vid=3145db79-1d5c-467e-89ce-6eb575510c9b"},"vehicle_type_id":"4","last_reported":1727104181,"current_range_meters":2800,"station_id":"ce4bh4p2rcd13ifvqe1g","pricing_plan_id":"cebpf4jnsgd1na2vs0mg"},{"bike_id":"703ee156-c161-4d74-a516-bb389249ac0b","system_id":"levelo_inurba_marseille","lat":43.28848,"lon":5.35851,"is_reserved":false,"is_disabled":false,"rental_uris":{"android":"levelo://app?vid=703ee156-c161-4d74-a516-bb389249ac0b","ios":"levelo://app?vid=703ee156-c161-4d74-a516-bb389249ac0b"},"vehicle_type_id":"4","last_reported":1727104181,"current_range_meters":1600,"station_id":"ce4bhb12rcd13ifvqem0","pricing_plan_id":"cebpf4jnsgd1na2vs0mg"},{"bike_id":"8423da39-c4da-4206-82f9-637f6d0f135d","system_id":"levelo_inurba_marseille","lat":43.23152,"lon":5.43717,"is_reserved":false,"is_disabled":false,"rental_uris":{"android":"levelo://app?vid=8423da39-c4da-4206-82f9-637f6d0f135d","ios":"levelo://app?vid=8423da39-c4da-4206-82f9-637f6d0f135d"},"vehicle_type_id":"4","last_reported":1727104181,"current_range_meters":14400,"station_id":"ce4bhmp2rcd13ifvqgog","pricing_plan_id":"cebpf4jnsgd1na2vs0mg"},{"bike_id":"5461ea1c-76b0-4429-a05e-d6299ebc8ba1","system_id":"levelo_inurba_marseille","lat":43.31726,"lon":5.42399,"is_reserved":false,"is_disabled":false,"rental_uris":{"android":"levelo://app?vid=5461ea1c-76b0-4429-a05e-d6299ebc8ba1","ios":"levelo://app?vid=5461ea1c-76b0-4429-a05e-d6299ebc8ba1"},"vehicle_type_id":"4","last_reported":1727104181,"current_range_meters":37600,"station_id":"ce4bhp92rcd13ifvqhbg","pricing_plan_id":"cebpf4jnsgd1na2vs0mg"},{"bike_id":"86551cfb-f997-4a15-9007-08ecfc7f308c","system_id":"levelo_inurba_marseille","lat":43.27993,"lon":5.41665,"is_reserved":false,"is_disabled":false,"rental_uris":{"android":"levelo://app?vid=86551cfb-f997-4a15-9007-08ecfc7f308c","ios":"levelo://app?vid=86551cfb-f997-4a15-9007-08ecfc7f308c"},"vehicle_type_id":"4","last_reported":1727104181,"current_range_meters":19600,"station_id":"ce4bho12rcd13ifvqh1g","pricing_plan_id":"cebpf4jnsgd1na2vs0mg"},{"bike_id":"086ce38e-540e-4e07-bece-22e101c79a1e","system_id":"levelo_inurba_marseille","lat":43.299,"lon":5.43661,"is_reserved":false,"is_disabled":false,"rental_uris":{"android":"levelo://app?vid=086ce38e-540e-4e07-bece-22e101c79a1e","ios":"levelo://app?vid=086ce38e-540e-4e07-bece-22e101c79a1e"},"vehicle_type_id":"4","last_reported":1727104181,"current_range_meters":6800,"station_id":"ce4bhpp2rcd13ifvqhfg","pricing_plan_id":"cebpf4jnsgd1na2vs0mg"},{"bike_id":"f70ebfce-b1fe-4069-ae59-7e3bda9fac1c","system_id":"levelo_inurba_marseille","lat":43.27809,"lon":5.40709,"is_reserved":false,"is_disabled":false,"rental_uris":{"android":"levelo://app?vid=f70ebfce-b1fe-4069-ae59-7e3bda9fac1c","ios":"levelo://app?vid=f70ebfce-b1fe-4069-ae59-7e3bda9fac1c"},"vehicle_type_id":"4","last_reported":1727104181,"current_range_meters":21600,"station_id":"ce4bhnh2rcd13ifvqgtg","pricing_plan_id":"cebpf4jnsgd1na2vs0mg"},{"bike_id":"595f2362-1d48-4dbe-886c-890010b47b8a","system_id":"levelo_inurba_marseille","lat":43.291999,"lon":5.358041,"is_reserved":false,"is_disabled":false,"rental_uris":{"android":"levelo://app?vid=595f2362-1d48-4dbe-886c-890010b47b8a","ios":"levelo://app?vid=595f2362-1d48-4dbe-886c-890010b47b8a"},"vehicle_type_id":"4","last_reported":1727104181,"current_range_meters":12800,"station_id":"ce4bhb12rcd13ifvqel0","pricing_plan_id":"cebpf4jnsgd1na2vs0mg"},{"bike_id":"22e4a15e-6041-4c71-b288-1c12c69d262d","system_id":"levelo_inurba_marseille","lat":43.33729,"lon":5.39171,"is_reserved":false,"is_disabled":false,"rental_uris":{"android":"levelo://app?vid=22e4a15e-6041-4c71-b288-1c12c69d262d","ios":"levelo://app?vid=22e4a15e-6041-4c71-b288-1c12c69d262d"},"vehicle_type_id":"4","last_reported":1727104181,"current_range_meters":37600,"station_id":"ce4bhr92rcd13ifvqhsg","pricing_plan_id":"cebpf4jnsgd1na2vs0mg"},{"bike_id":"2a41cb4b-0871-431a-bacb-46ce8bdea7b5","system_id":"levelo_inurba_marseille","lat":43.32481,"lon":5.36557,"is_reserved":false,"is_disabled":false,"rental_uris":{"android":"levelo://app?vid=2a41cb4b-0871-431a-bacb-46ce8bdea7b5","ios":"levelo://app?vid=2a41cb4b-0871-431a-bacb-46ce8bdea7b5"},"vehicle_type_id":"4","last_reported":1727104181,"current_range_meters":40000,"station_id":"ce4bhs12rcd13ifvqhvg","pricing_plan_id":"cebpf4jnsgd1na2vs0mg"},{"bike_id":"7905f102-638c-4869-b9c9-384d8c2c6b91","system_id":"levelo_inurba_marseille","lat":43.24401,"lon":5.37122,"is_reserved":false,"is_disabled":false,"rental_uris":{"android":"levelo://app?vid=7905f102-638c-4869-b9c9-384d8c2c6b91","ios":"levelo://app?vid=7905f102-638c-4869-b9c9-384d8c2c6b91"},"vehicle_type_id":"4","last_reported":1727104181,"current_range_meters":27200,"station_id":"ce4bhh92rcd13ifvqfj0","pricing_plan_id":"cebpf4jnsgd1na2vs0mg"},{"bike_id":"4bb1f38a-8ca2-40b6-922b-be8559772cd0","system_id":"levelo_inurba_marseille","lat":43.28275,"lon":5.35067,"is_reserved":false,"is_disabled":false,"rental_uris":{"android":"levelo://app?vid=4bb1f38a-8ca2-40b6-922b-be8559772cd0","ios":"levelo://app?vid=4bb1f38a-8ca2-40b6-922b-be8559772cd0"},"vehicle_type_id":"4","last_reported":1727104181,"current_range_meters":28800,"station_id":"ce4bhbp2rcd13ifvqerg","pricing_plan_id":"cebpf4jnsgd1na2vs0mg"},{"bike_id":"64f95e1c-e5d8-46b2-811f-2da50e3564d3","system_id":"levelo_inurba_marseille","lat":43.296265,"lon":5.377068,"is_reserved":false,"is_disabled":false,"rental_uris":{"android":"levelo://app?vid=64f95e1c-e5d8-46b2-811f-2da50e3564d3","ios":"levelo://app?vid=64f95e1c-e5d8-46b2-811f-2da50e3564d3"},"vehicle_type_id":"4","last_reported":1727104181,"current_range_meters":30000,"station_id":"ce4bh0h2rcd13ifvqd50","pricing_plan_id":"cebpf4jnsgd1na2vs0mg"},{"bike_id":"5791f761-f4cf-4e6a-a729-903c02de71f1","system_id":"levelo_inurba_marseille","lat":43.27073,"lon":5.42275,"is_reserved":false,"is_disabled":false,"rental_uris":{"android":"levelo://app?vid=5791f761-f4cf-4e6a-a729-903c02de71f1","ios":"levelo://app?vid=5791f761-f4cf-4e6a-a729-903c02de71f1"},"vehicle_type_id":"4","last_reported":1727104181,"current_range_meters":9600,"station_id":"ce4bhk92rcd13ifvqgb0","pricing_plan_id":"cebpf4jnsgd1na2vs0mg"},{"bike_id":"02e2d360-f924-4d00-935f-7ac12bb5ffbe","system_id":"levelo_inurba_marseille","lat":43.31115,"lon":5.44719,"is_reserved":false,"is_disabled":false,"rental_uris":{"android":"levelo://app?vid=02e2d360-f924-4d00-935f-7ac12bb5ffbe","ios":"levelo://app?vid=02e2d360-f924-4d00-935f-7ac12bb5ffbe"},"vehicle_type_id":"4","last_reported":1727104181,"current_range_meters":7200,"station_id":"","pricing_plan_id":"cebpf4jnsgd1na2vs0mg"},{"bike_id":"6f0b1b54-d761-4b1f-a72d-3db5f1d37beb","system_id":"levelo_inurba_marseille","lat":43.28036,"lon":5.36955,"is_reserved":false,"is_disabled":false,"rental_uris":{"android":"levelo://app?vid=6f0b1b54-d761-4b1f-a72d-3db5f1d37beb","ios":"levelo://app?vid=6f0b1b54-d761-4b1f-a72d-3db5f1d37beb"},"vehicle_type_id":"4","last_reported":1727104181,"current_range_meters":36800,"station_id":"ce4bha12rcd13ifvqef0","pricing_plan_id":"cebpf4jnsgd1na2vs0mg"},{"bike_id":"a67b4287-da83-43eb-8e86-126974c9a016","system_id":"levelo_inurba_marseille","lat":43.29553,"lon":5.42283,"is_reserved":false,"is_disabled":false,"rental_uris":{"android":"levelo://app?vid=a67b4287-da83-43eb-8e86-126974c9a016","ios":"levelo://app?vid=a67b4287-da83-43eb-8e86-126974c9a016"},"vehicle_type_id":"4","last_reported":1727104181,"current_range_meters":24000,"station_id":"ce4bhph2rcd13ifvqhdg","pricing_plan_id":"cebpf4jnsgd1na2vs0mg"},{"bike_id":"932557ca-c3bb-469a-a8da-76c860c93a99","system_id":"levelo_inurba_marseille","lat":43.28605,"lon":5.37067,"is_reserved":false,"is_disabled":false,"rental_uris":{"android":"levelo://app?vid=932557ca-c3bb-469a-a8da-76c860c93a99","ios":"levelo://app?vid=932557ca-c3bb-469a-a8da-76c860c93a99"},"vehicle_type_id":"4","last_reported":1727104181,"current_range_meters":35200,"station_id":"ce4bht12rcd13ifvqi60","pricing_plan_id":"cebpf4jnsgd1na2vs0mg"},{"bike_id":"231df590-15eb-4c0a-bdf6-dddd3cb861cb","system_id":"levelo_inurba_marseille","lat":43.337444,"lon":5.374475,"is_reserved":false,"is_disabled":false,"rental_uris":{"android":"levelo://app?vid=231df590-15eb-4c0a-bdf6-dddd3cb861cb","ios":"levelo://app?vid=231df590-15eb-4c0a-bdf6-dddd3cb861cb"},"vehicle_type_id":"4","last_reported":1727104181,"current_range_meters":21600,"station_id":"","pricing_plan_id":"cebpf4jnsgd1na2vs0mg"},{"bike_id":"3a852899-4acf-456b-a794-cb1805348b7b","system_id":"levelo_inurba_marseille","lat":43.290009,"lon":5.381376,"is_reserved":false,"is_disabled":false,"rental_uris":{"android":"levelo://app?vid=3a852899-4acf-456b-a794-cb1805348b7b","ios":"levelo://app?vid=3a852899-4acf-456b-a794-cb1805348b7b"},"vehicle_type_id":"4","last_reported":1727104181,"current_range_meters":9600,"station_id":"ce4bh4p2rcd13ifvqe1g","pricing_plan_id":"cebpf4jnsgd1na2vs0mg"},{"bike_id":"3b211465-5030-4ebd-b5e2-78bdfeebc435","system_id":"levelo_inurba_marseille","lat":43.33718,"lon":5.39184,"is_reserved":false,"is_disabled":false,"rental_uris":{"android":"levelo://app?vid=3b211465-5030-4ebd-b5e2-78bdfeebc435","ios":"levelo://app?vid=3b211465-5030-4ebd-b5e2-78bdfeebc435"},"vehicle_type_id":"4","last_reported":1727104181,"current_range_meters":22000,"station_id":"ce4bhr92rcd13ifvqhsg","pricing_plan_id":"cebpf4jnsgd1na2vs0mg"},{"bike_id":"1ee7835c-d56a-4213-bade-e1bdbb4f9237","system_id":"levelo_inurba_marseille","lat":43.2762,"lon":5.361,"is_reserved":false,"is_disabled":false,"rental_uris":{"android":"levelo://app?vid=1ee7835c-d56a-4213-bade-e1bdbb4f9237","ios":"levelo://app?vid=1ee7835c-d56a-4213-bade-e1bdbb4f9237"},"vehicle_type_id":"4","last_reported":1727104181,"current_range_meters":12800,"station_id":"ce4bgj92rcd13ifvqbe0","pricing_plan_id":"cebpf4jnsgd1na2vs0mg"},{"bike_id":"6af536df-a3f6-497c-a4a9-43032fc8874c","system_id":"levelo_inurba_marseille","lat":43.3373,"lon":5.39183,"is_reserved":false,"is_disabled":false,"rental_uris":{"android":"levelo://app?vid=6af536df-a3f6-497c-a4a9-43032fc8874c","ios":"levelo://app?vid=6af536df-a3f6-497c-a4a9-43032fc8874c"},"vehicle_type_id":"4","last_reported":1727104181,"current_range_meters":38800,"station_id":"ce4bhr92rcd13ifvqhsg","pricing_plan_id":"cebpf4jnsgd1na2vs0mg"},{"bike_id":"499c5b95-c9dd-49fa-b391-6277f9ffd965","system_id":"levelo_inurba_marseille","lat":43.24386,"lon":5.37057,"is_reserved":false,"is_disabled":false,"rental_uris":{"android":"levelo://app?vid=499c5b95-c9dd-49fa-b391-6277f9ffd965","ios":"levelo://app?vid=499c5b95-c9dd-49fa-b391-6277f9ffd965"},"vehicle_type_id":"4","last_reported":1727104181,"current_range_meters":23200,"station_id":"ce4bhhh2rcd13ifvqfk0","pricing_plan_id":"cebpf4jnsgd1na2vs0mg"},{"bike_id":"3e156987-96e3-48ad-8746-0582637bdaa1","system_id":"levelo_inurba_marseille","lat":43.29896,"lon":5.43663,"is_reserved":false,"is_disabled":false,"rental_uris":{"android":"levelo://app?vid=3e156987-96e3-48ad-8746-0582637bdaa1","ios":"levelo://app?vid=3e156987-96e3-48ad-8746-0582637bdaa1"},"vehicle_type_id":"4","last_reported":1727104181,"current_range_meters":17200,"station_id":"ce4bhpp2rcd13ifvqhfg","pricing_plan_id":"cebpf4jnsgd1na2vs0mg"},{"bike_id":"eb59940f-2fc5-4624-986d-733bdbb0da1e","system_id":"levelo_inurba_marseille","lat":43.26566,"lon":5.39013,"is_reserved":false,"is_disabled":false,"rental_uris":{"android":"levelo://app?vid=eb59940f-2fc5-4624-986d-733bdbb0da1e","ios":"levelo://app?vid=eb59940f-2fc5-4624-986d-733bdbb0da1e"},"vehicle_type_id":"4","last_reported":1727104181,"current_range_meters":27600,"station_id":"ce4bhe12rcd13ifvqf30","pricing_plan_id":"cebpf4jnsgd1na2vs0mg"},{"bike_id":"44fcb555-3cdd-487f-91bd-e9faebba6f07","system_id":"levelo_inurba_marseille","lat":43.25502,"lon":5.3765,"is_reserved":false,"is_disabled":false,"rental_uris":{"android":"levelo://app?vid=44fcb555-3cdd-487f-91bd-e9faebba6f07","ios":"levelo://app?vid=44fcb555-3cdd-487f-91bd-e9faebba6f07"},"vehicle_type_id":"4","last_reported":1727104181,"current_range_meters":30800,"station_id":"ce4bhh12rcd13ifvqff0","pricing_plan_id":"cebpf4jnsgd1na2vs0mg"},{"bike_id":"3e2f7fb1-5ba0-41be-8955-9c5f7eaade6f","system_id":"levelo_inurba_marseille","lat":43.260565,"lon":5.375128,"is_reserved":false,"is_disabled":false,"rental_uris":{"android":"levelo://app?vid=3e2f7fb1-5ba0-41be-8955-9c5f7eaade6f","ios":"levelo://app?vid=3e2f7fb1-5ba0-41be-8955-9c5f7eaade6f"},"vehicle_type_id":"4","last_reported":1727104181,"current_range_meters":4800,"station_id":"ce4bgqh2rcd13ifvqc4g","pricing_plan_id":"cebpf4jnsgd1na2vs0mg"},{"bike_id":"b563f9ad-6a08-4319-9f7d-53a3a13aea1e","system_id":"levelo_inurba_marseille","lat":43.311096,"lon":5.378086,"is_reserved":false,"is_disabled":false,"rental_uris":{"android":"levelo://app?vid=b563f9ad-6a08-4319-9f7d-53a3a13aea1e","ios":"levelo://app?vid=b563f9ad-6a08-4319-9f7d-53a3a13aea1e"},"vehicle_type_id":"4","last_reported":1727104181,"current_range_meters":25200,"station_id":"ce4bgt92rcd13ifvqcg0","pricing_plan_id":"cebpf4jnsgd1na2vs0mg"},{"bike_id":"ca71c238-0254-4b09-a72e-c6d6f354104d","system_id":"levelo_inurba_marseille","lat":43.24665,"lon":5.38157,"is_reserved":false,"is_disabled":false,"rental_uris":{"android":"levelo://app?vid=ca71c238-0254-4b09-a72e-c6d6f354104d","ios":"levelo://app?vid=ca71c238-0254-4b09-a72e-c6d6f354104d"},"vehicle_type_id":"4","last_reported":1727104181,"current_range_meters":38800,"station_id":"ce4bhih2rcd13ifvqfr0","pricing_plan_id":"cebpf4jnsgd1na2vs0mg"},{"bike_id":"391950b4-1908-45d9-b4af-d934b448ec8e","system_id":"levelo_inurba_marseille","lat":43.28566,"lon":5.39495,"is_reserved":false,"is_disabled":false,"rental_uris":{"android":"levelo://app?vid=391950b4-1908-45d9-b4af-d934b448ec8e","ios":"levelo://app?vid=391950b4-1908-45d9-b4af-d934b448ec8e"},"vehicle_type_id":"4","last_reported":1727104181,"current_range_meters":33600,"station_id":"ce4bh292rcd13ifvqdg0","pricing_plan_id":"cebpf4jnsgd1na2vs0mg"},{"bike_id":"d9d5a7fb-7677-4d95-a5de-5f54a07549ae","system_id":"levelo_inurba_marseille","lat":43.3127,"lon":5.40166,"is_reserved":false,"is_disabled":false,"rental_uris":{"android":"levelo://app?vid=d9d5a7fb-7677-4d95-a5de-5f54a07549ae","ios":"levelo://app?vid=d9d5a7fb-7677-4d95-a5de-5f54a07549ae"},"vehicle_type_id":"4","last_reported":1727104181,"current_range_meters":39200,"station_id":"ce4bh092rcd13ifvqd30","pricing_plan_id":"cebpf4jnsgd1na2vs0mg"},{"bike_id":"39864f8a-807d-45e5-9c4d-211ebdae65ef","system_id":"levelo_inurba_marseille","lat":43.2917,"lon":5.37131,"is_reserved":false,"is_disabled":false,"rental_uris":{"android":"levelo://app?vid=39864f8a-807d-45e5-9c4d-211ebdae65ef","ios":"levelo://app?vid=39864f8a-807d-45e5-9c4d-211ebdae65ef"},"vehicle_type_id":"4","last_reported":1727104181,"current_range_meters":34800,"station_id":"ce4bha92rcd13ifvqeh0","pricing_plan_id":"cebpf4jnsgd1na2vs0mg"},{"bike_id":"036bc613-8444-4ada-ad64-fc7813cdc7ec","system_id":"levelo_inurba_marseille","lat":43.296021,"lon":5.376867,"is_reserved":false,"is_disabled":false,"rental_uris":{"android":"levelo://app?vid=036bc613-8444-4ada-ad64-fc7813cdc7ec","ios":"levelo://app?vid=036bc613-8444-4ada-ad64-fc7813cdc7ec"},"vehicle_type_id":"4","last_reported":1727104181,"current_range_meters":7200,"station_id":"ce4bgnh2rcd13ifvqc0g","pricing_plan_id":"cebpf4jnsgd1na2vs0mg"},{"bike_id":"782577ff-a7b6-4a21-8023-0c49f4d323f2","system_id":"levelo_inurba_marseille","lat":43.29222,"lon":5.36054,"is_reserved":false,"is_disabled":false,"rental_uris":{"android":"levelo://app?vid=782577ff-a7b6-4a21-8023-0c49f4d323f2","ios":"levelo://app?vid=782577ff-a7b6-4a21-8023-0c49f4d323f2"},"vehicle_type_id":"4","last_reported":1727104181,"current_range_meters":10800,"station_id":"ce4bhbh2rcd13ifvqeqg","pricing_plan_id":"cebpf4jnsgd1na2vs0mg"},{"bike_id":"589d0f53-3f9b-4d3c-9ea2-efc6ace29052","system_id":"levelo_inurba_marseille","lat":43.31155,"lon":5.37124,"is_reserved":false,"is_disabled":false,"rental_uris":{"android":"levelo://app?vid=589d0f53-3f9b-4d3c-9ea2-efc6ace29052","ios":"levelo://app?vid=589d0f53-3f9b-4d3c-9ea2-efc6ace29052"},"vehicle_type_id":"4","last_reported":1727104181,"current_range_meters":28400,"station_id":"","pricing_plan_id":"cebpf4jnsgd1na2vs0mg"},{"bike_id":"730f0f67-93d2-4b03-9177-816178596167","system_id":"levelo_inurba_marseille","lat":43.25494,"lon":5.37646,"is_reserved":false,"is_disabled":false,"rental_uris":{"android":"levelo://app?vid=730f0f67-93d2-4b03-9177-816178596167","ios":"levelo://app?vid=730f0f67-93d2-4b03-9177-816178596167"},"vehicle_type_id":"4","last_reported":1727104181,"current_range_meters":19600,"station_id":"ce4bhh12rcd13ifvqff0","pricing_plan_id":"cebpf4jnsgd1na2vs0mg"},{"bike_id":"9db46c23-bb80-4a3b-a3d6-9433b27d9e79","system_id":"levelo_inurba_marseille","lat":43.23195,"lon":5.35547,"is_reserved":false,"is_disabled":false,"rental_uris":{"android":"levelo://app?vid=9db46c23-bb80-4a3b-a3d6-9433b27d9e79","ios":"levelo://app?vid=9db46c23-bb80-4a3b-a3d6-9433b27d9e79"},"vehicle_type_id":"4","last_reported":1727104181,"current_range_meters":7200,"station_id":"ce4bhu92rcd13ifvqi70","pricing_plan_id":"cebpf4jnsgd1na2vs0mg"},{"bike_id":"b5ee1249-8c5a-48e0-a6fd-1212bb88d95a","system_id":"levelo_inurba_marseille","lat":43.3089,"lon":5.39655,"is_reserved":false,"is_disabled":false,"rental_uris":{"android":"levelo://app?vid=b5ee1249-8c5a-48e0-a6fd-1212bb88d95a","ios":"levelo://app?vid=b5ee1249-8c5a-48e0-a6fd-1212bb88d95a"},"vehicle_type_id":"4","last_reported":1727104181,"current_range_meters":37600,"station_id":"ce4bh012rcd13ifvqcv0","pricing_plan_id":"cebpf4jnsgd1na2vs0mg"},{"bike_id":"d2677f31-d766-4a9e-ad34-77771c310a9e","system_id":"levelo_inurba_marseille","lat":43.29532,"lon":5.37501,"is_reserved":false,"is_disabled":false,"rental_uris":{"android":"levelo://app?vid=d2677f31-d766-4a9e-ad34-77771c310a9e","ios":"levelo://app?vid=d2677f31-d766-4a9e-ad34-77771c310a9e"},"vehicle_type_id":"4","last_reported":1727104181,"current_range_meters":10800,"station_id":"ce4bgkp2rcd13ifvqbmg","pricing_plan_id":"cebpf4jnsgd1na2vs0mg"},{"bike_id":"24021be0-6337-47bc-894d-81bfcea6a361","system_id":"levelo_inurba_marseille","lat":43.29029,"lon":5.38133,"is_reserved":false,"is_disabled":false,"rental_uris":{"android":"levelo://app?vid=24021be0-6337-47bc-894d-81bfcea6a361","ios":"levelo://app?vid=24021be0-6337-47bc-894d-81bfcea6a361"},"vehicle_type_id":"4","last_reported":1727104181,"current_range_meters":10000,"station_id":"ce4bh4p2rcd13ifvqe1g","pricing_plan_id":"cebpf4jnsgd1na2vs0mg"},{"bike_id":"dd4d3a51-3d61-4cc9-ac38-7285718175e7","system_id":"levelo_inurba_marseille","lat":43.26055,"lon":5.39392,"is_reserved":false,"is_disabled":false,"rental_uris":{"android":"levelo://app?vid=dd4d3a51-3d61-4cc9-ac38-7285718175e7","ios":"levelo://app?vid=dd4d3a51-3d61-4cc9-ac38-7285718175e7"},"vehicle_type_id":"4","last_reported":1727104181,"current_range_meters":24400,"station_id":"ce4bhh92rcd13ifvqfj0","pricing_plan_id":"cebpf4jnsgd1na2vs0mg"},{"bike_id":"13080899-a68b-4dbc-82c4-f13f454c2dcc","system_id":"levelo_inurba_marseille","lat":43.33034,"lon":5.3906,"is_reserved":false,"is_disabled":false,"rental_uris":{"android":"levelo://app?vid=13080899-a68b-4dbc-82c4-f13f454c2dcc","ios":"levelo://app?vid=13080899-a68b-4dbc-82c4-f13f454c2dcc"},"vehicle_type_id":"4","last_reported":1727104181,"current_range_meters":20400,"station_id":"ce4bhr92rcd13ifvqhrg","pricing_plan_id":"cebpf4jnsgd1na2vs0mg"},{"bike_id":"2347817f-e20e-4496-af0e-1f65e3ba6aef","system_id":"levelo_inurba_marseille","lat":43.32106,"lon":5.36769,"is_reserved":false,"is_disabled":false,"rental_uris":{"android":"levelo://app?vid=2347817f-e20e-4496-af0e-1f65e3ba6aef","ios":"levelo://app?vid=2347817f-e20e-4496-af0e-1f65e3ba6aef"},"vehicle_type_id":"4","last_reported":1727104181,"current_range_meters":30800,"station_id":"ce4bhrh2rcd13ifvqhug","pricing_plan_id":"cebpf4jnsgd1na2vs0mg"},