{"last_updated":1745583584,"ttl":60,"version":"2.2","data":{"bikes":[{"bike_id":"615377ac-2518-4d9b-ba2b-7586152ffd5d","system_id":"levelo_inurba_marseille","lat":43.29069,"lon":5.37167,"is_reserved":false,"is_disabled":false,"rental_uris":{"android":"levelo://app?vid=615377ac-2518-4d9b-ba2b-7586152ffd5d","ios":"levelo://app?vid=615377ac-2518-4d9b-ba2b-7586152ffd5d"},"vehicle_type_id":"4","last_reported":1745583585,"current_range_meters":2800,"station_id":"ce4bh5p2rcd13ifvqe4g","pricing_plan_id":"cebpf4jnsgd1na2vs0mg"},{"bike_id":"8ee96535-8022-4bb1-abe3-1062e6e98b8f","system_id":"levelo_inurba_marseille","lat":43.23966,"lon":5.36625,"is_reserved":false,"is_disabled":false,"rental_uris":{"android":"levelo://app?vid=8ee96535-8022-4bb1-abe3-1062e6e98b8f","ios":"levelo://app?vid=8ee96535-8022-4bb1-abe3-1062e6e98b8f"},"vehicle_type_id":"4","last_reported":1745583585,"current_range_meters":2800,"station_id":"ce4bhi12rcd13ifvqfp0","pricing_plan_id":"cebpf4jnsgd1na2vs0mg"},{"bike_id":"24c99f47-f6d9-45a0-9bf4-2aa53a9f3b7a","system_id":"levelo_inurba_marseille","lat":43.27373,"lon":5.36261,"is_reserved":false,"is_disabled":false,"rental_uris":{"android":"levelo://app?vid=24c99f47-f6d9-45a0-9bf4-2aa53a9f3b7a","ios":"levelo://app?vid=24c99f47-f6d9-45a0-9bf4-2aa53a9f3b7a"},"vehicle_type_id":"4","last_reported":1745583585,"current_range_meters":2800,"station_id":"ce4bhbh2rcd13ifvqeo0","pricing_plan_id":"cebpf4jnsgd1na2vs0mg"},{"bike_id":"34179402-ebd1-4f8c-9c18-4a008fa1b570","system_id":"levelo_inurba_marseille","lat":43.24646,"lon":5.38895,"is_reserved":false,"is_disabled":false,"rental_uris":{"android":"levelo://app?vid=34179402-ebd1-4f8c-9c18-4a008fa1b570","ios":"levelo://app?vid=34179402-ebd1-4f8c-9c18-4a008fa1b570"},"vehicle_type_id":"4","last_reported":1745583585,"current_range_meters":2800,"station_id":"ce4bhg12rcd13ifvqf60","pricing_plan_id":"cebpf4jnsgd1na2vs0mg"},{"bike_id":"c44f78fe-8185-4432-a5be-35deeadf74da","system_id":"levelo_inurba_marseille","lat":43.307037,"lon":5.382496,"is_reserved":false,"is_disabled":false,"rental_uris":{"android":"levelo://app?vid=c44f78fe-8185-4432-a5be-35deeadf74da","ios":"levelo://app?vid=c44f78fe-8185-4432-a5be-35deeadf74da"},"vehicle_type_id":"4","last_reported":1745583585,"current_range_meters":2800,"station_id":"ce4bgt12rcd13ifvqce0","pricing_plan_id":"cebpf4jnsgd1na2vs0mg"},{"bike_id":"2ae0dd73-45fb-4d3e-88eb-7e86c9189726","system_id":"levelo_inurba_marseille","lat":43.27812,"lon":5.40705,"is_reserved":false,"is_disabled":true,"rental_uris":{"android":"levelo://app?vid=2ae0dd73-45fb-4d3e-88eb-7e86c9189726","ios":"levelo://app?vid=2ae0dd73-45fb-4d3e-88eb-7e86c9189726"},"vehicle_type_id":"4","last_reported":1745583585,"current_range_meters":2800,"station_id":"ce4bhnh2rcd13ifvqgtg","pricing_plan_id":"cebpf4jnsgd1na2vs0mg"},{"bike_id":"d26369df-59c6-41f6-9e9e-7b00fe484505","system_id":"levelo_inurba_marseille","lat":43.28101,"lon":5.37856,"is_reserved":false,"is_disabled":false,"rental_uris":{"android":"levelo://app?vid=d26369df-59c6-41f6-9e9e-7b00fe484505","ios":"levelo://app?vid=d26369df-59c6-41f6-9e9e-7b00fe484505"},"vehicle_type_id":"4","last_reported":1745583585,"current_range_meters":2800,"station_id":"ce4bha12rcd13ifvqee0","pricing_plan_id":"cebpf4jnsgd1na2vs0mg"},{"bike_id":"2b483372-ffe5-44e3-bd5a-68dfe4eaa3b6","system_id":"levelo_inurba_marseille","lat":43.2556,"lon":5.38248,"is_reserved":false,"is_disabled":false,"rental_uris":{"android":"levelo://app?vid=2b483372-ffe5-44e3-bd5a-68dfe4eaa3b6","ios":"levelo://app?vid=2b483372-ffe5-44e3-bd5a-68dfe4eaa3b6"},"vehicle_type_id":"4","last_reported":1745583585,"current_range_meters":2800,"station_id":"ce4bhih2rcd13ifvqfs0","pricing_plan_id":"cebpf4jnsgd1na2vs0mg"},{"bike_id":"92c3b340-d069-4f1c-b55b-44c52f19597b","system_id":"levelo_inurba_marseille","lat":43.28281,"lon":5.37784,"is_reserved":false,"is_disabled":true,"rental_uris":{"android":"levelo://app?vid=92c3b340-d069-4f1c-b55b-44c52f19597b","ios":"levelo://app?vid=92c3b340-d069-4f1c-b55b-44c52f19597b"},"vehicle_type_id":"4","last_reported":1745583585,"current_range_meters":3200,"station_id":"","pricing_plan_id":"cebpf4jnsgd1na2vs0mg"},{"bike_id":"6262037e-9f57-43de-ab03-ad8ec57b4a63","system_id":"levelo_inurba_marseille","lat":43.2693,"lon":5.38922,"is_reserved":false,"is_disabled":false,"rental_uris":{"android":"levelo://app?vid=6262037e-9f57-43de-ab03-ad8ec57b4a63","ios":"levelo://app?vid=6262037e-9f57-43de-ab03-ad8ec57b4a63"},"vehicle_type_id":"4","last_reported":1745583585,"current_range_meters":3200,"station_id":"ce4bhhh2rcd13ifvqfl0","pricing_plan_id":"cebpf4jnsgd1na2vs0mg"},{"bike_id":"17ba261c-0d4e-428a-8272-9057c651d980","system_id":"levelo_inurba_marseille","lat":43.273726,"lon":5.362545,"is_reserved":false,"is_disabled":false,"rental_uris":{"android":"levelo://app?vid=17ba261c-0d4e-428a-8272-9057c651d980","ios":"levelo://app?vid=17ba261c-0d4e-428a-8272-9057c651d980"},"vehicle_type_id":"4","last_reported":1745583585,"current_range_meters":3200,"station_id":"ce4bhbh2rcd13ifvqeo0","pricing_plan_id":"cebpf4jnsgd1na2vs0mg"},{"bike_id":"d68c2903-d1d4-4fde-a802-5dc98ebb2c30","system_id":"levelo_inurba_marseille","lat":43.26219,"lon":5.40445,"is_reserved":false,"is_disabled":false,"rental_uris":{"android":"levelo://app?vid=d68c2903-d1d4-4fde-a802-5dc98ebb2c30","ios":"levelo://app?vid=d68c2903-d1d4-4fde-a802-5dc98ebb2c30"},"vehicle_type_id":"4","last_reported":1745583585,"current_range_meters":3200,"station_id":"","pricing_plan_id":"cebpf4jnsgd1na2vs0mg"},{"bike_id":"b8db6014-3d67-4801-94fb-f0ba18d98e9e","system_id":"levelo_inurba_marseille","lat":43.26195,"lon":5.37448,"is_reserved":false,"is_disabled":false,"rental_uris":{"android":"levelo://app?vid=b8db6014-3d67-4801-94fb-f0ba18d98e9e","ios":"levelo://app?vid=b8db6014-3d67-4801-94fb-f0ba18d98e9e"},"vehicle_type_id":"4","last_reported":1745583585,"current_range_meters":3600,"station_id":"ce4bhgp2rcd13ifvqfc0","pricing_plan_id":"cebpf4jnsgd1na2vs0mg"},{"bike_id":"4f749393-01c0-42d5-a228-582333dab8d3","system_id":"levelo_inurba_marseille","lat":43.25081,"lon":5.3952,"is_reserved":false,"is_disabled":false,"rental_uris":{"android":"levelo://app?vid=4f749393-01c0-42d5-a228-582333dab8d3","ios":"levelo://app?vid=4f749393-01c0-42d5-a228-582333dab8d3"},"vehicle_type_id":"4","last_reported":1745583585,"current_range_meters":3600,"station_id":"ce4bhm12rcd13ifvqgkg","pricing_plan_id":"cebpf4jnsgd1na2vs0mg"},{"bike_id":"8cf8da14-e1fd-4fcc-b81a-bf72a0e4400c","system_id":"levelo_inurba_marseille","lat":43.26716,"lon":5.3826,"is_reserved":false,"is_disabled":true,"rental_uris":{"android":"levelo://app?vid=8cf8da14-e1fd-4fcc-b81a-bf72a0e4400c","ios":"levelo://app?vid=8cf8da14-e1fd-4fcc-b81a-bf72a0e4400c"},"vehicle_type_id":"4","last_reported":1745583585,"current_range_meters":3600,"station_id":"ce4bhg92rcd13ifvqf90","pricing_plan_id":"cebpf4jnsgd1na2vs0mg"},{"bike_id":"90b91505-0f24-434c-b971-ad898eadf7f0","system_id":"levelo_inurba_marseille","lat":43.29839,"lon":5.36264,"is_reserved":false,"is_disabled":false,"rental_uris":{"android":"levelo://app?vid=90b91505-0f24-434c-b971-ad898eadf7f0","ios":"levelo://app?vid=90b91505-0f24-434c-b971-ad898eadf7f0"},"vehicle_type_id":"4","last_reported":1745583585,"current_range_meters":3600,"station_id":"ce4bgpp2rcd13ifvqc3g","pricing_plan_id":"cebpf4jnsgd1na2vs0mg"},{"bike_id":"bd9063c6-8704-4e3e-aa0d-8bc4ba0df6ee","system_id":"levelo_inurba_marseille","lat":43.30305,"lon":5.36883,"is_reserved":false,"is_disabled":false,"rental_uris":{"android":"levelo://app?vid=bd9063c6-8704-4e3e-aa0d-8bc4ba0df6ee","ios":"levelo://app?vid=bd9063c6-8704-4e3e-aa0d-8bc4ba0df6ee"},"vehicle_type_id":"4","last_reported":1745583585,"current_range_meters":4000,"station_id":"ce4bgqh2rcd13ifvqc5g","pricing_plan_id":"cebpf4jnsgd1na2vs0mg"},{"bike_id":"77ef87d6-660a-4b36-b626-882b0d1adca0","system_id":"levelo_inurba_marseille","lat":43.26567,"lon":5.37284,"is_reserved":false,"is_disabled":false,"rental_uris":{"android":"levelo://app?vid=77ef87d6-660a-4b36-b626-882b0d1adca0","ios":"levelo://app?vid=77ef87d6-660a-4b36-b626-882b0d1adca0"},"vehicle_type_id":"4","last_reported":1745583585,"current_range_meters":4000,"station_id":"ce4bhg12rcd13ifvqf70","pricing_plan_id":"cebpf4jnsgd1na2vs0mg"},{"bike_id":"5ff399b7-d215-45aa-9bdb-cbe1ca0f6be4","system_id":"levelo_inurba_marseille","lat":43.25589,"lon":5.38215,"is_reserved":false,"is_disabled":false,"rental_uris":{"android":"levelo://app?vid=5ff399b7-d215-45aa-9bdb-cbe1ca0f6be4","ios":"levelo://app?vid=5ff399b7-d215-45aa-9bdb-cbe1ca0f6be4"},"vehicle_type_id":"4","last_reported":1745583585,"current_range_meters":4000,"station_id":"ce4bhih2rcd13ifvqfs0","pricing_plan_id":"cebpf4jnsgd1na2vs0mg"},{"bike_id":"5b59886d-613b-4652-8905-cc7a36f5bc7a","system_id":"levelo_inurba_marseille","lat":43.2582,"lon":5.39429,"is_reserved":false,"is_disabled":false,"rental_uris":{"android":"levelo://app?vid=5b59886d-613b-4652-8905-cc7a36f5bc7a","ios":"levelo://app?vid=5b59886d-613b-4652-8905-cc7a36f5bc7a"},"vehicle_type_id":"4","last_reported":1745583585,"current_range_meters":4000,"station_id":"ce4bhip2rcd13ifvqft0","pricing_plan_id":"cebpf4jnsgd1na2vs0mg"},{"bike_id":"04de76c4-a1ad-45bf-9e28-7c78bfcbb5c0","system_id":"levelo_inurba_marseille","lat":43.2519,"lon":5.37425,"is_reserved":false,"is_disabled":false,"rental_uris":{"android":"levelo://app?vid=04de76c4-a1ad-45bf-9e28-7c78bfcbb5c0","ios":"levelo://app?vid=04de76c4-a1ad-45bf-9e28-7c78bfcbb5c0"},"vehicle_type_id":"4","last_reported":1745583585,"current_range_meters":4000,"station_id":"","pricing_plan_id":"cebpf4jnsgd1na2vs0mg"},{"bike_id":"f044c55a-dd5e-4be3-9cea-2e9430c4837a","system_id":"levelo_inurba_marseille","lat":43.30945,"lon":5.4012,"is_reserved":false,"is_disabled":false,"rental_uris":{"android":"levelo://app?vid=f044c55a-dd5e-4be3-9cea-2e9430c4837a","ios":"levelo://app?vid=f044c55a-dd5e-4be3-9cea-2e9430c4837a"},"vehicle_type_id":"4","last_reported":1745583585,"current_range_meters":4000,"station_id":"ce4bgvp2rcd13ifvqct0","pricing_plan_id":"cebpf4jnsgd1na2vs0mg"},{"bike_id":"e481adcb-bc71-4598-b873-6ef3f3f870da","system_id":"levelo_inurba_marseille","lat":43.292,"lon":5.37377,"is_reserved":false,"is_disabled":false,"rental_uris":{"android":"levelo://app?vid=e481adcb-bc71-4598-b873-6ef3f3f870da","ios":"levelo://app?vid=e481adcb-bc71-4598-b873-6ef3f3f870da"},"vehicle_type_id":"4","last_reported":1745583585,"current_range_meters":4000,"station_id":"","pricing_plan_id":"cebpf4jnsgd1na2vs0mg"},{"bike_id":"c94709b5-881b-4c5f-a4c5-890f883a3127","system_id":"levelo_inurba_marseille","lat":43.279204,"lon":5.379913,"is_reserved":false,"is_disabled":false,"rental_uris":{"android":"levelo://app?vid=c94709b5-881b-4c5f-a4c5-890f883a3127","ios":"levelo://app?vid=c94709b5-881b-4c5f-a4c5-890f883a3127"},"vehicle_type_id":"4","last_reported":1745583585,"current_range_meters":4000,"station_id":"ce4bhf92rcd13ifvqf50","pricing_plan_id":"cebpf4jnsgd1na2vs0mg"},{"bike_id":"d2d55528-9ef1-4e5f-a048-2deac5c737d9","system_id":"levelo_inurba_marseille","lat":43.27494,"lon":5.42435,"is_reserved":false,"is_disabled":false,"rental_uris":{"android":"levelo://app?vid=d2d55528-9ef1-4e5f-a048-2deac5c737d9","ios":"levelo://app?vid=d2d55528-9ef1-4e5f-a048-2deac5c737d9"},"vehicle_type_id":"4","last_reported":1745583585,"current_range_meters":4400,"station_id":"ce4bhn92rcd13ifvqgrg","pricing_plan_id":"cebpf4jnsgd1na2vs0mg"},{"bike_id":"67226af1-8b95-4a0f-8a7a-2610a7929764","system_id":"levelo_inurba_marseille","lat":43.23134,"lon":5.43714,"is_reserved":false,"is_disabled":false,"rental_uris":{"android":"levelo://app?vid=67226af1-8b95-4a0f-8a7a-2610a7929764","ios":"levelo://app?vid=67226af1-8b95-4a0f-8a7a-2610a7929764"},"vehicle_type_id":"4","last_reported":1745583585,"current_range_meters":4400,"station_id":"ce4bhmp2rcd13ifvqgog","pricing_plan_id":"cebpf4jnsgd1na2vs0mg"},{"bike_id":"bd30090b-2b76-451d-9443-f70d159d16fb","system_id":"levelo_inurba_marseille","lat":43.265693,"lon":5.390207,"is_reserved":false,"is_disabled":false,"rental_uris":{"android":"levelo://app?vid=bd30090b-2b76-451d-9443-f70d159d16fb","ios":"levelo://app?vid=bd30090b-2b76-451d-9443-f70d159d16fb"},"vehicle_type_id":"4","last_reported":1745583585,"current_range_meters":4400,"station_id":"ce4bhgp2rcd13ifvqfd0","pricing_plan_id":"cebpf4jnsgd1na2vs0mg"},{"bike_id":"ef2dd97d-a1ad-4167-86f6-e4d7c9cab2e4","system_id":"levelo_inurba_marseille","lat":43.32745,"lon":5.39249,"is_reserved":false,"is_disabled":false,"rental_uris":{"android":"levelo://app?vid=ef2dd97d-a1ad-4167-86f6-e4d7c9cab2e4","ios":"levelo://app?vid=ef2dd97d-a1ad-4167-86f6-e4d7c9cab2e4"},"vehicle_type_id":"4","last_reported":1745583585,"current_range_meters":4800,"station_id":"","pricing_plan_id":"cebpf4jnsgd1na2vs0mg"},{"bike_id":"d25ead1f-a4b1-4f38-a683-a2d7f855925d","system_id":"levelo_inurba_marseille","lat":43.29579,"lon":5.37541,"is_reserved":false,"is_disabled":false,"rental_uris":{"android":"levelo://app?vid=d25ead1f-a4b1-4f38-a683-a2d7f855925d","ios":"levelo://app?vid=d25ead1f-a4b1-4f38-a683-a2d7f855925d"},"vehicle_type_id":"4","last_reported":1745583585,"current_range_meters":4800,"station_id":"ce4bgh92rcd13ifvqb50","pricing_plan_id":"cebpf4jnsgd1na2vs0mg"},{"bike_id":"03eaa7f5-2f83-4de3-9954-40e5449e7738","system_id":"levelo_inurba_marseille","lat":43.28268,"lon":5.35081,"is_reserved":false,"is_disabled":false,"rental_uris":{"android":"levelo://app?vid=03eaa7f5-2f83-4de3-9954-40e5449e7738","ios":"levelo://app?vid=03eaa7f5-2f83-4de3-9954-40e5449e7738"},"vehicle_type_id":"4","last_reported":1745583585,"current_range_meters":4800,"station_id":"ce4bhbp2rcd13ifvqerg","pricing_plan_id":"cebpf4jnsgd1na2vs0mg"},{"bike_id":"1291c428-506a-43ad-b76b-8723adc97379","system_id":"levelo_inurba_marseille","lat":43.31471,"lon":5.37304,"is_reserved":false,"is_disabled":false,"rental_uris":{"android":"levelo://app?vid=1291c428-506a-43ad-b76b-8723adc97379","ios":"levelo://app?vid=1291c428-506a-43ad-b76b-8723adc97379"},"vehicle_type_id":"4","last_reported":1745583585,"current_range_meters":4800,"station_id":"ce4bgt12rcd13ifvqcd0","pricing_plan_id":"cebpf4jnsgd1na2vs0mg"},{"bike_id":"590fb345-d7c9-43f6-94e7-77d16675ac92","system_id":"levelo_inurba_marseille","lat":43.30957,"lon":5.39041,"is_reserved":false,"is_disabled":false,"rental_uris":{"android":"levelo://app?vid=590fb345-d7c9-43f6-94e7-77d16675ac92","ios":"levelo://app?vid=590fb345-d7c9-43f6-94e7-77d16675ac92"},"vehicle_type_id":"4","last_reported":1745583585,"current_range_meters":4800,"station_id":"ce4bgup2rcd13ifvqco0","pricing_plan_id":"cebpf4jnsgd1na2vs0mg"},{"bike_id":"1c442364-a3b8-40b6-9404-00cde11331d3","system_id":"levelo_inurba_marseille","lat":43.25947,"lon":5.40874,"is_reserved":false,"is_disabled":false,"rental_uris":{"android":"levelo://app?vid=1c442364-a3b8-40b6-9404-00cde11331d3","ios":"levelo://app?vid=1c442364-a3b8-40b6-9404-00cde11331d3"},"vehicle_type_id":"4","last_reported":1745583585,"current_range_meters":4800,"station_id":"ce4bhm92rcd13ifvqglg","pricing_plan_id":"cebpf4jnsgd1na2vs0mg"},{"bike_id":"1838670f-0291-4d3d-bd4e-da0afcb3ab89","system_id":"levelo_inurba_marseille","lat":43.23157,"lon":5.43706,"is_reserved":false,"is_disabled":false,"rental_uris":{"android":"levelo://app?vid=1838670f-0291-4d3d-bd4e-da0afcb3ab89","ios":"levelo://app?vid=1838670f-0291-4d3d-bd4e-da0afcb3ab89"},"vehicle_type_id":"4","last_reported":1745583585,"current_range_meters":5600,"station_id":"ce4bhmp2rcd13ifvqgog","pricing_plan_id":"cebpf4jnsgd1na2vs0mg"},{"bike_id":"47c415eb-9c02-4094-bc4c-e5bc6add6cc6","system_id":"levelo_inurba_marseille","lat":43.21187,"lon":5.35073,"is_reserved":false,"is_disabled":false,"rental_uris":{"android":"levelo://app?vid=47c415eb-9c02-4094-bc4c-e5bc6add6cc6","ios":"levelo://app?vid=47c415eb-9c02-4094-bc4c-e5bc6add6cc6"},"vehicle_type_id":"4","last_reported":1745583585,"current_range_meters":5600,"station_id":"st_cvj6sg6p6f1abm77japg","pricing_plan_id":"cebpf4jnsgd1na2vs0mg"},{"bike_id":"6f99535d-4291-4c4d-99f1-c22d0eb9e1f7","system_id":"levelo_inurba_marseille","lat":43.25921,"lon":5.40888,"is_reserved":false,"is_disabled":false,"rental_uris":{"android":"levelo://app?vid=6f99535d-4291-4c4d-99f1-c22d0eb9e1f7","ios":"levelo://app?vid=6f99535d-4291-4c4d-99f1-c22d0eb9e1f7"},"vehicle_type_id":"4","last_reported":1745583585,"current_range_meters":5600,"station_id":"ce4bhm92rcd13ifvqglg","pricing_plan_id":"cebpf4jnsgd1na2vs0mg"},{"bike_id":"346d29de-2051-494d-a13e-6614edc86ef3","system_id":"levelo_inurba_marseille","lat":43.26573,"lon":5.39002,"is_reserved":false,"is_disabled":false,"rental_uris":{"android":"levelo://app?vid=346d29de-2051-494d-a13e-6614edc86ef3","ios":"levelo://app?vid=346d29de-2051-494d-a13e-6614edc86ef3"},"vehicle_type_id":"4","last_reported":1745583585,"current_range_meters":5600,"station_id":"ce4bhe12rcd13ifvqf30","pricing_plan_id":"cebpf4jnsgd1na2vs0mg"},{"bike_id":"2d0978c2-618b-40a0-bce3-92b8e862ef7b","system_id":"levelo_inurba_marseille","lat":43.23154,"lon":5.43698,"is_reserved":false,"is_disabled":false,"rental_uris":{"android":"levelo://app?vid=2d0978c2-618b-40a0-bce3-92b8e862ef7b","ios":"levelo://app?vid=2d0978c2-618b-40a0-bce3-92b8e862ef7b"},"vehicle_type_id":"4","last_reported":1745583585,"current_range_meters":6000,"station_id":"ce4bhmp2rcd13ifvqgog","pricing_plan_id":"cebpf4jnsgd1na2vs0mg"},{"bike_id":"0963bc59-127a-4d5a-abec-d7bb0b818f02","system_id":"levelo_inurba_marseille","lat":43.21192,"lon":5.3507,"is_reserved":false,"is_disabled":false,"rental_uris":{"android":"levelo://app?vid=0963bc59-127a-4d5a-abec-d7bb0b818f02","ios":"levelo://app?vid=0963bc59-127a-4d5a-abec-d7bb0b818f02"},"vehicle_type_id":"4","last_reported":1745583585,"current_range_meters":6000,"station_id":"st_cvj6sg6p6f1abm77japg","pricing_plan_id":"cebpf4jnsgd1na2vs0mg"},{"bike_id":"a5c9c15c-86d8-4c11-b7db-76f3ba460997","system_id":"levelo_inurba_marseille","lat":43.28861,"lon":5.3584,"is_reserved":false,"is_disabled":false,"rental_uris":{"android":"levelo://app?vid=a5c9c15c-86d8-4c11-b7db-76f3ba460997","ios":"levelo://app?vid=a5c9c15c-86d8-4c11-b7db-76f3ba460997"},"vehicle_type_id":"4","last_reported":1745583585,"current_range_meters":6000,"station_id":"ce4bhb12rcd13ifvqem0","pricing_plan_id":"cebpf4jnsgd1na2vs0mg"},{"bike_id":"98635f2b-e15d-453d-a28b-b57fac4e7bb3","system_id":"levelo_inurba_marseille","lat":43.28416,"lon":5.34981,"is_reserved":false,"is_disabled":false,"rental_uris":{"android":"levelo://app?vid=98635f2b-e15d-453d-a28b-b57fac4e7bb3","ios":"levelo://app?vid=98635f2b-e15d-453d-a28b-b57fac4e7bb3"},"vehicle_type_id":"4","last_reported":1745583585,"current_range_meters":6400,"station_id":"ce4bhbh2rcd13ifvqepg","pricing_plan_id":"cebpf4jnsgd1na2vs0mg"},{"bike_id":"33a51fde-3f7e-44f2-9219-ca59573c8d14","system_id":"levelo_inurba_marseille","lat":43.28438,"lon":5.39198,"is_reserved":false,"is_disabled":false,"rental_uris":{"android":"levelo://app?vid=33a51fde-3f7e-44f2-9219-ca59573c8d14","ios":"levelo://app?vid=33a51fde-3f7e-44f2-9219-ca59573c8d14"},"vehicle_type_id":"4","last_reported":1745583585,"current_range_meters":6400,"station_id":"ce4bhoh2rcd13ifvqh5g","pricing_plan_id":"cebpf4jnsgd1na2vs0mg"},{"bike_id":"afa10ca1-b787-4891-8a18-f9d395e25601","system_id":"levelo_inurba_marseille","lat":43.25921,"lon":5.40889,"is_reserved":false,"is_disabled":false,"rental_uris":{"android":"levelo://app?vid=afa10ca1-b787-4891-8a18-f9d395e25601","ios":"levelo://app?vid=afa10ca1-b787-4891-8a18-f9d395e25601"},"vehicle_type_id":"4","last_reported":1745583585,"current_range_meters":6400,"station_id":"ce4bhm92rcd13ifvqglg","pricing_plan_id":"cebpf4jnsgd1na2vs0mg"},{"bike_id":"5c6ae2ff-d6df-4ddc-bb74-e7b77c370c9b","system_id":"levelo_inurba_marseille","lat":43.2827,"lon":5.35066,"is_reserved":false,"is_disabled":false,"rental_uris":{"android":"levelo://app?vid=5c6ae2ff-d6df-4ddc-bb74-e7b77c370c9b","ios":"levelo://app?vid=5c6ae2ff-d6df-4ddc-bb74-e7b77c370c9b"},"vehicle_type_id":"4","last_reported":1745583585,"current_range_meters":6400,"station_id":"ce4bhbp2rcd13ifvqerg","pricing_plan_id":"cebpf4jnsgd1na2vs0mg"},{"bike_id":"141535cf-fb3b-46b7-aef5-8d6d20a2c722","system_id":"levelo_inurba_marseille","lat":43.281219,"lon":5.378364,"is_reserved":false,"is_disabled":false,"rental_uris":{"android":"levelo://app?vid=141535cf-fb3b-46b7-aef5-8d6d20a2c722","ios":"levelo://app?vid=141535cf-fb3b-46b7-aef5-8d6d20a2c722"},"vehicle_type_id":"4","last_reported":1745583585,"current_range_meters":6400,"station_id":"ce4bha12rcd13ifvqee0","pricing_plan_id":"cebpf4jnsgd1na2vs0mg"},{"bike_id":"f3b6ad0c-103a-4505-adf8-01e5a7eb63c0","system_id":"levelo_inurba_marseille","lat":43.30255,"lon":5.40049,"is_reserved":false,"is_disabled":false,"rental_uris":{"android":"levelo://app?vid=f3b6ad0c-103a-4505-adf8-01e5a7eb63c0","ios":"levelo://app?vid=f3b6ad0c-103a-4505-adf8-01e5a7eb63c0"},"vehicle_type_id":"4","last_reported":1745583585,"current_range_meters":6400,"station_id":"ce4bgvh2rcd13ifvqcs0","pricing_plan_id":"cebpf4jnsgd1na2vs0mg"},{"bike_id":"ada62cec-191f-4d0a-a0f7-994269c7a2f5","system_id":"levelo_inurba_marseille","lat":43.28858,"lon":5.35843,"is_reserved":false,"is_disabled":false,"rental_uris":{"android":"levelo://app?vid=ada62cec-191f-4d0a-a0f7-994269c7a2f5","ios":"levelo://app?vid=ada62cec-191f-4d0a-a0f7-994269c7a2f5"},"vehicle_type_id":"4","last_reported":1745583585,"current_range_meters":6800,"station_id":"ce4bhb12rcd13ifvqem0","pricing_plan_id":"cebpf4jnsgd1na2vs0mg"},{"bike_id":"560fc2e9-2dfd-4ec8-a931-882a8ad618f9","system_id":"levelo_inurba_marseille","lat":43.28416,"lon":5.37496,"is_reserved":false,"is_disabled":false,"rental_uris":{"android":"levelo://app?vid=560fc2e9-2dfd-4ec8-a931-882a8ad618f9","ios":"levelo://app?vid=560fc2e9-2dfd-4ec8-a931-882a8ad618f9"},"vehicle_type_id":"4","last_reported":1745583585,"current_range_meters":6800,"station_id":"ce4bh412rcd13ifvqds0","pricing_plan_id":"cebpf4jnsgd1na2vs0mg"},{"bike_id":"c8b0c08a-7f8a-4ba6-af91-bc6cdbb7ede7","system_id":"levelo_inurba_marseille","lat":43.23181,"lon":5.39992,"is_reserved":false,"is_disabled":false,"rental_uris":{"android":"levelo://app?vid=c8b0c08a-7f8a-4ba6-af91-bc6cdbb7ede7","ios":"levelo://app?vid=c8b0c08a-7f8a-4ba6-af91-bc6cdbb7ede7"},"vehicle_type_id":"4","last_reported":1745583585,"current_range_meters":6800,"station_id":"ce4bhn12rcd13ifvqgqg","pricing_plan_id":"cebpf4jnsgd1na2vs0mg"},{"bike_id":"783eaab2-84a9-46e6-ba88-6f042432215a","system_id":"levelo_inurba_marseille","lat":43.29275,"lon":5.36844,"is_reserved":false,"is_disabled":false,"rental_uris":{"android":"levelo://app?vid=783eaab2-84a9-46e6-ba88-6f042432215a","ios":"levelo://app?vid=783eaab2-84a9-46e6-ba88-6f042432215a"},"vehicle_type_id":"4","last_reported":1745583585,"current_range_meters":6800,"station_id":"ce4bhbp2rcd13ifvqesg","pricing_plan_id":"cebpf4jnsgd1na2vs0mg"},{"bike_id":"4ab6bc02-32cf-4c5b-8e00-93978cd7dbda","system_id":"levelo_inurba_marseille","lat":43.34154,"lon":5.40901,"is_reserved":false,"is_disabled":false,"rental_uris":{"android":"levelo://app?vid=4ab6bc02-32cf-4c5b-8e00-93978cd7dbda","ios":"levelo://app?vid=4ab6bc02-32cf-4c5b-8e00-93978cd7dbda"},"vehicle_type_id":"4","last_reported":1745583585,"current_range_meters":6800,"station_id":"ce4bhqh2rcd13ifvqhlg","pricing_plan_id":"cebpf4jnsgd1na2vs0mg"},{"bike_id":"46374c49-3adc-4c5a-8966-e00f056c0d57","system_id":"levelo_inurba_marseille","lat":43.27846,"lon":5.35442,"is_reserved":false,"is_disabled":false,"rental_uris":{"android":"levelo://app?vid=46374c49-3adc-4c5a-8966-e00f056c0d57","ios":"levelo://app?vid=46374c49-3adc-4c5a-8966-e00f056c0d57"},"vehicle_type_id":"4","last_reported":1745583585,"current_range_meters":7200,"station_id":"","pricing_plan_id":"cebpf4jnsgd1na2vs0mg"},{"bike_id":"12298836-21cb-4ea6-9285-b0206bdb4213","system_id":"levelo_inurba_marseille","lat":43.24071,"lon":5.37763,"is_reserved":false,"is_disabled":false,"rental_uris":{"android":"levelo://app?vid=12298836-21cb-4ea6-9285-b0206bdb4213","ios":"levelo://app?vid=12298836-21cb-4ea6-9285-b0206bdb4213"},"vehicle_type_id":"4","last_reported":1745583585,"current_range_meters":7200,"station_id":"ce4bhnp2rcd13ifvqgvg","pricing_plan_id":"cebpf4jnsgd1na2vs0mg"},{"bike_id":"b0e1c58b-c95e-4430-92df-06546213bcda","system_id":"levelo_inurba_marseille","lat":43.30785,"lon":5.37648,"is_reserved":false,"is_disabled":true,"rental_uris":{"android":"levelo://app?vid=b0e1c58b-c95e-4430-92df-06546213bcda","ios":"levelo://app?vid=b0e1c58b-c95e-4430-92df-06546213bcda"},"vehicle_type_id":"4","last_reported":1745583585,"current_range_meters":7200,"station_id":"","pricing_plan_id":"cebpf4jnsgd1na2vs0mg"},{"bike_id":"11d44421-5fa1-4a37-80a0-b6859a143d9b","system_id":"levelo_inurba_marseille","lat":43.26232,"lon":5.40451,"is_reserved":false,"is_disabled":false,"rental_uris":{"android":"levelo://app?vid=11d44421-5fa1-4a37-80a0-b6859a143d9b","ios":"levelo://app?vid=11d44421-5fa1-4a37-80a0-b6859a143d9b"},"vehicle_type_id":"4","last_reported":1745583585,"current_range_meters":7200,"station_id":"ce4bhmh2rcd13ifvqgmg","pricing_plan_id":"cebpf4jnsgd1na2vs0mg"},{"bike_id":"9d16ad86-9ee6-430b-bde1-d7870d768403","system_id":"levelo_inurba_marseille","lat":43.25939,"lon":5.40902,"is_reserved":false,"is_disabled":false,"rental_uris":{"android":"levelo://app?vid=9d16ad86-9ee6-430b-bde1-d7870d768403","ios":"levelo://app?vid=9d16ad86-9ee6-430b-bde1-d7870d768403"},"vehicle_type_id":"4","last_reported":1745583585,"current_range_meters":7200,"station_id":"ce4bhm92rcd13ifvqglg","pricing_plan_id":"cebpf4jnsgd1na2vs0mg"},{"bike_id":"f587b1ad-8767-42fd-bb98-bdf1bb330f9a","system_id":"levelo_inurba_marseille","lat":43.32362,"lon":5.42103,"is_reserved":false,"is_disabled":false,"rental_uris":{"android":"levelo://app?vid=f587b1ad-8767-42fd-bb98-bdf1bb330f9a","ios":"levelo://app?vid=f587b1ad-8767-42fd-bb98-bdf1bb330f9a"},"vehicle_type_id":"4","last_reported":1745583585,"current_range_meters":7200,"station_id":"","pricing_plan_id":"cebpf4jnsgd1na2vs0mg"},{"bike_id":"3039bef6-f4f7-4e65-823b-75a7361d0baf","system_id":"levelo_inurba_marseille","lat":43.29256,"lon":5.37632,"is_reserved":false,"is_disabled":false,"rental_uris":{"android":"levelo://app?vid=3039bef6-f4f7-4e65-823b-75a7361d0baf","ios":"levelo://app?vid=3039bef6-f4f7-4e65-823b-75a7361d0baf"},"vehicle_type_id":"4","last_reported":1745583585,"current_range_meters":7200,"station_id":"ce4bgi12rcd13ifvqb80","pricing_plan_id":"cebpf4jnsgd1na2vs0mg"},{"bike_id":"2c67e45b-93cc-404f-87d7-e1306c838c88","system_id":"levelo_inurba_marseille","lat":43.24169,"lon":5.36399,"is_reserved":false,"is_disabled":false,"rental_uris":{"android":"levelo://app?vid=2c67e45b-93cc-404f-87d7-e1306c838c88","ios":"levelo://app?vid=2c67e45b-93cc-404f-87d7-e1306c838c88"},"vehicle_type_id":"4","last_reported":1745583585,"current_range_meters":8000,"station_id":"cpo36qri1sfpv3e86is0","pricing_plan_id":"cebpf4jnsgd1na2vs0mg"},{"bike_id":"be4a1170-03bd-4183-b6cf-2cc4c141ef3b","system_id":"levelo_inurba_marseille","lat":43.2175,"lon":5.346,"is_reserved":false,"is_disabled":false,"rental_uris":{"android":"levelo://app?vid=be4a1170-03bd-4183-b6cf-2cc4c141ef3b","ios":"levelo://app?vid=be4a1170-03bd-4183-b6cf-2cc4c141ef3b"},"vehicle_type_id":"4","last_reported":1745583585,"current_range_meters":8000,"station_id":"st_cvj6r9ubvosntc0bgbag","pricing_plan_id":"cebpf4jnsgd1na2vs0mg"},{"bike_id":"70998997-0b04-406a-bb73-9b72201968d7","system_id":"levelo_inurba_marseille","lat":43.28945,"lon":5.363768,"is_reserved":false,"is_disabled":false,"rental_uris":{"android":"levelo://app?vid=70998997-0b04-406a-bb73-9b72201968d7","ios":"levelo://app?vid=70998997-0b04-406a-bb73-9b72201968d7"},"vehicle_type_id":"4","last_reported":1745583585,"current_range_meters":8000,"station_id":"ce4bhc92rcd13ifvqetg","pricing_plan_id":"cebpf4jnsgd1na2vs0mg"},{"bike_id":"51e93dd6-45e6-4fd0-a9cf-2fd16dc2b201","system_id":"levelo_inurba_marseille","lat":43.26923,"lon":5.38926,"is_reserved":false,"is_disabled":false,"rental_uris":{"android":"levelo://app?vid=51e93dd6-45e6-4fd0-a9cf-2fd16dc2b201","ios":"levelo://app?vid=51e93dd6-45e6-4fd0-a9cf-2fd16dc2b201"},"vehicle_type_id":"4","last_reported":1745583585,"current_range_meters":8000,"station_id":"ce4bhhh2rcd13ifvqfl0","pricing_plan_id":"cebpf4jnsgd1na2vs0mg"},{"bike_id":"18581b79-962f-43e4-a54b-3d0fb1dd5daf","system_id":"levelo_inurba_marseille","lat":43.23143,"lon":5.43731,"is_reserved":false,"is_disabled":false,"rental_uris":{"android":"levelo://app?vid=18581b79-962f-43e4-a54b-3d0fb1dd5daf","ios":"levelo://app?vid=18581b79-962f-43e4-a54b-3d0fb1dd5daf"},"vehicle_type_id":"4","last_reported":1745583585,"current_range_meters":4000,"station_id":"ce4bhmp2rcd13ifvqgog","pricing_plan_id":"cebpf4jnsgd1na2vs0mg"},{"bike_id":"e37d2043-fda4-4ca9-82bb-acc41a83b731","system_id":"levelo_inurba_marseille","lat":43.21742,"lon":5.34597,"is_reserved":false,"is_disabled":false,"rental_uris":{"android":"levelo://app?vid=e37d2043-fda4-4ca9-82bb-acc41a83b731","ios":"levelo://app?vid=e37d2043-fda4-4ca9-82bb-acc41a83b731"},"vehicle_type_id":"4","last_reported":1745583585,"current_range_meters":8400,"station_id":"st_cvj6r9ubvosntc0bgbag","pricing_plan_id":"cebpf4jnsgd1na2vs0mg"},{"bike_id":"9904681f-2834-4edf-b567-cfe519f4a00f","system_id":"levelo_inurba_marseille","lat":43.26804,"lon":5.40262,"is_reserved":false,"is_disabled":false,"rental_uris":{"android":"levelo://app?vid=9904681f-2834-4edf-b567-cfe519f4a00f","ios":"levelo://app?vid=9904681f-2834-4edf-b567-cfe519f4a00f"},"vehicle_type_id":"4","last_reported":1745583585,"current_range_meters":8400,"station_id":"ce501612rcd8frsf0b60","pricing_plan_id":"cebpf4jnsgd1na2vs0mg"},{"bike_id":"f61f9b03-e055-47b7-9cda-da22b923ec7e","system_id":"levelo_inurba_marseille","lat":43.25944,"lon":5.40904,"is_reserved":false,"is_disabled":false,"rental_uris":{"android":"levelo://app?vid=f61f9b03-e055-47b7-9cda-da22b923ec7e","ios":"levelo://app?vid=f61f9b03-e055-47b7-9cda-da22b923ec7e"},"vehicle_type_id":"4","last_reported":1745583585,"current_range_meters":8400,"station_id":"ce4bhm92rcd13ifvqglg","pricing_plan_id":"cebpf4jnsgd1na2vs0mg"},{"bike_id":"fa08c917-15f0-46bf-9b4b-3ce0e752e62f","system_id":"levelo_inurba_marseille","lat":43.33423,"lon":5.40039,"is_reserved":false,"is_disabled":false,"rental_uris":{"android":"levelo://app?vid=fa08c917-15f0-46bf-9b4b-3ce0e752e62f","ios":"levelo://app?vid=fa08c917-15f0-46bf-9b4b-3ce0e752e62f"},"vehicle_type_id":"4","last_reported":1745583585,"current_range_meters":8400,"station_id":"","pricing_plan_id":"cebpf4jnsgd1na2vs0mg"},{"bike_id":"60ee52f6-3432-4a14-b3b4-c3acf981d864","system_id":"levelo_inurba_marseille","lat":43.21754,"lon":5.34598,"is_reserved":false,"is_disabled":false,"rental_uris":{"android":"levelo://app?vid=60ee52f6-3432-4a14-b3b4-c3acf981d864","ios":"levelo://app?vid=60ee52f6-3432-4a14-b3b4-c3acf981d864"},"vehicle_type_id":"4","last_reported":1745583585,"current_range_meters":8400,"station_id":"st_cvj6r9ubvosntc0bgbag","pricing_plan_id":"cebpf4jnsgd1na2vs0mg"},{"bike_id":"d024718e-7ee5-4368-8955-4a2c9032ac75","system_id":"levelo_inurba_marseille","lat":43.21183,"lon":5.35064,"is_reserved":false,"is_disabled":false,"rental_uris":{"android":"levelo://app?vid=d024718e-7ee5-4368-8955-4a2c9032ac75","ios":"levelo://app?vid=d024718e-7ee5-4368-8955-4a2c9032ac75"},"vehicle_type_id":"4","last_reported":1745583585,"current_range_meters":8400,"station_id":"st_cvj6sg6p6f1abm77japg","pricing_plan_id":"cebpf4jnsgd1na2vs0mg"},{"bike_id":"1af6009a-abf9-46df-a0fc-8ef0d9790a83","system_id":"levelo_inurba_marseille","lat":43.241793,"lon":5.397257,"is_reserved":false,"is_disabled":false,"rental_uris":{"android":"levelo://app?vid=1af6009a-abf9-46df-a0fc-8ef0d9790a83","ios":"levelo://app?vid=1af6009a-abf9-46df-a0fc-8ef0d9790a83"},"vehicle_type_id":"4","last_reported":1745583585,"current_range_meters":8400,"station_id":"ce4bhn12rcd13ifvqgpg","pricing_plan_id":"cebpf4jnsgd1na2vs0mg"},{"bike_id":"73a593ff-9768-414b-b357-8ecb5e92dacd","system_id":"levelo_inurba_marseille","lat":43.23131,"lon":5.43702,"is_reserved":false,"is_disabled":false,"rental_uris":{"android":"levelo://app?vid=73a593ff-9768-414b-b357-8ecb5e92dacd","ios":"levelo://app?vid=73a593ff-9768-414b-b357-8ecb5e92dacd"},"vehicle_type_id":"4","last_reported":1745583585,"current_range_meters":8800,"station_id":"ce4bhmp2rcd13ifvqgog","pricing_plan_id":"cebpf4jnsgd1na2vs0mg"},{"bike_id":"ac89ab96-7aca-4245-a8f5-ef4e9abd7f93","system_id":"levelo_inurba_marseille","lat":43.23151,"lon":5.43715,"is_reserved":false,"is_disabled":false,"rental_uris":{"android":"levelo://app?vid=ac89ab96-7aca-4245-a8f5-ef4e9abd7f93","ios":"levelo://app?vid=ac89ab96-7aca-4245-a8f5-ef4e9abd7f93"},"vehicle_type_id":"4","last_reported":1745583585,"current_range_meters":8800,"station_id":"ce4bhmp2rcd13ifvqgog","pricing_plan_id":"cebpf4jnsgd1na2vs0mg"},{"bike_id":"ab49b0ae-90ee-4214-bbd8-e0867a6763e8","system_id":"levelo_inurba_marseille","lat":43.31255,"lon":5.37167,"is_reserved":false,"is_disabled":false,"rental_uris":{"android":"levelo://app?vid=ab49b0ae-90ee-4214-bbd8-e0867a6763e8","ios":"levelo://app?vid=ab49b0ae-90ee-4214-bbd8-e0867a6763e8"},"vehicle_type_id":"4","last_reported":1745583585,"current_range_meters":8800,"station_id":"","pricing_plan_id":"cebpf4jnsgd1na2vs0mg"},{"bike_id":"e52b8da7-98f9-4e55-a025-10dea4c1f453","system_id":"levelo_inurba_marseille","lat":43.25949,"lon":5.4089,"is_reserved":false,"is_disabled":false,"rental_uris":{"android":"levelo://app?vid=e52b8da7-98f9-4e55-a025-10dea4c1f453","ios":"levelo://app?vid=e52b8da7-98f9-4e55-a025-10dea4c1f453"},"vehicle_type_id":"4","last_reported":1745583585,"current_range_meters":8800,"station_id":"ce4bhm92rcd13ifvqglg","pricing_plan_id":"cebpf4jnsgd1na2vs0mg"},{"bike_id":"d54ef0f7-9ac7-4dc7-af22-0d437d9b8e0b","system_id":"levelo_inurba_marseille","lat":43.21206,"lon":5.35072,"is_reserved":false,"is_disabled":false,"rental_uris":{"android":"levelo://app?vid=d54ef0f7-9ac7-4dc7-af22-0d437d9b8e0b","ios":"levelo://app?vid=d54ef0f7-9ac7-4dc7-af22-0d437d9b8e0b"},"vehicle_type_id":"4","last_reported":1745583585,"current_range_meters":8800,"station_id":"st_cvj6sg6p6f1abm77japg","pricing_plan_id":"cebpf4jnsgd1na2vs0mg"},{"bike_id":"fcf65ee4-cf1e-4e3a-9db1-babf0b44c0cc","system_id":"levelo_inurba_marseille","lat":43.293734,"lon":5.378284,"is_reserved":false,"is_disabled":false,"rental_uris":{"android":"levelo://app?vid=fcf65ee4-cf1e-4e3a-9db1-babf0b44c0cc","ios":"levelo://app?vid=fcf65ee4-cf1e-4e3a-9db1-babf0b44c0cc"},"vehicle_type_id":"4","last_reported":1745583585,"current_range_meters":8800,"station_id":"ce4bgjh2rcd13ifvqbf0","pricing_plan_id":"cebpf4jnsgd1na2vs0mg"},{"bike_id":"1c762556-d1a5-47cf-8b55-79517f258d48","system_id":"levelo_inurba_marseille","lat":43.21194,"lon":5.3507,"is_reserved":false,"is_disabled":false,"rental_uris":{"android":"levelo://app?vid=1c762556-d1a5-47cf-8b55-79517f258d48","ios":"levelo://app?vid=1c762556-d1a5-47cf-8b55-79517f258d48"},"vehicle_type_id":"4","last_reported":1745583585,"current_range_meters":8800,"station_id":"st_cvj6sg6p6f1abm77japg","pricing_plan_id":"cebpf4jnsgd1na2vs0mg"},{"bike_id":"97ace39b-27b1-46d3-a210-d0359303377c","system_id":"levelo_inurba_marseille","lat":43.2848,"lon":5.35889,"is_reserved":false,"is_disabled":false,"rental_uris":{"android":"levelo://app?vid=97ace39b-27b1-46d3-a210-d0359303377c","ios":"levelo://app?vid=97ace39b-27b1-46d3-a210-d0359303377c"},"vehicle_type_id":"4","last_reported":1745583585,"current_range_meters":8800,"station_id":"ce4bhah2rcd13ifvqei0","pricing_plan_id":"cebpf4jnsgd1na2vs0mg"},{"bike_id":"cfa34a75-efec-4eb8-a020-77feca0ad5e2","system_id":"levelo_inurba_marseille","lat":43.21196,"lon":5.35062,"is_reserved":false,"is_disabled":false,"rental_uris":{"android":"levelo://app?vid=cfa34a75-efec-4eb8-a020-77feca0ad5e2","ios":"levelo://app?vid=cfa34a75-efec-4eb8-a020-77feca0ad5e2"},"vehicle_type_id":"4","last_reported":1745583585,"current_range_meters":9200,"station_id":"st_cvj6sg6p6f1abm77japg","pricing_plan_id":"cebpf4jnsgd1na2vs0mg"},{"bike_id":"bf6c94de-e2cd-4c4f-b64c-5d65c480055b","system_id":"levelo_inurba_marseille","lat":43.26567,"lon":5.39018,"is_reserved":false,"is_disabled":false,"rental_uris":{"android":"levelo://app?vid=bf6c94de-e2cd-4c4f-b64c-5d65c480055b","ios":"levelo://app?vid=bf6c94de-e2cd-4c4f-b64c-5d65c480055b"},"vehicle_type_id":"4","last_reported":1745583585,"current_range_meters":9200,"station_id":"ce4bhe12rcd13ifvqf30","pricing_plan_id":"cebpf4jnsgd1na2vs0mg"},{"bike_id":"51fc8618-7628-4ea7-a9b8-bfb7d49c8de8","system_id":"levelo_inurba_marseille","lat":43.30911,"lon":5.36871,"is_reserved":false,"is_disabled":false,"rental_uris":{"android":"levelo://app?vid=51fc8618-7628-4ea7-a9b8-bfb7d49c8de8","ios":"levelo://app?vid=51fc8618-7628-4ea7-a9b8-bfb7d49c8de8"},"vehicle_type_id":"4","last_reported":1745583585,"current_range_meters":9200,"station_id":"ce4bgn92rcd13ifvqbvg","pricing_plan_id":"cebpf4jnsgd1na2vs0mg"},{"bike_id":"354e437b-4d9b-48b6-9dc3-facc12d34346","system_id":"levelo_inurba_marseille","lat":43.24806,"lon":5.37447,"is_reserved":false,"is_disabled":false,"rental_uris":{"android":"levelo://app?vid=354e437b-4d9b-48b6-9dc3-facc12d34346","ios":"levelo://app?vid=354e437b-4d9b-48b6-9dc3-facc12d34346"},"vehicle_type_id":"4","last_reported":1745583585,"current_range_meters":9200,"station_id":"ce4bhgh2rcd13ifvqfb0","pricing_plan_id":"cebpf4jnsgd1na2vs0mg"},{"bike_id":"bcde3a77-f9c9-48b7-8b13-643a2426b61d","system_id":"levelo_inurba_marseille","lat":43.240417,"lon":5.377558,"is_reserved":false,"is_disabled":false,"rental_uris":{"android":"levelo://app?vid=bcde3a77-f9c9-48b7-8b13-643a2426b61d","ios":"levelo://app?vid=bcde3a77-f9c9-48b7-8b13-643a2426b61d"},"vehicle_type_id":"4","last_reported":1745583585,"current_range_meters":9600,"station_id":"ce4bhah2rcd13ifvqei0","pricing_plan_id":"cebpf4jnsgd1na2vs0mg"},{"bike_id":"34172cb6-b4ad-4838-ab0f-4c4a5aa33abd","system_id":"levelo_inurba_marseille","lat":43.33724,"lon":5.39181,"is_reserved":false,"is_disabled":false,"rental_uris":{"android":"levelo://app?vid=34172cb6-b4ad-4838-ab0f-4c4a5aa33abd","ios":"levelo://app?vid=34172cb6-b4ad-4838-ab0f-4c4a5aa33abd"},"vehicle_type_id":"4","last_reported":1745583585,"current_range_meters":9600,"station_id":"ce4bhr92rcd13ifvqhsg","pricing_plan_id":"cebpf4jnsgd1na2vs0mg"},{"bike_id":"0cf2246e-6e2d-4a40-9256-5ce12127940a","system_id":"levelo_inurba_marseille","lat":43.24164,"lon":5.36396,"is_reserved":false,"is_disabled":false,"rental_uris":{"android":"levelo://app?vid=0cf2246e-6e2d-4a40-9256-5ce12127940a","ios":"levelo://app?vid=0cf2246e-6e2d-4a40-9256-5ce12127940a"},"vehicle_type_id":"4","last_reported":1745583585,"current_range_meters":9600,"station_id":"cpo36qri1sfpv3e86is0","pricing_plan_id":"cebpf4jnsgd1na2vs0mg"},{"bike_id":"4b81d817-609e-42bb-8f5a-a4da8735e598","system_id":"levelo_inurba_marseille","lat":43.27373,"lon":5.36237,"is_reserved":false,"is_disabled":false,"rental_uris":{"android":"levelo://app?vid=4b81d817-609e-42bb-8f5a-a4da8735e598","ios":"levelo://app?vid=4b81d817-609e-42bb-8f5a-a4da8735e598"},"vehicle_type_id":"4","last_reported":1745583585,"current_range_meters":9600,"station_id":"ce4bhbh2rcd13ifvqeo0","pricing_plan_id":"cebpf4jnsgd1na2vs0mg"},{"bike_id":"f1712a7d-5871-41e3-9b46-1f2f2ece89a0","system_id":"levelo_inurba_marseille","lat":43.23192,"lon":5.39971,"is_reserved":false,"is_disabled":false,"rental_uris":{"android":"levelo://app?vid=f1712a7d-5871-41e3-9b46-1f2f2ece89a0","ios":"levelo://app?vid=f1712a7d-5871-41e3-9b46-1f2f2ece89a0"},"vehicle_type_id":"4","last_reported":1745583585,"current_range_meters":9600,"station_id":"ce4bhn12rcd13ifvqgqg","pricing_plan_id":"cebpf4jnsgd1na2vs0mg"},{"bike_id":"0a3346ab-7779-4402-84df-2aab1eae278a","system_id":"levelo_inurba_marseille","lat":43.28702,"lon":5.3999,"is_reserved":false,"is_disabled":false,"rental_uris":{"android":"levelo://app?vid=0a3346ab-7779-4402-84df-2aab1eae278a","ios":"levelo://app?vid=0a3346ab-7779-4402-84df-2aab1eae278a"},"vehicle_type_id":"4","last_reported":1745583585,"current_range_meters":10000,"station_id":"ce4bho92rcd13ifvqh3g","pricing_plan_id":"cebpf4jnsgd1na2vs0mg"},{"bike_id":"990ec2da-8bdd-47a3-83c6-eda2a6c38af9","system_id":"levelo_inurba_marseille","lat":43.26794,"lon":5.39419,"is_reserved":false,"is_disabled":false,"rental_uris":{"android":"levelo://app?vid=990ec2da-8bdd-47a3-83c6-eda2a6c38af9","ios":"levelo://app?vid=990ec2da-8bdd-47a3-83c6-eda2a6c38af9"},"vehicle_type_id":"4","last_reported":1745583585,"current_range_meters":10000,"station_id":"ce4bhh12rcd13ifvqfg0","pricing_plan_id":"cebpf4jnsgd1na2vs0mg"},{"bike_id":"547f6279-cbaa-423b-a621-31301de42ba1","system_id":"levelo_inurba_marseille","lat":43.26683,"lon":5.38271,"is_reserved":false,"is_disabled":false,"rental_uris":{"android":"levelo://app?vid=547f6279-cbaa-423b-a621-31301de42ba1","ios":"levelo://app?vid=547f6279-cbaa-423b-a621-31301de42ba1"},"vehicle_type_id":"4","last_reported":1745583585,"current_range_meters":10800,"station_id":"ce4bhg92rcd13ifvqf90","pricing_plan_id":"cebpf4jnsgd1na2vs0mg"},{"bike_id":"9db73e37-5297-44ac-ab37-090136d5585d","system_id":"levelo_inurba_marseille","lat":43.26577,"lon":5.39003,"is_reserved":false,"is_disabled":false,"rental_uris":{"android":"levelo://app?vid=9db73e37-5297-44ac-ab37-090136d5585d","ios":"levelo://app?vid=9db73e37-5297-44ac-ab37-090136d5585d"},"vehicle_type_id":"4","last_reported":1745583585,"current_range_meters":10800,"station_id":"ce4bhe12rcd13ifvqf30","pricing_plan_id":"cebpf4jnsgd1na2vs0mg"},{"bike_id":"5155b214-8852-41cd-9338-874fb2bc45ae","system_id":"levelo_inurba_marseille","lat":43.28005,"lon":5.35649,"is_reserved":false,"is_disabled":false,"rental_uris":{"android":"levelo://app?vid=5155b214-8852-41cd-9338-874fb2bc45ae","ios":"levelo://app?vid=5155b214-8852-41cd-9338-874fb2bc45ae"},"vehicle_type_id":"4","last_reported":1745583585,"current_range_meters":10800,"station_id":"","pricing_plan_id":"cebpf4jnsgd1na2vs0mg"},{"bike_id":"4da82ac5-83fe-462e-b2ef-028dfdeb2bbc","system_id":"levelo_inurba_marseille","lat":43.21753,"lon":5.34601,"is_reserved":false,"is_disabled":false,"rental_uris":{"android":"levelo://app?vid=4da82ac5-83fe-462e-b2ef-028dfdeb2bbc","ios":"levelo://app?vid=4da82ac5-83fe-462e-b2ef-028dfdeb2bbc"},"vehicle_type_id":"4","last_reported":1745583585,"current_range_meters":10800,"station_id":"st_cvj6r9ubvosntc0bgbag","pricing_plan_id":"cebpf4jnsgd1na2vs0mg"},{"bike_id":"8172cd02-20cf-48e5-9b68-7d598a0b8039","system_id":"levelo_inurba_marseille","lat":43.26956,"lon":5.38615,"is_reserved":false,"is_disabled":false,"rental_uris":{"android":"levelo://app?vid=8172cd02-20cf-48e5-9b68-7d598a0b8039","ios":"levelo://app?vid=8172cd02-20cf-48e5-9b68-7d598a0b8039"},"vehicle_type_id":"4","last_reported":1745583585,"current_range_meters":10800,"station_id":"ce4bhh92rcd13ifvqfh0","pricing_plan_id":"cebpf4jnsgd1na2vs0mg"},{"bike_id":"7eb2ec46-b5a6-42c4-a307-e636cc396bde","system_id":"levelo_inurba_marseille","lat":43.33603,"lon":5.4102,"is_reserved":false,"is_disabled":false,"rental_uris":{"android":"levelo://app?vid=7eb2ec46-b5a6-42c4-a307-e636cc396bde","ios":"levelo://app?vid=7eb2ec46-b5a6-42c4-a307-e636cc396bde"},"vehicle_type_id":"4","last_reported":1745583585,"current_range_meters":10800,"station_id":"ce4bhqh2rcd13ifvqhmg","pricing_plan_id":"cebpf4jnsgd1na2vs0mg"},{"bike_id":"87b7cc69-3e0e-49aa-8559-cf5ae8837599","system_id":"levelo_inurba_marseille","lat":43.282673,"lon":5.350593,"is_reserved":false,"is_disabled":false,"rental_uris":{"android":"levelo://app?vid=87b7cc69-3e0e-49aa-8559-cf5ae8837599","ios":"levelo://app?vid=87b7cc69-3e0e-49aa-8559-cf5ae8837599"},"vehicle_type_id":"4","last_reported":1745583585,"current_range_meters":10800,"station_id":"ce4bhbp2rcd13ifvqerg","pricing_plan_id":"cebpf4jnsgd1na2vs0mg"},{"bike_id":"a72f12d5-1b9a-4191-af35-72ae8b4b445a","system_id":"levelo_inurba_marseille","lat":43.29933,"lon":5.36522,"is_reserved":false,"is_disabled":false,"rental_uris":{"android":"levelo://app?vid=a72f12d5-1b9a-4191-af35-72ae8b4b445a","ios":"levelo://app?vid=a72f12d5-1b9a-4191-af35-72ae8b4b445a"},"vehicle_type_id":"4","last_reported":1745583585,"current_range_meters":11200,"station_id":"ce4bgm92rcd13ifvqbr0","pricing_plan_id":"cebpf4jnsgd1na2vs0mg"},{"bike_id":"b99c3ed2-37c4-489b-a2c4-d846fb8fe83a","system_id":"levelo_inurba_marseille","lat":43.27369,"lon":5.36258,"is_reserved":false,"is_disabled":false,"rental_uris":{"android":"levelo://app?vid=b99c3ed2-37c4-489b-a2c4-d846fb8fe83a","ios":"levelo://app?vid=b99c3ed2-37c4-489b-a2c4-d846fb8fe83a"},"vehicle_type_id":"4","last_reported":1745583585,"current_range_meters":11200,"station_id":"ce4bhbh2rcd13ifvqeo0","pricing_plan_id":"cebpf4jnsgd1na2vs0mg"},{"bike_id":"64c83d33-82f8-4913-8852-a3e34555b3eb","system_id":"levelo_inurba_marseille","lat":43.27176,"lon":5.40986,"is_reserved":false,"is_disabled":false,"rental_uris":{"android":"levelo://app?vid=64c83d33-82f8-4913-8852-a3e34555b3eb","ios":"levelo://app?vid=64c83d33-82f8-4913-8852-a3e34555b3eb"},"vehicle_type_id":"4","last_reported":1745583585,"current_range_meters":11200,"station_id":"ce4bhl12rcd13ifvqgf0","pricing_plan_id":"cebpf4jnsgd1na2vs0mg"},{"bike_id":"5c23d361-e9d6-4c97-9856-28a12ee4c34f","system_id":"levelo_inurba_marseille","lat":43.21192,"lon":5.35066,"is_reserved":false,"is_disabled":false,"rental_uris":{"android":"levelo://app?vid=5c23d361-e9d6-4c97-9856-28a12ee4c34f","ios":"levelo://app?vid=5c23d361-e9d6-4c97-9856-28a12ee4c34f"},"vehicle_type_id":"4","last_reported":1745583585,"current_range_meters":11600,"station_id":"st_cvj6sg6p6f1abm77japg","pricing_plan_id":"cebpf4jnsgd1na2vs0mg"},{"bike_id":"c277d786-c133-4e8c-a968-659ad7feca87","system_id":"levelo_inurba_marseille","lat":43.31355,"lon":5.36696,"is_reserved":false,"is_disabled":false,"rental_uris":{"android":"levelo://app?vid=c277d786-c133-4e8c-a968-659ad7feca87","ios":"levelo://app?vid=c277d786-c133-4e8c-a968-659ad7feca87"},"vehicle_type_id":"4","last_reported":1745583585,"current_range_meters":11600,"station_id":"ce4bgr92rcd13ifvqc6g","pricing_plan_id":"cebpf4jnsgd1na2vs0mg"},{"bike_id":"236e67af-5de5-4b8a-a883-3dcb390cc2ce","system_id":"levelo_inurba_marseille","lat":43.2762,"lon":5.36113,"is_reserved":false,"is_disabled":false,"rental_uris":{"android":"levelo://app?vid=236e67af-5de5-4b8a-a883-3dcb390cc2ce","ios":"levelo://app?vid=236e67af-5de5-4b8a-a883-3dcb390cc2ce"},"vehicle_type_id":"4","last_reported":1745583585,"current_range_meters":11600,"station_id":"ce4bgj92rcd13ifvqbe0","pricing_plan_id":"cebpf4jnsgd1na2vs0mg"},{"bike_id":"5c8dde23-03af-4ec7-8c64-b6a7b95cfa5a","system_id":"levelo_inurba_marseille","lat":43.3371,"lon":5.39195,"is_reserved":false,"is_disabled":false,"rental_uris":{"android":"levelo://app?vid=5c8dde23-03af-4ec7-8c64-b6a7b95cfa5a","ios":"levelo://app?vid=5c8dde23-03af-4ec7-8c64-b6a7b95cfa5a"},"vehicle_type_id":"4","last_reported":1745583585,"current_range_meters":11600,"station_id":"ce4bhr92rcd13ifvqhsg","pricing_plan_id":"cebpf4jnsgd1na2vs0mg"},{"bike_id":"bd95f0bb-c5b1-4d5c-837c-b505e5069d47","system_id":"levelo_inurba_marseille","lat":43.33196,"lon":5.39754,"is_reserved":false,"is_disabled":false,"rental_uris":{"android":"levelo://app?vid=bd95f0bb-c5b1-4d5c-837c-b505e5069d47","ios":"levelo://app?vid=bd95f0bb-c5b1-4d5c-837c-b505e5069d47"},"vehicle_type_id":"4","last_reported":1745583585,"current_range_meters":11600,"station_id":"","pricing_plan_id":"cebpf4jnsgd1na2vs0mg"},{"bike_id":"e890fb17-1925-4733-9799-1049acc95b8b","system_id":"levelo_inurba_marseille","lat":43.27176,"lon":5.40984,"is_reserved":false,"is_disabled":false,"rental_uris":{"android":"levelo://app?vid=e890fb17-1925-4733-9799-1049acc95b8b","ios":"levelo://app?vid=e890fb17-1925-4733-9799-1049acc95b8b"},"vehicle_type_id":"4","last_reported":1745583585,"current_range_meters":11600,"station_id":"ce4bhl12rcd13ifvqgf0","pricing_plan_id":"cebpf4jnsgd1na2vs0mg"},{"bike_id":"d529c620-ba44-47ae-afb1-aea437fd8309","system_id":"levelo_inurba_marseille","lat":43.29278,"lon":5.40119,"is_reserved":false,"is_disabled":false,"rental_uris":{"android":"levelo://app?vid=d529c620-ba44-47ae-afb1-aea437fd8309","ios":"levelo://app?vid=d529c620-ba44-47ae-afb1-aea437fd8309"},"vehicle_type_id":"4","last_reported":1745583585,"current_range_meters":12000,"station_id":"ce4bh312rcd13ifvqdk0","pricing_plan_id":"cebpf4jnsgd1na2vs0mg"},{"bike_id":"75d9306a-0aba-49ad-937b-b23fa3a7015c","system_id":"levelo_inurba_marseille","lat":43.27498,"lon":5.42449,"is_reserved":false,"is_disabled":false,"rental_uris":{"android":"levelo://app?vid=75d9306a-0aba-49ad-937b-b23fa3a7015c","ios":"levelo://app?vid=75d9306a-0aba-49ad-937b-b23fa3a7015c"},"vehicle_type_id":"4","last_reported":1745583585,"current_range_meters":12000,"station_id":"ce4bhn92rcd13ifvqgrg","pricing_plan_id":"cebpf4jnsgd1na2vs0mg"},{"bike_id":"05478e01-3d9a-48a1-ba7c-fcc8b81dfe26","system_id":"levelo_inurba_marseille","lat":43.29538,"lon":5.42271,"is_reserved":false,"is_disabled":false,"rental_uris":{"android":"levelo://app?vid=05478e01-3d9a-48a1-ba7c-fcc8b81dfe26","ios":"levelo://app?vid=05478e01-3d9a-48a1-ba7c-fcc8b81dfe26"},"vehicle_type_id":"4","last_reported":1745583585,"current_range_meters":12000,"station_id":"ce4bhph2rcd13ifvqhdg","pricing_plan_id":"cebpf4jnsgd1na2vs0mg"},{"bike_id":"8865cb75-6451-4d69-95ba-396b9e24649e","system_id":"levelo_inurba_marseille","lat":43.2175,"lon":5.346,"is_reserved":false,"is_disabled":false,"rental_uris":{"android":"levelo://app?vid=8865cb75-6451-4d69-95ba-396b9e24649e","ios":"levelo://app?vid=8865cb75-6451-4d69-95ba-396b9e24649e"},"vehicle_type_id":"4","last_reported":1745583585,"current_range_meters":12000,"station_id":"st_cvj6r9ubvosntc0bgbag","pricing_plan_id":"cebpf4jnsgd1na2vs0mg"},{"bike_id":"dc01f0b5-b1ff-492a-9187-c2aa24895f43","system_id":"levelo_inurba_marseille","lat":43.23187,"lon":5.39992,"is_reserved":false,"is_disabled":false,"rental_uris":{"android":"levelo://app?vid=dc01f0b5-b1ff-492a-9187-c2aa24895f43","ios":"levelo://app?vid=dc01f0b5-b1ff-492a-9187-c2aa24895f43"},"vehicle_type_id":"4","last_reported":1745583585,"current_range_meters":12000,"station_id":"ce4bhn12rcd13ifvqgqg","pricing_plan_id":"cebpf4jnsgd1na2vs0mg"},{"bike_id":"ac27c7fc-9661-46b5-ad94-f709eec8406d","system_id":"levelo_inurba_marseille","lat":43.26569,"lon":5.39003,"is_reserved":false,"is_disabled":false,"rental_uris":{"android":"levelo://app?vid=ac27c7fc-9661-46b5-ad94-f709eec8406d","ios":"levelo://app?vid=ac27c7fc-9661-46b5-ad94-f709eec8406d"},"vehicle_type_id":"4","last_reported":1745583585,"current_range_meters":12400,"station_id":"ce4bhe12rcd13ifvqf30","pricing_plan_id":"cebpf4jnsgd1na2vs0mg"},{"bike_id":"dd3d8667-a438-4ffa-828c-17e1dead7107","system_id":"levelo_inurba_marseille","lat":43.26039,"lon":5.37538,"is_reserved":false,"is_disabled":false,"rental_uris":{"android":"levelo://app?vid=dd3d8667-a438-4ffa-828c-17e1dead7107","ios":"levelo://app?vid=dd3d8667-a438-4ffa-828c-17e1dead7107"},"vehicle_type_id":"4","last_reported":1745583585,"current_range_meters":12400,"station_id":"ce4bhgh2rcd13ifvqfa0","pricing_plan_id":"cebpf4jnsgd1na2vs0mg"},{"bike_id":"f07b3c5b-fd4b-4f93-8a6b-c152845e8f8c","system_id":"levelo_inurba_marseille","lat":43.31984,"lon":5.38158,"is_reserved":false,"is_disabled":false,"rental_uris":{"android":"levelo://app?vid=f07b3c5b-fd4b-4f93-8a6b-c152845e8f8c","ios":"levelo://app?vid=f07b3c5b-fd4b-4f93-8a6b-c152845e8f8c"},"vehicle_type_id":"4","last_reported":1745583585,"current_range_meters":12400,"station_id":"ce4bhr12rcd13ifvqhpg","pricing_plan_id":"cebpf4jnsgd1na2vs0mg"},{"bike_id":"00dd4008-b8cd-459b-8f24-a4218f6e8179","system_id":"levelo_inurba_marseille","lat":43.23193,"lon":5.35559,"is_reserved":false,"is_disabled":false,"rental_uris":{"android":"levelo://app?vid=00dd4008-b8cd-459b-8f24-a4218f6e8179","ios":"levelo://app?vid=00dd4008-b8cd-459b-8f24-a4218f6e8179"},"vehicle_type_id":"4","last_reported":1745583585,"current_range_meters":12800,"station_id":"ce4bhu92rcd13ifvqi70","pricing_plan_id":"cebpf4jnsgd1na2vs0mg"},{"bike_id":"e9b40b8c-aa8b-493b-9704-ac204b4fdb74","system_id":"levelo_inurba_marseille","lat":43.22504,"lon":5.34781,"is_reserved":false,"is_disabled":false,"rental_uris":{"android":"levelo://app?vid=e9b40b8c-aa8b-493b-9704-ac204b4fdb74","ios":"levelo://app?vid=e9b40b8c-aa8b-493b-9704-ac204b4fdb74"},"vehicle_type_id":"4","last_reported":1745583585,"current_range_meters":12800,"station_id":"st_cvj5dfep6f1abm77gieg","pricing_plan_id":"cebpf4jnsgd1na2vs0mg"},{"bike_id":"3b67d4f6-f026-44d9-aea0-adfdc0d7d1b4","system_id":"levelo_inurba_marseille","lat":43.240776,"lon":5.377489,"is_reserved":false,"is_disabled":false,"rental_uris":{"android":"levelo://app?vid=3b67d4f6-f026-44d9-aea0-adfdc0d7d1b4","ios":"levelo://app?vid=3b67d4f6-f026-44d9-aea0-adfdc0d7d1b4"},"vehicle_type_id":"4","last_reported":1745583585,"current_range_meters":12800,"station_id":"ce4bhnp2rcd13ifvqgvg","pricing_plan_id":"cebpf4jnsgd1na2vs0mg"},{"bike_id":"03ec5728-5a8d-475c-be69-d63e54c8d683","system_id":"levelo_inurba_marseille","lat":43.32463,"lon":5.36729,"is_reserved":false,"is_disabled":false,"rental_uris":{"android":"levelo://app?vid=03ec5728-5a8d-475c-be69-d63e54c8d683","ios":"levelo://app?vid=03ec5728-5a8d-475c-be69-d63e54c8d683"},"vehicle_type_id":"4","last_reported":1745583585,"current_range_meters":13600,"station_id":"","pricing_plan_id":"cebpf4jnsgd1na2vs0mg"},{"bike_id":"54056de7-f9d1-4be0-89ac-a3ed524c66a4","system_id":"levelo_inurba_marseille","lat":43.26032,"lon":5.37551,"is_reserved":false,"is_disabled":false,"rental_uris":{"android":"levelo://app?vid=54056de7-f9d1-4be0-89ac-a3ed524c66a4","ios":"levelo://app?vid=54056de7-f9d1-4be0-89ac-a3ed524c66a4"},"vehicle_type_id":"4","last_reported":1745583585,"current_range_meters":13600,"station_id":"ce4bhgh2rcd13ifvqfa0","pricing_plan_id":"cebpf4jnsgd1na2vs0mg"},{"bike_id":"30f451fe-d801-4444-850a-e5104faa83ad","system_id":"levelo_inurba_marseille","lat":43.27614,"lon":5.36101,"is_reserved":false,"is_disabled":false,"rental_uris":{"android":"levelo://app?vid=30f451fe-d801-4444-850a-e5104faa83ad","ios":"levelo://app?vid=30f451fe-d801-4444-850a-e5104faa83ad"},"vehicle_type_id":"4","last_reported":1745583585,"current_range_meters":13600,"station_id":"ce4bgj92rcd13ifvqbe0","pricing_plan_id":"cebpf4jnsgd1na2vs0mg"},{"bike_id":"f6e01836-ec3d-43cc-a61f-00fcf524be84","system_id":"levelo_inurba_marseille","lat":43.29274,"lon":5.36845,"is_reserved":false,"is_disabled":false,"rental_uris":{"android":"levelo://app?vid=f6e01836-ec3d-43cc-a61f-00fcf524be84","ios":"levelo://app?vid=f6e01836-ec3d-43cc-a61f-00fcf524be84"},"vehicle_type_id":"4","last_reported":1745583585,"current_range_meters":13600,"station_id":"ce4bhbp2rcd13ifvqesg","pricing_plan_id":"cebpf4jnsgd1na2vs0mg"},{"bike_id":"bf5ca3d2-7dd7-4231-8522-112d9995f86a","system_id":"levelo_inurba_marseille","lat":43.26198,"lon":5.3745,"is_reserved":false,"is_disabled":false,"rental_uris":{"android":"levelo://app?vid=bf5ca3d2-7dd7-4231-8522-112d9995f86a","ios":"levelo://app?vid=bf5ca3d2-7dd7-4231-8522-112d9995f86a"},"vehicle_type_id":"4","last_reported":1745583585,"current_range_meters":13600,"station_id":"ce4bhgp2rcd13ifvqfc0","pricing_plan_id":"cebpf4jnsgd1na2vs0mg"},{"bike_id":"09f0c68c-1358-4a6c-b576-782f2e0dd638","system_id":"levelo_inurba_marseille","lat":43.28659,"lon":5.36336,"is_reserved":false,"is_disabled":false,"rental_uris":{"android":"levelo://app?vid=09f0c68c-1358-4a6c-b576-782f2e0dd638","ios":"levelo://app?vid=09f0c68c-1358-4a6c-b576-782f2e0dd638"},"vehicle_type_id":"4","last_reported":1745583585,"current_range_meters":14000,"station_id":"ce4bhah2rcd13ifvqej0","pricing_plan_id":"cebpf4jnsgd1na2vs0mg"},{"bike_id":"bff532e1-58f7-4601-87b6-d6ae8925747c","system_id":"levelo_inurba_marseille","lat":43.25927,"lon":5.40892,"is_reserved":false,"is_disabled":false,"rental_uris":{"android":"levelo://app?vid=bff532e1-58f7-4601-87b6-d6ae8925747c","ios":"levelo://app?vid=bff532e1-58f7-4601-87b6-d6ae8925747c"},"vehicle_type_id":"4","last_reported":1745583585,"current_range_meters":14000,"station_id":"ce4bhm92rcd13ifvqglg","pricing_plan_id":"cebpf4jnsgd1na2vs0mg"},{"bike_id":"e2dcabcf-64d8-4394-bb9a-ff877bee611a","system_id":"levelo_inurba_marseille","lat":43.32051,"lon":5.41511,"is_reserved":false,"is_disabled":false,"rental_uris":{"android":"levelo://app?vid=e2dcabcf-64d8-4394-bb9a-ff877bee611a","ios":"levelo://app?vid=e2dcabcf-64d8-4394-bb9a-ff877bee611a"},"vehicle_type_id":"4","last_reported":1745583585,"current_range_meters":14000,"station_id":"ce4bhq92rcd13ifvqhkg","pricing_plan_id":"cebpf4jnsgd1na2vs0mg"},{"bike_id":"3e5a5bec-d3d4-45ee-9c95-7c9b8e7a4c49","system_id":"levelo_inurba_marseille","lat":43.32365,"lon":5.36744,"is_reserved":false,"is_disabled":false,"rental_uris":{"android":"levelo://app?vid=3e5a5bec-d3d4-45ee-9c95-7c9b8e7a4c49","ios":"levelo://app?vid=3e5a5bec-d3d4-45ee-9c95-7c9b8e7a4c49"},"vehicle_type_id":"4","last_reported":1745583585,"current_range_meters":14000,"station_id":"ce4bhsh2rcd13ifvqi2g","pricing_plan_id":"cebpf4jnsgd1na2vs0mg"},{"bike_id":"4c11ff0f-a579-4f78-9960-a443174b0bdd","system_id":"levelo_inurba_marseille","lat":43.21187,"lon":5.35076,"is_reserved":false,"is_disabled":false,"rental_uris":{"android":"levelo://app?vid=4c11ff0f-a579-4f78-9960-a443174b0bdd","ios":"levelo://app?vid=4c11ff0f-a579-4f78-9960-a443174b0bdd"},"vehicle_type_id":"4","last_reported":1745583585,"current_range_meters":14000,"station_id":"st_cvj6sg6p6f1abm77japg","pricing_plan_id":"cebpf4jnsgd1na2vs0mg"},{"bike_id":"7fc5ed43-b2c3-4cf7-b081-488a7cbcc12f","system_id":"levelo_inurba_marseille","lat":43.33027,"lon":5.39032,"is_reserved":false,"is_disabled":false,"rental_uris":{"android":"levelo://app?vid=7fc5ed43-b2c3-4cf7-b081-488a7cbcc12f","ios":"levelo://app?vid=7fc5ed43-b2c3-4cf7-b081-488a7cbcc12f"},"vehicle_type_id":"4","last_reported":1745583585,"current_range_meters":14000,"station_id":"ce4bhr92rcd13ifvqhrg","pricing_plan_id":"cebpf4jnsgd1na2vs0mg"},{"bike_id":"2bcccb43-69dd-44e4-8a75-02e465a1f932","system_id":"levelo_inurba_marseille","lat":43.28264,"lon":5.35057,"is_reserved":false,"is_disabled":false,"rental_uris":{"android":"levelo://app?vid=2bcccb43-69dd-44e4-8a75-02e465a1f932","ios":"levelo://app?vid=2bcccb43-69dd-44e4-8a75-02e465a1f932"},"vehicle_type_id":"4","last_reported":1745583585,"current_range_meters":14000,"station_id":"ce4bhbp2rcd13ifvqerg","pricing_plan_id":"cebpf4jnsgd1na2vs0mg"},{"bike_id":"452f2c91-8a42-4b2e-b84b-b27753a7d0e7","system_id":"levelo_inurba_marseille","lat":43.33475,"lon":5.3611,"is_reserved":false,"is_disabled":false,"rental_uris":{"android":"levelo://app?vid=452f2c91-8a42-4b2e-b84b-b27753a7d0e7","ios":"levelo://app?vid=452f2c91-8a42-4b2e-b84b-b27753a7d0e7"},"vehicle_type_id":"4","last_reported":1745583585,"current_range_meters":14400,"station_id":"","pricing_plan_id":"cebpf4jnsgd1na2vs0mg"},{"bike_id":"a5dd102c-29df-4586-ba4f-efced2cf91b2","system_id":"levelo_inurba_marseille","lat":43.24084,"lon":5.37735,"is_reserved":false,"is_disabled":false,"rental_uris":{"android":"levelo://app?vid=a5dd102c-29df-4586-ba4f-efced2cf91b2","ios":"levelo://app?vid=a5dd102c-29df-4586-ba4f-efced2cf91b2"},"vehicle_type_id":"4","last_reported":1745583585,"current_range_meters":14400,"station_id":"ce4bhnp2rcd13ifvqgvg","pricing_plan_id":"cebpf4jnsgd1na2vs0mg"},{"bike_id":"181d2c61-08ea-4a46-9dde-dde9518abf5e","system_id":"levelo_inurba_marseille","lat":43.23149,"lon":5.43717,"is_reserved":false,"is_disabled":false,"rental_uris":{"android":"levelo://app?vid=181d2c61-08ea-4a46-9dde-dde9518abf5e","ios":"levelo://app?vid=181d2c61-08ea-4a46-9dde-dde9518abf5e"},"vehicle_type_id":"4","last_reported":1745583585,"current_range_meters":14400,"station_id":"ce4bhmp2rcd13ifvqgog","pricing_plan_id":"cebpf4jnsgd1na2vs0mg"},{"bike_id":"0bfff189-ec6a-4439-b345-e9dd168ab867","system_id":"levelo_inurba_marseille","lat":43.337342,"lon":5.391721,"is_reserved":false,"is_disabled":false,"rental_uris":{"android":"levelo://app?vid=0bfff189-ec6a-4439-b345-e9dd168ab867","ios":"levelo://app?vid=0bfff189-ec6a-4439-b345-e9dd168ab867"},"vehicle_type_id":"4","last_reported":1745583585,"current_range_meters":14400,"station_id":"ce4bhr92rcd13ifvqhsg","pricing_plan_id":"cebpf4jnsgd1na2vs0mg"},{"bike_id":"6a967f5e-2cfc-4b80-9f27-d8e7966cbe05","system_id":"levelo_inurba_marseille","lat":43.29026,"lon":5.38129,"is_reserved":false,"is_disabled":false,"rental_uris":{"android":"levelo://app?vid=6a967f5e-2cfc-4b80-9f27-d8e7966cbe05","ios":"levelo://app?vid=6a967f5e-2cfc-4b80-9f27-d8e7966cbe05"},"vehicle_type_id":"4","last_reported":1745583585,"current_range_meters":14800,"station_id":"ce4bh4p2rcd13ifvqe1g","pricing_plan_id":"cebpf4jnsgd1na2vs0mg"},{"bike_id":"9198cc87-fd2d-4173-828c-038624deb410","system_id":"levelo_inurba_marseille","lat":43.23195,"lon":5.39979,"is_reserved":false,"is_disabled":false,"rental_uris":{"android":"levelo://app?vid=9198cc87-fd2d-4173-828c-038624deb410","ios":"levelo://app?vid=9198cc87-fd2d-4173-828c-038624deb410"},"vehicle_type_id":"4","last_reported":1745583585,"current_range_meters":15200,"station_id":"ce4bhn12rcd13ifvqgqg","pricing_plan_id":"cebpf4jnsgd1na2vs0mg"},{"bike_id":"9a1c0be7-bd1a-4081-ab84-3ef05258b407","system_id":"levelo_inurba_marseille","lat":43.22962,"lon":5.35346,"is_reserved":false,"is_disabled":false,"rental_uris":{"android":"levelo://app?vid=9a1c0be7-bd1a-4081-ab84-3ef05258b407","ios":"levelo://app?vid=9a1c0be7-bd1a-4081-ab84-3ef05258b407"},"vehicle_type_id":"4","last_reported":1745583585,"current_range_meters":15200,"station_id":"cpo3532slgdg3j2ikp40","pricing_plan_id":"cebpf4jnsgd1na2vs0mg"},{"bike_id":"bfd3f9cf-e34a-4312-b8ed-39e29b288050","system_id":"levelo_inurba_marseille","lat":43.29029,"lon":5.39978,"is_reserved":false,"is_disabled":false,"rental_uris":{"android":"levelo://app?vid=bfd3f9cf-e34a-4312-b8ed-39e29b288050","ios":"levelo://app?vid=bfd3f9cf-e34a-4312-b8ed-39e29b288050"},"vehicle_type_id":"4","last_reported":1745583585,"current_range_meters":15200,"station_id":"ce4bh392rcd13ifvqdm0","pricing_plan_id":"cebpf4jnsgd1na2vs0mg"},{"bike_id":"2cc49b22-90ed-40b7-8f38-e015facc8413","system_id":"levelo_inurba_marseille","lat":43.299,"lon":5.43669,"is_reserved":false,"is_disabled":false,"rental_uris":{"android":"levelo://app?vid=2cc49b22-90ed-40b7-8f38-e015facc8413","ios":"levelo://app?vid=2cc49b22-90ed-40b7-8f38-e015facc8413"},"vehicle_type_id":"4","last_reported":1745583585,"current_range_meters":15200,"station_id":"ce4bhpp2rcd13ifvqhfg","pricing_plan_id":"cebpf4jnsgd1na2vs0mg"},{"bike_id":"83568d4e-d55c-4cc8-adc1-42f9e8b8df35","system_id":"levelo_inurba_marseille","lat":43.2404,"lon":5.37745,"is_reserved":false,"is_disabled":false,"rental_uris":{"android":"levelo://app?vid=83568d4e-d55c-4cc8-adc1-42f9e8b8df35","ios":"levelo://app?vid=83568d4e-d55c-4cc8-adc1-42f9e8b8df35"},"vehicle_type_id":"4","last_reported":1745583585,"current_range_meters":16000,"station_id":"ce4bhnp2rcd13ifvqgvg","pricing_plan_id":"cebpf4jnsgd1na2vs0mg"},{"bike_id":"9d4c2842-83e8-4250-a29b-5b66cf8fb9a9","system_id":"levelo_inurba_marseille","lat":43.241696,"lon":5.363967,"is_reserved":false,"is_disabled":false,"rental_uris":{"android":"levelo://app?vid=9d4c2842-83e8-4250-a29b-5b66cf8fb9a9","ios":"levelo://app?vid=9d4c2842-83e8-4250-a29b-5b66cf8fb9a9"},"vehicle_type_id":"4","last_reported":1745583585,"current_range_meters":16000,"station_id":"ce4bhip2rcd13ifvqft0","pricing_plan_id":"cebpf4jnsgd1na2vs0mg"},{"bike_id":"071c1165-d0c3-4152-8608-afc3b64c18ee","system_id":"levelo_inurba_marseille","lat":43.2119,"lon":5.350662,"is_reserved":false,"is_disabled":false,"rental_uris":{"android":"levelo://app?vid=071c1165-d0c3-4152-8608-afc3b64c18ee","ios":"levelo://app?vid=071c1165-d0c3-4152-8608-afc3b64c18ee"},"vehicle_type_id":"4","last_reported":1745583585,"current_range_meters":16000,"station_id":"st_cvj6sg6p6f1abm77japg","pricing_plan_id":"cebpf4jnsgd1na2vs0mg"},{"bike_id":"568053e1-9183-4cee-acca-959027493876","system_id":"levelo_inurba_marseille","lat":43.309022,"lon":5.368472,"is_reserved":false,"is_disabled":true,"rental_uris":{"android":"levelo://app?vid=568053e1-9183-4cee-acca-959027493876","ios":"levelo://app?vid=568053e1-9183-4cee-acca-959027493876"},"vehicle_type_id":"4","last_reported":1745583585,"current_range_meters":16400,"station_id":"ce4bgn92rcd13ifvqbvg","pricing_plan_id":"cebpf4jnsgd1na2vs0mg"},{"bike_id":"632cfdc7-7885-4c22-b40a-64ed78c5a1e2","system_id":"levelo_inurba_marseille","lat":43.309394,"lon":5.390395,"is_reserved":false,"is_disabled":false,"rental_uris":{"android":"levelo://app?vid=632cfdc7-7885-4c22-b40a-64ed78c5a1e2","ios":"levelo://app?vid=632cfdc7-7885-4c22-b40a-64ed78c5a1e2"},"vehicle_type_id":"4","last_reported":1745583585,"current_range_meters":16400,"station_id":"ce4bgup2rcd13ifvqco0","pricing_plan_id":"cebpf4jnsgd1na2vs0mg"},{"bike_id":"42df07b2-8178-4f1b-86f8-84377d95773d","system_id":"levelo_inurba_marseille","lat":43.27376,"lon":5.36253,"is_reserved":false,"is_disabled":false,"rental_uris":{"android":"levelo://app?vid=42df07b2-8178-4f1b-86f8-84377d95773d","ios":"levelo://app?vid=42df07b2-8178-4f1b-86f8-84377d95773d"},"vehicle_type_id":"4","last_reported":1745583585,"current_range_meters":16400,"station_id":"ce4bhbh2rcd13ifvqeo0","pricing_plan_id":"cebpf4jnsgd1na2vs0mg"},{"bike_id":"af6af1ea-83a0-4448-a6b9-d143557f7290","system_id":"levelo_inurba_marseille","lat":43.2699,"lon":5.40278,"is_reserved":false,"is_disabled":true,"rental_uris":{"android":"levelo://app?vid=af6af1ea-83a0-4448-a6b9-d143557f7290","ios":"levelo://app?vid=af6af1ea-83a0-4448-a6b9-d143557f7290"},"vehicle_type_id":"4","last_reported":1745583585,"current_range_meters":16400,"station_id":"cjm6bp8fraef2m0cb0m0","pricing_plan_id":"cebpf4jnsgd1na2vs0mg"},{"bike_id":"b370ec72-25aa-4e18-90be-0a23445d821b","system_id":"levelo_inurba_marseille","lat":43.21747,"lon":5.34599,"is_reserved":false,"is_disabled":false,"rental_uris":{"android":"levelo://app?vid=b370ec72-25aa-4e18-90be-0a23445d821b","ios":"levelo://app?vid=b370ec72-25aa-4e18-90be-0a23445d821b"},"vehicle_type_id":"4","last_reported":1745583585,"current_range_meters":16400,"station_id":"st_cvj6r9ubvosntc0bgbag","pricing_plan_id":"cebpf4jnsgd1na2vs0mg"},{"bike_id":"f0d72487-df38-4e03-8c1e-7ab68a96c70e","system_id":"levelo_inurba_marseille","lat":43.31491,"lon":5.37308,"is_reserved":false,"is_disabled":false,"rental_uris":{"android":"levelo://app?vid=f0d72487-df38-4e03-8c1e-7ab68a96c70e","ios":"levelo://app?vid=f0d72487-df38-4e03-8c1e-7ab68a96c70e"},"vehicle_type_id":"4","last_reported":1745583585,"current_range_meters":16400,"station_id":"ce4bgt12rcd13ifvqcd0","pricing_plan_id":"cebpf4jnsgd1na2vs0mg"},{"bike_id":"c6f9b08b-85d4-4ea1-a207-d942c5041c83","system_id":"levelo_inurba_marseille","lat":43.23958,"lon":5.36623,"is_reserved":false,"is_disabled":false,"rental_uris":{"android":"levelo://app?vid=c6f9b08b-85d4-4ea1-a207-d942c5041c83","ios":"levelo://app?vid=c6f9b08b-85d4-4ea1-a207-d942c5041c83"},"vehicle_type_id":"4","last_reported":1745583585,"current_range_meters":16800,"station_id":"ce4bhi12rcd13ifvqfp0","pricing_plan_id":"cebpf4jnsgd1na2vs0mg"},{"bike_id":"ee61fe24-3052-476a-a28c-913cc78e6bf5","system_id":"levelo_inurba_marseille","lat":43.28271,"lon":5.35073,"is_reserved":false,"is_disabled":false,"rental_uris":{"android":"levelo://app?vid=ee61fe24-3052-476a-a28c-913cc78e6bf5","ios":"levelo://app?vid=ee61fe24-3052-476a-a28c-913cc78e6bf5"},"vehicle_type_id":"4","last_reported":1745583585,"current_range_meters":16800,"station_id":"ce4bhbp2rcd13ifvqerg","pricing_plan_id":"cebpf4jnsgd1na2vs0mg"},{"bike_id":"39054614-3418-4d8b-8e1c-88513e61b556","system_id":"levelo_inurba_marseille","lat":43.283844,"lon":5.38091,"is_reserved":false,"is_disabled":false,"rental_uris":{"android":"levelo://app?vid=39054614-3418-4d8b-8e1c-88513e61b556","ios":"levelo://app?vid=39054614-3418-4d8b-8e1c-88513e61b556"},"vehicle_type_id":"4","last_reported":1745583585,"current_range_meters":16800,"station_id":"ce4bghh2rcd13ifvqb60","pricing_plan_id":"cebpf4jnsgd1na2vs0mg"},{"bike_id":"987d7900-bb2a-45cb-bed7-6d69f6fd4fa3","system_id":"levelo_inurba_marseille","lat":43.2851,"lon":5.38475,"is_reserved":false,"is_disabled":false,"rental_uris":{"android":"levelo://app?vid=987d7900-bb2a-45cb-bed7-6d69f6fd4fa3","ios":"levelo://app?vid=987d7900-bb2a-45cb-bed7-6d69f6fd4fa3"},"vehicle_type_id":"4","last_reported":1745583585,"current_range_meters":16800,"station_id":"","pricing_plan_id":"cebpf4jnsgd1na2vs0mg"},{"bike_id":"5d90e8c4-88f9-42f1-bfd8-e31a43c95b58","system_id":"levelo_inurba_marseille","lat":43.32482,"lon":5.36552,"is_reserved":false,"is_disabled":false,"rental_uris":{"android":"levelo://app?vid=5d90e8c4-88f9-42f1-bfd8-e31a43c95b58","ios":"levelo://app?vid=5d90e8c4-88f9-42f1-bfd8-e31a43c95b58"},"vehicle_type_id":"4","last_reported":1745583585,"current_range_meters":16800,"station_id":"ce4bhs12rcd13ifvqhvg","pricing_plan_id":"cebpf4jnsgd1na2vs0mg"},{"bike_id":"238adc2e-97b7-4c9c-9d79-46c0e02bd558","system_id":"levelo_inurba_marseille","lat":43.28997,"lon":5.35598,"is_reserved":false,"is_disabled":false,"rental_uris":{"android":"levelo://app?vid=238adc2e-97b7-4c9c-9d79-46c0e02bd558","ios":"levelo://app?vid=238adc2e-97b7-4c9c-9d79-46c0e02bd558"},"vehicle_type_id":"4","last_reported":1745583585,"current_range_meters":16800,"station_id":"ce4bhb92rcd13ifvqen0","pricing_plan_id":"cebpf4jnsgd1na2vs0mg"},{"bike_id":"ee1cb4df-748b-44b0-89f3-e379d8f03d4a","system_id":"levelo_inurba_marseille","lat":43.34139,"lon":5.40905,"is_reserved":false,"is_disabled":false,"rental_uris":{"android":"levelo://app?vid=ee1cb4df-748b-44b0-89f3-e379d8f03d4a","ios":"levelo://app?vid=ee1cb4df-748b-44b0-89f3-e379d8f03d4a"},"vehicle_type_id":"4","last_reported":1745583585,"current_range_meters":17200,"station_id":"ce4bhqh2rcd13ifvqhlg","pricing_plan_id":"cebpf4jnsgd1na2vs0mg"},{"bike_id":"1125ee5e-b0dd-42e1-9767-5bee947a62bf","system_id":"levelo_inurba_marseille","lat":43.28277,"lon":5.35081,"is_reserved":false,"is_disabled":false,"rental_uris":{"android":"levelo://app?vid=1125ee5e-b0dd-42e1-9767-5bee947a62bf","ios":"levelo://app?vid=1125ee5e-b0dd-42e1-9767-5bee947a62bf"},"vehicle_type_id":"4","last_reported":1745583585,"current_range_meters":17200,"station_id":"ce4bhbp2rcd13ifvqerg","pricing_plan_id":"cebpf4jnsgd1na2vs0mg"},{"bike_id":"5d9c1574-7299-43ae-a032-cbfe0be61242","system_id":"levelo_inurba_marseille","lat":43.23063,"lon":5.35489,"is_reserved":false,"is_disabled":false,"rental_uris":{"android":"levelo://app?vid=5d9c1574-7299-43ae-a032-cbfe0be61242","ios":"levelo://app?vid=5d9c1574-7299-43ae-a032-cbfe0be61242"},"vehicle_type_id":"4","last_reported":1745583585,"current_range_meters":17200,"station_id":"cpo3342slgdg3j2ifvpg","pricing_plan_id":"cebpf4jnsgd1na2vs0mg"},{"bike_id":"f72e7c5b-5181-4627-a8fc-5cefec928fce","system_id":"levelo_inurba_marseille","lat":43.27425,"lon":5.39414,"is_reserved":false,"is_disabled":false,"rental_uris":{"android":"levelo://app?vid=f72e7c5b-5181-4627-a8fc-5cefec928fce","ios":"levelo://app?vid=f72e7c5b-5181-4627-a8fc-5cefec928fce"},"vehicle_type_id":"4","last_reported":1745583585,"current_range_meters":17200,"station_id":"ce4bhdp2rcd13ifvqf20","pricing_plan_id":"cebpf4jnsgd1na2vs0mg"},{"bike_id":"4534d7e3-24a6-4022-8d6e-c87dbbcde225","system_id":"levelo_inurba_marseille","lat":43.22507,"lon":5.34785,"is_reserved":false,"is_disabled":false,"rental_uris":{"android":"levelo://app?vid=4534d7e3-24a6-4022-8d6e-c87dbbcde225","ios":"levelo://app?vid=4534d7e3-24a6-4022-8d6e-c87dbbcde225"},"vehicle_type_id":"4","last_reported":1745583585,"current_range_meters":17200,"station_id":"st_cvj5dfep6f1abm77gieg","pricing_plan_id":"cebpf4jnsgd1na2vs0mg"},{"bike_id":"6c18c0f5-85de-4b18-a1a9-5d893ce30a6b","system_id":"levelo_inurba_marseille","lat":43.28269,"lon":5.35057,"is_reserved":false,"is_disabled":false,"rental_uris":{"android":"levelo://app?vid=6c18c0f5-85de-4b18-a1a9-5d893ce30a6b","ios":"levelo://app?vid=6c18c0f5-85de-4b18-a1a9-5d893ce30a6b"},"vehicle_type_id":"4","last_reported":1745583585,"current_range_meters":17200,"station_id":"ce4bhbp2rcd13ifvqerg","pricing_plan_id":"cebpf4jnsgd1na2vs0mg"},{"bike_id":"c6e47527-45ec-4abc-941c-002d34cbc310","system_id":"levelo_inurba_marseille","lat":43.27373,"lon":5.36257,"is_reserved":false,"is_disabled":false,"rental_uris":{"android":"levelo://app?vid=c6e47527-45ec-4abc-941c-002d34cbc310","ios":"levelo://app?vid=c6e47527-45ec-4abc-941c-002d34cbc310"},"vehicle_type_id":"4","last_reported":1745583585,"current_range_meters":17600,"station_id":"ce4bhbh2rcd13ifvqeo0","pricing_plan_id":"cebpf4jnsgd1na2vs0mg"},{"bike_id":"9e4c77af-337f-4cca-8e9d-022a93a4a668","system_id":"levelo_inurba_marseille","lat":43.31229,"lon":5.36861,"is_reserved":false,"is_disabled":false,"rental_uris":{"android":"levelo://app?vid=9e4c77af-337f-4cca-8e9d-022a93a4a668","ios":"levelo://app?vid=9e4c77af-337f-4cca-8e9d-022a93a4a668"},"vehicle_type_id":"4","last_reported":1745583585,"current_range_meters":17600,"station_id":"ce4bgl92rcd13ifvqbq0","pricing_plan_id":"cebpf4jnsgd1na2vs0mg"},{"bike_id":"9fac8949-580c-4814-ac69-31148581f4a2","system_id":"levelo_inurba_marseille","lat":43.33013,"lon":5.39132,"is_reserved":false,"is_disabled":false,"rental_uris":{"android":"levelo://app?vid=9fac8949-580c-4814-ac69-31148581f4a2","ios":"levelo://app?vid=9fac8949-580c-4814-ac69-31148581f4a2"},"vehicle_type_id":"4","last_reported":1745583585,"current_range_meters":17600,"station_id":"","pricing_plan_id":"cebpf4jnsgd1na2vs0mg"},{"bike_id":"789f52ac-718f-4949-aba9-665fe5cf8b7f","system_id":"levelo_inurba_marseille","lat":43.25818,"lon":5.39428,"is_reserved":false,"is_disabled":false,"rental_uris":{"android":"levelo://app?vid=789f52ac-718f-4949-aba9-665fe5cf8b7f","ios":"levelo://app?vid=789f52ac-718f-4949-aba9-665fe5cf8b7f"},"vehicle_type_id":"4","last_reported":1745583585,"current_range_meters":17600,"station_id":"ce4bhip2rcd13ifvqft0","pricing_plan_id":"cebpf4jnsgd1na2vs0mg"},{"bike_id":"d66baf44-be8c-40e0-9862-2f00874e5252","system_id":"levelo_inurba_marseille","lat":43.217482,"lon":5.346011,"is_reserved":false,"is_disabled":false,"rental_uris":{"android":"levelo://app?vid=d66baf44-be8c-40e0-9862-2f00874e5252","ios":"levelo://app?vid=d66baf44-be8c-40e0-9862-2f00874e5252"},"vehicle_type_id":"4","last_reported":1745583585,"current_range_meters":18000,"station_id":"st_cvj6r9ubvosntc0bgbag","pricing_plan_id":"cebpf4jnsgd1na2vs0mg"},{"bike_id":"50bc7ed9-e2e7-4ad5-88a4-289d5f38dbae","system_id":"levelo_inurba_marseille","lat":43.27615,"lon":5.36108,"is_reserved":false,"is_disabled":false,"rental_uris":{"android":"levelo://app?vid=50bc7ed9-e2e7-4ad5-88a4-289d5f38dbae","ios":"levelo://app?vid=50bc7ed9-e2e7-4ad5-88a4-289d5f38dbae"},"vehicle_type_id":"4","last_reported":1745583585,"current_range_meters":18000,"station_id":"ce4bgj92rcd13ifvqbe0","pricing_plan_id":"cebpf4jnsgd1na2vs0mg"},{"bike_id":"77304251-c169-4509-b02e-27651b73dfbb","system_id":"levelo_inurba_marseille","lat":43.25727,"lon":5.41107,"is_reserved":false,"is_disabled":false,"rental_uris":{"android":"levelo://app?vid=77304251-c169-4509-b02e-27651b73dfbb","ios":"levelo://app?vid=77304251-c169-4509-b02e-27651b73dfbb"},"vehicle_type_id":"4","last_reported":1745583585,"current_range_meters":18000,"station_id":"ce4bhkp2rcd13ifvqgd0","pricing_plan_id":"cebpf4jnsgd1na2vs0mg"},{"bike_id":"bdd0222f-8955-4090-86de-0be16c2ab322","system_id":"levelo_inurba_marseille","lat":43.29888,"lon":5.43658,"is_reserved":false,"is_disabled":false,"rental_uris":{"android":"levelo://app?vid=bdd0222f-8955-4090-86de-0be16c2ab322","ios":"levelo://app?vid=bdd0222f-8955-4090-86de-0be16c2ab322"},"vehicle_type_id":"4","last_reported":1745583585,"current_range_meters":18000,"station_id":"ce4bhpp2rcd13ifvqhfg","pricing_plan_id":"cebpf4jnsgd1na2vs0mg"},{"bike_id":"303617e8-c731-4110-a435-8b8fb7d6396c","system_id":"levelo_inurba_marseille","lat":43.2886,"lon":5.35842,"is_reserved":false,"is_disabled":false,"rental_uris":{"android":"levelo://app?vid=303617e8-c731-4110-a435-8b8fb7d6396c","ios":"levelo://app?vid=303617e8-c731-4110-a435-8b8fb7d6396c"},"vehicle_type_id":"4","last_reported":1745583585,"current_range_meters":18000,"station_id":"ce4bhb12rcd13ifvqem0","pricing_plan_id":"cebpf4jnsgd1na2vs0mg"},{"bike_id":"3dda823c-586f-46e8-864b-8cd012564236","system_id":"levelo_inurba_marseille","lat":43.28268,"lon":5.35077,"is_reserved":false,"is_disabled":false,"rental_uris":{"android":"levelo://app?vid=3dda823c-586f-46e8-864b-8cd012564236","ios":"levelo://app?vid=3dda823c-586f-46e8-864b-8cd012564236"},"vehicle_type_id":"4","last_reported":1745583585,"current_range_meters":18000,"station_id":"ce4bhbp2rcd13ifvqerg","pricing_plan_id":"cebpf4jnsgd1na2vs0mg"},{"bike_id":"283be49f-3c85-4f23-b3cf-f89b23493839","system_id":"levelo_inurba_marseille","lat":43.23152,"lon":5.43715,"is_reserved":false,"is_disabled":false,"rental_uris":{"android":"levelo://app?vid=283be49f-3c85-4f23-b3cf-f89b23493839","ios":"levelo://app?vid=283be49f-3c85-4f23-b3cf-f89b23493839"},"vehicle_type_id":"4","last_reported":1745583585,"current_range_meters":18000,"station_id":"ce4bhmp2rcd13ifvqgog","pricing_plan_id":"cebpf4jnsgd1na2vs0mg"},{"bike_id":"da9a9291-d4d5-4f76-bbc0-7f4bf71ecaf6","system_id":"levelo_inurba_marseille","lat":43.30461,"lon":5.37905,"is_reserved":false,"is_disabled":false,"rental_uris":{"android":"levelo://app?vid=da9a9291-d4d5-4f76-bbc0-7f4bf71ecaf6","ios":"levelo://app?vid=da9a9291-d4d5-4f76-bbc0-7f4bf71ecaf6"},"vehicle_type_id":"4","last_reported":1745583585,"current_range_meters":18000,"station_id":"ce4bgup2rcd13ifvqcn0","pricing_plan_id":"cebpf4jnsgd1na2vs0mg"},{"bike_id":"3f97042b-9071-46c1-aa5b-c41d46a00769","system_id":"levelo_inurba_marseille","lat":43.21199,"lon":5.35073,"is_reserved":false,"is_disabled":false,"rental_uris":{"android":"levelo://app?vid=3f97042b-9071-46c1-aa5b-c41d46a00769","ios":"levelo://app?vid=3f97042b-9071-46c1-aa5b-c41d46a00769"},"vehicle_type_id":"4","last_reported":1745583585,"current_range_meters":18000,"station_id":"st_cvj6sg6p6f1abm77japg","pricing_plan_id":"cebpf4jnsgd1na2vs0mg"},{"bike_id":"3046364d-2e66-4e1e-aa96-0af0939529fb","system_id":"levelo_inurba_marseille","lat":43.3375,"lon":5.39192,"is_reserved":false,"is_disabled":false,"rental_uris":{"android":"levelo://app?vid=3046364d-2e66-4e1e-aa96-0af0939529fb","ios":"levelo://app?vid=3046364d-2e66-4e1e-aa96-0af0939529fb"},"vehicle_type_id":"4","last_reported":1745583585,"current_range_meters":18000,"station_id":"ce4bhr92rcd13ifvqhsg","pricing_plan_id":"cebpf4jnsgd1na2vs0mg"},{"bike_id":"51a4b1f4-4cfb-4b9e-b7e6-50254ee4c796","system_id":"levelo_inurba_marseille","lat":43.28603,"lon":5.37066,"is_reserved":false,"is_disabled":true,"rental_uris":{"android":"levelo://app?vid=51a4b1f4-4cfb-4b9e-b7e6-50254ee4c796","ios":"levelo://app?vid=51a4b1f4-4cfb-4b9e-b7e6-50254ee4c796"},"vehicle_type_id":"4","last_reported":1745583585,"current_range_meters":18000,"station_id":"ce4bht12rcd13ifvqi60","pricing_plan_id":"cebpf4jnsgd1na2vs0mg"},{"bike_id":"66f4a16c-5526-4170-b0c8-0b023a7e2dde","system_id":"levelo_inurba_marseille","lat":43.315057,"lon":5.372783,"is_reserved":false,"is_disabled":false,"rental_uris":{"android":"levelo://app?vid=66f4a16c-5526-4170-b0c8-0b023a7e2dde","ios":"levelo://app?vid=66f4a16c-5526-4170-b0c8-0b023a7e2dde"},"vehicle_type_id":"4","last_reported":1745583585,"current_range_meters":18800,"station_id":"ce4bgt12rcd13ifvqcd0","pricing_plan_id":"cebpf4jnsgd1na2vs0mg"},{"bike_id":"134db5e6-73c5-4319-92fe-1c5d37bcfadb","system_id":"levelo_inurba_marseille","lat":43.28261,"lon":5.35063,"is_reserved":false,"is_disabled":false,"rental_uris":{"android":"levelo://app?vid=134db5e6-73c5-4319-92fe-1c5d37bcfadb","ios":"levelo://app?vid=134db5e6-73c5-4319-92fe-1c5d37bcfadb"},"vehicle_type_id":"4","last_reported":1745583585,"current_range_meters":18800,"station_id":"ce4bhbp2rcd13ifvqerg","pricing_plan_id":"cebpf4jnsgd1na2vs0mg"},{"bike_id":"87d230e1-3701-4811-bc52-b6bcde5161e4","system_id":"levelo_inurba_marseille","lat":43.2592,"lon":5.40893,"is_reserved":false,"is_disabled":false,"rental_uris":{"android":"levelo://app?vid=87d230e1-3701-4811-bc52-b6bcde5161e4","ios":"levelo://app?vid=87d230e1-3701-4811-bc52-b6bcde5161e4"},"vehicle_type_id":"4","last_reported":1745583585,"current_range_meters":19200,"station_id":"ce4bhm92rcd13ifvqglg","pricing_plan_id":"cebpf4jnsgd1na2vs0mg"},{"bike_id":"002fd36d-32e4-48a4-937c-0f003f132280","system_id":"levelo_inurba_marseille","lat":43.30464,"lon":5.37896,"is_reserved":false,"is_disabled":true,"rental_uris":{"android":"levelo://app?vid=002fd36d-32e4-48a4-937c-0f003f132280","ios":"levelo://app?vid=002fd36d-32e4-48a4-937c-0f003f132280"},"vehicle_type_id":"4","last_reported":1745583585,"current_range_meters":18800,"station_id":"ce4bgup2rcd13ifvqcn0","pricing_plan_id":"cebpf4jnsgd1na2vs0mg"},{"bike_id":"cd087707-fd41-43c5-9b15-a64d709b0196","system_id":"levelo_inurba_marseille","lat":43.30519,"lon":5.36522,"is_reserved":false,"is_disabled":false,"rental_uris":{"android":"levelo://app?vid=cd087707-fd41-43c5-9b15-a64d709b0196","ios":"levelo://app?vid=cd087707-fd41-43c5-9b15-a64d709b0196"},"vehicle_type_id":"4","last_reported":1745583585,"current_range_meters":18800,"station_id":"","pricing_plan_id":"cebpf4jnsgd1na2vs0mg"},{"bike_id":"47882486-d9bd-4943-b51b-bd7f5756b2e4","system_id":"levelo_inurba_marseille","lat":43.27176,"lon":5.4098,"is_reserved":false,"is_disabled":false,"rental_uris":{"android":"levelo://app?vid=47882486-d9bd-4943-b51b-bd7f5756b2e4","ios":"levelo://app?vid=47882486-d9bd-4943-b51b-bd7f5756b2e4"},"vehicle_type_id":"4","last_reported":1745583585,"current_range_meters":18800,"station_id":"ce4bhl12rcd13ifvqgf0","pricing_plan_id":"cebpf4jnsgd1na2vs0mg"},{"bike_id":"13731016-9cf7-4d91-a42f-f54be16a7958","system_id":"levelo_inurba_marseille","lat":43.21198,"lon":5.35069,"is_reserved":false,"is_disabled":false,"rental_uris":{"android":"levelo://app?vid=13731016-9cf7-4d91-a42f-f54be16a7958","ios":"levelo://app?vid=13731016-9cf7-4d91-a42f-f54be16a7958"},"vehicle_type_id":"4","last_reported":1745583585,"current_range_meters":18800,"station_id":"st_cvj6sg6p6f1abm77japg","pricing_plan_id":"cebpf4jnsgd1na2vs0mg"},{"bike_id":"4ee1ed44-ad5b-44f8-8a7c-ff3be283ba7b","system_id":"levelo_inurba_marseille","lat":43.30531,"lon":5.36542,"is_reserved":false,"is_disabled":false,"rental_uris":{"android":"levelo://app?vid=4ee1ed44-ad5b-44f8-8a7c-ff3be283ba7b","ios":"levelo://app?vid=4ee1ed44-ad5b-44f8-8a7c-ff3be283ba7b"},"vehicle_type_id":"4","last_reported":1745583585,"current_range_meters":18800,"station_id":"ce4bgs12rcd13ifvqcag","pricing_plan_id":"cebpf4jnsgd1na2vs0mg"},{"bike_id":"4046a82f-66e8-4b55-bd0a-356edea772d8","system_id":"levelo_inurba_marseille","lat":43.30803,"lon":5.37307,"is_reserved":false,"is_disabled":false,"rental_uris":{"android":"levelo://app?vid=4046a82f-66e8-4b55-bd0a-356edea772d8","ios":"levelo://app?vid=4046a82f-66e8-4b55-bd0a-356edea772d8"},"vehicle_type_id":"4","last_reported":1745583585,"current_range_meters":19200,"station_id":"","pricing_plan_id":"cebpf4jnsgd1na2vs0mg"},{"bike_id":"f1ac634c-7a0d-4ce2-b92f-26a2bd593acc","system_id":"levelo_inurba_marseille","lat":43.30915,"lon":5.36851,"is_reserved":false,"is_disabled":false,"rental_uris":{"android":"levelo://app?vid=f1ac634c-7a0d-4ce2-b92f-26a2bd593acc","ios":"levelo://app?vid=f1ac634c-7a0d-4ce2-b92f-26a2bd593acc"},"vehicle_type_id":"4","last_reported":1745583585,"current_range_meters":19200,"station_id":"ce4bgn92rcd13ifvqbvg","pricing_plan_id":"cebpf4jnsgd1na2vs0mg"},{"bike_id":"d28bf9af-5868-40cf-bc78-dd7cb5c022b5","system_id":"levelo_inurba_marseille","lat":43.29976,"lon":5.38485,"is_reserved":false,"is_disabled":true,"rental_uris":{"android":"levelo://app?vid=d28bf9af-5868-40cf-bc78-dd7cb5c022b5","ios":"levelo://app?vid=d28bf9af-5868-40cf-bc78-dd7cb5c022b5"},"vehicle_type_id":"4","last_reported":1745583585,"current_range_meters":19200,"station_id":"ce4bgj92rcd13ifvqbd0","pricing_plan_id":"cebpf4jnsgd1na2vs0mg"},{"bike_id":"94b7da04-5082-421d-aeef-f6f9b0ab2015","system_id":"levelo_inurba_marseille","lat":43.26554,"lon":5.37286,"is_reserved":false,"is_disabled":false,"rental_uris":{"android":"levelo://app?vid=94b7da04-5082-421d-aeef-f6f9b0ab2015","ios":"levelo://app?vid=94b7da04-5082-421d-aeef-f6f9b0ab2015"},"vehicle_type_id":"4","last_reported":1745583585,"current_range_meters":19200,"station_id":"ce4bhg12rcd13ifvqf70","pricing_plan_id":"cebpf4jnsgd1na2vs0mg"},{"bike_id":"fb81db3c-12e2-44b7-8142-2689708da6f1","system_id":"levelo_inurba_marseille","lat":43.30892,"lon":5.37193,"is_reserved":false,"is_disabled":false,"rental_uris":{"android":"levelo://app?vid=fb81db3c-12e2-44b7-8142-2689708da6f1","ios":"levelo://app?vid=fb81db3c-12e2-44b7-8142-2689708da6f1"},"vehicle_type_id":"4","last_reported":1745583585,"current_range_meters":19200,"station_id":"ce4bguh2rcd13ifvqckg","pricing_plan_id":"cebpf4jnsgd1na2vs0mg"},{"bike_id":"79ffd577-c06f-4898-b813-2dd8142120d9","system_id":"levelo_inurba_marseille","lat":43.28612,"lon":5.35094,"is_reserved":false,"is_disabled":false,"rental_uris":{"android":"levelo://app?vid=79ffd577-c06f-4898-b813-2dd8142120d9","ios":"levelo://app?vid=79ffd577-c06f-4898-b813-2dd8142120d9"},"vehicle_type_id":"4","last_reported":1745583585,"current_range_meters":19200,"station_id":"ce4bhch2rcd13ifvqeug","pricing_plan_id":"cebpf4jnsgd1na2vs0mg"},{"bike_id":"88fc0864-ccff-41cb-a092-66c76115c3bf","system_id":"levelo_inurba_marseille","lat":43.26213,"lon":5.37437,"is_reserved":false,"is_disabled":false,"rental_uris":{"android":"levelo://app?vid=88fc0864-ccff-41cb-a092-66c76115c3bf","ios":"levelo://app?vid=88fc0864-ccff-41cb-a092-66c76115c3bf"},"vehicle_type_id":"4","last_reported":1745583585,"current_range_meters":19200,"station_id":"ce4bhgp2rcd13ifvqfc0","pricing_plan_id":"cebpf4jnsgd1na2vs0mg"},{"bike_id":"5231241f-ce70-4848-b5f2-cbfcc68689ea","system_id":"levelo_inurba_marseille","lat":43.27496,"lon":5.42448,"is_reserved":false,"is_disabled":false,"rental_uris":{"android":"levelo://app?vid=5231241f-ce70-4848-b5f2-cbfcc68689ea","ios":"levelo://app?vid=5231241f-ce70-4848-b5f2-cbfcc68689ea"},"vehicle_type_id":"4","last_reported":1745583585,"current_range_meters":19200,"station_id":"ce4bhn92rcd13ifvqgrg","pricing_plan_id":"cebpf4jnsgd1na2vs0mg"},{"bike_id":"71eec23c-d592-40c1-a4fd-cc57fdaae02f","system_id":"levelo_inurba_marseille","lat":43.27206,"lon":5.39186,"is_reserved":false,"is_disabled":false,"rental_uris":{"android":"levelo://app?vid=71eec23c-d592-40c1-a4fd-cc57fdaae02f","ios":"levelo://app?vid=71eec23c-d592-40c1-a4fd-cc57fdaae02f"},"vehicle_type_id":"4","last_reported":1745583585,"current_range_meters":19200,"station_id":"ce4bhhp2rcd13ifvqfm0","pricing_plan_id":"cebpf4jnsgd1na2vs0mg"},{"bike_id":"56d5e22d-a47b-46a6-b19c-201064a253ea","system_id":"levelo_inurba_marseille","lat":43.25502,"lon":5.3766,"is_reserved":false,"is_disabled":false,"rental_uris":{"android":"levelo://app?vid=56d5e22d-a47b-46a6-b19c-201064a253ea","ios":"levelo://app?vid=56d5e22d-a47b-46a6-b19c-201064a253ea"},"vehicle_type_id":"4","last_reported":1745583585,"current_range_meters":19600,"station_id":"ce4bhh12rcd13ifvqff0","pricing_plan_id":"cebpf4jnsgd1na2vs0mg"},{"bike_id":"42489039-a3f1-4df7-bb42-6faa063b0788","system_id":"levelo_inurba_marseille","lat":43.28043,"lon":5.36949,"is_reserved":false,"is_disabled":false,"rental_uris":{"android":"levelo://app?vid=42489039-a3f1-4df7-bb42-6faa063b0788","ios":"levelo://app?vid=42489039-a3f1-4df7-bb42-6faa063b0788"},"vehicle_type_id":"4","last_reported":1745583585,"current_range_meters":19600,"station_id":"ce4bha12rcd13ifvqef0","pricing_plan_id":"cebpf4jnsgd1na2vs0mg"},{"bike_id":"4ff80998-bac9-4f76-8e8f-9456569efc62","system_id":"levelo_inurba_marseille","lat":43.25084,"lon":5.39532,"is_reserved":false,"is_disabled":false,"rental_uris":{"android":"levelo://app?vid=4ff80998-bac9-4f76-8e8f-9456569efc62","ios":"levelo://app?vid=4ff80998-bac9-4f76-8e8f-9456569efc62"},"vehicle_type_id":"4","last_reported":1745583585,"current_range_meters":19200,"station_id":"ce4bhm12rcd13ifvqgkg","pricing_plan_id":"cebpf4jnsgd1na2vs0mg"},{"bike_id":"65917edd-2900-4603-bad4-333560a6d278","system_id":"levelo_inurba_marseille","lat":43.286147,"lon":5.351043,"is_reserved":false,"is_disabled":false,"rental_uris":{"android":"levelo://app?vid=65917edd-2900-4603-bad4-333560a6d278","ios":"levelo://app?vid=65917edd-2900-4603-bad4-333560a6d278"},"vehicle_type_id":"4","last_reported":1745583585,"current_range_meters":19600,"station_id":"ce4bhb12rcd13ifvqel0","pricing_plan_id":"cebpf4jnsgd1na2vs0mg"},{"bike_id":"5a7d5f58-55b9-43f0-ada2-3de3e119a779","system_id":"levelo_inurba_marseille","lat":43.26209,"lon":5.37439,"is_reserved":false,"is_disabled":false,"rental_uris":{"android":"levelo://app?vid=5a7d5f58-55b9-43f0-ada2-3de3e119a779","ios":"levelo://app?vid=5a7d5f58-55b9-43f0-ada2-3de3e119a779"},"vehicle_type_id":"4","last_reported":1745583585,"current_range_meters":19600,"station_id":"ce4bhgp2rcd13ifvqfc0","pricing_plan_id":"cebpf4jnsgd1na2vs0mg"},{"bike_id":"823cf1bb-42cf-4eb1-9906-3768e255ff18","system_id":"levelo_inurba_marseille","lat":43.23962,"lon":5.36635,"is_reserved":false,"is_disabled":false,"rental_uris":{"android":"levelo://app?vid=823cf1bb-42cf-4eb1-9906-3768e255ff18","ios":"levelo://app?vid=823cf1bb-42cf-4eb1-9906-3768e255ff18"},"vehicle_type_id":"4","last_reported":1745583585,"current_range_meters":19600,"station_id":"ce4bhi12rcd13ifvqfp0","pricing_plan_id":"cebpf4jnsgd1na2vs0mg"},{"bike_id":"e92565b1-0dda-4426-8c0d-cf38ecdda8a2","system_id":"levelo_inurba_marseille","lat":43.21746,"lon":5.346,"is_reserved":false,"is_disabled":false,"rental_uris":{"android":"levelo://app?vid=e92565b1-0dda-4426-8c0d-cf38ecdda8a2","ios":"levelo://app?vid=e92565b1-0dda-4426-8c0d-cf38ecdda8a2"},"vehicle_type_id":"4","last_reported":1745583585,"current_range_meters":19600,"station_id":"st_cvj6r9ubvosntc0bgbag","pricing_plan_id":"cebpf4jnsgd1na2vs0mg"},{"bike_id":"de7e092b-b6e1-4094-921e-c152bd6a589e","system_id":"levelo_inurba_marseille","lat":43.28266,"lon":5.3506,"is_reserved":false,"is_disabled":false,"rental_uris":{"android":"levelo://app?vid=de7e092b-b6e1-4094-921e-c152bd6a589e","ios":"levelo://app?vid=de7e092b-b6e1-4094-921e-c152bd6a589e"},"vehicle_type_id":"4","last_reported":1745583585,"current_range_meters":20000,"station_id":"ce4bhbp2rcd13ifvqerg","pricing_plan_id":"cebpf4jnsgd1na2vs0mg"},{"bike_id":"c5ae181b-a0a0-41da-b88c-c558a12cc454","system_id":"levelo_inurba_marseille","lat":43.28468,"lon":5.35882,"is_reserved":false,"is_disabled":false,"rental_uris":{"android":"levelo://app?vid=c5ae181b-a0a0-41da-b88c-c558a12cc454","ios":"levelo://app?vid=c5ae181b-a0a0-41da-b88c-c558a12cc454"},"vehicle_type_id":"4","last_reported":1745583585,"current_range_meters":20000,"station_id":"ce4bhah2rcd13ifvqei0","pricing_plan_id":"cebpf4jnsgd1na2vs0mg"},{"bike_id":"10f19b43-cec2-4277-8397-557481e2bd91","system_id":"levelo_inurba_marseille","lat":43.250062,"lon":5.37516,"is_reserved":false,"is_disabled":false,"rental_uris":{"android":"levelo://app?vid=10f19b43-cec2-4277-8397-557481e2bd91","ios":"levelo://app?vid=10f19b43-cec2-4277-8397-557481e2bd91"},"vehicle_type_id":"4","last_reported":1745583585,"current_range_meters":20000,"station_id":"ce4bhhh2rcd13ifvqfk0","pricing_plan_id":"cebpf4jnsgd1na2vs0mg"},{"bike_id":"9e4b26ce-d396-48e1-97be-460a508fed54","system_id":"levelo_inurba_marseille","lat":43.211884,"lon":5.350718,"is_reserved":false,"is_disabled":false,"rental_uris":{"android":"levelo://app?vid=9e4b26ce-d396-48e1-97be-460a508fed54","ios":"levelo://app?vid=9e4b26ce-d396-48e1-97be-460a508fed54"},"vehicle_type_id":"4","last_reported":1745583585,"current_range_meters":20000,"station_id":"st_cvj6sg6p6f1abm77japg","pricing_plan_id":"cebpf4jnsgd1na2vs0mg"},{"bike_id":"fbaca04b-a848-4c38-a18c-01e51f670e79","system_id":"levelo_inurba_marseille","lat":43.29198,"lon":5.35789,"is_reserved":false,"is_disabled":true,"rental_uris":{"android":"levelo://app?vid=fbaca04b-a848-4c38-a18c-01e51f670e79","ios":"levelo://app?vid=fbaca04b-a848-4c38-a18c-01e51f670e79"},"vehicle_type_id":"4","last_reported":1745583585,"current_range_meters":20000,"station_id":"ce4bhb12rcd13ifvqel0","pricing_plan_id":"cebpf4jnsgd1na2vs0mg"},{"bike_id":"ce635803-bedf-40bc-9360-b1dbbf17902e","system_id":"levelo_inurba_marseille","lat":43.28613,"lon":5.35102,"is_reserved":false,"is_disabled":false,"rental_uris":{"android":"levelo://app?vid=ce635803-bedf-40bc-9360-b1dbbf17902e","ios":"levelo://app?vid=ce635803-bedf-40bc-9360-b1dbbf17902e"},"vehicle_type_id":"4","last_reported":1745583585,"current_range_meters":20000,"station_id":"ce4bhch2rcd13ifvqeug","pricing_plan_id":"cebpf4jnsgd1na2vs0mg"},{"bike_id":"33481de6-10e5-4693-a670-4c6a00b959a2","system_id":"levelo_inurba_marseille","lat":43.28939,"lon":5.39624,"is_reserved":false,"is_disabled":false,"rental_uris":{"android":"levelo://app?vid=33481de6-10e5-4693-a670-4c6a00b959a2","ios":"levelo://app?vid=33481de6-10e5-4693-a670-4c6a00b959a2"},"vehicle_type_id":"4","last_reported":1745583585,"current_range_meters":20400,"station_id":"ce4bh3h2rcd13ifvqdn0","pricing_plan_id":"cebpf4jnsgd1na2vs0mg"},{"bike_id":"2a2bd3c8-7af4-49c2-80aa-c321e938cb50","system_id":"levelo_inurba_marseille","lat":43.28278,"lon":5.35063,"is_reserved":false,"is_disabled":false,"rental_uris":{"android":"levelo://app?vid=2a2bd3c8-7af4-49c2-80aa-c321e938cb50","ios":"levelo://app?vid=2a2bd3c8-7af4-49c2-80aa-c321e938cb50"},"vehicle_type_id":"4","last_reported":1745583585,"current_range_meters":20400,"station_id":"ce4bhbp2rcd13ifvqerg","pricing_plan_id":"cebpf4jnsgd1na2vs0mg"},{"bike_id":"b3b311a0-e09b-46b6-bb6d-689568649dd6","system_id":"levelo_inurba_marseille","lat":43.27494,"lon":5.42455,"is_reserved":false,"is_disabled":false,"rental_uris":{"android":"levelo://app?vid=b3b311a0-e09b-46b6-bb6d-689568649dd6","ios":"levelo://app?vid=b3b311a0-e09b-46b6-bb6d-689568649dd6"},"vehicle_type_id":"4","last_reported":1745583585,"current_range_meters":20400,"station_id":"ce4bhn92rcd13ifvqgrg","pricing_plan_id":"cebpf4jnsgd1na2vs0mg"},{"bike_id":"83a37888-9443-4c9c-99b6-8b2b9d87600f","system_id":"levelo_inurba_marseille","lat":43.28267,"lon":5.3506,"is_reserved":false,"is_disabled":false,"rental_uris":{"android":"levelo://app?vid=83a37888-9443-4c9c-99b6-8b2b9d87600f","ios":"levelo://app?vid=83a37888-9443-4c9c-99b6-8b2b9d87600f"},"vehicle_type_id":"4","last_reported":1745583585,"current_range_meters":20400,"station_id":"ce4bhbp2rcd13ifvqerg","pricing_plan_id":"cebpf4jnsgd1na2vs0mg"},{"bike_id":"ee1e6b5c-f38c-4d86-85a2-457852d6322e","system_id":"levelo_inurba_marseille","lat":43.30528,"lon":5.36714,"is_reserved":false,"is_disabled":false,"rental_uris":{"android":"levelo://app?vid=ee1e6b5c-f38c-4d86-85a2-457852d6322e","ios":"levelo://app?vid=ee1e6b5c-f38c-4d86-85a2-457852d6322e"},"vehicle_type_id":"4","last_reported":1745583585,"current_range_meters":20400,"station_id":"ce4bgrp2rcd13ifvqc9g","pricing_plan_id":"cebpf4jnsgd1na2vs0mg"},{"bike_id":"c49a7238-caed-41b9-bd72-54e68c8c29ee","system_id":"levelo_inurba_marseille","lat":43.29844,"lon":5.36273,"is_reserved":false,"is_disabled":false,"rental_uris":{"android":"levelo://app?vid=c49a7238-caed-41b9-bd72-54e68c8c29ee","ios":"levelo://app?vid=c49a7238-caed-41b9-bd72-54e68c8c29ee"},"vehicle_type_id":"4","last_reported":1745583585,"current_range_meters":20400,"station_id":"ce4bgpp2rcd13ifvqc3g","pricing_plan_id":"cebpf4jnsgd1na2vs0mg"},{"bike_id":"06570783-8f0a-486e-9a81-9cf00d1a587e","system_id":"levelo_inurba_marseille","lat":43.26929,"lon":5.38914,"is_reserved":false,"is_disabled":false,"rental_uris":{"android":"levelo://app?vid=06570783-8f0a-486e-9a81-9cf00d1a587e","ios":"levelo://app?vid=06570783-8f0a-486e-9a81-9cf00d1a587e"},"vehicle_type_id":"4","last_reported":1745583585,"current_range_meters":20400,"station_id":"ce4bhhh2rcd13ifvqfl0","pricing_plan_id":"cebpf4jnsgd1na2vs0mg"},{"bike_id":"faeaac00-2866-4ec0-a512-61acd3552cfd","system_id":"levelo_inurba_marseille","lat":43.2119,"lon":5.35066,"is_reserved":false,"is_disabled":false,"rental_uris":{"android":"levelo://app?vid=faeaac00-2866-4ec0-a512-61acd3552cfd","ios":"levelo://app?vid=faeaac00-2866-4ec0-a512-61acd3552cfd"},"vehicle_type_id":"4","last_reported":1745583585,"current_range_meters":20400,"station_id":"st_cvj6sg6p6f1abm77japg","pricing_plan_id":"cebpf4jnsgd1na2vs0mg"},{"bike_id":"1ab4d925-8df5-4ec5-b625-823c3f82ee51","system_id":"levelo_inurba_marseille","lat":43.273656,"lon":5.390734,"is_reserved":false,"is_disabled":false,"rental_uris":{"android":"levelo://app?vid=1ab4d925-8df5-4ec5-b625-823c3f82ee51","ios":"levelo://app?vid=1ab4d925-8df5-4ec5-b625-823c3f82ee51"},"vehicle_type_id":"4","last_reported":1745583585,"current_range_meters":20400,"station_id":"ce4bhi12rcd13ifvqfq0","pricing_plan_id":"cebpf4jnsgd1na2vs0mg"},{"bike_id":"cc611b86-7431-4b90-b826-43e21c497067","system_id":"levelo_inurba_marseille","lat":43.26031,"lon":5.37548,"is_reserved":false,"is_disabled":false,"rental_uris":{"android":"levelo://app?vid=cc611b86-7431-4b90-b826-43e21c497067","ios":"levelo://app?vid=cc611b86-7431-4b90-b826-43e21c497067"},"vehicle_type_id":"4","last_reported":1745583585,"current_range_meters":20800,"station_id":"ce4bhgh2rcd13ifvqfa0","pricing_plan_id":"cebpf4jnsgd1na2vs0mg"},{"bike_id":"e6f0b5a2-c895-4d4d-b478-a988bec1679c","system_id":"levelo_inurba_marseille","lat":43.21188,"lon":5.35072,"is_reserved":false,"is_disabled":false,"rental_uris":{"android":"levelo://app?vid=e6f0b5a2-c895-4d4d-b478-a988bec1679c","ios":"levelo://app?vid=e6f0b5a2-c895-4d4d-b478-a988bec1679c"},"vehicle_type_id":"4","last_reported":1745583585,"current_range_meters":20800,"station_id":"st_cvj6sg6p6f1abm77japg","pricing_plan_id":"cebpf4jnsgd1na2vs0mg"},{"bike_id":"45d6f589-c1bd-43bb-8b5c-c8e76cd665a8","system_id":"levelo_inurba_marseille","lat":43.313545,"lon":5.38489,"is_reserved":false,"is_disabled":false,"rental_uris":{"android":"levelo://app?vid=45d6f589-c1bd-43bb-8b5c-c8e76cd665a8","ios":"levelo://app?vid=45d6f589-c1bd-43bb-8b5c-c8e76cd665a8"},"vehicle_type_id":"4","last_reported":1745583585,"current_range_meters":20800,"station_id":"ce4bh012rcd13ifvqcv0","pricing_plan_id":"cebpf4jnsgd1na2vs0mg"},{"bike_id":"429a2824-25d3-4e87-8865-ec398d90ebca","system_id":"levelo_inurba_marseille","lat":43.21193,"lon":5.35072,"is_reserved":false,"is_disabled":false,"rental_uris":{"android":"levelo://app?vid=429a2824-25d3-4e87-8865-ec398d90ebca","ios":"levelo://app?vid=429a2824-25d3-4e87-8865-ec398d90ebca"},"vehicle_type_id":"4","last_reported":1745583585,"current_range_meters":20800,"station_id":"st_cvj6sg6p6f1abm77japg","pricing_plan_id":"cebpf4jnsgd1na2vs0mg"},{"bike_id":"c84a57d0-d785-4d99-9cbd-cebfcd9a7e6f","system_id":"levelo_inurba_marseille","lat":43.2593,"lon":5.40912,"is_reserved":false,"is_disabled":false,"rental_uris":{"android":"levelo://app?vid=c84a57d0-d785-4d99-9cbd-cebfcd9a7e6f","ios":"levelo://app?vid=c84a57d0-d785-4d99-9cbd-cebfcd9a7e6f"},"vehicle_type_id":"4","last_reported":1745583585,"current_range_meters":20800,"station_id":"ce4bhm92rcd13ifvqglg","pricing_plan_id":"cebpf4jnsgd1na2vs0mg"},{"bike_id":"617fbf20-bb15-4117-b0a0-f63054ce20f7","system_id":"levelo_inurba_marseille","lat":43.21194,"lon":5.35073,"is_reserved":false,"is_disabled":false,"rental_uris":{"android":"levelo://app?vid=617fbf20-bb15-4117-b0a0-f63054ce20f7","ios":"levelo://app?vid=617fbf20-bb15-4117-b0a0-f63054ce20f7"},"vehicle_type_id":"4","last_reported":1745583585,"current_range_meters":20800,"station_id":"st_cvj6sg6p6f1abm77japg","pricing_plan_id":"cebpf4jnsgd1na2vs0mg"},{"bike_id":"c4a53509-be92-4892-a8fe-317213f579a2","system_id":"levelo_inurba_marseille","lat":43.28615,"lon":5.35103,"is_reserved":false,"is_disabled":true,"rental_uris":{"android":"levelo://app?vid=c4a53509-be92-4892-a8fe-317213f579a2","ios":"levelo://app?vid=c4a53509-be92-4892-a8fe-317213f579a2"},"vehicle_type_id":"4","last_reported":1745583585,"current_range_meters":20800,"station_id":"ce4bhch2rcd13ifvqeug","pricing_plan_id":"cebpf4jnsgd1na2vs0mg"},