{"last_updated":1726859233,"ttl":30,"version":"2.2","data":{"bikes":[{"bike_id":"afe159f4-c1bc-4c14-b01d-5fea9b272a4e","system_id":"levelo_inurba_marseille","lat":43.29006,"lon":5.38641,"is_reserved":false,"is_disabled":false,"rental_uris":{"android":"levelo://app?vid=afe159f4-c1bc-4c14-b01d-5fea9b272a4e","ios":"levelo://app?vid=afe159f4-c1bc-4c14-b01d-5fea9b272a4e"},"vehicle_type_id":"4","last_reported":1726859234,"current_range_meters":18000,"station_id":"ce4bh4p2rcd13ifvqe0g","pricing_plan_id":"cebpf4jnsgd1na2vs0mg"},{"bike_id":"f662e825-9148-4a09-82cd-289cff82a6e2","system_id":"levelo_inurba_marseille","lat":43.27809,"lon":5.40716,"is_reserved":false,"is_disabled":false,"rental_uris":{"android":"levelo://app?vid=f662e825-9148-4a09-82cd-289cff82a6e2","ios":"levelo://app?vid=f662e825-9148-4a09-82cd-289cff82a6e2"},"vehicle_type_id":"4","last_reported":1726859234,"current_range_meters":16400,"station_id":"ce4bhnh2rcd13ifvqgtg","pricing_plan_id":"cebpf4jnsgd1na2vs0mg"},{"bike_id":"32d32e1a-d8de-4aaa-810f-05c70ee5692e","system_id":"levelo_inurba_marseille","lat":43.29415,"lon":5.38636,"is_reserved":false,"is_disabled":false,"rental_uris":{"android":"levelo://app?vid=32d32e1a-d8de-4aaa-810f-05c70ee5692e","ios":"levelo://app?vid=32d32e1a-d8de-4aaa-810f-05c70ee5692e"},"vehicle_type_id":"4","last_reported":1726859234,"current_range_meters":17200,"station_id":"ce4bh2h2rcd13ifvqdh0","pricing_plan_id":"cebpf4jnsgd1na2vs0mg"},{"bike_id":"caeb01e1-f6ca-4785-8d66-d5a031a43aa7","system_id":"levelo_inurba_marseille","lat":43.25087,"lon":5.39512,"is_reserved":false,"is_disabled":false,"rental_uris":{"android":"levelo://app?vid=caeb01e1-f6ca-4785-8d66-d5a031a43aa7","ios":"levelo://app?vid=caeb01e1-f6ca-4785-8d66-d5a031a43aa7"},"vehicle_type_id":"4","last_reported":1726859234,"current_range_meters":36000,"station_id":"ce4bhm12rcd13ifvqgkg","pricing_plan_id":"cebpf4jnsgd1na2vs0mg"},{"bike_id":"d4d370f9-9dc0-4c3d-8ac7-32b242113a77","system_id":"levelo_inurba_marseille","lat":43.29536,"lon":5.38548,"is_reserved":false,"is_disabled":false,"rental_uris":{"android":"levelo://app?vid=d4d370f9-9dc0-4c3d-8ac7-32b242113a77","ios":"levelo://app?vid=d4d370f9-9dc0-4c3d-8ac7-32b242113a77"},"vehicle_type_id":"4","last_reported":1726859234,"current_range_meters":37600,"station_id":"ce4bgih2rcd13ifvqba0","pricing_plan_id":"cebpf4jnsgd1na2vs0mg"},{"bike_id":"898010b2-a398-4436-beb2-86f1532ee4de","system_id":"levelo_inurba_marseille","lat":43.29034,"lon":5.38648,"is_reserved":false,"is_disabled":false,"rental_uris":{"android":"levelo://app?vid=898010b2-a398-4436-beb2-86f1532ee4de","ios":"levelo://app?vid=898010b2-a398-4436-beb2-86f1532ee4de"},"vehicle_type_id":"4","last_reported":1726859234,"current_range_meters":38400,"station_id":"ce4bh4p2rcd13ifvqe0g","pricing_plan_id":"cebpf4jnsgd1na2vs0mg"},{"bike_id":"87c1c8a5-e765-4be9-857a-0376ae47acce","system_id":"levelo_inurba_marseille","lat":43.29305,"lon":5.37462,"is_reserved":false,"is_disabled":false,"rental_uris":{"android":"levelo://app?vid=87c1c8a5-e765-4be9-857a-0376ae47acce","ios":"levelo://app?vid=87c1c8a5-e765-4be9-857a-0376ae47acce"},"vehicle_type_id":"4","last_reported":1726859234,"current_range_meters":32800,"station_id":"ce4bgi12rcd13ifvqb70","pricing_plan_id":"cebpf4jnsgd1na2vs0mg"},{"bike_id":"0b8a8090-6e5f-43b0-b17c-d34f86f34063","system_id":"levelo_inurba_marseille","lat":43.28935,"lon":5.36649,"is_reserved":false,"is_disabled":false,"rental_uris":{"android":"levelo://app?vid=0b8a8090-6e5f-43b0-b17c-d34f86f34063","ios":"levelo://app?vid=0b8a8090-6e5f-43b0-b17c-d34f86f34063"},"vehicle_type_id":"4","last_reported":1726859234,"current_range_meters":37600,"station_id":"ce4bhap2rcd13ifvqek0","pricing_plan_id":"cebpf4jnsgd1na2vs0mg"},{"bike_id":"b1ada13d-1686-48d5-b698-c2ba4cfd2bc2","system_id":"levelo_inurba_marseille","lat":43.29782,"lon":5.3934,"is_reserved":false,"is_disabled":false,"rental_uris":{"android":"levelo://app?vid=b1ada13d-1686-48d5-b698-c2ba4cfd2bc2","ios":"levelo://app?vid=b1ada13d-1686-48d5-b698-c2ba4cfd2bc2"},"vehicle_type_id":"4","last_reported":1726859234,"current_range_meters":5600,"station_id":"chh1huq6cuj3fo74tm60","pricing_plan_id":"cebpf4jnsgd1na2vs0mg"},{"bike_id":"dca5b0d6-35a0-4d52-b58c-da656a31864d","system_id":"levelo_inurba_marseille","lat":43.31174,"lon":5.38727,"is_reserved":false,"is_disabled":false,"rental_uris":{"android":"levelo://app?vid=dca5b0d6-35a0-4d52-b58c-da656a31864d","ios":"levelo://app?vid=dca5b0d6-35a0-4d52-b58c-da656a31864d"},"vehicle_type_id":"4","last_reported":1726859234,"current_range_meters":35600,"station_id":"ce4bgv12rcd13ifvqcp0","pricing_plan_id":"cebpf4jnsgd1na2vs0mg"},{"bike_id":"1bd7cb82-3a6a-4d22-9aad-b6f4bfe34ea2","system_id":"levelo_inurba_marseille","lat":43.299692,"lon":5.371705,"is_reserved":false,"is_disabled":false,"rental_uris":{"android":"levelo://app?vid=1bd7cb82-3a6a-4d22-9aad-b6f4bfe34ea2","ios":"levelo://app?vid=1bd7cb82-3a6a-4d22-9aad-b6f4bfe34ea2"},"vehicle_type_id":"4","last_reported":1726859234,"current_range_meters":32000,"station_id":"ce4bgr92rcd13ifvqc7g","pricing_plan_id":"cebpf4jnsgd1na2vs0mg"},{"bike_id":"7adb6a9c-fc7c-4226-a40a-fdb37f7e5bd8","system_id":"levelo_inurba_marseille","lat":43.24661,"lon":5.3816,"is_reserved":false,"is_disabled":false,"rental_uris":{"android":"levelo://app?vid=7adb6a9c-fc7c-4226-a40a-fdb37f7e5bd8","ios":"levelo://app?vid=7adb6a9c-fc7c-4226-a40a-fdb37f7e5bd8"},"vehicle_type_id":"4","last_reported":1726859234,"current_range_meters":38800,"station_id":"ce4bhih2rcd13ifvqfr0","pricing_plan_id":"cebpf4jnsgd1na2vs0mg"},{"bike_id":"3d9367e7-4334-4398-8840-7e7fd729c93f","system_id":"levelo_inurba_marseille","lat":43.32481,"lon":5.3657,"is_reserved":false,"is_disabled":false,"rental_uris":{"android":"levelo://app?vid=3d9367e7-4334-4398-8840-7e7fd729c93f","ios":"levelo://app?vid=3d9367e7-4334-4398-8840-7e7fd729c93f"},"vehicle_type_id":"4","last_reported":1726859234,"current_range_meters":38800,"station_id":"ce4bhs12rcd13ifvqhvg","pricing_plan_id":"cebpf4jnsgd1na2vs0mg"},{"bike_id":"fc8f2c52-2fa7-4d6f-8e4e-1d2ffd27f76d","system_id":"levelo_inurba_marseille","lat":43.31122,"lon":5.37767,"is_reserved":false,"is_disabled":false,"rental_uris":{"android":"levelo://app?vid=fc8f2c52-2fa7-4d6f-8e4e-1d2ffd27f76d","ios":"levelo://app?vid=fc8f2c52-2fa7-4d6f-8e4e-1d2ffd27f76d"},"vehicle_type_id":"4","last_reported":1726859234,"current_range_meters":38000,"station_id":"ce4bgt92rcd13ifvqcg0","pricing_plan_id":"cebpf4jnsgd1na2vs0mg"},{"bike_id":"ac452bc1-04a2-4bc8-b05d-b33c154dcfa5","system_id":"levelo_inurba_marseille","lat":43.27309,"lon":5.39095,"is_reserved":false,"is_disabled":false,"rental_uris":{"android":"levelo://app?vid=ac452bc1-04a2-4bc8-b05d-b33c154dcfa5","ios":"levelo://app?vid=ac452bc1-04a2-4bc8-b05d-b33c154dcfa5"},"vehicle_type_id":"4","last_reported":1726859234,"current_range_meters":12800,"station_id":"ce4bhgp2rcd13ifvqfe0","pricing_plan_id":"cebpf4jnsgd1na2vs0mg"},{"bike_id":"a6ed4969-0556-414d-860c-5de0f6bbce5a","system_id":"levelo_inurba_marseille","lat":43.27374,"lon":5.36268,"is_reserved":false,"is_disabled":false,"rental_uris":{"android":"levelo://app?vid=a6ed4969-0556-414d-860c-5de0f6bbce5a","ios":"levelo://app?vid=a6ed4969-0556-414d-860c-5de0f6bbce5a"},"vehicle_type_id":"4","last_reported":1726859234,"current_range_meters":24400,"station_id":"ce4bhbh2rcd13ifvqeo0","pricing_plan_id":"cebpf4jnsgd1na2vs0mg"},{"bike_id":"548ff5e8-4be6-4fa2-b210-beb1ef8053de","system_id":"levelo_inurba_marseille","lat":43.33024,"lon":5.39046,"is_reserved":false,"is_disabled":false,"rental_uris":{"android":"levelo://app?vid=548ff5e8-4be6-4fa2-b210-beb1ef8053de","ios":"levelo://app?vid=548ff5e8-4be6-4fa2-b210-beb1ef8053de"},"vehicle_type_id":"4","last_reported":1726859234,"current_range_meters":20400,"station_id":"ce4bhr92rcd13ifvqhrg","pricing_plan_id":"cebpf4jnsgd1na2vs0mg"},{"bike_id":"a5db291a-7ea3-46af-83c9-1ffbd5842767","system_id":"levelo_inurba_marseille","lat":43.27371,"lon":5.36264,"is_reserved":false,"is_disabled":false,"rental_uris":{"android":"levelo://app?vid=a5db291a-7ea3-46af-83c9-1ffbd5842767","ios":"levelo://app?vid=a5db291a-7ea3-46af-83c9-1ffbd5842767"},"vehicle_type_id":"4","last_reported":1726859234,"current_range_meters":6000,"station_id":"ce4bhbh2rcd13ifvqeo0","pricing_plan_id":"cebpf4jnsgd1na2vs0mg"},{"bike_id":"c1ce2b0d-0e8b-488f-ba6f-7590d3498ef6","system_id":"levelo_inurba_marseille","lat":43.29703,"lon":5.37702,"is_reserved":false,"is_disabled":false,"rental_uris":{"android":"levelo://app?vid=c1ce2b0d-0e8b-488f-ba6f-7590d3498ef6","ios":"levelo://app?vid=c1ce2b0d-0e8b-488f-ba6f-7590d3498ef6"},"vehicle_type_id":"4","last_reported":1726859234,"current_range_meters":34000,"station_id":"ce4bgkh2rcd13ifvqbl0","pricing_plan_id":"cebpf4jnsgd1na2vs0mg"},{"bike_id":"553c4abe-6f46-4d97-a409-7725c0c56fc0","system_id":"levelo_inurba_marseille","lat":43.25577,"lon":5.38238,"is_reserved":false,"is_disabled":false,"rental_uris":{"android":"levelo://app?vid=553c4abe-6f46-4d97-a409-7725c0c56fc0","ios":"levelo://app?vid=553c4abe-6f46-4d97-a409-7725c0c56fc0"},"vehicle_type_id":"4","last_reported":1726859234,"current_range_meters":10000,"station_id":"ce4bhih2rcd13ifvqfs0","pricing_plan_id":"cebpf4jnsgd1na2vs0mg"},{"bike_id":"da30903d-945e-4048-9931-f370d4c6279e","system_id":"levelo_inurba_marseille","lat":43.23153,"lon":5.43728,"is_reserved":false,"is_disabled":false,"rental_uris":{"android":"levelo://app?vid=da30903d-945e-4048-9931-f370d4c6279e","ios":"levelo://app?vid=da30903d-945e-4048-9931-f370d4c6279e"},"vehicle_type_id":"4","last_reported":1726859234,"current_range_meters":36800,"station_id":"ce4bhmp2rcd13ifvqgog","pricing_plan_id":"cebpf4jnsgd1na2vs0mg"},{"bike_id":"acfd38db-e93b-4b83-9afa-11e828273dc3","system_id":"levelo_inurba_marseille","lat":43.33022,"lon":5.39038,"is_reserved":false,"is_disabled":false,"rental_uris":{"android":"levelo://app?vid=acfd38db-e93b-4b83-9afa-11e828273dc3","ios":"levelo://app?vid=acfd38db-e93b-4b83-9afa-11e828273dc3"},"vehicle_type_id":"4","last_reported":1726859234,"current_range_meters":6400,"station_id":"ce4bhr92rcd13ifvqhrg","pricing_plan_id":"cebpf4jnsgd1na2vs0mg"},{"bike_id":"91d3179b-f594-478d-88ef-0e7917da756a","system_id":"levelo_inurba_marseille","lat":43.31321,"lon":5.39698,"is_reserved":false,"is_disabled":false,"rental_uris":{"android":"levelo://app?vid=91d3179b-f594-478d-88ef-0e7917da756a","ios":"levelo://app?vid=91d3179b-f594-478d-88ef-0e7917da756a"},"vehicle_type_id":"4","last_reported":1726859234,"current_range_meters":12400,"station_id":"ce4bgvp2rcd13ifvqcu0","pricing_plan_id":"cebpf4jnsgd1na2vs0mg"},{"bike_id":"bf6a0df4-e95b-4dae-8389-1b46575b78e1","system_id":"levelo_inurba_marseille","lat":43.29271,"lon":5.38441,"is_reserved":false,"is_disabled":false,"rental_uris":{"android":"levelo://app?vid=bf6a0df4-e95b-4dae-8389-1b46575b78e1","ios":"levelo://app?vid=bf6a0df4-e95b-4dae-8389-1b46575b78e1"},"vehicle_type_id":"4","last_reported":1726859234,"current_range_meters":38800,"station_id":"ce4bh692rcd13ifvqea0","pricing_plan_id":"cebpf4jnsgd1na2vs0mg"},{"bike_id":"f317d07b-6dec-4e3b-9c08-8f9ace586f72","system_id":"levelo_inurba_marseille","lat":43.25873,"lon":5.39894,"is_reserved":false,"is_disabled":false,"rental_uris":{"android":"levelo://app?vid=f317d07b-6dec-4e3b-9c08-8f9ace586f72","ios":"levelo://app?vid=f317d07b-6dec-4e3b-9c08-8f9ace586f72"},"vehicle_type_id":"4","last_reported":1726859234,"current_range_meters":28400,"station_id":"ce4bhl92rcd13ifvqghg","pricing_plan_id":"cebpf4jnsgd1na2vs0mg"},{"bike_id":"9d7fbe92-9073-4fb1-990b-21e3e35ebc39","system_id":"levelo_inurba_marseille","lat":43.29976,"lon":5.38495,"is_reserved":false,"is_disabled":false,"rental_uris":{"android":"levelo://app?vid=9d7fbe92-9073-4fb1-990b-21e3e35ebc39","ios":"levelo://app?vid=9d7fbe92-9073-4fb1-990b-21e3e35ebc39"},"vehicle_type_id":"4","last_reported":1726859234,"current_range_meters":4800,"station_id":"ce4bgj92rcd13ifvqbd0","pricing_plan_id":"cebpf4jnsgd1na2vs0mg"},{"bike_id":"8599327e-7a38-42cc-bae8-5460e681ba0a","system_id":"levelo_inurba_marseille","lat":43.31752,"lon":5.39026,"is_reserved":false,"is_disabled":false,"rental_uris":{"android":"levelo://app?vid=8599327e-7a38-42cc-bae8-5460e681ba0a","ios":"levelo://app?vid=8599327e-7a38-42cc-bae8-5460e681ba0a"},"vehicle_type_id":"4","last_reported":1726859234,"current_range_meters":38800,"station_id":"ce4bhqp2rcd13ifvqhng","pricing_plan_id":"cebpf4jnsgd1na2vs0mg"},{"bike_id":"0cf007f8-1862-440f-bf89-93555973e909","system_id":"levelo_inurba_marseille","lat":43.24079,"lon":5.37762,"is_reserved":false,"is_disabled":false,"rental_uris":{"android":"levelo://app?vid=0cf007f8-1862-440f-bf89-93555973e909","ios":"levelo://app?vid=0cf007f8-1862-440f-bf89-93555973e909"},"vehicle_type_id":"4","last_reported":1726859234,"current_range_meters":15200,"station_id":"ce4bhnp2rcd13ifvqgvg","pricing_plan_id":"cebpf4jnsgd1na2vs0mg"},{"bike_id":"b8afe22f-c0f3-483c-bb5f-6071483e5e25","system_id":"levelo_inurba_marseille","lat":43.25937,"lon":5.40906,"is_reserved":false,"is_disabled":false,"rental_uris":{"android":"levelo://app?vid=b8afe22f-c0f3-483c-bb5f-6071483e5e25","ios":"levelo://app?vid=b8afe22f-c0f3-483c-bb5f-6071483e5e25"},"vehicle_type_id":"4","last_reported":1726859234,"current_range_meters":35600,"station_id":"ce4bhm92rcd13ifvqglg","pricing_plan_id":"cebpf4jnsgd1na2vs0mg"},{"bike_id":"ec379a5b-4209-4180-b06f-c102f5356f5e","system_id":"levelo_inurba_marseille","lat":43.3042,"lon":5.38891,"is_reserved":false,"is_disabled":false,"rental_uris":{"android":"levelo://app?vid=ec379a5b-4209-4180-b06f-c102f5356f5e","ios":"levelo://app?vid=ec379a5b-4209-4180-b06f-c102f5356f5e"},"vehicle_type_id":"4","last_reported":1726859234,"current_range_meters":9200,"station_id":"ce4bgk12rcd13ifvqbi0","pricing_plan_id":"cebpf4jnsgd1na2vs0mg"},{"bike_id":"edfb1ff5-b81b-4225-8da9-100a9115b1e3","system_id":"levelo_inurba_marseille","lat":43.29735,"lon":5.36561,"is_reserved":false,"is_disabled":false,"rental_uris":{"android":"levelo://app?vid=edfb1ff5-b81b-4225-8da9-100a9115b1e3","ios":"levelo://app?vid=edfb1ff5-b81b-4225-8da9-100a9115b1e3"},"vehicle_type_id":"4","last_reported":1726859234,"current_range_meters":11600,"station_id":"","pricing_plan_id":"cebpf4jnsgd1na2vs0mg"},{"bike_id":"cbf173d3-75ff-4076-8057-38c884ca8911","system_id":"levelo_inurba_marseille","lat":43.28718,"lon":5.37938,"is_reserved":false,"is_disabled":false,"rental_uris":{"android":"levelo://app?vid=cbf173d3-75ff-4076-8057-38c884ca8911","ios":"levelo://app?vid=cbf173d3-75ff-4076-8057-38c884ca8911"},"vehicle_type_id":"4","last_reported":1726859234,"current_range_meters":24400,"station_id":"ce4bh9p2rcd13ifvqec0","pricing_plan_id":"cebpf4jnsgd1na2vs0mg"},{"bike_id":"696ce13e-0552-4e4d-88c4-154156eb8a6c","system_id":"levelo_inurba_marseille","lat":43.304282,"lon":5.388875,"is_reserved":false,"is_disabled":false,"rental_uris":{"android":"levelo://app?vid=696ce13e-0552-4e4d-88c4-154156eb8a6c","ios":"levelo://app?vid=696ce13e-0552-4e4d-88c4-154156eb8a6c"},"vehicle_type_id":"4","last_reported":1726859234,"current_range_meters":23200,"station_id":"ce4bgk12rcd13ifvqbi0","pricing_plan_id":"cebpf4jnsgd1na2vs0mg"},{"bike_id":"15e3060d-1cfb-481c-9f48-257a94bd2c2a","system_id":"levelo_inurba_marseille","lat":43.32477,"lon":5.40757,"is_reserved":false,"is_disabled":false,"rental_uris":{"android":"levelo://app?vid=15e3060d-1cfb-481c-9f48-257a94bd2c2a","ios":"levelo://app?vid=15e3060d-1cfb-481c-9f48-257a94bd2c2a"},"vehicle_type_id":"4","last_reported":1726859234,"current_range_meters":36000,"station_id":"","pricing_plan_id":"cebpf4jnsgd1na2vs0mg"},{"bike_id":"ee6423ab-11b6-4ae7-b939-b7f886103365","system_id":"levelo_inurba_marseille","lat":43.2996,"lon":5.41326,"is_reserved":false,"is_disabled":false,"rental_uris":{"android":"levelo://app?vid=ee6423ab-11b6-4ae7-b939-b7f886103365","ios":"levelo://app?vid=ee6423ab-11b6-4ae7-b939-b7f886103365"},"vehicle_type_id":"4","last_reported":1726859234,"current_range_meters":38000,"station_id":"ce4bhp12rcd13ifvqh9g","pricing_plan_id":"cebpf4jnsgd1na2vs0mg"},{"bike_id":"9a7554e7-fe85-4852-a448-30d3e7fd07d7","system_id":"levelo_inurba_marseille","lat":43.23149,"lon":5.43716,"is_reserved":false,"is_disabled":false,"rental_uris":{"android":"levelo://app?vid=9a7554e7-fe85-4852-a448-30d3e7fd07d7","ios":"levelo://app?vid=9a7554e7-fe85-4852-a448-30d3e7fd07d7"},"vehicle_type_id":"4","last_reported":1726859234,"current_range_meters":38400,"station_id":"ce4bhmp2rcd13ifvqgog","pricing_plan_id":"cebpf4jnsgd1na2vs0mg"},{"bike_id":"7a432638-6fd6-4274-96d7-f403174703fc","system_id":"levelo_inurba_marseille","lat":43.24804,"lon":5.37454,"is_reserved":false,"is_disabled":false,"rental_uris":{"android":"levelo://app?vid=7a432638-6fd6-4274-96d7-f403174703fc","ios":"levelo://app?vid=7a432638-6fd6-4274-96d7-f403174703fc"},"vehicle_type_id":"4","last_reported":1726859234,"current_range_meters":2800,"station_id":"ce4bhgh2rcd13ifvqfb0","pricing_plan_id":"cebpf4jnsgd1na2vs0mg"},{"bike_id":"d6c2db1e-0e33-4fc6-8f6d-85f89d4f7644","system_id":"levelo_inurba_marseille","lat":43.29268,"lon":5.36852,"is_reserved":false,"is_disabled":false,"rental_uris":{"android":"levelo://app?vid=d6c2db1e-0e33-4fc6-8f6d-85f89d4f7644","ios":"levelo://app?vid=d6c2db1e-0e33-4fc6-8f6d-85f89d4f7644"},"vehicle_type_id":"4","last_reported":1726859234,"current_range_meters":8000,"station_id":"ce4bhbp2rcd13ifvqesg","pricing_plan_id":"cebpf4jnsgd1na2vs0mg"},{"bike_id":"e4cd288b-58e9-4c73-81ff-0e54d332441e","system_id":"levelo_inurba_marseille","lat":43.33021,"lon":5.39045,"is_reserved":false,"is_disabled":false,"rental_uris":{"android":"levelo://app?vid=e4cd288b-58e9-4c73-81ff-0e54d332441e","ios":"levelo://app?vid=e4cd288b-58e9-4c73-81ff-0e54d332441e"},"vehicle_type_id":"4","last_reported":1726859234,"current_range_meters":20000,"station_id":"ce4bhr92rcd13ifvqhrg","pricing_plan_id":"cebpf4jnsgd1na2vs0mg"},{"bike_id":"b4d8cc2f-08fa-447c-98aa-3fb508700768","system_id":"levelo_inurba_marseille","lat":43.28954,"lon":5.35785,"is_reserved":false,"is_disabled":false,"rental_uris":{"android":"levelo://app?vid=b4d8cc2f-08fa-447c-98aa-3fb508700768","ios":"levelo://app?vid=b4d8cc2f-08fa-447c-98aa-3fb508700768"},"vehicle_type_id":"4","last_reported":1726859234,"current_range_meters":8000,"station_id":"","pricing_plan_id":"cebpf4jnsgd1na2vs0mg"},{"bike_id":"4a456850-c57c-44e7-9915-7559fe6d24e5","system_id":"levelo_inurba_marseille","lat":43.29275,"lon":5.36848,"is_reserved":false,"is_disabled":false,"rental_uris":{"android":"levelo://app?vid=4a456850-c57c-44e7-9915-7559fe6d24e5","ios":"levelo://app?vid=4a456850-c57c-44e7-9915-7559fe6d24e5"},"vehicle_type_id":"4","last_reported":1726859234,"current_range_meters":10000,"station_id":"ce4bhbp2rcd13ifvqesg","pricing_plan_id":"cebpf4jnsgd1na2vs0mg"},{"bike_id":"53b0d88c-3ddb-4e2e-a1d5-9ea3b0a5c6d1","system_id":"levelo_inurba_marseille","lat":43.31328,"lon":5.39702,"is_reserved":false,"is_disabled":false,"rental_uris":{"android":"levelo://app?vid=53b0d88c-3ddb-4e2e-a1d5-9ea3b0a5c6d1","ios":"levelo://app?vid=53b0d88c-3ddb-4e2e-a1d5-9ea3b0a5c6d1"},"vehicle_type_id":"4","last_reported":1726859234,"current_range_meters":29600,"station_id":"ce4bgvp2rcd13ifvqcu0","pricing_plan_id":"cebpf4jnsgd1na2vs0mg"},{"bike_id":"e0f3cafc-89e1-4dbf-8cbf-7d6e1a9aa756","system_id":"levelo_inurba_marseille","lat":43.26804,"lon":5.40274,"is_reserved":false,"is_disabled":false,"rental_uris":{"android":"levelo://app?vid=e0f3cafc-89e1-4dbf-8cbf-7d6e1a9aa756","ios":"levelo://app?vid=e0f3cafc-89e1-4dbf-8cbf-7d6e1a9aa756"},"vehicle_type_id":"4","last_reported":1726859234,"current_range_meters":3200,"station_id":"ce501612rcd8frsf0b60","pricing_plan_id":"cebpf4jnsgd1na2vs0mg"},{"bike_id":"e6236159-99d7-40c8-a12a-11644f456abd","system_id":"levelo_inurba_marseille","lat":43.303,"lon":5.40091,"is_reserved":false,"is_disabled":false,"rental_uris":{"android":"levelo://app?vid=e6236159-99d7-40c8-a12a-11644f456abd","ios":"levelo://app?vid=e6236159-99d7-40c8-a12a-11644f456abd"},"vehicle_type_id":"4","last_reported":1726859234,"current_range_meters":36800,"station_id":"ce4bgvh2rcd13ifvqcs0","pricing_plan_id":"cebpf4jnsgd1na2vs0mg"},{"bike_id":"8a833cb0-382c-44a2-a576-47e8ec505c5f","system_id":"levelo_inurba_marseille","lat":43.291992,"lon":5.393458,"is_reserved":false,"is_disabled":false,"rental_uris":{"android":"levelo://app?vid=8a833cb0-382c-44a2-a576-47e8ec505c5f","ios":"levelo://app?vid=8a833cb0-382c-44a2-a576-47e8ec505c5f"},"vehicle_type_id":"4","last_reported":1726859234,"current_range_meters":27200,"station_id":"ce4bh192rcd13ifvqdd0","pricing_plan_id":"cebpf4jnsgd1na2vs0mg"},{"bike_id":"b538d5ae-4253-466c-9c53-f1880ab49b3d","system_id":"levelo_inurba_marseille","lat":43.298004,"lon":5.380929,"is_reserved":false,"is_disabled":false,"rental_uris":{"android":"levelo://app?vid=b538d5ae-4253-466c-9c53-f1880ab49b3d","ios":"levelo://app?vid=b538d5ae-4253-466c-9c53-f1880ab49b3d"},"vehicle_type_id":"4","last_reported":1726859234,"current_range_meters":6800,"station_id":"ce4bgip2rcd13ifvqbb0","pricing_plan_id":"cebpf4jnsgd1na2vs0mg"},{"bike_id":"c233e8dd-3568-4742-b185-4db76ce73584","system_id":"levelo_inurba_marseille","lat":43.29226,"lon":5.41938,"is_reserved":false,"is_disabled":false,"rental_uris":{"android":"levelo://app?vid=c233e8dd-3568-4742-b185-4db76ce73584","ios":"levelo://app?vid=c233e8dd-3568-4742-b185-4db76ce73584"},"vehicle_type_id":"4","last_reported":1726859234,"current_range_meters":24000,"station_id":"","pricing_plan_id":"cebpf4jnsgd1na2vs0mg"},{"bike_id":"dc4f9d56-8306-4d1f-bdca-3652cb525ce6","system_id":"levelo_inurba_marseille","lat":43.28357,"lon":5.38103,"is_reserved":false,"is_disabled":false,"rental_uris":{"android":"levelo://app?vid=dc4f9d56-8306-4d1f-bdca-3652cb525ce6","ios":"levelo://app?vid=dc4f9d56-8306-4d1f-bdca-3652cb525ce6"},"vehicle_type_id":"4","last_reported":1726859234,"current_range_meters":39200,"station_id":"ce4bh412rcd13ifvqdr0","pricing_plan_id":"cebpf4jnsgd1na2vs0mg"},{"bike_id":"60de6a96-67bb-42da-8e3d-ac6c13c37dc3","system_id":"levelo_inurba_marseille","lat":43.29577,"lon":5.36741,"is_reserved":false,"is_disabled":false,"rental_uris":{"android":"levelo://app?vid=60de6a96-67bb-42da-8e3d-ac6c13c37dc3","ios":"levelo://app?vid=60de6a96-67bb-42da-8e3d-ac6c13c37dc3"},"vehicle_type_id":"4","last_reported":1726859234,"current_range_meters":34800,"station_id":"ce4bgph2rcd13ifvqc2g","pricing_plan_id":"cebpf4jnsgd1na2vs0mg"},{"bike_id":"a32c32ee-9da1-4f85-9e7a-059610180c1a","system_id":"levelo_inurba_marseille","lat":43.283752,"lon":5.386378,"is_reserved":false,"is_disabled":false,"rental_uris":{"android":"levelo://app?vid=a32c32ee-9da1-4f85-9e7a-059610180c1a","ios":"levelo://app?vid=a32c32ee-9da1-4f85-9e7a-059610180c1a"},"vehicle_type_id":"4","last_reported":1726859234,"current_range_meters":16000,"station_id":"ce4bh492rcd13ifvqdvg","pricing_plan_id":"cebpf4jnsgd1na2vs0mg"},{"bike_id":"5840a821-7b4a-4179-8856-92a74917e83c","system_id":"levelo_inurba_marseille","lat":43.25004,"lon":5.38932,"is_reserved":false,"is_disabled":false,"rental_uris":{"android":"levelo://app?vid=5840a821-7b4a-4179-8856-92a74917e83c","ios":"levelo://app?vid=5840a821-7b4a-4179-8856-92a74917e83c"},"vehicle_type_id":"4","last_reported":1726859234,"current_range_meters":38400,"station_id":"ce4bhgp2rcd13ifvqfd0","pricing_plan_id":"cebpf4jnsgd1na2vs0mg"},{"bike_id":"d4642f17-1257-4932-99eb-07162a326286","system_id":"levelo_inurba_marseille","lat":43.29251,"lon":5.3845,"is_reserved":false,"is_disabled":false,"rental_uris":{"android":"levelo://app?vid=d4642f17-1257-4932-99eb-07162a326286","ios":"levelo://app?vid=d4642f17-1257-4932-99eb-07162a326286"},"vehicle_type_id":"4","last_reported":1726859234,"current_range_meters":6800,"station_id":"ce4bh692rcd13ifvqea0","pricing_plan_id":"cebpf4jnsgd1na2vs0mg"},{"bike_id":"5419b1bf-d37c-4076-a34c-52ede101758e","system_id":"levelo_inurba_marseille","lat":43.337444,"lon":5.374475,"is_reserved":false,"is_disabled":false,"rental_uris":{"android":"levelo://app?vid=5419b1bf-d37c-4076-a34c-52ede101758e","ios":"levelo://app?vid=5419b1bf-d37c-4076-a34c-52ede101758e"},"vehicle_type_id":"4","last_reported":1726859234,"current_range_meters":36000,"station_id":"","pricing_plan_id":"cebpf4jnsgd1na2vs0mg"},{"bike_id":"bbf44ec6-7188-41eb-817d-e939a5765349","system_id":"levelo_inurba_marseille","lat":43.31327,"lon":5.39696,"is_reserved":false,"is_disabled":false,"rental_uris":{"android":"levelo://app?vid=bbf44ec6-7188-41eb-817d-e939a5765349","ios":"levelo://app?vid=bbf44ec6-7188-41eb-817d-e939a5765349"},"vehicle_type_id":"4","last_reported":1726859234,"current_range_meters":22000,"station_id":"ce4bgvp2rcd13ifvqcu0","pricing_plan_id":"cebpf4jnsgd1na2vs0mg"},{"bike_id":"e1a78edb-a6b6-4109-9d71-a029a19cf510","system_id":"levelo_inurba_marseille","lat":43.297856,"lon":5.370989,"is_reserved":false,"is_disabled":false,"rental_uris":{"android":"levelo://app?vid=e1a78edb-a6b6-4109-9d71-a029a19cf510","ios":"levelo://app?vid=e1a78edb-a6b6-4109-9d71-a029a19cf510"},"vehicle_type_id":"4","last_reported":1726859234,"current_range_meters":3200,"station_id":"ce4bgop2rcd13ifvqc1g","pricing_plan_id":"cebpf4jnsgd1na2vs0mg"},{"bike_id":"f7575c27-994c-406f-8323-578b38c16d91","system_id":"levelo_inurba_marseille","lat":43.28735,"lon":5.36532,"is_reserved":false,"is_disabled":false,"rental_uris":{"android":"levelo://app?vid=f7575c27-994c-406f-8323-578b38c16d91","ios":"levelo://app?vid=f7575c27-994c-406f-8323-578b38c16d91"},"vehicle_type_id":"4","last_reported":1726859234,"current_range_meters":34000,"station_id":"","pricing_plan_id":"cebpf4jnsgd1na2vs0mg"},{"bike_id":"598304d3-f8d3-448e-8a71-06db80bfb9e1","system_id":"levelo_inurba_marseille","lat":43.30443,"lon":5.36646,"is_reserved":false,"is_disabled":false,"rental_uris":{"android":"levelo://app?vid=598304d3-f8d3-448e-8a71-06db80bfb9e1","ios":"levelo://app?vid=598304d3-f8d3-448e-8a71-06db80bfb9e1"},"vehicle_type_id":"4","last_reported":1726859234,"current_range_meters":8800,"station_id":"","pricing_plan_id":"cebpf4jnsgd1na2vs0mg"},{"bike_id":"8f08e8d0-7288-483b-8c02-c3c0aeea4fdc","system_id":"levelo_inurba_marseille","lat":43.28097,"lon":5.3784,"is_reserved":false,"is_disabled":false,"rental_uris":{"android":"levelo://app?vid=8f08e8d0-7288-483b-8c02-c3c0aeea4fdc","ios":"levelo://app?vid=8f08e8d0-7288-483b-8c02-c3c0aeea4fdc"},"vehicle_type_id":"4","last_reported":1726859234,"current_range_meters":35200,"station_id":"ce4bha12rcd13ifvqee0","pricing_plan_id":"cebpf4jnsgd1na2vs0mg"},{"bike_id":"5899dc76-4576-41fc-91db-67e269faacc4","system_id":"levelo_inurba_marseille","lat":43.31758,"lon":5.39019,"is_reserved":false,"is_disabled":false,"rental_uris":{"android":"levelo://app?vid=5899dc76-4576-41fc-91db-67e269faacc4","ios":"levelo://app?vid=5899dc76-4576-41fc-91db-67e269faacc4"},"vehicle_type_id":"4","last_reported":1726859234,"current_range_meters":38800,"station_id":"ce4bhqp2rcd13ifvqhng","pricing_plan_id":"cebpf4jnsgd1na2vs0mg"},{"bike_id":"9203739a-774a-4b9c-832c-d982cfd4c7c1","system_id":"levelo_inurba_marseille","lat":43.31623,"lon":5.38601,"is_reserved":false,"is_disabled":false,"rental_uris":{"android":"levelo://app?vid=9203739a-774a-4b9c-832c-d982cfd4c7c1","ios":"levelo://app?vid=9203739a-774a-4b9c-832c-d982cfd4c7c1"},"vehicle_type_id":"4","last_reported":1726859234,"current_range_meters":9600,"station_id":"","pricing_plan_id":"cebpf4jnsgd1na2vs0mg"},{"bike_id":"6e2fd8fb-799c-468d-a60b-38d2bf81aa37","system_id":"levelo_inurba_marseille","lat":43.23952,"lon":5.3664,"is_reserved":false,"is_disabled":false,"rental_uris":{"android":"levelo://app?vid=6e2fd8fb-799c-468d-a60b-38d2bf81aa37","ios":"levelo://app?vid=6e2fd8fb-799c-468d-a60b-38d2bf81aa37"},"vehicle_type_id":"4","last_reported":1726859234,"current_range_meters":6800,"station_id":"ce4bhi12rcd13ifvqfp0","pricing_plan_id":"cebpf4jnsgd1na2vs0mg"},{"bike_id":"a83f0fbb-87a9-47fb-a553-8c8526ae435f","system_id":"levelo_inurba_marseille","lat":43.249969,"lon":5.389247,"is_reserved":false,"is_disabled":false,"rental_uris":{"android":"levelo://app?vid=a83f0fbb-87a9-47fb-a553-8c8526ae435f","ios":"levelo://app?vid=a83f0fbb-87a9-47fb-a553-8c8526ae435f"},"vehicle_type_id":"4","last_reported":1726859234,"current_range_meters":27600,"station_id":"ce4bhgp2rcd13ifvqfd0","pricing_plan_id":"cebpf4jnsgd1na2vs0mg"},{"bike_id":"fb730c85-cef2-43fb-877c-de273059500e","system_id":"levelo_inurba_marseille","lat":43.31755,"lon":5.3902,"is_reserved":false,"is_disabled":false,"rental_uris":{"android":"levelo://app?vid=fb730c85-cef2-43fb-877c-de273059500e","ios":"levelo://app?vid=fb730c85-cef2-43fb-877c-de273059500e"},"vehicle_type_id":"4","last_reported":1726859234,"current_range_meters":38800,"station_id":"ce4bhqp2rcd13ifvqhng","pricing_plan_id":"cebpf4jnsgd1na2vs0mg"},{"bike_id":"770c4546-c9d5-493a-97b3-94eaeca25111","system_id":"levelo_inurba_marseille","lat":43.32482,"lon":5.36579,"is_reserved":false,"is_disabled":false,"rental_uris":{"android":"levelo://app?vid=770c4546-c9d5-493a-97b3-94eaeca25111","ios":"levelo://app?vid=770c4546-c9d5-493a-97b3-94eaeca25111"},"vehicle_type_id":"4","last_reported":1726859234,"current_range_meters":22800,"station_id":"ce4bhs12rcd13ifvqhvg","pricing_plan_id":"cebpf4jnsgd1na2vs0mg"},{"bike_id":"680b0eb4-c09a-42fa-bc05-c1e6da70632d","system_id":"levelo_inurba_marseille","lat":43.25869,"lon":5.39898,"is_reserved":false,"is_disabled":false,"rental_uris":{"android":"levelo://app?vid=680b0eb4-c09a-42fa-bc05-c1e6da70632d","ios":"levelo://app?vid=680b0eb4-c09a-42fa-bc05-c1e6da70632d"},"vehicle_type_id":"4","last_reported":1726859234,"current_range_meters":24000,"station_id":"ce4bhl92rcd13ifvqghg","pricing_plan_id":"cebpf4jnsgd1na2vs0mg"},{"bike_id":"e1b79ad2-9f21-48f7-816d-5d7dda34d738","system_id":"levelo_inurba_marseille","lat":43.27368,"lon":5.36259,"is_reserved":false,"is_disabled":false,"rental_uris":{"android":"levelo://app?vid=e1b79ad2-9f21-48f7-816d-5d7dda34d738","ios":"levelo://app?vid=e1b79ad2-9f21-48f7-816d-5d7dda34d738"},"vehicle_type_id":"4","last_reported":1726859234,"current_range_meters":30800,"station_id":"ce4bhbh2rcd13ifvqeo0","pricing_plan_id":"cebpf4jnsgd1na2vs0mg"},{"bike_id":"40b30bf1-df0a-47fd-bf93-8f163c982ffe","system_id":"levelo_inurba_marseille","lat":43.32285,"lon":5.3827,"is_reserved":false,"is_disabled":false,"rental_uris":{"android":"levelo://app?vid=40b30bf1-df0a-47fd-bf93-8f163c982ffe","ios":"levelo://app?vid=40b30bf1-df0a-47fd-bf93-8f163c982ffe"},"vehicle_type_id":"4","last_reported":1726859234,"current_range_meters":38800,"station_id":"ce4bhr12rcd13ifvqhqg","pricing_plan_id":"cebpf4jnsgd1na2vs0mg"},{"bike_id":"bd248bc7-a1a6-4c83-92d3-231a636890e1","system_id":"levelo_inurba_marseille","lat":43.30798,"lon":5.4353,"is_reserved":false,"is_disabled":false,"rental_uris":{"android":"levelo://app?vid=bd248bc7-a1a6-4c83-92d3-231a636890e1","ios":"levelo://app?vid=bd248bc7-a1a6-4c83-92d3-231a636890e1"},"vehicle_type_id":"4","last_reported":1726859234,"current_range_meters":36800,"station_id":"ce4bhph2rcd13ifvqheg","pricing_plan_id":"cebpf4jnsgd1na2vs0mg"},{"bike_id":"43400213-965c-4306-a822-5f50cf0f21a0","system_id":"levelo_inurba_marseille","lat":43.2318,"lon":5.39991,"is_reserved":false,"is_disabled":false,"rental_uris":{"android":"levelo://app?vid=43400213-965c-4306-a822-5f50cf0f21a0","ios":"levelo://app?vid=43400213-965c-4306-a822-5f50cf0f21a0"},"vehicle_type_id":"4","last_reported":1726859234,"current_range_meters":22800,"station_id":"ce4bhn12rcd13ifvqgqg","pricing_plan_id":"cebpf4jnsgd1na2vs0mg"},{"bike_id":"604c9531-be4f-4974-bfe2-bd7828d7386f","system_id":"levelo_inurba_marseille","lat":43.29893,"lon":5.43685,"is_reserved":false,"is_disabled":false,"rental_uris":{"android":"levelo://app?vid=604c9531-be4f-4974-bfe2-bd7828d7386f","ios":"levelo://app?vid=604c9531-be4f-4974-bfe2-bd7828d7386f"},"vehicle_type_id":"4","last_reported":1726859234,"current_range_meters":27200,"station_id":"ce4bhpp2rcd13ifvqhfg","pricing_plan_id":"cebpf4jnsgd1na2vs0mg"},{"bike_id":"ee0de92b-47eb-4015-8436-bc491aab98a8","system_id":"levelo_inurba_marseille","lat":43.28444,"lon":5.39196,"is_reserved":false,"is_disabled":false,"rental_uris":{"android":"levelo://app?vid=ee0de92b-47eb-4015-8436-bc491aab98a8","ios":"levelo://app?vid=ee0de92b-47eb-4015-8436-bc491aab98a8"},"vehicle_type_id":"4","last_reported":1726859234,"current_range_meters":6800,"station_id":"ce4bhoh2rcd13ifvqh5g","pricing_plan_id":"cebpf4jnsgd1na2vs0mg"},{"bike_id":"ac7d9b45-ee2a-404a-a3f5-82573bc089e0","system_id":"levelo_inurba_marseille","lat":43.28461,"lon":5.359,"is_reserved":false,"is_disabled":false,"rental_uris":{"android":"levelo://app?vid=ac7d9b45-ee2a-404a-a3f5-82573bc089e0","ios":"levelo://app?vid=ac7d9b45-ee2a-404a-a3f5-82573bc089e0"},"vehicle_type_id":"4","last_reported":1726859234,"current_range_meters":38800,"station_id":"ce4bhah2rcd13ifvqei0","pricing_plan_id":"cebpf4jnsgd1na2vs0mg"},{"bike_id":"67698836-92a3-45e6-84b9-6609ae2856e6","system_id":"levelo_inurba_marseille","lat":43.24802,"lon":5.37459,"is_reserved":false,"is_disabled":false,"rental_uris":{"android":"levelo://app?vid=67698836-92a3-45e6-84b9-6609ae2856e6","ios":"levelo://app?vid=67698836-92a3-45e6-84b9-6609ae2856e6"},"vehicle_type_id":"4","last_reported":1726859234,"current_range_meters":7200,"station_id":"ce4bhgh2rcd13ifvqfb0","pricing_plan_id":"cebpf4jnsgd1na2vs0mg"},{"bike_id":"e5b107f6-bfca-4c71-b7f0-138f6abcbd25","system_id":"levelo_inurba_marseille","lat":43.27371,"lon":5.36262,"is_reserved":false,"is_disabled":false,"rental_uris":{"android":"levelo://app?vid=e5b107f6-bfca-4c71-b7f0-138f6abcbd25","ios":"levelo://app?vid=e5b107f6-bfca-4c71-b7f0-138f6abcbd25"},"vehicle_type_id":"4","last_reported":1726859234,"current_range_meters":15200,"station_id":"ce4bhbh2rcd13ifvqeo0","pricing_plan_id":"cebpf4jnsgd1na2vs0mg"},{"bike_id":"f99ba06d-22d4-4e79-b26c-bd230edbc0ec","system_id":"levelo_inurba_marseille","lat":43.27808,"lon":5.40708,"is_reserved":false,"is_disabled":false,"rental_uris":{"android":"levelo://app?vid=f99ba06d-22d4-4e79-b26c-bd230edbc0ec","ios":"levelo://app?vid=f99ba06d-22d4-4e79-b26c-bd230edbc0ec"},"vehicle_type_id":"4","last_reported":1726859234,"current_range_meters":25200,"station_id":"ce4bhnh2rcd13ifvqgtg","pricing_plan_id":"cebpf4jnsgd1na2vs0mg"},{"bike_id":"5c48e6b5-512d-441e-9c67-e1754091d5d0","system_id":"levelo_inurba_marseille","lat":43.25003,"lon":5.38934,"is_reserved":false,"is_disabled":false,"rental_uris":{"android":"levelo://app?vid=5c48e6b5-512d-441e-9c67-e1754091d5d0","ios":"levelo://app?vid=5c48e6b5-512d-441e-9c67-e1754091d5d0"},"vehicle_type_id":"4","last_reported":1726859234,"current_range_meters":20800,"station_id":"ce4bhgp2rcd13ifvqfd0","pricing_plan_id":"cebpf4jnsgd1na2vs0mg"},{"bike_id":"7ab727a9-6d1f-45d0-94f1-07942cbeabc2","system_id":"levelo_inurba_marseille","lat":43.29176,"lon":5.37156,"is_reserved":false,"is_disabled":false,"rental_uris":{"android":"levelo://app?vid=7ab727a9-6d1f-45d0-94f1-07942cbeabc2","ios":"levelo://app?vid=7ab727a9-6d1f-45d0-94f1-07942cbeabc2"},"vehicle_type_id":"4","last_reported":1726859234,"current_range_meters":16000,"station_id":"ce4bha92rcd13ifvqeh0","pricing_plan_id":"cebpf4jnsgd1na2vs0mg"},{"bike_id":"26bd23e7-0bd3-4acf-90df-d0d657e51cb8","system_id":"levelo_inurba_marseille","lat":43.25113,"lon":5.40324,"is_reserved":false,"is_disabled":false,"rental_uris":{"android":"levelo://app?vid=26bd23e7-0bd3-4acf-90df-d0d657e51cb8","ios":"levelo://app?vid=26bd23e7-0bd3-4acf-90df-d0d657e51cb8"},"vehicle_type_id":"4","last_reported":1726859234,"current_range_meters":38800,"station_id":"ce4bhlh2rcd13ifvqgig","pricing_plan_id":"cebpf4jnsgd1na2vs0mg"},{"bike_id":"bacbcb6f-6ba3-47a4-9766-d815cc2cb915","system_id":"levelo_inurba_marseille","lat":43.293031,"lon":5.37455,"is_reserved":false,"is_disabled":false,"rental_uris":{"android":"levelo://app?vid=bacbcb6f-6ba3-47a4-9766-d815cc2cb915","ios":"levelo://app?vid=bacbcb6f-6ba3-47a4-9766-d815cc2cb915"},"vehicle_type_id":"4","last_reported":1726859234,"current_range_meters":12400,"station_id":"ce4bh9p2rcd13ifvqec0","pricing_plan_id":"cebpf4jnsgd1na2vs0mg"},{"bike_id":"73f813e8-7dbc-4879-b373-efcbff29b799","system_id":"levelo_inurba_marseille","lat":43.29954,"lon":5.41323,"is_reserved":false,"is_disabled":false,"rental_uris":{"android":"levelo://app?vid=73f813e8-7dbc-4879-b373-efcbff29b799","ios":"levelo://app?vid=73f813e8-7dbc-4879-b373-efcbff29b799"},"vehicle_type_id":"4","last_reported":1726859234,"current_range_meters":36000,"station_id":"ce4bhp12rcd13ifvqh9g","pricing_plan_id":"cebpf4jnsgd1na2vs0mg"},{"bike_id":"fb56b2c5-288d-418d-95a8-28beb2a2b528","system_id":"levelo_inurba_marseille","lat":43.28922,"lon":5.38396,"is_reserved":false,"is_disabled":false,"rental_uris":{"android":"levelo://app?vid=fb56b2c5-288d-418d-95a8-28beb2a2b528","ios":"levelo://app?vid=fb56b2c5-288d-418d-95a8-28beb2a2b528"},"vehicle_type_id":"4","last_reported":1726859234,"current_range_meters":40000,"station_id":"ce4bh612rcd13ifvqe6g","pricing_plan_id":"cebpf4jnsgd1na2vs0mg"},{"bike_id":"8273c267-5219-4186-8f32-c3e55203a7ac","system_id":"levelo_inurba_marseille","lat":43.23963,"lon":5.39712,"is_reserved":false,"is_disabled":false,"rental_uris":{"android":"levelo://app?vid=8273c267-5219-4186-8f32-c3e55203a7ac","ios":"levelo://app?vid=8273c267-5219-4186-8f32-c3e55203a7ac"},"vehicle_type_id":"4","last_reported":1726859234,"current_range_meters":8400,"station_id":"","pricing_plan_id":"cebpf4jnsgd1na2vs0mg"},{"bike_id":"94ee525e-6e5a-4084-9d19-3e43f4efbb2f","system_id":"levelo_inurba_marseille","lat":43.28463,"lon":5.35889,"is_reserved":false,"is_disabled":false,"rental_uris":{"android":"levelo://app?vid=94ee525e-6e5a-4084-9d19-3e43f4efbb2f","ios":"levelo://app?vid=94ee525e-6e5a-4084-9d19-3e43f4efbb2f"},"vehicle_type_id":"4","last_reported":1726859234,"current_range_meters":22000,"station_id":"ce4bhah2rcd13ifvqei0","pricing_plan_id":"cebpf4jnsgd1na2vs0mg"},{"bike_id":"fe9ace40-aed0-4f2c-89f9-d5f740e6c7bf","system_id":"levelo_inurba_marseille","lat":43.26546,"lon":5.37284,"is_reserved":false,"is_disabled":false,"rental_uris":{"android":"levelo://app?vid=fe9ace40-aed0-4f2c-89f9-d5f740e6c7bf","ios":"levelo://app?vid=fe9ace40-aed0-4f2c-89f9-d5f740e6c7bf"},"vehicle_type_id":"4","last_reported":1726859234,"current_range_meters":38800,"station_id":"ce4bhg12rcd13ifvqf70","pricing_plan_id":"cebpf4jnsgd1na2vs0mg"},{"bike_id":"ce317e74-0b26-4228-88be-a29ba7339e5b","system_id":"levelo_inurba_marseille","lat":43.3229,"lon":5.40528,"is_reserved":false,"is_disabled":false,"rental_uris":{"android":"levelo://app?vid=ce317e74-0b26-4228-88be-a29ba7339e5b","ios":"levelo://app?vid=ce317e74-0b26-4228-88be-a29ba7339e5b"},"vehicle_type_id":"4","last_reported":1726859234,"current_range_meters":19200,"station_id":"","pricing_plan_id":"cebpf4jnsgd1na2vs0mg"},{"bike_id":"7148ff3a-ef26-44ac-a33f-cb0767045e4d","system_id":"levelo_inurba_marseille","lat":43.23146,"lon":5.43715,"is_reserved":false,"is_disabled":false,"rental_uris":{"android":"levelo://app?vid=7148ff3a-ef26-44ac-a33f-cb0767045e4d","ios":"levelo://app?vid=7148ff3a-ef26-44ac-a33f-cb0767045e4d"},"vehicle_type_id":"4","last_reported":1726859234,"current_range_meters":37600,"station_id":"ce4bhmp2rcd13ifvqgog","pricing_plan_id":"cebpf4jnsgd1na2vs0mg"},{"bike_id":"af135eb6-084e-4310-8f38-5fdea9dc1740","system_id":"levelo_inurba_marseille","lat":43.29534,"lon":5.38558,"is_reserved":false,"is_disabled":false,"rental_uris":{"android":"levelo://app?vid=af135eb6-084e-4310-8f38-5fdea9dc1740","ios":"levelo://app?vid=af135eb6-084e-4310-8f38-5fdea9dc1740"},"vehicle_type_id":"4","last_reported":1726859234,"current_range_meters":32000,"station_id":"ce4bgih2rcd13ifvqba0","pricing_plan_id":"cebpf4jnsgd1na2vs0mg"},{"bike_id":"670a1b65-ba36-4a5a-bc8f-5bd62f5e9ae2","system_id":"levelo_inurba_marseille","lat":43.28557,"lon":5.37428,"is_reserved":false,"is_disabled":false,"rental_uris":{"android":"levelo://app?vid=670a1b65-ba36-4a5a-bc8f-5bd62f5e9ae2","ios":"levelo://app?vid=670a1b65-ba36-4a5a-bc8f-5bd62f5e9ae2"},"vehicle_type_id":"4","last_reported":1726859234,"current_range_meters":38400,"station_id":"","pricing_plan_id":"cebpf4jnsgd1na2vs0mg"},{"bike_id":"3e07e410-9739-42b0-8a20-46ded2ef8d77","system_id":"levelo_inurba_marseille","lat":43.27068,"lon":5.42278,"is_reserved":false,"is_disabled":false,"rental_uris":{"android":"levelo://app?vid=3e07e410-9739-42b0-8a20-46ded2ef8d77","ios":"levelo://app?vid=3e07e410-9739-42b0-8a20-46ded2ef8d77"},"vehicle_type_id":"4","last_reported":1726859234,"current_range_meters":22400,"station_id":"ce4bhk92rcd13ifvqgb0","pricing_plan_id":"cebpf4jnsgd1na2vs0mg"},{"bike_id":"6c34ccae-402e-40b8-9c0d-2e7f312c8354","system_id":"levelo_inurba_marseille","lat":43.25493,"lon":5.3765,"is_reserved":false,"is_disabled":false,"rental_uris":{"android":"levelo://app?vid=6c34ccae-402e-40b8-9c0d-2e7f312c8354","ios":"levelo://app?vid=6c34ccae-402e-40b8-9c0d-2e7f312c8354"},"vehicle_type_id":"4","last_reported":1726859234,"current_range_meters":30800,"station_id":"ce4bhh12rcd13ifvqff0","pricing_plan_id":"cebpf4jnsgd1na2vs0mg"},{"bike_id":"49daad43-ce92-45af-81f9-a82217c3a6e6","system_id":"levelo_inurba_marseille","lat":43.319305,"lon":5.381242,"is_reserved":false,"is_disabled":false,"rental_uris":{"android":"levelo://app?vid=49daad43-ce92-45af-81f9-a82217c3a6e6","ios":"levelo://app?vid=49daad43-ce92-45af-81f9-a82217c3a6e6"},"vehicle_type_id":"4","last_reported":1726859234,"current_range_meters":5600,"station_id":"ce4bhr12rcd13ifvqhpg","pricing_plan_id":"cebpf4jnsgd1na2vs0mg"},{"bike_id":"77f09c4e-2408-4417-a74b-b49e0fe2f4d5","system_id":"levelo_inurba_marseille","lat":43.293243,"lon":5.367627,"is_reserved":false,"is_disabled":false,"rental_uris":{"android":"levelo://app?vid=77f09c4e-2408-4417-a74b-b49e0fe2f4d5","ios":"levelo://app?vid=77f09c4e-2408-4417-a74b-b49e0fe2f4d5"},"vehicle_type_id":"4","last_reported":1726859234,"current_range_meters":24000,"station_id":"","pricing_plan_id":"cebpf4jnsgd1na2vs0mg"},{"bike_id":"d3a9b2ec-a282-44c0-a13f-ec879f0b39a9","system_id":"levelo_inurba_marseille","lat":43.25109,"lon":5.40327,"is_reserved":false,"is_disabled":false,"rental_uris":{"android":"levelo://app?vid=d3a9b2ec-a282-44c0-a13f-ec879f0b39a9","ios":"levelo://app?vid=d3a9b2ec-a282-44c0-a13f-ec879f0b39a9"},"vehicle_type_id":"4","last_reported":1726859234,"current_range_meters":36400,"station_id":"ce4bhlh2rcd13ifvqgig","pricing_plan_id":"cebpf4jnsgd1na2vs0mg"},{"bike_id":"8056aa53-c928-4d29-a223-1b6c6fd35978","system_id":"levelo_inurba_marseille","lat":43.31715,"lon":5.43708,"is_reserved":false,"is_disabled":false,"rental_uris":{"android":"levelo://app?vid=8056aa53-c928-4d29-a223-1b6c6fd35978","ios":"levelo://app?vid=8056aa53-c928-4d29-a223-1b6c6fd35978"},"vehicle_type_id":"4","last_reported":1726859234,"current_range_meters":11200,"station_id":"ce4bhp92rcd13ifvqhcg","pricing_plan_id":"cebpf4jnsgd1na2vs0mg"},{"bike_id":"6448c7ab-b929-42d9-bcf8-5237834a7b3e","system_id":"levelo_inurba_marseille","lat":43.302338,"lon":5.400854,"is_reserved":false,"is_disabled":false,"rental_uris":{"android":"levelo://app?vid=6448c7ab-b929-42d9-bcf8-5237834a7b3e","ios":"levelo://app?vid=6448c7ab-b929-42d9-bcf8-5237834a7b3e"},"vehicle_type_id":"4","last_reported":1726859234,"current_range_meters":20000,"station_id":"ce4bgop2rcd13ifvqc1g","pricing_plan_id":"cebpf4jnsgd1na2vs0mg"},{"bike_id":"7b9dd459-340b-4978-bfb0-6c163a5263e8","system_id":"levelo_inurba_marseille","lat":43.23193,"lon":5.35554,"is_reserved":false,"is_disabled":false,"rental_uris":{"android":"levelo://app?vid=7b9dd459-340b-4978-bfb0-6c163a5263e8","ios":"levelo://app?vid=7b9dd459-340b-4978-bfb0-6c163a5263e8"},"vehicle_type_id":"4","last_reported":1726859234,"current_range_meters":38800,"station_id":"ce4bhu92rcd13ifvqi70","pricing_plan_id":"cebpf4jnsgd1na2vs0mg"},{"bike_id":"006af271-3da4-48eb-b464-e20a9927797e","system_id":"levelo_inurba_marseille","lat":43.26935,"lon":5.40255,"is_reserved":false,"is_disabled":false,"rental_uris":{"android":"levelo://app?vid=006af271-3da4-48eb-b464-e20a9927797e","ios":"levelo://app?vid=006af271-3da4-48eb-b464-e20a9927797e"},"vehicle_type_id":"4","last_reported":1726859234,"current_range_meters":19200,"station_id":"cjm6bp8fraef2m0cb0m0","pricing_plan_id":"cebpf4jnsgd1na2vs0mg"},{"bike_id":"ebf59978-331a-497b-98a0-a384ac6e1738","system_id":"levelo_inurba_marseille","lat":43.25574,"lon":5.3824,"is_reserved":false,"is_disabled":false,"rental_uris":{"android":"levelo://app?vid=ebf59978-331a-497b-98a0-a384ac6e1738","ios":"levelo://app?vid=ebf59978-331a-497b-98a0-a384ac6e1738"},"vehicle_type_id":"4","last_reported":1726859234,"current_range_meters":22800,"station_id":"ce4bhih2rcd13ifvqfs0","pricing_plan_id":"cebpf4jnsgd1na2vs0mg"},{"bike_id":"1ec25b3f-a4e9-43a1-930d-162a35423f79","system_id":"levelo_inurba_marseille","lat":43.29988,"lon":5.37162,"is_reserved":false,"is_disabled":false,"rental_uris":{"android":"levelo://app?vid=1ec25b3f-a4e9-43a1-930d-162a35423f79","ios":"levelo://app?vid=1ec25b3f-a4e9-43a1-930d-162a35423f79"},"vehicle_type_id":"4","last_reported":1726859234,"current_range_meters":35200,"station_id":"ce4bgr92rcd13ifvqc7g","pricing_plan_id":"cebpf4jnsgd1na2vs0mg"},{"bike_id":"15a022f8-27e9-43a6-b87f-8e1f3e0fd779","system_id":"levelo_inurba_marseille","lat":43.31998,"lon":5.38165,"is_reserved":false,"is_disabled":false,"rental_uris":{"android":"levelo://app?vid=15a022f8-27e9-43a6-b87f-8e1f3e0fd779","ios":"levelo://app?vid=15a022f8-27e9-43a6-b87f-8e1f3e0fd779"},"vehicle_type_id":"4","last_reported":1726859234,"current_range_meters":8400,"station_id":"ce4bhr12rcd13ifvqhpg","pricing_plan_id":"cebpf4jnsgd1na2vs0mg"},{"bike_id":"e9b8e590-3bc0-4c22-b946-0db314d5083d","system_id":"levelo_inurba_marseille","lat":43.25855,"lon":5.39903,"is_reserved":false,"is_disabled":false,"rental_uris":{"android":"levelo://app?vid=e9b8e590-3bc0-4c22-b946-0db314d5083d","ios":"levelo://app?vid=e9b8e590-3bc0-4c22-b946-0db314d5083d"},"vehicle_type_id":"4","last_reported":1726859234,"current_range_meters":8400,"station_id":"ce4bhl92rcd13ifvqghg","pricing_plan_id":"cebpf4jnsgd1na2vs0mg"},{"bike_id":"27949590-f043-4b19-955e-e8e602b59a6b","system_id":"levelo_inurba_marseille","lat":43.29971,"lon":5.38495,"is_reserved":false,"is_disabled":false,"rental_uris":{"android":"levelo://app?vid=27949590-f043-4b19-955e-e8e602b59a6b","ios":"levelo://app?vid=27949590-f043-4b19-955e-e8e602b59a6b"},"vehicle_type_id":"4","last_reported":1726859234,"current_range_meters":20800,"station_id":"ce4bgj92rcd13ifvqbd0","pricing_plan_id":"cebpf4jnsgd1na2vs0mg"},{"bike_id":"3740c6df-06cd-419b-9ae6-b8d9e5eff548","system_id":"levelo_inurba_marseille","lat":43.2753,"lon":5.40935,"is_reserved":false,"is_disabled":false,"rental_uris":{"android":"levelo://app?vid=3740c6df-06cd-419b-9ae6-b8d9e5eff548","ios":"levelo://app?vid=3740c6df-06cd-419b-9ae6-b8d9e5eff548"},"vehicle_type_id":"4","last_reported":1726859234,"current_range_meters":20800,"station_id":"","pricing_plan_id":"cebpf4jnsgd1na2vs0mg"},{"bike_id":"2e87570f-9e65-4548-be25-f7598bc0f808","system_id":"levelo_inurba_marseille","lat":43.26813,"lon":5.40276,"is_reserved":false,"is_disabled":false,"rental_uris":{"android":"levelo://app?vid=2e87570f-9e65-4548-be25-f7598bc0f808","ios":"levelo://app?vid=2e87570f-9e65-4548-be25-f7598bc0f808"},"vehicle_type_id":"4","last_reported":1726859234,"current_range_meters":38800,"station_id":"ce501612rcd8frsf0b60","pricing_plan_id":"cebpf4jnsgd1na2vs0mg"},{"bike_id":"8cccd3ae-840e-47ee-8348-15f7ce00f6c2","system_id":"levelo_inurba_marseille","lat":43.286133,"lon":5.351007,"is_reserved":false,"is_disabled":false,"rental_uris":{"android":"levelo://app?vid=8cccd3ae-840e-47ee-8348-15f7ce00f6c2","ios":"levelo://app?vid=8cccd3ae-840e-47ee-8348-15f7ce00f6c2"},"vehicle_type_id":"4","last_reported":1726859234,"current_range_meters":26000,"station_id":"ce4bgpp2rcd13ifvqc3g","pricing_plan_id":"cebpf4jnsgd1na2vs0mg"},{"bike_id":"40ed9b0b-a8eb-4f97-9950-76dc057cd74b","system_id":"levelo_inurba_marseille","lat":43.33022,"lon":5.39046,"is_reserved":false,"is_disabled":false,"rental_uris":{"android":"levelo://app?vid=40ed9b0b-a8eb-4f97-9950-76dc057cd74b","ios":"levelo://app?vid=40ed9b0b-a8eb-4f97-9950-76dc057cd74b"},"vehicle_type_id":"4","last_reported":1726859234,"current_range_meters":9600,"station_id":"ce4bhr92rcd13ifvqhrg","pricing_plan_id":"cebpf4jnsgd1na2vs0mg"},{"bike_id":"3743596c-aa4b-41c2-a09c-22219360e954","system_id":"levelo_inurba_marseille","lat":43.29897,"lon":5.43692,"is_reserved":false,"is_disabled":false,"rental_uris":{"android":"levelo://app?vid=3743596c-aa4b-41c2-a09c-22219360e954","ios":"levelo://app?vid=3743596c-aa4b-41c2-a09c-22219360e954"},"vehicle_type_id":"4","last_reported":1726859234,"current_range_meters":10000,"station_id":"ce4bhpp2rcd13ifvqhfg","pricing_plan_id":"cebpf4jnsgd1na2vs0mg"},{"bike_id":"59882401-3864-48cc-b72f-063424b08269","system_id":"levelo_inurba_marseille","lat":43.28409,"lon":5.37518,"is_reserved":false,"is_disabled":false,"rental_uris":{"android":"levelo://app?vid=59882401-3864-48cc-b72f-063424b08269","ios":"levelo://app?vid=59882401-3864-48cc-b72f-063424b08269"},"vehicle_type_id":"4","last_reported":1726859234,"current_range_meters":38800,"station_id":"ce4bh412rcd13ifvqds0","pricing_plan_id":"cebpf4jnsgd1na2vs0mg"},{"bike_id":"3e307069-2362-44ef-a52d-ed77b7344d48","system_id":"levelo_inurba_marseille","lat":43.30876,"lon":5.39651,"is_reserved":false,"is_disabled":false,"rental_uris":{"android":"levelo://app?vid=3e307069-2362-44ef-a52d-ed77b7344d48","ios":"levelo://app?vid=3e307069-2362-44ef-a52d-ed77b7344d48"},"vehicle_type_id":"4","last_reported":1726859234,"current_range_meters":36000,"station_id":"ce4bh012rcd13ifvqcv0","pricing_plan_id":"cebpf4jnsgd1na2vs0mg"},{"bike_id":"184aa16c-e0ec-4208-94dc-b3783231ff10","system_id":"levelo_inurba_marseille","lat":43.25491,"lon":5.37649,"is_reserved":false,"is_disabled":false,"rental_uris":{"android":"levelo://app?vid=184aa16c-e0ec-4208-94dc-b3783231ff10","ios":"levelo://app?vid=184aa16c-e0ec-4208-94dc-b3783231ff10"},"vehicle_type_id":"4","last_reported":1726859234,"current_range_meters":28000,"station_id":"ce4bhh12rcd13ifvqff0","pricing_plan_id":"cebpf4jnsgd1na2vs0mg"},{"bike_id":"b2538b31-8860-4175-95a8-b8e767064e48","system_id":"levelo_inurba_marseille","lat":43.24807,"lon":5.3746,"is_reserved":false,"is_disabled":false,"rental_uris":{"android":"levelo://app?vid=b2538b31-8860-4175-95a8-b8e767064e48","ios":"levelo://app?vid=b2538b31-8860-4175-95a8-b8e767064e48"},"vehicle_type_id":"4","last_reported":1726859234,"current_range_meters":38800,"station_id":"ce4bhgh2rcd13ifvqfb0","pricing_plan_id":"cebpf4jnsgd1na2vs0mg"},{"bike_id":"b4ea877f-e8bd-4ebc-b318-5ca882458b5a","system_id":"levelo_inurba_marseille","lat":43.29422,"lon":5.3862,"is_reserved":false,"is_disabled":false,"rental_uris":{"android":"levelo://app?vid=b4ea877f-e8bd-4ebc-b318-5ca882458b5a","ios":"levelo://app?vid=b4ea877f-e8bd-4ebc-b318-5ca882458b5a"},"vehicle_type_id":"4","last_reported":1726859234,"current_range_meters":38000,"station_id":"ce4bh2h2rcd13ifvqdh0","pricing_plan_id":"cebpf4jnsgd1na2vs0mg"},{"bike_id":"d645f2e3-b5b5-4efc-a2d7-c4bab4fe1130","system_id":"levelo_inurba_marseille","lat":43.27939,"lon":5.41046,"is_reserved":false,"is_disabled":false,"rental_uris":{"android":"levelo://app?vid=d645f2e3-b5b5-4efc-a2d7-c4bab4fe1130","ios":"levelo://app?vid=d645f2e3-b5b5-4efc-a2d7-c4bab4fe1130"},"vehicle_type_id":"4","last_reported":1726859234,"current_range_meters":37600,"station_id":"ce4bho92rcd13ifvqh4g","pricing_plan_id":"cebpf4jnsgd1na2vs0mg"},{"bike_id":"9a46bd4b-bf17-4f9c-8037-09362669cb36","system_id":"levelo_inurba_marseille","lat":43.28911,"lon":5.36667,"is_reserved":false,"is_disabled":false,"rental_uris":{"android":"levelo://app?vid=9a46bd4b-bf17-4f9c-8037-09362669cb36","ios":"levelo://app?vid=9a46bd4b-bf17-4f9c-8037-09362669cb36"},"vehicle_type_id":"4","last_reported":1726859234,"current_range_meters":30800,"station_id":"ce4bhap2rcd13ifvqek0","pricing_plan_id":"cebpf4jnsgd1na2vs0mg"},{"bike_id":"91006022-5583-49ff-b64f-2e5b55eb0d97","system_id":"levelo_inurba_marseille","lat":43.27058,"lon":5.40265,"is_reserved":false,"is_disabled":false,"rental_uris":{"android":"levelo://app?vid=91006022-5583-49ff-b64f-2e5b55eb0d97","ios":"levelo://app?vid=91006022-5583-49ff-b64f-2e5b55eb0d97"},"vehicle_type_id":"4","last_reported":1726859234,"current_range_meters":38400,"station_id":"ce4bhk92rcd13ifvqgc0","pricing_plan_id":"cebpf4jnsgd1na2vs0mg"},{"bike_id":"3c8f5a98-5af6-4ab4-a7e4-0ab537d1a50b","system_id":"levelo_inurba_marseille","lat":43.26192,"lon":5.37452,"is_reserved":false,"is_disabled":false,"rental_uris":{"android":"levelo://app?vid=3c8f5a98-5af6-4ab4-a7e4-0ab537d1a50b","ios":"levelo://app?vid=3c8f5a98-5af6-4ab4-a7e4-0ab537d1a50b"},"vehicle_type_id":"4","last_reported":1726859234,"current_range_meters":36400,"station_id":"ce4bhgp2rcd13ifvqfc0","pricing_plan_id":"cebpf4jnsgd1na2vs0mg"},{"bike_id":"acd8cd3f-cbd3-4d3f-a901-0e7f26403371","system_id":"levelo_inurba_marseille","lat":43.29013,"lon":5.37207,"is_reserved":false,"is_disabled":false,"rental_uris":{"android":"levelo://app?vid=acd8cd3f-cbd3-4d3f-a901-0e7f26403371","ios":"levelo://app?vid=acd8cd3f-cbd3-4d3f-a901-0e7f26403371"},"vehicle_type_id":"4","last_reported":1726859234,"current_range_meters":38800,"station_id":"","pricing_plan_id":"cebpf4jnsgd1na2vs0mg"},{"bike_id":"b516c5dc-0206-4b48-a6ba-4cd31be6bb25","system_id":"levelo_inurba_marseille","lat":43.25495,"lon":5.37652,"is_reserved":false,"is_disabled":false,"rental_uris":{"android":"levelo://app?vid=b516c5dc-0206-4b48-a6ba-4cd31be6bb25","ios":"levelo://app?vid=b516c5dc-0206-4b48-a6ba-4cd31be6bb25"},"vehicle_type_id":"4","last_reported":1726859234,"current_range_meters":23200,"station_id":"ce4bhh12rcd13ifvqff0","pricing_plan_id":"cebpf4jnsgd1na2vs0mg"},{"bike_id":"4f6cd953-65f5-4d4f-a052-70118d864e1d","system_id":"levelo_inurba_marseille","lat":43.29893,"lon":5.43669,"is_reserved":false,"is_disabled":false,"rental_uris":{"android":"levelo://app?vid=4f6cd953-65f5-4d4f-a052-70118d864e1d","ios":"levelo://app?vid=4f6cd953-65f5-4d4f-a052-70118d864e1d"},"vehicle_type_id":"4","last_reported":1726859234,"current_range_meters":11600,"station_id":"ce4bhpp2rcd13ifvqhfg","pricing_plan_id":"cebpf4jnsgd1na2vs0mg"},{"bike_id":"8f54b537-86b2-4295-88c1-ace6ca78eb96","system_id":"levelo_inurba_marseille","lat":43.30188,"lon":5.373932,"is_reserved":false,"is_disabled":false,"rental_uris":{"android":"levelo://app?vid=8f54b537-86b2-4295-88c1-ace6ca78eb96","ios":"levelo://app?vid=8f54b537-86b2-4295-88c1-ace6ca78eb96"},"vehicle_type_id":"4","last_reported":1726859234,"current_range_meters":21600,"station_id":"ce4bgqh2rcd13ifvqc4g","pricing_plan_id":"cebpf4jnsgd1na2vs0mg"},{"bike_id":"610ae2bc-1ce0-4157-8b8a-62d460f1da9c","system_id":"levelo_inurba_marseille","lat":43.22922,"lon":5.35376,"is_reserved":false,"is_disabled":false,"rental_uris":{"android":"levelo://app?vid=610ae2bc-1ce0-4157-8b8a-62d460f1da9c","ios":"levelo://app?vid=610ae2bc-1ce0-4157-8b8a-62d460f1da9c"},"vehicle_type_id":"4","last_reported":1726859234,"current_range_meters":9200,"station_id":"cpo3532slgdg3j2ikp40","pricing_plan_id":"cebpf4jnsgd1na2vs0mg"},{"bike_id":"c42f3432-473f-499d-8c32-f4113b171b0b","system_id":"levelo_inurba_marseille","lat":43.29785,"lon":5.39332,"is_reserved":false,"is_disabled":false,"rental_uris":{"android":"levelo://app?vid=c42f3432-473f-499d-8c32-f4113b171b0b","ios":"levelo://app?vid=c42f3432-473f-499d-8c32-f4113b171b0b"},"vehicle_type_id":"4","last_reported":1726859234,"current_range_meters":17600,"station_id":"chh1huq6cuj3fo74tm60","pricing_plan_id":"cebpf4jnsgd1na2vs0mg"},{"bike_id":"64b19d8a-e1e8-4ad1-bddd-69c2e1332e51","system_id":"levelo_inurba_marseille","lat":43.293032,"lon":5.374562,"is_reserved":false,"is_disabled":false,"rental_uris":{"android":"levelo://app?vid=64b19d8a-e1e8-4ad1-bddd-69c2e1332e51","ios":"levelo://app?vid=64b19d8a-e1e8-4ad1-bddd-69c2e1332e51"},"vehicle_type_id":"4","last_reported":1726859234,"current_range_meters":33200,"station_id":"ce4bgi12rcd13ifvqb70","pricing_plan_id":"cebpf4jnsgd1na2vs0mg"},{"bike_id":"cee270f2-336c-44dc-98ca-806d83851029","system_id":"levelo_inurba_marseille","lat":43.30139,"lon":5.38774,"is_reserved":false,"is_disabled":false,"rental_uris":{"android":"levelo://app?vid=cee270f2-336c-44dc-98ca-806d83851029","ios":"levelo://app?vid=cee270f2-336c-44dc-98ca-806d83851029"},"vehicle_type_id":"4","last_reported":1726859234,"current_range_meters":0,"station_id":"ce4bghh2rcd13ifvqb60","pricing_plan_id":"cebpf4jnsgd1na2vs0mg"},{"bike_id":"4b6ec19f-cffa-40d0-92f0-d9d23ea6ecfb","system_id":"levelo_inurba_marseille","lat":43.28459,"lon":5.35888,"is_reserved":false,"is_disabled":false,"rental_uris":{"android":"levelo://app?vid=4b6ec19f-cffa-40d0-92f0-d9d23ea6ecfb","ios":"levelo://app?vid=4b6ec19f-cffa-40d0-92f0-d9d23ea6ecfb"},"vehicle_type_id":"4","last_reported":1726859234,"current_range_meters":2800,"station_id":"ce4bhah2rcd13ifvqei0","pricing_plan_id":"cebpf4jnsgd1na2vs0mg"},{"bike_id":"071d99e1-dbf0-4bb1-ac7e-325d03a68ff1","system_id":"levelo_inurba_marseille","lat":43.27497,"lon":5.42453,"is_reserved":false,"is_disabled":false,"rental_uris":{"android":"levelo://app?vid=071d99e1-dbf0-4bb1-ac7e-325d03a68ff1","ios":"levelo://app?vid=071d99e1-dbf0-4bb1-ac7e-325d03a68ff1"},"vehicle_type_id":"4","last_reported":1726859234,"current_range_meters":10800,"station_id":"ce4bhn92rcd13ifvqgrg","pricing_plan_id":"cebpf4jnsgd1na2vs0mg"},{"bike_id":"58014cc6-4f39-4119-a8a0-cdc0e2507820","system_id":"levelo_inurba_marseille","lat":43.32283,"lon":5.38288,"is_reserved":false,"is_disabled":false,"rental_uris":{"android":"levelo://app?vid=58014cc6-4f39-4119-a8a0-cdc0e2507820","ios":"levelo://app?vid=58014cc6-4f39-4119-a8a0-cdc0e2507820"},"vehicle_type_id":"4","last_reported":1726859234,"current_range_meters":39200,"station_id":"ce4bhr12rcd13ifvqhqg","pricing_plan_id":"cebpf4jnsgd1na2vs0mg"},{"bike_id":"7b4f10e0-7be7-43f5-9404-6569311b2d3a","system_id":"levelo_inurba_marseille","lat":43.29604,"lon":5.38099,"is_reserved":false,"is_disabled":false,"rental_uris":{"android":"levelo://app?vid=7b4f10e0-7be7-43f5-9404-6569311b2d3a","ios":"levelo://app?vid=7b4f10e0-7be7-43f5-9404-6569311b2d3a"},"vehicle_type_id":"4","last_reported":1726859234,"current_range_meters":38800,"station_id":"ce4bgl12rcd13ifvqbo0","pricing_plan_id":"cebpf4jnsgd1na2vs0mg"},{"bike_id":"3e6437eb-3d34-4b5f-b169-98bc62fcc1ce","system_id":"levelo_inurba_marseille","lat":43.29266,"lon":5.36847,"is_reserved":false,"is_disabled":false,"rental_uris":{"android":"levelo://app?vid=3e6437eb-3d34-4b5f-b169-98bc62fcc1ce","ios":"levelo://app?vid=3e6437eb-3d34-4b5f-b169-98bc62fcc1ce"},"vehicle_type_id":"4","last_reported":1726859234,"current_range_meters":38800,"station_id":"ce4bhbp2rcd13ifvqesg","pricing_plan_id":"cebpf4jnsgd1na2vs0mg"},{"bike_id":"bce83964-771d-421d-a795-c2b376c5b9dc","system_id":"levelo_inurba_marseille","lat":43.23191,"lon":5.35558,"is_reserved":false,"is_disabled":false,"rental_uris":{"android":"levelo://app?vid=bce83964-771d-421d-a795-c2b376c5b9dc","ios":"levelo://app?vid=bce83964-771d-421d-a795-c2b376c5b9dc"},"vehicle_type_id":"4","last_reported":1726859234,"current_range_meters":18800,"station_id":"ce4bhu92rcd13ifvqi70","pricing_plan_id":"cebpf4jnsgd1na2vs0mg"},{"bike_id":"842fa7b6-23bb-4fb3-b114-449a5a31c46c","system_id":"levelo_inurba_marseille","lat":43.24173,"lon":5.39735,"is_reserved":false,"is_disabled":false,"rental_uris":{"android":"levelo://app?vid=842fa7b6-23bb-4fb3-b114-449a5a31c46c","ios":"levelo://app?vid=842fa7b6-23bb-4fb3-b114-449a5a31c46c"},"vehicle_type_id":"4","last_reported":1726859234,"current_range_meters":9600,"station_id":"ce4bhn12rcd13ifvqgpg","pricing_plan_id":"cebpf4jnsgd1na2vs0mg"},{"bike_id":"5c4bffed-0019-4b39-a45e-d1fccf257ffb","system_id":"levelo_inurba_marseille","lat":43.3133,"lon":5.397,"is_reserved":false,"is_disabled":false,"rental_uris":{"android":"levelo://app?vid=5c4bffed-0019-4b39-a45e-d1fccf257ffb","ios":"levelo://app?vid=5c4bffed-0019-4b39-a45e-d1fccf257ffb"},"vehicle_type_id":"4","last_reported":1726859234,"current_range_meters":30000,"station_id":"ce4bgvp2rcd13ifvqcu0","pricing_plan_id":"cebpf4jnsgd1na2vs0mg"},{"bike_id":"15cd7a34-119b-49a0-9560-5ac25bac30b9","system_id":"levelo_inurba_marseille","lat":43.26958,"lon":5.3863,"is_reserved":false,"is_disabled":false,"rental_uris":{"android":"levelo://app?vid=15cd7a34-119b-49a0-9560-5ac25bac30b9","ios":"levelo://app?vid=15cd7a34-119b-49a0-9560-5ac25bac30b9"},"vehicle_type_id":"4","last_reported":1726859234,"current_range_meters":24400,"station_id":"ce4bhh92rcd13ifvqfh0","pricing_plan_id":"cebpf4jnsgd1na2vs0mg"},{"bike_id":"5f5b6485-ef90-47ff-9bb5-0510db0d5a60","system_id":"levelo_inurba_marseille","lat":43.28417,"lon":5.35002,"is_reserved":false,"is_disabled":false,"rental_uris":{"android":"levelo://app?vid=5f5b6485-ef90-47ff-9bb5-0510db0d5a60","ios":"levelo://app?vid=5f5b6485-ef90-47ff-9bb5-0510db0d5a60"},"vehicle_type_id":"4","last_reported":1726859234,"current_range_meters":6400,"station_id":"ce4bhbh2rcd13ifvqepg","pricing_plan_id":"cebpf4jnsgd1na2vs0mg"},{"bike_id":"6cdbec38-c73a-4c54-b4f2-0995396b95a5","system_id":"levelo_inurba_marseille","lat":43.24176,"lon":5.39733,"is_reserved":false,"is_disabled":false,"rental_uris":{"android":"levelo://app?vid=6cdbec38-c73a-4c54-b4f2-0995396b95a5","ios":"levelo://app?vid=6cdbec38-c73a-4c54-b4f2-0995396b95a5"},"vehicle_type_id":"4","last_reported":1726859234,"current_range_meters":16400,"station_id":"ce4bhn12rcd13ifvqgpg","pricing_plan_id":"cebpf4jnsgd1na2vs0mg"},{"bike_id":"99cd03d9-f961-49a3-ba27-937343d02a5c","system_id":"levelo_inurba_marseille","lat":43.29258,"lon":5.36847,"is_reserved":false,"is_disabled":false,"rental_uris":{"android":"levelo://app?vid=99cd03d9-f961-49a3-ba27-937343d02a5c","ios":"levelo://app?vid=99cd03d9-f961-49a3-ba27-937343d02a5c"},"vehicle_type_id":"4","last_reported":1726859234,"current_range_meters":38800,"station_id":"ce4bhbp2rcd13ifvqesg","pricing_plan_id":"cebpf4jnsgd1na2vs0mg"},{"bike_id":"d72cf0a0-e993-4012-b63c-f4717ebbe5b3","system_id":"levelo_inurba_marseille","lat":43.30211,"lon":5.39469,"is_reserved":false,"is_disabled":false,"rental_uris":{"android":"levelo://app?vid=d72cf0a0-e993-4012-b63c-f4717ebbe5b3","ios":"levelo://app?vid=d72cf0a0-e993-4012-b63c-f4717ebbe5b3"},"vehicle_type_id":"4","last_reported":1726859234,"current_range_meters":22000,"station_id":"ce4bh0p2rcd13ifvqd70","pricing_plan_id":"cebpf4jnsgd1na2vs0mg"},{"bike_id":"d8791b73-869c-4696-b09a-4ba88f40d04f","system_id":"levelo_inurba_marseille","lat":43.3088,"lon":5.39653,"is_reserved":false,"is_disabled":false,"rental_uris":{"android":"levelo://app?vid=d8791b73-869c-4696-b09a-4ba88f40d04f","ios":"levelo://app?vid=d8791b73-869c-4696-b09a-4ba88f40d04f"},"vehicle_type_id":"4","last_reported":1726859234,"current_range_meters":38000,"station_id":"ce4bh012rcd13ifvqcv0","pricing_plan_id":"cebpf4jnsgd1na2vs0mg"},{"bike_id":"4ca03ed1-da5e-42d4-bee8-fe8ae9b0cbb8","system_id":"levelo_inurba_marseille","lat":43.336084,"lon":5.410336,"is_reserved":false,"is_disabled":false,"rental_uris":{"android":"levelo://app?vid=4ca03ed1-da5e-42d4-bee8-fe8ae9b0cbb8","ios":"levelo://app?vid=4ca03ed1-da5e-42d4-bee8-fe8ae9b0cbb8"},"vehicle_type_id":"4","last_reported":1726859234,"current_range_meters":35200,"station_id":"ce4bhqh2rcd13ifvqhmg","pricing_plan_id":"cebpf4jnsgd1na2vs0mg"},{"bike_id":"21feec5a-0b17-4712-9840-81e83eb7b06e","system_id":"levelo_inurba_marseille","lat":43.25115,"lon":5.40327,"is_reserved":false,"is_disabled":false,"rental_uris":{"android":"levelo://app?vid=21feec5a-0b17-4712-9840-81e83eb7b06e","ios":"levelo://app?vid=21feec5a-0b17-4712-9840-81e83eb7b06e"},"vehicle_type_id":"4","last_reported":1726859234,"current_range_meters":38000,"station_id":"ce4bhlh2rcd13ifvqgig","pricing_plan_id":"cebpf4jnsgd1na2vs0mg"},{"bike_id":"89eb76f8-3c97-45ad-bc15-5e2467b3cca1","system_id":"levelo_inurba_marseille","lat":43.24803,"lon":5.37456,"is_reserved":false,"is_disabled":false,"rental_uris":{"android":"levelo://app?vid=89eb76f8-3c97-45ad-bc15-5e2467b3cca1","ios":"levelo://app?vid=89eb76f8-3c97-45ad-bc15-5e2467b3cca1"},"vehicle_type_id":"4","last_reported":1726859234,"current_range_meters":30000,"station_id":"ce4bhgh2rcd13ifvqfb0","pricing_plan_id":"cebpf4jnsgd1na2vs0mg"},{"bike_id":"5eab3bc4-2d82-46ae-96bf-4cd617cd2d1d","system_id":"levelo_inurba_marseille","lat":43.28567,"lon":5.395,"is_reserved":false,"is_disabled":false,"rental_uris":{"android":"levelo://app?vid=5eab3bc4-2d82-46ae-96bf-4cd617cd2d1d","ios":"levelo://app?vid=5eab3bc4-2d82-46ae-96bf-4cd617cd2d1d"},"vehicle_type_id":"4","last_reported":1726859234,"current_range_meters":28000,"station_id":"ce4bh292rcd13ifvqdg0","pricing_plan_id":"cebpf4jnsgd1na2vs0mg"},{"bike_id":"95b5790d-1fcb-4f7b-9992-9bc53efceacd","system_id":"levelo_inurba_marseille","lat":43.25122,"lon":5.40324,"is_reserved":false,"is_disabled":false,"rental_uris":{"android":"levelo://app?vid=95b5790d-1fcb-4f7b-9992-9bc53efceacd","ios":"levelo://app?vid=95b5790d-1fcb-4f7b-9992-9bc53efceacd"},"vehicle_type_id":"4","last_reported":1726859234,"current_range_meters":6400,"station_id":"ce4bhlh2rcd13ifvqgig","pricing_plan_id":"cebpf4jnsgd1na2vs0mg"},{"bike_id":"752ebdae-7819-4d46-9699-903195b5298c","system_id":"levelo_inurba_marseille","lat":43.23177,"lon":5.39995,"is_reserved":false,"is_disabled":false,"rental_uris":{"android":"levelo://app?vid=752ebdae-7819-4d46-9699-903195b5298c","ios":"levelo://app?vid=752ebdae-7819-4d46-9699-903195b5298c"},"vehicle_type_id":"4","last_reported":1726859234,"current_range_meters":28800,"station_id":"ce4bhn12rcd13ifvqgqg","pricing_plan_id":"cebpf4jnsgd1na2vs0mg"},{"bike_id":"1ad3c514-ff41-4c1e-8353-64b83c7e797c","system_id":"levelo_inurba_marseille","lat":43.29026,"lon":5.38647,"is_reserved":false,"is_disabled":false,"rental_uris":{"android":"levelo://app?vid=1ad3c514-ff41-4c1e-8353-64b83c7e797c","ios":"levelo://app?vid=1ad3c514-ff41-4c1e-8353-64b83c7e797c"},"vehicle_type_id":"4","last_reported":1726859234,"current_range_meters":18800,"station_id":"ce4bh4p2rcd13ifvqe0g","pricing_plan_id":"cebpf4jnsgd1na2vs0mg"},{"bike_id":"72a34c91-c309-4417-b5dd-facd8fe55e32","system_id":"levelo_inurba_marseille","lat":43.28975,"lon":5.37834,"is_reserved":false,"is_disabled":false,"rental_uris":{"android":"levelo://app?vid=72a34c91-c309-4417-b5dd-facd8fe55e32","ios":"levelo://app?vid=72a34c91-c309-4417-b5dd-facd8fe55e32"},"vehicle_type_id":"4","last_reported":1726859234,"current_range_meters":30400,"station_id":"ce4bh9p2rcd13ifvqed0","pricing_plan_id":"cebpf4jnsgd1na2vs0mg"},{"bike_id":"fa2e946d-01fe-4bb4-a2b0-55af60a0bcec","system_id":"levelo_inurba_marseille","lat":43.33721,"lon":5.39192,"is_reserved":false,"is_disabled":false,"rental_uris":{"android":"levelo://app?vid=fa2e946d-01fe-4bb4-a2b0-55af60a0bcec","ios":"levelo://app?vid=fa2e946d-01fe-4bb4-a2b0-55af60a0bcec"},"vehicle_type_id":"4","last_reported":1726859234,"current_range_meters":35600,"station_id":"ce4bhr92rcd13ifvqhsg","pricing_plan_id":"cebpf4jnsgd1na2vs0mg"},{"bike_id":"5a4e6715-8411-46b7-bc7a-a3969ed1f52a","system_id":"levelo_inurba_marseille","lat":43.26194,"lon":5.37449,"is_reserved":false,"is_disabled":false,"rental_uris":{"android":"levelo://app?vid=5a4e6715-8411-46b7-bc7a-a3969ed1f52a","ios":"levelo://app?vid=5a4e6715-8411-46b7-bc7a-a3969ed1f52a"},"vehicle_type_id":"4","last_reported":1726859234,"current_range_meters":38800,"station_id":"ce4bhgp2rcd13ifvqfc0","pricing_plan_id":"cebpf4jnsgd1na2vs0mg"},{"bike_id":"96f9a91d-428e-493e-b8c0-fcd22d3c14f4","system_id":"levelo_inurba_marseille","lat":43.23187,"lon":5.3999,"is_reserved":false,"is_disabled":false,"rental_uris":{"android":"levelo://app?vid=96f9a91d-428e-493e-b8c0-fcd22d3c14f4","ios":"levelo://app?vid=96f9a91d-428e-493e-b8c0-fcd22d3c14f4"},"vehicle_type_id":"4","last_reported":1726859234,"current_range_meters":10800,"station_id":"ce4bhn12rcd13ifvqgqg","pricing_plan_id":"cebpf4jnsgd1na2vs0mg"},{"bike_id":"974ab486-ed2d-4b01-823c-6cb562932479","system_id":"levelo_inurba_marseille","lat":43.24999,"lon":5.38927,"is_reserved":false,"is_disabled":false,"rental_uris":{"android":"levelo://app?vid=974ab486-ed2d-4b01-823c-6cb562932479","ios":"levelo://app?vid=974ab486-ed2d-4b01-823c-6cb562932479"},"vehicle_type_id":"4","last_reported":1726859234,"current_range_meters":2800,"station_id":"ce4bhgp2rcd13ifvqfd0","pricing_plan_id":"cebpf4jnsgd1na2vs0mg"},{"bike_id":"bd8d0eb6-334c-44c4-a789-c460addf4741","system_id":"levelo_inurba_marseille","lat":43.33025,"lon":5.3904,"is_reserved":false,"is_disabled":false,"rental_uris":{"android":"levelo://app?vid=bd8d0eb6-334c-44c4-a789-c460addf4741","ios":"levelo://app?vid=bd8d0eb6-334c-44c4-a789-c460addf4741"},"vehicle_type_id":"4","last_reported":1726859234,"current_range_meters":24000,"station_id":"ce4bhr92rcd13ifvqhrg","pricing_plan_id":"cebpf4jnsgd1na2vs0mg"},{"bike_id":"0d804113-0930-4022-832e-28a9fcf62aeb","system_id":"levelo_inurba_marseille","lat":43.304291,"lon":5.388954,"is_reserved":false,"is_disabled":false,"rental_uris":{"android":"levelo://app?vid=0d804113-0930-4022-832e-28a9fcf62aeb","ios":"levelo://app?vid=0d804113-0930-4022-832e-28a9fcf62aeb"},"vehicle_type_id":"4","last_reported":1726859234,"current_range_meters":38800,"station_id":"ce4bgk12rcd13ifvqbi0","pricing_plan_id":"cebpf4jnsgd1na2vs0mg"},{"bike_id":"2b32f6b9-0b93-4761-8bb8-2bd9d20f08f9","system_id":"levelo_inurba_marseille","lat":43.28157,"lon":5.42649,"is_reserved":false,"is_disabled":false,"rental_uris":{"android":"levelo://app?vid=2b32f6b9-0b93-4761-8bb8-2bd9d20f08f9","ios":"levelo://app?vid=2b32f6b9-0b93-4761-8bb8-2bd9d20f08f9"},"vehicle_type_id":"4","last_reported":1726859234,"current_range_meters":17600,"station_id":"ce4bhnh2rcd13ifvqgug","pricing_plan_id":"cebpf4jnsgd1na2vs0mg"},{"bike_id":"a959f0b5-55e4-4920-a3a5-1b773742b059","system_id":"levelo_inurba_marseille","lat":43.31686,"lon":5.40472,"is_reserved":false,"is_disabled":false,"rental_uris":{"android":"levelo://app?vid=a959f0b5-55e4-4920-a3a5-1b773742b059","ios":"levelo://app?vid=a959f0b5-55e4-4920-a3a5-1b773742b059"},"vehicle_type_id":"4","last_reported":1726859234,"current_range_meters":10000,"station_id":"ce4bh012rcd13ifvqd00","pricing_plan_id":"cebpf4jnsgd1na2vs0mg"},{"bike_id":"c5f53eed-5d54-4e3f-a49e-4cbc4eed2318","system_id":"levelo_inurba_marseille","lat":43.30806,"lon":5.43525,"is_reserved":false,"is_disabled":false,"rental_uris":{"android":"levelo://app?vid=c5f53eed-5d54-4e3f-a49e-4cbc4eed2318","ios":"levelo://app?vid=c5f53eed-5d54-4e3f-a49e-4cbc4eed2318"},"vehicle_type_id":"4","last_reported":1726859234,"current_range_meters":3600,"station_id":"ce4bhph2rcd13ifvqheg","pricing_plan_id":"cebpf4jnsgd1na2vs0mg"},{"bike_id":"69f2259f-2b49-4a52-a96f-6d2ca2aaec61","system_id":"levelo_inurba_marseille","lat":43.288055,"lon":5.383488,"is_reserved":false,"is_disabled":false,"rental_uris":{"android":"levelo://app?vid=69f2259f-2b49-4a52-a96f-6d2ca2aaec61","ios":"levelo://app?vid=69f2259f-2b49-4a52-a96f-6d2ca2aaec61"},"vehicle_type_id":"4","last_reported":1726859234,"current_range_meters":36400,"station_id":"ce4bh2h2rcd13ifvqdh0","pricing_plan_id":"cebpf4jnsgd1na2vs0mg"},{"bike_id":"aa29200f-5d7f-4d1e-a8b2-98561eb30973","system_id":"levelo_inurba_marseille","lat":43.31704,"lon":5.4371,"is_reserved":false,"is_disabled":false,"rental_uris":{"android":"levelo://app?vid=aa29200f-5d7f-4d1e-a8b2-98561eb30973","ios":"levelo://app?vid=aa29200f-5d7f-4d1e-a8b2-98561eb30973"},"vehicle_type_id":"4","last_reported":1726859234,"current_range_meters":29600,"station_id":"ce4bhp92rcd13ifvqhcg","pricing_plan_id":"cebpf4jnsgd1na2vs0mg"},{"bike_id":"c8220edd-111d-47de-bc25-1293f1cad497","system_id":"levelo_inurba_marseille","lat":43.302917,"lon":5.391904,"is_reserved":false,"is_disabled":false,"rental_uris":{"android":"levelo://app?vid=c8220edd-111d-47de-bc25-1293f1cad497","ios":"levelo://app?vid=c8220edd-111d-47de-bc25-1293f1cad497"},"vehicle_type_id":"4","last_reported":1726859234,"current_range_meters":12400,"station_id":"ce4bgkp2rcd13ifvqbmg","pricing_plan_id":"cebpf4jnsgd1na2vs0mg"},{"bike_id":"efa09771-62db-417b-b4d3-be5931863570","system_id":"levelo_inurba_marseille","lat":43.29532,"lon":5.38552,"is_reserved":false,"is_disabled":false,"rental_uris":{"android":"levelo://app?vid=efa09771-62db-417b-b4d3-be5931863570","ios":"levelo://app?vid=efa09771-62db-417b-b4d3-be5931863570"},"vehicle_type_id":"4","last_reported":1726859234,"current_range_meters":36400,"station_id":"ce4bgih2rcd13ifvqba0","pricing_plan_id":"cebpf4jnsgd1na2vs0mg"},{"bike_id":"3a759a8c-af9a-402f-85e4-e99028699123","system_id":"levelo_inurba_marseille","lat":43.29415,"lon":5.38626,"is_reserved":false,"is_disabled":false,"rental_uris":{"android":"levelo://app?vid=3a759a8c-af9a-402f-85e4-e99028699123","ios":"levelo://app?vid=3a759a8c-af9a-402f-85e4-e99028699123"},"vehicle_type_id":"4","last_reported":1726859234,"current_range_meters":16000,"station_id":"ce4bh2h2rcd13ifvqdh0","pricing_plan_id":"cebpf4jnsgd1na2vs0mg"},{"bike_id":"fa690805-233a-4a70-a9f3-33f1b67cdb1f","system_id":"levelo_inurba_marseille","lat":43.32289,"lon":5.38263,"is_reserved":false,"is_disabled":false,"rental_uris":{"android":"levelo://app?vid=fa690805-233a-4a70-a9f3-33f1b67cdb1f","ios":"levelo://app?vid=fa690805-233a-4a70-a9f3-33f1b67cdb1f"},"vehicle_type_id":"4","last_reported":1726859234,"current_range_meters":16800,"station_id":"ce4bhr12rcd13ifvqhqg","pricing_plan_id":"cebpf4jnsgd1na2vs0mg"},{"bike_id":"9f1bd971-1dd0-42ab-876b-b82f3f956ffd","system_id":"levelo_inurba_marseille","lat":43.26192,"lon":5.37449,"is_reserved":false,"is_disabled":false,"rental_uris":{"android":"levelo://app?vid=9f1bd971-1dd0-42ab-876b-b82f3f956ffd","ios":"levelo://app?vid=9f1bd971-1dd0-42ab-876b-b82f3f956ffd"},"vehicle_type_id":"4","last_reported":1726859234,"current_range_meters":20800,"station_id":"ce4bhgp2rcd13ifvqfc0","pricing_plan_id":"cebpf4jnsgd1na2vs0mg"},{"bike_id":"29183c29-6d4f-406f-bb7b-ac0f88399c7a","system_id":"levelo_inurba_marseille","lat":43.255578,"lon":5.382324,"is_reserved":false,"is_disabled":false,"rental_uris":{"android":"levelo://app?vid=29183c29-6d4f-406f-bb7b-ac0f88399c7a","ios":"levelo://app?vid=29183c29-6d4f-406f-bb7b-ac0f88399c7a"},"vehicle_type_id":"4","last_reported":1726859234,"current_range_meters":7200,"station_id":"ce4bhih2rcd13ifvqfs0","pricing_plan_id":"cebpf4jnsgd1na2vs0mg"},{"bike_id":"89496093-5d19-4d2d-af92-b4327367eb09","system_id":"levelo_inurba_marseille","lat":43.25863,"lon":5.39904,"is_reserved":false,"is_disabled":false,"rental_uris":{"android":"levelo://app?vid=89496093-5d19-4d2d-af92-b4327367eb09","ios":"levelo://app?vid=89496093-5d19-4d2d-af92-b4327367eb09"},"vehicle_type_id":"4","last_reported":1726859234,"current_range_meters":7200,"station_id":"ce4bhl92rcd13ifvqghg","pricing_plan_id":"cebpf4jnsgd1na2vs0mg"},{"bike_id":"ceac9b2a-14b1-4a8b-97e2-562dc8de25ee","system_id":"levelo_inurba_marseille","lat":43.29572,"lon":5.37527,"is_reserved":false,"is_disabled":false,"rental_uris":{"android":"levelo://app?vid=ceac9b2a-14b1-4a8b-97e2-562dc8de25ee","ios":"levelo://app?vid=ceac9b2a-14b1-4a8b-97e2-562dc8de25ee"},"vehicle_type_id":"4","last_reported":1726859234,"current_range_meters":25200,"station_id":"ce4bgh92rcd13ifvqb50","pricing_plan_id":"cebpf4jnsgd1na2vs0mg"},{"bike_id":"b2763354-ec6c-4733-8de6-6c4493759ae9","system_id":"levelo_inurba_marseille","lat":43.29075,"lon":5.40128,"is_reserved":false,"is_disabled":false,"rental_uris":{"android":"levelo://app?vid=b2763354-ec6c-4733-8de6-6c4493759ae9","ios":"levelo://app?vid=b2763354-ec6c-4733-8de6-6c4493759ae9"},"vehicle_type_id":"4","last_reported":1726859234,"current_range_meters":19200,"station_id":"","pricing_plan_id":"cebpf4jnsgd1na2vs0mg"},{"bike_id":"dbf54ad4-9b0f-4776-ac4c-9e58bb116728","system_id":"levelo_inurba_marseille","lat":43.26556,"lon":5.37284,"is_reserved":false,"is_disabled":false,"rental_uris":{"android":"levelo://app?vid=dbf54ad4-9b0f-4776-ac4c-9e58bb116728","ios":"levelo://app?vid=dbf54ad4-9b0f-4776-ac4c-9e58bb116728"},"vehicle_type_id":"4","last_reported":1726859234,"current_range_meters":24800,"station_id":"ce4bhg12rcd13ifvqf70","pricing_plan_id":"cebpf4jnsgd1na2vs0mg"},{"bike_id":"87c35d8c-b3a1-4453-88dc-a03d898bd2e0","system_id":"levelo_inurba_marseille","lat":43.27323,"lon":5.39085,"is_reserved":false,"is_disabled":false,"rental_uris":{"android":"levelo://app?vid=87c35d8c-b3a1-4453-88dc-a03d898bd2e0","ios":"levelo://app?vid=87c35d8c-b3a1-4453-88dc-a03d898bd2e0"},"vehicle_type_id":"4","last_reported":1726859234,"current_range_meters":25200,"station_id":"ce4bhgp2rcd13ifvqfe0","pricing_plan_id":"cebpf4jnsgd1na2vs0mg"},{"bike_id":"799787a8-b9b1-4283-824d-36e33168f798","system_id":"levelo_inurba_marseille","lat":43.23966,"lon":5.36632,"is_reserved":false,"is_disabled":false,"rental_uris":{"android":"levelo://app?vid=799787a8-b9b1-4283-824d-36e33168f798","ios":"levelo://app?vid=799787a8-b9b1-4283-824d-36e33168f798"},"vehicle_type_id":"4","last_reported":1726859234,"current_range_meters":38000,"station_id":"ce4bhi12rcd13ifvqfp0","pricing_plan_id":"cebpf4jnsgd1na2vs0mg"},{"bike_id":"881ac96f-9b98-44cf-a316-9e554c8e5863","system_id":"levelo_inurba_marseille","lat":43.232,"lon":5.39982,"is_reserved":false,"is_disabled":false,"rental_uris":{"android":"levelo://app?vid=881ac96f-9b98-44cf-a316-9e554c8e5863","ios":"levelo://app?vid=881ac96f-9b98-44cf-a316-9e554c8e5863"},"vehicle_type_id":"4","last_reported":1726859234,"current_range_meters":20000,"station_id":"ce4bhn12rcd13ifvqgqg","pricing_plan_id":"cebpf4jnsgd1na2vs0mg"},{"bike_id":"0653cb10-c12e-4c27-af75-8f3495a98f89","system_id":"levelo_inurba_marseille","lat":43.32288,"lon":5.38272,"is_reserved":false,"is_disabled":false,"rental_uris":{"android":"levelo://app?vid=0653cb10-c12e-4c27-af75-8f3495a98f89","ios":"levelo://app?vid=0653cb10-c12e-4c27-af75-8f3495a98f89"},"vehicle_type_id":"4","last_reported":1726859234,"current_range_meters":38800,"station_id":"ce4bhr12rcd13ifvqhqg","pricing_plan_id":"cebpf4jnsgd1na2vs0mg"},{"bike_id":"17885b12-8626-4cad-9450-bc59d81f3207","system_id":"levelo_inurba_marseille","lat":43.29418,"lon":5.38632,"is_reserved":false,"is_disabled":false,"rental_uris":{"android":"levelo://app?vid=17885b12-8626-4cad-9450-bc59d81f3207","ios":"levelo://app?vid=17885b12-8626-4cad-9450-bc59d81f3207"},"vehicle_type_id":"4","last_reported":1726859234,"current_range_meters":38800,"station_id":"ce4bh2h2rcd13ifvqdh0","pricing_plan_id":"cebpf4jnsgd1na2vs0mg"},{"bike_id":"3109ab5f-83e6-4134-a408-1c8451ecf6a3","system_id":"levelo_inurba_marseille","lat":43.28934,"lon":5.36637,"is_reserved":false,"is_disabled":false,"rental_uris":{"android":"levelo://app?vid=3109ab5f-83e6-4134-a408-1c8451ecf6a3","ios":"levelo://app?vid=3109ab5f-83e6-4134-a408-1c8451ecf6a3"},"vehicle_type_id":"4","last_reported":1726859234,"current_range_meters":9600,"station_id":"ce4bhap2rcd13ifvqek0","pricing_plan_id":"cebpf4jnsgd1na2vs0mg"},{"bike_id":"667dcb1e-82c9-4808-af86-f738f1852fe5","system_id":"levelo_inurba_marseille","lat":43.32476,"lon":5.3658,"is_reserved":false,"is_disabled":false,"rental_uris":{"android":"levelo://app?vid=667dcb1e-82c9-4808-af86-f738f1852fe5","ios":"levelo://app?vid=667dcb1e-82c9-4808-af86-f738f1852fe5"},"vehicle_type_id":"4","last_reported":1726859234,"current_range_meters":30800,"station_id":"ce4bhs12rcd13ifvqhvg","pricing_plan_id":"cebpf4jnsgd1na2vs0mg"},{"bike_id":"c2c9a555-6ec8-4b92-b33e-073571605c93","system_id":"levelo_inurba_marseille","lat":43.23191,"lon":5.35551,"is_reserved":false,"is_disabled":false,"rental_uris":{"android":"levelo://app?vid=c2c9a555-6ec8-4b92-b33e-073571605c93","ios":"levelo://app?vid=c2c9a555-6ec8-4b92-b33e-073571605c93"},"vehicle_type_id":"4","last_reported":1726859234,"current_range_meters":25600,"station_id":"ce4bhu92rcd13ifvqi70","pricing_plan_id":"cebpf4jnsgd1na2vs0mg"},{"bike_id":"64be93d0-07c8-40b6-b937-df67d64dba59","system_id":"levelo_inurba_marseille","lat":43.29535,"lon":5.38539,"is_reserved":false,"is_disabled":false,"rental_uris":{"android":"levelo://app?vid=64be93d0-07c8-40b6-b937-df67d64dba59","ios":"levelo://app?vid=64be93d0-07c8-40b6-b937-df67d64dba59"},"vehicle_type_id":"4","last_reported":1726859234,"current_range_meters":38800,"station_id":"ce4bgih2rcd13ifvqba0","pricing_plan_id":"cebpf4jnsgd1na2vs0mg"},{"bike_id":"4f92f48d-3e8a-48f8-9e11-04642f11f793","system_id":"levelo_inurba_marseille","lat":43.25496,"lon":5.37651,"is_reserved":false,"is_disabled":false,"rental_uris":{"android":"levelo://app?vid=4f92f48d-3e8a-48f8-9e11-04642f11f793","ios":"levelo://app?vid=4f92f48d-3e8a-48f8-9e11-04642f11f793"},"vehicle_type_id":"4","last_reported":1726859234,"current_range_meters":28800,"station_id":"ce4bhh12rcd13ifvqff0","pricing_plan_id":"cebpf4jnsgd1na2vs0mg"},{"bike_id":"3ea8f54f-9145-4e7d-b8dd-375864b1fadc","system_id":"levelo_inurba_marseille","lat":43.31994,"lon":5.37204,"is_reserved":false,"is_disabled":false,"rental_uris":{"android":"levelo://app?vid=3ea8f54f-9145-4e7d-b8dd-375864b1fadc","ios":"levelo://app?vid=3ea8f54f-9145-4e7d-b8dd-375864b1fadc"},"vehicle_type_id":"4","last_reported":1726859234,"current_range_meters":11600,"station_id":"","pricing_plan_id":"cebpf4jnsgd1na2vs0mg"},{"bike_id":"1053714d-1506-4449-be99-204c53308d4d","system_id":"levelo_inurba_marseille","lat":43.31509,"lon":5.37286,"is_reserved":false,"is_disabled":false,"rental_uris":{"android":"levelo://app?vid=1053714d-1506-4449-be99-204c53308d4d","ios":"levelo://app?vid=1053714d-1506-4449-be99-204c53308d4d"},"vehicle_type_id":"4","last_reported":1726859234,"current_range_meters":22800,"station_id":"ce4bgt12rcd13ifvqcd0","pricing_plan_id":"cebpf4jnsgd1na2vs0mg"},{"bike_id":"5dbf763e-c0f2-452b-8768-19f29c48a9f7","system_id":"levelo_inurba_marseille","lat":43.2718,"lon":5.41002,"is_reserved":false,"is_disabled":false,"rental_uris":{"android":"levelo://app?vid=5dbf763e-c0f2-452b-8768-19f29c48a9f7","ios":"levelo://app?vid=5dbf763e-c0f2-452b-8768-19f29c48a9f7"},"vehicle_type_id":"4","last_reported":1726859234,"current_range_meters":33600,"station_id":"ce4bhl12rcd13ifvqgf0","pricing_plan_id":"cebpf4jnsgd1na2vs0mg"},{"bike_id":"fe5e0b99-0068-4550-84ff-677c4573eeae","system_id":"levelo_inurba_marseille","lat":43.28474,"lon":5.38423,"is_reserved":false,"is_disabled":false,"rental_uris":{"android":"levelo://app?vid=fe5e0b99-0068-4550-84ff-677c4573eeae","ios":"levelo://app?vid=fe5e0b99-0068-4550-84ff-677c4573eeae"},"vehicle_type_id":"4","last_reported":1726859234,"current_range_meters":10000,"station_id":"ce4bh512rcd13ifvqe3g","pricing_plan_id":"cebpf4jnsgd1na2vs0mg"},{"bike_id":"350ebb58-e45d-4fe8-ba32-04d252e6bc07","system_id":"levelo_inurba_marseille","lat":43.2962,"lon":5.37597,"is_reserved":false,"is_disabled":false,"rental_uris":{"android":"levelo://app?vid=350ebb58-e45d-4fe8-ba32-04d252e6bc07","ios":"levelo://app?vid=350ebb58-e45d-4fe8-ba32-04d252e6bc07"},"vehicle_type_id":"4","last_reported":1726859234,"current_range_meters":28400,"station_id":"","pricing_plan_id":"cebpf4jnsgd1na2vs0mg"},{"bike_id":"af3d81eb-8250-4f05-bb17-35fc1f8b48c0","system_id":"levelo_inurba_marseille","lat":43.325783,"lon":5.37861,"is_reserved":false,"is_disabled":false,"rental_uris":{"android":"levelo://app?vid=af3d81eb-8250-4f05-bb17-35fc1f8b48c0","ios":"levelo://app?vid=af3d81eb-8250-4f05-bb17-35fc1f8b48c0"},"vehicle_type_id":"4","last_reported":1726859234,"current_range_meters":14000,"station_id":"","pricing_plan_id":"cebpf4jnsgd1na2vs0mg"},{"bike_id":"68159eba-e301-4077-943e-46befe1273f0","system_id":"levelo_inurba_marseille","lat":43.23191,"lon":5.35556,"is_reserved":false,"is_disabled":false,"rental_uris":{"android":"levelo://app?vid=68159eba-e301-4077-943e-46befe1273f0","ios":"levelo://app?vid=68159eba-e301-4077-943e-46befe1273f0"},"vehicle_type_id":"4","last_reported":1726859234,"current_range_meters":32000,"station_id":"ce4bhu92rcd13ifvqi70","pricing_plan_id":"cebpf4jnsgd1na2vs0mg"},{"bike_id":"7d66f339-e9a1-4deb-8e88-576eebb910a0","system_id":"levelo_inurba_marseille","lat":43.31755,"lon":5.39025,"is_reserved":false,"is_disabled":false,"rental_uris":{"android":"levelo://app?vid=7d66f339-e9a1-4deb-8e88-576eebb910a0","ios":"levelo://app?vid=7d66f339-e9a1-4deb-8e88-576eebb910a0"},"vehicle_type_id":"4","last_reported":1726859234,"current_range_meters":4400,"station_id":"ce4bhqp2rcd13ifvqhng","pricing_plan_id":"cebpf4jnsgd1na2vs0mg"},{"bike_id":"a192f7b3-2142-46e6-811c-d83b03b64426","system_id":"levelo_inurba_marseille","lat":43.241699,"lon":5.363979,"is_reserved":false,"is_disabled":false,"rental_uris":{"android":"levelo://app?vid=a192f7b3-2142-46e6-811c-d83b03b64426","ios":"levelo://app?vid=a192f7b3-2142-46e6-811c-d83b03b64426"},"vehicle_type_id":"4","last_reported":1726859234,"current_range_meters":38800,"station_id":"cpo36qri1sfpv3e86is0","pricing_plan_id":"cebpf4jnsgd1na2vs0mg"},{"bike_id":"2457a122-81b9-4ff3-a01c-dcabfab258b0","system_id":"levelo_inurba_marseille","lat":43.28608,"lon":5.37058,"is_reserved":false,"is_disabled":false,"rental_uris":{"android":"levelo://app?vid=2457a122-81b9-4ff3-a01c-dcabfab258b0","ios":"levelo://app?vid=2457a122-81b9-4ff3-a01c-dcabfab258b0"},"vehicle_type_id":"4","last_reported":1726859234,"current_range_meters":11600,"station_id":"ce4bht12rcd13ifvqi60","pricing_plan_id":"cebpf4jnsgd1na2vs0mg"},{"bike_id":"0f9e353b-34be-4131-bc94-f528c8afe4b7","system_id":"levelo_inurba_marseille","lat":43.32482,"lon":5.36566,"is_reserved":false,"is_disabled":false,"rental_uris":{"android":"levelo://app?vid=0f9e353b-34be-4131-bc94-f528c8afe4b7","ios":"levelo://app?vid=0f9e353b-34be-4131-bc94-f528c8afe4b7"},"vehicle_type_id":"4","last_reported":1726859234,"current_range_meters":13600,"station_id":"ce4bhs12rcd13ifvqhvg","pricing_plan_id":"cebpf4jnsgd1na2vs0mg"},{"bike_id":"acebd162-8814-4b01-8961-edd6fccf56af","system_id":"levelo_inurba_marseille","lat":43.29969,"lon":5.38502,"is_reserved":false,"is_disabled":false,"rental_uris":{"android":"levelo://app?vid=acebd162-8814-4b01-8961-edd6fccf56af","ios":"levelo://app?vid=acebd162-8814-4b01-8961-edd6fccf56af"},"vehicle_type_id":"4","last_reported":1726859234,"current_range_meters":4400,"station_id":"ce4bgj92rcd13ifvqbd0","pricing_plan_id":"cebpf4jnsgd1na2vs0mg"},{"bike_id":"5a4b5812-a1bc-406e-96b3-881a932f07fb","system_id":"levelo_inurba_marseille","lat":43.33604,"lon":5.41037,"is_reserved":false,"is_disabled":false,"rental_uris":{"android":"levelo://app?vid=5a4b5812-a1bc-406e-96b3-881a932f07fb","ios":"levelo://app?vid=5a4b5812-a1bc-406e-96b3-881a932f07fb"},"vehicle_type_id":"4","last_reported":1726859234,"current_range_meters":9600,"station_id":"ce4bhqh2rcd13ifvqhmg","pricing_plan_id":"cebpf4jnsgd1na2vs0mg"},{"bike_id":"cb97c715-0e9e-46ab-92e9-87605a39cdaa","system_id":"levelo_inurba_marseille","lat":43.28102,"lon":5.37847,"is_reserved":false,"is_disabled":false,"rental_uris":{"android":"levelo://app?vid=cb97c715-0e9e-46ab-92e9-87605a39cdaa","ios":"levelo://app?vid=cb97c715-0e9e-46ab-92e9-87605a39cdaa"},"vehicle_type_id":"4","last_reported":1726859234,"current_range_meters":12000,"station_id":"ce4bha12rcd13ifvqee0","pricing_plan_id":"cebpf4jnsgd1na2vs0mg"},{"bike_id":"6555de99-f530-4c2d-961f-b8cf69dbd424","system_id":"levelo_inurba_marseille","lat":43.31756,"lon":5.39024,"is_reserved":false,"is_disabled":false,"rental_uris":{"android":"levelo://app?vid=6555de99-f530-4c2d-961f-b8cf69dbd424","ios":"levelo://app?vid=6555de99-f530-4c2d-961f-b8cf69dbd424"},"vehicle_type_id":"4","last_reported":1726859234,"current_range_meters":38800,"station_id":"ce4bhqp2rcd13ifvqhng","pricing_plan_id":"cebpf4jnsgd1na2vs0mg"},{"bike_id":"0de81970-4c0e-4d7c-822f-4d63e80c9685","system_id":"levelo_inurba_marseille","lat":43.25708,"lon":5.41081,"is_reserved":false,"is_disabled":false,"rental_uris":{"android":"levelo://app?vid=0de81970-4c0e-4d7c-822f-4d63e80c9685","ios":"levelo://app?vid=0de81970-4c0e-4d7c-822f-4d63e80c9685"},"vehicle_type_id":"4","last_reported":1726859234,"current_range_meters":36800,"station_id":"ce4bhkp2rcd13ifvqgd0","pricing_plan_id":"cebpf4jnsgd1na2vs0mg"},{"bike_id":"e092d784-dd73-4d3d-b98d-73c29037fb1a","system_id":"levelo_inurba_marseille","lat":43.24663,"lon":5.38171,"is_reserved":false,"is_disabled":false,"rental_uris":{"android":"levelo://app?vid=e092d784-dd73-4d3d-b98d-73c29037fb1a","ios":"levelo://app?vid=e092d784-dd73-4d3d-b98d-73c29037fb1a"},"vehicle_type_id":"4","last_reported":1726859234,"current_range_meters":3600,"station_id":"ce4bhih2rcd13ifvqfr0","pricing_plan_id":"cebpf4jnsgd1na2vs0mg"},{"bike_id":"2c9f9c44-08a2-4cfc-81ba-80e718e77f51","system_id":"levelo_inurba_marseille","lat":43.28921,"lon":5.38399,"is_reserved":false,"is_disabled":false,"rental_uris":{"android":"levelo://app?vid=2c9f9c44-08a2-4cfc-81ba-80e718e77f51","ios":"levelo://app?vid=2c9f9c44-08a2-4cfc-81ba-80e718e77f51"},"vehicle_type_id":"4","last_reported":1726859234,"current_range_meters":38800,"station_id":"ce4bh612rcd13ifvqe6g","pricing_plan_id":"cebpf4jnsgd1na2vs0mg"},{"bike_id":"d323bc23-4105-4d98-87ab-fb3899c88f8a","system_id":"levelo_inurba_marseille","lat":43.2319,"lon":5.35556,"is_reserved":false,"is_disabled":false,"rental_uris":{"android":"levelo://app?vid=d323bc23-4105-4d98-87ab-fb3899c88f8a","ios":"levelo://app?vid=d323bc23-4105-4d98-87ab-fb3899c88f8a"},"vehicle_type_id":"4","last_reported":1726859234,"current_range_meters":38800,"station_id":"ce4bhu92rcd13ifvqi70","pricing_plan_id":"cebpf4jnsgd1na2vs0mg"},{"bike_id":"4fe8f3a4-a462-4f91-8ae4-78ac141fae82","system_id":"levelo_inurba_marseille","lat":43.31753,"lon":5.39026,"is_reserved":false,"is_disabled":false,"rental_uris":{"android":"levelo://app?vid=4fe8f3a4-a462-4f91-8ae4-78ac141fae82","ios":"levelo://app?vid=4fe8f3a4-a462-4f91-8ae4-78ac141fae82"},"vehicle_type_id":"4","last_reported":1726859234,"current_range_meters":9200,"station_id":"ce4bhqp2rcd13ifvqhng","pricing_plan_id":"cebpf4jnsgd1na2vs0mg"},{"bike_id":"282a033c-76af-4560-b635-6e6343d551ca","system_id":"levelo_inurba_marseille","lat":43.31889,"lon":5.40745,"is_reserved":false,"is_disabled":false,"rental_uris":{"android":"levelo://app?vid=282a033c-76af-4560-b635-6e6343d551ca","ios":"levelo://app?vid=282a033c-76af-4560-b635-6e6343d551ca"},"vehicle_type_id":"4","last_reported":1726859234,"current_range_meters":22400,"station_id":"ce4bhq12rcd13ifvqhig","pricing_plan_id":"cebpf4jnsgd1na2vs0mg"},{"bike_id":"65b0c4e9-9a41-4da7-95ea-4ff98e05cb05","system_id":"levelo_inurba_marseille","lat":43.295815,"lon":5.380702,"is_reserved":false,"is_disabled":false,"rental_uris":{"android":"levelo://app?vid=65b0c4e9-9a41-4da7-95ea-4ff98e05cb05","ios":"levelo://app?vid=65b0c4e9-9a41-4da7-95ea-4ff98e05cb05"},"vehicle_type_id":"4","last_reported":1726859234,"current_range_meters":3600,"station_id":"ce4bgl12rcd13ifvqbo0","pricing_plan_id":"cebpf4jnsgd1na2vs0mg"},{"bike_id":"6a52ab1b-4a00-4501-ae37-f15b2934dda4","system_id":"levelo_inurba_marseille","lat":43.28152,"lon":5.42642,"is_reserved":false,"is_disabled":false,"rental_uris":{"android":"levelo://app?vid=6a52ab1b-4a00-4501-ae37-f15b2934dda4","ios":"levelo://app?vid=6a52ab1b-4a00-4501-ae37-f15b2934dda4"},"vehicle_type_id":"4","last_reported":1726859234,"current_range_meters":30800,"station_id":"ce4bhnh2rcd13ifvqgug","pricing_plan_id":"cebpf4jnsgd1na2vs0mg"},{"bike_id":"26fbdc58-3fc0-4120-9128-2aab67b0496a","system_id":"levelo_inurba_marseille","lat":43.29257,"lon":5.38451,"is_reserved":false,"is_disabled":false,"rental_uris":{"android":"levelo://app?vid=26fbdc58-3fc0-4120-9128-2aab67b0496a","ios":"levelo://app?vid=26fbdc58-3fc0-4120-9128-2aab67b0496a"},"vehicle_type_id":"4","last_reported":1726859234,"current_range_meters":4800,"station_id":"ce4bh692rcd13ifvqea0","pricing_plan_id":"cebpf4jnsgd1na2vs0mg"},{"bike_id":"e01c2637-7021-4cbf-a9f9-2ebe1c70831e","system_id":"levelo_inurba_marseille","lat":43.29273,"lon":5.3837,"is_reserved":false,"is_disabled":false,"rental_uris":{"android":"levelo://app?vid=e01c2637-7021-4cbf-a9f9-2ebe1c70831e","ios":"levelo://app?vid=e01c2637-7021-4cbf-a9f9-2ebe1c70831e"},"vehicle_type_id":"4","last_reported":1726859234,"current_range_meters":24000,"station_id":"ce4bh692rcd13ifvqea0","pricing_plan_id":"cebpf4jnsgd1na2vs0mg"},{"bike_id":"8d7bd3b3-1375-42cd-a38e-1a9a46fb5cf4","system_id":"levelo_inurba_marseille","lat":43.31325,"lon":5.39699,"is_reserved":false,"is_disabled":false,"rental_uris":{"android":"levelo://app?vid=8d7bd3b3-1375-42cd-a38e-1a9a46fb5cf4","ios":"levelo://app?vid=8d7bd3b3-1375-42cd-a38e-1a9a46fb5cf4"},"vehicle_type_id":"4","last_reported":1726859234,"current_range_meters":24000,"station_id":"ce4bgvp2rcd13ifvqcu0","pricing_plan_id":"cebpf4jnsgd1na2vs0mg"},{"bike_id":"64591c17-8ee0-43df-8725-13f05b5cb133","system_id":"levelo_inurba_marseille","lat":43.28717,"lon":5.40005,"is_reserved":false,"is_disabled":false,"rental_uris":{"android":"levelo://app?vid=64591c17-8ee0-43df-8725-13f05b5cb133","ios":"levelo://app?vid=64591c17-8ee0-43df-8725-13f05b5cb133"},"vehicle_type_id":"4","last_reported":1726859234,"current_range_meters":36400,"station_id":"ce4bho92rcd13ifvqh3g","pricing_plan_id":"cebpf4jnsgd1na2vs0mg"},{"bike_id":"8fd96c5b-c12e-4203-82d7-f374bd82860a","system_id":"levelo_inurba_marseille","lat":43.23182,"lon":5.39985,"is_reserved":false,"is_disabled":false,"rental_uris":{"android":"levelo://app?vid=8fd96c5b-c12e-4203-82d7-f374bd82860a","ios":"levelo://app?vid=8fd96c5b-c12e-4203-82d7-f374bd82860a"},"vehicle_type_id":"4","last_reported":1726859234,"current_range_meters":7200,"station_id":"ce4bhn12rcd13ifvqgqg","pricing_plan_id":"cebpf4jnsgd1na2vs0mg"},{"bike_id":"d476215d-58c8-4cd2-a75c-84f7fa737321","system_id":"levelo_inurba_marseille","lat":43.27175,"lon":5.40999,"is_reserved":false,"is_disabled":false,"rental_uris":{"android":"levelo://app?vid=d476215d-58c8-4cd2-a75c-84f7fa737321","ios":"levelo://app?vid=d476215d-58c8-4cd2-a75c-84f7fa737321"},"vehicle_type_id":"4","last_reported":1726859234,"current_range_meters":16800,"station_id":"ce4bhl12rcd13ifvqgf0","pricing_plan_id":"cebpf4jnsgd1na2vs0mg"},{"bike_id":"96c2cdc4-264d-40af-b5e7-cf74c3dd3a69","system_id":"levelo_inurba_marseille","lat":43.24995,"lon":5.38937,"is_reserved":false,"is_disabled":false,"rental_uris":{"android":"levelo://app?vid=96c2cdc4-264d-40af-b5e7-cf74c3dd3a69","ios":"levelo://app?vid=96c2cdc4-264d-40af-b5e7-cf74c3dd3a69"},"vehicle_type_id":"4","last_reported":1726859234,"current_range_meters":10800,"station_id":"ce4bhgp2rcd13ifvqfd0","pricing_plan_id":"cebpf4jnsgd1na2vs0mg"},{"bike_id":"26e826c4-27d0-4c51-b7a0-577163ed1bf1","system_id":"levelo_inurba_marseille","lat":43.29172,"lon":5.37164,"is_reserved":false,"is_disabled":false,"rental_uris":{"android":"levelo://app?vid=26e826c4-27d0-4c51-b7a0-577163ed1bf1","ios":"levelo://app?vid=26e826c4-27d0-4c51-b7a0-577163ed1bf1"},"vehicle_type_id":"4","last_reported":1726859234,"current_range_meters":38800,"station_id":"ce4bha92rcd13ifvqeh0","pricing_plan_id":"cebpf4jnsgd1na2vs0mg"},{"bike_id":"9b9a7608-64ce-460f-a653-30f0ab64fadf","system_id":"levelo_inurba_marseille","lat":43.30271,"lon":5.37714,"is_reserved":false,"is_disabled":false,"rental_uris":{"android":"levelo://app?vid=9b9a7608-64ce-460f-a653-30f0ab64fadf","ios":"levelo://app?vid=9b9a7608-64ce-460f-a653-30f0ab64fadf"},"vehicle_type_id":"4","last_reported":1726859234,"current_range_meters":28000,"station_id":"ce4bguh2rcd13ifvqcj0","pricing_plan_id":"cebpf4jnsgd1na2vs0mg"},{"bike_id":"9b6f5b88-f16a-451b-beed-d539614f91c5","system_id":"levelo_inurba_marseille","lat":43.24808,"lon":5.37458,"is_reserved":false,"is_disabled":false,"rental_uris":{"android":"levelo://app?vid=9b6f5b88-f16a-451b-beed-d539614f91c5","ios":"levelo://app?vid=9b6f5b88-f16a-451b-beed-d539614f91c5"},"vehicle_type_id":"4","last_reported":1726859234,"current_range_meters":15200,"station_id":"ce4bhgh2rcd13ifvqfb0","pricing_plan_id":"cebpf4jnsgd1na2vs0mg"},{"bike_id":"d592cd46-4994-4321-aad2-4e4a5d23da96","system_id":"levelo_inurba_marseille","lat":43.23191,"lon":5.35555,"is_reserved":false,"is_disabled":false,"rental_uris":{"android":"levelo://app?vid=d592cd46-4994-4321-aad2-4e4a5d23da96","ios":"levelo://app?vid=d592cd46-4994-4321-aad2-4e4a5d23da96"},"vehicle_type_id":"4","last_reported":1726859234,"current_range_meters":10800,"station_id":"ce4bhu92rcd13ifvqi70","pricing_plan_id":"cebpf4jnsgd1na2vs0mg"},{"bike_id":"26ee875e-8e23-41e3-84ed-3b7394ccfd86","system_id":"levelo_inurba_marseille","lat":43.28695,"lon":5.37397,"is_reserved":false,"is_disabled":false,"rental_uris":{"android":"levelo://app?vid=26ee875e-8e23-41e3-84ed-3b7394ccfd86","ios":"levelo://app?vid=26ee875e-8e23-41e3-84ed-3b7394ccfd86"},"vehicle_type_id":"4","last_reported":1726859234,"current_range_meters":25200,"station_id":"ce4bh3p2rcd13ifvqdq0","pricing_plan_id":"cebpf4jnsgd1na2vs0mg"},{"bike_id":"a08c16d2-99a0-4fbd-b970-795e60419327","system_id":"levelo_inurba_marseille","lat":43.2955,"lon":5.42285,"is_reserved":false,"is_disabled":false,"rental_uris":{"android":"levelo://app?vid=a08c16d2-99a0-4fbd-b970-795e60419327","ios":"levelo://app?vid=a08c16d2-99a0-4fbd-b970-795e60419327"},"vehicle_type_id":"4","last_reported":1726859234,"current_range_meters":9200,"station_id":"ce4bhph2rcd13ifvqhdg","pricing_plan_id":"cebpf4jnsgd1na2vs0mg"},{"bike_id":"22e5e8b4-2780-465e-a665-87f6f1172653","system_id":"levelo_inurba_marseille","lat":43.24997,"lon":5.38935,"is_reserved":false,"is_disabled":false,"rental_uris":{"android":"levelo://app?vid=22e5e8b4-2780-465e-a665-87f6f1172653","ios":"levelo://app?vid=22e5e8b4-2780-465e-a665-87f6f1172653"},"vehicle_type_id":"4","last_reported":1726859234,"current_range_meters":15200,"station_id":"ce4bhgp2rcd13ifvqfd0","pricing_plan_id":"cebpf4jnsgd1na2vs0mg"},{"bike_id":"b8a676ae-883e-4008-8f30-d65a17491d8f","system_id":"levelo_inurba_marseille","lat":43.289337,"lon":5.396229,"is_reserved":false,"is_disabled":false,"rental_uris":{"android":"levelo://app?vid=b8a676ae-883e-4008-8f30-d65a17491d8f","ios":"levelo://app?vid=b8a676ae-883e-4008-8f30-d65a17491d8f"},"vehicle_type_id":"4","last_reported":1726859234,"current_range_meters":36400,"station_id":"ce4bh3h2rcd13ifvqdn0","pricing_plan_id":"cebpf4jnsgd1na2vs0mg"},{"bike_id":"f6cd28fd-5231-4b44-89a3-f15afad478d4","system_id":"levelo_inurba_marseille","lat":43.326508,"lon":5.409972,"is_reserved":false,"is_disabled":false,"rental_uris":{"android":"levelo://app?vid=f6cd28fd-5231-4b44-89a3-f15afad478d4","ios":"levelo://app?vid=f6cd28fd-5231-4b44-89a3-f15afad478d4"},"vehicle_type_id":"4","last_reported":1726859234,"current_range_meters":12000,"station_id":"ce4bhpp2rcd13ifvqhgg","pricing_plan_id":"cebpf4jnsgd1na2vs0mg"},{"bike_id":"c0dad189-fca0-4e4e-b3f1-16810320880b","system_id":"levelo_inurba_marseille","lat":43.29429,"lon":5.38647,"is_reserved":false,"is_disabled":false,"rental_uris":{"android":"levelo://app?vid=c0dad189-fca0-4e4e-b3f1-16810320880b","ios":"levelo://app?vid=c0dad189-fca0-4e4e-b3f1-16810320880b"},"vehicle_type_id":"4","last_reported":1726859234,"current_range_meters":28000,"station_id":"ce4bh2h2rcd13ifvqdh0","pricing_plan_id":"cebpf4jnsgd1na2vs0mg"},{"bike_id":"5ff5c8dd-e17e-428b-9bd0-4372c23d7b9f","system_id":"levelo_inurba_marseille","lat":43.29431,"lon":5.39756,"is_reserved":false,"is_disabled":false,"rental_uris":{"android":"levelo://app?vid=5ff5c8dd-e17e-428b-9bd0-4372c23d7b9f","ios":"levelo://app?vid=5ff5c8dd-e17e-428b-9bd0-4372c23d7b9f"},"vehicle_type_id":"4","last_reported":1726859234,"current_range_meters":8800,"station_id":"ce4bh3h2rcd13ifvqdo0","pricing_plan_id":"cebpf4jnsgd1na2vs0mg"},{"bike_id":"306641f8-b277-467c-b7e2-7725e9457060","system_id":"levelo_inurba_marseille","lat":43.281555,"lon":5.426264,"is_reserved":false,"is_disabled":false,"rental_uris":{"android":"levelo://app?vid=306641f8-b277-467c-b7e2-7725e9457060","ios":"levelo://app?vid=306641f8-b277-467c-b7e2-7725e9457060"},"vehicle_type_id":"4","last_reported":1726859234,"current_range_meters":6000,"station_id":"ce4bhnh2rcd13ifvqgug","pricing_plan_id":"cebpf4jnsgd1na2vs0mg"},