{"last_updated":1700744999,"ttl":30,"version":"2.2","data":{"bikes":[{"bike_id":"a272bb25-d8ef-4771-bed1-43feefbee660","system_id":"levelo_inurba_marseille","lat":43.31343,"lon":5.367144,"is_reserved":false,"is_disabled":false,"rental_uris":{"android":"levelo://app?vid=a272bb25-d8ef-4771-bed1-43feefbee660","ios":"levelo://app?vid=a272bb25-d8ef-4771-bed1-43feefbee660"},"vehicle_type_id":"4","last_reported":1700744999,"current_range_meters":21600,"station_id":"ce4bgr92rcd13ifvqc6g","pricing_plan_id":"free"},{"bike_id":"6aed539e-fbb3-4e95-acdc-66cfa59c1fba","system_id":"levelo_inurba_marseille","lat":43.313391,"lon":5.36706,"is_reserved":false,"is_disabled":false,"rental_uris":{"android":"levelo://app?vid=6aed539e-fbb3-4e95-acdc-66cfa59c1fba","ios":"levelo://app?vid=6aed539e-fbb3-4e95-acdc-66cfa59c1fba"},"vehicle_type_id":"4","last_reported":1700744999,"current_range_meters":15200,"station_id":"ce4bgr92rcd13ifvqc6g","pricing_plan_id":"free"},{"bike_id":"ae9507c3-66a7-442c-bde5-723ffc6996f5","system_id":"levelo_inurba_marseille","lat":43.313483,"lon":5.367086,"is_reserved":false,"is_disabled":false,"rental_uris":{"android":"levelo://app?vid=ae9507c3-66a7-442c-bde5-723ffc6996f5","ios":"levelo://app?vid=ae9507c3-66a7-442c-bde5-723ffc6996f5"},"vehicle_type_id":"4","last_reported":1700744999,"current_range_meters":800,"station_id":"ce4bgr92rcd13ifvqc6g","pricing_plan_id":"free"},{"bike_id":"74bd4cbe-c558-46c0-bd30-c944aadabae6","system_id":"levelo_inurba_marseille","lat":43.313501,"lon":5.367099,"is_reserved":false,"is_disabled":false,"rental_uris":{"android":"levelo://app?vid=74bd4cbe-c558-46c0-bd30-c944aadabae6","ios":"levelo://app?vid=74bd4cbe-c558-46c0-bd30-c944aadabae6"},"vehicle_type_id":"4","last_reported":1700744999,"current_range_meters":21200,"station_id":"ce4bgr92rcd13ifvqc6g","pricing_plan_id":"free"},{"bike_id":"1b4f0ad4-3c00-4fb8-869a-855be304d4e3","system_id":"levelo_inurba_marseille","lat":43.313391,"lon":5.36706,"is_reserved":false,"is_disabled":false,"rental_uris":{"android":"levelo://app?vid=1b4f0ad4-3c00-4fb8-869a-855be304d4e3","ios":"levelo://app?vid=1b4f0ad4-3c00-4fb8-869a-855be304d4e3"},"vehicle_type_id":"4","last_reported":1700744999,"current_range_meters":31600,"station_id":"ce4bgr92rcd13ifvqc6g","pricing_plan_id":"free"},{"bike_id":"b778cdf8-2ec0-403e-a159-8656a9e63d54","system_id":"levelo_inurba_marseille","lat":43.313513,"lon":5.367128,"is_reserved":false,"is_disabled":false,"rental_uris":{"android":"levelo://app?vid=b778cdf8-2ec0-403e-a159-8656a9e63d54","ios":"levelo://app?vid=b778cdf8-2ec0-403e-a159-8656a9e63d54"},"vehicle_type_id":"4","last_reported":1700744999,"current_range_meters":17600,"station_id":"ce4bgr92rcd13ifvqc6g","pricing_plan_id":"free"},{"bike_id":"aa3ae5eb-9179-4636-a2fb-b54647cc9fc7","system_id":"levelo_inurba_marseille","lat":43.313544,"lon":5.367027,"is_reserved":false,"is_disabled":false,"rental_uris":{"android":"levelo://app?vid=aa3ae5eb-9179-4636-a2fb-b54647cc9fc7","ios":"levelo://app?vid=aa3ae5eb-9179-4636-a2fb-b54647cc9fc7"},"vehicle_type_id":"4","last_reported":1700744999,"current_range_meters":13200,"station_id":"ce4bgr92rcd13ifvqc6g","pricing_plan_id":"free"},{"bike_id":"a48cb2d0-bdc8-4d15-9624-9dee459acc40","system_id":"levelo_inurba_marseille","lat":43.31354,"lon":5.36709,"is_reserved":false,"is_disabled":false,"rental_uris":{"android":"levelo://app?vid=a48cb2d0-bdc8-4d15-9624-9dee459acc40","ios":"levelo://app?vid=a48cb2d0-bdc8-4d15-9624-9dee459acc40"},"vehicle_type_id":"4","last_reported":1700744999,"current_range_meters":22400,"station_id":"ce4bgr92rcd13ifvqc6g","pricing_plan_id":"free"},{"bike_id":"1768f595-fab9-431e-a005-e0909aaa484b","system_id":"levelo_inurba_marseille","lat":43.313559,"lon":5.367098,"is_reserved":false,"is_disabled":false,"rental_uris":{"android":"levelo://app?vid=1768f595-fab9-431e-a005-e0909aaa484b","ios":"levelo://app?vid=1768f595-fab9-431e-a005-e0909aaa484b"},"vehicle_type_id":"4","last_reported":1700744999,"current_range_meters":31200,"station_id":"ce4bgr92rcd13ifvqc6g","pricing_plan_id":"free"},{"bike_id":"c2783c8c-2b0d-4782-ad5f-adbedbf7fc0a","system_id":"levelo_inurba_marseille","lat":43.313391,"lon":5.36706,"is_reserved":false,"is_disabled":false,"rental_uris":{"android":"levelo://app?vid=c2783c8c-2b0d-4782-ad5f-adbedbf7fc0a","ios":"levelo://app?vid=c2783c8c-2b0d-4782-ad5f-adbedbf7fc0a"},"vehicle_type_id":"4","last_reported":1700744999,"current_range_meters":25200,"station_id":"ce4bgr92rcd13ifvqc6g","pricing_plan_id":"free"},{"bike_id":"47de29ff-386d-4cef-8374-5733c872ffb2","system_id":"levelo_inurba_marseille","lat":43.31362,"lon":5.3671,"is_reserved":false,"is_disabled":false,"rental_uris":{"android":"levelo://app?vid=47de29ff-386d-4cef-8374-5733c872ffb2","ios":"levelo://app?vid=47de29ff-386d-4cef-8374-5733c872ffb2"},"vehicle_type_id":"4","last_reported":1700744999,"current_range_meters":15600,"station_id":"ce4bgr92rcd13ifvqc6g","pricing_plan_id":"free"},{"bike_id":"55aef3d7-73eb-4915-9b7f-a4fdd70aa9c8","system_id":"levelo_inurba_marseille","lat":43.312303,"lon":5.368545,"is_reserved":false,"is_disabled":false,"rental_uris":{"android":"levelo://app?vid=55aef3d7-73eb-4915-9b7f-a4fdd70aa9c8","ios":"levelo://app?vid=55aef3d7-73eb-4915-9b7f-a4fdd70aa9c8"},"vehicle_type_id":"4","last_reported":1700744999,"current_range_meters":1600,"station_id":"ce4bgl92rcd13ifvqbq0","pricing_plan_id":"free"},{"bike_id":"11e4c34e-2094-4cc9-b500-97e6e514daa3","system_id":"levelo_inurba_marseille","lat":43.31159,"lon":5.36883,"is_reserved":false,"is_disabled":false,"rental_uris":{"android":"levelo://app?vid=11e4c34e-2094-4cc9-b500-97e6e514daa3","ios":"levelo://app?vid=11e4c34e-2094-4cc9-b500-97e6e514daa3"},"vehicle_type_id":"4","last_reported":1700744999,"current_range_meters":0,"station_id":"","pricing_plan_id":"free"},{"bike_id":"a76008e5-42f8-428a-bbd7-f33cb81cb9c1","system_id":"levelo_inurba_marseille","lat":43.309076,"lon":5.368465,"is_reserved":false,"is_disabled":false,"rental_uris":{"android":"levelo://app?vid=a76008e5-42f8-428a-bbd7-f33cb81cb9c1","ios":"levelo://app?vid=a76008e5-42f8-428a-bbd7-f33cb81cb9c1"},"vehicle_type_id":"4","last_reported":1700744999,"current_range_meters":11200,"station_id":"ce4bgn92rcd13ifvqbvg","pricing_plan_id":"free"},{"bike_id":"a46bc725-00d2-4b10-8853-2a56e55c3ab9","system_id":"levelo_inurba_marseille","lat":43.314811,"lon":5.373103,"is_reserved":false,"is_disabled":false,"rental_uris":{"android":"levelo://app?vid=a46bc725-00d2-4b10-8853-2a56e55c3ab9","ios":"levelo://app?vid=a46bc725-00d2-4b10-8853-2a56e55c3ab9"},"vehicle_type_id":"4","last_reported":1700744999,"current_range_meters":11200,"station_id":"ce4bgt12rcd13ifvqcd0","pricing_plan_id":"free"},{"bike_id":"5b2d165a-b322-44a7-a31e-104f7d1f34be","system_id":"levelo_inurba_marseille","lat":43.30545,"lon":5.36544,"is_reserved":false,"is_disabled":false,"rental_uris":{"android":"levelo://app?vid=5b2d165a-b322-44a7-a31e-104f7d1f34be","ios":"levelo://app?vid=5b2d165a-b322-44a7-a31e-104f7d1f34be"},"vehicle_type_id":"4","last_reported":1700744999,"current_range_meters":0,"station_id":"ce4bgs12rcd13ifvqcag","pricing_plan_id":"free"},{"bike_id":"4c16b4b8-f607-486c-9b01-c921e30dd1d6","system_id":"levelo_inurba_marseille","lat":43.30536,"lon":5.36544,"is_reserved":false,"is_disabled":false,"rental_uris":{"android":"levelo://app?vid=4c16b4b8-f607-486c-9b01-c921e30dd1d6","ios":"levelo://app?vid=4c16b4b8-f607-486c-9b01-c921e30dd1d6"},"vehicle_type_id":"4","last_reported":1700744999,"current_range_meters":11600,"station_id":"ce4bgs12rcd13ifvqcag","pricing_plan_id":"free"},{"bike_id":"cdc7b517-39fc-4e4e-9a00-1ddfcce4a287","system_id":"levelo_inurba_marseille","lat":43.30528,"lon":5.36713,"is_reserved":false,"is_disabled":false,"rental_uris":{"android":"levelo://app?vid=cdc7b517-39fc-4e4e-9a00-1ddfcce4a287","ios":"levelo://app?vid=cdc7b517-39fc-4e4e-9a00-1ddfcce4a287"},"vehicle_type_id":"4","last_reported":1700744999,"current_range_meters":27200,"station_id":"ce4bgrp2rcd13ifvqc9g","pricing_plan_id":"free"},{"bike_id":"9ad8ace3-ce0a-4bb1-8dfe-7967ca850548","system_id":"levelo_inurba_marseille","lat":43.305706,"lon":5.365654,"is_reserved":false,"is_disabled":false,"rental_uris":{"android":"levelo://app?vid=9ad8ace3-ce0a-4bb1-8dfe-7967ca850548","ios":"levelo://app?vid=9ad8ace3-ce0a-4bb1-8dfe-7967ca850548"},"vehicle_type_id":"4","last_reported":1700744999,"current_range_meters":31200,"station_id":"ce4bgs12rcd13ifvqcag","pricing_plan_id":"free"},{"bike_id":"ccf87354-e17d-4e9d-9d65-627b26828219","system_id":"levelo_inurba_marseille","lat":43.305706,"lon":5.365654,"is_reserved":false,"is_disabled":false,"rental_uris":{"android":"levelo://app?vid=ccf87354-e17d-4e9d-9d65-627b26828219","ios":"levelo://app?vid=ccf87354-e17d-4e9d-9d65-627b26828219"},"vehicle_type_id":"4","last_reported":1700744999,"current_range_meters":31200,"station_id":"ce4bgs12rcd13ifvqcag","pricing_plan_id":"free"},{"bike_id":"8d1ae727-703a-47e4-a230-f1e4151fa881","system_id":"levelo_inurba_marseille","lat":43.30599,"lon":5.37234,"is_reserved":false,"is_disabled":false,"rental_uris":{"android":"levelo://app?vid=8d1ae727-703a-47e4-a230-f1e4151fa881","ios":"levelo://app?vid=8d1ae727-703a-47e4-a230-f1e4151fa881"},"vehicle_type_id":"4","last_reported":1700744999,"current_range_meters":18800,"station_id":"ce4bgqh2rcd13ifvqc4g","pricing_plan_id":"free"},{"bike_id":"0cb3ad76-75dc-48c0-b9be-e2883465fee2","system_id":"levelo_inurba_marseille","lat":43.311131,"lon":5.377651,"is_reserved":false,"is_disabled":false,"rental_uris":{"android":"levelo://app?vid=0cb3ad76-75dc-48c0-b9be-e2883465fee2","ios":"levelo://app?vid=0cb3ad76-75dc-48c0-b9be-e2883465fee2"},"vehicle_type_id":"4","last_reported":1700744999,"current_range_meters":800,"station_id":"ce4bgt92rcd13ifvqcg0","pricing_plan_id":"free"},{"bike_id":"81d3c604-8d5f-41f0-aa97-4c3dbdcf2856","system_id":"levelo_inurba_marseille","lat":43.311125,"lon":5.377624,"is_reserved":false,"is_disabled":false,"rental_uris":{"android":"levelo://app?vid=81d3c604-8d5f-41f0-aa97-4c3dbdcf2856","ios":"levelo://app?vid=81d3c604-8d5f-41f0-aa97-4c3dbdcf2856"},"vehicle_type_id":"4","last_reported":1700744999,"current_range_meters":24800,"station_id":"ce4bgt92rcd13ifvqcg0","pricing_plan_id":"free"},{"bike_id":"cb831096-b78a-4b81-9642-df22882295e9","system_id":"levelo_inurba_marseille","lat":43.30818,"lon":5.3767,"is_reserved":false,"is_disabled":false,"rental_uris":{"android":"levelo://app?vid=cb831096-b78a-4b81-9642-df22882295e9","ios":"levelo://app?vid=cb831096-b78a-4b81-9642-df22882295e9"},"vehicle_type_id":"4","last_reported":1700744999,"current_range_meters":20800,"station_id":"ce4bgv92rcd13ifvqcq0","pricing_plan_id":"free"},{"bike_id":"a9d986d7-a839-48e9-a4e5-668134188bf7","system_id":"levelo_inurba_marseille","lat":43.307945,"lon":5.376487,"is_reserved":false,"is_disabled":false,"rental_uris":{"android":"levelo://app?vid=a9d986d7-a839-48e9-a4e5-668134188bf7","ios":"levelo://app?vid=a9d986d7-a839-48e9-a4e5-668134188bf7"},"vehicle_type_id":"4","last_reported":1700744999,"current_range_meters":3200,"station_id":"ce4bgv92rcd13ifvqcq0","pricing_plan_id":"free"},{"bike_id":"e7f4b6b7-2105-4aab-9dde-ba0a65d1673b","system_id":"levelo_inurba_marseille","lat":43.307945,"lon":5.376487,"is_reserved":false,"is_disabled":false,"rental_uris":{"android":"levelo://app?vid=e7f4b6b7-2105-4aab-9dde-ba0a65d1673b","ios":"levelo://app?vid=e7f4b6b7-2105-4aab-9dde-ba0a65d1673b"},"vehicle_type_id":"4","last_reported":1700744999,"current_range_meters":18000,"station_id":"ce4bgv92rcd13ifvqcq0","pricing_plan_id":"free"},{"bike_id":"1246d083-b1a4-4484-8784-fd26126af9dd","system_id":"levelo_inurba_marseille","lat":43.317075,"lon":5.377367,"is_reserved":false,"is_disabled":false,"rental_uris":{"android":"levelo://app?vid=1246d083-b1a4-4484-8784-fd26126af9dd","ios":"levelo://app?vid=1246d083-b1a4-4484-8784-fd26126af9dd"},"vehicle_type_id":"4","last_reported":1700744999,"current_range_meters":25600,"station_id":"ce4bgth2rcd13ifvqch0","pricing_plan_id":"free"},{"bike_id":"7bceb209-851e-409e-85dd-2e8b96e605c7","system_id":"levelo_inurba_marseille","lat":43.317075,"lon":5.377367,"is_reserved":false,"is_disabled":false,"rental_uris":{"android":"levelo://app?vid=7bceb209-851e-409e-85dd-2e8b96e605c7","ios":"levelo://app?vid=7bceb209-851e-409e-85dd-2e8b96e605c7"},"vehicle_type_id":"4","last_reported":1700744999,"current_range_meters":1600,"station_id":"ce4bgth2rcd13ifvqch0","pricing_plan_id":"free"},{"bike_id":"0482b3d0-7f31-4609-9198-1b2203c57da0","system_id":"levelo_inurba_marseille","lat":43.303046,"lon":5.368981,"is_reserved":false,"is_disabled":false,"rental_uris":{"android":"levelo://app?vid=0482b3d0-7f31-4609-9198-1b2203c57da0","ios":"levelo://app?vid=0482b3d0-7f31-4609-9198-1b2203c57da0"},"vehicle_type_id":"4","last_reported":1700744999,"current_range_meters":800,"station_id":"ce4bgqh2rcd13ifvqc5g","pricing_plan_id":"free"},{"bike_id":"fd7969ee-1c50-453a-82d9-5b9d45c88b3e","system_id":"levelo_inurba_marseille","lat":43.303057,"lon":5.368987,"is_reserved":false,"is_disabled":false,"rental_uris":{"android":"levelo://app?vid=fd7969ee-1c50-453a-82d9-5b9d45c88b3e","ios":"levelo://app?vid=fd7969ee-1c50-453a-82d9-5b9d45c88b3e"},"vehicle_type_id":"4","last_reported":1700744999,"current_range_meters":10000,"station_id":"ce4bgqh2rcd13ifvqc5g","pricing_plan_id":"free"},{"bike_id":"125aecc6-c632-4f57-90d3-b3bf7daaa6fb","system_id":"levelo_inurba_marseille","lat":43.30229,"lon":5.36645,"is_reserved":false,"is_disabled":false,"rental_uris":{"android":"levelo://app?vid=125aecc6-c632-4f57-90d3-b3bf7daaa6fb","ios":"levelo://app?vid=125aecc6-c632-4f57-90d3-b3bf7daaa6fb"},"vehicle_type_id":"4","last_reported":1700744999,"current_range_meters":15200,"station_id":"ce4bgrh2rcd13ifvqc8g","pricing_plan_id":"free"},{"bike_id":"ea7fa04e-1744-41b3-98d3-b2baca3f039e","system_id":"levelo_inurba_marseille","lat":43.301939,"lon":5.366286,"is_reserved":false,"is_disabled":false,"rental_uris":{"android":"levelo://app?vid=ea7fa04e-1744-41b3-98d3-b2baca3f039e","ios":"levelo://app?vid=ea7fa04e-1744-41b3-98d3-b2baca3f039e"},"vehicle_type_id":"4","last_reported":1700744999,"current_range_meters":27600,"station_id":"ce4bgrh2rcd13ifvqc8g","pricing_plan_id":"free"},{"bike_id":"0327687b-f51e-4077-bf49-2ec73a6de092","system_id":"levelo_inurba_marseille","lat":43.322266,"lon":5.375566,"is_reserved":false,"is_disabled":false,"rental_uris":{"android":"levelo://app?vid=0327687b-f51e-4077-bf49-2ec73a6de092","ios":"levelo://app?vid=0327687b-f51e-4077-bf49-2ec73a6de092"},"vehicle_type_id":"4","last_reported":1700744999,"current_range_meters":11600,"station_id":"","pricing_plan_id":"free"},{"bike_id":"9b23fc13-b691-4871-8306-cb52a4ca9417","system_id":"levelo_inurba_marseille","lat":43.324768,"lon":5.365518,"is_reserved":false,"is_disabled":false,"rental_uris":{"android":"levelo://app?vid=9b23fc13-b691-4871-8306-cb52a4ca9417","ios":"levelo://app?vid=9b23fc13-b691-4871-8306-cb52a4ca9417"},"vehicle_type_id":"4","last_reported":1700744999,"current_range_meters":5600,"station_id":"ce4bhs12rcd13ifvqhvg","pricing_plan_id":"free"},{"bike_id":"cc670dcc-8eb2-41da-96f9-be5edebb6ef0","system_id":"levelo_inurba_marseille","lat":43.302864,"lon":5.376926,"is_reserved":false,"is_disabled":false,"rental_uris":{"android":"levelo://app?vid=cc670dcc-8eb2-41da-96f9-be5edebb6ef0","ios":"levelo://app?vid=cc670dcc-8eb2-41da-96f9-be5edebb6ef0"},"vehicle_type_id":"4","last_reported":1700744999,"current_range_meters":17600,"station_id":"ce4bguh2rcd13ifvqcj0","pricing_plan_id":"free"},{"bike_id":"ac30e0f1-3815-4cc6-8ef8-89ce07fffa01","system_id":"levelo_inurba_marseille","lat":43.301429,"lon":5.37413,"is_reserved":false,"is_disabled":false,"rental_uris":{"android":"levelo://app?vid=ac30e0f1-3815-4cc6-8ef8-89ce07fffa01","ios":"levelo://app?vid=ac30e0f1-3815-4cc6-8ef8-89ce07fffa01"},"vehicle_type_id":"4","last_reported":1700744999,"current_range_meters":29600,"station_id":"ce4bgs92rcd13ifvqcc0","pricing_plan_id":"free"},{"bike_id":"7a6b9a2e-3d03-4bd3-bc44-9406ff7d6ce8","system_id":"levelo_inurba_marseille","lat":43.302784,"lon":5.377158,"is_reserved":false,"is_disabled":false,"rental_uris":{"android":"levelo://app?vid=7a6b9a2e-3d03-4bd3-bc44-9406ff7d6ce8","ios":"levelo://app?vid=7a6b9a2e-3d03-4bd3-bc44-9406ff7d6ce8"},"vehicle_type_id":"4","last_reported":1700744999,"current_range_meters":20000,"station_id":"ce4bguh2rcd13ifvqcj0","pricing_plan_id":"free"},{"bike_id":"d7619cc1-ec4f-41ec-ba53-0b8ab180edd3","system_id":"levelo_inurba_marseille","lat":43.30143,"lon":5.37413,"is_reserved":false,"is_disabled":false,"rental_uris":{"android":"levelo://app?vid=d7619cc1-ec4f-41ec-ba53-0b8ab180edd3","ios":"levelo://app?vid=d7619cc1-ec4f-41ec-ba53-0b8ab180edd3"},"vehicle_type_id":"4","last_reported":1700744999,"current_range_meters":28400,"station_id":"ce4bgs92rcd13ifvqcc0","pricing_plan_id":"free"},{"bike_id":"046f1130-6f51-4f04-a889-e6153c28a114","system_id":"levelo_inurba_marseille","lat":43.302784,"lon":5.377158,"is_reserved":false,"is_disabled":false,"rental_uris":{"android":"levelo://app?vid=046f1130-6f51-4f04-a889-e6153c28a114","ios":"levelo://app?vid=046f1130-6f51-4f04-a889-e6153c28a114"},"vehicle_type_id":"4","last_reported":1700744999,"current_range_meters":12800,"station_id":"ce4bguh2rcd13ifvqcj0","pricing_plan_id":"free"},{"bike_id":"caf44184-ce37-4005-9266-dea263d67ad4","system_id":"levelo_inurba_marseille","lat":43.30143,"lon":5.37413,"is_reserved":false,"is_disabled":false,"rental_uris":{"android":"levelo://app?vid=caf44184-ce37-4005-9266-dea263d67ad4","ios":"levelo://app?vid=caf44184-ce37-4005-9266-dea263d67ad4"},"vehicle_type_id":"4","last_reported":1700744999,"current_range_meters":20400,"station_id":"ce4bgs92rcd13ifvqcc0","pricing_plan_id":"free"},{"bike_id":"6b9594f0-8287-4866-8ea9-869c3eb4db03","system_id":"levelo_inurba_marseille","lat":43.31366,"lon":5.3849,"is_reserved":false,"is_disabled":false,"rental_uris":{"android":"levelo://app?vid=6b9594f0-8287-4866-8ea9-869c3eb4db03","ios":"levelo://app?vid=6b9594f0-8287-4866-8ea9-869c3eb4db03"},"vehicle_type_id":"4","last_reported":1700744999,"current_range_meters":24400,"station_id":"ce4bgt92rcd13ifvqcf0","pricing_plan_id":"free"},{"bike_id":"2487c11e-73cb-4da2-b2b0-4e8b6240048f","system_id":"levelo_inurba_marseille","lat":43.31367,"lon":5.38492,"is_reserved":false,"is_disabled":false,"rental_uris":{"android":"levelo://app?vid=2487c11e-73cb-4da2-b2b0-4e8b6240048f","ios":"levelo://app?vid=2487c11e-73cb-4da2-b2b0-4e8b6240048f"},"vehicle_type_id":"4","last_reported":1700744999,"current_range_meters":11600,"station_id":"ce4bgt92rcd13ifvqcf0","pricing_plan_id":"free"},{"bike_id":"29e3f9ee-744f-4ec6-8f3e-61ecbf32edac","system_id":"levelo_inurba_marseille","lat":43.313571,"lon":5.384829,"is_reserved":false,"is_disabled":false,"rental_uris":{"android":"levelo://app?vid=29e3f9ee-744f-4ec6-8f3e-61ecbf32edac","ios":"levelo://app?vid=29e3f9ee-744f-4ec6-8f3e-61ecbf32edac"},"vehicle_type_id":"4","last_reported":1700744999,"current_range_meters":14000,"station_id":"ce4bgt92rcd13ifvqcf0","pricing_plan_id":"free"},{"bike_id":"32d5ab05-2744-4c50-aefb-564a35a14bc6","system_id":"levelo_inurba_marseille","lat":43.313571,"lon":5.384829,"is_reserved":false,"is_disabled":false,"rental_uris":{"android":"levelo://app?vid=32d5ab05-2744-4c50-aefb-564a35a14bc6","ios":"levelo://app?vid=32d5ab05-2744-4c50-aefb-564a35a14bc6"},"vehicle_type_id":"4","last_reported":1700744999,"current_range_meters":9200,"station_id":"ce4bgt92rcd13ifvqcf0","pricing_plan_id":"free"},{"bike_id":"6706bcf8-80ab-4341-960e-6e1f09f510a0","system_id":"levelo_inurba_marseille","lat":43.299724,"lon":5.371829,"is_reserved":false,"is_disabled":false,"rental_uris":{"android":"levelo://app?vid=6706bcf8-80ab-4341-960e-6e1f09f510a0","ios":"levelo://app?vid=6706bcf8-80ab-4341-960e-6e1f09f510a0"},"vehicle_type_id":"4","last_reported":1700744999,"current_range_meters":8400,"station_id":"ce4bgr92rcd13ifvqc7g","pricing_plan_id":"free"},{"bike_id":"7ff68158-80aa-47ff-b9d0-c821faf454a3","system_id":"levelo_inurba_marseille","lat":43.299724,"lon":5.371829,"is_reserved":false,"is_disabled":false,"rental_uris":{"android":"levelo://app?vid=7ff68158-80aa-47ff-b9d0-c821faf454a3","ios":"levelo://app?vid=7ff68158-80aa-47ff-b9d0-c821faf454a3"},"vehicle_type_id":"4","last_reported":1700744999,"current_range_meters":29200,"station_id":"ce4bgr92rcd13ifvqc7g","pricing_plan_id":"free"},{"bike_id":"8a083080-c2af-40d7-9b49-189b7dedbb0a","system_id":"levelo_inurba_marseille","lat":43.299724,"lon":5.371829,"is_reserved":false,"is_disabled":false,"rental_uris":{"android":"levelo://app?vid=8a083080-c2af-40d7-9b49-189b7dedbb0a","ios":"levelo://app?vid=8a083080-c2af-40d7-9b49-189b7dedbb0a"},"vehicle_type_id":"4","last_reported":1700744999,"current_range_meters":25200,"station_id":"ce4bgr92rcd13ifvqc7g","pricing_plan_id":"free"},{"bike_id":"0762c730-5055-438a-aa96-f545d51dcfb1","system_id":"levelo_inurba_marseille","lat":43.29922,"lon":5.36542,"is_reserved":false,"is_disabled":false,"rental_uris":{"android":"levelo://app?vid=0762c730-5055-438a-aa96-f545d51dcfb1","ios":"levelo://app?vid=0762c730-5055-438a-aa96-f545d51dcfb1"},"vehicle_type_id":"4","last_reported":1700744999,"current_range_meters":18800,"station_id":"ce4bgm92rcd13ifvqbr0","pricing_plan_id":"free"},{"bike_id":"47426855-20a4-4f91-b86e-154b78259341","system_id":"levelo_inurba_marseille","lat":43.298433,"lon":5.362774,"is_reserved":false,"is_disabled":false,"rental_uris":{"android":"levelo://app?vid=47426855-20a4-4f91-b86e-154b78259341","ios":"levelo://app?vid=47426855-20a4-4f91-b86e-154b78259341"},"vehicle_type_id":"4","last_reported":1700744999,"current_range_meters":28400,"station_id":"ce4bgpp2rcd13ifvqc3g","pricing_plan_id":"free"},{"bike_id":"b2c41743-727d-4938-af79-24b7e1a6458d","system_id":"levelo_inurba_marseille","lat":43.298433,"lon":5.362774,"is_reserved":false,"is_disabled":false,"rental_uris":{"android":"levelo://app?vid=b2c41743-727d-4938-af79-24b7e1a6458d","ios":"levelo://app?vid=b2c41743-727d-4938-af79-24b7e1a6458d"},"vehicle_type_id":"4","last_reported":1700744999,"current_range_meters":4000,"station_id":"ce4bgpp2rcd13ifvqc3g","pricing_plan_id":"free"},{"bike_id":"ecdd082c-8b3b-4507-8e29-667bdf0c263a","system_id":"levelo_inurba_marseille","lat":43.298433,"lon":5.362774,"is_reserved":false,"is_disabled":false,"rental_uris":{"android":"levelo://app?vid=ecdd082c-8b3b-4507-8e29-667bdf0c263a","ios":"levelo://app?vid=ecdd082c-8b3b-4507-8e29-667bdf0c263a"},"vehicle_type_id":"4","last_reported":1700744999,"current_range_meters":31600,"station_id":"ce4bgpp2rcd13ifvqc3g","pricing_plan_id":"free"},{"bike_id":"41cf4989-a30d-42dc-8fac-825aac0664b1","system_id":"levelo_inurba_marseille","lat":43.311722,"lon":5.387247,"is_reserved":false,"is_disabled":false,"rental_uris":{"android":"levelo://app?vid=41cf4989-a30d-42dc-8fac-825aac0664b1","ios":"levelo://app?vid=41cf4989-a30d-42dc-8fac-825aac0664b1"},"vehicle_type_id":"4","last_reported":1700744999,"current_range_meters":29200,"station_id":"ce4bgv12rcd13ifvqcp0","pricing_plan_id":"free"},{"bike_id":"f9dd83c0-250a-4e2d-86dc-aa9dbef8d832","system_id":"levelo_inurba_marseille","lat":43.311436,"lon":5.38761,"is_reserved":false,"is_disabled":false,"rental_uris":{"android":"levelo://app?vid=f9dd83c0-250a-4e2d-86dc-aa9dbef8d832","ios":"levelo://app?vid=f9dd83c0-250a-4e2d-86dc-aa9dbef8d832"},"vehicle_type_id":"4","last_reported":1700744999,"current_range_meters":20000,"station_id":"","pricing_plan_id":"free"},{"bike_id":"44dae710-85e4-42f4-9515-af7c61a9c96b","system_id":"levelo_inurba_marseille","lat":43.298433,"lon":5.362774,"is_reserved":false,"is_disabled":false,"rental_uris":{"android":"levelo://app?vid=44dae710-85e4-42f4-9515-af7c61a9c96b","ios":"levelo://app?vid=44dae710-85e4-42f4-9515-af7c61a9c96b"},"vehicle_type_id":"4","last_reported":1700744999,"current_range_meters":22800,"station_id":"ce4bgpp2rcd13ifvqc3g","pricing_plan_id":"free"},{"bike_id":"4d7509f5-9559-42ca-a60d-bef9e80f0981","system_id":"levelo_inurba_marseille","lat":43.299624,"lon":5.379136,"is_reserved":false,"is_disabled":false,"rental_uris":{"android":"levelo://app?vid=4d7509f5-9559-42ca-a60d-bef9e80f0981","ios":"levelo://app?vid=4d7509f5-9559-42ca-a60d-bef9e80f0981"},"vehicle_type_id":"4","last_reported":1700744999,"current_range_meters":0,"station_id":"","pricing_plan_id":"free"},{"bike_id":"22a7c49f-dd58-41dd-9065-d74caffd8392","system_id":"levelo_inurba_marseille","lat":43.29573,"lon":5.367355,"is_reserved":false,"is_disabled":false,"rental_uris":{"android":"levelo://app?vid=22a7c49f-dd58-41dd-9065-d74caffd8392","ios":"levelo://app?vid=22a7c49f-dd58-41dd-9065-d74caffd8392"},"vehicle_type_id":"4","last_reported":1700744999,"current_range_meters":28000,"station_id":"ce4bgph2rcd13ifvqc2g","pricing_plan_id":"free"},{"bike_id":"e7a5e715-e0e8-4f48-bd4e-abf22dbc3bde","system_id":"levelo_inurba_marseille","lat":43.29726,"lon":5.3769,"is_reserved":false,"is_disabled":false,"rental_uris":{"android":"levelo://app?vid=e7a5e715-e0e8-4f48-bd4e-abf22dbc3bde","ios":"levelo://app?vid=e7a5e715-e0e8-4f48-bd4e-abf22dbc3bde"},"vehicle_type_id":"4","last_reported":1700744999,"current_range_meters":0,"station_id":"ce4bgkh2rcd13ifvqbl0","pricing_plan_id":"free"},{"bike_id":"f1136474-96a3-4369-a543-2dd3a3711bbe","system_id":"levelo_inurba_marseille","lat":43.299028,"lon":5.381509,"is_reserved":false,"is_disabled":false,"rental_uris":{"android":"levelo://app?vid=f1136474-96a3-4369-a543-2dd3a3711bbe","ios":"levelo://app?vid=f1136474-96a3-4369-a543-2dd3a3711bbe"},"vehicle_type_id":"4","last_reported":1700744999,"current_range_meters":22800,"station_id":"ce4bgj12rcd13ifvqbc0","pricing_plan_id":"free"},{"bike_id":"ff3882d2-f1c4-4310-a8d9-d4625474e153","system_id":"levelo_inurba_marseille","lat":43.309589,"lon":5.390258,"is_reserved":false,"is_disabled":false,"rental_uris":{"android":"levelo://app?vid=ff3882d2-f1c4-4310-a8d9-d4625474e153","ios":"levelo://app?vid=ff3882d2-f1c4-4310-a8d9-d4625474e153"},"vehicle_type_id":"4","last_reported":1700744999,"current_range_meters":6400,"station_id":"ce4bgup2rcd13ifvqco0","pricing_plan_id":"free"},{"bike_id":"2c076d2e-0ffb-4579-8042-6386aa90aa69","system_id":"levelo_inurba_marseille","lat":43.317557,"lon":5.390173,"is_reserved":false,"is_disabled":false,"rental_uris":{"android":"levelo://app?vid=2c076d2e-0ffb-4579-8042-6386aa90aa69","ios":"levelo://app?vid=2c076d2e-0ffb-4579-8042-6386aa90aa69"},"vehicle_type_id":"4","last_reported":1700744999,"current_range_meters":24800,"station_id":"ce4bhqp2rcd13ifvqhng","pricing_plan_id":"free"},{"bike_id":"ea3c0d9e-d02b-417d-be2d-81c4443cf138","system_id":"levelo_inurba_marseille","lat":43.304177,"lon":5.388029,"is_reserved":false,"is_disabled":false,"rental_uris":{"android":"levelo://app?vid=ea3c0d9e-d02b-417d-be2d-81c4443cf138","ios":"levelo://app?vid=ea3c0d9e-d02b-417d-be2d-81c4443cf138"},"vehicle_type_id":"4","last_reported":1700744999,"current_range_meters":0,"station_id":"ce4bgk12rcd13ifvqbi0","pricing_plan_id":"free"},{"bike_id":"186e820a-41c1-40cb-b5ca-9c9328f8e485","system_id":"levelo_inurba_marseille","lat":43.317557,"lon":5.390173,"is_reserved":false,"is_disabled":false,"rental_uris":{"android":"levelo://app?vid=186e820a-41c1-40cb-b5ca-9c9328f8e485","ios":"levelo://app?vid=186e820a-41c1-40cb-b5ca-9c9328f8e485"},"vehicle_type_id":"4","last_reported":1700744999,"current_range_meters":31200,"station_id":"ce4bhqp2rcd13ifvqhng","pricing_plan_id":"free"},{"bike_id":"cc8b72d8-32be-4a56-b66e-ebcce1584daf","system_id":"levelo_inurba_marseille","lat":43.298037,"lon":5.381066,"is_reserved":false,"is_disabled":false,"rental_uris":{"android":"levelo://app?vid=cc8b72d8-32be-4a56-b66e-ebcce1584daf","ios":"levelo://app?vid=cc8b72d8-32be-4a56-b66e-ebcce1584daf"},"vehicle_type_id":"4","last_reported":1700744999,"current_range_meters":4400,"station_id":"ce4bgip2rcd13ifvqbb0","pricing_plan_id":"free"},{"bike_id":"1ef251ed-dc3b-4149-925a-522bcf8d1530","system_id":"levelo_inurba_marseille","lat":43.298037,"lon":5.381066,"is_reserved":false,"is_disabled":false,"rental_uris":{"android":"levelo://app?vid=1ef251ed-dc3b-4149-925a-522bcf8d1530","ios":"levelo://app?vid=1ef251ed-dc3b-4149-925a-522bcf8d1530"},"vehicle_type_id":"4","last_reported":1700744999,"current_range_meters":24400,"station_id":"ce4bgip2rcd13ifvqbb0","pricing_plan_id":"free"},{"bike_id":"7bd1a642-e80c-4308-b967-7c6ba02d583e","system_id":"levelo_inurba_marseille","lat":43.295748,"lon":5.37522,"is_reserved":false,"is_disabled":false,"rental_uris":{"android":"levelo://app?vid=7bd1a642-e80c-4308-b967-7c6ba02d583e","ios":"levelo://app?vid=7bd1a642-e80c-4308-b967-7c6ba02d583e"},"vehicle_type_id":"4","last_reported":1700744999,"current_range_meters":10000,"station_id":"ce4bgh92rcd13ifvqb50","pricing_plan_id":"free"},{"bike_id":"776d00ca-c0c3-470a-a9b2-107b0169c295","system_id":"levelo_inurba_marseille","lat":43.298037,"lon":5.381066,"is_reserved":false,"is_disabled":false,"rental_uris":{"android":"levelo://app?vid=776d00ca-c0c3-470a-a9b2-107b0169c295","ios":"levelo://app?vid=776d00ca-c0c3-470a-a9b2-107b0169c295"},"vehicle_type_id":"4","last_reported":1700744999,"current_range_meters":28400,"station_id":"ce4bgip2rcd13ifvqbb0","pricing_plan_id":"free"},{"bike_id":"fb57714d-02c7-4ba2-89f7-e7a8ba3907fc","system_id":"levelo_inurba_marseille","lat":43.298037,"lon":5.381066,"is_reserved":false,"is_disabled":false,"rental_uris":{"android":"levelo://app?vid=fb57714d-02c7-4ba2-89f7-e7a8ba3907fc","ios":"levelo://app?vid=fb57714d-02c7-4ba2-89f7-e7a8ba3907fc"},"vehicle_type_id":"4","last_reported":1700744999,"current_range_meters":5600,"station_id":"ce4bgip2rcd13ifvqbb0","pricing_plan_id":"free"},{"bike_id":"dd42bd8d-576f-43a4-9d7e-d328a4c567fb","system_id":"levelo_inurba_marseille","lat":43.295748,"lon":5.37522,"is_reserved":false,"is_disabled":false,"rental_uris":{"android":"levelo://app?vid=dd42bd8d-576f-43a4-9d7e-d328a4c567fb","ios":"levelo://app?vid=dd42bd8d-576f-43a4-9d7e-d328a4c567fb"},"vehicle_type_id":"4","last_reported":1700744999,"current_range_meters":0,"station_id":"ce4bgh92rcd13ifvqb50","pricing_plan_id":"free"},{"bike_id":"836aefc0-b45b-45a2-8bf1-d4a62b386eb2","system_id":"levelo_inurba_marseille","lat":43.29779,"lon":5.38128,"is_reserved":false,"is_disabled":false,"rental_uris":{"android":"levelo://app?vid=836aefc0-b45b-45a2-8bf1-d4a62b386eb2","ios":"levelo://app?vid=836aefc0-b45b-45a2-8bf1-d4a62b386eb2"},"vehicle_type_id":"4","last_reported":1700744999,"current_range_meters":25200,"station_id":"ce4bgip2rcd13ifvqbb0","pricing_plan_id":"free"},{"bike_id":"a52d2262-4d38-4567-8a5f-d1d6929dfc7e","system_id":"levelo_inurba_marseille","lat":43.296,"lon":5.37725,"is_reserved":false,"is_disabled":false,"rental_uris":{"android":"levelo://app?vid=a52d2262-4d38-4567-8a5f-d1d6929dfc7e","ios":"levelo://app?vid=a52d2262-4d38-4567-8a5f-d1d6929dfc7e"},"vehicle_type_id":"4","last_reported":1700744999,"current_range_meters":8800,"station_id":"ce4bgi92rcd13ifvqb90","pricing_plan_id":"free"},{"bike_id":"7819485a-e261-43f7-aa00-1fc738ee97c0","system_id":"levelo_inurba_marseille","lat":43.299717,"lon":5.384845,"is_reserved":false,"is_disabled":false,"rental_uris":{"android":"levelo://app?vid=7819485a-e261-43f7-aa00-1fc738ee97c0","ios":"levelo://app?vid=7819485a-e261-43f7-aa00-1fc738ee97c0"},"vehicle_type_id":"4","last_reported":1700744999,"current_range_meters":10400,"station_id":"ce4bgj92rcd13ifvqbd0","pricing_plan_id":"free"},{"bike_id":"6b621983-5e9e-42f7-990d-ad5a093820d2","system_id":"levelo_inurba_marseille","lat":43.293801,"lon":5.363066,"is_reserved":false,"is_disabled":false,"rental_uris":{"android":"levelo://app?vid=6b621983-5e9e-42f7-990d-ad5a093820d2","ios":"levelo://app?vid=6b621983-5e9e-42f7-990d-ad5a093820d2"},"vehicle_type_id":"4","last_reported":1700744999,"current_range_meters":8400,"station_id":"","pricing_plan_id":"free"},{"bike_id":"916966e5-5864-41cd-9792-6a39ee8af46b","system_id":"levelo_inurba_marseille","lat":43.32367,"lon":5.388836,"is_reserved":false,"is_disabled":false,"rental_uris":{"android":"levelo://app?vid=916966e5-5864-41cd-9792-6a39ee8af46b","ios":"levelo://app?vid=916966e5-5864-41cd-9792-6a39ee8af46b"},"vehicle_type_id":"4","last_reported":1700744999,"current_range_meters":14400,"station_id":"ce4bhqp2rcd13ifvqhog","pricing_plan_id":"free"},{"bike_id":"5ce27df6-944f-4882-ad35-b34416267220","system_id":"levelo_inurba_marseille","lat":43.32363,"lon":5.38888,"is_reserved":false,"is_disabled":false,"rental_uris":{"android":"levelo://app?vid=5ce27df6-944f-4882-ad35-b34416267220","ios":"levelo://app?vid=5ce27df6-944f-4882-ad35-b34416267220"},"vehicle_type_id":"4","last_reported":1700744999,"current_range_meters":20000,"station_id":"ce4bhqp2rcd13ifvqhog","pricing_plan_id":"free"},{"bike_id":"11b00e50-2924-46ea-8a5f-b91cad32a689","system_id":"levelo_inurba_marseille","lat":43.296086,"lon":5.381073,"is_reserved":false,"is_disabled":false,"rental_uris":{"android":"levelo://app?vid=11b00e50-2924-46ea-8a5f-b91cad32a689","ios":"levelo://app?vid=11b00e50-2924-46ea-8a5f-b91cad32a689"},"vehicle_type_id":"4","last_reported":1700744999,"current_range_meters":17600,"station_id":"ce4bgl12rcd13ifvqbo0","pricing_plan_id":"free"},{"bike_id":"9796cc1d-8cab-4c43-bcfa-971f70f00666","system_id":"levelo_inurba_marseille","lat":43.29602,"lon":5.381084,"is_reserved":false,"is_disabled":false,"rental_uris":{"android":"levelo://app?vid=9796cc1d-8cab-4c43-bcfa-971f70f00666","ios":"levelo://app?vid=9796cc1d-8cab-4c43-bcfa-971f70f00666"},"vehicle_type_id":"4","last_reported":1700744999,"current_range_meters":5200,"station_id":"ce4bgl12rcd13ifvqbo0","pricing_plan_id":"free"},{"bike_id":"f79faaab-e540-4522-aa4e-2144b57e195a","system_id":"levelo_inurba_marseille","lat":43.29601,"lon":5.381084,"is_reserved":false,"is_disabled":false,"rental_uris":{"android":"levelo://app?vid=f79faaab-e540-4522-aa4e-2144b57e195a","ios":"levelo://app?vid=f79faaab-e540-4522-aa4e-2144b57e195a"},"vehicle_type_id":"4","last_reported":1700744999,"current_range_meters":29600,"station_id":"ce4bgl12rcd13ifvqbo0","pricing_plan_id":"free"},{"bike_id":"3093f655-63c3-4bc8-ae72-e51700f6c860","system_id":"levelo_inurba_marseille","lat":43.295955,"lon":5.380955,"is_reserved":false,"is_disabled":false,"rental_uris":{"android":"levelo://app?vid=3093f655-63c3-4bc8-ae72-e51700f6c860","ios":"levelo://app?vid=3093f655-63c3-4bc8-ae72-e51700f6c860"},"vehicle_type_id":"4","last_reported":1700744999,"current_range_meters":14800,"station_id":"ce4bgl12rcd13ifvqbo0","pricing_plan_id":"free"},{"bike_id":"3cefb195-c2ac-4e0c-b1fa-3317e404817d","system_id":"levelo_inurba_marseille","lat":43.292749,"lon":5.368402,"is_reserved":false,"is_disabled":false,"rental_uris":{"android":"levelo://app?vid=3cefb195-c2ac-4e0c-b1fa-3317e404817d","ios":"levelo://app?vid=3cefb195-c2ac-4e0c-b1fa-3317e404817d"},"vehicle_type_id":"4","last_reported":1700744999,"current_range_meters":3600,"station_id":"ce4bhbp2rcd13ifvqesg","pricing_plan_id":"free"},{"bike_id":"8446c6cb-f7ba-41dc-9acc-10f69713cca8","system_id":"levelo_inurba_marseille","lat":43.292749,"lon":5.368402,"is_reserved":false,"is_disabled":false,"rental_uris":{"android":"levelo://app?vid=8446c6cb-f7ba-41dc-9acc-10f69713cca8","ios":"levelo://app?vid=8446c6cb-f7ba-41dc-9acc-10f69713cca8"},"vehicle_type_id":"4","last_reported":1700744999,"current_range_meters":30000,"station_id":"ce4bhbp2rcd13ifvqesg","pricing_plan_id":"free"},{"bike_id":"cd1803d1-b3ad-4a02-8a67-cd8ef03fa276","system_id":"levelo_inurba_marseille","lat":43.292749,"lon":5.368402,"is_reserved":false,"is_disabled":false,"rental_uris":{"android":"levelo://app?vid=cd1803d1-b3ad-4a02-8a67-cd8ef03fa276","ios":"levelo://app?vid=cd1803d1-b3ad-4a02-8a67-cd8ef03fa276"},"vehicle_type_id":"4","last_reported":1700744999,"current_range_meters":18000,"station_id":"ce4bhbp2rcd13ifvqesg","pricing_plan_id":"free"},{"bike_id":"7873a42b-c6ec-4a83-a6c8-157d8d929f54","system_id":"levelo_inurba_marseille","lat":43.292311,"lon":5.360731,"is_reserved":false,"is_disabled":false,"rental_uris":{"android":"levelo://app?vid=7873a42b-c6ec-4a83-a6c8-157d8d929f54","ios":"levelo://app?vid=7873a42b-c6ec-4a83-a6c8-157d8d929f54"},"vehicle_type_id":"4","last_reported":1700744999,"current_range_meters":5600,"station_id":"ce4bhbh2rcd13ifvqeqg","pricing_plan_id":"free"},{"bike_id":"4acaf9aa-ecc9-4067-b343-87beea90f1fb","system_id":"levelo_inurba_marseille","lat":43.293009,"lon":5.374584,"is_reserved":false,"is_disabled":false,"rental_uris":{"android":"levelo://app?vid=4acaf9aa-ecc9-4067-b343-87beea90f1fb","ios":"levelo://app?vid=4acaf9aa-ecc9-4067-b343-87beea90f1fb"},"vehicle_type_id":"4","last_reported":1700744999,"current_range_meters":14800,"station_id":"ce4bgi12rcd13ifvqb70","pricing_plan_id":"free"},{"bike_id":"829613f6-6ed6-4602-a1d2-8d20d5d8674e","system_id":"levelo_inurba_marseille","lat":43.293009,"lon":5.374584,"is_reserved":false,"is_disabled":false,"rental_uris":{"android":"levelo://app?vid=829613f6-6ed6-4602-a1d2-8d20d5d8674e","ios":"levelo://app?vid=829613f6-6ed6-4602-a1d2-8d20d5d8674e"},"vehicle_type_id":"4","last_reported":1700744999,"current_range_meters":18800,"station_id":"ce4bgi12rcd13ifvqb70","pricing_plan_id":"free"},{"bike_id":"9c91f418-3d52-43a7-b72c-4fd28b47c135","system_id":"levelo_inurba_marseille","lat":43.2936,"lon":5.37835,"is_reserved":false,"is_disabled":false,"rental_uris":{"android":"levelo://app?vid=9c91f418-3d52-43a7-b72c-4fd28b47c135","ios":"levelo://app?vid=9c91f418-3d52-43a7-b72c-4fd28b47c135"},"vehicle_type_id":"4","last_reported":1700744999,"current_range_meters":17600,"station_id":"ce4bgjh2rcd13ifvqbf0","pricing_plan_id":"free"},{"bike_id":"569c17c9-bd9e-4863-81a4-570e9ed10524","system_id":"levelo_inurba_marseille","lat":43.292311,"lon":5.360731,"is_reserved":false,"is_disabled":false,"rental_uris":{"android":"levelo://app?vid=569c17c9-bd9e-4863-81a4-570e9ed10524","ios":"levelo://app?vid=569c17c9-bd9e-4863-81a4-570e9ed10524"},"vehicle_type_id":"4","last_reported":1700744999,"current_range_meters":18800,"station_id":"ce4bhbh2rcd13ifvqeqg","pricing_plan_id":"free"},{"bike_id":"c8dd044f-fa68-45b1-97bb-4f8cb7ed26ab","system_id":"levelo_inurba_marseille","lat":43.292663,"lon":5.376394,"is_reserved":false,"is_disabled":false,"rental_uris":{"android":"levelo://app?vid=c8dd044f-fa68-45b1-97bb-4f8cb7ed26ab","ios":"levelo://app?vid=c8dd044f-fa68-45b1-97bb-4f8cb7ed26ab"},"vehicle_type_id":"4","last_reported":1700744999,"current_range_meters":29600,"station_id":"ce4bgi12rcd13ifvqb80","pricing_plan_id":"free"},{"bike_id":"1d10a1b1-d55f-4279-928a-9c6858f32ca9","system_id":"levelo_inurba_marseille","lat":43.33211,"lon":5.38112,"is_reserved":false,"is_disabled":false,"rental_uris":{"android":"levelo://app?vid=1d10a1b1-d55f-4279-928a-9c6858f32ca9","ios":"levelo://app?vid=1d10a1b1-d55f-4279-928a-9c6858f32ca9"},"vehicle_type_id":"4","last_reported":1700744999,"current_range_meters":0,"station_id":"","pricing_plan_id":"free"},{"bike_id":"2afdcee0-78c5-459a-816d-0560f3e99eee","system_id":"levelo_inurba_marseille","lat":43.290779,"lon":5.371482,"is_reserved":false,"is_disabled":false,"rental_uris":{"android":"levelo://app?vid=2afdcee0-78c5-459a-816d-0560f3e99eee","ios":"levelo://app?vid=2afdcee0-78c5-459a-816d-0560f3e99eee"},"vehicle_type_id":"4","last_reported":1700744999,"current_range_meters":9200,"station_id":"ce4bh5p2rcd13ifvqe4g","pricing_plan_id":"free"},{"bike_id":"d4b9eaa4-7ab0-49f7-bdd8-da4b1782c730","system_id":"levelo_inurba_marseille","lat":43.290624,"lon":5.359245,"is_reserved":false,"is_disabled":false,"rental_uris":{"android":"levelo://app?vid=d4b9eaa4-7ab0-49f7-bdd8-da4b1782c730","ios":"levelo://app?vid=d4b9eaa4-7ab0-49f7-bdd8-da4b1782c730"},"vehicle_type_id":"4","last_reported":1700744999,"current_range_meters":17200,"station_id":"ce4bha92rcd13ifvqeg0","pricing_plan_id":"free"},{"bike_id":"eb321646-f0ec-484b-b7a9-12f8d394f340","system_id":"levelo_inurba_marseille","lat":43.290631,"lon":5.359244,"is_reserved":false,"is_disabled":false,"rental_uris":{"android":"levelo://app?vid=eb321646-f0ec-484b-b7a9-12f8d394f340","ios":"levelo://app?vid=eb321646-f0ec-484b-b7a9-12f8d394f340"},"vehicle_type_id":"4","last_reported":1700744999,"current_range_meters":18800,"station_id":"ce4bha92rcd13ifvqeg0","pricing_plan_id":"free"},{"bike_id":"350e8f2d-d7c2-426d-99b5-5f8492688ef5","system_id":"levelo_inurba_marseille","lat":43.28947,"lon":5.36401,"is_reserved":false,"is_disabled":false,"rental_uris":{"android":"levelo://app?vid=350e8f2d-d7c2-426d-99b5-5f8492688ef5","ios":"levelo://app?vid=350e8f2d-d7c2-426d-99b5-5f8492688ef5"},"vehicle_type_id":"4","last_reported":1700744999,"current_range_meters":22000,"station_id":"ce4bhc92rcd13ifvqetg","pricing_plan_id":"free"},{"bike_id":"91f43715-e29c-420b-86ac-1e6c1a18d185","system_id":"levelo_inurba_marseille","lat":43.310127,"lon":5.399348,"is_reserved":false,"is_disabled":false,"rental_uris":{"android":"levelo://app?vid=91f43715-e29c-420b-86ac-1e6c1a18d185","ios":"levelo://app?vid=91f43715-e29c-420b-86ac-1e6c1a18d185"},"vehicle_type_id":"4","last_reported":1700744999,"current_range_meters":0,"station_id":"","pricing_plan_id":"free"},{"bike_id":"23932722-225e-4eeb-bc61-e589ee590817","system_id":"levelo_inurba_marseille","lat":43.33041,"lon":5.38925,"is_reserved":false,"is_disabled":false,"rental_uris":{"android":"levelo://app?vid=23932722-225e-4eeb-bc61-e589ee590817","ios":"levelo://app?vid=23932722-225e-4eeb-bc61-e589ee590817"},"vehicle_type_id":"4","last_reported":1700744999,"current_range_meters":16400,"station_id":"ce4bhr92rcd13ifvqhrg","pricing_plan_id":"free"},{"bike_id":"a4915831-de6e-4c58-a107-f41a054b8c7a","system_id":"levelo_inurba_marseille","lat":43.290104,"lon":5.356111,"is_reserved":false,"is_disabled":false,"rental_uris":{"android":"levelo://app?vid=a4915831-de6e-4c58-a107-f41a054b8c7a","ios":"levelo://app?vid=a4915831-de6e-4c58-a107-f41a054b8c7a"},"vehicle_type_id":"4","last_reported":1700744999,"current_range_meters":24800,"station_id":"ce4bhb92rcd13ifvqen0","pricing_plan_id":"free"},{"bike_id":"a7596e70-d5b7-423e-b5c3-cc39a16072e9","system_id":"levelo_inurba_marseille","lat":43.290995,"lon":5.381361,"is_reserved":false,"is_disabled":false,"rental_uris":{"android":"levelo://app?vid=a7596e70-d5b7-423e-b5c3-cc39a16072e9","ios":"levelo://app?vid=a7596e70-d5b7-423e-b5c3-cc39a16072e9"},"vehicle_type_id":"4","last_reported":1700744999,"current_range_meters":4000,"station_id":"ce4bh512rcd13ifvqe2g","pricing_plan_id":"free"},{"bike_id":"d5a32038-784b-4418-bfef-038c7981b2f0","system_id":"levelo_inurba_marseille","lat":43.28948,"lon":5.3577,"is_reserved":false,"is_disabled":false,"rental_uris":{"android":"levelo://app?vid=d5a32038-784b-4418-bfef-038c7981b2f0","ios":"levelo://app?vid=d5a32038-784b-4418-bfef-038c7981b2f0"},"vehicle_type_id":"4","last_reported":1700744999,"current_range_meters":23200,"station_id":"","pricing_plan_id":"free"},{"bike_id":"2d3d322b-078c-4afa-8f89-180977b6ac3a","system_id":"levelo_inurba_marseille","lat":43.297815,"lon":5.393548,"is_reserved":false,"is_disabled":false,"rental_uris":{"android":"levelo://app?vid=2d3d322b-078c-4afa-8f89-180977b6ac3a","ios":"levelo://app?vid=2d3d322b-078c-4afa-8f89-180977b6ac3a"},"vehicle_type_id":"4","last_reported":1700744999,"current_range_meters":24800,"station_id":"chh1huq6cuj3fo74tm60","pricing_plan_id":"free"},{"bike_id":"2407b953-63cc-4563-a720-789e0582ed22","system_id":"levelo_inurba_marseille","lat":43.297815,"lon":5.393548,"is_reserved":false,"is_disabled":false,"rental_uris":{"android":"levelo://app?vid=2407b953-63cc-4563-a720-789e0582ed22","ios":"levelo://app?vid=2407b953-63cc-4563-a720-789e0582ed22"},"vehicle_type_id":"4","last_reported":1700744999,"current_range_meters":16800,"station_id":"chh1huq6cuj3fo74tm60","pricing_plan_id":"free"},{"bike_id":"1f995a03-21b0-49c3-ab3a-be260cab2b1c","system_id":"levelo_inurba_marseille","lat":43.290094,"lon":5.381264,"is_reserved":false,"is_disabled":false,"rental_uris":{"android":"levelo://app?vid=1f995a03-21b0-49c3-ab3a-be260cab2b1c","ios":"levelo://app?vid=1f995a03-21b0-49c3-ab3a-be260cab2b1c"},"vehicle_type_id":"4","last_reported":1700744999,"current_range_meters":27200,"station_id":"ce4bh4p2rcd13ifvqe1g","pricing_plan_id":"free"},{"bike_id":"e1c7d138-f00e-4425-932c-1367b6e14896","system_id":"levelo_inurba_marseille","lat":43.290094,"lon":5.381264,"is_reserved":false,"is_disabled":false,"rental_uris":{"android":"levelo://app?vid=e1c7d138-f00e-4425-932c-1367b6e14896","ios":"levelo://app?vid=e1c7d138-f00e-4425-932c-1367b6e14896"},"vehicle_type_id":"4","last_reported":1700744999,"current_range_meters":8000,"station_id":"ce4bh4p2rcd13ifvqe1g","pricing_plan_id":"free"},{"bike_id":"97dd2161-6a67-420d-b49a-db908aee861a","system_id":"levelo_inurba_marseille","lat":43.28856,"lon":5.358371,"is_reserved":false,"is_disabled":false,"rental_uris":{"android":"levelo://app?vid=97dd2161-6a67-420d-b49a-db908aee861a","ios":"levelo://app?vid=97dd2161-6a67-420d-b49a-db908aee861a"},"vehicle_type_id":"4","last_reported":1700744999,"current_range_meters":27200,"station_id":"ce4bhb12rcd13ifvqem0","pricing_plan_id":"free"},{"bike_id":"c6268d9c-23b0-4aea-8a5b-45506a2ba46f","system_id":"levelo_inurba_marseille","lat":43.28856,"lon":5.358371,"is_reserved":false,"is_disabled":false,"rental_uris":{"android":"levelo://app?vid=c6268d9c-23b0-4aea-8a5b-45506a2ba46f","ios":"levelo://app?vid=c6268d9c-23b0-4aea-8a5b-45506a2ba46f"},"vehicle_type_id":"4","last_reported":1700744999,"current_range_meters":11600,"station_id":"ce4bhb12rcd13ifvqem0","pricing_plan_id":"free"},{"bike_id":"0e3bd264-22aa-4214-96a8-95f11b524e44","system_id":"levelo_inurba_marseille","lat":43.306432,"lon":5.400646,"is_reserved":false,"is_disabled":false,"rental_uris":{"android":"levelo://app?vid=0e3bd264-22aa-4214-96a8-95f11b524e44","ios":"levelo://app?vid=0e3bd264-22aa-4214-96a8-95f11b524e44"},"vehicle_type_id":"4","last_reported":1700744999,"current_range_meters":12800,"station_id":"ce4bh112rcd13ifvqda0","pricing_plan_id":"free"},{"bike_id":"f4703f53-fc0c-4106-a791-3054c14004d0","system_id":"levelo_inurba_marseille","lat":43.3376,"lon":5.37446,"is_reserved":false,"is_disabled":false,"rental_uris":{"android":"levelo://app?vid=f4703f53-fc0c-4106-a791-3054c14004d0","ios":"levelo://app?vid=f4703f53-fc0c-4106-a791-3054c14004d0"},"vehicle_type_id":"4","last_reported":1700744999,"current_range_meters":24800,"station_id":"","pricing_plan_id":"free"},{"bike_id":"231697f5-a9cf-401c-b59d-9e1dfd17de0a","system_id":"levelo_inurba_marseille","lat":43.30654,"lon":5.40088,"is_reserved":false,"is_disabled":false,"rental_uris":{"android":"levelo://app?vid=231697f5-a9cf-401c-b59d-9e1dfd17de0a","ios":"levelo://app?vid=231697f5-a9cf-401c-b59d-9e1dfd17de0a"},"vehicle_type_id":"4","last_reported":1700744999,"current_range_meters":25200,"station_id":"ce4bh112rcd13ifvqda0","pricing_plan_id":"free"},{"bike_id":"08d49d48-3896-4f4d-9e7e-3b61182b41e6","system_id":"levelo_inurba_marseille","lat":43.28719,"lon":5.36684,"is_reserved":false,"is_disabled":false,"rental_uris":{"android":"levelo://app?vid=08d49d48-3896-4f4d-9e7e-3b61182b41e6","ios":"levelo://app?vid=08d49d48-3896-4f4d-9e7e-3b61182b41e6"},"vehicle_type_id":"4","last_reported":1700744999,"current_range_meters":23200,"station_id":"","pricing_plan_id":"free"},{"bike_id":"c29c1944-6312-4551-ab89-977ee701197c","system_id":"levelo_inurba_marseille","lat":43.30637,"lon":5.40093,"is_reserved":false,"is_disabled":false,"rental_uris":{"android":"levelo://app?vid=c29c1944-6312-4551-ab89-977ee701197c","ios":"levelo://app?vid=c29c1944-6312-4551-ab89-977ee701197c"},"vehicle_type_id":"4","last_reported":1700744999,"current_range_meters":18400,"station_id":"ce4bh112rcd13ifvqda0","pricing_plan_id":"free"},{"bike_id":"91de118e-c0ad-4949-96b8-27d7eb195e4b","system_id":"levelo_inurba_marseille","lat":43.30644,"lon":5.40098,"is_reserved":false,"is_disabled":false,"rental_uris":{"android":"levelo://app?vid=91de118e-c0ad-4949-96b8-27d7eb195e4b","ios":"levelo://app?vid=91de118e-c0ad-4949-96b8-27d7eb195e4b"},"vehicle_type_id":"4","last_reported":1700744999,"current_range_meters":3600,"station_id":"ce4bh112rcd13ifvqda0","pricing_plan_id":"free"},{"bike_id":"cdf3f49e-4b75-4461-a1e3-6db62a2fc327","system_id":"levelo_inurba_marseille","lat":43.301117,"lon":5.398795,"is_reserved":false,"is_disabled":false,"rental_uris":{"android":"levelo://app?vid=cdf3f49e-4b75-4461-a1e3-6db62a2fc327","ios":"levelo://app?vid=cdf3f49e-4b75-4461-a1e3-6db62a2fc327"},"vehicle_type_id":"4","last_reported":1700744999,"current_range_meters":28400,"station_id":"ce4bh0h2rcd13ifvqd40","pricing_plan_id":"free"},{"bike_id":"5a29ccf9-7952-456b-b542-67819973a112","system_id":"levelo_inurba_marseille","lat":43.28941,"lon":5.38406,"is_reserved":false,"is_disabled":false,"rental_uris":{"android":"levelo://app?vid=5a29ccf9-7952-456b-b542-67819973a112","ios":"levelo://app?vid=5a29ccf9-7952-456b-b542-67819973a112"},"vehicle_type_id":"4","last_reported":1700744999,"current_range_meters":14800,"station_id":"ce4bh612rcd13ifvqe6g","pricing_plan_id":"free"},{"bike_id":"0c7d64a9-9712-4572-b02f-4c24d6dbd631","system_id":"levelo_inurba_marseille","lat":43.29035,"lon":5.3863,"is_reserved":false,"is_disabled":false,"rental_uris":{"android":"levelo://app?vid=0c7d64a9-9712-4572-b02f-4c24d6dbd631","ios":"levelo://app?vid=0c7d64a9-9712-4572-b02f-4c24d6dbd631"},"vehicle_type_id":"4","last_reported":1700744999,"current_range_meters":8400,"station_id":"chh1huq6cuj3fo74tm60","pricing_plan_id":"free"},{"bike_id":"e0ac87f0-84a3-40c4-bd2f-083acf11722d","system_id":"levelo_inurba_marseille","lat":43.29037,"lon":5.38648,"is_reserved":false,"is_disabled":false,"rental_uris":{"android":"levelo://app?vid=e0ac87f0-84a3-40c4-bd2f-083acf11722d","ios":"levelo://app?vid=e0ac87f0-84a3-40c4-bd2f-083acf11722d"},"vehicle_type_id":"4","last_reported":1700744999,"current_range_meters":12400,"station_id":"ce4bh4p2rcd13ifvqe0g","pricing_plan_id":"free"},{"bike_id":"cd90db22-a64b-47fa-9af4-f8eb5dbbd160","system_id":"levelo_inurba_marseille","lat":43.289307,"lon":5.38406,"is_reserved":false,"is_disabled":false,"rental_uris":{"android":"levelo://app?vid=cd90db22-a64b-47fa-9af4-f8eb5dbbd160","ios":"levelo://app?vid=cd90db22-a64b-47fa-9af4-f8eb5dbbd160"},"vehicle_type_id":"4","last_reported":1700744999,"current_range_meters":30000,"station_id":"ce4bh612rcd13ifvqe6g","pricing_plan_id":"free"},{"bike_id":"1458e4dc-f4b4-43cb-ae00-cb084f0ba24a","system_id":"levelo_inurba_marseille","lat":43.316517,"lon":5.404375,"is_reserved":false,"is_disabled":false,"rental_uris":{"android":"levelo://app?vid=1458e4dc-f4b4-43cb-ae00-cb084f0ba24a","ios":"levelo://app?vid=1458e4dc-f4b4-43cb-ae00-cb084f0ba24a"},"vehicle_type_id":"4","last_reported":1700744999,"current_range_meters":5600,"station_id":"ce4bh012rcd13ifvqd00","pricing_plan_id":"free"},{"bike_id":"f36d58a0-c092-4584-a358-e284e6893496","system_id":"levelo_inurba_marseille","lat":43.284895,"lon":5.37227,"is_reserved":false,"is_disabled":false,"rental_uris":{"android":"levelo://app?vid=f36d58a0-c092-4584-a358-e284e6893496","ios":"levelo://app?vid=f36d58a0-c092-4584-a358-e284e6893496"},"vehicle_type_id":"4","last_reported":1700744999,"current_range_meters":8400,"station_id":"ce4bht12rcd13ifvqi60","pricing_plan_id":"free"},{"bike_id":"e8e3f0ef-5ce0-4e58-8f3f-43ba6b2aeec6","system_id":"levelo_inurba_marseille","lat":43.291994,"lon":5.392907,"is_reserved":false,"is_disabled":false,"rental_uris":{"android":"levelo://app?vid=e8e3f0ef-5ce0-4e58-8f3f-43ba6b2aeec6","ios":"levelo://app?vid=e8e3f0ef-5ce0-4e58-8f3f-43ba6b2aeec6"},"vehicle_type_id":"4","last_reported":1700744999,"current_range_meters":25200,"station_id":"ce4bh192rcd13ifvqdd0","pricing_plan_id":"free"},{"bike_id":"068adc94-d274-4be8-841f-b8bcd49860a9","system_id":"levelo_inurba_marseille","lat":43.29195,"lon":5.39322,"is_reserved":false,"is_disabled":false,"rental_uris":{"android":"levelo://app?vid=068adc94-d274-4be8-841f-b8bcd49860a9","ios":"levelo://app?vid=068adc94-d274-4be8-841f-b8bcd49860a9"},"vehicle_type_id":"4","last_reported":1700744999,"current_range_meters":5600,"station_id":"","pricing_plan_id":"free"},{"bike_id":"308660ec-cefd-4b01-a206-5fd15d956638","system_id":"levelo_inurba_marseille","lat":43.280382,"lon":5.369291,"is_reserved":false,"is_disabled":false,"rental_uris":{"android":"levelo://app?vid=308660ec-cefd-4b01-a206-5fd15d956638","ios":"levelo://app?vid=308660ec-cefd-4b01-a206-5fd15d956638"},"vehicle_type_id":"4","last_reported":1700744999,"current_range_meters":24000,"station_id":"ce4bha12rcd13ifvqef0","pricing_plan_id":"free"},{"bike_id":"0e89509b-09e8-413b-bf13-cd0807a85628","system_id":"levelo_inurba_marseille","lat":43.28456,"lon":5.35892,"is_reserved":false,"is_disabled":false,"rental_uris":{"android":"levelo://app?vid=0e89509b-09e8-413b-bf13-cd0807a85628","ios":"levelo://app?vid=0e89509b-09e8-413b-bf13-cd0807a85628"},"vehicle_type_id":"4","last_reported":1700744999,"current_range_meters":10800,"station_id":"ce4bhah2rcd13ifvqei0","pricing_plan_id":"free"},{"bike_id":"adbd441f-44c4-4168-877a-9278b4bd7ceb","system_id":"levelo_inurba_marseille","lat":43.331154,"lon":5.397642,"is_reserved":false,"is_disabled":false,"rental_uris":{"android":"levelo://app?vid=adbd441f-44c4-4168-877a-9278b4bd7ceb","ios":"levelo://app?vid=adbd441f-44c4-4168-877a-9278b4bd7ceb"},"vehicle_type_id":"4","last_reported":1700744999,"current_range_meters":17600,"station_id":"","pricing_plan_id":"free"},{"bike_id":"c79c2f64-4c0e-41eb-86c3-9cdb6195b550","system_id":"levelo_inurba_marseille","lat":43.283998,"lon":5.375062,"is_reserved":false,"is_disabled":false,"rental_uris":{"android":"levelo://app?vid=c79c2f64-4c0e-41eb-86c3-9cdb6195b550","ios":"levelo://app?vid=c79c2f64-4c0e-41eb-86c3-9cdb6195b550"},"vehicle_type_id":"4","last_reported":1700744999,"current_range_meters":21200,"station_id":"ce4bh412rcd13ifvqds0","pricing_plan_id":"free"},{"bike_id":"22807f89-35bb-424c-9597-c37e83121d0a","system_id":"levelo_inurba_marseille","lat":43.28486,"lon":5.38423,"is_reserved":false,"is_disabled":false,"rental_uris":{"android":"levelo://app?vid=22807f89-35bb-424c-9597-c37e83121d0a","ios":"levelo://app?vid=22807f89-35bb-424c-9597-c37e83121d0a"},"vehicle_type_id":"4","last_reported":1700744999,"current_range_meters":0,"station_id":"ce4bh512rcd13ifvqe3g","pricing_plan_id":"free"},{"bike_id":"3714913b-fe37-4565-8f40-0253914d7ac5","system_id":"levelo_inurba_marseille","lat":43.297946,"lon":5.404063,"is_reserved":false,"is_disabled":false,"rental_uris":{"android":"levelo://app?vid=3714913b-fe37-4565-8f40-0253914d7ac5","ios":"levelo://app?vid=3714913b-fe37-4565-8f40-0253914d7ac5"},"vehicle_type_id":"4","last_reported":1700744999,"current_range_meters":17200,"station_id":"ce4bh112rcd13ifvqd90","pricing_plan_id":"free"},{"bike_id":"8622a541-30b0-40eb-90e0-1d0bd36d6c08","system_id":"levelo_inurba_marseille","lat":43.29257,"lon":5.39921,"is_reserved":false,"is_disabled":false,"rental_uris":{"android":"levelo://app?vid=8622a541-30b0-40eb-90e0-1d0bd36d6c08","ios":"levelo://app?vid=8622a541-30b0-40eb-90e0-1d0bd36d6c08"},"vehicle_type_id":"4","last_reported":1700744999,"current_range_meters":20400,"station_id":"","pricing_plan_id":"free"},{"bike_id":"cf558ff0-1cbf-443b-a7d3-6320317c03b4","system_id":"levelo_inurba_marseille","lat":43.284219,"lon":5.3497,"is_reserved":false,"is_disabled":false,"rental_uris":{"android":"levelo://app?vid=cf558ff0-1cbf-443b-a7d3-6320317c03b4","ios":"levelo://app?vid=cf558ff0-1cbf-443b-a7d3-6320317c03b4"},"vehicle_type_id":"4","last_reported":1700744999,"current_range_meters":8000,"station_id":"ce4bhbh2rcd13ifvqepg","pricing_plan_id":"free"},{"bike_id":"63dc670e-5ca0-4bb7-bed7-cb0957d847b8","system_id":"levelo_inurba_marseille","lat":43.283498,"lon":5.380948,"is_reserved":false,"is_disabled":false,"rental_uris":{"android":"levelo://app?vid=63dc670e-5ca0-4bb7-bed7-cb0957d847b8","ios":"levelo://app?vid=63dc670e-5ca0-4bb7-bed7-cb0957d847b8"},"vehicle_type_id":"4","last_reported":1700744999,"current_range_meters":4400,"station_id":"ce4bh412rcd13ifvqdr0","pricing_plan_id":"free"},{"bike_id":"e2284003-4e46-4e0a-93e7-73d05c3666d9","system_id":"levelo_inurba_marseille","lat":43.33509,"lon":5.397747,"is_reserved":false,"is_disabled":false,"rental_uris":{"android":"levelo://app?vid=e2284003-4e46-4e0a-93e7-73d05c3666d9","ios":"levelo://app?vid=e2284003-4e46-4e0a-93e7-73d05c3666d9"},"vehicle_type_id":"4","last_reported":1700744999,"current_range_meters":26400,"station_id":"","pricing_plan_id":"free"},{"bike_id":"9f406700-c6fa-44c2-b209-2e781c68762e","system_id":"levelo_inurba_marseille","lat":43.28627,"lon":5.39143,"is_reserved":false,"is_disabled":false,"rental_uris":{"android":"levelo://app?vid=9f406700-c6fa-44c2-b209-2e781c68762e","ios":"levelo://app?vid=9f406700-c6fa-44c2-b209-2e781c68762e"},"vehicle_type_id":"4","last_reported":1700744999,"current_range_meters":8000,"station_id":"","pricing_plan_id":"free"},{"bike_id":"39a5ef71-1ea7-42e0-befe-4bfecce0b6f6","system_id":"levelo_inurba_marseille","lat":43.280382,"lon":5.369291,"is_reserved":false,"is_disabled":false,"rental_uris":{"android":"levelo://app?vid=39a5ef71-1ea7-42e0-befe-4bfecce0b6f6","ios":"levelo://app?vid=39a5ef71-1ea7-42e0-befe-4bfecce0b6f6"},"vehicle_type_id":"4","last_reported":1700744999,"current_range_meters":20000,"station_id":"ce4bha12rcd13ifvqef0","pricing_plan_id":"free"},{"bike_id":"120cf939-d266-42c6-8775-2faf5edf0692","system_id":"levelo_inurba_marseille","lat":43.28039,"lon":5.369297,"is_reserved":false,"is_disabled":false,"rental_uris":{"android":"levelo://app?vid=120cf939-d266-42c6-8775-2faf5edf0692","ios":"levelo://app?vid=120cf939-d266-42c6-8775-2faf5edf0692"},"vehicle_type_id":"4","last_reported":1700744999,"current_range_meters":22800,"station_id":"ce4bha12rcd13ifvqef0","pricing_plan_id":"free"},{"bike_id":"41b32225-c8a9-4a50-b754-507a314aed34","system_id":"levelo_inurba_marseille","lat":43.280382,"lon":5.369291,"is_reserved":false,"is_disabled":false,"rental_uris":{"android":"levelo://app?vid=41b32225-c8a9-4a50-b754-507a314aed34","ios":"levelo://app?vid=41b32225-c8a9-4a50-b754-507a314aed34"},"vehicle_type_id":"4","last_reported":1700744999,"current_range_meters":13600,"station_id":"ce4bha12rcd13ifvqef0","pricing_plan_id":"free"},{"bike_id":"f880c89d-6db5-492e-9e9f-b889f440c8d2","system_id":"levelo_inurba_marseille","lat":43.28098,"lon":5.3785,"is_reserved":false,"is_disabled":false,"rental_uris":{"android":"levelo://app?vid=f880c89d-6db5-492e-9e9f-b889f440c8d2","ios":"levelo://app?vid=f880c89d-6db5-492e-9e9f-b889f440c8d2"},"vehicle_type_id":"4","last_reported":1700744999,"current_range_meters":13600,"station_id":"ce4bha12rcd13ifvqee0","pricing_plan_id":"free"},{"bike_id":"e5d324aa-c1c2-4b7e-a50c-fadeec132527","system_id":"levelo_inurba_marseille","lat":43.326605,"lon":5.409903,"is_reserved":false,"is_disabled":false,"rental_uris":{"android":"levelo://app?vid=e5d324aa-c1c2-4b7e-a50c-fadeec132527","ios":"levelo://app?vid=e5d324aa-c1c2-4b7e-a50c-fadeec132527"},"vehicle_type_id":"4","last_reported":1700744999,"current_range_meters":28800,"station_id":"ce4bhpp2rcd13ifvqhgg","pricing_plan_id":"free"},{"bike_id":"bd4b5a3b-fd62-47c7-80cf-4639d2782514","system_id":"levelo_inurba_marseille","lat":43.32657,"lon":5.40989,"is_reserved":false,"is_disabled":false,"rental_uris":{"android":"levelo://app?vid=bd4b5a3b-fd62-47c7-80cf-4639d2782514","ios":"levelo://app?vid=bd4b5a3b-fd62-47c7-80cf-4639d2782514"},"vehicle_type_id":"4","last_reported":1700744999,"current_range_meters":28000,"station_id":"ce4bhpp2rcd13ifvqhgg","pricing_plan_id":"free"},{"bike_id":"8e360a99-579d-498b-8373-2b154126c995","system_id":"levelo_inurba_marseille","lat":43.304188,"lon":5.412904,"is_reserved":false,"is_disabled":false,"rental_uris":{"android":"levelo://app?vid=8e360a99-579d-498b-8373-2b154126c995","ios":"levelo://app?vid=8e360a99-579d-498b-8373-2b154126c995"},"vehicle_type_id":"4","last_reported":1700744999,"current_range_meters":0,"station_id":"ce4bhop2rcd13ifvqh8g","pricing_plan_id":"free"},{"bike_id":"6e2c2465-4e40-4aae-912b-ca1fbcdf1978","system_id":"levelo_inurba_marseille","lat":43.32797,"lon":5.409964,"is_reserved":false,"is_disabled":false,"rental_uris":{"android":"levelo://app?vid=6e2c2465-4e40-4aae-912b-ca1fbcdf1978","ios":"levelo://app?vid=6e2c2465-4e40-4aae-912b-ca1fbcdf1978"},"vehicle_type_id":"4","last_reported":1700744999,"current_range_meters":0,"station_id":"","pricing_plan_id":"free"},{"bike_id":"5e990447-b732-4355-9dce-8ca8210551cb","system_id":"levelo_inurba_marseille","lat":43.279742,"lon":5.38744,"is_reserved":false,"is_disabled":false,"rental_uris":{"android":"levelo://app?vid=5e990447-b732-4355-9dce-8ca8210551cb","ios":"levelo://app?vid=5e990447-b732-4355-9dce-8ca8210551cb"},"vehicle_type_id":"4","last_reported":1700744999,"current_range_meters":10400,"station_id":"ce4bhg12rcd13ifvqf80","pricing_plan_id":"free"},{"bike_id":"a8e2b52b-9ba9-4b70-bcb4-1e1ad46ab6fe","system_id":"levelo_inurba_marseille","lat":43.299579,"lon":5.413255,"is_reserved":false,"is_disabled":false,"rental_uris":{"android":"levelo://app?vid=a8e2b52b-9ba9-4b70-bcb4-1e1ad46ab6fe","ios":"levelo://app?vid=a8e2b52b-9ba9-4b70-bcb4-1e1ad46ab6fe"},"vehicle_type_id":"4","last_reported":1700744999,"current_range_meters":31200,"station_id":"ce4bhp12rcd13ifvqh9g","pricing_plan_id":"free"},{"bike_id":"7011775b-c0e4-46dc-8231-7485425aba5f","system_id":"levelo_inurba_marseille","lat":43.299579,"lon":5.413255,"is_reserved":false,"is_disabled":false,"rental_uris":{"android":"levelo://app?vid=7011775b-c0e4-46dc-8231-7485425aba5f","ios":"levelo://app?vid=7011775b-c0e4-46dc-8231-7485425aba5f"},"vehicle_type_id":"4","last_reported":1700744999,"current_range_meters":27600,"station_id":"ce4bhp12rcd13ifvqh9g","pricing_plan_id":"free"},{"bike_id":"9fcf2c60-dce2-4345-b16a-83cf1a7c746d","system_id":"levelo_inurba_marseille","lat":43.279742,"lon":5.38744,"is_reserved":false,"is_disabled":false,"rental_uris":{"android":"levelo://app?vid=9fcf2c60-dce2-4345-b16a-83cf1a7c746d","ios":"levelo://app?vid=9fcf2c60-dce2-4345-b16a-83cf1a7c746d"},"vehicle_type_id":"4","last_reported":1700744999,"current_range_meters":4000,"station_id":"ce4bhg12rcd13ifvqf80","pricing_plan_id":"free"},{"bike_id":"9ea7302d-2df6-4f69-95bf-b9efb9aef461","system_id":"levelo_inurba_marseille","lat":43.279742,"lon":5.38744,"is_reserved":false,"is_disabled":false,"rental_uris":{"android":"levelo://app?vid=9ea7302d-2df6-4f69-95bf-b9efb9aef461","ios":"levelo://app?vid=9ea7302d-2df6-4f69-95bf-b9efb9aef461"},"vehicle_type_id":"4","last_reported":1700744999,"current_range_meters":17200,"station_id":"ce4bhg12rcd13ifvqf80","pricing_plan_id":"free"},{"bike_id":"d02cd2b5-ad35-4613-a64f-90406348b188","system_id":"levelo_inurba_marseille","lat":43.279742,"lon":5.38744,"is_reserved":false,"is_disabled":false,"rental_uris":{"android":"levelo://app?vid=d02cd2b5-ad35-4613-a64f-90406348b188","ios":"levelo://app?vid=d02cd2b5-ad35-4613-a64f-90406348b188"},"vehicle_type_id":"4","last_reported":1700744999,"current_range_meters":12800,"station_id":"ce4bhg12rcd13ifvqf80","pricing_plan_id":"free"},{"bike_id":"3368d009-66dd-4503-9cc2-e7854451929f","system_id":"levelo_inurba_marseille","lat":43.279742,"lon":5.38744,"is_reserved":false,"is_disabled":false,"rental_uris":{"android":"levelo://app?vid=3368d009-66dd-4503-9cc2-e7854451929f","ios":"levelo://app?vid=3368d009-66dd-4503-9cc2-e7854451929f"},"vehicle_type_id":"4","last_reported":1700744999,"current_range_meters":21200,"station_id":"ce4bhg12rcd13ifvqf80","pricing_plan_id":"free"},{"bike_id":"cf7c6503-d761-4e4a-b826-f55f74848caf","system_id":"levelo_inurba_marseille","lat":43.34882,"lon":5.37507,"is_reserved":false,"is_disabled":false,"rental_uris":{"android":"levelo://app?vid=cf7c6503-d761-4e4a-b826-f55f74848caf","ios":"levelo://app?vid=cf7c6503-d761-4e4a-b826-f55f74848caf"},"vehicle_type_id":"4","last_reported":1700744999,"current_range_meters":1200,"station_id":"","pricing_plan_id":"free"},{"bike_id":"aede3063-6072-4049-81db-af6a28425e1b","system_id":"levelo_inurba_marseille","lat":43.325233,"lon":5.414318,"is_reserved":false,"is_disabled":false,"rental_uris":{"android":"levelo://app?vid=aede3063-6072-4049-81db-af6a28425e1b","ios":"levelo://app?vid=aede3063-6072-4049-81db-af6a28425e1b"},"vehicle_type_id":"4","last_reported":1700744999,"current_range_meters":18800,"station_id":"ce4bhq12rcd13ifvqhhg","pricing_plan_id":"free"},{"bike_id":"b8ac39ed-2245-48ac-80d3-6191d2111b53","system_id":"levelo_inurba_marseille","lat":43.325243,"lon":5.414326,"is_reserved":false,"is_disabled":false,"rental_uris":{"android":"levelo://app?vid=b8ac39ed-2245-48ac-80d3-6191d2111b53","ios":"levelo://app?vid=b8ac39ed-2245-48ac-80d3-6191d2111b53"},"vehicle_type_id":"4","last_reported":1700744999,"current_range_meters":13600,"station_id":"ce4bhq12rcd13ifvqhhg","pricing_plan_id":"free"},{"bike_id":"6ee5427f-4b11-4b07-a305-7c673444c240","system_id":"levelo_inurba_marseille","lat":43.27611,"lon":5.3611,"is_reserved":false,"is_disabled":false,"rental_uris":{"android":"levelo://app?vid=6ee5427f-4b11-4b07-a305-7c673444c240","ios":"levelo://app?vid=6ee5427f-4b11-4b07-a305-7c673444c240"},"vehicle_type_id":"4","last_reported":1700744999,"current_range_meters":18800,"station_id":"ce4bgj92rcd13ifvqbe0","pricing_plan_id":"free"},{"bike_id":"2164bddd-b380-4f61-a2ee-3c39ae1b373d","system_id":"levelo_inurba_marseille","lat":43.280784,"lon":5.396622,"is_reserved":false,"is_disabled":false,"rental_uris":{"android":"levelo://app?vid=2164bddd-b380-4f61-a2ee-3c39ae1b373d","ios":"levelo://app?vid=2164bddd-b380-4f61-a2ee-3c39ae1b373d"},"vehicle_type_id":"4","last_reported":1700744999,"current_range_meters":30000,"station_id":"ce4bho12rcd13ifvqh2g","pricing_plan_id":"free"},{"bike_id":"e4c79da6-b22c-45fc-b4a0-bf810489c8cb","system_id":"levelo_inurba_marseille","lat":43.278401,"lon":5.392152,"is_reserved":false,"is_disabled":false,"rental_uris":{"android":"levelo://app?vid=e4c79da6-b22c-45fc-b4a0-bf810489c8cb","ios":"levelo://app?vid=e4c79da6-b22c-45fc-b4a0-bf810489c8cb"},"vehicle_type_id":"4","last_reported":1700744999,"current_range_meters":16800,"station_id":"ce4bhjp2rcd13ifvqga0","pricing_plan_id":"free"},{"bike_id":"4043b474-b5ba-43f1-8754-efc7e66c3e3f","system_id":"levelo_inurba_marseille","lat":43.273613,"lon":5.362705,"is_reserved":false,"is_disabled":false,"rental_uris":{"android":"levelo://app?vid=4043b474-b5ba-43f1-8754-efc7e66c3e3f","ios":"levelo://app?vid=4043b474-b5ba-43f1-8754-efc7e66c3e3f"},"vehicle_type_id":"4","last_reported":1700744999,"current_range_meters":28400,"station_id":"ce4bhbh2rcd13ifvqeo0","pricing_plan_id":"free"},{"bike_id":"2cf4f1d8-1e21-47b9-bd18-5b4ec8a41dda","system_id":"levelo_inurba_marseille","lat":43.273613,"lon":5.362705,"is_reserved":false,"is_disabled":false,"rental_uris":{"android":"levelo://app?vid=2cf4f1d8-1e21-47b9-bd18-5b4ec8a41dda","ios":"levelo://app?vid=2cf4f1d8-1e21-47b9-bd18-5b4ec8a41dda"},"vehicle_type_id":"4","last_reported":1700744999,"current_range_meters":18800,"station_id":"ce4bhbh2rcd13ifvqeo0","pricing_plan_id":"free"},{"bike_id":"3eb87c78-07ce-49f8-9837-55c4c8a02b24","system_id":"levelo_inurba_marseille","lat":43.27374,"lon":5.36255,"is_reserved":false,"is_disabled":false,"rental_uris":{"android":"levelo://app?vid=3eb87c78-07ce-49f8-9837-55c4c8a02b24","ios":"levelo://app?vid=3eb87c78-07ce-49f8-9837-55c4c8a02b24"},"vehicle_type_id":"4","last_reported":1700744999,"current_range_meters":15600,"station_id":"ce4bhbh2rcd13ifvqeo0","pricing_plan_id":"free"},{"bike_id":"8d323985-7b2d-4a3a-b722-6273254afd0a","system_id":"levelo_inurba_marseille","lat":43.275625,"lon":5.384392,"is_reserved":false,"is_disabled":false,"rental_uris":{"android":"levelo://app?vid=8d323985-7b2d-4a3a-b722-6273254afd0a","ios":"levelo://app?vid=8d323985-7b2d-4a3a-b722-6273254afd0a"},"vehicle_type_id":"4","last_reported":1700744999,"current_range_meters":18400,"station_id":"ce4bhh92rcd13ifvqfi0","pricing_plan_id":"free"},{"bike_id":"8b4ef16f-7299-4e88-801d-ef1488fb616a","system_id":"levelo_inurba_marseille","lat":43.273609,"lon":5.362708,"is_reserved":false,"is_disabled":false,"rental_uris":{"android":"levelo://app?vid=8b4ef16f-7299-4e88-801d-ef1488fb616a","ios":"levelo://app?vid=8b4ef16f-7299-4e88-801d-ef1488fb616a"},"vehicle_type_id":"4","last_reported":1700744999,"current_range_meters":20000,"station_id":"ce4bhbh2rcd13ifvqeo0","pricing_plan_id":"free"},{"bike_id":"45afca83-f4a7-44dc-bcae-22432995d643","system_id":"levelo_inurba_marseille","lat":43.275625,"lon":5.384392,"is_reserved":false,"is_disabled":false,"rental_uris":{"android":"levelo://app?vid=45afca83-f4a7-44dc-bcae-22432995d643","ios":"levelo://app?vid=45afca83-f4a7-44dc-bcae-22432995d643"},"vehicle_type_id":"4","last_reported":1700744999,"current_range_meters":25600,"station_id":"ce4bhh92rcd13ifvqfi0","pricing_plan_id":"free"},{"bike_id":"58ab2acd-4558-4bf2-a30d-7b8e276c2c05","system_id":"levelo_inurba_marseille","lat":43.273707,"lon":5.362503,"is_reserved":false,"is_disabled":false,"rental_uris":{"android":"levelo://app?vid=58ab2acd-4558-4bf2-a30d-7b8e276c2c05","ios":"levelo://app?vid=58ab2acd-4558-4bf2-a30d-7b8e276c2c05"},"vehicle_type_id":"4","last_reported":1700744999,"current_range_meters":30000,"station_id":"ce4bhbh2rcd13ifvqeo0","pricing_plan_id":"free"},{"bike_id":"f6c53475-f2ae-411f-8554-f05e326e28b3","system_id":"levelo_inurba_marseille","lat":43.273609,"lon":5.362708,"is_reserved":false,"is_disabled":false,"rental_uris":{"android":"levelo://app?vid=f6c53475-f2ae-411f-8554-f05e326e28b3","ios":"levelo://app?vid=f6c53475-f2ae-411f-8554-f05e326e28b3"},"vehicle_type_id":"4","last_reported":1700744999,"current_range_meters":20800,"station_id":"ce4bhbh2rcd13ifvqeo0","pricing_plan_id":"free"},{"bike_id":"b15fbec5-8078-4961-ad3e-8a84730caa09","system_id":"levelo_inurba_marseille","lat":43.273613,"lon":5.362705,"is_reserved":false,"is_disabled":false,"rental_uris":{"android":"levelo://app?vid=b15fbec5-8078-4961-ad3e-8a84730caa09","ios":"levelo://app?vid=b15fbec5-8078-4961-ad3e-8a84730caa09"},"vehicle_type_id":"4","last_reported":1700744999,"current_range_meters":30400,"station_id":"ce4bhbh2rcd13ifvqeo0","pricing_plan_id":"free"},{"bike_id":"6aab4a49-2719-4eb7-bbd3-c2a40be70d77","system_id":"levelo_inurba_marseille","lat":43.27369,"lon":5.3625,"is_reserved":false,"is_disabled":false,"rental_uris":{"android":"levelo://app?vid=6aab4a49-2719-4eb7-bbd3-c2a40be70d77","ios":"levelo://app?vid=6aab4a49-2719-4eb7-bbd3-c2a40be70d77"},"vehicle_type_id":"4","last_reported":1700744999,"current_range_meters":31200,"station_id":"ce4bhbh2rcd13ifvqeo0","pricing_plan_id":"free"},{"bike_id":"3846deeb-194a-4f51-a222-2c6e72f21202","system_id":"levelo_inurba_marseille","lat":43.33612,"lon":5.410321,"is_reserved":false,"is_disabled":false,"rental_uris":{"android":"levelo://app?vid=3846deeb-194a-4f51-a222-2c6e72f21202","ios":"levelo://app?vid=3846deeb-194a-4f51-a222-2c6e72f21202"},"vehicle_type_id":"4","last_reported":1700744999,"current_range_meters":10000,"station_id":"ce4bhqh2rcd13ifvqhmg","pricing_plan_id":"free"},{"bike_id":"72d6c1e5-1e48-47bb-96d4-02bb78640c99","system_id":"levelo_inurba_marseille","lat":43.276771,"lon":5.388799,"is_reserved":false,"is_disabled":false,"rental_uris":{"android":"levelo://app?vid=72d6c1e5-1e48-47bb-96d4-02bb78640c99","ios":"levelo://app?vid=72d6c1e5-1e48-47bb-96d4-02bb78640c99"},"vehicle_type_id":"4","last_reported":1700744999,"current_range_meters":30000,"station_id":"ce4bhi12rcd13ifvqfo0","pricing_plan_id":"free"},{"bike_id":"95f281ee-80d3-4cdb-953c-5c1c504ed022","system_id":"levelo_inurba_marseille","lat":43.279952,"lon":5.400085,"is_reserved":false,"is_disabled":false,"rental_uris":{"android":"levelo://app?vid=95f281ee-80d3-4cdb-953c-5c1c504ed022","ios":"levelo://app?vid=95f281ee-80d3-4cdb-953c-5c1c504ed022"},"vehicle_type_id":"4","last_reported":1700744999,"current_range_meters":25200,"station_id":"ce4bho92rcd13ifvqh4g","pricing_plan_id":"free"},{"bike_id":"00c6eff5-1596-4e9b-87d9-ed22489a56cc","system_id":"levelo_inurba_marseille","lat":43.317121,"lon":5.423936,"is_reserved":false,"is_disabled":false,"rental_uris":{"android":"levelo://app?vid=00c6eff5-1596-4e9b-87d9-ed22489a56cc","ios":"levelo://app?vid=00c6eff5-1596-4e9b-87d9-ed22489a56cc"},"vehicle_type_id":"4","last_reported":1700744999,"current_range_meters":22000,"station_id":"ce4bhp92rcd13ifvqhbg","pricing_plan_id":"free"},{"bike_id":"785780ba-6842-4456-9d03-4bf13b463d2b","system_id":"levelo_inurba_marseille","lat":43.340804,"lon":5.410219,"is_reserved":false,"is_disabled":false,"rental_uris":{"android":"levelo://app?vid=785780ba-6842-4456-9d03-4bf13b463d2b","ios":"levelo://app?vid=785780ba-6842-4456-9d03-4bf13b463d2b"},"vehicle_type_id":"4","last_reported":1700744999,"current_range_meters":24400,"station_id":"ce4bhqh2rcd13ifvqhlg","pricing_plan_id":"free"},{"bike_id":"00535dcb-e67f-4f53-9ea3-0a7a9e614efa","system_id":"levelo_inurba_marseille","lat":43.273129,"lon":5.390725,"is_reserved":false,"is_disabled":false,"rental_uris":{"android":"levelo://app?vid=00535dcb-e67f-4f53-9ea3-0a7a9e614efa","ios":"levelo://app?vid=00535dcb-e67f-4f53-9ea3-0a7a9e614efa"},"vehicle_type_id":"4","last_reported":1700744999,"current_range_meters":30400,"station_id":"ce4bhgp2rcd13ifvqfe0","pricing_plan_id":"free"},{"bike_id":"0ec9cdee-9bf5-453d-bbd8-0345b593a6bb","system_id":"levelo_inurba_marseille","lat":43.295511,"lon":5.422926,"is_reserved":false,"is_disabled":false,"rental_uris":{"android":"levelo://app?vid=0ec9cdee-9bf5-453d-bbd8-0345b593a6bb","ios":"levelo://app?vid=0ec9cdee-9bf5-453d-bbd8-0345b593a6bb"},"vehicle_type_id":"4","last_reported":1700744999,"current_range_meters":26800,"station_id":"ce4bhph2rcd13ifvqhdg","pricing_plan_id":"free"},{"bike_id":"7b23025e-3e59-4334-a31d-c2cc870a7c0e","system_id":"levelo_inurba_marseille","lat":43.295511,"lon":5.422926,"is_reserved":false,"is_disabled":false,"rental_uris":{"android":"levelo://app?vid=7b23025e-3e59-4334-a31d-c2cc870a7c0e","ios":"levelo://app?vid=7b23025e-3e59-4334-a31d-c2cc870a7c0e"},"vehicle_type_id":"4","last_reported":1700744999,"current_range_meters":21600,"station_id":"ce4bhph2rcd13ifvqhdg","pricing_plan_id":"free"},{"bike_id":"704d9b1a-f1ae-42a9-99c3-e6e01df0a8a6","system_id":"levelo_inurba_marseille","lat":43.295523,"lon":5.422926,"is_reserved":false,"is_disabled":false,"rental_uris":{"android":"levelo://app?vid=704d9b1a-f1ae-42a9-99c3-e6e01df0a8a6","ios":"levelo://app?vid=704d9b1a-f1ae-42a9-99c3-e6e01df0a8a6"},"vehicle_type_id":"4","last_reported":1700744999,"current_range_meters":27200,"station_id":"ce4bhph2rcd13ifvqhdg","pricing_plan_id":"free"},{"bike_id":"72d3541b-d0ba-4970-8e11-62588791666b","system_id":"levelo_inurba_marseille","lat":43.295511,"lon":5.422926,"is_reserved":false,"is_disabled":false,"rental_uris":{"android":"levelo://app?vid=72d3541b-d0ba-4970-8e11-62588791666b","ios":"levelo://app?vid=72d3541b-d0ba-4970-8e11-62588791666b"},"vehicle_type_id":"4","last_reported":1700744999,"current_range_meters":29200,"station_id":"ce4bhph2rcd13ifvqhdg","pricing_plan_id":"free"},{"bike_id":"428917c8-ace8-4801-992e-d5b18866631e","system_id":"levelo_inurba_marseille","lat":43.272116,"lon":5.391763,"is_reserved":false,"is_disabled":false,"rental_uris":{"android":"levelo://app?vid=428917c8-ace8-4801-992e-d5b18866631e","ios":"levelo://app?vid=428917c8-ace8-4801-992e-d5b18866631e"},"vehicle_type_id":"4","last_reported":1700744999,"current_range_meters":12400,"station_id":"ce4bhhp2rcd13ifvqfm0","pricing_plan_id":"free"},{"bike_id":"d0bb53f7-f1b8-4609-a668-27efdac67f66","system_id":"levelo_inurba_marseille","lat":43.271911,"lon":5.392449,"is_reserved":false,"is_disabled":false,"rental_uris":{"android":"levelo://app?vid=d0bb53f7-f1b8-4609-a668-27efdac67f66","ios":"levelo://app?vid=d0bb53f7-f1b8-4609-a668-27efdac67f66"},"vehicle_type_id":"4","last_reported":1700744999,"current_range_meters":0,"station_id":"","pricing_plan_id":"free"},{"bike_id":"8482bcfd-9856-4981-ad11-c8c27631c64a","system_id":"levelo_inurba_marseille","lat":43.26961,"lon":5.38628,"is_reserved":false,"is_disabled":false,"rental_uris":{"android":"levelo://app?vid=8482bcfd-9856-4981-ad11-c8c27631c64a","ios":"levelo://app?vid=8482bcfd-9856-4981-ad11-c8c27631c64a"},"vehicle_type_id":"4","last_reported":1700744999,"current_range_meters":19200,"station_id":"ce4bhh92rcd13ifvqfh0","pricing_plan_id":"free"},{"bike_id":"10c28954-f0ef-492b-85b2-3ce0bd080cd2","system_id":"levelo_inurba_marseille","lat":43.26954,"lon":5.38634,"is_reserved":false,"is_disabled":false,"rental_uris":{"android":"levelo://app?vid=10c28954-f0ef-492b-85b2-3ce0bd080cd2","ios":"levelo://app?vid=10c28954-f0ef-492b-85b2-3ce0bd080cd2"},"vehicle_type_id":"4","last_reported":1700744999,"current_range_meters":0,"station_id":"ce4bhh92rcd13ifvqfh0","pricing_plan_id":"free"},{"bike_id":"2db356b3-ba2e-4451-99ae-c6c10c366044","system_id":"levelo_inurba_marseille","lat":43.269467,"lon":5.386439,"is_reserved":false,"is_disabled":false,"rental_uris":{"android":"levelo://app?vid=2db356b3-ba2e-4451-99ae-c6c10c366044","ios":"levelo://app?vid=2db356b3-ba2e-4451-99ae-c6c10c366044"},"vehicle_type_id":"4","last_reported":1700744999,"current_range_meters":21200,"station_id":"ce4bhh92rcd13ifvqfh0","pricing_plan_id":"free"},{"bike_id":"f46745fc-d53a-4c55-90b2-720ece66cf1b","system_id":"levelo_inurba_marseille","lat":43.2695,"lon":5.38641,"is_reserved":false,"is_disabled":false,"rental_uris":{"android":"levelo://app?vid=f46745fc-d53a-4c55-90b2-720ece66cf1b","ios":"levelo://app?vid=f46745fc-d53a-4c55-90b2-720ece66cf1b"},"vehicle_type_id":"4","last_reported":1700744999,"current_range_meters":26000,"station_id":"ce4bhh92rcd13ifvqfh0","pricing_plan_id":"free"},{"bike_id":"6e8ba98a-c094-43d2-bfd2-0ae1662a7af6","system_id":"levelo_inurba_marseille","lat":43.279465,"lon":5.410561,"is_reserved":false,"is_disabled":false,"rental_uris":{"android":"levelo://app?vid=6e8ba98a-c094-43d2-bfd2-0ae1662a7af6","ios":"levelo://app?vid=6e8ba98a-c094-43d2-bfd2-0ae1662a7af6"},"vehicle_type_id":"4","last_reported":1700744999,"current_range_meters":22400,"station_id":"ce4bhnp2rcd13ifvqh0g","pricing_plan_id":"free"},{"bike_id":"964667e6-f8e8-42b8-b3c4-a46a34dc2a14","system_id":"levelo_inurba_marseille","lat":43.2699,"lon":5.39263,"is_reserved":false,"is_disabled":false,"rental_uris":{"android":"levelo://app?vid=964667e6-f8e8-42b8-b3c4-a46a34dc2a14","ios":"levelo://app?vid=964667e6-f8e8-42b8-b3c4-a46a34dc2a14"},"vehicle_type_id":"4","last_reported":1700744999,"current_range_meters":12000,"station_id":"","pricing_plan_id":"free"},{"bike_id":"8db7c29e-7357-42df-9373-8c7381809241","system_id":"levelo_inurba_marseille","lat":43.26682,"lon":5.38272,"is_reserved":false,"is_disabled":false,"rental_uris":{"android":"levelo://app?vid=8db7c29e-7357-42df-9373-8c7381809241","ios":"levelo://app?vid=8db7c29e-7357-42df-9373-8c7381809241"},"vehicle_type_id":"4","last_reported":1700744999,"current_range_meters":0,"station_id":"ce4bhg92rcd13ifvqf90","pricing_plan_id":"free"},{"bike_id":"6923e551-0f92-46dd-8c32-4c4694e55642","system_id":"levelo_inurba_marseille","lat":43.26555,"lon":5.37286,"is_reserved":false,"is_disabled":false,"rental_uris":{"android":"levelo://app?vid=6923e551-0f92-46dd-8c32-4c4694e55642","ios":"levelo://app?vid=6923e551-0f92-46dd-8c32-4c4694e55642"},"vehicle_type_id":"4","last_reported":1700744999,"current_range_meters":400,"station_id":"ce4bhg12rcd13ifvqf70","pricing_plan_id":"free"},{"bike_id":"cd395d44-bcc4-438f-a6d5-60d80c70665f","system_id":"levelo_inurba_marseille","lat":43.26554,"lon":5.37282,"is_reserved":false,"is_disabled":false,"rental_uris":{"android":"levelo://app?vid=cd395d44-bcc4-438f-a6d5-60d80c70665f","ios":"levelo://app?vid=cd395d44-bcc4-438f-a6d5-60d80c70665f"},"vehicle_type_id":"4","last_reported":1700744999,"current_range_meters":6800,"station_id":"ce4bhg12rcd13ifvqf70","pricing_plan_id":"free"},{"bike_id":"cd0b73df-c0c0-4fba-9800-5a0b3e900979","system_id":"levelo_inurba_marseille","lat":43.26554,"lon":5.37284,"is_reserved":false,"is_disabled":false,"rental_uris":{"android":"levelo://app?vid=cd0b73df-c0c0-4fba-9800-5a0b3e900979","ios":"levelo://app?vid=cd0b73df-c0c0-4fba-9800-5a0b3e900979"},"vehicle_type_id":"4","last_reported":1700744999,"current_range_meters":6800,"station_id":"ce4bhg12rcd13ifvqf70","pricing_plan_id":"free"},{"bike_id":"8f3b1a6c-3a9f-4d58-8712-a1083f0f2a40","system_id":"levelo_inurba_marseille","lat":43.26553,"lon":5.37287,"is_reserved":false,"is_disabled":false,"rental_uris":{"android":"levelo://app?vid=8f3b1a6c-3a9f-4d58-8712-a1083f0f2a40","ios":"levelo://app?vid=8f3b1a6c-3a9f-4d58-8712-a1083f0f2a40"},"vehicle_type_id":"4","last_reported":1700744999,"current_range_meters":10000,"station_id":"ce4bhg12rcd13ifvqf70","pricing_plan_id":"free"},{"bike_id":"28e8ce00-6b21-4e06-9930-c7c4408cc650","system_id":"levelo_inurba_marseille","lat":43.326174,"lon":5.430584,"is_reserved":false,"is_disabled":false,"rental_uris":{"android":"levelo://app?vid=28e8ce00-6b21-4e06-9930-c7c4408cc650","ios":"levelo://app?vid=28e8ce00-6b21-4e06-9930-c7c4408cc650"},"vehicle_type_id":"4","last_reported":1700744999,"current_range_meters":2800,"station_id":"","pricing_plan_id":"free"},{"bike_id":"c62de471-c94b-4a01-a172-e0b36eb8d88d","system_id":"levelo_inurba_marseille","lat":43.27996,"lon":5.416624,"is_reserved":false,"is_disabled":false,"rental_uris":{"android":"levelo://app?vid=c62de471-c94b-4a01-a172-e0b36eb8d88d","ios":"levelo://app?vid=c62de471-c94b-4a01-a172-e0b36eb8d88d"},"vehicle_type_id":"4","last_reported":1700744999,"current_range_meters":19600,"station_id":"ce4bho12rcd13ifvqh1g","pricing_plan_id":"free"},{"bike_id":"9c42760a-0ebf-4024-be3a-b9982b0d9be6","system_id":"levelo_inurba_marseille","lat":43.27996,"lon":5.416624,"is_reserved":false,"is_disabled":false,"rental_uris":{"android":"levelo://app?vid=9c42760a-0ebf-4024-be3a-b9982b0d9be6","ios":"levelo://app?vid=9c42760a-0ebf-4024-be3a-b9982b0d9be6"},"vehicle_type_id":"4","last_reported":1700744999,"current_range_meters":20400,"station_id":"ce4bho12rcd13ifvqh1g","pricing_plan_id":"free"},{"bike_id":"2b5f0b27-ae58-4e9e-bd76-c585f78e8a73","system_id":"levelo_inurba_marseille","lat":43.26386,"lon":5.37454,"is_reserved":false,"is_disabled":false,"rental_uris":{"android":"levelo://app?vid=2b5f0b27-ae58-4e9e-bd76-c585f78e8a73","ios":"levelo://app?vid=2b5f0b27-ae58-4e9e-bd76-c585f78e8a73"},"vehicle_type_id":"4","last_reported":1700744999,"current_range_meters":18400,"station_id":"","pricing_plan_id":"free"},{"bike_id":"e2c766cd-617c-46bd-bf6c-a74d77271e7a","system_id":"levelo_inurba_marseille","lat":43.26575,"lon":5.3901,"is_reserved":false,"is_disabled":false,"rental_uris":{"android":"levelo://app?vid=e2c766cd-617c-46bd-bf6c-a74d77271e7a","ios":"levelo://app?vid=e2c766cd-617c-46bd-bf6c-a74d77271e7a"},"vehicle_type_id":"4","last_reported":1700744999,"current_range_meters":6000,"station_id":"ce4bhe12rcd13ifvqf30","pricing_plan_id":"free"},{"bike_id":"2f55fa00-7a24-4f42-be19-3d79abe15385","system_id":"levelo_inurba_marseille","lat":43.26575,"lon":5.3901,"is_reserved":false,"is_disabled":false,"rental_uris":{"android":"levelo://app?vid=2f55fa00-7a24-4f42-be19-3d79abe15385","ios":"levelo://app?vid=2f55fa00-7a24-4f42-be19-3d79abe15385"},"vehicle_type_id":"4","last_reported":1700744999,"current_range_meters":6800,"station_id":"ce4bhe12rcd13ifvqf30","pricing_plan_id":"free"},{"bike_id":"de4aec84-952c-44e2-922c-2957cfdfe026","system_id":"levelo_inurba_marseille","lat":43.317104,"lon":5.436818,"is_reserved":false,"is_disabled":false,"rental_uris":{"android":"levelo://app?vid=de4aec84-952c-44e2-922c-2957cfdfe026","ios":"levelo://app?vid=de4aec84-952c-44e2-922c-2957cfdfe026"},"vehicle_type_id":"4","last_reported":1700744999,"current_range_meters":30000,"station_id":"ce4bhp92rcd13ifvqhcg","pricing_plan_id":"free"},{"bike_id":"384b91cb-c465-408d-b5df-cd4570223f3e","system_id":"levelo_inurba_marseille","lat":43.317104,"lon":5.436818,"is_reserved":false,"is_disabled":false,"rental_uris":{"android":"levelo://app?vid=384b91cb-c465-408d-b5df-cd4570223f3e","ios":"levelo://app?vid=384b91cb-c465-408d-b5df-cd4570223f3e"},"vehicle_type_id":"4","last_reported":1700744999,"current_range_meters":32000,"station_id":"ce4bhp92rcd13ifvqhcg","pricing_plan_id":"free"},{"bike_id":"c005214f-ef37-42c7-8047-fdaa33a085c7","system_id":"levelo_inurba_marseille","lat":43.271368,"lon":5.40928,"is_reserved":false,"is_disabled":false,"rental_uris":{"android":"levelo://app?vid=c005214f-ef37-42c7-8047-fdaa33a085c7","ios":"levelo://app?vid=c005214f-ef37-42c7-8047-fdaa33a085c7"},"vehicle_type_id":"4","last_reported":1700744999,"current_range_meters":28800,"station_id":"ce4bhl12rcd13ifvqgf0","pricing_plan_id":"free"},{"bike_id":"861e94e2-982b-4215-a671-df650b5b6578","system_id":"levelo_inurba_marseille","lat":43.271368,"lon":5.40928,"is_reserved":false,"is_disabled":false,"rental_uris":{"android":"levelo://app?vid=861e94e2-982b-4215-a671-df650b5b6578","ios":"levelo://app?vid=861e94e2-982b-4215-a671-df650b5b6578"},"vehicle_type_id":"4","last_reported":1700744999,"current_range_meters":30800,"station_id":"ce4bhl12rcd13ifvqgf0","pricing_plan_id":"free"},{"bike_id":"3f9be3fb-9cc9-47cb-8d6c-f4a4d53b4169","system_id":"levelo_inurba_marseille","lat":43.26202,"lon":5.379299,"is_reserved":false,"is_disabled":false,"rental_uris":{"android":"levelo://app?vid=3f9be3fb-9cc9-47cb-8d6c-f4a4d53b4169","ios":"levelo://app?vid=3f9be3fb-9cc9-47cb-8d6c-f4a4d53b4169"},"vehicle_type_id":"4","last_reported":1700744999,"current_range_meters":2400,"station_id":"ce4bhjp2rcd13ifvqg90","pricing_plan_id":"free"},{"bike_id":"860103e4-b3a2-49bf-a852-14e4f54ff085","system_id":"levelo_inurba_marseille","lat":43.27178,"lon":5.40996,"is_reserved":false,"is_disabled":false,"rental_uris":{"android":"levelo://app?vid=860103e4-b3a2-49bf-a852-14e4f54ff085","ios":"levelo://app?vid=860103e4-b3a2-49bf-a852-14e4f54ff085"},"vehicle_type_id":"4","last_reported":1700744999,"current_range_meters":26800,"station_id":"ce4bhl12rcd13ifvqgf0","pricing_plan_id":"free"},{"bike_id":"1e031ae6-8ea8-4921-bbb0-26dc81dc7f60","system_id":"levelo_inurba_marseille","lat":43.271368,"lon":5.40928,"is_reserved":false,"is_disabled":false,"rental_uris":{"android":"levelo://app?vid=1e031ae6-8ea8-4921-bbb0-26dc81dc7f60","ios":"levelo://app?vid=1e031ae6-8ea8-4921-bbb0-26dc81dc7f60"},"vehicle_type_id":"4","last_reported":1700744999,"current_range_meters":25600,"station_id":"ce4bhl12rcd13ifvqgf0","pricing_plan_id":"free"},{"bike_id":"c6fb98d5-5eb6-47f9-8abb-5be1873f085e","system_id":"levelo_inurba_marseille","lat":43.268035,"lon":5.402665,"is_reserved":false,"is_disabled":false,"rental_uris":{"android":"levelo://app?vid=c6fb98d5-5eb6-47f9-8abb-5be1873f085e","ios":"levelo://app?vid=c6fb98d5-5eb6-47f9-8abb-5be1873f085e"},"vehicle_type_id":"4","last_reported":1700744999,"current_range_meters":16400,"station_id":"ce501612rcd8frsf0b60","pricing_plan_id":"free"},{"bike_id":"b7f683d4-d9fd-457e-975f-f5cc0011e9fe","system_id":"levelo_inurba_marseille","lat":43.267959,"lon":5.402685,"is_reserved":false,"is_disabled":false,"rental_uris":{"android":"levelo://app?vid=b7f683d4-d9fd-457e-975f-f5cc0011e9fe","ios":"levelo://app?vid=b7f683d4-d9fd-457e-975f-f5cc0011e9fe"},"vehicle_type_id":"4","last_reported":1700744999,"current_range_meters":17600,"station_id":"ce501612rcd8frsf0b60","pricing_plan_id":"free"},{"bike_id":"ec566e25-85ca-4637-b97b-93e4376109cd","system_id":"levelo_inurba_marseille","lat":43.26799,"lon":5.40268,"is_reserved":false,"is_disabled":false,"rental_uris":{"android":"levelo://app?vid=ec566e25-85ca-4637-b97b-93e4376109cd","ios":"levelo://app?vid=ec566e25-85ca-4637-b97b-93e4376109cd"},"vehicle_type_id":"4","last_reported":1700744999,"current_range_meters":22800,"station_id":"ce501612rcd8frsf0b60","pricing_plan_id":"free"},{"bike_id":"ef0a6151-0263-47cc-8b79-2f84772bee0b","system_id":"levelo_inurba_marseille","lat":43.267959,"lon":5.402685,"is_reserved":false,"is_disabled":false,"rental_uris":{"android":"levelo://app?vid=ef0a6151-0263-47cc-8b79-2f84772bee0b","ios":"levelo://app?vid=ef0a6151-0263-47cc-8b79-2f84772bee0b"},"vehicle_type_id":"4","last_reported":1700744999,"current_range_meters":22800,"station_id":"ce501612rcd8frsf0b60","pricing_plan_id":"free"},{"bike_id":"cb16d7ee-4d8d-44c4-bc7a-142b1234ab63","system_id":"levelo_inurba_marseille","lat":43.31725,"lon":5.43786,"is_reserved":false,"is_disabled":false,"rental_uris":{"android":"levelo://app?vid=cb16d7ee-4d8d-44c4-bc7a-142b1234ab63","ios":"levelo://app?vid=cb16d7ee-4d8d-44c4-bc7a-142b1234ab63"},"vehicle_type_id":"4","last_reported":1700744999,"current_range_meters":0,"station_id":"","pricing_plan_id":"free"},{"bike_id":"895de8b6-6f51-45cd-a58a-c7983d56547d","system_id":"levelo_inurba_marseille","lat":43.298768,"lon":5.43643,"is_reserved":false,"is_disabled":false,"rental_uris":{"android":"levelo://app?vid=895de8b6-6f51-45cd-a58a-c7983d56547d","ios":"levelo://app?vid=895de8b6-6f51-45cd-a58a-c7983d56547d"},"vehicle_type_id":"4","last_reported":1700744999,"current_range_meters":21200,"station_id":"ce4bhpp2rcd13ifvqhfg","pricing_plan_id":"free"},{"bike_id":"249b60f8-33ca-4018-903c-7e31426c1af6","system_id":"levelo_inurba_marseille","lat":43.260225,"lon":5.375455,"is_reserved":false,"is_disabled":false,"rental_uris":{"android":"levelo://app?vid=249b60f8-33ca-4018-903c-7e31426c1af6","ios":"levelo://app?vid=249b60f8-33ca-4018-903c-7e31426c1af6"},"vehicle_type_id":"4","last_reported":1700744999,"current_range_meters":26400,"station_id":"ce4bhgh2rcd13ifvqfa0","pricing_plan_id":"free"},{"bike_id":"a665a981-e755-4b0c-be57-6206745b2239","system_id":"levelo_inurba_marseille","lat":43.281548,"lon":5.42643,"is_reserved":false,"is_disabled":false,"rental_uris":{"android":"levelo://app?vid=a665a981-e755-4b0c-be57-6206745b2239","ios":"levelo://app?vid=a665a981-e755-4b0c-be57-6206745b2239"},"vehicle_type_id":"4","last_reported":1700744999,"current_range_meters":25600,"station_id":"ce4bhnh2rcd13ifvqgug","pricing_plan_id":"free"},{"bike_id":"cca61acb-cccb-4ec2-8067-dbaccfeb8506","system_id":"levelo_inurba_marseille","lat":43.2607,"lon":5.393983,"is_reserved":false,"is_disabled":false,"rental_uris":{"android":"levelo://app?vid=cca61acb-cccb-4ec2-8067-dbaccfeb8506","ios":"levelo://app?vid=cca61acb-cccb-4ec2-8067-dbaccfeb8506"},"vehicle_type_id":"4","last_reported":1700744999,"current_range_meters":21600,"station_id":"ce4bhh92rcd13ifvqfj0","pricing_plan_id":"free"},{"bike_id":"996470e1-bea4-400f-adde-bc583987f9c2","system_id":"levelo_inurba_marseille","lat":43.275028,"lon":5.424534,"is_reserved":false,"is_disabled":false,"rental_uris":{"android":"levelo://app?vid=996470e1-bea4-400f-adde-bc583987f9c2","ios":"levelo://app?vid=996470e1-bea4-400f-adde-bc583987f9c2"},"vehicle_type_id":"4","last_reported":1700744999,"current_range_meters":8000,"station_id":"ce4bhn92rcd13ifvqgrg","pricing_plan_id":"free"},{"bike_id":"c382a184-8b9a-452e-8633-2acf91e68aeb","system_id":"levelo_inurba_marseille","lat":43.27497,"lon":5.42449,"is_reserved":false,"is_disabled":false,"rental_uris":{"android":"levelo://app?vid=c382a184-8b9a-452e-8633-2acf91e68aeb","ios":"levelo://app?vid=c382a184-8b9a-452e-8633-2acf91e68aeb"},"vehicle_type_id":"4","last_reported":1700744999,"current_range_meters":5200,"station_id":"ce4bhn92rcd13ifvqgrg","pricing_plan_id":"free"},{"bike_id":"3f0f140e-166e-4e15-943d-0bccdbe67b8e","system_id":"levelo_inurba_marseille","lat":43.260912,"lon":5.397584,"is_reserved":false,"is_disabled":false,"rental_uris":{"android":"levelo://app?vid=3f0f140e-166e-4e15-943d-0bccdbe67b8e","ios":"levelo://app?vid=3f0f140e-166e-4e15-943d-0bccdbe67b8e"},"vehicle_type_id":"4","last_reported":1700744999,"current_range_meters":12000,"station_id":"ce4bhi12rcd13ifvqfq0","pricing_plan_id":"free"},{"bike_id":"cd2446c7-e42a-4d8e-a5db-c1b65262cf68","system_id":"levelo_inurba_marseille","lat":43.275028,"lon":5.424534,"is_reserved":false,"is_disabled":false,"rental_uris":{"android":"levelo://app?vid=cd2446c7-e42a-4d8e-a5db-c1b65262cf68","ios":"levelo://app?vid=cd2446c7-e42a-4d8e-a5db-c1b65262cf68"},"vehicle_type_id":"4","last_reported":1700744999,"current_range_meters":19200,"station_id":"ce4bhn92rcd13ifvqgrg","pricing_plan_id":"free"},{"bike_id":"cc75961f-e629-4952-8028-f52e022664a4","system_id":"levelo_inurba_marseille","lat":43.275028,"lon":5.424534,"is_reserved":false,"is_disabled":false,"rental_uris":{"android":"levelo://app?vid=cc75961f-e629-4952-8028-f52e022664a4","ios":"levelo://app?vid=cc75961f-e629-4952-8028-f52e022664a4"},"vehicle_type_id":"4","last_reported":1700744999,"current_range_meters":7200,"station_id":"ce4bhn92rcd13ifvqgrg","pricing_plan_id":"free"},{"bike_id":"7371b4a1-8251-4e69-849c-dce668ffc81f","system_id":"levelo_inurba_marseille","lat":43.275028,"lon":5.424534,"is_reserved":false,"is_disabled":false,"rental_uris":{"android":"levelo://app?vid=7371b4a1-8251-4e69-849c-dce668ffc81f","ios":"levelo://app?vid=7371b4a1-8251-4e69-849c-dce668ffc81f"},"vehicle_type_id":"4","last_reported":1700744999,"current_range_meters":23200,"station_id":"ce4bhn92rcd13ifvqgrg","pricing_plan_id":"free"},{"bike_id":"4147f69e-9e6b-4f20-9882-72d6af1925f4","system_id":"levelo_inurba_marseille","lat":43.275028,"lon":5.424534,"is_reserved":false,"is_disabled":false,"rental_uris":{"android":"levelo://app?vid=4147f69e-9e6b-4f20-9882-72d6af1925f4","ios":"levelo://app?vid=4147f69e-9e6b-4f20-9882-72d6af1925f4"},"vehicle_type_id":"4","last_reported":1700744999,"current_range_meters":0,"station_id":"ce4bhn92rcd13ifvqgrg","pricing_plan_id":"free"},{"bike_id":"e14584dd-d060-49ba-ba4e-7d380be725e7","system_id":"levelo_inurba_marseille","lat":43.275028,"lon":5.424534,"is_reserved":false,"is_disabled":false,"rental_uris":{"android":"levelo://app?vid=e14584dd-d060-49ba-ba4e-7d380be725e7","ios":"levelo://app?vid=e14584dd-d060-49ba-ba4e-7d380be725e7"},"vehicle_type_id":"4","last_reported":1700744999,"current_range_meters":0,"station_id":"ce4bhn92rcd13ifvqgrg","pricing_plan_id":"free"},{"bike_id":"4089c0fd-abcc-4017-8069-a09b41ffc9ed","system_id":"levelo_inurba_marseille","lat":43.275028,"lon":5.424534,"is_reserved":false,"is_disabled":false,"rental_uris":{"android":"levelo://app?vid=4089c0fd-abcc-4017-8069-a09b41ffc9ed","ios":"levelo://app?vid=4089c0fd-abcc-4017-8069-a09b41ffc9ed"},"vehicle_type_id":"4","last_reported":1700744999,"current_range_meters":21600,"station_id":"ce4bhn92rcd13ifvqgrg","pricing_plan_id":"free"},{"bike_id":"99563a67-222b-45a9-8d7a-030e88c1544e","system_id":"levelo_inurba_marseille","lat":43.275028,"lon":5.424534,"is_reserved":false,"is_disabled":false,"rental_uris":{"android":"levelo://app?vid=99563a67-222b-45a9-8d7a-030e88c1544e","ios":"levelo://app?vid=99563a67-222b-45a9-8d7a-030e88c1544e"},"vehicle_type_id":"4","last_reported":1700744999,"current_range_meters":19600,"station_id":"ce4bhn92rcd13ifvqgrg","pricing_plan_id":"free"},{"bike_id":"783d345b-618b-43b8-a8d1-b92c9d798655","system_id":"levelo_inurba_marseille","lat":43.25586,"lon":5.38231,"is_reserved":false,"is_disabled":false,"rental_uris":{"android":"levelo://app?vid=783d345b-618b-43b8-a8d1-b92c9d798655","ios":"levelo://app?vid=783d345b-618b-43b8-a8d1-b92c9d798655"},"vehicle_type_id":"4","last_reported":1700744999,"current_range_meters":12000,"station_id":"ce4bhih2rcd13ifvqfs0","pricing_plan_id":"free"},{"bike_id":"12cec3c5-f658-496a-951a-1ef01be2417a","system_id":"levelo_inurba_marseille","lat":43.255756,"lon":5.382303,"is_reserved":false,"is_disabled":false,"rental_uris":{"android":"levelo://app?vid=12cec3c5-f658-496a-951a-1ef01be2417a","ios":"levelo://app?vid=12cec3c5-f658-496a-951a-1ef01be2417a"},"vehicle_type_id":"4","last_reported":1700744999,"current_range_meters":10800,"station_id":"ce4bhih2rcd13ifvqfs0","pricing_plan_id":"free"},{"bike_id":"c24e7c5c-ca85-486e-ac2c-07f118793c42","system_id":"levelo_inurba_marseille","lat":43.258224,"lon":5.394369,"is_reserved":false,"is_disabled":false,"rental_uris":{"android":"levelo://app?vid=c24e7c5c-ca85-486e-ac2c-07f118793c42","ios":"levelo://app?vid=c24e7c5c-ca85-486e-ac2c-07f118793c42"},"vehicle_type_id":"4","last_reported":1700744999,"current_range_meters":8800,"station_id":"ce4bhip2rcd13ifvqft0","pricing_plan_id":"free"},{"bike_id":"99e0e8a9-8e6d-4221-9bb5-666141ec9117","system_id":"levelo_inurba_marseille","lat":43.254947,"lon":5.376454,"is_reserved":false,"is_disabled":false,"rental_uris":{"android":"levelo://app?vid=99e0e8a9-8e6d-4221-9bb5-666141ec9117","ios":"levelo://app?vid=99e0e8a9-8e6d-4221-9bb5-666141ec9117"},"vehicle_type_id":"4","last_reported":1700744999,"current_range_meters":6000,"station_id":"ce4bhh12rcd13ifvqff0","pricing_plan_id":"free"},{"bike_id":"01f93f70-7088-4352-9ba2-dcb10c068540","system_id":"levelo_inurba_marseille","lat":43.27069,"lon":5.42274,"is_reserved":false,"is_disabled":false,"rental_uris":{"android":"levelo://app?vid=01f93f70-7088-4352-9ba2-dcb10c068540","ios":"levelo://app?vid=01f93f70-7088-4352-9ba2-dcb10c068540"},"vehicle_type_id":"4","last_reported":1700744999,"current_range_meters":0,"station_id":"ce4bhk92rcd13ifvqgb0","pricing_plan_id":"free"},{"bike_id":"74d3db7f-9e4f-44a1-8e5b-86b652cd9370","system_id":"levelo_inurba_marseille","lat":43.258658,"lon":5.398935,"is_reserved":false,"is_disabled":false,"rental_uris":{"android":"levelo://app?vid=74d3db7f-9e4f-44a1-8e5b-86b652cd9370","ios":"levelo://app?vid=74d3db7f-9e4f-44a1-8e5b-86b652cd9370"},"vehicle_type_id":"4","last_reported":1700744999,"current_range_meters":26000,"station_id":"ce4bhl92rcd13ifvqghg","pricing_plan_id":"free"},{"bike_id":"aec70065-8cb7-4bb4-b9c4-a7c779c7dce9","system_id":"levelo_inurba_marseille","lat":43.259009,"lon":5.40929,"is_reserved":false,"is_disabled":false,"rental_uris":{"android":"levelo://app?vid=aec70065-8cb7-4bb4-b9c4-a7c779c7dce9","ios":"levelo://app?vid=aec70065-8cb7-4bb4-b9c4-a7c779c7dce9"},"vehicle_type_id":"4","last_reported":1700744999,"current_range_meters":0,"station_id":"ce4bhm92rcd13ifvqglg","pricing_plan_id":"free"},{"bike_id":"4f54d1f2-5111-48d6-b241-746024832a51","system_id":"levelo_inurba_marseille","lat":43.25933,"lon":5.40915,"is_reserved":false,"is_disabled":false,"rental_uris":{"android":"levelo://app?vid=4f54d1f2-5111-48d6-b241-746024832a51","ios":"levelo://app?vid=4f54d1f2-5111-48d6-b241-746024832a51"},"vehicle_type_id":"4","last_reported":1700744999,"current_range_meters":11600,"station_id":"ce4bhm92rcd13ifvqglg","pricing_plan_id":"free"},{"bike_id":"ef9443c6-1bc8-433f-9270-3a8fa399bff0","system_id":"levelo_inurba_marseille","lat":43.257079,"lon":5.411051,"is_reserved":false,"is_disabled":false,"rental_uris":{"android":"levelo://app?vid=ef9443c6-1bc8-433f-9270-3a8fa399bff0","ios":"levelo://app?vid=ef9443c6-1bc8-433f-9270-3a8fa399bff0"},"vehicle_type_id":"4","last_reported":1700744999,"current_range_meters":28000,"station_id":"ce4bhkp2rcd13ifvqgd0","pricing_plan_id":"free"},{"bike_id":"c45ef5af-4fda-4ec8-9e37-6820986aabe1","system_id":"levelo_inurba_marseille","lat":43.2479,"lon":5.374457,"is_reserved":false,"is_disabled":false,"rental_uris":{"android":"levelo://app?vid=c45ef5af-4fda-4ec8-9e37-6820986aabe1","ios":"levelo://app?vid=c45ef5af-4fda-4ec8-9e37-6820986aabe1"},"vehicle_type_id":"4","last_reported":1700744999,"current_range_meters":2000,"station_id":"ce4bhgh2rcd13ifvqfb0","pricing_plan_id":"free"},{"bike_id":"d7d368e7-acfe-4b41-a398-b23130ca1b67","system_id":"levelo_inurba_marseille","lat":43.2479,"lon":5.374457,"is_reserved":false,"is_disabled":false,"rental_uris":{"android":"levelo://app?vid=d7d368e7-acfe-4b41-a398-b23130ca1b67","ios":"levelo://app?vid=d7d368e7-acfe-4b41-a398-b23130ca1b67"},"vehicle_type_id":"4","last_reported":1700744999,"current_range_meters":2800,"station_id":"ce4bhgh2rcd13ifvqfb0","pricing_plan_id":"free"},{"bike_id":"508f18b8-054b-48c9-9834-c10f67d5bc83","system_id":"levelo_inurba_marseille","lat":43.2479,"lon":5.374457,"is_reserved":false,"is_disabled":false,"rental_uris":{"android":"levelo://app?vid=508f18b8-054b-48c9-9834-c10f67d5bc83","ios":"levelo://app?vid=508f18b8-054b-48c9-9834-c10f67d5bc83"},"vehicle_type_id":"4","last_reported":1700744999,"current_range_meters":12800,"station_id":"ce4bhgh2rcd13ifvqfb0","pricing_plan_id":"free"},