{"last_updated":1690999695,"ttl":30,"version":"2.2","data":{"bikes":[{"bike_id":"fa0f9158-714a-42db-b9b3-51436d6c06f9","system_id":"levelo_inurba_marseille","lat":43.309076,"lon":5.368465,"is_reserved":false,"is_disabled":false,"rental_uris":{"android":"levelo://app?vid=fa0f9158-714a-42db-b9b3-51436d6c06f9","ios":"levelo://app?vid=fa0f9158-714a-42db-b9b3-51436d6c06f9"},"vehicle_type_id":"4","last_reported":1690999697,"current_range_meters":9200,"station_id":"ce4bgn92rcd13ifvqbvg","pricing_plan_id":"free"},{"bike_id":"17f832f0-0625-48c4-9a72-8f31d3655f67","system_id":"levelo_inurba_marseille","lat":43.309076,"lon":5.368465,"is_reserved":false,"is_disabled":false,"rental_uris":{"android":"levelo://app?vid=17f832f0-0625-48c4-9a72-8f31d3655f67","ios":"levelo://app?vid=17f832f0-0625-48c4-9a72-8f31d3655f67"},"vehicle_type_id":"4","last_reported":1690999697,"current_range_meters":400,"station_id":"ce4bgn92rcd13ifvqbvg","pricing_plan_id":"free"},{"bike_id":"14a51856-5410-43cb-8431-41e1ac940c9d","system_id":"levelo_inurba_marseille","lat":43.314811,"lon":5.373103,"is_reserved":false,"is_disabled":false,"rental_uris":{"android":"levelo://app?vid=14a51856-5410-43cb-8431-41e1ac940c9d","ios":"levelo://app?vid=14a51856-5410-43cb-8431-41e1ac940c9d"},"vehicle_type_id":"4","last_reported":1690999697,"current_range_meters":16800,"station_id":"ce4bgt12rcd13ifvqcd0","pricing_plan_id":"free"},{"bike_id":"e8e3e639-5839-4132-bb59-71c5e777ee3e","system_id":"levelo_inurba_marseille","lat":43.309039,"lon":5.371797,"is_reserved":false,"is_disabled":false,"rental_uris":{"android":"levelo://app?vid=e8e3e639-5839-4132-bb59-71c5e777ee3e","ios":"levelo://app?vid=e8e3e639-5839-4132-bb59-71c5e777ee3e"},"vehicle_type_id":"4","last_reported":1690999697,"current_range_meters":12800,"station_id":"ce4bguh2rcd13ifvqckg","pricing_plan_id":"free"},{"bike_id":"fb4876ef-0b7a-4a26-89e9-6c6c2ca4e741","system_id":"levelo_inurba_marseille","lat":43.309039,"lon":5.371797,"is_reserved":false,"is_disabled":false,"rental_uris":{"android":"levelo://app?vid=fb4876ef-0b7a-4a26-89e9-6c6c2ca4e741","ios":"levelo://app?vid=fb4876ef-0b7a-4a26-89e9-6c6c2ca4e741"},"vehicle_type_id":"4","last_reported":1690999697,"current_range_meters":4000,"station_id":"ce4bguh2rcd13ifvqckg","pricing_plan_id":"free"},{"bike_id":"4396d199-3c72-4e07-9c49-8e46440cc37a","system_id":"levelo_inurba_marseille","lat":43.31648,"lon":5.37421,"is_reserved":false,"is_disabled":false,"rental_uris":{"android":"levelo://app?vid=4396d199-3c72-4e07-9c49-8e46440cc37a","ios":"levelo://app?vid=4396d199-3c72-4e07-9c49-8e46440cc37a"},"vehicle_type_id":"4","last_reported":1690999697,"current_range_meters":22000,"station_id":"","pricing_plan_id":"free"},{"bike_id":"74d14feb-a892-478d-b86f-291c876731cb","system_id":"levelo_inurba_marseille","lat":43.31684,"lon":5.37517,"is_reserved":false,"is_disabled":false,"rental_uris":{"android":"levelo://app?vid=74d14feb-a892-478d-b86f-291c876731cb","ios":"levelo://app?vid=74d14feb-a892-478d-b86f-291c876731cb"},"vehicle_type_id":"4","last_reported":1690999697,"current_range_meters":29600,"station_id":"","pricing_plan_id":"free"},{"bike_id":"f20ea888-8740-440b-bfeb-8eb2a7c1f652","system_id":"levelo_inurba_marseille","lat":43.305989,"lon":5.37225,"is_reserved":false,"is_disabled":false,"rental_uris":{"android":"levelo://app?vid=f20ea888-8740-440b-bfeb-8eb2a7c1f652","ios":"levelo://app?vid=f20ea888-8740-440b-bfeb-8eb2a7c1f652"},"vehicle_type_id":"4","last_reported":1690999697,"current_range_meters":29600,"station_id":"ce4bgqh2rcd13ifvqc4g","pricing_plan_id":"free"},{"bike_id":"538883bc-8939-44e7-a4d9-00f4431276f7","system_id":"levelo_inurba_marseille","lat":43.31538,"lon":5.3802,"is_reserved":false,"is_disabled":false,"rental_uris":{"android":"levelo://app?vid=538883bc-8939-44e7-a4d9-00f4431276f7","ios":"levelo://app?vid=538883bc-8939-44e7-a4d9-00f4431276f7"},"vehicle_type_id":"4","last_reported":1690999697,"current_range_meters":25600,"station_id":"ce4bhsp2rcd13ifvqi50","pricing_plan_id":"free"},{"bike_id":"69efd253-fbbb-4a73-9ba0-16d8244fa080","system_id":"levelo_inurba_marseille","lat":43.304606,"lon":5.379026,"is_reserved":false,"is_disabled":false,"rental_uris":{"android":"levelo://app?vid=69efd253-fbbb-4a73-9ba0-16d8244fa080","ios":"levelo://app?vid=69efd253-fbbb-4a73-9ba0-16d8244fa080"},"vehicle_type_id":"4","last_reported":1690999697,"current_range_meters":29200,"station_id":"ce4bgup2rcd13ifvqcn0","pricing_plan_id":"free"},{"bike_id":"1b4c60e4-633c-473e-9a69-4eea4e36b8e2","system_id":"levelo_inurba_marseille","lat":43.313571,"lon":5.384829,"is_reserved":false,"is_disabled":false,"rental_uris":{"android":"levelo://app?vid=1b4c60e4-633c-473e-9a69-4eea4e36b8e2","ios":"levelo://app?vid=1b4c60e4-633c-473e-9a69-4eea4e36b8e2"},"vehicle_type_id":"4","last_reported":1690999697,"current_range_meters":28400,"station_id":"ce4bgt92rcd13ifvqcf0","pricing_plan_id":"free"},{"bike_id":"0516a1ce-8599-4d4c-bfb8-477600363265","system_id":"levelo_inurba_marseille","lat":43.313571,"lon":5.384829,"is_reserved":false,"is_disabled":false,"rental_uris":{"android":"levelo://app?vid=0516a1ce-8599-4d4c-bfb8-477600363265","ios":"levelo://app?vid=0516a1ce-8599-4d4c-bfb8-477600363265"},"vehicle_type_id":"4","last_reported":1690999697,"current_range_meters":9200,"station_id":"ce4bgt92rcd13ifvqcf0","pricing_plan_id":"free"},{"bike_id":"2a5735c4-5e16-432a-bf2a-8f552f36bb98","system_id":"levelo_inurba_marseille","lat":43.29938,"lon":5.3654,"is_reserved":false,"is_disabled":false,"rental_uris":{"android":"levelo://app?vid=2a5735c4-5e16-432a-bf2a-8f552f36bb98","ios":"levelo://app?vid=2a5735c4-5e16-432a-bf2a-8f552f36bb98"},"vehicle_type_id":"4","last_reported":1690999697,"current_range_meters":27200,"station_id":"ce4bgm92rcd13ifvqbr0","pricing_plan_id":"free"},{"bike_id":"08bf6445-8c42-4072-af8a-3bd08e53edf3","system_id":"levelo_inurba_marseille","lat":43.299724,"lon":5.371829,"is_reserved":false,"is_disabled":false,"rental_uris":{"android":"levelo://app?vid=08bf6445-8c42-4072-af8a-3bd08e53edf3","ios":"levelo://app?vid=08bf6445-8c42-4072-af8a-3bd08e53edf3"},"vehicle_type_id":"4","last_reported":1690999697,"current_range_meters":15200,"station_id":"ce4bgr92rcd13ifvqc7g","pricing_plan_id":"free"},{"bike_id":"7f192307-41e1-4cac-94a2-e98c991f0f11","system_id":"levelo_inurba_marseille","lat":43.298433,"lon":5.362774,"is_reserved":false,"is_disabled":false,"rental_uris":{"android":"levelo://app?vid=7f192307-41e1-4cac-94a2-e98c991f0f11","ios":"levelo://app?vid=7f192307-41e1-4cac-94a2-e98c991f0f11"},"vehicle_type_id":"4","last_reported":1690999697,"current_range_meters":29600,"station_id":"ce4bgpp2rcd13ifvqc3g","pricing_plan_id":"free"},{"bike_id":"c859e185-cd07-40de-8ee7-3679706ebdae","system_id":"levelo_inurba_marseille","lat":43.298433,"lon":5.362774,"is_reserved":false,"is_disabled":false,"rental_uris":{"android":"levelo://app?vid=c859e185-cd07-40de-8ee7-3679706ebdae","ios":"levelo://app?vid=c859e185-cd07-40de-8ee7-3679706ebdae"},"vehicle_type_id":"4","last_reported":1690999697,"current_range_meters":400,"station_id":"ce4bgpp2rcd13ifvqc3g","pricing_plan_id":"free"},{"bike_id":"79ade18b-a45b-46ad-b3b6-b9a2219884a8","system_id":"levelo_inurba_marseille","lat":43.298433,"lon":5.362774,"is_reserved":false,"is_disabled":false,"rental_uris":{"android":"levelo://app?vid=79ade18b-a45b-46ad-b3b6-b9a2219884a8","ios":"levelo://app?vid=79ade18b-a45b-46ad-b3b6-b9a2219884a8"},"vehicle_type_id":"4","last_reported":1690999697,"current_range_meters":8800,"station_id":"ce4bgpp2rcd13ifvqc3g","pricing_plan_id":"free"},{"bike_id":"91353cd8-dd4c-4c6c-b061-f472ec360449","system_id":"levelo_inurba_marseille","lat":43.298433,"lon":5.362774,"is_reserved":false,"is_disabled":false,"rental_uris":{"android":"levelo://app?vid=91353cd8-dd4c-4c6c-b061-f472ec360449","ios":"levelo://app?vid=91353cd8-dd4c-4c6c-b061-f472ec360449"},"vehicle_type_id":"4","last_reported":1690999697,"current_range_meters":18400,"station_id":"ce4bgpp2rcd13ifvqc3g","pricing_plan_id":"free"},{"bike_id":"9a740cd8-f634-44d1-aa72-0d17165e12d5","system_id":"levelo_inurba_marseille","lat":43.298433,"lon":5.362774,"is_reserved":false,"is_disabled":false,"rental_uris":{"android":"levelo://app?vid=9a740cd8-f634-44d1-aa72-0d17165e12d5","ios":"levelo://app?vid=9a740cd8-f634-44d1-aa72-0d17165e12d5"},"vehicle_type_id":"4","last_reported":1690999697,"current_range_meters":1600,"station_id":"ce4bgpp2rcd13ifvqc3g","pricing_plan_id":"free"},{"bike_id":"5148e866-add8-46eb-8c6d-7104c62d7a46","system_id":"levelo_inurba_marseille","lat":43.299243,"lon":5.37481,"is_reserved":false,"is_disabled":false,"rental_uris":{"android":"levelo://app?vid=5148e866-add8-46eb-8c6d-7104c62d7a46","ios":"levelo://app?vid=5148e866-add8-46eb-8c6d-7104c62d7a46"},"vehicle_type_id":"4","last_reported":1690999697,"current_range_meters":18800,"station_id":"ce4bgjh2rcd13ifvqbg0","pricing_plan_id":"free"},{"bike_id":"6c38617b-766c-4067-a2c3-3330028d664d","system_id":"levelo_inurba_marseille","lat":43.298433,"lon":5.362774,"is_reserved":false,"is_disabled":false,"rental_uris":{"android":"levelo://app?vid=6c38617b-766c-4067-a2c3-3330028d664d","ios":"levelo://app?vid=6c38617b-766c-4067-a2c3-3330028d664d"},"vehicle_type_id":"4","last_reported":1690999697,"current_range_meters":6000,"station_id":"ce4bgpp2rcd13ifvqc3g","pricing_plan_id":"free"},{"bike_id":"30537d43-af02-4a10-b928-7b9b8cf633d2","system_id":"levelo_inurba_marseille","lat":43.30538,"lon":5.38433,"is_reserved":false,"is_disabled":false,"rental_uris":{"android":"levelo://app?vid=30537d43-af02-4a10-b928-7b9b8cf633d2","ios":"levelo://app?vid=30537d43-af02-4a10-b928-7b9b8cf633d2"},"vehicle_type_id":"4","last_reported":1690999697,"current_range_meters":28800,"station_id":"ce4bgg92rcd13ifvqb30","pricing_plan_id":"free"},{"bike_id":"86bbca6a-bb1e-49b6-a3be-faa1dc2cdd87","system_id":"levelo_inurba_marseille","lat":43.298433,"lon":5.362774,"is_reserved":false,"is_disabled":false,"rental_uris":{"android":"levelo://app?vid=86bbca6a-bb1e-49b6-a3be-faa1dc2cdd87","ios":"levelo://app?vid=86bbca6a-bb1e-49b6-a3be-faa1dc2cdd87"},"vehicle_type_id":"4","last_reported":1690999697,"current_range_meters":12800,"station_id":"ce4bgpp2rcd13ifvqc3g","pricing_plan_id":"free"},{"bike_id":"e69c031b-aefd-4f9e-8dfd-e2039b8041b8","system_id":"levelo_inurba_marseille","lat":43.311722,"lon":5.387247,"is_reserved":false,"is_disabled":false,"rental_uris":{"android":"levelo://app?vid=e69c031b-aefd-4f9e-8dfd-e2039b8041b8","ios":"levelo://app?vid=e69c031b-aefd-4f9e-8dfd-e2039b8041b8"},"vehicle_type_id":"4","last_reported":1690999697,"current_range_meters":6000,"station_id":"ce4bgv12rcd13ifvqcp0","pricing_plan_id":"free"},{"bike_id":"0c1916c7-3c54-45fd-aa2a-3a437412827f","system_id":"levelo_inurba_marseille","lat":43.311722,"lon":5.387247,"is_reserved":false,"is_disabled":false,"rental_uris":{"android":"levelo://app?vid=0c1916c7-3c54-45fd-aa2a-3a437412827f","ios":"levelo://app?vid=0c1916c7-3c54-45fd-aa2a-3a437412827f"},"vehicle_type_id":"4","last_reported":1690999697,"current_range_meters":8800,"station_id":"ce4bgv12rcd13ifvqcp0","pricing_plan_id":"free"},{"bike_id":"3d843d7f-f6e4-4e79-891d-f2fad85eb014","system_id":"levelo_inurba_marseille","lat":43.311722,"lon":5.387247,"is_reserved":false,"is_disabled":false,"rental_uris":{"android":"levelo://app?vid=3d843d7f-f6e4-4e79-891d-f2fad85eb014","ios":"levelo://app?vid=3d843d7f-f6e4-4e79-891d-f2fad85eb014"},"vehicle_type_id":"4","last_reported":1690999697,"current_range_meters":30800,"station_id":"ce4bgv12rcd13ifvqcp0","pricing_plan_id":"free"},{"bike_id":"28a477d3-dc9c-414c-ae71-fd6a5c0e5559","system_id":"levelo_inurba_marseille","lat":43.311722,"lon":5.387247,"is_reserved":false,"is_disabled":false,"rental_uris":{"android":"levelo://app?vid=28a477d3-dc9c-414c-ae71-fd6a5c0e5559","ios":"levelo://app?vid=28a477d3-dc9c-414c-ae71-fd6a5c0e5559"},"vehicle_type_id":"4","last_reported":1690999697,"current_range_meters":24400,"station_id":"ce4bgv12rcd13ifvqcp0","pricing_plan_id":"free"},{"bike_id":"2a29ec2b-8dc7-490b-826b-f47095507857","system_id":"levelo_inurba_marseille","lat":43.311722,"lon":5.387247,"is_reserved":false,"is_disabled":false,"rental_uris":{"android":"levelo://app?vid=2a29ec2b-8dc7-490b-826b-f47095507857","ios":"levelo://app?vid=2a29ec2b-8dc7-490b-826b-f47095507857"},"vehicle_type_id":"4","last_reported":1690999697,"current_range_meters":7600,"station_id":"ce4bgv12rcd13ifvqcp0","pricing_plan_id":"free"},{"bike_id":"dcdd96a3-d61b-488a-b98d-12e2297159c0","system_id":"levelo_inurba_marseille","lat":43.31177,"lon":5.38732,"is_reserved":false,"is_disabled":false,"rental_uris":{"android":"levelo://app?vid=dcdd96a3-d61b-488a-b98d-12e2297159c0","ios":"levelo://app?vid=dcdd96a3-d61b-488a-b98d-12e2297159c0"},"vehicle_type_id":"4","last_reported":1690999697,"current_range_meters":5600,"station_id":"ce4bgv12rcd13ifvqcp0","pricing_plan_id":"free"},{"bike_id":"dbfd4601-d7de-4cb6-96f6-1c221a0c228f","system_id":"levelo_inurba_marseille","lat":43.328371,"lon":5.366912,"is_reserved":false,"is_disabled":false,"rental_uris":{"android":"levelo://app?vid=dbfd4601-d7de-4cb6-96f6-1c221a0c228f","ios":"levelo://app?vid=dbfd4601-d7de-4cb6-96f6-1c221a0c228f"},"vehicle_type_id":"4","last_reported":1690999697,"current_range_meters":21200,"station_id":"ce4bhs92rcd13ifvqi0g","pricing_plan_id":"free"},{"bike_id":"7d255938-9bfc-46e1-9ab1-22c24f5c364d","system_id":"levelo_inurba_marseille","lat":43.328371,"lon":5.366909,"is_reserved":false,"is_disabled":false,"rental_uris":{"android":"levelo://app?vid=7d255938-9bfc-46e1-9ab1-22c24f5c364d","ios":"levelo://app?vid=7d255938-9bfc-46e1-9ab1-22c24f5c364d"},"vehicle_type_id":"4","last_reported":1690999697,"current_range_meters":400,"station_id":"ce4bhs92rcd13ifvqi0g","pricing_plan_id":"free"},{"bike_id":"22720890-a831-43a8-a5c0-fde78a158c28","system_id":"levelo_inurba_marseille","lat":43.32828,"lon":5.36694,"is_reserved":false,"is_disabled":false,"rental_uris":{"android":"levelo://app?vid=22720890-a831-43a8-a5c0-fde78a158c28","ios":"levelo://app?vid=22720890-a831-43a8-a5c0-fde78a158c28"},"vehicle_type_id":"4","last_reported":1690999697,"current_range_meters":14000,"station_id":"ce4bhs92rcd13ifvqi0g","pricing_plan_id":"free"},{"bike_id":"6d8d2ea5-0d68-492c-9259-e61bdd4615b9","system_id":"levelo_inurba_marseille","lat":43.32829,"lon":5.36691,"is_reserved":false,"is_disabled":false,"rental_uris":{"android":"levelo://app?vid=6d8d2ea5-0d68-492c-9259-e61bdd4615b9","ios":"levelo://app?vid=6d8d2ea5-0d68-492c-9259-e61bdd4615b9"},"vehicle_type_id":"4","last_reported":1690999697,"current_range_meters":4000,"station_id":"ce4bhs92rcd13ifvqi0g","pricing_plan_id":"free"},{"bike_id":"e06d29d6-6a97-46de-b506-634b035b228c","system_id":"levelo_inurba_marseille","lat":43.328371,"lon":5.366912,"is_reserved":false,"is_disabled":false,"rental_uris":{"android":"levelo://app?vid=e06d29d6-6a97-46de-b506-634b035b228c","ios":"levelo://app?vid=e06d29d6-6a97-46de-b506-634b035b228c"},"vehicle_type_id":"4","last_reported":1690999697,"current_range_meters":28000,"station_id":"ce4bhs92rcd13ifvqi0g","pricing_plan_id":"free"},{"bike_id":"dd789220-e7b5-42c1-b9dc-dc4243148021","system_id":"levelo_inurba_marseille","lat":43.29718,"lon":5.366,"is_reserved":false,"is_disabled":false,"rental_uris":{"android":"levelo://app?vid=dd789220-e7b5-42c1-b9dc-dc4243148021","ios":"levelo://app?vid=dd789220-e7b5-42c1-b9dc-dc4243148021"},"vehicle_type_id":"4","last_reported":1690999697,"current_range_meters":31200,"station_id":"ce4bgn12rcd13ifvqbt0","pricing_plan_id":"free"},{"bike_id":"cf98c159-f71c-448e-a09f-5b0bb0e388de","system_id":"levelo_inurba_marseille","lat":43.297163,"lon":5.365866,"is_reserved":false,"is_disabled":false,"rental_uris":{"android":"levelo://app?vid=cf98c159-f71c-448e-a09f-5b0bb0e388de","ios":"levelo://app?vid=cf98c159-f71c-448e-a09f-5b0bb0e388de"},"vehicle_type_id":"4","last_reported":1690999697,"current_range_meters":20800,"station_id":"ce4bgn12rcd13ifvqbt0","pricing_plan_id":"free"},{"bike_id":"d005f652-65b1-4fa7-964d-684043486acd","system_id":"levelo_inurba_marseille","lat":43.297163,"lon":5.365866,"is_reserved":false,"is_disabled":false,"rental_uris":{"android":"levelo://app?vid=d005f652-65b1-4fa7-964d-684043486acd","ios":"levelo://app?vid=d005f652-65b1-4fa7-964d-684043486acd"},"vehicle_type_id":"4","last_reported":1690999697,"current_range_meters":19200,"station_id":"ce4bgn12rcd13ifvqbt0","pricing_plan_id":"free"},{"bike_id":"f823f454-a29a-44b8-b78a-1af5dc63a630","system_id":"levelo_inurba_marseille","lat":43.296808,"lon":5.37294,"is_reserved":false,"is_disabled":false,"rental_uris":{"android":"levelo://app?vid=f823f454-a29a-44b8-b78a-1af5dc63a630","ios":"levelo://app?vid=f823f454-a29a-44b8-b78a-1af5dc63a630"},"vehicle_type_id":"4","last_reported":1690999697,"current_range_meters":11200,"station_id":"","pricing_plan_id":"free"},{"bike_id":"7895103d-b300-4ddb-9e23-c86d29129a2d","system_id":"levelo_inurba_marseille","lat":43.29573,"lon":5.367355,"is_reserved":false,"is_disabled":false,"rental_uris":{"android":"levelo://app?vid=7895103d-b300-4ddb-9e23-c86d29129a2d","ios":"levelo://app?vid=7895103d-b300-4ddb-9e23-c86d29129a2d"},"vehicle_type_id":"4","last_reported":1690999697,"current_range_meters":16400,"station_id":"ce4bgph2rcd13ifvqc2g","pricing_plan_id":"free"},{"bike_id":"52f68bf3-4fe0-490e-970b-3db7f46c48fc","system_id":"levelo_inurba_marseille","lat":43.29573,"lon":5.367355,"is_reserved":false,"is_disabled":false,"rental_uris":{"android":"levelo://app?vid=52f68bf3-4fe0-490e-970b-3db7f46c48fc","ios":"levelo://app?vid=52f68bf3-4fe0-490e-970b-3db7f46c48fc"},"vehicle_type_id":"4","last_reported":1690999697,"current_range_meters":24800,"station_id":"ce4bgph2rcd13ifvqc2g","pricing_plan_id":"free"},{"bike_id":"15f4ac93-8d4f-4e05-b6fe-bdce0c7b3646","system_id":"levelo_inurba_marseille","lat":43.296131,"lon":5.370791,"is_reserved":false,"is_disabled":false,"rental_uris":{"android":"levelo://app?vid=15f4ac93-8d4f-4e05-b6fe-bdce0c7b3646","ios":"levelo://app?vid=15f4ac93-8d4f-4e05-b6fe-bdce0c7b3646"},"vehicle_type_id":"4","last_reported":1690999697,"current_range_meters":23600,"station_id":"ce4bgnh2rcd13ifvqc0g","pricing_plan_id":"free"},{"bike_id":"8d06a44f-7665-451f-9a62-db4884db95a4","system_id":"levelo_inurba_marseille","lat":43.29573,"lon":5.367355,"is_reserved":false,"is_disabled":false,"rental_uris":{"android":"levelo://app?vid=8d06a44f-7665-451f-9a62-db4884db95a4","ios":"levelo://app?vid=8d06a44f-7665-451f-9a62-db4884db95a4"},"vehicle_type_id":"4","last_reported":1690999697,"current_range_meters":12000,"station_id":"ce4bgph2rcd13ifvqc2g","pricing_plan_id":"free"},{"bike_id":"5840280f-d28f-44c4-97cb-b7ba3d35a02c","system_id":"levelo_inurba_marseille","lat":43.296921,"lon":5.376579,"is_reserved":false,"is_disabled":false,"rental_uris":{"android":"levelo://app?vid=5840280f-d28f-44c4-97cb-b7ba3d35a02c","ios":"levelo://app?vid=5840280f-d28f-44c4-97cb-b7ba3d35a02c"},"vehicle_type_id":"4","last_reported":1690999697,"current_range_meters":24400,"station_id":"ce4bgkh2rcd13ifvqbl0","pricing_plan_id":"free"},{"bike_id":"ddfc130b-9bb1-47a8-a3df-732334ba0518","system_id":"levelo_inurba_marseille","lat":43.296921,"lon":5.376579,"is_reserved":false,"is_disabled":false,"rental_uris":{"android":"levelo://app?vid=ddfc130b-9bb1-47a8-a3df-732334ba0518","ios":"levelo://app?vid=ddfc130b-9bb1-47a8-a3df-732334ba0518"},"vehicle_type_id":"4","last_reported":1690999697,"current_range_meters":6400,"station_id":"ce4bgkh2rcd13ifvqbl0","pricing_plan_id":"free"},{"bike_id":"447a3fa1-821b-4c2e-bb10-e0c9860ae4fc","system_id":"levelo_inurba_marseille","lat":43.296921,"lon":5.376579,"is_reserved":false,"is_disabled":false,"rental_uris":{"android":"levelo://app?vid=447a3fa1-821b-4c2e-bb10-e0c9860ae4fc","ios":"levelo://app?vid=447a3fa1-821b-4c2e-bb10-e0c9860ae4fc"},"vehicle_type_id":"4","last_reported":1690999697,"current_range_meters":5600,"station_id":"ce4bgkh2rcd13ifvqbl0","pricing_plan_id":"free"},{"bike_id":"6782e75c-28e5-460b-a465-eb8f79e24543","system_id":"levelo_inurba_marseille","lat":43.30949,"lon":5.39026,"is_reserved":false,"is_disabled":false,"rental_uris":{"android":"levelo://app?vid=6782e75c-28e5-460b-a465-eb8f79e24543","ios":"levelo://app?vid=6782e75c-28e5-460b-a465-eb8f79e24543"},"vehicle_type_id":"4","last_reported":1690999697,"current_range_meters":19600,"station_id":"ce4bgup2rcd13ifvqco0","pricing_plan_id":"free"},{"bike_id":"f0b1921d-8fc5-42f6-8214-26455e772ce5","system_id":"levelo_inurba_marseille","lat":43.30962,"lon":5.39037,"is_reserved":false,"is_disabled":false,"rental_uris":{"android":"levelo://app?vid=f0b1921d-8fc5-42f6-8214-26455e772ce5","ios":"levelo://app?vid=f0b1921d-8fc5-42f6-8214-26455e772ce5"},"vehicle_type_id":"4","last_reported":1690999697,"current_range_meters":15200,"station_id":"ce4bgup2rcd13ifvqco0","pricing_plan_id":"free"},{"bike_id":"c0417ae5-a733-486a-8959-4866f2e08f4d","system_id":"levelo_inurba_marseille","lat":43.30954,"lon":5.39041,"is_reserved":false,"is_disabled":false,"rental_uris":{"android":"levelo://app?vid=c0417ae5-a733-486a-8959-4866f2e08f4d","ios":"levelo://app?vid=c0417ae5-a733-486a-8959-4866f2e08f4d"},"vehicle_type_id":"4","last_reported":1690999697,"current_range_meters":26400,"station_id":"ce4bgup2rcd13ifvqco0","pricing_plan_id":"free"},{"bike_id":"3e98b8b4-07d6-4995-a392-97dabac14f7d","system_id":"levelo_inurba_marseille","lat":43.317557,"lon":5.390173,"is_reserved":false,"is_disabled":false,"rental_uris":{"android":"levelo://app?vid=3e98b8b4-07d6-4995-a392-97dabac14f7d","ios":"levelo://app?vid=3e98b8b4-07d6-4995-a392-97dabac14f7d"},"vehicle_type_id":"4","last_reported":1690999697,"current_range_meters":31600,"station_id":"ce4bhqp2rcd13ifvqhng","pricing_plan_id":"free"},{"bike_id":"cae2b2c7-be80-4277-9a92-fdf7e4fe2590","system_id":"levelo_inurba_marseille","lat":43.317557,"lon":5.390173,"is_reserved":false,"is_disabled":false,"rental_uris":{"android":"levelo://app?vid=cae2b2c7-be80-4277-9a92-fdf7e4fe2590","ios":"levelo://app?vid=cae2b2c7-be80-4277-9a92-fdf7e4fe2590"},"vehicle_type_id":"4","last_reported":1690999697,"current_range_meters":0,"station_id":"ce4bhqp2rcd13ifvqhng","pricing_plan_id":"free"},{"bike_id":"5f6fe95b-3122-4dec-b32f-dccd539cf579","system_id":"levelo_inurba_marseille","lat":43.317557,"lon":5.390173,"is_reserved":false,"is_disabled":false,"rental_uris":{"android":"levelo://app?vid=5f6fe95b-3122-4dec-b32f-dccd539cf579","ios":"levelo://app?vid=5f6fe95b-3122-4dec-b32f-dccd539cf579"},"vehicle_type_id":"4","last_reported":1690999697,"current_range_meters":27200,"station_id":"ce4bhqp2rcd13ifvqhng","pricing_plan_id":"free"},{"bike_id":"da912af9-899a-4251-aa0b-848a34434fe7","system_id":"levelo_inurba_marseille","lat":43.31756,"lon":5.39013,"is_reserved":false,"is_disabled":false,"rental_uris":{"android":"levelo://app?vid=da912af9-899a-4251-aa0b-848a34434fe7","ios":"levelo://app?vid=da912af9-899a-4251-aa0b-848a34434fe7"},"vehicle_type_id":"4","last_reported":1690999697,"current_range_meters":20400,"station_id":"ce4bhqp2rcd13ifvqhng","pricing_plan_id":"free"},{"bike_id":"d703dee8-f8a9-4d10-9377-0f7e094c5bbd","system_id":"levelo_inurba_marseille","lat":43.317557,"lon":5.390173,"is_reserved":false,"is_disabled":false,"rental_uris":{"android":"levelo://app?vid=d703dee8-f8a9-4d10-9377-0f7e094c5bbd","ios":"levelo://app?vid=d703dee8-f8a9-4d10-9377-0f7e094c5bbd"},"vehicle_type_id":"4","last_reported":1690999697,"current_range_meters":21600,"station_id":"ce4bhqp2rcd13ifvqhng","pricing_plan_id":"free"},{"bike_id":"27a0aa1c-6f96-48fb-92df-ff7d542dbdc0","system_id":"levelo_inurba_marseille","lat":43.304278,"lon":5.388868,"is_reserved":false,"is_disabled":false,"rental_uris":{"android":"levelo://app?vid=27a0aa1c-6f96-48fb-92df-ff7d542dbdc0","ios":"levelo://app?vid=27a0aa1c-6f96-48fb-92df-ff7d542dbdc0"},"vehicle_type_id":"4","last_reported":1690999697,"current_range_meters":9200,"station_id":"ce4bgk12rcd13ifvqbi0","pricing_plan_id":"free"},{"bike_id":"e037d78c-9c1b-4421-b513-40d1b5e2c341","system_id":"levelo_inurba_marseille","lat":43.304278,"lon":5.388868,"is_reserved":false,"is_disabled":false,"rental_uris":{"android":"levelo://app?vid=e037d78c-9c1b-4421-b513-40d1b5e2c341","ios":"levelo://app?vid=e037d78c-9c1b-4421-b513-40d1b5e2c341"},"vehicle_type_id":"4","last_reported":1690999697,"current_range_meters":2800,"station_id":"ce4bgk12rcd13ifvqbi0","pricing_plan_id":"free"},{"bike_id":"1470de0d-3cca-4a63-ac9b-47a4b467cd5e","system_id":"levelo_inurba_marseille","lat":43.304301,"lon":5.38894,"is_reserved":false,"is_disabled":false,"rental_uris":{"android":"levelo://app?vid=1470de0d-3cca-4a63-ac9b-47a4b467cd5e","ios":"levelo://app?vid=1470de0d-3cca-4a63-ac9b-47a4b467cd5e"},"vehicle_type_id":"4","last_reported":1690999697,"current_range_meters":29200,"station_id":"ce4bgk12rcd13ifvqbi0","pricing_plan_id":"free"},{"bike_id":"06bfd8ef-1210-4146-9d34-cf6cba829c30","system_id":"levelo_inurba_marseille","lat":43.296277,"lon":5.377108,"is_reserved":false,"is_disabled":false,"rental_uris":{"android":"levelo://app?vid=06bfd8ef-1210-4146-9d34-cf6cba829c30","ios":"levelo://app?vid=06bfd8ef-1210-4146-9d34-cf6cba829c30"},"vehicle_type_id":"4","last_reported":1690999697,"current_range_meters":12400,"station_id":"ce4bgi92rcd13ifvqb90","pricing_plan_id":"free"},{"bike_id":"b52cf151-fdd6-4711-bf26-f142546b7075","system_id":"levelo_inurba_marseille","lat":43.29528,"lon":5.37479,"is_reserved":false,"is_disabled":false,"rental_uris":{"android":"levelo://app?vid=b52cf151-fdd6-4711-bf26-f142546b7075","ios":"levelo://app?vid=b52cf151-fdd6-4711-bf26-f142546b7075"},"vehicle_type_id":"4","last_reported":1690999697,"current_range_meters":22000,"station_id":"ce4bgkp2rcd13ifvqbmg","pricing_plan_id":"free"},{"bike_id":"58a6635c-4a80-4f19-a739-16c42ebed577","system_id":"levelo_inurba_marseille","lat":43.32357,"lon":5.38874,"is_reserved":false,"is_disabled":false,"rental_uris":{"android":"levelo://app?vid=58a6635c-4a80-4f19-a739-16c42ebed577","ios":"levelo://app?vid=58a6635c-4a80-4f19-a739-16c42ebed577"},"vehicle_type_id":"4","last_reported":1690999697,"current_range_meters":17200,"station_id":"ce4bhqp2rcd13ifvqhog","pricing_plan_id":"free"},{"bike_id":"419713fa-7cc1-4cfe-93fa-32add7c4fc42","system_id":"levelo_inurba_marseille","lat":43.32367,"lon":5.388836,"is_reserved":false,"is_disabled":false,"rental_uris":{"android":"levelo://app?vid=419713fa-7cc1-4cfe-93fa-32add7c4fc42","ios":"levelo://app?vid=419713fa-7cc1-4cfe-93fa-32add7c4fc42"},"vehicle_type_id":"4","last_reported":1690999697,"current_range_meters":14800,"station_id":"ce4bhqp2rcd13ifvqhog","pricing_plan_id":"free"},{"bike_id":"83e40035-5ae5-4bb2-89ae-adf2ef147026","system_id":"levelo_inurba_marseille","lat":43.323665,"lon":5.388845,"is_reserved":false,"is_disabled":false,"rental_uris":{"android":"levelo://app?vid=83e40035-5ae5-4bb2-89ae-adf2ef147026","ios":"levelo://app?vid=83e40035-5ae5-4bb2-89ae-adf2ef147026"},"vehicle_type_id":"4","last_reported":1690999697,"current_range_meters":18000,"station_id":"","pricing_plan_id":"free"},{"bike_id":"ab036bf3-cc30-4bb4-8602-ea92cab90f9e","system_id":"levelo_inurba_marseille","lat":43.29602,"lon":5.381084,"is_reserved":false,"is_disabled":false,"rental_uris":{"android":"levelo://app?vid=ab036bf3-cc30-4bb4-8602-ea92cab90f9e","ios":"levelo://app?vid=ab036bf3-cc30-4bb4-8602-ea92cab90f9e"},"vehicle_type_id":"4","last_reported":1690999697,"current_range_meters":0,"station_id":"ce4bgl12rcd13ifvqbo0","pricing_plan_id":"free"},{"bike_id":"954545d6-a167-420a-8b0c-1ca7a3b6e2d1","system_id":"levelo_inurba_marseille","lat":43.29602,"lon":5.381084,"is_reserved":false,"is_disabled":false,"rental_uris":{"android":"levelo://app?vid=954545d6-a167-420a-8b0c-1ca7a3b6e2d1","ios":"levelo://app?vid=954545d6-a167-420a-8b0c-1ca7a3b6e2d1"},"vehicle_type_id":"4","last_reported":1690999697,"current_range_meters":15600,"station_id":"ce4bgl12rcd13ifvqbo0","pricing_plan_id":"free"},{"bike_id":"ef5d1edc-be2e-4323-93de-ada6a8e2aac3","system_id":"levelo_inurba_marseille","lat":43.32392,"lon":5.38936,"is_reserved":false,"is_disabled":false,"rental_uris":{"android":"levelo://app?vid=ef5d1edc-be2e-4323-93de-ada6a8e2aac3","ios":"levelo://app?vid=ef5d1edc-be2e-4323-93de-ada6a8e2aac3"},"vehicle_type_id":"4","last_reported":1690999697,"current_range_meters":26800,"station_id":"","pricing_plan_id":"free"},{"bike_id":"bcc9db18-5e2d-4b5b-8b90-8e40a2ef725a","system_id":"levelo_inurba_marseille","lat":43.292749,"lon":5.368398,"is_reserved":false,"is_disabled":false,"rental_uris":{"android":"levelo://app?vid=bcc9db18-5e2d-4b5b-8b90-8e40a2ef725a","ios":"levelo://app?vid=bcc9db18-5e2d-4b5b-8b90-8e40a2ef725a"},"vehicle_type_id":"4","last_reported":1690999697,"current_range_meters":26400,"station_id":"ce4bhbp2rcd13ifvqesg","pricing_plan_id":"free"},{"bike_id":"6f08551a-1323-40cf-bd9a-12c8e42a95fd","system_id":"levelo_inurba_marseille","lat":43.292749,"lon":5.368398,"is_reserved":false,"is_disabled":false,"rental_uris":{"android":"levelo://app?vid=6f08551a-1323-40cf-bd9a-12c8e42a95fd","ios":"levelo://app?vid=6f08551a-1323-40cf-bd9a-12c8e42a95fd"},"vehicle_type_id":"4","last_reported":1690999697,"current_range_meters":24400,"station_id":"ce4bhbp2rcd13ifvqesg","pricing_plan_id":"free"},{"bike_id":"b568bbdb-7c99-459b-9060-0190d502abca","system_id":"levelo_inurba_marseille","lat":43.293249,"lon":5.371578,"is_reserved":false,"is_disabled":false,"rental_uris":{"android":"levelo://app?vid=b568bbdb-7c99-459b-9060-0190d502abca","ios":"levelo://app?vid=b568bbdb-7c99-459b-9060-0190d502abca"},"vehicle_type_id":"4","last_reported":1690999697,"current_range_meters":20800,"station_id":"ce4bgh92rcd13ifvqb40","pricing_plan_id":"free"},{"bike_id":"27ae880b-f0d8-4967-b441-a20a0e5f3a71","system_id":"levelo_inurba_marseille","lat":43.292749,"lon":5.368398,"is_reserved":false,"is_disabled":false,"rental_uris":{"android":"levelo://app?vid=27ae880b-f0d8-4967-b441-a20a0e5f3a71","ios":"levelo://app?vid=27ae880b-f0d8-4967-b441-a20a0e5f3a71"},"vehicle_type_id":"4","last_reported":1690999697,"current_range_meters":0,"station_id":"ce4bhbp2rcd13ifvqesg","pricing_plan_id":"free"},{"bike_id":"b48da30e-0667-472d-bbd3-7da9bc015da5","system_id":"levelo_inurba_marseille","lat":43.292749,"lon":5.368398,"is_reserved":false,"is_disabled":false,"rental_uris":{"android":"levelo://app?vid=b48da30e-0667-472d-bbd3-7da9bc015da5","ios":"levelo://app?vid=b48da30e-0667-472d-bbd3-7da9bc015da5"},"vehicle_type_id":"4","last_reported":1690999697,"current_range_meters":22000,"station_id":"ce4bhbp2rcd13ifvqesg","pricing_plan_id":"free"},{"bike_id":"da6ac4be-f94b-4f06-8763-5322708d329c","system_id":"levelo_inurba_marseille","lat":43.293009,"lon":5.374584,"is_reserved":false,"is_disabled":false,"rental_uris":{"android":"levelo://app?vid=da6ac4be-f94b-4f06-8763-5322708d329c","ios":"levelo://app?vid=da6ac4be-f94b-4f06-8763-5322708d329c"},"vehicle_type_id":"4","last_reported":1690999697,"current_range_meters":14000,"station_id":"ce4bgi12rcd13ifvqb70","pricing_plan_id":"free"},{"bike_id":"b94182d7-1cc1-4442-99d1-661fdcc029e8","system_id":"levelo_inurba_marseille","lat":43.293009,"lon":5.374584,"is_reserved":false,"is_disabled":false,"rental_uris":{"android":"levelo://app?vid=b94182d7-1cc1-4442-99d1-661fdcc029e8","ios":"levelo://app?vid=b94182d7-1cc1-4442-99d1-661fdcc029e8"},"vehicle_type_id":"4","last_reported":1690999697,"current_range_meters":4400,"station_id":"ce4bgi12rcd13ifvqb70","pricing_plan_id":"free"},{"bike_id":"424b25ad-ec95-4a88-a9db-361c228cf5c1","system_id":"levelo_inurba_marseille","lat":43.293009,"lon":5.374584,"is_reserved":false,"is_disabled":false,"rental_uris":{"android":"levelo://app?vid=424b25ad-ec95-4a88-a9db-361c228cf5c1","ios":"levelo://app?vid=424b25ad-ec95-4a88-a9db-361c228cf5c1"},"vehicle_type_id":"4","last_reported":1690999697,"current_range_meters":10400,"station_id":"ce4bgi12rcd13ifvqb70","pricing_plan_id":"free"},{"bike_id":"2e685fd9-a930-4b07-8490-3c7ddc14ebbf","system_id":"levelo_inurba_marseille","lat":43.292311,"lon":5.360731,"is_reserved":false,"is_disabled":false,"rental_uris":{"android":"levelo://app?vid=2e685fd9-a930-4b07-8490-3c7ddc14ebbf","ios":"levelo://app?vid=2e685fd9-a930-4b07-8490-3c7ddc14ebbf"},"vehicle_type_id":"4","last_reported":1690999697,"current_range_meters":13200,"station_id":"ce4bhbh2rcd13ifvqeqg","pricing_plan_id":"free"},{"bike_id":"9fe0ba82-e80d-4485-b38a-af8a404f9771","system_id":"levelo_inurba_marseille","lat":43.30085,"lon":5.390856,"is_reserved":false,"is_disabled":false,"rental_uris":{"android":"levelo://app?vid=9fe0ba82-e80d-4485-b38a-af8a404f9771","ios":"levelo://app?vid=9fe0ba82-e80d-4485-b38a-af8a404f9771"},"vehicle_type_id":"4","last_reported":1690999697,"current_range_meters":30000,"station_id":"ce4bh192rcd13ifvqdb0","pricing_plan_id":"free"},{"bike_id":"6e949596-c6bb-4655-85a8-3c5c1bcc04e6","system_id":"levelo_inurba_marseille","lat":43.313291,"lon":5.396838,"is_reserved":false,"is_disabled":false,"rental_uris":{"android":"levelo://app?vid=6e949596-c6bb-4655-85a8-3c5c1bcc04e6","ios":"levelo://app?vid=6e949596-c6bb-4655-85a8-3c5c1bcc04e6"},"vehicle_type_id":"4","last_reported":1690999697,"current_range_meters":18000,"station_id":"ce4bgvp2rcd13ifvqcu0","pricing_plan_id":"free"},{"bike_id":"c09c8975-d248-4d31-b7d2-2d4c68423d0d","system_id":"levelo_inurba_marseille","lat":43.313292,"lon":5.396911,"is_reserved":false,"is_disabled":false,"rental_uris":{"android":"levelo://app?vid=c09c8975-d248-4d31-b7d2-2d4c68423d0d","ios":"levelo://app?vid=c09c8975-d248-4d31-b7d2-2d4c68423d0d"},"vehicle_type_id":"4","last_reported":1690999697,"current_range_meters":31200,"station_id":"ce4bgvp2rcd13ifvqcu0","pricing_plan_id":"free"},{"bike_id":"9e738493-7aeb-4f06-a3cb-ed615188c287","system_id":"levelo_inurba_marseille","lat":43.31329,"lon":5.39693,"is_reserved":false,"is_disabled":false,"rental_uris":{"android":"levelo://app?vid=9e738493-7aeb-4f06-a3cb-ed615188c287","ios":"levelo://app?vid=9e738493-7aeb-4f06-a3cb-ed615188c287"},"vehicle_type_id":"4","last_reported":1690999697,"current_range_meters":13200,"station_id":"ce4bgvp2rcd13ifvqcu0","pricing_plan_id":"free"},{"bike_id":"0f936b79-dd52-4c5d-ae95-d91f359f0671","system_id":"levelo_inurba_marseille","lat":43.31329,"lon":5.396942,"is_reserved":false,"is_disabled":false,"rental_uris":{"android":"levelo://app?vid=0f936b79-dd52-4c5d-ae95-d91f359f0671","ios":"levelo://app?vid=0f936b79-dd52-4c5d-ae95-d91f359f0671"},"vehicle_type_id":"4","last_reported":1690999697,"current_range_meters":2000,"station_id":"ce4bgvp2rcd13ifvqcu0","pricing_plan_id":"free"},{"bike_id":"0454ffce-87a0-40eb-a183-c6a4b3496905","system_id":"levelo_inurba_marseille","lat":43.313304,"lon":5.396968,"is_reserved":false,"is_disabled":false,"rental_uris":{"android":"levelo://app?vid=0454ffce-87a0-40eb-a183-c6a4b3496905","ios":"levelo://app?vid=0454ffce-87a0-40eb-a183-c6a4b3496905"},"vehicle_type_id":"4","last_reported":1690999697,"current_range_meters":31200,"station_id":"ce4bgvp2rcd13ifvqcu0","pricing_plan_id":"free"},{"bike_id":"d9998d54-4db0-45e2-b574-41c0c0a3c478","system_id":"levelo_inurba_marseille","lat":43.313303,"lon":5.396975,"is_reserved":false,"is_disabled":false,"rental_uris":{"android":"levelo://app?vid=d9998d54-4db0-45e2-b574-41c0c0a3c478","ios":"levelo://app?vid=d9998d54-4db0-45e2-b574-41c0c0a3c478"},"vehicle_type_id":"4","last_reported":1690999697,"current_range_meters":2000,"station_id":"ce4bgvp2rcd13ifvqcu0","pricing_plan_id":"free"},{"bike_id":"349efc1a-765c-4a41-88f9-78960b4b6afd","system_id":"levelo_inurba_marseille","lat":43.29529,"lon":5.385581,"is_reserved":false,"is_disabled":false,"rental_uris":{"android":"levelo://app?vid=349efc1a-765c-4a41-88f9-78960b4b6afd","ios":"levelo://app?vid=349efc1a-765c-4a41-88f9-78960b4b6afd"},"vehicle_type_id":"4","last_reported":1690999697,"current_range_meters":2800,"station_id":"ce4bgih2rcd13ifvqba0","pricing_plan_id":"free"},{"bike_id":"045b5635-3e35-4257-875d-ce80dfafb678","system_id":"levelo_inurba_marseille","lat":43.29529,"lon":5.385581,"is_reserved":false,"is_disabled":false,"rental_uris":{"android":"levelo://app?vid=045b5635-3e35-4257-875d-ce80dfafb678","ios":"levelo://app?vid=045b5635-3e35-4257-875d-ce80dfafb678"},"vehicle_type_id":"4","last_reported":1690999697,"current_range_meters":0,"station_id":"ce4bgih2rcd13ifvqba0","pricing_plan_id":"free"},{"bike_id":"f971a330-f745-4d8c-9d12-8d81361bd3d8","system_id":"levelo_inurba_marseille","lat":43.29529,"lon":5.385581,"is_reserved":false,"is_disabled":false,"rental_uris":{"android":"levelo://app?vid=f971a330-f745-4d8c-9d12-8d81361bd3d8","ios":"levelo://app?vid=f971a330-f745-4d8c-9d12-8d81361bd3d8"},"vehicle_type_id":"4","last_reported":1690999697,"current_range_meters":1200,"station_id":"ce4bgih2rcd13ifvqba0","pricing_plan_id":"free"},{"bike_id":"e0d47cb9-961d-42e5-a07f-a29d82c0b825","system_id":"levelo_inurba_marseille","lat":43.302008,"lon":5.394694,"is_reserved":false,"is_disabled":false,"rental_uris":{"android":"levelo://app?vid=e0d47cb9-961d-42e5-a07f-a29d82c0b825","ios":"levelo://app?vid=e0d47cb9-961d-42e5-a07f-a29d82c0b825"},"vehicle_type_id":"4","last_reported":1690999697,"current_range_meters":6800,"station_id":"ce4bh0p2rcd13ifvqd70","pricing_plan_id":"free"},{"bike_id":"b7dfbadf-ab04-4115-b300-d85fd96f478d","system_id":"levelo_inurba_marseille","lat":43.302008,"lon":5.394694,"is_reserved":false,"is_disabled":false,"rental_uris":{"android":"levelo://app?vid=b7dfbadf-ab04-4115-b300-d85fd96f478d","ios":"levelo://app?vid=b7dfbadf-ab04-4115-b300-d85fd96f478d"},"vehicle_type_id":"4","last_reported":1690999697,"current_range_meters":22400,"station_id":"ce4bh0p2rcd13ifvqd70","pricing_plan_id":"free"},{"bike_id":"32c39b74-62aa-4f1b-a045-15d119958c73","system_id":"levelo_inurba_marseille","lat":43.302008,"lon":5.394694,"is_reserved":false,"is_disabled":false,"rental_uris":{"android":"levelo://app?vid=32c39b74-62aa-4f1b-a045-15d119958c73","ios":"levelo://app?vid=32c39b74-62aa-4f1b-a045-15d119958c73"},"vehicle_type_id":"4","last_reported":1690999697,"current_range_meters":22000,"station_id":"ce4bh0p2rcd13ifvqd70","pricing_plan_id":"free"},{"bike_id":"17558579-f97e-434f-9c09-f1bade5559d6","system_id":"levelo_inurba_marseille","lat":43.294153,"lon":5.386305,"is_reserved":false,"is_disabled":false,"rental_uris":{"android":"levelo://app?vid=17558579-f97e-434f-9c09-f1bade5559d6","ios":"levelo://app?vid=17558579-f97e-434f-9c09-f1bade5559d6"},"vehicle_type_id":"4","last_reported":1690999697,"current_range_meters":10000,"station_id":"ce4bh2h2rcd13ifvqdh0","pricing_plan_id":"free"},{"bike_id":"71091923-ec37-4050-a945-f45a020a03ac","system_id":"levelo_inurba_marseille","lat":43.292642,"lon":5.384254,"is_reserved":false,"is_disabled":false,"rental_uris":{"android":"levelo://app?vid=71091923-ec37-4050-a945-f45a020a03ac","ios":"levelo://app?vid=71091923-ec37-4050-a945-f45a020a03ac"},"vehicle_type_id":"4","last_reported":1690999697,"current_range_meters":17600,"station_id":"ce4bh692rcd13ifvqea0","pricing_plan_id":"free"},{"bike_id":"d1a1de67-2c5b-45c2-bbce-06e701516df8","system_id":"levelo_inurba_marseille","lat":43.33039,"lon":5.38914,"is_reserved":false,"is_disabled":false,"rental_uris":{"android":"levelo://app?vid=d1a1de67-2c5b-45c2-bbce-06e701516df8","ios":"levelo://app?vid=d1a1de67-2c5b-45c2-bbce-06e701516df8"},"vehicle_type_id":"4","last_reported":1690999697,"current_range_meters":29200,"station_id":"ce4bhr92rcd13ifvqhrg","pricing_plan_id":"free"},{"bike_id":"05eb7167-1649-4b38-8503-b0d2e3456f24","system_id":"levelo_inurba_marseille","lat":43.33038,"lon":5.38918,"is_reserved":false,"is_disabled":false,"rental_uris":{"android":"levelo://app?vid=05eb7167-1649-4b38-8503-b0d2e3456f24","ios":"levelo://app?vid=05eb7167-1649-4b38-8503-b0d2e3456f24"},"vehicle_type_id":"4","last_reported":1690999697,"current_range_meters":30000,"station_id":"ce4bhr92rcd13ifvqhrg","pricing_plan_id":"free"},{"bike_id":"b2fde967-202b-4a83-b81d-3d2f7bafff45","system_id":"levelo_inurba_marseille","lat":43.33042,"lon":5.38915,"is_reserved":false,"is_disabled":false,"rental_uris":{"android":"levelo://app?vid=b2fde967-202b-4a83-b81d-3d2f7bafff45","ios":"levelo://app?vid=b2fde967-202b-4a83-b81d-3d2f7bafff45"},"vehicle_type_id":"4","last_reported":1690999697,"current_range_meters":30000,"station_id":"ce4bhr92rcd13ifvqhrg","pricing_plan_id":"free"},{"bike_id":"dad0ed44-e9a9-48b1-bc87-2f857af1931f","system_id":"levelo_inurba_marseille","lat":43.33048,"lon":5.38906,"is_reserved":false,"is_disabled":false,"rental_uris":{"android":"levelo://app?vid=dad0ed44-e9a9-48b1-bc87-2f857af1931f","ios":"levelo://app?vid=dad0ed44-e9a9-48b1-bc87-2f857af1931f"},"vehicle_type_id":"4","last_reported":1690999697,"current_range_meters":8800,"station_id":"ce4bhr92rcd13ifvqhrg","pricing_plan_id":"free"},{"bike_id":"7286e6da-f1f1-424a-87d2-7b8cacabe6a2","system_id":"levelo_inurba_marseille","lat":43.33044,"lon":5.38913,"is_reserved":false,"is_disabled":false,"rental_uris":{"android":"levelo://app?vid=7286e6da-f1f1-424a-87d2-7b8cacabe6a2","ios":"levelo://app?vid=7286e6da-f1f1-424a-87d2-7b8cacabe6a2"},"vehicle_type_id":"4","last_reported":1690999697,"current_range_meters":28800,"station_id":"ce4bhr92rcd13ifvqhrg","pricing_plan_id":"free"},{"bike_id":"2f2d42a2-8de0-405f-9429-d3eae654394c","system_id":"levelo_inurba_marseille","lat":43.33041,"lon":5.38918,"is_reserved":false,"is_disabled":false,"rental_uris":{"android":"levelo://app?vid=2f2d42a2-8de0-405f-9429-d3eae654394c","ios":"levelo://app?vid=2f2d42a2-8de0-405f-9429-d3eae654394c"},"vehicle_type_id":"4","last_reported":1690999697,"current_range_meters":30000,"station_id":"ce4bhr92rcd13ifvqhrg","pricing_plan_id":"free"},{"bike_id":"7f9a1bf7-b54b-40d0-8375-5835f592e844","system_id":"levelo_inurba_marseille","lat":43.33043,"lon":5.38916,"is_reserved":false,"is_disabled":false,"rental_uris":{"android":"levelo://app?vid=7f9a1bf7-b54b-40d0-8375-5835f592e844","ios":"levelo://app?vid=7f9a1bf7-b54b-40d0-8375-5835f592e844"},"vehicle_type_id":"4","last_reported":1690999697,"current_range_meters":31200,"station_id":"ce4bhr92rcd13ifvqhrg","pricing_plan_id":"free"},{"bike_id":"f67edc25-bcc7-41fb-8431-1add679b0933","system_id":"levelo_inurba_marseille","lat":43.33038,"lon":5.38924,"is_reserved":false,"is_disabled":false,"rental_uris":{"android":"levelo://app?vid=f67edc25-bcc7-41fb-8431-1add679b0933","ios":"levelo://app?vid=f67edc25-bcc7-41fb-8431-1add679b0933"},"vehicle_type_id":"4","last_reported":1690999697,"current_range_meters":29600,"station_id":"ce4bhr92rcd13ifvqhrg","pricing_plan_id":"free"},{"bike_id":"0b40da1c-c5a8-44b1-ae95-03a93c8bf4e2","system_id":"levelo_inurba_marseille","lat":43.33041,"lon":5.3892,"is_reserved":false,"is_disabled":false,"rental_uris":{"android":"levelo://app?vid=0b40da1c-c5a8-44b1-ae95-03a93c8bf4e2","ios":"levelo://app?vid=0b40da1c-c5a8-44b1-ae95-03a93c8bf4e2"},"vehicle_type_id":"4","last_reported":1690999697,"current_range_meters":22000,"station_id":"ce4bhr92rcd13ifvqhrg","pricing_plan_id":"free"},{"bike_id":"8795e432-c7a3-4d95-9fa9-9f904bfbcb4a","system_id":"levelo_inurba_marseille","lat":43.33043,"lon":5.38917,"is_reserved":false,"is_disabled":false,"rental_uris":{"android":"levelo://app?vid=8795e432-c7a3-4d95-9fa9-9f904bfbcb4a","ios":"levelo://app?vid=8795e432-c7a3-4d95-9fa9-9f904bfbcb4a"},"vehicle_type_id":"4","last_reported":1690999697,"current_range_meters":22400,"station_id":"ce4bhr92rcd13ifvqhrg","pricing_plan_id":"free"},{"bike_id":"45917de0-783e-4a1c-9fb6-137e403275ca","system_id":"levelo_inurba_marseille","lat":43.33045,"lon":5.38914,"is_reserved":false,"is_disabled":false,"rental_uris":{"android":"levelo://app?vid=45917de0-783e-4a1c-9fb6-137e403275ca","ios":"levelo://app?vid=45917de0-783e-4a1c-9fb6-137e403275ca"},"vehicle_type_id":"4","last_reported":1690999697,"current_range_meters":22800,"station_id":"ce4bhr92rcd13ifvqhrg","pricing_plan_id":"free"},{"bike_id":"20cf3f6d-acf4-4653-bf24-baa04253f77a","system_id":"levelo_inurba_marseille","lat":43.33043,"lon":5.38918,"is_reserved":false,"is_disabled":false,"rental_uris":{"android":"levelo://app?vid=20cf3f6d-acf4-4653-bf24-baa04253f77a","ios":"levelo://app?vid=20cf3f6d-acf4-4653-bf24-baa04253f77a"},"vehicle_type_id":"4","last_reported":1690999697,"current_range_meters":27600,"station_id":"ce4bhr92rcd13ifvqhrg","pricing_plan_id":"free"},{"bike_id":"a716ed66-8607-47f1-a4f4-b99eecc862cb","system_id":"levelo_inurba_marseille","lat":43.33041,"lon":5.38921,"is_reserved":false,"is_disabled":false,"rental_uris":{"android":"levelo://app?vid=a716ed66-8607-47f1-a4f4-b99eecc862cb","ios":"levelo://app?vid=a716ed66-8607-47f1-a4f4-b99eecc862cb"},"vehicle_type_id":"4","last_reported":1690999697,"current_range_meters":2800,"station_id":"ce4bhr92rcd13ifvqhrg","pricing_plan_id":"free"},{"bike_id":"1eca23e4-03bf-48c2-b77a-2e1c9c54ef87","system_id":"levelo_inurba_marseille","lat":43.33045,"lon":5.38915,"is_reserved":false,"is_disabled":false,"rental_uris":{"android":"levelo://app?vid=1eca23e4-03bf-48c2-b77a-2e1c9c54ef87","ios":"levelo://app?vid=1eca23e4-03bf-48c2-b77a-2e1c9c54ef87"},"vehicle_type_id":"4","last_reported":1690999697,"current_range_meters":30800,"station_id":"ce4bhr92rcd13ifvqhrg","pricing_plan_id":"free"},{"bike_id":"1f66c3db-c528-4a84-8843-30e848de60e9","system_id":"levelo_inurba_marseille","lat":43.33045,"lon":5.38915,"is_reserved":false,"is_disabled":false,"rental_uris":{"android":"levelo://app?vid=1f66c3db-c528-4a84-8843-30e848de60e9","ios":"levelo://app?vid=1f66c3db-c528-4a84-8843-30e848de60e9"},"vehicle_type_id":"4","last_reported":1690999697,"current_range_meters":30400,"station_id":"ce4bhr92rcd13ifvqhrg","pricing_plan_id":"free"},{"bike_id":"9a9d26d5-7d2a-40b6-a299-b7c810d6dd15","system_id":"levelo_inurba_marseille","lat":43.33044,"lon":5.38917,"is_reserved":false,"is_disabled":false,"rental_uris":{"android":"levelo://app?vid=9a9d26d5-7d2a-40b6-a299-b7c810d6dd15","ios":"levelo://app?vid=9a9d26d5-7d2a-40b6-a299-b7c810d6dd15"},"vehicle_type_id":"4","last_reported":1690999697,"current_range_meters":30800,"station_id":"ce4bhr92rcd13ifvqhrg","pricing_plan_id":"free"},{"bike_id":"6951de4c-0f1d-40e8-949e-f54f8f75185d","system_id":"levelo_inurba_marseille","lat":43.33045,"lon":5.38916,"is_reserved":false,"is_disabled":false,"rental_uris":{"android":"levelo://app?vid=6951de4c-0f1d-40e8-949e-f54f8f75185d","ios":"levelo://app?vid=6951de4c-0f1d-40e8-949e-f54f8f75185d"},"vehicle_type_id":"4","last_reported":1690999697,"current_range_meters":12400,"station_id":"ce4bhr92rcd13ifvqhrg","pricing_plan_id":"free"},{"bike_id":"5554be9e-ea6d-448b-a933-772bf8ca7cdf","system_id":"levelo_inurba_marseille","lat":43.33042,"lon":5.38921,"is_reserved":false,"is_disabled":false,"rental_uris":{"android":"levelo://app?vid=5554be9e-ea6d-448b-a933-772bf8ca7cdf","ios":"levelo://app?vid=5554be9e-ea6d-448b-a933-772bf8ca7cdf"},"vehicle_type_id":"4","last_reported":1690999697,"current_range_meters":30400,"station_id":"ce4bhr92rcd13ifvqhrg","pricing_plan_id":"free"},{"bike_id":"00b2dcdc-2882-40a1-9132-89c3ec15cf18","system_id":"levelo_inurba_marseille","lat":43.330417,"lon":5.389215,"is_reserved":false,"is_disabled":false,"rental_uris":{"android":"levelo://app?vid=00b2dcdc-2882-40a1-9132-89c3ec15cf18","ios":"levelo://app?vid=00b2dcdc-2882-40a1-9132-89c3ec15cf18"},"vehicle_type_id":"4","last_reported":1690999697,"current_range_meters":27600,"station_id":"ce4bhr92rcd13ifvqhrg","pricing_plan_id":"free"},{"bike_id":"7ebbf3c4-154a-4b73-9a8a-d0fb0ca4427f","system_id":"levelo_inurba_marseille","lat":43.33045,"lon":5.38917,"is_reserved":false,"is_disabled":false,"rental_uris":{"android":"levelo://app?vid=7ebbf3c4-154a-4b73-9a8a-d0fb0ca4427f","ios":"levelo://app?vid=7ebbf3c4-154a-4b73-9a8a-d0fb0ca4427f"},"vehicle_type_id":"4","last_reported":1690999697,"current_range_meters":22400,"station_id":"ce4bhr92rcd13ifvqhrg","pricing_plan_id":"free"},{"bike_id":"d3ac0a03-be90-4568-af95-f5097d0fb3ba","system_id":"levelo_inurba_marseille","lat":43.33042,"lon":5.38926,"is_reserved":false,"is_disabled":false,"rental_uris":{"android":"levelo://app?vid=d3ac0a03-be90-4568-af95-f5097d0fb3ba","ios":"levelo://app?vid=d3ac0a03-be90-4568-af95-f5097d0fb3ba"},"vehicle_type_id":"4","last_reported":1690999697,"current_range_meters":29600,"station_id":"ce4bhr92rcd13ifvqhrg","pricing_plan_id":"free"},{"bike_id":"134ef223-0af9-48f2-bbd1-4d84dd8cb35c","system_id":"levelo_inurba_marseille","lat":43.290104,"lon":5.356111,"is_reserved":false,"is_disabled":false,"rental_uris":{"android":"levelo://app?vid=134ef223-0af9-48f2-bbd1-4d84dd8cb35c","ios":"levelo://app?vid=134ef223-0af9-48f2-bbd1-4d84dd8cb35c"},"vehicle_type_id":"4","last_reported":1690999697,"current_range_meters":31200,"station_id":"ce4bhb92rcd13ifvqen0","pricing_plan_id":"free"},{"bike_id":"23648d22-f9b6-43dc-8595-3d25914f850f","system_id":"levelo_inurba_marseille","lat":43.290103,"lon":5.356114,"is_reserved":false,"is_disabled":false,"rental_uris":{"android":"levelo://app?vid=23648d22-f9b6-43dc-8595-3d25914f850f","ios":"levelo://app?vid=23648d22-f9b6-43dc-8595-3d25914f850f"},"vehicle_type_id":"4","last_reported":1690999697,"current_range_meters":31600,"station_id":"ce4bhb92rcd13ifvqen0","pricing_plan_id":"free"},{"bike_id":"05bf2cc0-c80b-4d3b-9303-5cea93148e89","system_id":"levelo_inurba_marseille","lat":43.290995,"lon":5.381361,"is_reserved":false,"is_disabled":false,"rental_uris":{"android":"levelo://app?vid=05bf2cc0-c80b-4d3b-9303-5cea93148e89","ios":"levelo://app?vid=05bf2cc0-c80b-4d3b-9303-5cea93148e89"},"vehicle_type_id":"4","last_reported":1690999697,"current_range_meters":31200,"station_id":"ce4bh512rcd13ifvqe2g","pricing_plan_id":"free"},{"bike_id":"c097505d-c622-4ede-a47b-d4b5c677b5d3","system_id":"levelo_inurba_marseille","lat":43.295169,"lon":5.390426,"is_reserved":false,"is_disabled":false,"rental_uris":{"android":"levelo://app?vid=c097505d-c622-4ede-a47b-d4b5c677b5d3","ios":"levelo://app?vid=c097505d-c622-4ede-a47b-d4b5c677b5d3"},"vehicle_type_id":"4","last_reported":1690999697,"current_range_meters":12800,"station_id":"ce4bh3p2rcd13ifvqdp0","pricing_plan_id":"free"},{"bike_id":"1d37fa71-0d28-41e3-be3f-4391e80b0306","system_id":"levelo_inurba_marseille","lat":43.295169,"lon":5.390426,"is_reserved":false,"is_disabled":false,"rental_uris":{"android":"levelo://app?vid=1d37fa71-0d28-41e3-be3f-4391e80b0306","ios":"levelo://app?vid=1d37fa71-0d28-41e3-be3f-4391e80b0306"},"vehicle_type_id":"4","last_reported":1690999697,"current_range_meters":12400,"station_id":"ce4bh3p2rcd13ifvqdp0","pricing_plan_id":"free"},{"bike_id":"b39b99f2-b9cc-4019-b75e-31b8fd6e474d","system_id":"levelo_inurba_marseille","lat":43.289753,"lon":5.378378,"is_reserved":false,"is_disabled":false,"rental_uris":{"android":"levelo://app?vid=b39b99f2-b9cc-4019-b75e-31b8fd6e474d","ios":"levelo://app?vid=b39b99f2-b9cc-4019-b75e-31b8fd6e474d"},"vehicle_type_id":"4","last_reported":1690999697,"current_range_meters":14400,"station_id":"ce4bh9p2rcd13ifvqed0","pricing_plan_id":"free"},{"bike_id":"9569cf06-fa68-43a2-9ba4-94f75b1dbb79","system_id":"levelo_inurba_marseille","lat":43.295169,"lon":5.390426,"is_reserved":false,"is_disabled":false,"rental_uris":{"android":"levelo://app?vid=9569cf06-fa68-43a2-9ba4-94f75b1dbb79","ios":"levelo://app?vid=9569cf06-fa68-43a2-9ba4-94f75b1dbb79"},"vehicle_type_id":"4","last_reported":1690999697,"current_range_meters":0,"station_id":"ce4bh3p2rcd13ifvqdp0","pricing_plan_id":"free"},{"bike_id":"33d9cd18-53fd-4ffb-bcfc-fb36e4fcc66b","system_id":"levelo_inurba_marseille","lat":43.312609,"lon":5.401662,"is_reserved":false,"is_disabled":false,"rental_uris":{"android":"levelo://app?vid=33d9cd18-53fd-4ffb-bcfc-fb36e4fcc66b","ios":"levelo://app?vid=33d9cd18-53fd-4ffb-bcfc-fb36e4fcc66b"},"vehicle_type_id":"4","last_reported":1690999697,"current_range_meters":31600,"station_id":"ce4bh092rcd13ifvqd30","pricing_plan_id":"free"},{"bike_id":"65541c74-80d0-49cb-8358-7e5ecc173c80","system_id":"levelo_inurba_marseille","lat":43.31276,"lon":5.40173,"is_reserved":false,"is_disabled":false,"rental_uris":{"android":"levelo://app?vid=65541c74-80d0-49cb-8358-7e5ecc173c80","ios":"levelo://app?vid=65541c74-80d0-49cb-8358-7e5ecc173c80"},"vehicle_type_id":"4","last_reported":1690999697,"current_range_meters":31200,"station_id":"ce4bh092rcd13ifvqd30","pricing_plan_id":"free"},{"bike_id":"09d4bb8a-ffca-4966-9f2e-e2dbbc8f467c","system_id":"levelo_inurba_marseille","lat":43.30147,"lon":5.39852,"is_reserved":false,"is_disabled":false,"rental_uris":{"android":"levelo://app?vid=09d4bb8a-ffca-4966-9f2e-e2dbbc8f467c","ios":"levelo://app?vid=09d4bb8a-ffca-4966-9f2e-e2dbbc8f467c"},"vehicle_type_id":"4","last_reported":1690999697,"current_range_meters":4800,"station_id":"ce4bh0h2rcd13ifvqd40","pricing_plan_id":"free"},{"bike_id":"fff16fcf-d715-46ea-97e5-845920f50c41","system_id":"levelo_inurba_marseille","lat":43.301117,"lon":5.398795,"is_reserved":false,"is_disabled":false,"rental_uris":{"android":"levelo://app?vid=fff16fcf-d715-46ea-97e5-845920f50c41","ios":"levelo://app?vid=fff16fcf-d715-46ea-97e5-845920f50c41"},"vehicle_type_id":"4","last_reported":1690999697,"current_range_meters":26800,"station_id":"ce4bh0h2rcd13ifvqd40","pricing_plan_id":"free"},{"bike_id":"5d13179a-cb94-4e1a-87bd-4d99ac243b42","system_id":"levelo_inurba_marseille","lat":43.301117,"lon":5.398795,"is_reserved":false,"is_disabled":false,"rental_uris":{"android":"levelo://app?vid=5d13179a-cb94-4e1a-87bd-4d99ac243b42","ios":"levelo://app?vid=5d13179a-cb94-4e1a-87bd-4d99ac243b42"},"vehicle_type_id":"4","last_reported":1690999697,"current_range_meters":3600,"station_id":"ce4bh0h2rcd13ifvqd40","pricing_plan_id":"free"},{"bike_id":"e7e1e49b-412e-4d1c-ad2c-5e031b999152","system_id":"levelo_inurba_marseille","lat":43.301117,"lon":5.398795,"is_reserved":false,"is_disabled":false,"rental_uris":{"android":"levelo://app?vid=e7e1e49b-412e-4d1c-ad2c-5e031b999152","ios":"levelo://app?vid=e7e1e49b-412e-4d1c-ad2c-5e031b999152"},"vehicle_type_id":"4","last_reported":1690999697,"current_range_meters":3600,"station_id":"ce4bh0h2rcd13ifvqd40","pricing_plan_id":"free"},{"bike_id":"edebce65-8e80-4e04-bb26-f632e1e33c26","system_id":"levelo_inurba_marseille","lat":43.298681,"lon":5.397225,"is_reserved":false,"is_disabled":false,"rental_uris":{"android":"levelo://app?vid=edebce65-8e80-4e04-bb26-f632e1e33c26","ios":"levelo://app?vid=edebce65-8e80-4e04-bb26-f632e1e33c26"},"vehicle_type_id":"4","last_reported":1690999697,"current_range_meters":3600,"station_id":"ce4bh0h2rcd13ifvqd50","pricing_plan_id":"free"},{"bike_id":"75199276-b705-4ad7-b6a9-49aeaa84628a","system_id":"levelo_inurba_marseille","lat":43.286593,"lon":5.363346,"is_reserved":false,"is_disabled":false,"rental_uris":{"android":"levelo://app?vid=75199276-b705-4ad7-b6a9-49aeaa84628a","ios":"levelo://app?vid=75199276-b705-4ad7-b6a9-49aeaa84628a"},"vehicle_type_id":"4","last_reported":1690999697,"current_range_meters":31200,"station_id":"ce4bhah2rcd13ifvqej0","pricing_plan_id":"free"},{"bike_id":"f79223f4-59fd-40ce-8b38-27fb5002816e","system_id":"levelo_inurba_marseille","lat":43.286961,"lon":5.373785,"is_reserved":false,"is_disabled":false,"rental_uris":{"android":"levelo://app?vid=f79223f4-59fd-40ce-8b38-27fb5002816e","ios":"levelo://app?vid=f79223f4-59fd-40ce-8b38-27fb5002816e"},"vehicle_type_id":"4","last_reported":1690999697,"current_range_meters":24800,"station_id":"ce4bh3p2rcd13ifvqdq0","pricing_plan_id":"free"},{"bike_id":"79db33e5-e507-4113-89f3-6380a25bd7cb","system_id":"levelo_inurba_marseille","lat":43.302759,"lon":5.400793,"is_reserved":false,"is_disabled":false,"rental_uris":{"android":"levelo://app?vid=79db33e5-e507-4113-89f3-6380a25bd7cb","ios":"levelo://app?vid=79db33e5-e507-4113-89f3-6380a25bd7cb"},"vehicle_type_id":"4","last_reported":1690999697,"current_range_meters":23200,"station_id":"ce4bgvh2rcd13ifvqcs0","pricing_plan_id":"free"},{"bike_id":"33c3a4f6-0b6e-4271-841f-67f2fb9c5b2b","system_id":"levelo_inurba_marseille","lat":43.286039,"lon":5.370679,"is_reserved":false,"is_disabled":false,"rental_uris":{"android":"levelo://app?vid=33c3a4f6-0b6e-4271-841f-67f2fb9c5b2b","ios":"levelo://app?vid=33c3a4f6-0b6e-4271-841f-67f2fb9c5b2b"},"vehicle_type_id":"4","last_reported":1690999697,"current_range_meters":11600,"station_id":"ce4bht12rcd13ifvqi60","pricing_plan_id":"free"},{"bike_id":"91137ad6-3c38-4bff-98a6-c5f9288191d5","system_id":"levelo_inurba_marseille","lat":43.286039,"lon":5.370679,"is_reserved":false,"is_disabled":false,"rental_uris":{"android":"levelo://app?vid=91137ad6-3c38-4bff-98a6-c5f9288191d5","ios":"levelo://app?vid=91137ad6-3c38-4bff-98a6-c5f9288191d5"},"vehicle_type_id":"4","last_reported":1690999697,"current_range_meters":20400,"station_id":"ce4bht12rcd13ifvqi60","pricing_plan_id":"free"},{"bike_id":"ce673f72-b004-4d57-bcc6-85944adb6c06","system_id":"levelo_inurba_marseille","lat":43.286039,"lon":5.370679,"is_reserved":false,"is_disabled":false,"rental_uris":{"android":"levelo://app?vid=ce673f72-b004-4d57-bcc6-85944adb6c06","ios":"levelo://app?vid=ce673f72-b004-4d57-bcc6-85944adb6c06"},"vehicle_type_id":"4","last_reported":1690999697,"current_range_meters":12800,"station_id":"ce4bht12rcd13ifvqi60","pricing_plan_id":"free"},{"bike_id":"17336c82-a448-4884-a7b0-ed64f672c7f8","system_id":"levelo_inurba_marseille","lat":43.286039,"lon":5.370681,"is_reserved":false,"is_disabled":false,"rental_uris":{"android":"levelo://app?vid=17336c82-a448-4884-a7b0-ed64f672c7f8","ios":"levelo://app?vid=17336c82-a448-4884-a7b0-ed64f672c7f8"},"vehicle_type_id":"4","last_reported":1690999697,"current_range_meters":11200,"station_id":"ce4bht12rcd13ifvqi60","pricing_plan_id":"free"},{"bike_id":"8c2ac60e-9be1-4563-af88-c1ff8aaedac5","system_id":"levelo_inurba_marseille","lat":43.287184,"lon":5.37937,"is_reserved":false,"is_disabled":false,"rental_uris":{"android":"levelo://app?vid=8c2ac60e-9be1-4563-af88-c1ff8aaedac5","ios":"levelo://app?vid=8c2ac60e-9be1-4563-af88-c1ff8aaedac5"},"vehicle_type_id":"4","last_reported":1690999697,"current_range_meters":25600,"station_id":"ce4bh9p2rcd13ifvqec0","pricing_plan_id":"free"},{"bike_id":"f5b95cf3-e90d-4f4b-a39d-f13c4356d0c0","system_id":"levelo_inurba_marseille","lat":43.287185,"lon":5.379373,"is_reserved":false,"is_disabled":false,"rental_uris":{"android":"levelo://app?vid=f5b95cf3-e90d-4f4b-a39d-f13c4356d0c0","ios":"levelo://app?vid=f5b95cf3-e90d-4f4b-a39d-f13c4356d0c0"},"vehicle_type_id":"4","last_reported":1690999697,"current_range_meters":9600,"station_id":"ce4bh9p2rcd13ifvqec0","pricing_plan_id":"free"},{"bike_id":"361e4547-1d01-4390-86fe-3863197daf03","system_id":"levelo_inurba_marseille","lat":43.287184,"lon":5.37937,"is_reserved":false,"is_disabled":false,"rental_uris":{"android":"levelo://app?vid=361e4547-1d01-4390-86fe-3863197daf03","ios":"levelo://app?vid=361e4547-1d01-4390-86fe-3863197daf03"},"vehicle_type_id":"4","last_reported":1690999697,"current_range_meters":4000,"station_id":"ce4bh9p2rcd13ifvqec0","pricing_plan_id":"free"},{"bike_id":"115ec360-05aa-4fb4-8dea-e514bdbd2089","system_id":"levelo_inurba_marseille","lat":43.31648,"lon":5.40429,"is_reserved":false,"is_disabled":false,"rental_uris":{"android":"levelo://app?vid=115ec360-05aa-4fb4-8dea-e514bdbd2089","ios":"levelo://app?vid=115ec360-05aa-4fb4-8dea-e514bdbd2089"},"vehicle_type_id":"4","last_reported":1690999697,"current_range_meters":24400,"station_id":"ce4bh012rcd13ifvqd00","pricing_plan_id":"free"},{"bike_id":"a0b1f867-de5e-4b5b-a94f-ac3766b67bae","system_id":"levelo_inurba_marseille","lat":43.31643,"lon":5.4043,"is_reserved":false,"is_disabled":false,"rental_uris":{"android":"levelo://app?vid=a0b1f867-de5e-4b5b-a94f-ac3766b67bae","ios":"levelo://app?vid=a0b1f867-de5e-4b5b-a94f-ac3766b67bae"},"vehicle_type_id":"4","last_reported":1690999697,"current_range_meters":9200,"station_id":"ce4bh012rcd13ifvqd00","pricing_plan_id":"free"},{"bike_id":"7ce180e9-bd5d-4c9c-8f99-4c6521c30da4","system_id":"levelo_inurba_marseille","lat":43.31643,"lon":5.40433,"is_reserved":false,"is_disabled":false,"rental_uris":{"android":"levelo://app?vid=7ce180e9-bd5d-4c9c-8f99-4c6521c30da4","ios":"levelo://app?vid=7ce180e9-bd5d-4c9c-8f99-4c6521c30da4"},"vehicle_type_id":"4","last_reported":1690999697,"current_range_meters":25200,"station_id":"ce4bh012rcd13ifvqd00","pricing_plan_id":"free"},{"bike_id":"992d4d46-9f22-439a-ba60-77868c399592","system_id":"levelo_inurba_marseille","lat":43.316517,"lon":5.404375,"is_reserved":false,"is_disabled":false,"rental_uris":{"android":"levelo://app?vid=992d4d46-9f22-439a-ba60-77868c399592","ios":"levelo://app?vid=992d4d46-9f22-439a-ba60-77868c399592"},"vehicle_type_id":"4","last_reported":1690999697,"current_range_meters":29600,"station_id":"ce4bh012rcd13ifvqd00","pricing_plan_id":"free"},{"bike_id":"3d61ae8c-21bb-4cda-9643-7ca57d4f6f41","system_id":"levelo_inurba_marseille","lat":43.316483,"lon":5.404338,"is_reserved":false,"is_disabled":false,"rental_uris":{"android":"levelo://app?vid=3d61ae8c-21bb-4cda-9643-7ca57d4f6f41","ios":"levelo://app?vid=3d61ae8c-21bb-4cda-9643-7ca57d4f6f41"},"vehicle_type_id":"4","last_reported":1690999697,"current_range_meters":31200,"station_id":"ce4bh012rcd13ifvqd00","pricing_plan_id":"free"},{"bike_id":"7eeb9539-a218-46fa-8215-75ee860772be","system_id":"levelo_inurba_marseille","lat":43.31642,"lon":5.40436,"is_reserved":false,"is_disabled":false,"rental_uris":{"android":"levelo://app?vid=7eeb9539-a218-46fa-8215-75ee860772be","ios":"levelo://app?vid=7eeb9539-a218-46fa-8215-75ee860772be"},"vehicle_type_id":"4","last_reported":1690999697,"current_range_meters":29200,"station_id":"ce4bh012rcd13ifvqd00","pricing_plan_id":"free"},{"bike_id":"7aff8911-bbda-4eea-861f-b4dd91d44ecb","system_id":"levelo_inurba_marseille","lat":43.31644,"lon":5.40436,"is_reserved":false,"is_disabled":false,"rental_uris":{"android":"levelo://app?vid=7aff8911-bbda-4eea-861f-b4dd91d44ecb","ios":"levelo://app?vid=7aff8911-bbda-4eea-861f-b4dd91d44ecb"},"vehicle_type_id":"4","last_reported":1690999697,"current_range_meters":14400,"station_id":"ce4bh012rcd13ifvqd00","pricing_plan_id":"free"},{"bike_id":"319b67a5-c642-4797-8c02-6eb0ecc259ea","system_id":"levelo_inurba_marseille","lat":43.31646,"lon":5.40436,"is_reserved":false,"is_disabled":false,"rental_uris":{"android":"levelo://app?vid=319b67a5-c642-4797-8c02-6eb0ecc259ea","ios":"levelo://app?vid=319b67a5-c642-4797-8c02-6eb0ecc259ea"},"vehicle_type_id":"4","last_reported":1690999697,"current_range_meters":22000,"station_id":"ce4bh012rcd13ifvqd00","pricing_plan_id":"free"},{"bike_id":"99b07d52-006c-428c-87c8-3eaf3e1ab7cd","system_id":"levelo_inurba_marseille","lat":43.31652,"lon":5.40442,"is_reserved":false,"is_disabled":false,"rental_uris":{"android":"levelo://app?vid=99b07d52-006c-428c-87c8-3eaf3e1ab7cd","ios":"levelo://app?vid=99b07d52-006c-428c-87c8-3eaf3e1ab7cd"},"vehicle_type_id":"4","last_reported":1690999697,"current_range_meters":29200,"station_id":"ce4bh012rcd13ifvqd00","pricing_plan_id":"free"},{"bike_id":"b9763b52-32e1-4bd7-8a66-7c09db0651bb","system_id":"levelo_inurba_marseille","lat":43.31642,"lon":5.40448,"is_reserved":false,"is_disabled":false,"rental_uris":{"android":"levelo://app?vid=b9763b52-32e1-4bd7-8a66-7c09db0651bb","ios":"levelo://app?vid=b9763b52-32e1-4bd7-8a66-7c09db0651bb"},"vehicle_type_id":"4","last_reported":1690999697,"current_range_meters":30800,"station_id":"ce4bh012rcd13ifvqd00","pricing_plan_id":"free"},{"bike_id":"92088e9c-004b-4362-a43e-8d01f94b4d67","system_id":"levelo_inurba_marseille","lat":43.291994,"lon":5.392907,"is_reserved":false,"is_disabled":false,"rental_uris":{"android":"levelo://app?vid=92088e9c-004b-4362-a43e-8d01f94b4d67","ios":"levelo://app?vid=92088e9c-004b-4362-a43e-8d01f94b4d67"},"vehicle_type_id":"4","last_reported":1690999697,"current_range_meters":17200,"station_id":"ce4bh192rcd13ifvqdd0","pricing_plan_id":"free"},{"bike_id":"99ef77c8-5f24-48f8-b499-d5f3fc911ee4","system_id":"levelo_inurba_marseille","lat":43.29244,"lon":5.39414,"is_reserved":false,"is_disabled":false,"rental_uris":{"android":"levelo://app?vid=99ef77c8-5f24-48f8-b499-d5f3fc911ee4","ios":"levelo://app?vid=99ef77c8-5f24-48f8-b499-d5f3fc911ee4"},"vehicle_type_id":"4","last_reported":1690999697,"current_range_meters":22400,"station_id":"","pricing_plan_id":"free"},{"bike_id":"3d88e7ce-600d-4d7c-9a8b-e3a5b41e7568","system_id":"levelo_inurba_marseille","lat":43.294314,"lon":5.397498,"is_reserved":false,"is_disabled":false,"rental_uris":{"android":"levelo://app?vid=3d88e7ce-600d-4d7c-9a8b-e3a5b41e7568","ios":"levelo://app?vid=3d88e7ce-600d-4d7c-9a8b-e3a5b41e7568"},"vehicle_type_id":"4","last_reported":1690999697,"current_range_meters":0,"station_id":"ce4bh3h2rcd13ifvqdo0","pricing_plan_id":"free"},{"bike_id":"3ae60d85-5e17-4e56-8c72-ea44294e020d","system_id":"levelo_inurba_marseille","lat":43.294314,"lon":5.397498,"is_reserved":false,"is_disabled":false,"rental_uris":{"android":"levelo://app?vid=3ae60d85-5e17-4e56-8c72-ea44294e020d","ios":"levelo://app?vid=3ae60d85-5e17-4e56-8c72-ea44294e020d"},"vehicle_type_id":"4","last_reported":1690999697,"current_range_meters":3600,"station_id":"ce4bh3h2rcd13ifvqdo0","pricing_plan_id":"free"},{"bike_id":"0a00c63f-d54e-4011-85ac-045834c4a390","system_id":"levelo_inurba_marseille","lat":43.285856,"lon":5.350771,"is_reserved":false,"is_disabled":false,"rental_uris":{"android":"levelo://app?vid=0a00c63f-d54e-4011-85ac-045834c4a390","ios":"levelo://app?vid=0a00c63f-d54e-4011-85ac-045834c4a390"},"vehicle_type_id":"4","last_reported":1690999697,"current_range_meters":25200,"station_id":"ce4bhch2rcd13ifvqeug","pricing_plan_id":"free"},{"bike_id":"a61fee45-0881-46f7-a563-d5c5105e6fd1","system_id":"levelo_inurba_marseille","lat":43.285856,"lon":5.350771,"is_reserved":false,"is_disabled":false,"rental_uris":{"android":"levelo://app?vid=a61fee45-0881-46f7-a563-d5c5105e6fd1","ios":"levelo://app?vid=a61fee45-0881-46f7-a563-d5c5105e6fd1"},"vehicle_type_id":"4","last_reported":1690999697,"current_range_meters":4400,"station_id":"ce4bhch2rcd13ifvqeug","pricing_plan_id":"free"},{"bike_id":"c0a5cb1c-8cfb-4f09-9aed-6774c48f4a0c","system_id":"levelo_inurba_marseille","lat":43.285856,"lon":5.350771,"is_reserved":false,"is_disabled":false,"rental_uris":{"android":"levelo://app?vid=c0a5cb1c-8cfb-4f09-9aed-6774c48f4a0c","ios":"levelo://app?vid=c0a5cb1c-8cfb-4f09-9aed-6774c48f4a0c"},"vehicle_type_id":"4","last_reported":1690999697,"current_range_meters":8000,"station_id":"ce4bhch2rcd13ifvqeug","pricing_plan_id":"free"},{"bike_id":"fb374f3d-da4d-41d3-a3fc-3eeb810dce06","system_id":"levelo_inurba_marseille","lat":43.28614,"lon":5.35104,"is_reserved":false,"is_disabled":false,"rental_uris":{"android":"levelo://app?vid=fb374f3d-da4d-41d3-a3fc-3eeb810dce06","ios":"levelo://app?vid=fb374f3d-da4d-41d3-a3fc-3eeb810dce06"},"vehicle_type_id":"4","last_reported":1690999697,"current_range_meters":1600,"station_id":"ce4bhch2rcd13ifvqeug","pricing_plan_id":"free"},{"bike_id":"40fd344c-4db1-4e06-8ed3-7f9ec2c6c81b","system_id":"levelo_inurba_marseille","lat":43.28613,"lon":5.35107,"is_reserved":false,"is_disabled":false,"rental_uris":{"android":"levelo://app?vid=40fd344c-4db1-4e06-8ed3-7f9ec2c6c81b","ios":"levelo://app?vid=40fd344c-4db1-4e06-8ed3-7f9ec2c6c81b"},"vehicle_type_id":"4","last_reported":1690999697,"current_range_meters":7200,"station_id":"ce4bhch2rcd13ifvqeug","pricing_plan_id":"free"},{"bike_id":"5eb91bac-3c2b-40ee-acdb-1ada439dde08","system_id":"levelo_inurba_marseille","lat":43.285856,"lon":5.350771,"is_reserved":false,"is_disabled":false,"rental_uris":{"android":"levelo://app?vid=5eb91bac-3c2b-40ee-acdb-1ada439dde08","ios":"levelo://app?vid=5eb91bac-3c2b-40ee-acdb-1ada439dde08"},"vehicle_type_id":"4","last_reported":1690999697,"current_range_meters":9200,"station_id":"ce4bhch2rcd13ifvqeug","pricing_plan_id":"free"},{"bike_id":"73b7833e-c4b3-4f69-9980-532adafcba19","system_id":"levelo_inurba_marseille","lat":43.28614,"lon":5.35097,"is_reserved":false,"is_disabled":false,"rental_uris":{"android":"levelo://app?vid=73b7833e-c4b3-4f69-9980-532adafcba19","ios":"levelo://app?vid=73b7833e-c4b3-4f69-9980-532adafcba19"},"vehicle_type_id":"4","last_reported":1690999697,"current_range_meters":3200,"station_id":"ce4bhch2rcd13ifvqeug","pricing_plan_id":"free"},{"bike_id":"932ee975-ec08-4ef8-a745-a10aa8dd60c0","system_id":"levelo_inurba_marseille","lat":43.283998,"lon":5.375062,"is_reserved":false,"is_disabled":false,"rental_uris":{"android":"levelo://app?vid=932ee975-ec08-4ef8-a745-a10aa8dd60c0","ios":"levelo://app?vid=932ee975-ec08-4ef8-a745-a10aa8dd60c0"},"vehicle_type_id":"4","last_reported":1690999697,"current_range_meters":0,"station_id":"ce4bh412rcd13ifvqds0","pricing_plan_id":"free"},{"bike_id":"966cd79e-c406-405e-a939-ce24b852cafb","system_id":"levelo_inurba_marseille","lat":43.283998,"lon":5.375062,"is_reserved":false,"is_disabled":false,"rental_uris":{"android":"levelo://app?vid=966cd79e-c406-405e-a939-ce24b852cafb","ios":"levelo://app?vid=966cd79e-c406-405e-a939-ce24b852cafb"},"vehicle_type_id":"4","last_reported":1690999697,"current_range_meters":20000,"station_id":"ce4bh412rcd13ifvqds0","pricing_plan_id":"free"},{"bike_id":"aebbc4c9-7b4d-4adf-9773-ea64790714b9","system_id":"levelo_inurba_marseille","lat":43.283998,"lon":5.375062,"is_reserved":false,"is_disabled":false,"rental_uris":{"android":"levelo://app?vid=aebbc4c9-7b4d-4adf-9773-ea64790714b9","ios":"levelo://app?vid=aebbc4c9-7b4d-4adf-9773-ea64790714b9"},"vehicle_type_id":"4","last_reported":1690999697,"current_range_meters":28400,"station_id":"ce4bh412rcd13ifvqds0","pricing_plan_id":"free"},{"bike_id":"2052cfe5-e307-42d4-98ff-3c2c74b3d525","system_id":"levelo_inurba_marseille","lat":43.283998,"lon":5.375062,"is_reserved":false,"is_disabled":false,"rental_uris":{"android":"levelo://app?vid=2052cfe5-e307-42d4-98ff-3c2c74b3d525","ios":"levelo://app?vid=2052cfe5-e307-42d4-98ff-3c2c74b3d525"},"vehicle_type_id":"4","last_reported":1690999697,"current_range_meters":17200,"station_id":"ce4bh412rcd13ifvqds0","pricing_plan_id":"free"},{"bike_id":"2d163807-a578-4c2a-83cc-f8db88d0ce89","system_id":"levelo_inurba_marseille","lat":43.295713,"lon":5.399639,"is_reserved":false,"is_disabled":false,"rental_uris":{"android":"levelo://app?vid=2d163807-a578-4c2a-83cc-f8db88d0ce89","ios":"levelo://app?vid=2d163807-a578-4c2a-83cc-f8db88d0ce89"},"vehicle_type_id":"4","last_reported":1690999697,"current_range_meters":21600,"station_id":"ce4bh312rcd13ifvqdj0","pricing_plan_id":"free"},{"bike_id":"12546107-f558-4767-98dd-20fa6d48b415","system_id":"levelo_inurba_marseille","lat":43.283998,"lon":5.375062,"is_reserved":false,"is_disabled":false,"rental_uris":{"android":"levelo://app?vid=12546107-f558-4767-98dd-20fa6d48b415","ios":"levelo://app?vid=12546107-f558-4767-98dd-20fa6d48b415"},"vehicle_type_id":"4","last_reported":1690999697,"current_range_meters":9600,"station_id":"ce4bh412rcd13ifvqds0","pricing_plan_id":"free"},{"bike_id":"bcc829b6-232f-4dc0-b984-6ecd7aaf9132","system_id":"levelo_inurba_marseille","lat":43.286595,"lon":5.386795,"is_reserved":false,"is_disabled":false,"rental_uris":{"android":"levelo://app?vid=bcc829b6-232f-4dc0-b984-6ecd7aaf9132","ios":"levelo://app?vid=bcc829b6-232f-4dc0-b984-6ecd7aaf9132"},"vehicle_type_id":"4","last_reported":1690999697,"current_range_meters":14400,"station_id":"ce4bh492rcd13ifvqdug","pricing_plan_id":"free"},{"bike_id":"7f3ae784-dd3e-4854-9ca9-c075513136cf","system_id":"levelo_inurba_marseille","lat":43.31888,"lon":5.40741,"is_reserved":false,"is_disabled":false,"rental_uris":{"android":"levelo://app?vid=7f3ae784-dd3e-4854-9ca9-c075513136cf","ios":"levelo://app?vid=7f3ae784-dd3e-4854-9ca9-c075513136cf"},"vehicle_type_id":"4","last_reported":1690999697,"current_range_meters":14000,"station_id":"ce4bhq12rcd13ifvqhig","pricing_plan_id":"free"},{"bike_id":"3e563380-a985-451c-801d-2783d7714294","system_id":"levelo_inurba_marseille","lat":43.337168,"lon":5.391825,"is_reserved":false,"is_disabled":false,"rental_uris":{"android":"levelo://app?vid=3e563380-a985-451c-801d-2783d7714294","ios":"levelo://app?vid=3e563380-a985-451c-801d-2783d7714294"},"vehicle_type_id":"4","last_reported":1690999697,"current_range_meters":25200,"station_id":"ce4bhr92rcd13ifvqhsg","pricing_plan_id":"free"},{"bike_id":"98db51aa-ea4b-4608-9d13-b33ac5b52a63","system_id":"levelo_inurba_marseille","lat":43.337168,"lon":5.391825,"is_reserved":false,"is_disabled":false,"rental_uris":{"android":"levelo://app?vid=98db51aa-ea4b-4608-9d13-b33ac5b52a63","ios":"levelo://app?vid=98db51aa-ea4b-4608-9d13-b33ac5b52a63"},"vehicle_type_id":"4","last_reported":1690999697,"current_range_meters":24400,"station_id":"ce4bhr92rcd13ifvqhsg","pricing_plan_id":"free"},{"bike_id":"1edc4038-106d-40e1-ab65-8597e6171a1b","system_id":"levelo_inurba_marseille","lat":43.33719,"lon":5.3919,"is_reserved":false,"is_disabled":false,"rental_uris":{"android":"levelo://app?vid=1edc4038-106d-40e1-ab65-8597e6171a1b","ios":"levelo://app?vid=1edc4038-106d-40e1-ab65-8597e6171a1b"},"vehicle_type_id":"4","last_reported":1690999697,"current_range_meters":21200,"station_id":"ce4bhr92rcd13ifvqhsg","pricing_plan_id":"free"},{"bike_id":"40de583e-accb-4721-a8a6-7d230889501e","system_id":"levelo_inurba_marseille","lat":43.337168,"lon":5.391825,"is_reserved":false,"is_disabled":false,"rental_uris":{"android":"levelo://app?vid=40de583e-accb-4721-a8a6-7d230889501e","ios":"levelo://app?vid=40de583e-accb-4721-a8a6-7d230889501e"},"vehicle_type_id":"4","last_reported":1690999697,"current_range_meters":14000,"station_id":"ce4bhr92rcd13ifvqhsg","pricing_plan_id":"free"},{"bike_id":"9d8dc018-8295-487e-aae9-79ce0f469cdf","system_id":"levelo_inurba_marseille","lat":43.33723,"lon":5.39187,"is_reserved":false,"is_disabled":false,"rental_uris":{"android":"levelo://app?vid=9d8dc018-8295-487e-aae9-79ce0f469cdf","ios":"levelo://app?vid=9d8dc018-8295-487e-aae9-79ce0f469cdf"},"vehicle_type_id":"4","last_reported":1690999697,"current_range_meters":2400,"station_id":"ce4bhr92rcd13ifvqhsg","pricing_plan_id":"free"},{"bike_id":"d83dcb76-f857-457b-bb29-c61945756364","system_id":"levelo_inurba_marseille","lat":43.337168,"lon":5.391825,"is_reserved":false,"is_disabled":false,"rental_uris":{"android":"levelo://app?vid=d83dcb76-f857-457b-bb29-c61945756364","ios":"levelo://app?vid=d83dcb76-f857-457b-bb29-c61945756364"},"vehicle_type_id":"4","last_reported":1690999697,"current_range_meters":22000,"station_id":"ce4bhr92rcd13ifvqhsg","pricing_plan_id":"free"},{"bike_id":"e588aa9f-efc6-4277-9a49-060963d384e9","system_id":"levelo_inurba_marseille","lat":43.33717,"lon":5.391857,"is_reserved":false,"is_disabled":false,"rental_uris":{"android":"levelo://app?vid=e588aa9f-efc6-4277-9a49-060963d384e9","ios":"levelo://app?vid=e588aa9f-efc6-4277-9a49-060963d384e9"},"vehicle_type_id":"4","last_reported":1690999697,"current_range_meters":6400,"station_id":"ce4bhr92rcd13ifvqhsg","pricing_plan_id":"free"},{"bike_id":"939edbe6-adcc-4f97-ad69-99748df4073d","system_id":"levelo_inurba_marseille","lat":43.33729,"lon":5.39187,"is_reserved":false,"is_disabled":false,"rental_uris":{"android":"levelo://app?vid=939edbe6-adcc-4f97-ad69-99748df4073d","ios":"levelo://app?vid=939edbe6-adcc-4f97-ad69-99748df4073d"},"vehicle_type_id":"4","last_reported":1690999697,"current_range_meters":0,"station_id":"ce4bhr92rcd13ifvqhsg","pricing_plan_id":"free"},{"bike_id":"dbada9f9-e33c-4a7d-ab43-1cac4e571e70","system_id":"levelo_inurba_marseille","lat":43.284787,"lon":5.384116,"is_reserved":false,"is_disabled":false,"rental_uris":{"android":"levelo://app?vid=dbada9f9-e33c-4a7d-ab43-1cac4e571e70","ios":"levelo://app?vid=dbada9f9-e33c-4a7d-ab43-1cac4e571e70"},"vehicle_type_id":"4","last_reported":1690999697,"current_range_meters":29600,"station_id":"ce4bh512rcd13ifvqe3g","pricing_plan_id":"free"},{"bike_id":"1b2dcf9f-67f7-4469-afbf-8f03f5badfad","system_id":"levelo_inurba_marseille","lat":43.288501,"lon":5.393087,"is_reserved":false,"is_disabled":false,"rental_uris":{"android":"levelo://app?vid=1b2dcf9f-67f7-4469-afbf-8f03f5badfad","ios":"levelo://app?vid=1b2dcf9f-67f7-4469-afbf-8f03f5badfad"},"vehicle_type_id":"4","last_reported":1690999697,"current_range_meters":0,"station_id":"ce4bh2p2rcd13ifvqdi0","pricing_plan_id":"free"},{"bike_id":"c034c98e-ee95-466c-8d0d-56759030d790","system_id":"levelo_inurba_marseille","lat":43.283494,"lon":5.380945,"is_reserved":false,"is_disabled":false,"rental_uris":{"android":"levelo://app?vid=c034c98e-ee95-466c-8d0d-56759030d790","ios":"levelo://app?vid=c034c98e-ee95-466c-8d0d-56759030d790"},"vehicle_type_id":"4","last_reported":1690999697,"current_range_meters":17600,"station_id":"ce4bh412rcd13ifvqdr0","pricing_plan_id":"free"},{"bike_id":"8ff15647-07d6-4f23-8938-70b05c7c6fe2","system_id":"levelo_inurba_marseille","lat":43.284217,"lon":5.349697,"is_reserved":false,"is_disabled":false,"rental_uris":{"android":"levelo://app?vid=8ff15647-07d6-4f23-8938-70b05c7c6fe2","ios":"levelo://app?vid=8ff15647-07d6-4f23-8938-70b05c7c6fe2"},"vehicle_type_id":"4","last_reported":1690999697,"current_range_meters":2400,"station_id":"ce4bhbh2rcd13ifvqepg","pricing_plan_id":"free"},{"bike_id":"f7f5768e-b80f-4da0-8864-86696a8877fb","system_id":"levelo_inurba_marseille","lat":43.32456,"lon":5.40727,"is_reserved":false,"is_disabled":false,"rental_uris":{"android":"levelo://app?vid=f7f5768e-b80f-4da0-8864-86696a8877fb","ios":"levelo://app?vid=f7f5768e-b80f-4da0-8864-86696a8877fb"},"vehicle_type_id":"4","last_reported":1690999697,"current_range_meters":3600,"station_id":"","pricing_plan_id":"free"},{"bike_id":"eaa11e23-d475-4e1b-be92-cb49a54a435d","system_id":"levelo_inurba_marseille","lat":43.2827,"lon":5.35055,"is_reserved":false,"is_disabled":false,"rental_uris":{"android":"levelo://app?vid=eaa11e23-d475-4e1b-be92-cb49a54a435d","ios":"levelo://app?vid=eaa11e23-d475-4e1b-be92-cb49a54a435d"},"vehicle_type_id":"4","last_reported":1690999697,"current_range_meters":18800,"station_id":"","pricing_plan_id":"free"},{"bike_id":"8b145d43-7ec1-4ea5-a061-d2b1ca5224aa","system_id":"levelo_inurba_marseille","lat":43.28039,"lon":5.369297,"is_reserved":false,"is_disabled":false,"rental_uris":{"android":"levelo://app?vid=8b145d43-7ec1-4ea5-a061-d2b1ca5224aa","ios":"levelo://app?vid=8b145d43-7ec1-4ea5-a061-d2b1ca5224aa"},"vehicle_type_id":"4","last_reported":1690999697,"current_range_meters":30000,"station_id":"ce4bha12rcd13ifvqef0","pricing_plan_id":"free"},{"bike_id":"ca001107-8b11-41c6-bfd7-b059a631cc0b","system_id":"levelo_inurba_marseille","lat":43.28039,"lon":5.369297,"is_reserved":false,"is_disabled":false,"rental_uris":{"android":"levelo://app?vid=ca001107-8b11-41c6-bfd7-b059a631cc0b","ios":"levelo://app?vid=ca001107-8b11-41c6-bfd7-b059a631cc0b"},"vehicle_type_id":"4","last_reported":1690999697,"current_range_meters":4800,"station_id":"ce4bha12rcd13ifvqef0","pricing_plan_id":"free"},{"bike_id":"c67fd003-011a-42e2-85f2-2714de5997e4","system_id":"levelo_inurba_marseille","lat":43.32502,"lon":5.40824,"is_reserved":false,"is_disabled":false,"rental_uris":{"android":"levelo://app?vid=c67fd003-011a-42e2-85f2-2714de5997e4","ios":"levelo://app?vid=c67fd003-011a-42e2-85f2-2714de5997e4"},"vehicle_type_id":"4","last_reported":1690999697,"current_range_meters":0,"station_id":"","pricing_plan_id":"free"},{"bike_id":"27ba3c99-ddaa-402a-8929-bc774880341b","system_id":"levelo_inurba_marseille","lat":43.281044,"lon":5.378308,"is_reserved":false,"is_disabled":false,"rental_uris":{"android":"levelo://app?vid=27ba3c99-ddaa-402a-8929-bc774880341b","ios":"levelo://app?vid=27ba3c99-ddaa-402a-8929-bc774880341b"},"vehicle_type_id":"4","last_reported":1690999697,"current_range_meters":26000,"station_id":"ce4bha12rcd13ifvqee0","pricing_plan_id":"free"},{"bike_id":"a3ad0bb5-9032-4662-b763-6d91d4cd78cc","system_id":"levelo_inurba_marseille","lat":43.29639,"lon":5.4059,"is_reserved":false,"is_disabled":false,"rental_uris":{"android":"levelo://app?vid=a3ad0bb5-9032-4662-b763-6d91d4cd78cc","ios":"levelo://app?vid=a3ad0bb5-9032-4662-b763-6d91d4cd78cc"},"vehicle_type_id":"4","last_reported":1690999697,"current_range_meters":9600,"station_id":"ce4bh0h2rcd13ifvqd60","pricing_plan_id":"free"},{"bike_id":"4a5a6e11-b11d-4571-9bc3-9c02664f936f","system_id":"levelo_inurba_marseille","lat":43.281044,"lon":5.378308,"is_reserved":false,"is_disabled":false,"rental_uris":{"android":"levelo://app?vid=4a5a6e11-b11d-4571-9bc3-9c02664f936f","ios":"levelo://app?vid=4a5a6e11-b11d-4571-9bc3-9c02664f936f"},"vehicle_type_id":"4","last_reported":1690999697,"current_range_meters":14000,"station_id":"ce4bha12rcd13ifvqee0","pricing_plan_id":"free"},{"bike_id":"c39cc22c-f2a8-4668-b895-f2c26f0567a2","system_id":"levelo_inurba_marseille","lat":43.28105,"lon":5.37837,"is_reserved":false,"is_disabled":false,"rental_uris":{"android":"levelo://app?vid=c39cc22c-f2a8-4668-b895-f2c26f0567a2","ios":"levelo://app?vid=c39cc22c-f2a8-4668-b895-f2c26f0567a2"},"vehicle_type_id":"4","last_reported":1690999697,"current_range_meters":20400,"station_id":"ce4bha12rcd13ifvqee0","pricing_plan_id":"free"},{"bike_id":"32de7968-8361-442a-9ddf-643734c80f0f","system_id":"levelo_inurba_marseille","lat":43.296258,"lon":5.405883,"is_reserved":false,"is_disabled":false,"rental_uris":{"android":"levelo://app?vid=32de7968-8361-442a-9ddf-643734c80f0f","ios":"levelo://app?vid=32de7968-8361-442a-9ddf-643734c80f0f"},"vehicle_type_id":"4","last_reported":1690999697,"current_range_meters":5600,"station_id":"ce4bh0h2rcd13ifvqd60","pricing_plan_id":"free"},{"bike_id":"fb7cb79e-7168-453f-a3e2-36e00ee7319f","system_id":"levelo_inurba_marseille","lat":43.32407,"lon":5.40924,"is_reserved":false,"is_disabled":false,"rental_uris":{"android":"levelo://app?vid=fb7cb79e-7168-453f-a3e2-36e00ee7319f","ios":"levelo://app?vid=fb7cb79e-7168-453f-a3e2-36e00ee7319f"},"vehicle_type_id":"4","last_reported":1690999697,"current_range_meters":21600,"station_id":"","pricing_plan_id":"free"},{"bike_id":"59b0f28d-feb0-4169-8183-e902db280a83","system_id":"levelo_inurba_marseille","lat":43.28099,"lon":5.37844,"is_reserved":false,"is_disabled":false,"rental_uris":{"android":"levelo://app?vid=59b0f28d-feb0-4169-8183-e902db280a83","ios":"levelo://app?vid=59b0f28d-feb0-4169-8183-e902db280a83"},"vehicle_type_id":"4","last_reported":1690999697,"current_range_meters":6000,"station_id":"ce4bha12rcd13ifvqee0","pricing_plan_id":"free"},{"bike_id":"69f40b94-6598-4ba4-bb60-33c06d1b765c","system_id":"levelo_inurba_marseille","lat":43.28573,"lon":5.394992,"is_reserved":false,"is_disabled":false,"rental_uris":{"android":"levelo://app?vid=69f40b94-6598-4ba4-bb60-33c06d1b765c","ios":"levelo://app?vid=69f40b94-6598-4ba4-bb60-33c06d1b765c"},"vehicle_type_id":"4","last_reported":1690999697,"current_range_meters":18800,"station_id":"ce4bh292rcd13ifvqdg0","pricing_plan_id":"free"},{"bike_id":"d181b7a9-8668-4ca1-bae5-cce4c68ebf16","system_id":"levelo_inurba_marseille","lat":43.284462,"lon":5.392121,"is_reserved":false,"is_disabled":false,"rental_uris":{"android":"levelo://app?vid=d181b7a9-8668-4ca1-bae5-cce4c68ebf16","ios":"levelo://app?vid=d181b7a9-8668-4ca1-bae5-cce4c68ebf16"},"vehicle_type_id":"4","last_reported":1690999697,"current_range_meters":0,"station_id":"ce4bhoh2rcd13ifvqh5g","pricing_plan_id":"free"},{"bike_id":"1c3e2053-37a0-465e-8e54-8e5ce781947d","system_id":"levelo_inurba_marseille","lat":43.326605,"lon":5.409903,"is_reserved":false,"is_disabled":false,"rental_uris":{"android":"levelo://app?vid=1c3e2053-37a0-465e-8e54-8e5ce781947d","ios":"levelo://app?vid=1c3e2053-37a0-465e-8e54-8e5ce781947d"},"vehicle_type_id":"4","last_reported":1690999697,"current_range_meters":31200,"station_id":"ce4bhpp2rcd13ifvqhgg","pricing_plan_id":"free"},{"bike_id":"d21d33c3-5255-4bbd-aaaa-e7ea85b3babf","system_id":"levelo_inurba_marseille","lat":43.32654,"lon":5.4099,"is_reserved":false,"is_disabled":false,"rental_uris":{"android":"levelo://app?vid=d21d33c3-5255-4bbd-aaaa-e7ea85b3babf","ios":"levelo://app?vid=d21d33c3-5255-4bbd-aaaa-e7ea85b3babf"},"vehicle_type_id":"4","last_reported":1690999697,"current_range_meters":28400,"station_id":"ce4bhpp2rcd13ifvqhgg","pricing_plan_id":"free"},{"bike_id":"0ff37f37-1b1c-40ad-8d65-cfe3ce0a745b","system_id":"levelo_inurba_marseille","lat":43.326605,"lon":5.409903,"is_reserved":false,"is_disabled":false,"rental_uris":{"android":"levelo://app?vid=0ff37f37-1b1c-40ad-8d65-cfe3ce0a745b","ios":"levelo://app?vid=0ff37f37-1b1c-40ad-8d65-cfe3ce0a745b"},"vehicle_type_id":"4","last_reported":1690999697,"current_range_meters":31200,"station_id":"ce4bhpp2rcd13ifvqhgg","pricing_plan_id":"free"},{"bike_id":"e78399c7-b161-4b59-99e9-511284445788","system_id":"levelo_inurba_marseille","lat":43.32652,"lon":5.40993,"is_reserved":false,"is_disabled":false,"rental_uris":{"android":"levelo://app?vid=e78399c7-b161-4b59-99e9-511284445788","ios":"levelo://app?vid=e78399c7-b161-4b59-99e9-511284445788"},"vehicle_type_id":"4","last_reported":1690999697,"current_range_meters":31200,"station_id":"ce4bhpp2rcd13ifvqhgg","pricing_plan_id":"free"},{"bike_id":"ee382734-1190-4e95-907a-c0d476fc78c1","system_id":"levelo_inurba_marseille","lat":43.326605,"lon":5.409903,"is_reserved":false,"is_disabled":false,"rental_uris":{"android":"levelo://app?vid=ee382734-1190-4e95-907a-c0d476fc78c1","ios":"levelo://app?vid=ee382734-1190-4e95-907a-c0d476fc78c1"},"vehicle_type_id":"4","last_reported":1690999697,"current_range_meters":26000,"station_id":"ce4bhpp2rcd13ifvqhgg","pricing_plan_id":"free"},{"bike_id":"d9baa627-f120-40c6-acd6-9ace6e5e14f9","system_id":"levelo_inurba_marseille","lat":43.326605,"lon":5.409903,"is_reserved":false,"is_disabled":false,"rental_uris":{"android":"levelo://app?vid=d9baa627-f120-40c6-acd6-9ace6e5e14f9","ios":"levelo://app?vid=d9baa627-f120-40c6-acd6-9ace6e5e14f9"},"vehicle_type_id":"4","last_reported":1690999697,"current_range_meters":0,"station_id":"ce4bhpp2rcd13ifvqhgg","pricing_plan_id":"free"},{"bike_id":"db3dca91-02ca-49e5-a59e-ee2804911101","system_id":"levelo_inurba_marseille","lat":43.304188,"lon":5.412904,"is_reserved":false,"is_disabled":false,"rental_uris":{"android":"levelo://app?vid=db3dca91-02ca-49e5-a59e-ee2804911101","ios":"levelo://app?vid=db3dca91-02ca-49e5-a59e-ee2804911101"},"vehicle_type_id":"4","last_reported":1690999697,"current_range_meters":7200,"station_id":"ce4bhop2rcd13ifvqh8g","pricing_plan_id":"free"},{"bike_id":"a30a7a10-70bc-432d-883d-69429c6d47f1","system_id":"levelo_inurba_marseille","lat":43.304188,"lon":5.412904,"is_reserved":false,"is_disabled":false,"rental_uris":{"android":"levelo://app?vid=a30a7a10-70bc-432d-883d-69429c6d47f1","ios":"levelo://app?vid=a30a7a10-70bc-432d-883d-69429c6d47f1"},"vehicle_type_id":"4","last_reported":1690999697,"current_range_meters":1600,"station_id":"ce4bhop2rcd13ifvqh8g","pricing_plan_id":"free"},{"bike_id":"4c21ad08-406b-4b60-9f41-d618c1505b6b","system_id":"levelo_inurba_marseille","lat":43.304188,"lon":5.412904,"is_reserved":false,"is_disabled":false,"rental_uris":{"android":"levelo://app?vid=4c21ad08-406b-4b60-9f41-d618c1505b6b","ios":"levelo://app?vid=4c21ad08-406b-4b60-9f41-d618c1505b6b"},"vehicle_type_id":"4","last_reported":1690999697,"current_range_meters":20400,"station_id":"ce4bhop2rcd13ifvqh8g","pricing_plan_id":"free"},{"bike_id":"6bc89a9b-041b-41ea-86db-c980d56242cf","system_id":"levelo_inurba_marseille","lat":43.304188,"lon":5.412904,"is_reserved":false,"is_disabled":false,"rental_uris":{"android":"levelo://app?vid=6bc89a9b-041b-41ea-86db-c980d56242cf","ios":"levelo://app?vid=6bc89a9b-041b-41ea-86db-c980d56242cf"},"vehicle_type_id":"4","last_reported":1690999697,"current_range_meters":24000,"station_id":"ce4bhop2rcd13ifvqh8g","pricing_plan_id":"free"},{"bike_id":"21950c08-2714-4908-9aff-76fb452f9214","system_id":"levelo_inurba_marseille","lat":43.304188,"lon":5.412904,"is_reserved":false,"is_disabled":false,"rental_uris":{"android":"levelo://app?vid=21950c08-2714-4908-9aff-76fb452f9214","ios":"levelo://app?vid=21950c08-2714-4908-9aff-76fb452f9214"},"vehicle_type_id":"4","last_reported":1690999697,"current_range_meters":2000,"station_id":"ce4bhop2rcd13ifvqh8g","pricing_plan_id":"free"},{"bike_id":"2c0365e0-15bf-475d-9df0-e91fbe61ef5f","system_id":"levelo_inurba_marseille","lat":43.279087,"lon":5.380114,"is_reserved":false,"is_disabled":false,"rental_uris":{"android":"levelo://app?vid=2c0365e0-15bf-475d-9df0-e91fbe61ef5f","ios":"levelo://app?vid=2c0365e0-15bf-475d-9df0-e91fbe61ef5f"},"vehicle_type_id":"4","last_reported":1690999697,"current_range_meters":0,"station_id":"ce4bhf92rcd13ifvqf50","pricing_plan_id":"free"},{"bike_id":"d18834b7-d824-4331-96be-66b643f9466d","system_id":"levelo_inurba_marseille","lat":43.279087,"lon":5.380114,"is_reserved":false,"is_disabled":false,"rental_uris":{"android":"levelo://app?vid=d18834b7-d824-4331-96be-66b643f9466d","ios":"levelo://app?vid=d18834b7-d824-4331-96be-66b643f9466d"},"vehicle_type_id":"4","last_reported":1690999697,"current_range_meters":11600,"station_id":"ce4bhf92rcd13ifvqf50","pricing_plan_id":"free"},{"bike_id":"da74851f-183f-4ed8-bc32-44e1d656b516","system_id":"levelo_inurba_marseille","lat":43.32095,"lon":5.41512,"is_reserved":false,"is_disabled":false,"rental_uris":{"android":"levelo://app?vid=da74851f-183f-4ed8-bc32-44e1d656b516","ios":"levelo://app?vid=da74851f-183f-4ed8-bc32-44e1d656b516"},"vehicle_type_id":"4","last_reported":1690999697,"current_range_meters":6400,"station_id":"","pricing_plan_id":"free"},{"bike_id":"e9fbe7f4-c376-4a74-9a01-c2dfa71d30c2","system_id":"levelo_inurba_marseille","lat":43.3209,"lon":5.41514,"is_reserved":false,"is_disabled":false,"rental_uris":{"android":"levelo://app?vid=e9fbe7f4-c376-4a74-9a01-c2dfa71d30c2","ios":"levelo://app?vid=e9fbe7f4-c376-4a74-9a01-c2dfa71d30c2"},"vehicle_type_id":"4","last_reported":1690999697,"current_range_meters":2800,"station_id":"","pricing_plan_id":"free"},{"bike_id":"83e74c95-8896-41ab-9c80-44ced4064e0b","system_id":"levelo_inurba_marseille","lat":43.299579,"lon":5.413255,"is_reserved":false,"is_disabled":false,"rental_uris":{"android":"levelo://app?vid=83e74c95-8896-41ab-9c80-44ced4064e0b","ios":"levelo://app?vid=83e74c95-8896-41ab-9c80-44ced4064e0b"},"vehicle_type_id":"4","last_reported":1690999697,"current_range_meters":12400,"station_id":"ce4bhp12rcd13ifvqh9g","pricing_plan_id":"free"},{"bike_id":"ca9a7253-1895-475b-b2b8-6a227ecc1163","system_id":"levelo_inurba_marseille","lat":43.299579,"lon":5.413255,"is_reserved":false,"is_disabled":false,"rental_uris":{"android":"levelo://app?vid=ca9a7253-1895-475b-b2b8-6a227ecc1163","ios":"levelo://app?vid=ca9a7253-1895-475b-b2b8-6a227ecc1163"},"vehicle_type_id":"4","last_reported":1690999697,"current_range_meters":30800,"station_id":"ce4bhp12rcd13ifvqh9g","pricing_plan_id":"free"},{"bike_id":"6a73a50c-aa54-423b-9fc2-7c434588b534","system_id":"levelo_inurba_marseille","lat":43.32056,"lon":5.41541,"is_reserved":false,"is_disabled":false,"rental_uris":{"android":"levelo://app?vid=6a73a50c-aa54-423b-9fc2-7c434588b534","ios":"levelo://app?vid=6a73a50c-aa54-423b-9fc2-7c434588b534"},"vehicle_type_id":"4","last_reported":1690999697,"current_range_meters":30000,"station_id":"ce4bhq92rcd13ifvqhkg","pricing_plan_id":"free"},{"bike_id":"059bad7b-8751-45e1-8746-24b49345e396","system_id":"levelo_inurba_marseille","lat":43.32052,"lon":5.41547,"is_reserved":false,"is_disabled":false,"rental_uris":{"android":"levelo://app?vid=059bad7b-8751-45e1-8746-24b49345e396","ios":"levelo://app?vid=059bad7b-8751-45e1-8746-24b49345e396"},"vehicle_type_id":"4","last_reported":1690999697,"current_range_meters":31200,"station_id":"ce4bhq92rcd13ifvqhkg","pricing_plan_id":"free"},{"bike_id":"e80f134e-bdf0-416c-b95e-c454d1cce4b3","system_id":"levelo_inurba_marseille","lat":43.3205,"lon":5.41555,"is_reserved":false,"is_disabled":false,"rental_uris":{"android":"levelo://app?vid=e80f134e-bdf0-416c-b95e-c454d1cce4b3","ios":"levelo://app?vid=e80f134e-bdf0-416c-b95e-c454d1cce4b3"},"vehicle_type_id":"4","last_reported":1690999697,"current_range_meters":28800,"station_id":"ce4bhq92rcd13ifvqhkg","pricing_plan_id":"free"},{"bike_id":"38cf5faf-73e2-417b-8e53-37376cae1f70","system_id":"levelo_inurba_marseille","lat":43.279742,"lon":5.38744,"is_reserved":false,"is_disabled":false,"rental_uris":{"android":"levelo://app?vid=38cf5faf-73e2-417b-8e53-37376cae1f70","ios":"levelo://app?vid=38cf5faf-73e2-417b-8e53-37376cae1f70"},"vehicle_type_id":"4","last_reported":1690999697,"current_range_meters":0,"station_id":"ce4bhg12rcd13ifvqf80","pricing_plan_id":"free"},{"bike_id":"39aba49a-fb48-4f8d-8e0a-0b36b4398359","system_id":"levelo_inurba_marseille","lat":43.279742,"lon":5.38744,"is_reserved":false,"is_disabled":false,"rental_uris":{"android":"levelo://app?vid=39aba49a-fb48-4f8d-8e0a-0b36b4398359","ios":"levelo://app?vid=39aba49a-fb48-4f8d-8e0a-0b36b4398359"},"vehicle_type_id":"4","last_reported":1690999697,"current_range_meters":16400,"station_id":"ce4bhg12rcd13ifvqf80","pricing_plan_id":"free"},{"bike_id":"c327718a-8fe6-4791-a349-aba0f8f94e82","system_id":"levelo_inurba_marseille","lat":43.279742,"lon":5.38744,"is_reserved":false,"is_disabled":false,"rental_uris":{"android":"levelo://app?vid=c327718a-8fe6-4791-a349-aba0f8f94e82","ios":"levelo://app?vid=c327718a-8fe6-4791-a349-aba0f8f94e82"},"vehicle_type_id":"4","last_reported":1690999697,"current_range_meters":31200,"station_id":"ce4bhg12rcd13ifvqf80","pricing_plan_id":"free"},{"bike_id":"b9ef071d-c468-4739-9ca8-803c24e3ae1f","system_id":"levelo_inurba_marseille","lat":43.27957,"lon":5.38751,"is_reserved":false,"is_disabled":false,"rental_uris":{"android":"levelo://app?vid=b9ef071d-c468-4739-9ca8-803c24e3ae1f","ios":"levelo://app?vid=b9ef071d-c468-4739-9ca8-803c24e3ae1f"},"vehicle_type_id":"4","last_reported":1690999697,"current_range_meters":0,"station_id":"ce4bhg12rcd13ifvqf80","pricing_plan_id":"free"},{"bike_id":"ff80c59c-1fef-4f5c-8c6c-f84d027ace61","system_id":"levelo_inurba_marseille","lat":43.27618,"lon":5.361009,"is_reserved":false,"is_disabled":false,"rental_uris":{"android":"levelo://app?vid=ff80c59c-1fef-4f5c-8c6c-f84d027ace61","ios":"levelo://app?vid=ff80c59c-1fef-4f5c-8c6c-f84d027ace61"},"vehicle_type_id":"4","last_reported":1690999697,"current_range_meters":6800,"station_id":"ce4bgj92rcd13ifvqbe0","pricing_plan_id":"free"},{"bike_id":"cdefcebc-5078-4d67-8d7a-45f230382108","system_id":"levelo_inurba_marseille","lat":43.325233,"lon":5.414318,"is_reserved":false,"is_disabled":false,"rental_uris":{"android":"levelo://app?vid=cdefcebc-5078-4d67-8d7a-45f230382108","ios":"levelo://app?vid=cdefcebc-5078-4d67-8d7a-45f230382108"},"vehicle_type_id":"4","last_reported":1690999697,"current_range_meters":31200,"station_id":"ce4bhq12rcd13ifvqhhg","pricing_plan_id":"free"},{"bike_id":"facec683-9177-429a-b650-7abc4af7f962","system_id":"levelo_inurba_marseille","lat":43.27618,"lon":5.361009,"is_reserved":false,"is_disabled":false,"rental_uris":{"android":"levelo://app?vid=facec683-9177-429a-b650-7abc4af7f962","ios":"levelo://app?vid=facec683-9177-429a-b650-7abc4af7f962"},"vehicle_type_id":"4","last_reported":1690999697,"current_range_meters":28000,"station_id":"ce4bgj92rcd13ifvqbe0","pricing_plan_id":"free"},{"bike_id":"c4d5dae8-de75-4a4b-99e1-dedffdbd0ee9","system_id":"levelo_inurba_marseille","lat":43.27618,"lon":5.361009,"is_reserved":false,"is_disabled":false,"rental_uris":{"android":"levelo://app?vid=c4d5dae8-de75-4a4b-99e1-dedffdbd0ee9","ios":"levelo://app?vid=c4d5dae8-de75-4a4b-99e1-dedffdbd0ee9"},"vehicle_type_id":"4","last_reported":1690999697,"current_range_meters":11600,"station_id":"ce4bgj92rcd13ifvqbe0","pricing_plan_id":"free"},{"bike_id":"3f2c8a8b-ee18-4681-87c7-0a79a1c09bf4","system_id":"levelo_inurba_marseille","lat":43.27618,"lon":5.361009,"is_reserved":false,"is_disabled":false,"rental_uris":{"android":"levelo://app?vid=3f2c8a8b-ee18-4681-87c7-0a79a1c09bf4","ios":"levelo://app?vid=3f2c8a8b-ee18-4681-87c7-0a79a1c09bf4"},"vehicle_type_id":"4","last_reported":1690999697,"current_range_meters":21200,"station_id":"ce4bgj92rcd13ifvqbe0","pricing_plan_id":"free"},{"bike_id":"c840496a-40d4-48a3-a595-b462ac21d5fe","system_id":"levelo_inurba_marseille","lat":43.27615,"lon":5.36106,"is_reserved":false,"is_disabled":false,"rental_uris":{"android":"levelo://app?vid=c840496a-40d4-48a3-a595-b462ac21d5fe","ios":"levelo://app?vid=c840496a-40d4-48a3-a595-b462ac21d5fe"},"vehicle_type_id":"4","last_reported":1690999697,"current_range_meters":8400,"station_id":"ce4bgj92rcd13ifvqbe0","pricing_plan_id":"free"},{"bike_id":"2ecaf25c-9814-4e7b-80f7-e4c070a04c69","system_id":"levelo_inurba_marseille","lat":43.325233,"lon":5.414318,"is_reserved":false,"is_disabled":false,"rental_uris":{"android":"levelo://app?vid=2ecaf25c-9814-4e7b-80f7-e4c070a04c69","ios":"levelo://app?vid=2ecaf25c-9814-4e7b-80f7-e4c070a04c69"},"vehicle_type_id":"4","last_reported":1690999697,"current_range_meters":31200,"station_id":"ce4bhq12rcd13ifvqhhg","pricing_plan_id":"free"},{"bike_id":"c964849d-3e03-44a8-87e7-224ea54dce6c","system_id":"levelo_inurba_marseille","lat":43.27612,"lon":5.36111,"is_reserved":false,"is_disabled":false,"rental_uris":{"android":"levelo://app?vid=c964849d-3e03-44a8-87e7-224ea54dce6c","ios":"levelo://app?vid=c964849d-3e03-44a8-87e7-224ea54dce6c"},"vehicle_type_id":"4","last_reported":1690999697,"current_range_meters":14400,"station_id":"ce4bgj92rcd13ifvqbe0","pricing_plan_id":"free"},{"bike_id":"b7048ab9-ac41-4408-abae-938a727c7c0e","system_id":"levelo_inurba_marseille","lat":43.27618,"lon":5.361009,"is_reserved":false,"is_disabled":false,"rental_uris":{"android":"levelo://app?vid=b7048ab9-ac41-4408-abae-938a727c7c0e","ios":"levelo://app?vid=b7048ab9-ac41-4408-abae-938a727c7c0e"},"vehicle_type_id":"4","last_reported":1690999697,"current_range_meters":14800,"station_id":"ce4bgj92rcd13ifvqbe0","pricing_plan_id":"free"},{"bike_id":"386ed8e3-b71e-4f68-86af-202c5b76503e","system_id":"levelo_inurba_marseille","lat":43.27611,"lon":5.36115,"is_reserved":false,"is_disabled":false,"rental_uris":{"android":"levelo://app?vid=386ed8e3-b71e-4f68-86af-202c5b76503e","ios":"levelo://app?vid=386ed8e3-b71e-4f68-86af-202c5b76503e"},"vehicle_type_id":"4","last_reported":1690999697,"current_range_meters":24800,"station_id":"ce4bgj92rcd13ifvqbe0","pricing_plan_id":"free"},{"bike_id":"584c6888-7f82-4226-b758-0f86fc9b9a2b","system_id":"levelo_inurba_marseille","lat":43.29786,"lon":5.41356,"is_reserved":false,"is_disabled":false,"rental_uris":{"android":"levelo://app?vid=584c6888-7f82-4226-b758-0f86fc9b9a2b","ios":"levelo://app?vid=584c6888-7f82-4226-b758-0f86fc9b9a2b"},"vehicle_type_id":"4","last_reported":1690999697,"current_range_meters":2800,"station_id":"","pricing_plan_id":"free"},{"bike_id":"9d367097-d6dc-4d35-ab40-3442fce0babb","system_id":"levelo_inurba_marseille","lat":43.280784,"lon":5.396622,"is_reserved":false,"is_disabled":false,"rental_uris":{"android":"levelo://app?vid=9d367097-d6dc-4d35-ab40-3442fce0babb","ios":"levelo://app?vid=9d367097-d6dc-4d35-ab40-3442fce0babb"},"vehicle_type_id":"4","last_reported":1690999697,"current_range_meters":800,"station_id":"ce4bho12rcd13ifvqh2g","pricing_plan_id":"free"},{"bike_id":"05c45c5c-487f-4c36-85cb-cf4607186775","system_id":"levelo_inurba_marseille","lat":43.28649,"lon":5.40615,"is_reserved":false,"is_disabled":false,"rental_uris":{"android":"levelo://app?vid=05c45c5c-487f-4c36-85cb-cf4607186775","ios":"levelo://app?vid=05c45c5c-487f-4c36-85cb-cf4607186775"},"vehicle_type_id":"4","last_reported":1690999697,"current_range_meters":26400,"station_id":"","pricing_plan_id":"free"},{"bike_id":"eadf0a50-d1f0-4798-99cb-6df94e079d20","system_id":"levelo_inurba_marseille","lat":43.303837,"lon":5.418724,"is_reserved":false,"is_disabled":false,"rental_uris":{"android":"levelo://app?vid=eadf0a50-d1f0-4798-99cb-6df94e079d20","ios":"levelo://app?vid=eadf0a50-d1f0-4798-99cb-6df94e079d20"},"vehicle_type_id":"4","last_reported":1690999697,"current_range_meters":1200,"station_id":"ce4bhop2rcd13ifvqh7g","pricing_plan_id":"free"},{"bike_id":"50deb094-f285-460e-9dbf-1aef219bb6ad","system_id":"levelo_inurba_marseille","lat":43.273899,"lon":5.362612,"is_reserved":false,"is_disabled":false,"rental_uris":{"android":"levelo://app?vid=50deb094-f285-460e-9dbf-1aef219bb6ad","ios":"levelo://app?vid=50deb094-f285-460e-9dbf-1aef219bb6ad"},