{"last_updated":1698433445,"ttl":30,"version":"2.2","data":{"bikes":[{"bike_id":"193f5bee-d6ff-400f-b9a2-e0ec1ab0e767","system_id":"levelo_inurba_marseille","lat":43.312239,"lon":5.368562,"is_reserved":false,"is_disabled":false,"rental_uris":{"android":"levelo://app?vid=193f5bee-d6ff-400f-b9a2-e0ec1ab0e767","ios":"levelo://app?vid=193f5bee-d6ff-400f-b9a2-e0ec1ab0e767"},"vehicle_type_id":"4","last_reported":1698433445,"current_range_meters":18000,"station_id":"ce4bgl92rcd13ifvqbq0","pricing_plan_id":"free"},{"bike_id":"206a0d03-4f5f-4b67-80d1-2c19e2467dcc","system_id":"levelo_inurba_marseille","lat":43.312239,"lon":5.368562,"is_reserved":false,"is_disabled":false,"rental_uris":{"android":"levelo://app?vid=206a0d03-4f5f-4b67-80d1-2c19e2467dcc","ios":"levelo://app?vid=206a0d03-4f5f-4b67-80d1-2c19e2467dcc"},"vehicle_type_id":"4","last_reported":1698433445,"current_range_meters":12400,"station_id":"ce4bgl92rcd13ifvqbq0","pricing_plan_id":"free"},{"bike_id":"dbc38b5e-7ae4-4dc3-be87-5d8a01409b52","system_id":"levelo_inurba_marseille","lat":43.30884,"lon":5.37096,"is_reserved":false,"is_disabled":false,"rental_uris":{"android":"levelo://app?vid=dbc38b5e-7ae4-4dc3-be87-5d8a01409b52","ios":"levelo://app?vid=dbc38b5e-7ae4-4dc3-be87-5d8a01409b52"},"vehicle_type_id":"4","last_reported":1698433445,"current_range_meters":0,"station_id":"ce4bgqh2rcd13ifvqc5g","pricing_plan_id":"free"},{"bike_id":"60b8bfab-e270-43eb-89ea-c6d952560aef","system_id":"levelo_inurba_marseille","lat":43.314811,"lon":5.373104,"is_reserved":false,"is_disabled":false,"rental_uris":{"android":"levelo://app?vid=60b8bfab-e270-43eb-89ea-c6d952560aef","ios":"levelo://app?vid=60b8bfab-e270-43eb-89ea-c6d952560aef"},"vehicle_type_id":"4","last_reported":1698433445,"current_range_meters":28800,"station_id":"ce4bgt12rcd13ifvqcd0","pricing_plan_id":"free"},{"bike_id":"dbbdea51-7e3d-4271-bd96-c3aabecbd7e2","system_id":"levelo_inurba_marseille","lat":43.315783,"lon":5.372523,"is_reserved":false,"is_disabled":false,"rental_uris":{"android":"levelo://app?vid=dbbdea51-7e3d-4271-bd96-c3aabecbd7e2","ios":"levelo://app?vid=dbbdea51-7e3d-4271-bd96-c3aabecbd7e2"},"vehicle_type_id":"4","last_reported":1698433445,"current_range_meters":11200,"station_id":"","pricing_plan_id":"free"},{"bike_id":"e8147173-512b-4df2-82e3-bd27f48cd210","system_id":"levelo_inurba_marseille","lat":43.305486,"lon":5.366262,"is_reserved":false,"is_disabled":false,"rental_uris":{"android":"levelo://app?vid=e8147173-512b-4df2-82e3-bd27f48cd210","ios":"levelo://app?vid=e8147173-512b-4df2-82e3-bd27f48cd210"},"vehicle_type_id":"4","last_reported":1698433445,"current_range_meters":7200,"station_id":"ce4bgs12rcd13ifvqcag","pricing_plan_id":"free"},{"bike_id":"1aaf3864-14c9-4ab5-b454-8b5689ad28a8","system_id":"levelo_inurba_marseille","lat":43.30546,"lon":5.36535,"is_reserved":false,"is_disabled":false,"rental_uris":{"android":"levelo://app?vid=1aaf3864-14c9-4ab5-b454-8b5689ad28a8","ios":"levelo://app?vid=1aaf3864-14c9-4ab5-b454-8b5689ad28a8"},"vehicle_type_id":"4","last_reported":1698433445,"current_range_meters":0,"station_id":"ce4bgs12rcd13ifvqcag","pricing_plan_id":"free"},{"bike_id":"d097fc0d-c845-4fdc-8663-c2047353791f","system_id":"levelo_inurba_marseille","lat":43.305349,"lon":5.366966,"is_reserved":false,"is_disabled":false,"rental_uris":{"android":"levelo://app?vid=d097fc0d-c845-4fdc-8663-c2047353791f","ios":"levelo://app?vid=d097fc0d-c845-4fdc-8663-c2047353791f"},"vehicle_type_id":"4","last_reported":1698433445,"current_range_meters":10800,"station_id":"ce4bgrp2rcd13ifvqc9g","pricing_plan_id":"free"},{"bike_id":"858b0454-f600-4bf0-a050-77ffb90eed69","system_id":"levelo_inurba_marseille","lat":43.306093,"lon":5.371594,"is_reserved":false,"is_disabled":false,"rental_uris":{"android":"levelo://app?vid=858b0454-f600-4bf0-a050-77ffb90eed69","ios":"levelo://app?vid=858b0454-f600-4bf0-a050-77ffb90eed69"},"vehicle_type_id":"4","last_reported":1698433445,"current_range_meters":11200,"station_id":"","pricing_plan_id":"free"},{"bike_id":"f252b071-dddd-4e5f-ad07-506846af6d1a","system_id":"levelo_inurba_marseille","lat":43.305714,"lon":5.365633,"is_reserved":false,"is_disabled":false,"rental_uris":{"android":"levelo://app?vid=f252b071-dddd-4e5f-ad07-506846af6d1a","ios":"levelo://app?vid=f252b071-dddd-4e5f-ad07-506846af6d1a"},"vehicle_type_id":"4","last_reported":1698433445,"current_range_meters":23200,"station_id":"ce4bgs12rcd13ifvqcag","pricing_plan_id":"free"},{"bike_id":"c5e64a08-bac5-42ba-9830-9f4161ac7216","system_id":"levelo_inurba_marseille","lat":43.311213,"lon":5.377668,"is_reserved":false,"is_disabled":false,"rental_uris":{"android":"levelo://app?vid=c5e64a08-bac5-42ba-9830-9f4161ac7216","ios":"levelo://app?vid=c5e64a08-bac5-42ba-9830-9f4161ac7216"},"vehicle_type_id":"4","last_reported":1698433445,"current_range_meters":0,"station_id":"","pricing_plan_id":"free"},{"bike_id":"a52157b6-e519-4e9e-818e-4bb71e09fab2","system_id":"levelo_inurba_marseille","lat":43.311131,"lon":5.377651,"is_reserved":false,"is_disabled":false,"rental_uris":{"android":"levelo://app?vid=a52157b6-e519-4e9e-818e-4bb71e09fab2","ios":"levelo://app?vid=a52157b6-e519-4e9e-818e-4bb71e09fab2"},"vehicle_type_id":"4","last_reported":1698433445,"current_range_meters":6000,"station_id":"ce4bgt92rcd13ifvqcg0","pricing_plan_id":"free"},{"bike_id":"eb1121a7-a552-4999-903a-cc581a4b08ac","system_id":"levelo_inurba_marseille","lat":43.307945,"lon":5.376487,"is_reserved":false,"is_disabled":false,"rental_uris":{"android":"levelo://app?vid=eb1121a7-a552-4999-903a-cc581a4b08ac","ios":"levelo://app?vid=eb1121a7-a552-4999-903a-cc581a4b08ac"},"vehicle_type_id":"4","last_reported":1698433445,"current_range_meters":0,"station_id":"ce4bgv92rcd13ifvqcq0","pricing_plan_id":"free"},{"bike_id":"566f155a-99b9-4815-8af5-cf10cb3d5b17","system_id":"levelo_inurba_marseille","lat":43.317075,"lon":5.377367,"is_reserved":false,"is_disabled":false,"rental_uris":{"android":"levelo://app?vid=566f155a-99b9-4815-8af5-cf10cb3d5b17","ios":"levelo://app?vid=566f155a-99b9-4815-8af5-cf10cb3d5b17"},"vehicle_type_id":"4","last_reported":1698433445,"current_range_meters":10000,"station_id":"ce4bgth2rcd13ifvqch0","pricing_plan_id":"free"},{"bike_id":"ecf825d0-af12-4bee-b7b2-482cd7d2cd21","system_id":"levelo_inurba_marseille","lat":43.317075,"lon":5.377367,"is_reserved":false,"is_disabled":false,"rental_uris":{"android":"levelo://app?vid=ecf825d0-af12-4bee-b7b2-482cd7d2cd21","ios":"levelo://app?vid=ecf825d0-af12-4bee-b7b2-482cd7d2cd21"},"vehicle_type_id":"4","last_reported":1698433445,"current_range_meters":10000,"station_id":"ce4bgth2rcd13ifvqch0","pricing_plan_id":"free"},{"bike_id":"47ed5ec6-6a9b-4c89-a8d1-ed8dfef32bb0","system_id":"levelo_inurba_marseille","lat":43.317075,"lon":5.377367,"is_reserved":false,"is_disabled":false,"rental_uris":{"android":"levelo://app?vid=47ed5ec6-6a9b-4c89-a8d1-ed8dfef32bb0","ios":"levelo://app?vid=47ed5ec6-6a9b-4c89-a8d1-ed8dfef32bb0"},"vehicle_type_id":"4","last_reported":1698433445,"current_range_meters":14400,"station_id":"ce4bgth2rcd13ifvqch0","pricing_plan_id":"free"},{"bike_id":"acbd4cdb-a7f7-4f76-94b7-13509e3e479a","system_id":"levelo_inurba_marseille","lat":43.317075,"lon":5.377367,"is_reserved":false,"is_disabled":false,"rental_uris":{"android":"levelo://app?vid=acbd4cdb-a7f7-4f76-94b7-13509e3e479a","ios":"levelo://app?vid=acbd4cdb-a7f7-4f76-94b7-13509e3e479a"},"vehicle_type_id":"4","last_reported":1698433445,"current_range_meters":10000,"station_id":"ce4bgth2rcd13ifvqch0","pricing_plan_id":"free"},{"bike_id":"56a3dee9-23a7-4fd1-bfa5-ab06f723286f","system_id":"levelo_inurba_marseille","lat":43.317075,"lon":5.377367,"is_reserved":false,"is_disabled":false,"rental_uris":{"android":"levelo://app?vid=56a3dee9-23a7-4fd1-bfa5-ab06f723286f","ios":"levelo://app?vid=56a3dee9-23a7-4fd1-bfa5-ab06f723286f"},"vehicle_type_id":"4","last_reported":1698433445,"current_range_meters":31600,"station_id":"ce4bgth2rcd13ifvqch0","pricing_plan_id":"free"},{"bike_id":"51c15eb4-6097-4f48-b9f2-a46f48840449","system_id":"levelo_inurba_marseille","lat":43.317075,"lon":5.377367,"is_reserved":false,"is_disabled":false,"rental_uris":{"android":"levelo://app?vid=51c15eb4-6097-4f48-b9f2-a46f48840449","ios":"levelo://app?vid=51c15eb4-6097-4f48-b9f2-a46f48840449"},"vehicle_type_id":"4","last_reported":1698433445,"current_range_meters":19200,"station_id":"ce4bgth2rcd13ifvqch0","pricing_plan_id":"free"},{"bike_id":"e112bd38-e11d-4789-9c6f-2037517ec05f","system_id":"levelo_inurba_marseille","lat":43.317075,"lon":5.377367,"is_reserved":false,"is_disabled":false,"rental_uris":{"android":"levelo://app?vid=e112bd38-e11d-4789-9c6f-2037517ec05f","ios":"levelo://app?vid=e112bd38-e11d-4789-9c6f-2037517ec05f"},"vehicle_type_id":"4","last_reported":1698433445,"current_range_meters":22400,"station_id":"ce4bgth2rcd13ifvqch0","pricing_plan_id":"free"},{"bike_id":"59442139-08e5-4d97-808b-7e9d5af1e88a","system_id":"levelo_inurba_marseille","lat":43.311123,"lon":5.381312,"is_reserved":false,"is_disabled":false,"rental_uris":{"android":"levelo://app?vid=59442139-08e5-4d97-808b-7e9d5af1e88a","ios":"levelo://app?vid=59442139-08e5-4d97-808b-7e9d5af1e88a"},"vehicle_type_id":"4","last_reported":1698433445,"current_range_meters":0,"station_id":"","pricing_plan_id":"free"},{"bike_id":"a33ac2d2-2f41-4b0f-95cb-70a05540f53c","system_id":"levelo_inurba_marseille","lat":43.30798,"lon":5.38156,"is_reserved":false,"is_disabled":false,"rental_uris":{"android":"levelo://app?vid=a33ac2d2-2f41-4b0f-95cb-70a05540f53c","ios":"levelo://app?vid=a33ac2d2-2f41-4b0f-95cb-70a05540f53c"},"vehicle_type_id":"4","last_reported":1698433445,"current_range_meters":0,"station_id":"ce4bgt12rcd13ifvqce0","pricing_plan_id":"free"},{"bike_id":"3bc902b2-30e2-421e-8a92-5f180d5392db","system_id":"levelo_inurba_marseille","lat":43.308012,"lon":5.381511,"is_reserved":false,"is_disabled":false,"rental_uris":{"android":"levelo://app?vid=3bc902b2-30e2-421e-8a92-5f180d5392db","ios":"levelo://app?vid=3bc902b2-30e2-421e-8a92-5f180d5392db"},"vehicle_type_id":"4","last_reported":1698433445,"current_range_meters":14400,"station_id":"ce4bgt12rcd13ifvqce0","pricing_plan_id":"free"},{"bike_id":"d797f1e6-f3ca-4ad7-8b56-5ed6191da53c","system_id":"levelo_inurba_marseille","lat":43.304606,"lon":5.379026,"is_reserved":false,"is_disabled":false,"rental_uris":{"android":"levelo://app?vid=d797f1e6-f3ca-4ad7-8b56-5ed6191da53c","ios":"levelo://app?vid=d797f1e6-f3ca-4ad7-8b56-5ed6191da53c"},"vehicle_type_id":"4","last_reported":1698433445,"current_range_meters":31200,"station_id":"ce4bgup2rcd13ifvqcn0","pricing_plan_id":"free"},{"bike_id":"07687717-bac1-4900-b312-215e2d88b512","system_id":"levelo_inurba_marseille","lat":43.32478,"lon":5.3657,"is_reserved":false,"is_disabled":false,"rental_uris":{"android":"levelo://app?vid=07687717-bac1-4900-b312-215e2d88b512","ios":"levelo://app?vid=07687717-bac1-4900-b312-215e2d88b512"},"vehicle_type_id":"4","last_reported":1698433445,"current_range_meters":22400,"station_id":"","pricing_plan_id":"free"},{"bike_id":"33ee12c1-bfff-4ae7-ad6d-77b569898cd1","system_id":"levelo_inurba_marseille","lat":43.324798,"lon":5.365734,"is_reserved":false,"is_disabled":false,"rental_uris":{"android":"levelo://app?vid=33ee12c1-bfff-4ae7-ad6d-77b569898cd1","ios":"levelo://app?vid=33ee12c1-bfff-4ae7-ad6d-77b569898cd1"},"vehicle_type_id":"4","last_reported":1698433445,"current_range_meters":19200,"station_id":"","pricing_plan_id":"free"},{"bike_id":"1047bcc5-10ff-460b-bd6f-eac1d4a67db4","system_id":"levelo_inurba_marseille","lat":43.31745,"lon":5.382537,"is_reserved":false,"is_disabled":false,"rental_uris":{"android":"levelo://app?vid=1047bcc5-10ff-460b-bd6f-eac1d4a67db4","ios":"levelo://app?vid=1047bcc5-10ff-460b-bd6f-eac1d4a67db4"},"vehicle_type_id":"4","last_reported":1698433445,"current_range_meters":0,"station_id":"","pricing_plan_id":"free"},{"bike_id":"0d497c6f-23ef-4790-b598-06a0b0dfd8fa","system_id":"levelo_inurba_marseille","lat":43.301494,"lon":5.374239,"is_reserved":false,"is_disabled":false,"rental_uris":{"android":"levelo://app?vid=0d497c6f-23ef-4790-b598-06a0b0dfd8fa","ios":"levelo://app?vid=0d497c6f-23ef-4790-b598-06a0b0dfd8fa"},"vehicle_type_id":"4","last_reported":1698433445,"current_range_meters":29200,"station_id":"ce4bgs92rcd13ifvqcc0","pricing_plan_id":"free"},{"bike_id":"a86c77a8-bd39-41a1-a278-788f4bf01402","system_id":"levelo_inurba_marseille","lat":43.301429,"lon":5.37413,"is_reserved":false,"is_disabled":false,"rental_uris":{"android":"levelo://app?vid=a86c77a8-bd39-41a1-a278-788f4bf01402","ios":"levelo://app?vid=a86c77a8-bd39-41a1-a278-788f4bf01402"},"vehicle_type_id":"4","last_reported":1698433445,"current_range_meters":27200,"station_id":"ce4bgs92rcd13ifvqcc0","pricing_plan_id":"free"},{"bike_id":"60cb8787-095d-459e-be6f-a0fb12bc51ce","system_id":"levelo_inurba_marseille","lat":43.32007,"lon":5.38137,"is_reserved":false,"is_disabled":false,"rental_uris":{"android":"levelo://app?vid=60cb8787-095d-459e-be6f-a0fb12bc51ce","ios":"levelo://app?vid=60cb8787-095d-459e-be6f-a0fb12bc51ce"},"vehicle_type_id":"4","last_reported":1698433445,"current_range_meters":2400,"station_id":"ce4bhr12rcd13ifvqhqg","pricing_plan_id":"free"},{"bike_id":"608be8b1-2271-4a8d-9fdc-07efb486958d","system_id":"levelo_inurba_marseille","lat":43.320106,"lon":5.381379,"is_reserved":false,"is_disabled":false,"rental_uris":{"android":"levelo://app?vid=608be8b1-2271-4a8d-9fdc-07efb486958d","ios":"levelo://app?vid=608be8b1-2271-4a8d-9fdc-07efb486958d"},"vehicle_type_id":"4","last_reported":1698433445,"current_range_meters":11600,"station_id":"","pricing_plan_id":"free"},{"bike_id":"e68f611e-baf6-484b-a2c8-be1ca8077ce6","system_id":"levelo_inurba_marseille","lat":43.31992,"lon":5.38165,"is_reserved":false,"is_disabled":false,"rental_uris":{"android":"levelo://app?vid=e68f611e-baf6-484b-a2c8-be1ca8077ce6","ios":"levelo://app?vid=e68f611e-baf6-484b-a2c8-be1ca8077ce6"},"vehicle_type_id":"4","last_reported":1698433445,"current_range_meters":19200,"station_id":"ce4bhr12rcd13ifvqhpg","pricing_plan_id":"free"},{"bike_id":"c2a4ea93-9a12-4af4-85ed-bdc873ab1807","system_id":"levelo_inurba_marseille","lat":43.31998,"lon":5.38168,"is_reserved":false,"is_disabled":false,"rental_uris":{"android":"levelo://app?vid=c2a4ea93-9a12-4af4-85ed-bdc873ab1807","ios":"levelo://app?vid=c2a4ea93-9a12-4af4-85ed-bdc873ab1807"},"vehicle_type_id":"4","last_reported":1698433445,"current_range_meters":20000,"station_id":"ce4bhr12rcd13ifvqhpg","pricing_plan_id":"free"},{"bike_id":"7364ec67-57a5-4f09-910d-34be8d104041","system_id":"levelo_inurba_marseille","lat":43.313571,"lon":5.384829,"is_reserved":false,"is_disabled":false,"rental_uris":{"android":"levelo://app?vid=7364ec67-57a5-4f09-910d-34be8d104041","ios":"levelo://app?vid=7364ec67-57a5-4f09-910d-34be8d104041"},"vehicle_type_id":"4","last_reported":1698433445,"current_range_meters":20000,"station_id":"ce4bgt92rcd13ifvqcf0","pricing_plan_id":"free"},{"bike_id":"b30cf49d-04be-4084-9e67-5049b73e30fb","system_id":"levelo_inurba_marseille","lat":43.313571,"lon":5.384829,"is_reserved":false,"is_disabled":false,"rental_uris":{"android":"levelo://app?vid=b30cf49d-04be-4084-9e67-5049b73e30fb","ios":"levelo://app?vid=b30cf49d-04be-4084-9e67-5049b73e30fb"},"vehicle_type_id":"4","last_reported":1698433445,"current_range_meters":13200,"station_id":"ce4bgt92rcd13ifvqcf0","pricing_plan_id":"free"},{"bike_id":"25df6a57-7894-4668-b8e2-933607f84991","system_id":"levelo_inurba_marseille","lat":43.2992,"lon":5.36547,"is_reserved":false,"is_disabled":false,"rental_uris":{"android":"levelo://app?vid=25df6a57-7894-4668-b8e2-933607f84991","ios":"levelo://app?vid=25df6a57-7894-4668-b8e2-933607f84991"},"vehicle_type_id":"4","last_reported":1698433445,"current_range_meters":26000,"station_id":"ce4bgm92rcd13ifvqbr0","pricing_plan_id":"free"},{"bike_id":"97997ef7-b347-4148-ba57-9a15ecc4912d","system_id":"levelo_inurba_marseille","lat":43.320945,"lon":5.38306,"is_reserved":false,"is_disabled":false,"rental_uris":{"android":"levelo://app?vid=97997ef7-b347-4148-ba57-9a15ecc4912d","ios":"levelo://app?vid=97997ef7-b347-4148-ba57-9a15ecc4912d"},"vehicle_type_id":"4","last_reported":1698433445,"current_range_meters":0,"station_id":"","pricing_plan_id":"free"},{"bike_id":"98fe8fac-cc7b-41b5-84af-6c2773aeb081","system_id":"levelo_inurba_marseille","lat":43.298433,"lon":5.362774,"is_reserved":false,"is_disabled":false,"rental_uris":{"android":"levelo://app?vid=98fe8fac-cc7b-41b5-84af-6c2773aeb081","ios":"levelo://app?vid=98fe8fac-cc7b-41b5-84af-6c2773aeb081"},"vehicle_type_id":"4","last_reported":1698433445,"current_range_meters":31600,"station_id":"ce4bgpp2rcd13ifvqc3g","pricing_plan_id":"free"},{"bike_id":"ee122a21-6420-4b52-9cd2-462eee7a6b66","system_id":"levelo_inurba_marseille","lat":43.305364,"lon":5.384119,"is_reserved":false,"is_disabled":false,"rental_uris":{"android":"levelo://app?vid=ee122a21-6420-4b52-9cd2-462eee7a6b66","ios":"levelo://app?vid=ee122a21-6420-4b52-9cd2-462eee7a6b66"},"vehicle_type_id":"4","last_reported":1698433445,"current_range_meters":4800,"station_id":"ce4bgg92rcd13ifvqb30","pricing_plan_id":"free"},{"bike_id":"0c7af524-0660-4023-90f7-7d636b26134c","system_id":"levelo_inurba_marseille","lat":43.298433,"lon":5.362774,"is_reserved":false,"is_disabled":false,"rental_uris":{"android":"levelo://app?vid=0c7af524-0660-4023-90f7-7d636b26134c","ios":"levelo://app?vid=0c7af524-0660-4023-90f7-7d636b26134c"},"vehicle_type_id":"4","last_reported":1698433445,"current_range_meters":18000,"station_id":"ce4bgpp2rcd13ifvqc3g","pricing_plan_id":"free"},{"bike_id":"e584fe30-5961-4243-b50f-6808b76bcb3b","system_id":"levelo_inurba_marseille","lat":43.298433,"lon":5.362774,"is_reserved":false,"is_disabled":false,"rental_uris":{"android":"levelo://app?vid=e584fe30-5961-4243-b50f-6808b76bcb3b","ios":"levelo://app?vid=e584fe30-5961-4243-b50f-6808b76bcb3b"},"vehicle_type_id":"4","last_reported":1698433445,"current_range_meters":26000,"station_id":"ce4bgpp2rcd13ifvqc3g","pricing_plan_id":"free"},{"bike_id":"68eefa9c-0c17-4eb4-8ac1-942322733746","system_id":"levelo_inurba_marseille","lat":43.29922,"lon":5.37462,"is_reserved":false,"is_disabled":false,"rental_uris":{"android":"levelo://app?vid=68eefa9c-0c17-4eb4-8ac1-942322733746","ios":"levelo://app?vid=68eefa9c-0c17-4eb4-8ac1-942322733746"},"vehicle_type_id":"4","last_reported":1698433445,"current_range_meters":25600,"station_id":"ce4bgjh2rcd13ifvqbg0","pricing_plan_id":"free"},{"bike_id":"7d36d315-c888-4177-8ca1-01080ea411d1","system_id":"levelo_inurba_marseille","lat":43.305364,"lon":5.384119,"is_reserved":false,"is_disabled":false,"rental_uris":{"android":"levelo://app?vid=7d36d315-c888-4177-8ca1-01080ea411d1","ios":"levelo://app?vid=7d36d315-c888-4177-8ca1-01080ea411d1"},"vehicle_type_id":"4","last_reported":1698433445,"current_range_meters":11600,"station_id":"ce4bgg92rcd13ifvqb30","pricing_plan_id":"free"},{"bike_id":"5016d14b-e83c-4c2f-8510-43f55b4b0774","system_id":"levelo_inurba_marseille","lat":43.299243,"lon":5.37481,"is_reserved":false,"is_disabled":false,"rental_uris":{"android":"levelo://app?vid=5016d14b-e83c-4c2f-8510-43f55b4b0774","ios":"levelo://app?vid=5016d14b-e83c-4c2f-8510-43f55b4b0774"},"vehicle_type_id":"4","last_reported":1698433445,"current_range_meters":6400,"station_id":"ce4bgjh2rcd13ifvqbg0","pricing_plan_id":"free"},{"bike_id":"a143ed95-10c5-4080-842c-56396cc1a10f","system_id":"levelo_inurba_marseille","lat":43.31162,"lon":5.38726,"is_reserved":false,"is_disabled":false,"rental_uris":{"android":"levelo://app?vid=a143ed95-10c5-4080-842c-56396cc1a10f","ios":"levelo://app?vid=a143ed95-10c5-4080-842c-56396cc1a10f"},"vehicle_type_id":"4","last_reported":1698433445,"current_range_meters":4000,"station_id":"ce4bgv12rcd13ifvqcp0","pricing_plan_id":"free"},{"bike_id":"7f814380-83e2-444f-89cb-0bc9f0b0341a","system_id":"levelo_inurba_marseille","lat":43.297774,"lon":5.370875,"is_reserved":false,"is_disabled":false,"rental_uris":{"android":"levelo://app?vid=7f814380-83e2-444f-89cb-0bc9f0b0341a","ios":"levelo://app?vid=7f814380-83e2-444f-89cb-0bc9f0b0341a"},"vehicle_type_id":"4","last_reported":1698433445,"current_range_meters":29600,"station_id":"ce4bgop2rcd13ifvqc1g","pricing_plan_id":"free"},{"bike_id":"6db68e2d-f951-4eed-b762-fc9243a00761","system_id":"levelo_inurba_marseille","lat":43.322872,"lon":5.382756,"is_reserved":false,"is_disabled":false,"rental_uris":{"android":"levelo://app?vid=6db68e2d-f951-4eed-b762-fc9243a00761","ios":"levelo://app?vid=6db68e2d-f951-4eed-b762-fc9243a00761"},"vehicle_type_id":"4","last_reported":1698433445,"current_range_meters":24400,"station_id":"ce4bhr12rcd13ifvqhqg","pricing_plan_id":"free"},{"bike_id":"79dcde0f-d8bd-4ee1-aaff-9ad67741c8cf","system_id":"levelo_inurba_marseille","lat":43.322872,"lon":5.382756,"is_reserved":false,"is_disabled":false,"rental_uris":{"android":"levelo://app?vid=79dcde0f-d8bd-4ee1-aaff-9ad67741c8cf","ios":"levelo://app?vid=79dcde0f-d8bd-4ee1-aaff-9ad67741c8cf"},"vehicle_type_id":"4","last_reported":1698433445,"current_range_meters":2800,"station_id":"ce4bhr12rcd13ifvqhqg","pricing_plan_id":"free"},{"bike_id":"57f07e97-3876-4251-bfea-d8b9d0e2d8b3","system_id":"levelo_inurba_marseille","lat":43.297774,"lon":5.370875,"is_reserved":false,"is_disabled":false,"rental_uris":{"android":"levelo://app?vid=57f07e97-3876-4251-bfea-d8b9d0e2d8b3","ios":"levelo://app?vid=57f07e97-3876-4251-bfea-d8b9d0e2d8b3"},"vehicle_type_id":"4","last_reported":1698433445,"current_range_meters":13200,"station_id":"ce4bgop2rcd13ifvqc1g","pricing_plan_id":"free"},{"bike_id":"5b4f818b-33be-48bb-8cc9-88ada6f802a4","system_id":"levelo_inurba_marseille","lat":43.322872,"lon":5.382756,"is_reserved":false,"is_disabled":false,"rental_uris":{"android":"levelo://app?vid=5b4f818b-33be-48bb-8cc9-88ada6f802a4","ios":"levelo://app?vid=5b4f818b-33be-48bb-8cc9-88ada6f802a4"},"vehicle_type_id":"4","last_reported":1698433445,"current_range_meters":14400,"station_id":"ce4bhr12rcd13ifvqhqg","pricing_plan_id":"free"},{"bike_id":"220bd685-bdb0-49e6-8e16-b5251442aff1","system_id":"levelo_inurba_marseille","lat":43.32827,"lon":5.36681,"is_reserved":false,"is_disabled":false,"rental_uris":{"android":"levelo://app?vid=220bd685-bdb0-49e6-8e16-b5251442aff1","ios":"levelo://app?vid=220bd685-bdb0-49e6-8e16-b5251442aff1"},"vehicle_type_id":"4","last_reported":1698433445,"current_range_meters":2000,"station_id":"ce4bhs92rcd13ifvqi0g","pricing_plan_id":"free"},{"bike_id":"2bf09692-7151-4aba-9fa7-8ce1d6106004","system_id":"levelo_inurba_marseille","lat":43.328303,"lon":5.366873,"is_reserved":false,"is_disabled":false,"rental_uris":{"android":"levelo://app?vid=2bf09692-7151-4aba-9fa7-8ce1d6106004","ios":"levelo://app?vid=2bf09692-7151-4aba-9fa7-8ce1d6106004"},"vehicle_type_id":"4","last_reported":1698433445,"current_range_meters":16000,"station_id":"","pricing_plan_id":"free"},{"bike_id":"b3e63496-ef57-4fe7-9649-3ee98b2a4e91","system_id":"levelo_inurba_marseille","lat":43.32831,"lon":5.36697,"is_reserved":false,"is_disabled":false,"rental_uris":{"android":"levelo://app?vid=b3e63496-ef57-4fe7-9649-3ee98b2a4e91","ios":"levelo://app?vid=b3e63496-ef57-4fe7-9649-3ee98b2a4e91"},"vehicle_type_id":"4","last_reported":1698433445,"current_range_meters":12400,"station_id":"","pricing_plan_id":"free"},{"bike_id":"7c721af1-a5b0-41f9-a74b-effa6685822a","system_id":"levelo_inurba_marseille","lat":43.32314,"lon":5.38293,"is_reserved":false,"is_disabled":false,"rental_uris":{"android":"levelo://app?vid=7c721af1-a5b0-41f9-a74b-effa6685822a","ios":"levelo://app?vid=7c721af1-a5b0-41f9-a74b-effa6685822a"},"vehicle_type_id":"4","last_reported":1698433445,"current_range_meters":10400,"station_id":"ce4bhr12rcd13ifvqhqg","pricing_plan_id":"free"},{"bike_id":"abed6bfd-346f-4c42-8378-12e13b9109d5","system_id":"levelo_inurba_marseille","lat":43.297163,"lon":5.365866,"is_reserved":false,"is_disabled":false,"rental_uris":{"android":"levelo://app?vid=abed6bfd-346f-4c42-8378-12e13b9109d5","ios":"levelo://app?vid=abed6bfd-346f-4c42-8378-12e13b9109d5"},"vehicle_type_id":"4","last_reported":1698433445,"current_range_meters":28800,"station_id":"ce4bgn12rcd13ifvqbt0","pricing_plan_id":"free"},{"bike_id":"a3c107fe-e6d0-41c2-be03-452395cf3181","system_id":"levelo_inurba_marseille","lat":43.297163,"lon":5.365866,"is_reserved":false,"is_disabled":false,"rental_uris":{"android":"levelo://app?vid=a3c107fe-e6d0-41c2-be03-452395cf3181","ios":"levelo://app?vid=a3c107fe-e6d0-41c2-be03-452395cf3181"},"vehicle_type_id":"4","last_reported":1698433445,"current_range_meters":8400,"station_id":"ce4bgn12rcd13ifvqbt0","pricing_plan_id":"free"},{"bike_id":"9c7b312b-1292-45f6-bc47-3abdbde5c9af","system_id":"levelo_inurba_marseille","lat":43.296129,"lon":5.370777,"is_reserved":false,"is_disabled":false,"rental_uris":{"android":"levelo://app?vid=9c7b312b-1292-45f6-bc47-3abdbde5c9af","ios":"levelo://app?vid=9c7b312b-1292-45f6-bc47-3abdbde5c9af"},"vehicle_type_id":"4","last_reported":1698433445,"current_range_meters":30000,"station_id":"ce4bgnh2rcd13ifvqc0g","pricing_plan_id":"free"},{"bike_id":"45725e2b-409a-4eec-bde0-5d20abd2bc55","system_id":"levelo_inurba_marseille","lat":43.29573,"lon":5.367355,"is_reserved":false,"is_disabled":false,"rental_uris":{"android":"levelo://app?vid=45725e2b-409a-4eec-bde0-5d20abd2bc55","ios":"levelo://app?vid=45725e2b-409a-4eec-bde0-5d20abd2bc55"},"vehicle_type_id":"4","last_reported":1698433445,"current_range_meters":4800,"station_id":"ce4bgph2rcd13ifvqc2g","pricing_plan_id":"free"},{"bike_id":"f215e9a2-853d-453a-b098-2cfc4822fdb7","system_id":"levelo_inurba_marseille","lat":43.29573,"lon":5.367355,"is_reserved":false,"is_disabled":false,"rental_uris":{"android":"levelo://app?vid=f215e9a2-853d-453a-b098-2cfc4822fdb7","ios":"levelo://app?vid=f215e9a2-853d-453a-b098-2cfc4822fdb7"},"vehicle_type_id":"4","last_reported":1698433445,"current_range_meters":6400,"station_id":"ce4bgph2rcd13ifvqc2g","pricing_plan_id":"free"},{"bike_id":"f3d0381f-7a2d-409e-a12f-bd3d9095653d","system_id":"levelo_inurba_marseille","lat":43.329673,"lon":5.365468,"is_reserved":false,"is_disabled":false,"rental_uris":{"android":"levelo://app?vid=f3d0381f-7a2d-409e-a12f-bd3d9095653d","ios":"levelo://app?vid=f3d0381f-7a2d-409e-a12f-bd3d9095653d"},"vehicle_type_id":"4","last_reported":1698433445,"current_range_meters":8000,"station_id":"","pricing_plan_id":"free"},{"bike_id":"8fbab5ac-3d4b-4365-ad6a-fe22b8debca3","system_id":"levelo_inurba_marseille","lat":43.29573,"lon":5.367355,"is_reserved":false,"is_disabled":false,"rental_uris":{"android":"levelo://app?vid=8fbab5ac-3d4b-4365-ad6a-fe22b8debca3","ios":"levelo://app?vid=8fbab5ac-3d4b-4365-ad6a-fe22b8debca3"},"vehicle_type_id":"4","last_reported":1698433445,"current_range_meters":12400,"station_id":"ce4bgph2rcd13ifvqc2g","pricing_plan_id":"free"},{"bike_id":"99f52ab8-3936-494e-998c-5f1950daa31f","system_id":"levelo_inurba_marseille","lat":43.29573,"lon":5.367355,"is_reserved":false,"is_disabled":false,"rental_uris":{"android":"levelo://app?vid=99f52ab8-3936-494e-998c-5f1950daa31f","ios":"levelo://app?vid=99f52ab8-3936-494e-998c-5f1950daa31f"},"vehicle_type_id":"4","last_reported":1698433445,"current_range_meters":0,"station_id":"ce4bgph2rcd13ifvqc2g","pricing_plan_id":"free"},{"bike_id":"5f0e5d1f-f1d1-4ea5-baa5-9826a6588645","system_id":"levelo_inurba_marseille","lat":43.29573,"lon":5.367355,"is_reserved":false,"is_disabled":false,"rental_uris":{"android":"levelo://app?vid=5f0e5d1f-f1d1-4ea5-baa5-9826a6588645","ios":"levelo://app?vid=5f0e5d1f-f1d1-4ea5-baa5-9826a6588645"},"vehicle_type_id":"4","last_reported":1698433445,"current_range_meters":19600,"station_id":"ce4bgph2rcd13ifvqc2g","pricing_plan_id":"free"},{"bike_id":"bb79de71-0003-4d4b-b18f-d7f792375203","system_id":"levelo_inurba_marseille","lat":43.29573,"lon":5.367355,"is_reserved":false,"is_disabled":false,"rental_uris":{"android":"levelo://app?vid=bb79de71-0003-4d4b-b18f-d7f792375203","ios":"levelo://app?vid=bb79de71-0003-4d4b-b18f-d7f792375203"},"vehicle_type_id":"4","last_reported":1698433445,"current_range_meters":16800,"station_id":"ce4bgph2rcd13ifvqc2g","pricing_plan_id":"free"},{"bike_id":"40ceefbe-6f28-4c84-b440-720d353fec1b","system_id":"levelo_inurba_marseille","lat":43.29712,"lon":5.37702,"is_reserved":false,"is_disabled":false,"rental_uris":{"android":"levelo://app?vid=40ceefbe-6f28-4c84-b440-720d353fec1b","ios":"levelo://app?vid=40ceefbe-6f28-4c84-b440-720d353fec1b"},"vehicle_type_id":"4","last_reported":1698433445,"current_range_meters":1200,"station_id":"ce4bgkh2rcd13ifvqbl0","pricing_plan_id":"free"},{"bike_id":"9d60f39e-8578-4a31-b346-095572fead32","system_id":"levelo_inurba_marseille","lat":43.317557,"lon":5.390173,"is_reserved":false,"is_disabled":false,"rental_uris":{"android":"levelo://app?vid=9d60f39e-8578-4a31-b346-095572fead32","ios":"levelo://app?vid=9d60f39e-8578-4a31-b346-095572fead32"},"vehicle_type_id":"4","last_reported":1698433445,"current_range_meters":10000,"station_id":"ce4bhqp2rcd13ifvqhng","pricing_plan_id":"free"},{"bike_id":"2f1aff9a-7cda-44be-aa9c-4d31ffd51e2b","system_id":"levelo_inurba_marseille","lat":43.298037,"lon":5.381066,"is_reserved":false,"is_disabled":false,"rental_uris":{"android":"levelo://app?vid=2f1aff9a-7cda-44be-aa9c-4d31ffd51e2b","ios":"levelo://app?vid=2f1aff9a-7cda-44be-aa9c-4d31ffd51e2b"},"vehicle_type_id":"4","last_reported":1698433445,"current_range_meters":5200,"station_id":"ce4bgip2rcd13ifvqbb0","pricing_plan_id":"free"},{"bike_id":"73b43aee-5041-405f-93d0-1d91f0a7db02","system_id":"levelo_inurba_marseille","lat":43.298037,"lon":5.381066,"is_reserved":false,"is_disabled":false,"rental_uris":{"android":"levelo://app?vid=73b43aee-5041-405f-93d0-1d91f0a7db02","ios":"levelo://app?vid=73b43aee-5041-405f-93d0-1d91f0a7db02"},"vehicle_type_id":"4","last_reported":1698433445,"current_range_meters":31600,"station_id":"ce4bgip2rcd13ifvqbb0","pricing_plan_id":"free"},{"bike_id":"146c2e22-657b-41e2-b1d4-d8c92d49355c","system_id":"levelo_inurba_marseille","lat":43.298037,"lon":5.381066,"is_reserved":false,"is_disabled":false,"rental_uris":{"android":"levelo://app?vid=146c2e22-657b-41e2-b1d4-d8c92d49355c","ios":"levelo://app?vid=146c2e22-657b-41e2-b1d4-d8c92d49355c"},"vehicle_type_id":"4","last_reported":1698433445,"current_range_meters":14400,"station_id":"ce4bgip2rcd13ifvqbb0","pricing_plan_id":"free"},{"bike_id":"d5e8fa79-baba-4d8b-ad0c-117fb78b638b","system_id":"levelo_inurba_marseille","lat":43.298037,"lon":5.381066,"is_reserved":false,"is_disabled":false,"rental_uris":{"android":"levelo://app?vid=d5e8fa79-baba-4d8b-ad0c-117fb78b638b","ios":"levelo://app?vid=d5e8fa79-baba-4d8b-ad0c-117fb78b638b"},"vehicle_type_id":"4","last_reported":1698433445,"current_range_meters":19600,"station_id":"ce4bgip2rcd13ifvqbb0","pricing_plan_id":"free"},{"bike_id":"ed537a9e-1a0f-485a-b0e3-bb703528f21b","system_id":"levelo_inurba_marseille","lat":43.298037,"lon":5.381066,"is_reserved":false,"is_disabled":false,"rental_uris":{"android":"levelo://app?vid=ed537a9e-1a0f-485a-b0e3-bb703528f21b","ios":"levelo://app?vid=ed537a9e-1a0f-485a-b0e3-bb703528f21b"},"vehicle_type_id":"4","last_reported":1698433445,"current_range_meters":24000,"station_id":"ce4bgip2rcd13ifvqbb0","pricing_plan_id":"free"},{"bike_id":"216e8356-71cc-4fe5-b1ba-23856559a886","system_id":"levelo_inurba_marseille","lat":43.30435,"lon":5.38902,"is_reserved":false,"is_disabled":false,"rental_uris":{"android":"levelo://app?vid=216e8356-71cc-4fe5-b1ba-23856559a886","ios":"levelo://app?vid=216e8356-71cc-4fe5-b1ba-23856559a886"},"vehicle_type_id":"4","last_reported":1698433445,"current_range_meters":0,"station_id":"ce4bgk12rcd13ifvqbi0","pricing_plan_id":"free"},{"bike_id":"cc618b0d-c4d8-41bb-95a6-a6c5e36d64c4","system_id":"levelo_inurba_marseille","lat":43.295279,"lon":5.375048,"is_reserved":false,"is_disabled":false,"rental_uris":{"android":"levelo://app?vid=cc618b0d-c4d8-41bb-95a6-a6c5e36d64c4","ios":"levelo://app?vid=cc618b0d-c4d8-41bb-95a6-a6c5e36d64c4"},"vehicle_type_id":"4","last_reported":1698433445,"current_range_meters":21600,"station_id":"ce4bgkp2rcd13ifvqbmg","pricing_plan_id":"free"},{"bike_id":"10869f9f-0eb7-4c6d-b88b-10db4d54bd97","system_id":"levelo_inurba_marseille","lat":43.295279,"lon":5.375048,"is_reserved":false,"is_disabled":false,"rental_uris":{"android":"levelo://app?vid=10869f9f-0eb7-4c6d-b88b-10db4d54bd97","ios":"levelo://app?vid=10869f9f-0eb7-4c6d-b88b-10db4d54bd97"},"vehicle_type_id":"4","last_reported":1698433445,"current_range_meters":4800,"station_id":"ce4bgkp2rcd13ifvqbmg","pricing_plan_id":"free"},{"bike_id":"f9ada8f4-306a-4e8d-9655-e1b3195ae003","system_id":"levelo_inurba_marseille","lat":43.296263,"lon":5.377094,"is_reserved":false,"is_disabled":false,"rental_uris":{"android":"levelo://app?vid=f9ada8f4-306a-4e8d-9655-e1b3195ae003","ios":"levelo://app?vid=f9ada8f4-306a-4e8d-9655-e1b3195ae003"},"vehicle_type_id":"4","last_reported":1698433445,"current_range_meters":10000,"station_id":"ce4bgi92rcd13ifvqb90","pricing_plan_id":"free"},{"bike_id":"6cbcc146-28d6-4c3c-bb9e-40ce667d97d2","system_id":"levelo_inurba_marseille","lat":43.295279,"lon":5.375048,"is_reserved":false,"is_disabled":false,"rental_uris":{"android":"levelo://app?vid=6cbcc146-28d6-4c3c-bb9e-40ce667d97d2","ios":"levelo://app?vid=6cbcc146-28d6-4c3c-bb9e-40ce667d97d2"},"vehicle_type_id":"4","last_reported":1698433445,"current_range_meters":3200,"station_id":"ce4bgkp2rcd13ifvqbmg","pricing_plan_id":"free"},{"bike_id":"c843ed2f-a52f-4c0e-90ce-bcb0584589e3","system_id":"levelo_inurba_marseille","lat":43.299777,"lon":5.384887,"is_reserved":false,"is_disabled":false,"rental_uris":{"android":"levelo://app?vid=c843ed2f-a52f-4c0e-90ce-bcb0584589e3","ios":"levelo://app?vid=c843ed2f-a52f-4c0e-90ce-bcb0584589e3"},"vehicle_type_id":"4","last_reported":1698433445,"current_range_meters":0,"station_id":"ce4bgj92rcd13ifvqbd0","pricing_plan_id":"free"},{"bike_id":"de9119cb-5fc6-40a3-a771-a19377044208","system_id":"levelo_inurba_marseille","lat":43.295279,"lon":5.375048,"is_reserved":false,"is_disabled":false,"rental_uris":{"android":"levelo://app?vid=de9119cb-5fc6-40a3-a771-a19377044208","ios":"levelo://app?vid=de9119cb-5fc6-40a3-a771-a19377044208"},"vehicle_type_id":"4","last_reported":1698433445,"current_range_meters":15200,"station_id":"ce4bgkp2rcd13ifvqbmg","pricing_plan_id":"free"},{"bike_id":"2ce14445-eaf8-4ec8-9f13-c58f9193f89b","system_id":"levelo_inurba_marseille","lat":43.299707,"lon":5.384859,"is_reserved":false,"is_disabled":false,"rental_uris":{"android":"levelo://app?vid=2ce14445-eaf8-4ec8-9f13-c58f9193f89b","ios":"levelo://app?vid=2ce14445-eaf8-4ec8-9f13-c58f9193f89b"},"vehicle_type_id":"4","last_reported":1698433445,"current_range_meters":31200,"station_id":"ce4bgj92rcd13ifvqbd0","pricing_plan_id":"free"},{"bike_id":"6c86c6b0-3128-4084-8079-12714a7863c4","system_id":"levelo_inurba_marseille","lat":43.29969,"lon":5.38501,"is_reserved":false,"is_disabled":false,"rental_uris":{"android":"levelo://app?vid=6c86c6b0-3128-4084-8079-12714a7863c4","ios":"levelo://app?vid=6c86c6b0-3128-4084-8079-12714a7863c4"},"vehicle_type_id":"4","last_reported":1698433445,"current_range_meters":23200,"station_id":"","pricing_plan_id":"free"},{"bike_id":"50ba0a4e-dc52-4b36-bbea-ef74378b458b","system_id":"levelo_inurba_marseille","lat":43.29698,"lon":5.3812,"is_reserved":false,"is_disabled":false,"rental_uris":{"android":"levelo://app?vid=50ba0a4e-dc52-4b36-bbea-ef74378b458b","ios":"levelo://app?vid=50ba0a4e-dc52-4b36-bbea-ef74378b458b"},"vehicle_type_id":"4","last_reported":1698433445,"current_range_meters":0,"station_id":"","pricing_plan_id":"free"},{"bike_id":"90b60a7f-1bcc-4592-8aec-a9ff6ca5280e","system_id":"levelo_inurba_marseille","lat":43.32363,"lon":5.38884,"is_reserved":false,"is_disabled":false,"rental_uris":{"android":"levelo://app?vid=90b60a7f-1bcc-4592-8aec-a9ff6ca5280e","ios":"levelo://app?vid=90b60a7f-1bcc-4592-8aec-a9ff6ca5280e"},"vehicle_type_id":"4","last_reported":1698433445,"current_range_meters":16400,"station_id":"ce4bhqp2rcd13ifvqhog","pricing_plan_id":"free"},{"bike_id":"dd53f42d-32f3-4d00-b5fd-d6ea44bf49ee","system_id":"levelo_inurba_marseille","lat":43.323685,"lon":5.389111,"is_reserved":false,"is_disabled":false,"rental_uris":{"android":"levelo://app?vid=dd53f42d-32f3-4d00-b5fd-d6ea44bf49ee","ios":"levelo://app?vid=dd53f42d-32f3-4d00-b5fd-d6ea44bf49ee"},"vehicle_type_id":"4","last_reported":1698433445,"current_range_meters":26800,"station_id":"","pricing_plan_id":"free"},{"bike_id":"11676c6f-7121-46f3-99f1-214e7f63db0d","system_id":"levelo_inurba_marseille","lat":43.29601,"lon":5.381084,"is_reserved":false,"is_disabled":false,"rental_uris":{"android":"levelo://app?vid=11676c6f-7121-46f3-99f1-214e7f63db0d","ios":"levelo://app?vid=11676c6f-7121-46f3-99f1-214e7f63db0d"},"vehicle_type_id":"4","last_reported":1698433445,"current_range_meters":28400,"station_id":"ce4bgl12rcd13ifvqbo0","pricing_plan_id":"free"},{"bike_id":"220a2283-a871-4627-a6eb-37eedc98ee22","system_id":"levelo_inurba_marseille","lat":43.29602,"lon":5.381084,"is_reserved":false,"is_disabled":false,"rental_uris":{"android":"levelo://app?vid=220a2283-a871-4627-a6eb-37eedc98ee22","ios":"levelo://app?vid=220a2283-a871-4627-a6eb-37eedc98ee22"},"vehicle_type_id":"4","last_reported":1698433445,"current_range_meters":31200,"station_id":"ce4bgl12rcd13ifvqbo0","pricing_plan_id":"free"},{"bike_id":"68989353-4991-4da3-aee5-225b427d8ab3","system_id":"levelo_inurba_marseille","lat":43.29601,"lon":5.381084,"is_reserved":false,"is_disabled":false,"rental_uris":{"android":"levelo://app?vid=68989353-4991-4da3-aee5-225b427d8ab3","ios":"levelo://app?vid=68989353-4991-4da3-aee5-225b427d8ab3"},"vehicle_type_id":"4","last_reported":1698433445,"current_range_meters":16800,"station_id":"ce4bgl12rcd13ifvqbo0","pricing_plan_id":"free"},{"bike_id":"8ef2d74a-3ea9-4e03-81d8-eb75553517c3","system_id":"levelo_inurba_marseille","lat":43.295904,"lon":5.380946,"is_reserved":false,"is_disabled":false,"rental_uris":{"android":"levelo://app?vid=8ef2d74a-3ea9-4e03-81d8-eb75553517c3","ios":"levelo://app?vid=8ef2d74a-3ea9-4e03-81d8-eb75553517c3"},"vehicle_type_id":"4","last_reported":1698433445,"current_range_meters":31200,"station_id":"ce4bgl12rcd13ifvqbo0","pricing_plan_id":"free"},{"bike_id":"da92e02f-d761-43e4-90c0-6b4a24c7fb28","system_id":"levelo_inurba_marseille","lat":43.29602,"lon":5.381084,"is_reserved":false,"is_disabled":false,"rental_uris":{"android":"levelo://app?vid=da92e02f-d761-43e4-90c0-6b4a24c7fb28","ios":"levelo://app?vid=da92e02f-d761-43e4-90c0-6b4a24c7fb28"},"vehicle_type_id":"4","last_reported":1698433445,"current_range_meters":27600,"station_id":"ce4bgl12rcd13ifvqbo0","pricing_plan_id":"free"},{"bike_id":"19795ed6-7a9b-486e-8cb1-dae3fd46a40b","system_id":"levelo_inurba_marseille","lat":43.29309,"lon":5.37177,"is_reserved":false,"is_disabled":false,"rental_uris":{"android":"levelo://app?vid=19795ed6-7a9b-486e-8cb1-dae3fd46a40b","ios":"levelo://app?vid=19795ed6-7a9b-486e-8cb1-dae3fd46a40b"},"vehicle_type_id":"4","last_reported":1698433445,"current_range_meters":0,"station_id":"ce4bgh92rcd13ifvqb40","pricing_plan_id":"free"},{"bike_id":"bbab7e28-ee01-4080-b12e-dd8baccd43d0","system_id":"levelo_inurba_marseille","lat":43.32394,"lon":5.389747,"is_reserved":false,"is_disabled":false,"rental_uris":{"android":"levelo://app?vid=bbab7e28-ee01-4080-b12e-dd8baccd43d0","ios":"levelo://app?vid=bbab7e28-ee01-4080-b12e-dd8baccd43d0"},"vehicle_type_id":"4","last_reported":1698433445,"current_range_meters":12000,"station_id":"","pricing_plan_id":"free"},{"bike_id":"63af720a-0b39-4a86-b3b9-62322025a76a","system_id":"levelo_inurba_marseille","lat":43.29302,"lon":5.37458,"is_reserved":false,"is_disabled":false,"rental_uris":{"android":"levelo://app?vid=63af720a-0b39-4a86-b3b9-62322025a76a","ios":"levelo://app?vid=63af720a-0b39-4a86-b3b9-62322025a76a"},"vehicle_type_id":"4","last_reported":1698433445,"current_range_meters":0,"station_id":"ce4bgi12rcd13ifvqb70","pricing_plan_id":"free"},{"bike_id":"a504b483-1d12-47df-b33d-6390042e99fb","system_id":"levelo_inurba_marseille","lat":43.293009,"lon":5.374584,"is_reserved":false,"is_disabled":false,"rental_uris":{"android":"levelo://app?vid=a504b483-1d12-47df-b33d-6390042e99fb","ios":"levelo://app?vid=a504b483-1d12-47df-b33d-6390042e99fb"},"vehicle_type_id":"4","last_reported":1698433445,"current_range_meters":400,"station_id":"ce4bgi12rcd13ifvqb70","pricing_plan_id":"free"},{"bike_id":"e710806a-2592-4df1-9f37-67668ee3e03a","system_id":"levelo_inurba_marseille","lat":43.293009,"lon":5.374584,"is_reserved":false,"is_disabled":false,"rental_uris":{"android":"levelo://app?vid=e710806a-2592-4df1-9f37-67668ee3e03a","ios":"levelo://app?vid=e710806a-2592-4df1-9f37-67668ee3e03a"},"vehicle_type_id":"4","last_reported":1698433445,"current_range_meters":11200,"station_id":"ce4bgi12rcd13ifvqb70","pricing_plan_id":"free"},{"bike_id":"df589c34-8649-4b8f-9417-ca74309a95e2","system_id":"levelo_inurba_marseille","lat":43.305863,"lon":5.393603,"is_reserved":false,"is_disabled":false,"rental_uris":{"android":"levelo://app?vid=df589c34-8649-4b8f-9417-ca74309a95e2","ios":"levelo://app?vid=df589c34-8649-4b8f-9417-ca74309a95e2"},"vehicle_type_id":"4","last_reported":1698433445,"current_range_meters":0,"station_id":"ce4bh0p2rcd13ifvqd80","pricing_plan_id":"free"},{"bike_id":"2a682ea3-fd74-4b12-ab79-0aa571b6feab","system_id":"levelo_inurba_marseille","lat":43.305994,"lon":5.393687,"is_reserved":false,"is_disabled":false,"rental_uris":{"android":"levelo://app?vid=2a682ea3-fd74-4b12-ab79-0aa571b6feab","ios":"levelo://app?vid=2a682ea3-fd74-4b12-ab79-0aa571b6feab"},"vehicle_type_id":"4","last_reported":1698433445,"current_range_meters":15200,"station_id":"ce4bh0p2rcd13ifvqd80","pricing_plan_id":"free"},{"bike_id":"322eb87b-24a5-4a9c-aa5c-9264ef8a9983","system_id":"levelo_inurba_marseille","lat":43.30301,"lon":5.39203,"is_reserved":false,"is_disabled":false,"rental_uris":{"android":"levelo://app?vid=322eb87b-24a5-4a9c-aa5c-9264ef8a9983","ios":"levelo://app?vid=322eb87b-24a5-4a9c-aa5c-9264ef8a9983"},"vehicle_type_id":"4","last_reported":1698433445,"current_range_meters":1600,"station_id":"ce4bgkh2rcd13ifvqbk0","pricing_plan_id":"free"},{"bike_id":"910ad462-e3e6-4cb7-81f9-a39ff8726ea0","system_id":"levelo_inurba_marseille","lat":43.303002,"lon":5.392142,"is_reserved":false,"is_disabled":false,"rental_uris":{"android":"levelo://app?vid=910ad462-e3e6-4cb7-81f9-a39ff8726ea0","ios":"levelo://app?vid=910ad462-e3e6-4cb7-81f9-a39ff8726ea0"},"vehicle_type_id":"4","last_reported":1698433445,"current_range_meters":26000,"station_id":"ce4bgkh2rcd13ifvqbk0","pricing_plan_id":"free"},{"bike_id":"30661ff5-cb60-4963-89ca-02532c1cb8a5","system_id":"levelo_inurba_marseille","lat":43.2936,"lon":5.37835,"is_reserved":false,"is_disabled":false,"rental_uris":{"android":"levelo://app?vid=30661ff5-cb60-4963-89ca-02532c1cb8a5","ios":"levelo://app?vid=30661ff5-cb60-4963-89ca-02532c1cb8a5"},"vehicle_type_id":"4","last_reported":1698433445,"current_range_meters":7600,"station_id":"ce4bgjh2rcd13ifvqbf0","pricing_plan_id":"free"},{"bike_id":"c39933d1-4a25-44e2-8933-b9c3f7d990de","system_id":"levelo_inurba_marseille","lat":43.300852,"lon":5.390859,"is_reserved":false,"is_disabled":false,"rental_uris":{"android":"levelo://app?vid=c39933d1-4a25-44e2-8933-b9c3f7d990de","ios":"levelo://app?vid=c39933d1-4a25-44e2-8933-b9c3f7d990de"},"vehicle_type_id":"4","last_reported":1698433445,"current_range_meters":4800,"station_id":"ce4bh192rcd13ifvqdb0","pricing_plan_id":"free"},{"bike_id":"dac91787-d9b0-465d-b613-a584b33dca37","system_id":"levelo_inurba_marseille","lat":43.291994,"lon":5.357886,"is_reserved":false,"is_disabled":false,"rental_uris":{"android":"levelo://app?vid=dac91787-d9b0-465d-b613-a584b33dca37","ios":"levelo://app?vid=dac91787-d9b0-465d-b613-a584b33dca37"},"vehicle_type_id":"4","last_reported":1698433445,"current_range_meters":13200,"station_id":"ce4bhb12rcd13ifvqel0","pricing_plan_id":"free"},{"bike_id":"d8586843-63f1-47b2-bfcc-0796f4ce17db","system_id":"levelo_inurba_marseille","lat":43.29867,"lon":5.38906,"is_reserved":false,"is_disabled":false,"rental_uris":{"android":"levelo://app?vid=d8586843-63f1-47b2-bfcc-0796f4ce17db","ios":"levelo://app?vid=d8586843-63f1-47b2-bfcc-0796f4ce17db"},"vehicle_type_id":"4","last_reported":1698433445,"current_range_meters":4800,"station_id":"ce4bh392rcd13ifvqdl0","pricing_plan_id":"free"},{"bike_id":"58ab8392-aebc-4399-9c9b-759d0c9c9d05","system_id":"levelo_inurba_marseille","lat":43.31328,"lon":5.39692,"is_reserved":false,"is_disabled":false,"rental_uris":{"android":"levelo://app?vid=58ab8392-aebc-4399-9c9b-759d0c9c9d05","ios":"levelo://app?vid=58ab8392-aebc-4399-9c9b-759d0c9c9d05"},"vehicle_type_id":"4","last_reported":1698433445,"current_range_meters":16000,"station_id":"ce4bgvp2rcd13ifvqcu0","pricing_plan_id":"free"},{"bike_id":"95ba4116-c30c-45ed-b801-34f730be6db7","system_id":"levelo_inurba_marseille","lat":43.31328,"lon":5.39692,"is_reserved":false,"is_disabled":false,"rental_uris":{"android":"levelo://app?vid=95ba4116-c30c-45ed-b801-34f730be6db7","ios":"levelo://app?vid=95ba4116-c30c-45ed-b801-34f730be6db7"},"vehicle_type_id":"4","last_reported":1698433445,"current_range_meters":24000,"station_id":"ce4bgvp2rcd13ifvqcu0","pricing_plan_id":"free"},{"bike_id":"a6dbde6d-8acd-4609-89c6-9072010209c4","system_id":"levelo_inurba_marseille","lat":43.31325,"lon":5.39697,"is_reserved":false,"is_disabled":false,"rental_uris":{"android":"levelo://app?vid=a6dbde6d-8acd-4609-89c6-9072010209c4","ios":"levelo://app?vid=a6dbde6d-8acd-4609-89c6-9072010209c4"},"vehicle_type_id":"4","last_reported":1698433445,"current_range_meters":16000,"station_id":"ce4bgvp2rcd13ifvqcu0","pricing_plan_id":"free"},{"bike_id":"b883d913-a6e8-4acb-b354-dfb8f8c73a57","system_id":"levelo_inurba_marseille","lat":43.309038,"lon":5.396546,"is_reserved":false,"is_disabled":false,"rental_uris":{"android":"levelo://app?vid=b883d913-a6e8-4acb-b354-dfb8f8c73a57","ios":"levelo://app?vid=b883d913-a6e8-4acb-b354-dfb8f8c73a57"},"vehicle_type_id":"4","last_reported":1698433445,"current_range_meters":800,"station_id":"ce4bh012rcd13ifvqcv0","pricing_plan_id":"free"},{"bike_id":"381d3d0c-5902-438c-857a-8fa74dd4ae10","system_id":"levelo_inurba_marseille","lat":43.29529,"lon":5.385581,"is_reserved":false,"is_disabled":false,"rental_uris":{"android":"levelo://app?vid=381d3d0c-5902-438c-857a-8fa74dd4ae10","ios":"levelo://app?vid=381d3d0c-5902-438c-857a-8fa74dd4ae10"},"vehicle_type_id":"4","last_reported":1698433445,"current_range_meters":27600,"station_id":"ce4bgih2rcd13ifvqba0","pricing_plan_id":"free"},{"bike_id":"cd56a1c7-25fc-44f8-b0c2-7c3166c817fc","system_id":"levelo_inurba_marseille","lat":43.29529,"lon":5.385581,"is_reserved":false,"is_disabled":false,"rental_uris":{"android":"levelo://app?vid=cd56a1c7-25fc-44f8-b0c2-7c3166c817fc","ios":"levelo://app?vid=cd56a1c7-25fc-44f8-b0c2-7c3166c817fc"},"vehicle_type_id":"4","last_reported":1698433445,"current_range_meters":22800,"station_id":"ce4bgih2rcd13ifvqba0","pricing_plan_id":"free"},{"bike_id":"214483a2-d463-4d85-b835-fb54b7f602f1","system_id":"levelo_inurba_marseille","lat":43.29529,"lon":5.385581,"is_reserved":false,"is_disabled":false,"rental_uris":{"android":"levelo://app?vid=214483a2-d463-4d85-b835-fb54b7f602f1","ios":"levelo://app?vid=214483a2-d463-4d85-b835-fb54b7f602f1"},"vehicle_type_id":"4","last_reported":1698433445,"current_range_meters":27600,"station_id":"ce4bgih2rcd13ifvqba0","pricing_plan_id":"free"},{"bike_id":"126d4670-e812-40c6-9f2a-535ee2ec9a6b","system_id":"levelo_inurba_marseille","lat":43.33219,"lon":5.38149,"is_reserved":false,"is_disabled":false,"rental_uris":{"android":"levelo://app?vid=126d4670-e812-40c6-9f2a-535ee2ec9a6b","ios":"levelo://app?vid=126d4670-e812-40c6-9f2a-535ee2ec9a6b"},"vehicle_type_id":"4","last_reported":1698433445,"current_range_meters":0,"station_id":"","pricing_plan_id":"free"},{"bike_id":"747d1e0b-b715-4712-b824-0b1d70ca0390","system_id":"levelo_inurba_marseille","lat":43.290779,"lon":5.371482,"is_reserved":false,"is_disabled":false,"rental_uris":{"android":"levelo://app?vid=747d1e0b-b715-4712-b824-0b1d70ca0390","ios":"levelo://app?vid=747d1e0b-b715-4712-b824-0b1d70ca0390"},"vehicle_type_id":"4","last_reported":1698433445,"current_range_meters":17600,"station_id":"ce4bh5p2rcd13ifvqe4g","pricing_plan_id":"free"},{"bike_id":"9b5d8512-53f7-4da6-92bf-f65d23cbc0a0","system_id":"levelo_inurba_marseille","lat":43.29529,"lon":5.385581,"is_reserved":false,"is_disabled":false,"rental_uris":{"android":"levelo://app?vid=9b5d8512-53f7-4da6-92bf-f65d23cbc0a0","ios":"levelo://app?vid=9b5d8512-53f7-4da6-92bf-f65d23cbc0a0"},"vehicle_type_id":"4","last_reported":1698433445,"current_range_meters":22400,"station_id":"ce4bgih2rcd13ifvqba0","pricing_plan_id":"free"},{"bike_id":"d445e7dc-8f39-4198-8d15-1838ad42556e","system_id":"levelo_inurba_marseille","lat":43.302079,"lon":5.394659,"is_reserved":false,"is_disabled":false,"rental_uris":{"android":"levelo://app?vid=d445e7dc-8f39-4198-8d15-1838ad42556e","ios":"levelo://app?vid=d445e7dc-8f39-4198-8d15-1838ad42556e"},"vehicle_type_id":"4","last_reported":1698433445,"current_range_meters":20000,"station_id":"ce4bh0p2rcd13ifvqd70","pricing_plan_id":"free"},{"bike_id":"3ba9337c-3a4c-4b79-bb22-9c08f678ee27","system_id":"levelo_inurba_marseille","lat":43.3339,"lon":5.37907,"is_reserved":false,"is_disabled":false,"rental_uris":{"android":"levelo://app?vid=3ba9337c-3a4c-4b79-bb22-9c08f678ee27","ios":"levelo://app?vid=3ba9337c-3a4c-4b79-bb22-9c08f678ee27"},"vehicle_type_id":"4","last_reported":1698433445,"current_range_meters":18000,"station_id":"","pricing_plan_id":"free"},{"bike_id":"b24a079b-ad61-494b-845e-72f8baab72c4","system_id":"levelo_inurba_marseille","lat":43.290092,"lon":5.372904,"is_reserved":false,"is_disabled":false,"rental_uris":{"android":"levelo://app?vid=b24a079b-ad61-494b-845e-72f8baab72c4","ios":"levelo://app?vid=b24a079b-ad61-494b-845e-72f8baab72c4"},"vehicle_type_id":"4","last_reported":1698433445,"current_range_meters":4400,"station_id":"","pricing_plan_id":"free"},{"bike_id":"110f9279-009b-45a9-8ff9-d385afa02703","system_id":"levelo_inurba_marseille","lat":43.294162,"lon":5.386292,"is_reserved":false,"is_disabled":false,"rental_uris":{"android":"levelo://app?vid=110f9279-009b-45a9-8ff9-d385afa02703","ios":"levelo://app?vid=110f9279-009b-45a9-8ff9-d385afa02703"},"vehicle_type_id":"4","last_reported":1698433445,"current_range_meters":24400,"station_id":"ce4bh2h2rcd13ifvqdh0","pricing_plan_id":"free"},{"bike_id":"8fc37517-2ef6-4f9d-ba25-4d30be19b133","system_id":"levelo_inurba_marseille","lat":43.29415,"lon":5.38619,"is_reserved":false,"is_disabled":false,"rental_uris":{"android":"levelo://app?vid=8fc37517-2ef6-4f9d-ba25-4d30be19b133","ios":"levelo://app?vid=8fc37517-2ef6-4f9d-ba25-4d30be19b133"},"vehicle_type_id":"4","last_reported":1698433445,"current_range_meters":22000,"station_id":"ce4bh2h2rcd13ifvqdh0","pricing_plan_id":"free"},{"bike_id":"2dd837fa-e94b-447f-ad5e-aca62ce8a2aa","system_id":"levelo_inurba_marseille","lat":43.294153,"lon":5.386305,"is_reserved":false,"is_disabled":false,"rental_uris":{"android":"levelo://app?vid=2dd837fa-e94b-447f-ad5e-aca62ce8a2aa","ios":"levelo://app?vid=2dd837fa-e94b-447f-ad5e-aca62ce8a2aa"},"vehicle_type_id":"4","last_reported":1698433445,"current_range_meters":25200,"station_id":"ce4bh2h2rcd13ifvqdh0","pricing_plan_id":"free"},{"bike_id":"e13e2128-f953-4260-ba55-605b306ff21b","system_id":"levelo_inurba_marseille","lat":43.294162,"lon":5.386292,"is_reserved":false,"is_disabled":false,"rental_uris":{"android":"levelo://app?vid=e13e2128-f953-4260-ba55-605b306ff21b","ios":"levelo://app?vid=e13e2128-f953-4260-ba55-605b306ff21b"},"vehicle_type_id":"4","last_reported":1698433445,"current_range_meters":0,"station_id":"ce4bh2h2rcd13ifvqdh0","pricing_plan_id":"free"},{"bike_id":"c83405d4-3618-418e-b9d5-ff267c097219","system_id":"levelo_inurba_marseille","lat":43.289184,"lon":5.366408,"is_reserved":false,"is_disabled":false,"rental_uris":{"android":"levelo://app?vid=c83405d4-3618-418e-b9d5-ff267c097219","ios":"levelo://app?vid=c83405d4-3618-418e-b9d5-ff267c097219"},"vehicle_type_id":"4","last_reported":1698433445,"current_range_meters":22800,"station_id":"ce4bhap2rcd13ifvqek0","pricing_plan_id":"free"},{"bike_id":"bc76614d-5504-4d23-80d7-7731bd00fb91","system_id":"levelo_inurba_marseille","lat":43.294162,"lon":5.386292,"is_reserved":false,"is_disabled":false,"rental_uris":{"android":"levelo://app?vid=bc76614d-5504-4d23-80d7-7731bd00fb91","ios":"levelo://app?vid=bc76614d-5504-4d23-80d7-7731bd00fb91"},"vehicle_type_id":"4","last_reported":1698433445,"current_range_meters":20000,"station_id":"ce4bh2h2rcd13ifvqdh0","pricing_plan_id":"free"},{"bike_id":"0a33d2cc-8028-4c1b-9367-7c5960d74641","system_id":"levelo_inurba_marseille","lat":43.294153,"lon":5.386305,"is_reserved":false,"is_disabled":false,"rental_uris":{"android":"levelo://app?vid=0a33d2cc-8028-4c1b-9367-7c5960d74641","ios":"levelo://app?vid=0a33d2cc-8028-4c1b-9367-7c5960d74641"},"vehicle_type_id":"4","last_reported":1698433445,"current_range_meters":30000,"station_id":"ce4bh2h2rcd13ifvqdh0","pricing_plan_id":"free"},{"bike_id":"ef71b56a-5d66-4e7c-84b1-11fb7967f673","system_id":"levelo_inurba_marseille","lat":43.294162,"lon":5.386292,"is_reserved":false,"is_disabled":false,"rental_uris":{"android":"levelo://app?vid=ef71b56a-5d66-4e7c-84b1-11fb7967f673","ios":"levelo://app?vid=ef71b56a-5d66-4e7c-84b1-11fb7967f673"},"vehicle_type_id":"4","last_reported":1698433445,"current_range_meters":14000,"station_id":"ce4bh2h2rcd13ifvqdh0","pricing_plan_id":"free"},{"bike_id":"322a52a2-c7a5-4d6e-a0d2-47d8537d40c2","system_id":"levelo_inurba_marseille","lat":43.289468,"lon":5.363719,"is_reserved":false,"is_disabled":false,"rental_uris":{"android":"levelo://app?vid=322a52a2-c7a5-4d6e-a0d2-47d8537d40c2","ios":"levelo://app?vid=322a52a2-c7a5-4d6e-a0d2-47d8537d40c2"},"vehicle_type_id":"4","last_reported":1698433445,"current_range_meters":5600,"station_id":"ce4bhc92rcd13ifvqetg","pricing_plan_id":"free"},{"bike_id":"ba642e15-9f38-4456-9480-e77d07f31dcd","system_id":"levelo_inurba_marseille","lat":43.294162,"lon":5.386292,"is_reserved":false,"is_disabled":false,"rental_uris":{"android":"levelo://app?vid=ba642e15-9f38-4456-9480-e77d07f31dcd","ios":"levelo://app?vid=ba642e15-9f38-4456-9480-e77d07f31dcd"},"vehicle_type_id":"4","last_reported":1698433445,"current_range_meters":18800,"station_id":"ce4bh2h2rcd13ifvqdh0","pricing_plan_id":"free"},{"bike_id":"fa509c92-c207-4ec7-b0a3-f7e6ed574a3f","system_id":"levelo_inurba_marseille","lat":43.294162,"lon":5.386292,"is_reserved":false,"is_disabled":false,"rental_uris":{"android":"levelo://app?vid=fa509c92-c207-4ec7-b0a3-f7e6ed574a3f","ios":"levelo://app?vid=fa509c92-c207-4ec7-b0a3-f7e6ed574a3f"},"vehicle_type_id":"4","last_reported":1698433445,"current_range_meters":15600,"station_id":"ce4bh2h2rcd13ifvqdh0","pricing_plan_id":"free"},{"bike_id":"bd082da3-5803-432a-b178-ff03f7d1c0e9","system_id":"levelo_inurba_marseille","lat":43.289184,"lon":5.366408,"is_reserved":false,"is_disabled":false,"rental_uris":{"android":"levelo://app?vid=bd082da3-5803-432a-b178-ff03f7d1c0e9","ios":"levelo://app?vid=bd082da3-5803-432a-b178-ff03f7d1c0e9"},"vehicle_type_id":"4","last_reported":1698433445,"current_range_meters":28000,"station_id":"ce4bhap2rcd13ifvqek0","pricing_plan_id":"free"},{"bike_id":"f83d1fba-f332-4b35-bf77-a82b8cd19209","system_id":"levelo_inurba_marseille","lat":43.289184,"lon":5.366408,"is_reserved":false,"is_disabled":false,"rental_uris":{"android":"levelo://app?vid=f83d1fba-f332-4b35-bf77-a82b8cd19209","ios":"levelo://app?vid=f83d1fba-f332-4b35-bf77-a82b8cd19209"},"vehicle_type_id":"4","last_reported":1698433445,"current_range_meters":12000,"station_id":"ce4bhap2rcd13ifvqek0","pricing_plan_id":"free"},{"bike_id":"a95b5aaf-f35e-48bc-b5e4-9e1d474ab1fe","system_id":"levelo_inurba_marseille","lat":43.292736,"lon":5.384452,"is_reserved":false,"is_disabled":false,"rental_uris":{"android":"levelo://app?vid=a95b5aaf-f35e-48bc-b5e4-9e1d474ab1fe","ios":"levelo://app?vid=a95b5aaf-f35e-48bc-b5e4-9e1d474ab1fe"},"vehicle_type_id":"4","last_reported":1698433445,"current_range_meters":2400,"station_id":"ce4bh692rcd13ifvqea0","pricing_plan_id":"free"},{"bike_id":"9b054cef-0643-428e-9d1e-214748f049cf","system_id":"levelo_inurba_marseille","lat":43.29269,"lon":5.38436,"is_reserved":false,"is_disabled":false,"rental_uris":{"android":"levelo://app?vid=9b054cef-0643-428e-9d1e-214748f049cf","ios":"levelo://app?vid=9b054cef-0643-428e-9d1e-214748f049cf"},"vehicle_type_id":"4","last_reported":1698433445,"current_range_meters":9600,"station_id":"ce4bh692rcd13ifvqea0","pricing_plan_id":"free"},{"bike_id":"1060dec4-9a4f-4d0e-993f-418dc9a4e188","system_id":"levelo_inurba_marseille","lat":43.29272,"lon":5.38444,"is_reserved":false,"is_disabled":false,"rental_uris":{"android":"levelo://app?vid=1060dec4-9a4f-4d0e-993f-418dc9a4e188","ios":"levelo://app?vid=1060dec4-9a4f-4d0e-993f-418dc9a4e188"},"vehicle_type_id":"4","last_reported":1698433445,"current_range_meters":7200,"station_id":"ce4bh692rcd13ifvqea0","pricing_plan_id":"free"},{"bike_id":"ed19a530-74b8-442a-8460-1336b8ac7ce4","system_id":"levelo_inurba_marseille","lat":43.29269,"lon":5.3844,"is_reserved":false,"is_disabled":false,"rental_uris":{"android":"levelo://app?vid=ed19a530-74b8-442a-8460-1336b8ac7ce4","ios":"levelo://app?vid=ed19a530-74b8-442a-8460-1336b8ac7ce4"},"vehicle_type_id":"4","last_reported":1698433445,"current_range_meters":29200,"station_id":"ce4bh692rcd13ifvqea0","pricing_plan_id":"free"},{"bike_id":"da3347ee-4bb6-4e61-a3ca-65715ff77dca","system_id":"levelo_inurba_marseille","lat":43.29267,"lon":5.38438,"is_reserved":false,"is_disabled":false,"rental_uris":{"android":"levelo://app?vid=da3347ee-4bb6-4e61-a3ca-65715ff77dca","ios":"levelo://app?vid=da3347ee-4bb6-4e61-a3ca-65715ff77dca"},"vehicle_type_id":"4","last_reported":1698433445,"current_range_meters":21600,"station_id":"ce4bh692rcd13ifvqea0","pricing_plan_id":"free"},{"bike_id":"cc2c61c0-4c68-46c3-a0fa-46435c663399","system_id":"levelo_inurba_marseille","lat":43.29267,"lon":5.38442,"is_reserved":false,"is_disabled":false,"rental_uris":{"android":"levelo://app?vid=cc2c61c0-4c68-46c3-a0fa-46435c663399","ios":"levelo://app?vid=cc2c61c0-4c68-46c3-a0fa-46435c663399"},"vehicle_type_id":"4","last_reported":1698433445,"current_range_meters":21200,"station_id":"ce4bh692rcd13ifvqea0","pricing_plan_id":"free"},{"bike_id":"7f08f29b-e283-4715-9497-794cad3926fc","system_id":"levelo_inurba_marseille","lat":43.29266,"lon":5.38441,"is_reserved":false,"is_disabled":false,"rental_uris":{"android":"levelo://app?vid=7f08f29b-e283-4715-9497-794cad3926fc","ios":"levelo://app?vid=7f08f29b-e283-4715-9497-794cad3926fc"},"vehicle_type_id":"4","last_reported":1698433445,"current_range_meters":6000,"station_id":"ce4bh692rcd13ifvqea0","pricing_plan_id":"free"},{"bike_id":"4b64dadd-2c2f-43e8-8b33-122fbba0fc58","system_id":"levelo_inurba_marseille","lat":43.29266,"lon":5.38444,"is_reserved":false,"is_disabled":false,"rental_uris":{"android":"levelo://app?vid=4b64dadd-2c2f-43e8-8b33-122fbba0fc58","ios":"levelo://app?vid=4b64dadd-2c2f-43e8-8b33-122fbba0fc58"},"vehicle_type_id":"4","last_reported":1698433445,"current_range_meters":8000,"station_id":"ce4bh692rcd13ifvqea0","pricing_plan_id":"free"},{"bike_id":"1fb6be12-505a-4537-86e1-37e560ae8899","system_id":"levelo_inurba_marseille","lat":43.292639,"lon":5.384395,"is_reserved":false,"is_disabled":false,"rental_uris":{"android":"levelo://app?vid=1fb6be12-505a-4537-86e1-37e560ae8899","ios":"levelo://app?vid=1fb6be12-505a-4537-86e1-37e560ae8899"},"vehicle_type_id":"4","last_reported":1698433445,"current_range_meters":14800,"station_id":"ce4bh692rcd13ifvqea0","pricing_plan_id":"free"},{"bike_id":"b2ca91a7-d2c3-4ed8-ba34-eba4e3b2a691","system_id":"levelo_inurba_marseille","lat":43.29265,"lon":5.38444,"is_reserved":false,"is_disabled":false,"rental_uris":{"android":"levelo://app?vid=b2ca91a7-d2c3-4ed8-ba34-eba4e3b2a691","ios":"levelo://app?vid=b2ca91a7-d2c3-4ed8-ba34-eba4e3b2a691"},"vehicle_type_id":"4","last_reported":1698433445,"current_range_meters":26800,"station_id":"ce4bh692rcd13ifvqea0","pricing_plan_id":"free"},{"bike_id":"75f7085e-44ae-4b5d-81ed-4dd676a7eb98","system_id":"levelo_inurba_marseille","lat":43.29263,"lon":5.3844,"is_reserved":false,"is_disabled":false,"rental_uris":{"android":"levelo://app?vid=75f7085e-44ae-4b5d-81ed-4dd676a7eb98","ios":"levelo://app?vid=75f7085e-44ae-4b5d-81ed-4dd676a7eb98"},"vehicle_type_id":"4","last_reported":1698433445,"current_range_meters":0,"station_id":"ce4bh692rcd13ifvqea0","pricing_plan_id":"free"},{"bike_id":"f9879fab-4ae0-4e60-beec-18bb9d8774a1","system_id":"levelo_inurba_marseille","lat":43.292644,"lon":5.384257,"is_reserved":false,"is_disabled":false,"rental_uris":{"android":"levelo://app?vid=f9879fab-4ae0-4e60-beec-18bb9d8774a1","ios":"levelo://app?vid=f9879fab-4ae0-4e60-beec-18bb9d8774a1"},"vehicle_type_id":"4","last_reported":1698433445,"current_range_meters":17600,"station_id":"ce4bh692rcd13ifvqea0","pricing_plan_id":"free"},{"bike_id":"f691e9c2-c337-47f7-b54c-887fa955268d","system_id":"levelo_inurba_marseille","lat":43.292644,"lon":5.384257,"is_reserved":false,"is_disabled":false,"rental_uris":{"android":"levelo://app?vid=f691e9c2-c337-47f7-b54c-887fa955268d","ios":"levelo://app?vid=f691e9c2-c337-47f7-b54c-887fa955268d"},"vehicle_type_id":"4","last_reported":1698433445,"current_range_meters":21200,"station_id":"ce4bh692rcd13ifvqea0","pricing_plan_id":"free"},{"bike_id":"86502e0a-cdbf-4772-9519-2e55faf1f02e","system_id":"levelo_inurba_marseille","lat":43.29269,"lon":5.38455,"is_reserved":false,"is_disabled":false,"rental_uris":{"android":"levelo://app?vid=86502e0a-cdbf-4772-9519-2e55faf1f02e","ios":"levelo://app?vid=86502e0a-cdbf-4772-9519-2e55faf1f02e"},"vehicle_type_id":"4","last_reported":1698433445,"current_range_meters":27200,"station_id":"ce4bh692rcd13ifvqea0","pricing_plan_id":"free"},{"bike_id":"7d89832c-dc0a-4c26-b8f1-e035f76d1580","system_id":"levelo_inurba_marseille","lat":43.29259,"lon":5.38434,"is_reserved":false,"is_disabled":false,"rental_uris":{"android":"levelo://app?vid=7d89832c-dc0a-4c26-b8f1-e035f76d1580","ios":"levelo://app?vid=7d89832c-dc0a-4c26-b8f1-e035f76d1580"},"vehicle_type_id":"4","last_reported":1698433445,"current_range_meters":22000,"station_id":"ce4bh692rcd13ifvqea0","pricing_plan_id":"free"},{"bike_id":"f2f5bfcf-09cb-4fda-9409-ce4ce006baaa","system_id":"levelo_inurba_marseille","lat":43.29266,"lon":5.3845,"is_reserved":false,"is_disabled":false,"rental_uris":{"android":"levelo://app?vid=f2f5bfcf-09cb-4fda-9409-ce4ce006baaa","ios":"levelo://app?vid=f2f5bfcf-09cb-4fda-9409-ce4ce006baaa"},"vehicle_type_id":"4","last_reported":1698433445,"current_range_meters":9600,"station_id":"ce4bh692rcd13ifvqea0","pricing_plan_id":"free"},{"bike_id":"6fae0255-8a65-4a6f-a226-b54b640ad755","system_id":"levelo_inurba_marseille","lat":43.292644,"lon":5.384257,"is_reserved":false,"is_disabled":false,"rental_uris":{"android":"levelo://app?vid=6fae0255-8a65-4a6f-a226-b54b640ad755","ios":"levelo://app?vid=6fae0255-8a65-4a6f-a226-b54b640ad755"},"vehicle_type_id":"4","last_reported":1698433445,"current_range_meters":25200,"station_id":"ce4bh692rcd13ifvqea0","pricing_plan_id":"free"},{"bike_id":"0a375c32-4cea-48ab-8995-4fb692c5d6c9","system_id":"levelo_inurba_marseille","lat":43.292644,"lon":5.384257,"is_reserved":false,"is_disabled":false,"rental_uris":{"android":"levelo://app?vid=0a375c32-4cea-48ab-8995-4fb692c5d6c9","ios":"levelo://app?vid=0a375c32-4cea-48ab-8995-4fb692c5d6c9"},"vehicle_type_id":"4","last_reported":1698433445,"current_range_meters":27600,"station_id":"ce4bh692rcd13ifvqea0","pricing_plan_id":"free"},{"bike_id":"aafe16ca-0008-4709-b654-8422ea865b03","system_id":"levelo_inurba_marseille","lat":43.29258,"lon":5.38436,"is_reserved":false,"is_disabled":false,"rental_uris":{"android":"levelo://app?vid=aafe16ca-0008-4709-b654-8422ea865b03","ios":"levelo://app?vid=aafe16ca-0008-4709-b654-8422ea865b03"},"vehicle_type_id":"4","last_reported":1698433445,"current_range_meters":9200,"station_id":"ce4bh692rcd13ifvqea0","pricing_plan_id":"free"},{"bike_id":"e6e682f4-4dc5-4723-9756-9d98474dd792","system_id":"levelo_inurba_marseille","lat":43.2926,"lon":5.38442,"is_reserved":false,"is_disabled":false,"rental_uris":{"android":"levelo://app?vid=e6e682f4-4dc5-4723-9756-9d98474dd792","ios":"levelo://app?vid=e6e682f4-4dc5-4723-9756-9d98474dd792"},"vehicle_type_id":"4","last_reported":1698433445,"current_range_meters":2400,"station_id":"ce4bh692rcd13ifvqea0","pricing_plan_id":"free"},{"bike_id":"a2fd28fb-5995-402a-a618-c2048b75f1bb","system_id":"levelo_inurba_marseille","lat":43.29259,"lon":5.3844,"is_reserved":false,"is_disabled":false,"rental_uris":{"android":"levelo://app?vid=a2fd28fb-5995-402a-a618-c2048b75f1bb","ios":"levelo://app?vid=a2fd28fb-5995-402a-a618-c2048b75f1bb"},"vehicle_type_id":"4","last_reported":1698433445,"current_range_meters":28800,"station_id":"ce4bh692rcd13ifvqea0","pricing_plan_id":"free"},{"bike_id":"ce138283-f05b-4607-8334-b99069e7b96e","system_id":"levelo_inurba_marseille","lat":43.29258,"lon":5.38438,"is_reserved":false,"is_disabled":false,"rental_uris":{"android":"levelo://app?vid=ce138283-f05b-4607-8334-b99069e7b96e","ios":"levelo://app?vid=ce138283-f05b-4607-8334-b99069e7b96e"},"vehicle_type_id":"4","last_reported":1698433445,"current_range_meters":3600,"station_id":"ce4bh692rcd13ifvqea0","pricing_plan_id":"free"},{"bike_id":"2430e6ed-9fe8-406f-8f97-ce9b6eb4b644","system_id":"levelo_inurba_marseille","lat":43.29257,"lon":5.38436,"is_reserved":false,"is_disabled":false,"rental_uris":{"android":"levelo://app?vid=2430e6ed-9fe8-406f-8f97-ce9b6eb4b644","ios":"levelo://app?vid=2430e6ed-9fe8-406f-8f97-ce9b6eb4b644"},"vehicle_type_id":"4","last_reported":1698433445,"current_range_meters":6800,"station_id":"ce4bh692rcd13ifvqea0","pricing_plan_id":"free"},{"bike_id":"c1614f2c-abc4-414e-8c9b-9f920fe8137b","system_id":"levelo_inurba_marseille","lat":43.29256,"lon":5.38435,"is_reserved":false,"is_disabled":false,"rental_uris":{"android":"levelo://app?vid=c1614f2c-abc4-414e-8c9b-9f920fe8137b","ios":"levelo://app?vid=c1614f2c-abc4-414e-8c9b-9f920fe8137b"},"vehicle_type_id":"4","last_reported":1698433445,"current_range_meters":22400,"station_id":"ce4bh692rcd13ifvqea0","pricing_plan_id":"free"},{"bike_id":"f7cb7844-1a82-4187-b42d-7ba15fa7695a","system_id":"levelo_inurba_marseille","lat":43.29258,"lon":5.3844,"is_reserved":false,"is_disabled":false,"rental_uris":{"android":"levelo://app?vid=f7cb7844-1a82-4187-b42d-7ba15fa7695a","ios":"levelo://app?vid=f7cb7844-1a82-4187-b42d-7ba15fa7695a"},"vehicle_type_id":"4","last_reported":1698433445,"current_range_meters":19600,"station_id":"ce4bh692rcd13ifvqea0","pricing_plan_id":"free"},{"bike_id":"34714067-523b-454a-b11a-82ec4f56098c","system_id":"levelo_inurba_marseille","lat":43.292644,"lon":5.384257,"is_reserved":false,"is_disabled":false,"rental_uris":{"android":"levelo://app?vid=34714067-523b-454a-b11a-82ec4f56098c","ios":"levelo://app?vid=34714067-523b-454a-b11a-82ec4f56098c"},"vehicle_type_id":"4","last_reported":1698433445,"current_range_meters":4800,"station_id":"ce4bh692rcd13ifvqea0","pricing_plan_id":"free"},{"bike_id":"45e89ecf-9113-4b90-bb53-05d1e6bfc819","system_id":"levelo_inurba_marseille","lat":43.292644,"lon":5.384257,"is_reserved":false,"is_disabled":false,"rental_uris":{"android":"levelo://app?vid=45e89ecf-9113-4b90-bb53-05d1e6bfc819","ios":"levelo://app?vid=45e89ecf-9113-4b90-bb53-05d1e6bfc819"},"vehicle_type_id":"4","last_reported":1698433445,"current_range_meters":27200,"station_id":"ce4bh692rcd13ifvqea0","pricing_plan_id":"free"},{"bike_id":"2aa3999e-b6b5-4aab-8af2-8933f7f30c27","system_id":"levelo_inurba_marseille","lat":43.29258,"lon":5.38447,"is_reserved":false,"is_disabled":false,"rental_uris":{"android":"levelo://app?vid=2aa3999e-b6b5-4aab-8af2-8933f7f30c27","ios":"levelo://app?vid=2aa3999e-b6b5-4aab-8af2-8933f7f30c27"},"vehicle_type_id":"4","last_reported":1698433445,"current_range_meters":18000,"station_id":"ce4bh692rcd13ifvqea0","pricing_plan_id":"free"},{"bike_id":"26198c50-f1ae-491b-97bc-5d7b09e814b8","system_id":"levelo_inurba_marseille","lat":43.292642,"lon":5.384254,"is_reserved":false,"is_disabled":false,"rental_uris":{"android":"levelo://app?vid=26198c50-f1ae-491b-97bc-5d7b09e814b8","ios":"levelo://app?vid=26198c50-f1ae-491b-97bc-5d7b09e814b8"},"vehicle_type_id":"4","last_reported":1698433445,"current_range_meters":8800,"station_id":"ce4bh692rcd13ifvqea0","pricing_plan_id":"free"},{"bike_id":"4052f41f-1aef-419e-877c-93459267555a","system_id":"levelo_inurba_marseille","lat":43.29252,"lon":5.38444,"is_reserved":false,"is_disabled":false,"rental_uris":{"android":"levelo://app?vid=4052f41f-1aef-419e-877c-93459267555a","ios":"levelo://app?vid=4052f41f-1aef-419e-877c-93459267555a"},"vehicle_type_id":"4","last_reported":1698433445,"current_range_meters":8000,"station_id":"ce4bh692rcd13ifvqea0","pricing_plan_id":"free"},{"bike_id":"ff930599-936b-4c88-8c03-31279c7a3668","system_id":"levelo_inurba_marseille","lat":43.29012,"lon":5.35616,"is_reserved":false,"is_disabled":false,"rental_uris":{"android":"levelo://app?vid=ff930599-936b-4c88-8c03-31279c7a3668","ios":"levelo://app?vid=ff930599-936b-4c88-8c03-31279c7a3668"},"vehicle_type_id":"4","last_reported":1698433445,"current_range_meters":13200,"station_id":"ce4bhb92rcd13ifvqen0","pricing_plan_id":"free"},{"bike_id":"488c0637-0b40-407a-a1c1-79a83c6a37e0","system_id":"levelo_inurba_marseille","lat":43.290103,"lon":5.356114,"is_reserved":false,"is_disabled":false,"rental_uris":{"android":"levelo://app?vid=488c0637-0b40-407a-a1c1-79a83c6a37e0","ios":"levelo://app?vid=488c0637-0b40-407a-a1c1-79a83c6a37e0"},"vehicle_type_id":"4","last_reported":1698433445,"current_range_meters":5600,"station_id":"ce4bhb92rcd13ifvqen0","pricing_plan_id":"free"},{"bike_id":"502fc056-cad5-4c96-92e3-0c259c82c99c","system_id":"levelo_inurba_marseille","lat":43.330442,"lon":5.389148,"is_reserved":false,"is_disabled":false,"rental_uris":{"android":"levelo://app?vid=502fc056-cad5-4c96-92e3-0c259c82c99c","ios":"levelo://app?vid=502fc056-cad5-4c96-92e3-0c259c82c99c"},"vehicle_type_id":"4","last_reported":1698433445,"current_range_meters":0,"station_id":"ce4bhr92rcd13ifvqhrg","pricing_plan_id":"free"},{"bike_id":"0477e3d6-a501-40cd-b8ee-719550d27f39","system_id":"levelo_inurba_marseille","lat":43.290103,"lon":5.356114,"is_reserved":false,"is_disabled":false,"rental_uris":{"android":"levelo://app?vid=0477e3d6-a501-40cd-b8ee-719550d27f39","ios":"levelo://app?vid=0477e3d6-a501-40cd-b8ee-719550d27f39"},"vehicle_type_id":"4","last_reported":1698433445,"current_range_meters":0,"station_id":"ce4bhb92rcd13ifvqen0","pricing_plan_id":"free"},{"bike_id":"a1aad2af-e1af-4b40-b7d7-ddc71a2acd23","system_id":"levelo_inurba_marseille","lat":43.290103,"lon":5.356114,"is_reserved":false,"is_disabled":false,"rental_uris":{"android":"levelo://app?vid=a1aad2af-e1af-4b40-b7d7-ddc71a2acd23","ios":"levelo://app?vid=a1aad2af-e1af-4b40-b7d7-ddc71a2acd23"},"vehicle_type_id":"4","last_reported":1698433445,"current_range_meters":20400,"station_id":"ce4bhb92rcd13ifvqen0","pricing_plan_id":"free"},{"bike_id":"744022b3-268b-449a-8f68-e9209a97faba","system_id":"levelo_inurba_marseille","lat":43.29002,"lon":5.3561,"is_reserved":false,"is_disabled":false,"rental_uris":{"android":"levelo://app?vid=744022b3-268b-449a-8f68-e9209a97faba","ios":"levelo://app?vid=744022b3-268b-449a-8f68-e9209a97faba"},"vehicle_type_id":"4","last_reported":1698433445,"current_range_meters":8000,"station_id":"ce4bhb92rcd13ifvqen0","pricing_plan_id":"free"},{"bike_id":"3574b3ce-e151-4374-aa41-5f1968ee6b0a","system_id":"levelo_inurba_marseille","lat":43.290995,"lon":5.381361,"is_reserved":false,"is_disabled":false,"rental_uris":{"android":"levelo://app?vid=3574b3ce-e151-4374-aa41-5f1968ee6b0a","ios":"levelo://app?vid=3574b3ce-e151-4374-aa41-5f1968ee6b0a"},"vehicle_type_id":"4","last_reported":1698433445,"current_range_meters":24800,"station_id":"ce4bh512rcd13ifvqe2g","pricing_plan_id":"free"},{"bike_id":"5cc30b11-d4c7-4077-844d-e7f212be39d7","system_id":"levelo_inurba_marseille","lat":43.290995,"lon":5.381361,"is_reserved":false,"is_disabled":false,"rental_uris":{"android":"levelo://app?vid=5cc30b11-d4c7-4077-844d-e7f212be39d7","ios":"levelo://app?vid=5cc30b11-d4c7-4077-844d-e7f212be39d7"},"vehicle_type_id":"4","last_reported":1698433445,"current_range_meters":11200,"station_id":"ce4bh512rcd13ifvqe2g","pricing_plan_id":"free"},{"bike_id":"c69e57a0-67f7-4b31-b143-1f8ab17f66e1","system_id":"levelo_inurba_marseille","lat":43.297873,"lon":5.393443,"is_reserved":false,"is_disabled":false,"rental_uris":{"android":"levelo://app?vid=c69e57a0-67f7-4b31-b143-1f8ab17f66e1","ios":"levelo://app?vid=c69e57a0-67f7-4b31-b143-1f8ab17f66e1"},"vehicle_type_id":"4","last_reported":1698433445,"current_range_meters":2800,"station_id":"chh1huq6cuj3fo74tm60","pricing_plan_id":"free"},{"bike_id":"70dc720e-7011-4599-8ede-1887648a0e4d","system_id":"levelo_inurba_marseille","lat":43.29778,"lon":5.39338,"is_reserved":false,"is_disabled":false,"rental_uris":{"android":"levelo://app?vid=70dc720e-7011-4599-8ede-1887648a0e4d","ios":"levelo://app?vid=70dc720e-7011-4599-8ede-1887648a0e4d"},"vehicle_type_id":"4","last_reported":1698433445,"current_range_meters":3600,"station_id":"chh1huq6cuj3fo74tm60","pricing_plan_id":"free"},{"bike_id":"e1bc0841-264d-4b10-a763-85e7e3303236","system_id":"levelo_inurba_marseille","lat":43.29776,"lon":5.39345,"is_reserved":false,"is_disabled":false,"rental_uris":{"android":"levelo://app?vid=e1bc0841-264d-4b10-a763-85e7e3303236","ios":"levelo://app?vid=e1bc0841-264d-4b10-a763-85e7e3303236"},"vehicle_type_id":"4","last_reported":1698433445,"current_range_meters":26000,"station_id":"chh1huq6cuj3fo74tm60","pricing_plan_id":"free"},{"bike_id":"baf23c75-a0e0-4538-b313-77d9fa0919ad","system_id":"levelo_inurba_marseille","lat":43.295169,"lon":5.390426,"is_reserved":false,"is_disabled":false,"rental_uris":{"android":"levelo://app?vid=baf23c75-a0e0-4538-b313-77d9fa0919ad","ios":"levelo://app?vid=baf23c75-a0e0-4538-b313-77d9fa0919ad"},"vehicle_type_id":"4","last_reported":1698433445,"current_range_meters":19200,"station_id":"ce4bh3p2rcd13ifvqdp0","pricing_plan_id":"free"},{"bike_id":"45803f9b-e867-43b3-a060-acc435aa811a","system_id":"levelo_inurba_marseille","lat":43.33741,"lon":5.3747,"is_reserved":false,"is_disabled":false,"rental_uris":{"android":"levelo://app?vid=45803f9b-e867-43b3-a060-acc435aa811a","ios":"levelo://app?vid=45803f9b-e867-43b3-a060-acc435aa811a"},"vehicle_type_id":"4","last_reported":1698433445,"current_range_meters":29200,"station_id":"","pricing_plan_id":"free"},{"bike_id":"3dfe6ed6-f8e9-4454-9b85-3154a910b063","system_id":"levelo_inurba_marseille","lat":43.309371,"lon":5.401449,"is_reserved":false,"is_disabled":false,"rental_uris":{"android":"levelo://app?vid=3dfe6ed6-f8e9-4454-9b85-3154a910b063","ios":"levelo://app?vid=3dfe6ed6-f8e9-4454-9b85-3154a910b063"},"vehicle_type_id":"4","last_reported":1698433445,"current_range_meters":400,"station_id":"ce4bgvp2rcd13ifvqct0","pricing_plan_id":"free"},{"bike_id":"e1b71da2-ac6a-4423-9abe-afbc23b7b0cd","system_id":"levelo_inurba_marseille","lat":43.33764,"lon":5.374557,"is_reserved":false,"is_disabled":false,"rental_uris":{"android":"levelo://app?vid=e1b71da2-ac6a-4423-9abe-afbc23b7b0cd","ios":"levelo://app?vid=e1b71da2-ac6a-4423-9abe-afbc23b7b0cd"},"vehicle_type_id":"4","last_reported":1698433445,"current_range_meters":15200,"station_id":"","pricing_plan_id":"free"},{"bike_id":"6b2d642d-1c1b-40c1-829b-970c48e9ca1e","system_id":"levelo_inurba_marseille","lat":43.292226,"lon":5.388025,"is_reserved":false,"is_disabled":false,"rental_uris":{"android":"levelo://app?vid=6b2d642d-1c1b-40c1-829b-970c48e9ca1e","ios":"levelo://app?vid=6b2d642d-1c1b-40c1-829b-970c48e9ca1e"},"vehicle_type_id":"4","last_reported":1698433445,"current_range_meters":9200,"station_id":"","pricing_plan_id":"free"},{"bike_id":"dd6b6a1b-7c19-45df-ba50-bc8c6254b9b3","system_id":"levelo_inurba_marseille","lat":43.301117,"lon":5.398795,"is_reserved":false,"is_disabled":false,"rental_uris":{"android":"levelo://app?vid=dd6b6a1b-7c19-45df-ba50-bc8c6254b9b3","ios":"levelo://app?vid=dd6b6a1b-7c19-45df-ba50-bc8c6254b9b3"},"vehicle_type_id":"4","last_reported":1698433445,"current_range_meters":18400,"station_id":"ce4bh0h2rcd13ifvqd40","pricing_plan_id":"free"},{"bike_id":"00ca96d8-bb9b-43e5-95c2-e9ee3ed33f8a","system_id":"levelo_inurba_marseille","lat":43.301117,"lon":5.398795,"is_reserved":false,"is_disabled":false,"rental_uris":{"android":"levelo://app?vid=00ca96d8-bb9b-43e5-95c2-e9ee3ed33f8a","ios":"levelo://app?vid=00ca96d8-bb9b-43e5-95c2-e9ee3ed33f8a"},"vehicle_type_id":"4","last_reported":1698433445,"current_range_meters":14400,"station_id":"ce4bh0h2rcd13ifvqd40","pricing_plan_id":"free"},{"bike_id":"bdbc3db6-263e-4c49-b9dc-6016ba7b7c03","system_id":"levelo_inurba_marseille","lat":43.28727,"lon":5.36078,"is_reserved":false,"is_disabled":false,"rental_uris":{"android":"levelo://app?vid=bdbc3db6-263e-4c49-b9dc-6016ba7b7c03","ios":"levelo://app?vid=bdbc3db6-263e-4c49-b9dc-6016ba7b7c03"},"vehicle_type_id":"4","last_reported":1698433445,"current_range_meters":31600,"station_id":"cki0cbj6b192h4jlfktg","pricing_plan_id":"free"},{"bike_id":"2f695aad-19fb-41fa-b9e8-0cea80209361","system_id":"levelo_inurba_marseille","lat":43.28727,"lon":5.36078,"is_reserved":false,"is_disabled":false,"rental_uris":{"android":"levelo://app?vid=2f695aad-19fb-41fa-b9e8-0cea80209361","ios":"levelo://app?vid=2f695aad-19fb-41fa-b9e8-0cea80209361"},"vehicle_type_id":"4","last_reported":1698433445,"current_range_meters":31600,"station_id":"cki0cbj6b192h4jlfktg","pricing_plan_id":"free"},{"bike_id":"0323a479-f917-4782-994d-09015953c72d","system_id":"levelo_inurba_marseille","lat":43.28727,"lon":5.36078,"is_reserved":false,"is_disabled":false,"rental_uris":{"android":"levelo://app?vid=0323a479-f917-4782-994d-09015953c72d","ios":"levelo://app?vid=0323a479-f917-4782-994d-09015953c72d"},"vehicle_type_id":"4","last_reported":1698433445,"current_range_meters":22000,"station_id":"cki0cbj6b192h4jlfktg","pricing_plan_id":"free"},{"bike_id":"49f157f4-fce6-41b6-bc5b-0ff2fec4ed3e","system_id":"levelo_inurba_marseille","lat":43.28727,"lon":5.36078,"is_reserved":false,"is_disabled":false,"rental_uris":{"android":"levelo://app?vid=49f157f4-fce6-41b6-bc5b-0ff2fec4ed3e","ios":"levelo://app?vid=49f157f4-fce6-41b6-bc5b-0ff2fec4ed3e"},"vehicle_type_id":"4","last_reported":1698433445,"current_range_meters":16400,"station_id":"cki0cbj6b192h4jlfktg","pricing_plan_id":"free"},{"bike_id":"3dcf3b6f-8984-4314-bdb5-f6b86fc0e4e0","system_id":"levelo_inurba_marseille","lat":43.29885,"lon":5.39731,"is_reserved":false,"is_disabled":false,"rental_uris":{"android":"levelo://app?vid=3dcf3b6f-8984-4314-bdb5-f6b86fc0e4e0","ios":"levelo://app?vid=3dcf3b6f-8984-4314-bdb5-f6b86fc0e4e0"},"vehicle_type_id":"4","last_reported":1698433445,"current_range_meters":6000,"station_id":"ce4bh0h2rcd13ifvqd50","pricing_plan_id":"free"},{"bike_id":"f99c955e-3e4f-45bc-b262-43f5c4be9c8e","system_id":"levelo_inurba_marseille","lat":43.295196,"lon":5.39397,"is_reserved":false,"is_disabled":false,"rental_uris":{"android":"levelo://app?vid=f99c955e-3e4f-45bc-b262-43f5c4be9c8e","ios":"levelo://app?vid=f99c955e-3e4f-45bc-b262-43f5c4be9c8e"},"vehicle_type_id":"4","last_reported":1698433445,"current_range_meters":2400,"station_id":"ce4bh292rcd13ifvqdf0","pricing_plan_id":"free"},{"bike_id":"1a4c94ae-08bd-43bc-91a1-5edf0b99fbfe","system_id":"levelo_inurba_marseille","lat":43.2987,"lon":5.39721,"is_reserved":false,"is_disabled":false,"rental_uris":{"android":"levelo://app?vid=1a4c94ae-08bd-43bc-91a1-5edf0b99fbfe","ios":"levelo://app?vid=1a4c94ae-08bd-43bc-91a1-5edf0b99fbfe"},"vehicle_type_id":"4","last_reported":1698433445,"current_range_meters":20400,"station_id":"ce4bh0h2rcd13ifvqd50","pricing_plan_id":"free"},{"bike_id":"daaeb08d-105f-45b7-8366-9acd8d47c73d","system_id":"levelo_inurba_marseille","lat":43.29879,"lon":5.39732,"is_reserved":false,"is_disabled":false,"rental_uris":{"android":"levelo://app?vid=daaeb08d-105f-45b7-8366-9acd8d47c73d","ios":"levelo://app?vid=daaeb08d-105f-45b7-8366-9acd8d47c73d"},"vehicle_type_id":"4","last_reported":1698433445,"current_range_meters":0,"station_id":"ce4bh0h2rcd13ifvqd50","pricing_plan_id":"free"},{"bike_id":"37ba14b5-da74-49d1-85dd-9175b5871742","system_id":"levelo_inurba_marseille","lat":43.29876,"lon":5.39734,"is_reserved":false,"is_disabled":false,"rental_uris":{"android":"levelo://app?vid=37ba14b5-da74-49d1-85dd-9175b5871742","ios":"levelo://app?vid=37ba14b5-da74-49d1-85dd-9175b5871742"},"vehicle_type_id":"4","last_reported":1698433445,"current_range_meters":9200,"station_id":"ce4bh0h2rcd13ifvqd50","pricing_plan_id":"free"},{"bike_id":"9b046aba-561a-4cdb-96e5-5573f9764ea6","system_id":"levelo_inurba_marseille","lat":43.29871,"lon":5.3973,"is_reserved":false,"is_disabled":false,"rental_uris":{"android":"levelo://app?vid=9b046aba-561a-4cdb-96e5-5573f9764ea6","ios":"levelo://app?vid=9b046aba-561a-4cdb-96e5-5573f9764ea6"},"vehicle_type_id":"4","last_reported":1698433445,"current_range_meters":21600,"station_id":"ce4bh0h2rcd13ifvqd50","pricing_plan_id":"free"},{"bike_id":"680b2d04-77ac-4177-ab82-0857e4f364d9","system_id":"levelo_inurba_marseille","lat":43.298665,"lon":5.39731,"is_reserved":false,"is_disabled":false,"rental_uris":{"android":"levelo://app?vid=680b2d04-77ac-4177-ab82-0857e4f364d9","ios":"levelo://app?vid=680b2d04-77ac-4177-ab82-0857e4f364d9"},"vehicle_type_id":"4","last_reported":1698433445,"current_range_meters":12000,"station_id":"ce4bh0h2rcd13ifvqd50","pricing_plan_id":"free"},{"bike_id":"71cdec80-969b-4366-b92d-1739aed708d6","system_id":"levelo_inurba_marseille","lat":43.286961,"lon":5.373785,"is_reserved":false,"is_disabled":false,"rental_uris":{"android":"levelo://app?vid=71cdec80-969b-4366-b92d-1739aed708d6","ios":"levelo://app?vid=71cdec80-969b-4366-b92d-1739aed708d6"},"vehicle_type_id":"4","last_reported":1698433445,"current_range_meters":1600,"station_id":"ce4bh3p2rcd13ifvqdq0","pricing_plan_id":"free"},{"bike_id":"cd2bdb0a-7f8f-4305-bd92-be3cc82c2c02","system_id":"levelo_inurba_marseille","lat":43.28694,"lon":5.37391,"is_reserved":false,"is_disabled":false,"rental_uris":{"android":"levelo://app?vid=cd2bdb0a-7f8f-4305-bd92-be3cc82c2c02","ios":"levelo://app?vid=cd2bdb0a-7f8f-4305-bd92-be3cc82c2c02"},"vehicle_type_id":"4","last_reported":1698433445,"current_range_meters":3600,"station_id":"ce4bh3p2rcd13ifvqdq0","pricing_plan_id":"free"},{"bike_id":"0f887a30-ff84-4618-9c4a-1228629f49d4","system_id":"levelo_inurba_marseille","lat":43.295196,"lon":5.39397,"is_reserved":false,"is_disabled":false,"rental_uris":{"android":"levelo://app?vid=0f887a30-ff84-4618-9c4a-1228629f49d4","ios":"levelo://app?vid=0f887a30-ff84-4618-9c4a-1228629f49d4"},"vehicle_type_id":"4","last_reported":1698433445,"current_range_meters":15200,"station_id":"ce4bh292rcd13ifvqdf0","pricing_plan_id":"free"},{"bike_id":"6917389d-46ac-4b35-aeab-bfcbf6c48b66","system_id":"levelo_inurba_marseille","lat":43.295194,"lon":5.39397,"is_reserved":false,"is_disabled":false,"rental_uris":{"android":"levelo://app?vid=6917389d-46ac-4b35-aeab-bfcbf6c48b66","ios":"levelo://app?vid=6917389d-46ac-4b35-aeab-bfcbf6c48b66"},"vehicle_type_id":"4","last_reported":1698433445,"current_range_meters":0,"station_id":"ce4bh292rcd13ifvqdf0","pricing_plan_id":"free"},{"bike_id":"4ce43f4d-760d-4952-beea-55d0bce78260","system_id":"levelo_inurba_marseille","lat":43.28931,"lon":5.38391,"is_reserved":false,"is_disabled":false,"rental_uris":{"android":"levelo://app?vid=4ce43f4d-760d-4952-beea-55d0bce78260","ios":"levelo://app?vid=4ce43f4d-760d-4952-beea-55d0bce78260"},"vehicle_type_id":"4","last_reported":1698433445,"current_range_meters":8000,"station_id":"ce4bh612rcd13ifvqe6g","pricing_plan_id":"free"},{"bike_id":"100fb7bf-36bb-4688-a4a2-7d931223fa66","system_id":"levelo_inurba_marseille","lat":43.295194,"lon":5.39397,"is_reserved":false,"is_disabled":false,"rental_uris":{"android":"levelo://app?vid=100fb7bf-36bb-4688-a4a2-7d931223fa66","ios":"levelo://app?vid=100fb7bf-36bb-4688-a4a2-7d931223fa66"},"vehicle_type_id":"4","last_reported":1698433445,"current_range_meters":3200,"station_id":"ce4bh292rcd13ifvqdf0","pricing_plan_id":"free"},{"bike_id":"70f4ac0e-0020-49d9-b665-5021c9b5e453","system_id":"levelo_inurba_marseille","lat":43.289307,"lon":5.38406,"is_reserved":false,"is_disabled":false,"rental_uris":{"android":"levelo://app?vid=70f4ac0e-0020-49d9-b665-5021c9b5e453","ios":"levelo://app?vid=70f4ac0e-0020-49d9-b665-5021c9b5e453"},"vehicle_type_id":"4","last_reported":1698433445,"current_range_meters":20800,"station_id":"ce4bh612rcd13ifvqe6g","pricing_plan_id":"free"},{"bike_id":"303f9e13-c874-4b3a-8d57-dcfdb9e5283e","system_id":"levelo_inurba_marseille","lat":43.289307,"lon":5.38406,"is_reserved":false,"is_disabled":false,"rental_uris":{"android":"levelo://app?vid=303f9e13-c874-4b3a-8d57-dcfdb9e5283e","ios":"levelo://app?vid=303f9e13-c874-4b3a-8d57-dcfdb9e5283e"},"vehicle_type_id":"4","last_reported":1698433445,"current_range_meters":17600,"station_id":"ce4bh612rcd13ifvqe6g","pricing_plan_id":"free"},{"bike_id":"4adc87de-27c3-4593-9764-36ca039c4762","system_id":"levelo_inurba_marseille","lat":43.302759,"lon":5.400793,"is_reserved":false,"is_disabled":false,"rental_uris":{"android":"levelo://app?vid=4adc87de-27c3-4593-9764-36ca039c4762","ios":"levelo://app?vid=4adc87de-27c3-4593-9764-36ca039c4762"},"vehicle_type_id":"4","last_reported":1698433445,"current_range_meters":28400,"station_id":"ce4bgvh2rcd13ifvqcs0","pricing_plan_id":"free"},{"bike_id":"f4283ed5-feab-40e6-a3ff-2835fcddf28e","system_id":"levelo_inurba_marseille","lat":43.286039,"lon":5.370679,"is_reserved":false,"is_disabled":false,"rental_uris":{"android":"levelo://app?vid=f4283ed5-feab-40e6-a3ff-2835fcddf28e","ios":"levelo://app?vid=f4283ed5-feab-40e6-a3ff-2835fcddf28e"},"vehicle_type_id":"4","last_reported":1698433445,"current_range_meters":22000,"station_id":"ce4bht12rcd13ifvqi60","pricing_plan_id":"free"},{"bike_id":"51b0309b-da2a-4f97-9f43-e8dfaacbf768","system_id":"levelo_inurba_marseille","lat":43.287348,"lon":5.3794,"is_reserved":false,"is_disabled":false,"rental_uris":{"android":"levelo://app?vid=51b0309b-da2a-4f97-9f43-e8dfaacbf768","ios":"levelo://app?vid=51b0309b-da2a-4f97-9f43-e8dfaacbf768"},"vehicle_type_id":"4","last_reported":1698433445,"current_range_meters":0,"station_id":"ce4bh9p2rcd13ifvqec0","pricing_plan_id":"free"},{"bike_id":"bc368e20-93c0-495a-bb4f-cd8ed7ee7f0d","system_id":"levelo_inurba_marseille","lat":43.335307,"lon":5.388143,"is_reserved":false,"is_disabled":false,"rental_uris":{"android":"levelo://app?vid=bc368e20-93c0-495a-bb4f-cd8ed7ee7f0d","ios":"levelo://app?vid=bc368e20-93c0-495a-bb4f-cd8ed7ee7f0d"},"vehicle_type_id":"4","last_reported":1698433445,"current_range_meters":0,"station_id":"","pricing_plan_id":"free"},{"bike_id":"6c7e5f6d-77c1-4383-89be-cf0600adb1bf","system_id":"levelo_inurba_marseille","lat":43.316517,"lon":5.404375,"is_reserved":false,"is_disabled":false,"rental_uris":{"android":"levelo://app?vid=6c7e5f6d-77c1-4383-89be-cf0600adb1bf","ios":"levelo://app?vid=6c7e5f6d-77c1-4383-89be-cf0600adb1bf"},"vehicle_type_id":"4","last_reported":1698433445,"current_range_meters":18000,"station_id":"ce4bh012rcd13ifvqd00","pricing_plan_id":"free"},{"bike_id":"6eaec9ca-39db-450d-8e73-4229efcac29a","system_id":"levelo_inurba_marseille","lat":43.298037,"lon":5.381066,"is_reserved":false,"is_disabled":false,"rental_uris":{"android":"levelo://app?vid=6eaec9ca-39db-450d-8e73-4229efcac29a","ios":"levelo://app?vid=6eaec9ca-39db-450d-8e73-4229efcac29a"},"vehicle_type_id":"4","last_reported":1698433445,"current_range_meters":14800,"station_id":"ce4bgip2rcd13ifvqbb0","pricing_plan_id":"free"},{"bike_id":"e3af0911-d37c-446a-ac22-cefda9b66524","system_id":"levelo_inurba_marseille","lat":43.284534,"lon":5.358662,"is_reserved":false,"is_disabled":false,"rental_uris":{"android":"levelo://app?vid=e3af0911-d37c-446a-ac22-cefda9b66524","ios":"levelo://app?vid=e3af0911-d37c-446a-ac22-cefda9b66524"},"vehicle_type_id":"4","last_reported":1698433445,"current_range_meters":0,"station_id":"ce4bhah2rcd13ifvqei0","pricing_plan_id":"free"},{"bike_id":"9dca204e-5485-4baa-adb5-63be286ed3ea","system_id":"levelo_inurba_marseille","lat":43.284648,"lon":5.358845,"is_reserved":false,"is_disabled":false,"rental_uris":{"android":"levelo://app?vid=9dca204e-5485-4baa-adb5-63be286ed3ea","ios":"levelo://app?vid=9dca204e-5485-4baa-adb5-63be286ed3ea"},"vehicle_type_id":"4","last_reported":1698433445,"current_range_meters":4800,"station_id":"","pricing_plan_id":"free"},{"bike_id":"96bc20cc-e98a-46c6-9c7c-cf58f4d7eb24","system_id":"levelo_inurba_marseille","lat":43.284592,"lon":5.358919,"is_reserved":false,"is_disabled":false,"rental_uris":{"android":"levelo://app?vid=96bc20cc-e98a-46c6-9c7c-cf58f4d7eb24","ios":"levelo://app?vid=96bc20cc-e98a-46c6-9c7c-cf58f4d7eb24"},"vehicle_type_id":"4","last_reported":1698433445,"current_range_meters":7600,"station_id":"","pricing_plan_id":"free"},{"bike_id":"aa11ab24-68d9-4ce9-9fe5-b81ef5125170","system_id":"levelo_inurba_marseille","lat":43.284591,"lon":5.358921,"is_reserved":false,"is_disabled":false,"rental_uris":{"android":"levelo://app?vid=aa11ab24-68d9-4ce9-9fe5-b81ef5125170","ios":"levelo://app?vid=aa11ab24-68d9-4ce9-9fe5-b81ef5125170"},"vehicle_type_id":"4","last_reported":1698433445,"current_range_meters":0,"station_id":"ce4bhah2rcd13ifvqei0","pricing_plan_id":"free"},{"bike_id":"874ae628-761f-4d12-930f-feae75d3c37a","system_id":"levelo_inurba_marseille","lat":43.284534,"lon":5.358662,"is_reserved":false,"is_disabled":false,"rental_uris":{"android":"levelo://app?vid=874ae628-761f-4d12-930f-feae75d3c37a","ios":"levelo://app?vid=874ae628-761f-4d12-930f-feae75d3c37a"},"vehicle_type_id":"4","last_reported":1698433445,"current_range_meters":19200,"station_id":"ce4bhah2rcd13ifvqei0","pricing_plan_id":"free"},{"bike_id":"2f39bc3c-33ed-4e08-baee-399c66c0823f","system_id":"levelo_inurba_marseille","lat":43.29438,"lon":5.39751,"is_reserved":false,"is_disabled":false,"rental_uris":{"android":"levelo://app?vid=2f39bc3c-33ed-4e08-baee-399c66c0823f","ios":"levelo://app?vid=2f39bc3c-33ed-4e08-baee-399c66c0823f"},"vehicle_type_id":"4","last_reported":1698433445,"current_range_meters":17200,"station_id":"ce4bh3h2rcd13ifvqdo0","pricing_plan_id":"free"},{"bike_id":"0e03d162-9070-4668-886c-81bac0a53bb4","system_id":"levelo_inurba_marseille","lat":43.28613,"lon":5.35109,"is_reserved":false,"is_disabled":false,"rental_uris":{"android":"levelo://app?vid=0e03d162-9070-4668-886c-81bac0a53bb4","ios":"levelo://app?vid=0e03d162-9070-4668-886c-81bac0a53bb4"},"vehicle_type_id":"4","last_reported":1698433445,"current_range_meters":7200,"station_id":"ce4bhch2rcd13ifvqeug","pricing_plan_id":"free"},{"bike_id":"6f82dd48-0a17-4542-84a2-6cb8b43a8d09","system_id":"levelo_inurba_marseille","lat":43.285856,"lon":5.350771,"is_reserved":false,"is_disabled":false,"rental_uris":{"android":"levelo://app?vid=6f82dd48-0a17-4542-84a2-6cb8b43a8d09","ios":"levelo://app?vid=6f82dd48-0a17-4542-84a2-6cb8b43a8d09"},"vehicle_type_id":"4","last_reported":1698433445,"current_range_meters":0,"station_id":"ce4bhch2rcd13ifvqeug","pricing_plan_id":"free"},{"bike_id":"fbeafc6e-17e8-4e82-9844-eef690e1f0c0","system_id":"levelo_inurba_marseille","lat":43.283998,"lon":5.375062,"is_reserved":false,"is_disabled":false,"rental_uris":{"android":"levelo://app?vid=fbeafc6e-17e8-4e82-9844-eef690e1f0c0","ios":"levelo://app?vid=fbeafc6e-17e8-4e82-9844-eef690e1f0c0"},"vehicle_type_id":"4","last_reported":1698433445,"current_range_meters":0,"station_id":"ce4bh412rcd13ifvqds0","pricing_plan_id":"free"},{"bike_id":"4dd91594-865c-46cc-a1bb-31b0edcb19d6","system_id":"levelo_inurba_marseille","lat":43.284074,"lon":5.37517,"is_reserved":false,"is_disabled":false,"rental_uris":{"android":"levelo://app?vid=4dd91594-865c-46cc-a1bb-31b0edcb19d6","ios":"levelo://app?vid=4dd91594-865c-46cc-a1bb-31b0edcb19d6"},"vehicle_type_id":"4","last_reported":1698433445,"current_range_meters":0,"station_id":"ce4bh412rcd13ifvqds0","pricing_plan_id":"free"},{"bike_id":"399469b8-9a44-43b8-9698-d7406c0b197d","system_id":"levelo_inurba_marseille","lat":43.283998,"lon":5.375062,"is_reserved":false,"is_disabled":false,"rental_uris":{"android":"levelo://app?vid=399469b8-9a44-43b8-9698-d7406c0b197d","ios":"levelo://app?vid=399469b8-9a44-43b8-9698-d7406c0b197d"},"vehicle_type_id":"4","last_reported":1698433445,"current_range_meters":2800,"station_id":"ce4bh412rcd13ifvqds0","pricing_plan_id":"free"},{"bike_id":"cb0a645a-b434-407c-a3b4-db319b168f97","system_id":"levelo_inurba_marseille","lat":43.283998,"lon":5.375062,"is_reserved":false,"is_disabled":false,"rental_uris":{"android":"levelo://app?vid=cb0a645a-b434-407c-a3b4-db319b168f97","ios":"levelo://app?vid=cb0a645a-b434-407c-a3b4-db319b168f97"},"vehicle_type_id":"4","last_reported":1698433445,"current_range_meters":14800,"station_id":"ce4bh412rcd13ifvqds0","pricing_plan_id":"free"},{"bike_id":"a06c47aa-6a2c-4a00-8bb7-f12d882232e2","system_id":"levelo_inurba_marseille","lat":43.286595,"lon":5.386795,"is_reserved":false,"is_disabled":false,"rental_uris":{"android":"levelo://app?vid=a06c47aa-6a2c-4a00-8bb7-f12d882232e2","ios":"levelo://app?vid=a06c47aa-6a2c-4a00-8bb7-f12d882232e2"},"vehicle_type_id":"4","last_reported":1698433445,"current_range_meters":0,"station_id":"ce4bh492rcd13ifvqdug","pricing_plan_id":"free"},{"bike_id":"38ee64a6-7b0c-422b-8507-4ce61aeafb28","system_id":"levelo_inurba_marseille","lat":43.2868,"lon":5.38672,"is_reserved":false,"is_disabled":false,"rental_uris":{"android":"levelo://app?vid=38ee64a6-7b0c-422b-8507-4ce61aeafb28","ios":"levelo://app?vid=38ee64a6-7b0c-422b-8507-4ce61aeafb28"},"vehicle_type_id":"4","last_reported":1698433445,"current_range_meters":26800,"station_id":"ce4bh492rcd13ifvqdug","pricing_plan_id":"free"},{"bike_id":"8a873a4b-d98c-4738-ae34-498573e6d4eb","system_id":"levelo_inurba_marseille","lat":43.287154,"lon":5.399979,"is_reserved":false,"is_disabled":false,"rental_uris":{"android":"levelo://app?vid=8a873a4b-d98c-4738-ae34-498573e6d4eb","ios":"levelo://app?vid=8a873a4b-d98c-4738-ae34-498573e6d4eb"},"vehicle_type_id":"4","last_reported":1698433445,"current_range_meters":24400,"station_id":"ce4bho92rcd13ifvqh3g","pricing_plan_id":"free"},{"bike_id":"a04dca67-8317-445e-90d6-5788929468fd","system_id":"levelo_inurba_marseille","lat":43.33674,"lon":5.39198,"is_reserved":false,"is_disabled":false,"rental_uris":{"android":"levelo://app?vid=a04dca67-8317-445e-90d6-5788929468fd","ios":"levelo://app?vid=a04dca67-8317-445e-90d6-5788929468fd"},"vehicle_type_id":"4","last_reported":1698433445,"current_range_meters":8800,"station_id":"","pricing_plan_id":"free"},{"bike_id":"cb2db2c1-eabf-422b-adfd-52110611fa92","system_id":"levelo_inurba_marseille","lat":43.284793,"lon":5.384113,"is_reserved":false,"is_disabled":false,"rental_uris":{"android":"levelo://app?vid=cb2db2c1-eabf-422b-adfd-52110611fa92","ios":"levelo://app?vid=cb2db2c1-eabf-422b-adfd-52110611fa92"},"vehicle_type_id":"4","last_reported":1698433445,"current_range_meters":4800,"station_id":"ce4bh512rcd13ifvqe3g","pricing_plan_id":"free"},{"bike_id":"4c8c09ff-02ea-4f11-ba60-89fc59a26ca5","system_id":"levelo_inurba_marseille","lat":43.284793,"lon":5.384113,"is_reserved":false,"is_disabled":false,"rental_uris":{"android":"levelo://app?vid=4c8c09ff-02ea-4f11-ba60-89fc59a26ca5","ios":"levelo://app?vid=4c8c09ff-02ea-4f11-ba60-89fc59a26ca5"},"vehicle_type_id":"4","last_reported":1698433445,"current_range_meters":24800,"station_id":"ce4bh512rcd13ifvqe3g","pricing_plan_id":"free"},{"bike_id":"13fb88dc-f451-4271-ae62-7ab267c85368","system_id":"levelo_inurba_marseille","lat":43.28485,"lon":5.38429,"is_reserved":false,"is_disabled":false,"rental_uris":{"android":"levelo://app?vid=13fb88dc-f451-4271-ae62-7ab267c85368","ios":"levelo://app?vid=13fb88dc-f451-4271-ae62-7ab267c85368"},"vehicle_type_id":"4","last_reported":1698433445,"current_range_meters":26800,"station_id":"ce4bh512rcd13ifvqe3g","pricing_plan_id":"free"},{"bike_id":"7a82c7b3-97d2-47aa-9067-9b55569f695f","system_id":"levelo_inurba_marseille","lat":43.29803,"lon":5.40401,"is_reserved":false,"is_disabled":false,"rental_uris":{"android":"levelo://app?vid=7a82c7b3-97d2-47aa-9067-9b55569f695f","ios":"levelo://app?vid=7a82c7b3-97d2-47aa-9067-9b55569f695f"},"vehicle_type_id":"4","last_reported":1698433445,"current_range_meters":2400,"station_id":"ce4bh112rcd13ifvqd90","pricing_plan_id":"free"},{"bike_id":"2f666bbb-190f-4291-ade2-95e2c0cfd815","system_id":"levelo_inurba_marseille","lat":43.325281,"lon":5.405683,"is_reserved":false,"is_disabled":false,"rental_uris":{"android":"levelo://app?vid=2f666bbb-190f-4291-ade2-95e2c0cfd815","ios":"levelo://app?vid=2f666bbb-190f-4291-ade2-95e2c0cfd815"},"vehicle_type_id":"4","last_reported":1698433445,"current_range_meters":20800,"station_id":"","pricing_plan_id":"free"},{"bike_id":"e05e5d71-7502-4678-8ddf-4809175a2d58","system_id":"levelo_inurba_marseille","lat":43.283494,"lon":5.380945,"is_reserved":false,"is_disabled":false,"rental_uris":{"android":"levelo://app?vid=e05e5d71-7502-4678-8ddf-4809175a2d58","ios":"levelo://app?vid=e05e5d71-7502-4678-8ddf-4809175a2d58"},"vehicle_type_id":"4","last_reported":1698433445,"current_range_meters":4400,"station_id":"ce4bh412rcd13ifvqdr0","pricing_plan_id":"free"},{"bike_id":"f9761d61-1a27-4bac-97ae-54f906bdfac3","system_id":"levelo_inurba_marseille","lat":43.282754,"lon":5.350519,"is_reserved":false,"is_disabled":false,"rental_uris":{"android":"levelo://app?vid=f9761d61-1a27-4bac-97ae-54f906bdfac3","ios":"levelo://app?vid=f9761d61-1a27-4bac-97ae-54f906bdfac3"},"vehicle_type_id":"4","last_reported":1698433445,"current_range_meters":26400,"station_id":"ce4bhbp2rcd13ifvqerg","pricing_plan_id":"free"},{"bike_id":"15af9d23-2cfc-4bcf-904d-ab0c47efcb0f","system_id":"levelo_inurba_marseille","lat":43.282754,"lon":5.350519,"is_reserved":false,"is_disabled":false,"rental_uris":{"android":"levelo://app?vid=15af9d23-2cfc-4bcf-904d-ab0c47efcb0f","ios":"levelo://app?vid=15af9d23-2cfc-4bcf-904d-ab0c47efcb0f"},"vehicle_type_id":"4","last_reported":1698433445,"current_range_meters":17600,"station_id":"ce4bhbp2rcd13ifvqerg","pricing_plan_id":"free"},{"bike_id":"1891cfe0-223e-44a8-81c2-a04a52964036","system_id":"levelo_inurba_marseille","lat":43.282744,"lon":5.350533,"is_reserved":false,"is_disabled":false,"rental_uris":{"android":"levelo://app?vid=1891cfe0-223e-44a8-81c2-a04a52964036","ios":"levelo://app?vid=1891cfe0-223e-44a8-81c2-a04a52964036"},"vehicle_type_id":"4","last_reported":1698433445,"current_range_meters":0,"station_id":"ce4bhbp2rcd13ifvqerg","pricing_plan_id":"free"},{"bike_id":"86688156-2d62-4bd5-845c-e94aca1e43ba","system_id":"levelo_inurba_marseille","lat":43.28036,"lon":5.36951,"is_reserved":false,"is_disabled":false,"rental_uris":{"android":"levelo://app?vid=86688156-2d62-4bd5-845c-e94aca1e43ba","ios":"levelo://app?vid=86688156-2d62-4bd5-845c-e94aca1e43ba"},"vehicle_type_id":"4","last_reported":1698433445,"current_range_meters":31200,"station_id":"ce4bha12rcd13ifvqef0","pricing_plan_id":"free"},{"bike_id":"06089d81-5cbf-4aea-a111-7efcacbd7afc","system_id":"levelo_inurba_marseille","lat":43.280382,"lon":5.369291,"is_reserved":false,"is_disabled":false,"rental_uris":{"android":"levelo://app?vid=06089d81-5cbf-4aea-a111-7efcacbd7afc","ios":"levelo://app?vid=06089d81-5cbf-4aea-a111-7efcacbd7afc"},"vehicle_type_id":"4","last_reported":1698433445,"current_range_meters":21200,"station_id":"ce4bha12rcd13ifvqef0","pricing_plan_id":"free"},