{"last_updated":1731503798,"ttl":60,"version":"2.2","data":{"bikes":[{"bike_id":"7a79a734-8a1a-4504-a7cf-77568a3402bf","system_id":"levelo_inurba_marseille","lat":43.26495,"lon":5.39545,"is_reserved":false,"is_disabled":false,"rental_uris":{"android":"levelo://app?vid=7a79a734-8a1a-4504-a7cf-77568a3402bf","ios":"levelo://app?vid=7a79a734-8a1a-4504-a7cf-77568a3402bf"},"vehicle_type_id":"4","last_reported":1731503798,"current_range_meters":38000,"station_id":"ce4bhi12rcd13ifvqfq0","pricing_plan_id":"cebpf4jnsgd1na2vs0mg"},{"bike_id":"e001af91-5503-4663-b71f-e2e2dcf326ba","system_id":"levelo_inurba_marseille","lat":43.30125,"lon":5.37441,"is_reserved":false,"is_disabled":false,"rental_uris":{"android":"levelo://app?vid=e001af91-5503-4663-b71f-e2e2dcf326ba","ios":"levelo://app?vid=e001af91-5503-4663-b71f-e2e2dcf326ba"},"vehicle_type_id":"4","last_reported":1731503798,"current_range_meters":38800,"station_id":"ce4bgs92rcd13ifvqcc0","pricing_plan_id":"cebpf4jnsgd1na2vs0mg"},{"bike_id":"52c3b47c-4ac8-4b12-96e0-93b36678801c","system_id":"levelo_inurba_marseille","lat":43.30544,"lon":5.36535,"is_reserved":false,"is_disabled":false,"rental_uris":{"android":"levelo://app?vid=52c3b47c-4ac8-4b12-96e0-93b36678801c","ios":"levelo://app?vid=52c3b47c-4ac8-4b12-96e0-93b36678801c"},"vehicle_type_id":"4","last_reported":1731503798,"current_range_meters":38800,"station_id":"ce4bgs12rcd13ifvqcag","pricing_plan_id":"cebpf4jnsgd1na2vs0mg"},{"bike_id":"a8b5795a-f92a-4c99-951c-d3c4edb74e83","system_id":"levelo_inurba_marseille","lat":43.28461,"lon":5.35885,"is_reserved":false,"is_disabled":false,"rental_uris":{"android":"levelo://app?vid=a8b5795a-f92a-4c99-951c-d3c4edb74e83","ios":"levelo://app?vid=a8b5795a-f92a-4c99-951c-d3c4edb74e83"},"vehicle_type_id":"4","last_reported":1731503798,"current_range_meters":38400,"station_id":"ce4bhah2rcd13ifvqei0","pricing_plan_id":"cebpf4jnsgd1na2vs0mg"},{"bike_id":"ceb27176-7fd4-4bea-95c6-8111feeddaba","system_id":"levelo_inurba_marseille","lat":43.31492,"lon":5.37309,"is_reserved":false,"is_disabled":false,"rental_uris":{"android":"levelo://app?vid=ceb27176-7fd4-4bea-95c6-8111feeddaba","ios":"levelo://app?vid=ceb27176-7fd4-4bea-95c6-8111feeddaba"},"vehicle_type_id":"4","last_reported":1731503798,"current_range_meters":36800,"station_id":"ce4bgt12rcd13ifvqcd0","pricing_plan_id":"cebpf4jnsgd1na2vs0mg"},{"bike_id":"093b143a-ecec-424e-b05a-301513aef236","system_id":"levelo_inurba_marseille","lat":43.25929,"lon":5.4091,"is_reserved":false,"is_disabled":false,"rental_uris":{"android":"levelo://app?vid=093b143a-ecec-424e-b05a-301513aef236","ios":"levelo://app?vid=093b143a-ecec-424e-b05a-301513aef236"},"vehicle_type_id":"4","last_reported":1731503798,"current_range_meters":32800,"station_id":"ce4bhm92rcd13ifvqglg","pricing_plan_id":"cebpf4jnsgd1na2vs0mg"},{"bike_id":"399c0f87-ba73-403a-83bb-0d647df85481","system_id":"levelo_inurba_marseille","lat":43.23158,"lon":5.437,"is_reserved":false,"is_disabled":false,"rental_uris":{"android":"levelo://app?vid=399c0f87-ba73-403a-83bb-0d647df85481","ios":"levelo://app?vid=399c0f87-ba73-403a-83bb-0d647df85481"},"vehicle_type_id":"4","last_reported":1731503798,"current_range_meters":9200,"station_id":"ce4bhmp2rcd13ifvqgog","pricing_plan_id":"cebpf4jnsgd1na2vs0mg"},{"bike_id":"076142ae-6d4b-43fc-a370-8fb64459f581","system_id":"levelo_inurba_marseille","lat":43.23149,"lon":5.43718,"is_reserved":false,"is_disabled":false,"rental_uris":{"android":"levelo://app?vid=076142ae-6d4b-43fc-a370-8fb64459f581","ios":"levelo://app?vid=076142ae-6d4b-43fc-a370-8fb64459f581"},"vehicle_type_id":"4","last_reported":1731503798,"current_range_meters":4800,"station_id":"ce4bhmp2rcd13ifvqgog","pricing_plan_id":"cebpf4jnsgd1na2vs0mg"},{"bike_id":"a980b2f8-657f-4d46-be70-b64450196b40","system_id":"levelo_inurba_marseille","lat":43.28156,"lon":5.42648,"is_reserved":false,"is_disabled":false,"rental_uris":{"android":"levelo://app?vid=a980b2f8-657f-4d46-be70-b64450196b40","ios":"levelo://app?vid=a980b2f8-657f-4d46-be70-b64450196b40"},"vehicle_type_id":"4","last_reported":1731503798,"current_range_meters":38800,"station_id":"ce4bhnh2rcd13ifvqgug","pricing_plan_id":"cebpf4jnsgd1na2vs0mg"},{"bike_id":"9d24240f-82ac-4452-b1f5-a3dcfddefc8f","system_id":"levelo_inurba_marseille","lat":43.29629,"lon":5.3773,"is_reserved":false,"is_disabled":false,"rental_uris":{"android":"levelo://app?vid=9d24240f-82ac-4452-b1f5-a3dcfddefc8f","ios":"levelo://app?vid=9d24240f-82ac-4452-b1f5-a3dcfddefc8f"},"vehicle_type_id":"4","last_reported":1731503798,"current_range_meters":11600,"station_id":"ce4bgi92rcd13ifvqb90","pricing_plan_id":"cebpf4jnsgd1na2vs0mg"},{"bike_id":"1cceb6f5-8b55-482a-a61e-d3e00989ed61","system_id":"levelo_inurba_marseille","lat":43.29362,"lon":5.37857,"is_reserved":false,"is_disabled":false,"rental_uris":{"android":"levelo://app?vid=1cceb6f5-8b55-482a-a61e-d3e00989ed61","ios":"levelo://app?vid=1cceb6f5-8b55-482a-a61e-d3e00989ed61"},"vehicle_type_id":"4","last_reported":1731503798,"current_range_meters":22800,"station_id":"ce4bgjh2rcd13ifvqbf0","pricing_plan_id":"cebpf4jnsgd1na2vs0mg"},{"bike_id":"ca573efc-b310-4258-adf2-46821169ec26","system_id":"levelo_inurba_marseille","lat":43.30611,"lon":5.37225,"is_reserved":false,"is_disabled":false,"rental_uris":{"android":"levelo://app?vid=ca573efc-b310-4258-adf2-46821169ec26","ios":"levelo://app?vid=ca573efc-b310-4258-adf2-46821169ec26"},"vehicle_type_id":"4","last_reported":1731503798,"current_range_meters":33200,"station_id":"ce4bgqh2rcd13ifvqc4g","pricing_plan_id":"cebpf4jnsgd1na2vs0mg"},{"bike_id":"40cd8bf0-9fae-4cf2-83d9-fb8fa42dd199","system_id":"levelo_inurba_marseille","lat":43.27373,"lon":5.362565,"is_reserved":false,"is_disabled":false,"rental_uris":{"android":"levelo://app?vid=40cd8bf0-9fae-4cf2-83d9-fb8fa42dd199","ios":"levelo://app?vid=40cd8bf0-9fae-4cf2-83d9-fb8fa42dd199"},"vehicle_type_id":"4","last_reported":1731503798,"current_range_meters":6800,"station_id":"ce4bhbh2rcd13ifvqeo0","pricing_plan_id":"cebpf4jnsgd1na2vs0mg"},{"bike_id":"0b942ed8-fbd0-47eb-aca2-23553ed1cd02","system_id":"levelo_inurba_marseille","lat":43.26815,"lon":5.40252,"is_reserved":false,"is_disabled":false,"rental_uris":{"android":"levelo://app?vid=0b942ed8-fbd0-47eb-aca2-23553ed1cd02","ios":"levelo://app?vid=0b942ed8-fbd0-47eb-aca2-23553ed1cd02"},"vehicle_type_id":"4","last_reported":1731503798,"current_range_meters":19600,"station_id":"ce501612rcd8frsf0b60","pricing_plan_id":"cebpf4jnsgd1na2vs0mg"},{"bike_id":"0c077630-d143-4a1b-b11e-f5412d5ac366","system_id":"levelo_inurba_marseille","lat":43.313293,"lon":5.396919,"is_reserved":false,"is_disabled":false,"rental_uris":{"android":"levelo://app?vid=0c077630-d143-4a1b-b11e-f5412d5ac366","ios":"levelo://app?vid=0c077630-d143-4a1b-b11e-f5412d5ac366"},"vehicle_type_id":"4","last_reported":1731503798,"current_range_meters":13600,"station_id":"ce4bgvp2rcd13ifvqcu0","pricing_plan_id":"cebpf4jnsgd1na2vs0mg"},{"bike_id":"a886763f-d283-406b-b8e9-d902ada3b8f8","system_id":"levelo_inurba_marseille","lat":43.31693,"lon":5.37741,"is_reserved":false,"is_disabled":false,"rental_uris":{"android":"levelo://app?vid=a886763f-d283-406b-b8e9-d902ada3b8f8","ios":"levelo://app?vid=a886763f-d283-406b-b8e9-d902ada3b8f8"},"vehicle_type_id":"4","last_reported":1731503798,"current_range_meters":38800,"station_id":"ce4bgth2rcd13ifvqch0","pricing_plan_id":"cebpf4jnsgd1na2vs0mg"},{"bike_id":"24e41f3c-56a1-42b1-ba4e-53ea0e381679","system_id":"levelo_inurba_marseille","lat":43.29609,"lon":5.38104,"is_reserved":false,"is_disabled":false,"rental_uris":{"android":"levelo://app?vid=24e41f3c-56a1-42b1-ba4e-53ea0e381679","ios":"levelo://app?vid=24e41f3c-56a1-42b1-ba4e-53ea0e381679"},"vehicle_type_id":"4","last_reported":1731503798,"current_range_meters":22400,"station_id":"ce4bgl12rcd13ifvqbo0","pricing_plan_id":"cebpf4jnsgd1na2vs0mg"},{"bike_id":"c83ddec1-e162-4ca0-9126-2447df35b55b","system_id":"levelo_inurba_marseille","lat":43.307251,"lon":5.380467,"is_reserved":false,"is_disabled":false,"rental_uris":{"android":"levelo://app?vid=c83ddec1-e162-4ca0-9126-2447df35b55b","ios":"levelo://app?vid=c83ddec1-e162-4ca0-9126-2447df35b55b"},"vehicle_type_id":"4","last_reported":1731503798,"current_range_meters":800,"station_id":"ce4bgup2rcd13ifvqcn0","pricing_plan_id":"cebpf4jnsgd1na2vs0mg"},{"bike_id":"0ead1c14-4f5e-4fb7-ab63-64189c580c7f","system_id":"levelo_inurba_marseille","lat":43.24388,"lon":5.37062,"is_reserved":false,"is_disabled":false,"rental_uris":{"android":"levelo://app?vid=0ead1c14-4f5e-4fb7-ab63-64189c580c7f","ios":"levelo://app?vid=0ead1c14-4f5e-4fb7-ab63-64189c580c7f"},"vehicle_type_id":"4","last_reported":1731503798,"current_range_meters":30400,"station_id":"ce4bhhh2rcd13ifvqfk0","pricing_plan_id":"cebpf4jnsgd1na2vs0mg"},{"bike_id":"0c1f270d-b3f9-4317-8d1e-74b0d1fb6ebb","system_id":"levelo_inurba_marseille","lat":43.292866,"lon":5.368366,"is_reserved":false,"is_disabled":false,"rental_uris":{"android":"levelo://app?vid=0c1f270d-b3f9-4317-8d1e-74b0d1fb6ebb","ios":"levelo://app?vid=0c1f270d-b3f9-4317-8d1e-74b0d1fb6ebb"},"vehicle_type_id":"4","last_reported":1731503798,"current_range_meters":35200,"station_id":"ce4bhbp2rcd13ifvqesg","pricing_plan_id":"cebpf4jnsgd1na2vs0mg"},{"bike_id":"993a2407-dea1-4de6-b3ec-4b72998a4778","system_id":"levelo_inurba_marseille","lat":43.30138,"lon":5.37417,"is_reserved":false,"is_disabled":false,"rental_uris":{"android":"levelo://app?vid=993a2407-dea1-4de6-b3ec-4b72998a4778","ios":"levelo://app?vid=993a2407-dea1-4de6-b3ec-4b72998a4778"},"vehicle_type_id":"4","last_reported":1731503798,"current_range_meters":38800,"station_id":"ce4bgs92rcd13ifvqcc0","pricing_plan_id":"cebpf4jnsgd1na2vs0mg"},{"bike_id":"b065bce8-4e5d-45ae-bca9-c0c11fccd4d6","system_id":"levelo_inurba_marseille","lat":43.30903,"lon":5.37197,"is_reserved":false,"is_disabled":false,"rental_uris":{"android":"levelo://app?vid=b065bce8-4e5d-45ae-bca9-c0c11fccd4d6","ios":"levelo://app?vid=b065bce8-4e5d-45ae-bca9-c0c11fccd4d6"},"vehicle_type_id":"4","last_reported":1731503798,"current_range_meters":36000,"station_id":"ce4bguh2rcd13ifvqckg","pricing_plan_id":"cebpf4jnsgd1na2vs0mg"},{"bike_id":"55d2d8b2-0246-4eea-b604-9e80591018f2","system_id":"levelo_inurba_marseille","lat":43.2319,"lon":5.39985,"is_reserved":false,"is_disabled":false,"rental_uris":{"android":"levelo://app?vid=55d2d8b2-0246-4eea-b604-9e80591018f2","ios":"levelo://app?vid=55d2d8b2-0246-4eea-b604-9e80591018f2"},"vehicle_type_id":"4","last_reported":1731503798,"current_range_meters":20400,"station_id":"ce4bhn12rcd13ifvqgqg","pricing_plan_id":"cebpf4jnsgd1na2vs0mg"},{"bike_id":"006c2d36-da0a-46e8-bbc3-f99c04e00114","system_id":"levelo_inurba_marseille","lat":43.29584,"lon":5.36742,"is_reserved":false,"is_disabled":false,"rental_uris":{"android":"levelo://app?vid=006c2d36-da0a-46e8-bbc3-f99c04e00114","ios":"levelo://app?vid=006c2d36-da0a-46e8-bbc3-f99c04e00114"},"vehicle_type_id":"4","last_reported":1731503798,"current_range_meters":38800,"station_id":"ce4bgph2rcd13ifvqc2g","pricing_plan_id":"cebpf4jnsgd1na2vs0mg"},{"bike_id":"4de3ac83-573f-4eb1-b2b4-5b8afbbcb241","system_id":"levelo_inurba_marseille","lat":43.297975,"lon":5.381042,"is_reserved":false,"is_disabled":false,"rental_uris":{"android":"levelo://app?vid=4de3ac83-573f-4eb1-b2b4-5b8afbbcb241","ios":"levelo://app?vid=4de3ac83-573f-4eb1-b2b4-5b8afbbcb241"},"vehicle_type_id":"4","last_reported":1731503798,"current_range_meters":3600,"station_id":"ce4bgip2rcd13ifvqbb0","pricing_plan_id":"cebpf4jnsgd1na2vs0mg"},{"bike_id":"ffd88a98-cb38-452c-9513-ad1672aebe32","system_id":"levelo_inurba_marseille","lat":43.3134,"lon":5.36713,"is_reserved":false,"is_disabled":false,"rental_uris":{"android":"levelo://app?vid=ffd88a98-cb38-452c-9513-ad1672aebe32","ios":"levelo://app?vid=ffd88a98-cb38-452c-9513-ad1672aebe32"},"vehicle_type_id":"4","last_reported":1731503798,"current_range_meters":3200,"station_id":"ce4bgr92rcd13ifvqc6g","pricing_plan_id":"cebpf4jnsgd1na2vs0mg"},{"bike_id":"f6363e46-03ac-4006-92af-66bc53e7a16a","system_id":"levelo_inurba_marseille","lat":43.27428,"lon":5.39414,"is_reserved":false,"is_disabled":false,"rental_uris":{"android":"levelo://app?vid=f6363e46-03ac-4006-92af-66bc53e7a16a","ios":"levelo://app?vid=f6363e46-03ac-4006-92af-66bc53e7a16a"},"vehicle_type_id":"4","last_reported":1731503798,"current_range_meters":25200,"station_id":"ce4bhdp2rcd13ifvqf20","pricing_plan_id":"cebpf4jnsgd1na2vs0mg"},{"bike_id":"34c07d60-61dd-4fb0-bbc8-78714d732c89","system_id":"levelo_inurba_marseille","lat":43.29884,"lon":5.38909,"is_reserved":false,"is_disabled":false,"rental_uris":{"android":"levelo://app?vid=34c07d60-61dd-4fb0-bbc8-78714d732c89","ios":"levelo://app?vid=34c07d60-61dd-4fb0-bbc8-78714d732c89"},"vehicle_type_id":"4","last_reported":1731503798,"current_range_meters":7200,"station_id":"ce4bh392rcd13ifvqdl0","pricing_plan_id":"cebpf4jnsgd1na2vs0mg"},{"bike_id":"4916de2b-c7e0-4447-99f2-e571584d534c","system_id":"levelo_inurba_marseille","lat":43.28154,"lon":5.42639,"is_reserved":false,"is_disabled":false,"rental_uris":{"android":"levelo://app?vid=4916de2b-c7e0-4447-99f2-e571584d534c","ios":"levelo://app?vid=4916de2b-c7e0-4447-99f2-e571584d534c"},"vehicle_type_id":"4","last_reported":1731503798,"current_range_meters":12000,"station_id":"ce4bhnh2rcd13ifvqgug","pricing_plan_id":"cebpf4jnsgd1na2vs0mg"},{"bike_id":"4a74f469-1d99-48ee-a8ca-9199898c00a4","system_id":"levelo_inurba_marseille","lat":43.231895,"lon":5.355507,"is_reserved":false,"is_disabled":false,"rental_uris":{"android":"levelo://app?vid=4a74f469-1d99-48ee-a8ca-9199898c00a4","ios":"levelo://app?vid=4a74f469-1d99-48ee-a8ca-9199898c00a4"},"vehicle_type_id":"4","last_reported":1731503798,"current_range_meters":25200,"station_id":"ce4bhu92rcd13ifvqi70","pricing_plan_id":"cebpf4jnsgd1na2vs0mg"},{"bike_id":"b59a3fca-f496-4ca4-9d76-d0f4b2c8fc3f","system_id":"levelo_inurba_marseille","lat":43.301441,"lon":5.374171,"is_reserved":false,"is_disabled":false,"rental_uris":{"android":"levelo://app?vid=b59a3fca-f496-4ca4-9d76-d0f4b2c8fc3f","ios":"levelo://app?vid=b59a3fca-f496-4ca4-9d76-d0f4b2c8fc3f"},"vehicle_type_id":"4","last_reported":1731503798,"current_range_meters":38800,"station_id":"ce4bgs92rcd13ifvqcc0","pricing_plan_id":"cebpf4jnsgd1na2vs0mg"},{"bike_id":"93424700-31a1-4e96-956c-a547b28b31ca","system_id":"levelo_inurba_marseille","lat":43.26031,"lon":5.37545,"is_reserved":false,"is_disabled":false,"rental_uris":{"android":"levelo://app?vid=93424700-31a1-4e96-956c-a547b28b31ca","ios":"levelo://app?vid=93424700-31a1-4e96-956c-a547b28b31ca"},"vehicle_type_id":"4","last_reported":1731503798,"current_range_meters":24400,"station_id":"ce4bhgh2rcd13ifvqfa0","pricing_plan_id":"cebpf4jnsgd1na2vs0mg"},{"bike_id":"a05252be-63a4-41f8-b5a4-1a81d89d0c3c","system_id":"levelo_inurba_marseille","lat":43.23187,"lon":5.39994,"is_reserved":false,"is_disabled":false,"rental_uris":{"android":"levelo://app?vid=a05252be-63a4-41f8-b5a4-1a81d89d0c3c","ios":"levelo://app?vid=a05252be-63a4-41f8-b5a4-1a81d89d0c3c"},"vehicle_type_id":"4","last_reported":1731503798,"current_range_meters":38800,"station_id":"ce4bhn12rcd13ifvqgqg","pricing_plan_id":"cebpf4jnsgd1na2vs0mg"},{"bike_id":"fd82114e-033a-4907-8338-12d192d0b03c","system_id":"levelo_inurba_marseille","lat":43.28975,"lon":5.37834,"is_reserved":false,"is_disabled":false,"rental_uris":{"android":"levelo://app?vid=fd82114e-033a-4907-8338-12d192d0b03c","ios":"levelo://app?vid=fd82114e-033a-4907-8338-12d192d0b03c"},"vehicle_type_id":"4","last_reported":1731503798,"current_range_meters":17600,"station_id":"ce4bh9p2rcd13ifvqed0","pricing_plan_id":"cebpf4jnsgd1na2vs0mg"},{"bike_id":"435082a5-7b64-4bbd-841e-f7376692b97d","system_id":"levelo_inurba_marseille","lat":43.28574,"lon":5.39486,"is_reserved":false,"is_disabled":false,"rental_uris":{"android":"levelo://app?vid=435082a5-7b64-4bbd-841e-f7376692b97d","ios":"levelo://app?vid=435082a5-7b64-4bbd-841e-f7376692b97d"},"vehicle_type_id":"4","last_reported":1731503798,"current_range_meters":20000,"station_id":"ce4bh292rcd13ifvqdg0","pricing_plan_id":"cebpf4jnsgd1na2vs0mg"},{"bike_id":"4b65e34b-fea2-4791-84b9-55bb33f2833c","system_id":"levelo_inurba_marseille","lat":43.30287,"lon":5.37698,"is_reserved":false,"is_disabled":false,"rental_uris":{"android":"levelo://app?vid=4b65e34b-fea2-4791-84b9-55bb33f2833c","ios":"levelo://app?vid=4b65e34b-fea2-4791-84b9-55bb33f2833c"},"vehicle_type_id":"4","last_reported":1731503798,"current_range_meters":33200,"station_id":"ce4bguh2rcd13ifvqcj0","pricing_plan_id":"cebpf4jnsgd1na2vs0mg"},{"bike_id":"9e177942-182a-4bc6-8e56-1b062cbb5279","system_id":"levelo_inurba_marseille","lat":43.24813,"lon":5.37458,"is_reserved":false,"is_disabled":false,"rental_uris":{"android":"levelo://app?vid=9e177942-182a-4bc6-8e56-1b062cbb5279","ios":"levelo://app?vid=9e177942-182a-4bc6-8e56-1b062cbb5279"},"vehicle_type_id":"4","last_reported":1731503798,"current_range_meters":15200,"station_id":"ce4bhgh2rcd13ifvqfb0","pricing_plan_id":"cebpf4jnsgd1na2vs0mg"},{"bike_id":"bfe30172-ff4b-45b0-94c1-adf0c31e00f7","system_id":"levelo_inurba_marseille","lat":43.26158,"lon":5.3935,"is_reserved":false,"is_disabled":false,"rental_uris":{"android":"levelo://app?vid=bfe30172-ff4b-45b0-94c1-adf0c31e00f7","ios":"levelo://app?vid=bfe30172-ff4b-45b0-94c1-adf0c31e00f7"},"vehicle_type_id":"4","last_reported":1731503798,"current_range_meters":8000,"station_id":"ce4bhhh2rcd13ifvqfl0","pricing_plan_id":"cebpf4jnsgd1na2vs0mg"},{"bike_id":"54aec427-0486-4e28-b80f-5469fed64ebe","system_id":"levelo_inurba_marseille","lat":43.29621,"lon":5.37152,"is_reserved":false,"is_disabled":false,"rental_uris":{"android":"levelo://app?vid=54aec427-0486-4e28-b80f-5469fed64ebe","ios":"levelo://app?vid=54aec427-0486-4e28-b80f-5469fed64ebe"},"vehicle_type_id":"4","last_reported":1731503798,"current_range_meters":40000,"station_id":"ce4bgnh2rcd13ifvqc0g","pricing_plan_id":"cebpf4jnsgd1na2vs0mg"},{"bike_id":"3387362b-8762-4cb9-b912-027a55f682aa","system_id":"levelo_inurba_marseille","lat":43.28951,"lon":5.36401,"is_reserved":false,"is_disabled":false,"rental_uris":{"android":"levelo://app?vid=3387362b-8762-4cb9-b912-027a55f682aa","ios":"levelo://app?vid=3387362b-8762-4cb9-b912-027a55f682aa"},"vehicle_type_id":"4","last_reported":1731503798,"current_range_meters":27600,"station_id":"ce4bgi92rcd13ifvqb90","pricing_plan_id":"cebpf4jnsgd1na2vs0mg"},{"bike_id":"db3fa606-59aa-4c72-a9dc-caa95bb3f9b9","system_id":"levelo_inurba_marseille","lat":43.28945,"lon":5.36368,"is_reserved":false,"is_disabled":false,"rental_uris":{"android":"levelo://app?vid=db3fa606-59aa-4c72-a9dc-caa95bb3f9b9","ios":"levelo://app?vid=db3fa606-59aa-4c72-a9dc-caa95bb3f9b9"},"vehicle_type_id":"4","last_reported":1731503798,"current_range_meters":14400,"station_id":"ce4bhc92rcd13ifvqetg","pricing_plan_id":"cebpf4jnsgd1na2vs0mg"},{"bike_id":"c3fc68e9-bf17-4053-9295-3cf380161ea1","system_id":"levelo_inurba_marseille","lat":43.28153,"lon":5.42637,"is_reserved":false,"is_disabled":false,"rental_uris":{"android":"levelo://app?vid=c3fc68e9-bf17-4053-9295-3cf380161ea1","ios":"levelo://app?vid=c3fc68e9-bf17-4053-9295-3cf380161ea1"},"vehicle_type_id":"4","last_reported":1731503798,"current_range_meters":11200,"station_id":"ce4bhnh2rcd13ifvqgug","pricing_plan_id":"cebpf4jnsgd1na2vs0mg"},{"bike_id":"6c7c4d39-d1e7-454d-b830-5ac6496a3fdf","system_id":"levelo_inurba_marseille","lat":43.30933,"lon":5.40161,"is_reserved":false,"is_disabled":false,"rental_uris":{"android":"levelo://app?vid=6c7c4d39-d1e7-454d-b830-5ac6496a3fdf","ios":"levelo://app?vid=6c7c4d39-d1e7-454d-b830-5ac6496a3fdf"},"vehicle_type_id":"4","last_reported":1731503798,"current_range_meters":11200,"station_id":"ce4bgvp2rcd13ifvqct0","pricing_plan_id":"cebpf4jnsgd1na2vs0mg"},{"bike_id":"239f3371-4a97-4461-9ddf-85b49e85b19f","system_id":"levelo_inurba_marseille","lat":43.29034,"lon":5.38647,"is_reserved":false,"is_disabled":false,"rental_uris":{"android":"levelo://app?vid=239f3371-4a97-4461-9ddf-85b49e85b19f","ios":"levelo://app?vid=239f3371-4a97-4461-9ddf-85b49e85b19f"},"vehicle_type_id":"4","last_reported":1731503798,"current_range_meters":20400,"station_id":"ce4bh4p2rcd13ifvqe0g","pricing_plan_id":"cebpf4jnsgd1na2vs0mg"},{"bike_id":"03d47774-b3ef-4440-85ba-835eb7f33c88","system_id":"levelo_inurba_marseille","lat":43.31226,"lon":5.36849,"is_reserved":false,"is_disabled":false,"rental_uris":{"android":"levelo://app?vid=03d47774-b3ef-4440-85ba-835eb7f33c88","ios":"levelo://app?vid=03d47774-b3ef-4440-85ba-835eb7f33c88"},"vehicle_type_id":"4","last_reported":1731503798,"current_range_meters":38800,"station_id":"ce4bgl92rcd13ifvqbq0","pricing_plan_id":"cebpf4jnsgd1na2vs0mg"},{"bike_id":"579cfa97-1658-4864-8a9a-8be0b27789cb","system_id":"levelo_inurba_marseille","lat":43.23149,"lon":5.43713,"is_reserved":false,"is_disabled":false,"rental_uris":{"android":"levelo://app?vid=579cfa97-1658-4864-8a9a-8be0b27789cb","ios":"levelo://app?vid=579cfa97-1658-4864-8a9a-8be0b27789cb"},"vehicle_type_id":"4","last_reported":1731503798,"current_range_meters":8400,"station_id":"ce4bhmp2rcd13ifvqgog","pricing_plan_id":"cebpf4jnsgd1na2vs0mg"},{"bike_id":"d005cc1b-8783-4a1e-9e4d-c4524584f7a4","system_id":"levelo_inurba_marseille","lat":43.29531,"lon":5.37506,"is_reserved":false,"is_disabled":false,"rental_uris":{"android":"levelo://app?vid=d005cc1b-8783-4a1e-9e4d-c4524584f7a4","ios":"levelo://app?vid=d005cc1b-8783-4a1e-9e4d-c4524584f7a4"},"vehicle_type_id":"4","last_reported":1731503798,"current_range_meters":32400,"station_id":"ce4bgkp2rcd13ifvqbmg","pricing_plan_id":"cebpf4jnsgd1na2vs0mg"},{"bike_id":"7d7c161f-e5e3-4ce9-b742-5b96f0044808","system_id":"levelo_inurba_marseille","lat":43.3061,"lon":5.37224,"is_reserved":false,"is_disabled":false,"rental_uris":{"android":"levelo://app?vid=7d7c161f-e5e3-4ce9-b742-5b96f0044808","ios":"levelo://app?vid=7d7c161f-e5e3-4ce9-b742-5b96f0044808"},"vehicle_type_id":"4","last_reported":1731503798,"current_range_meters":24800,"station_id":"ce4bgqh2rcd13ifvqc4g","pricing_plan_id":"cebpf4jnsgd1na2vs0mg"},{"bike_id":"2eedc177-66d3-43ad-8e2d-78e60ce845e8","system_id":"levelo_inurba_marseille","lat":43.22928,"lon":5.35379,"is_reserved":false,"is_disabled":false,"rental_uris":{"android":"levelo://app?vid=2eedc177-66d3-43ad-8e2d-78e60ce845e8","ios":"levelo://app?vid=2eedc177-66d3-43ad-8e2d-78e60ce845e8"},"vehicle_type_id":"4","last_reported":1731503798,"current_range_meters":38800,"station_id":"cpo3532slgdg3j2ikp40","pricing_plan_id":"cebpf4jnsgd1na2vs0mg"},{"bike_id":"632df92a-8745-46a3-94d3-89fd8a400289","system_id":"levelo_inurba_marseille","lat":43.292,"lon":5.35805,"is_reserved":false,"is_disabled":false,"rental_uris":{"android":"levelo://app?vid=632df92a-8745-46a3-94d3-89fd8a400289","ios":"levelo://app?vid=632df92a-8745-46a3-94d3-89fd8a400289"},"vehicle_type_id":"4","last_reported":1731503798,"current_range_meters":20400,"station_id":"ce4bhb12rcd13ifvqel0","pricing_plan_id":"cebpf4jnsgd1na2vs0mg"},{"bike_id":"aa5ffeec-e4fe-4281-9157-e3906c445d57","system_id":"levelo_inurba_marseille","lat":43.29515,"lon":5.39398,"is_reserved":false,"is_disabled":false,"rental_uris":{"android":"levelo://app?vid=aa5ffeec-e4fe-4281-9157-e3906c445d57","ios":"levelo://app?vid=aa5ffeec-e4fe-4281-9157-e3906c445d57"},"vehicle_type_id":"4","last_reported":1731503798,"current_range_meters":23200,"station_id":"ce4bh292rcd13ifvqdf0","pricing_plan_id":"cebpf4jnsgd1na2vs0mg"},{"bike_id":"38be6805-9e16-4174-ad37-9a145348c769","system_id":"levelo_inurba_marseille","lat":43.30135,"lon":5.39886,"is_reserved":false,"is_disabled":false,"rental_uris":{"android":"levelo://app?vid=38be6805-9e16-4174-ad37-9a145348c769","ios":"levelo://app?vid=38be6805-9e16-4174-ad37-9a145348c769"},"vehicle_type_id":"4","last_reported":1731503798,"current_range_meters":25600,"station_id":"ce4bh0h2rcd13ifvqd40","pricing_plan_id":"cebpf4jnsgd1na2vs0mg"},{"bike_id":"4d2f475b-1638-4691-8d5a-d976640dc564","system_id":"levelo_inurba_marseille","lat":43.27179,"lon":5.4099,"is_reserved":false,"is_disabled":false,"rental_uris":{"android":"levelo://app?vid=4d2f475b-1638-4691-8d5a-d976640dc564","ios":"levelo://app?vid=4d2f475b-1638-4691-8d5a-d976640dc564"},"vehicle_type_id":"4","last_reported":1731503798,"current_range_meters":38800,"station_id":"ce4bhl12rcd13ifvqgf0","pricing_plan_id":"cebpf4jnsgd1na2vs0mg"},{"bike_id":"58e33efc-a12e-4887-b8b7-ba4f20bc1265","system_id":"levelo_inurba_marseille","lat":43.27315,"lon":5.3908,"is_reserved":false,"is_disabled":false,"rental_uris":{"android":"levelo://app?vid=58e33efc-a12e-4887-b8b7-ba4f20bc1265","ios":"levelo://app?vid=58e33efc-a12e-4887-b8b7-ba4f20bc1265"},"vehicle_type_id":"4","last_reported":1731503798,"current_range_meters":27200,"station_id":"ce4bhgp2rcd13ifvqfe0","pricing_plan_id":"cebpf4jnsgd1na2vs0mg"},{"bike_id":"3e57f472-1368-46da-8d87-80b976debeae","system_id":"levelo_inurba_marseille","lat":43.24076,"lon":5.37763,"is_reserved":false,"is_disabled":false,"rental_uris":{"android":"levelo://app?vid=3e57f472-1368-46da-8d87-80b976debeae","ios":"levelo://app?vid=3e57f472-1368-46da-8d87-80b976debeae"},"vehicle_type_id":"4","last_reported":1731503798,"current_range_meters":28800,"station_id":"ce4bhnp2rcd13ifvqgvg","pricing_plan_id":"cebpf4jnsgd1na2vs0mg"},{"bike_id":"a2f37729-c9a4-419d-a19a-32dc23261394","system_id":"levelo_inurba_marseille","lat":43.2619,"lon":5.37449,"is_reserved":false,"is_disabled":false,"rental_uris":{"android":"levelo://app?vid=a2f37729-c9a4-419d-a19a-32dc23261394","ios":"levelo://app?vid=a2f37729-c9a4-419d-a19a-32dc23261394"},"vehicle_type_id":"4","last_reported":1731503798,"current_range_meters":2000,"station_id":"ce4bhgp2rcd13ifvqfc0","pricing_plan_id":"cebpf4jnsgd1na2vs0mg"},{"bike_id":"6f97a5e1-6413-47a6-913a-6e075db989e7","system_id":"levelo_inurba_marseille","lat":43.32362,"lon":5.38884,"is_reserved":false,"is_disabled":false,"rental_uris":{"android":"levelo://app?vid=6f97a5e1-6413-47a6-913a-6e075db989e7","ios":"levelo://app?vid=6f97a5e1-6413-47a6-913a-6e075db989e7"},"vehicle_type_id":"4","last_reported":1731503798,"current_range_meters":16400,"station_id":"ce4bhqp2rcd13ifvqhog","pricing_plan_id":"cebpf4jnsgd1na2vs0mg"},{"bike_id":"e9bb8950-76de-4c9d-9aff-35253f090ff2","system_id":"levelo_inurba_marseille","lat":43.28118,"lon":5.37838,"is_reserved":false,"is_disabled":false,"rental_uris":{"android":"levelo://app?vid=e9bb8950-76de-4c9d-9aff-35253f090ff2","ios":"levelo://app?vid=e9bb8950-76de-4c9d-9aff-35253f090ff2"},"vehicle_type_id":"4","last_reported":1731503798,"current_range_meters":36400,"station_id":"ce4bha12rcd13ifvqee0","pricing_plan_id":"cebpf4jnsgd1na2vs0mg"},{"bike_id":"f8772f0f-5f01-4971-a9bf-5d10228b9639","system_id":"levelo_inurba_marseille","lat":43.26556,"lon":5.39021,"is_reserved":false,"is_disabled":false,"rental_uris":{"android":"levelo://app?vid=f8772f0f-5f01-4971-a9bf-5d10228b9639","ios":"levelo://app?vid=f8772f0f-5f01-4971-a9bf-5d10228b9639"},"vehicle_type_id":"4","last_reported":1731503798,"current_range_meters":27600,"station_id":"ce4bhe12rcd13ifvqf30","pricing_plan_id":"cebpf4jnsgd1na2vs0mg"},{"bike_id":"3abf5166-fde6-40a1-a7f9-7525d633fd45","system_id":"levelo_inurba_marseille","lat":43.29799,"lon":5.38083,"is_reserved":false,"is_disabled":false,"rental_uris":{"android":"levelo://app?vid=3abf5166-fde6-40a1-a7f9-7525d633fd45","ios":"levelo://app?vid=3abf5166-fde6-40a1-a7f9-7525d633fd45"},"vehicle_type_id":"4","last_reported":1731503798,"current_range_meters":30400,"station_id":"ce4bgip2rcd13ifvqbb0","pricing_plan_id":"cebpf4jnsgd1na2vs0mg"},{"bike_id":"a58fe3a4-32f4-43a1-95b7-df84f5b08162","system_id":"levelo_inurba_marseille","lat":43.25819,"lon":5.39434,"is_reserved":false,"is_disabled":false,"rental_uris":{"android":"levelo://app?vid=a58fe3a4-32f4-43a1-95b7-df84f5b08162","ios":"levelo://app?vid=a58fe3a4-32f4-43a1-95b7-df84f5b08162"},"vehicle_type_id":"4","last_reported":1731503798,"current_range_meters":18000,"station_id":"ce4bhip2rcd13ifvqft0","pricing_plan_id":"cebpf4jnsgd1na2vs0mg"},{"bike_id":"c5e46256-dcfc-4309-83f7-b33c0cdd5d3c","system_id":"levelo_inurba_marseille","lat":43.29199,"lon":5.35811,"is_reserved":false,"is_disabled":false,"rental_uris":{"android":"levelo://app?vid=c5e46256-dcfc-4309-83f7-b33c0cdd5d3c","ios":"levelo://app?vid=c5e46256-dcfc-4309-83f7-b33c0cdd5d3c"},"vehicle_type_id":"4","last_reported":1731503798,"current_range_meters":31200,"station_id":"ce4bhb12rcd13ifvqel0","pricing_plan_id":"cebpf4jnsgd1na2vs0mg"},{"bike_id":"b214fd36-0dac-46c7-8f45-af86d3f2fb87","system_id":"levelo_inurba_marseille","lat":43.295786,"lon":5.36745,"is_reserved":false,"is_disabled":false,"rental_uris":{"android":"levelo://app?vid=b214fd36-0dac-46c7-8f45-af86d3f2fb87","ios":"levelo://app?vid=b214fd36-0dac-46c7-8f45-af86d3f2fb87"},"vehicle_type_id":"4","last_reported":1731503798,"current_range_meters":34800,"station_id":"ce4bgph2rcd13ifvqc2g","pricing_plan_id":"cebpf4jnsgd1na2vs0mg"},{"bike_id":"92198295-0e98-45cd-9dad-c55a83988155","system_id":"levelo_inurba_marseille","lat":43.26585,"lon":5.390237,"is_reserved":false,"is_disabled":false,"rental_uris":{"android":"levelo://app?vid=92198295-0e98-45cd-9dad-c55a83988155","ios":"levelo://app?vid=92198295-0e98-45cd-9dad-c55a83988155"},"vehicle_type_id":"4","last_reported":1731503798,"current_range_meters":6800,"station_id":"ce4bhe12rcd13ifvqf30","pricing_plan_id":"cebpf4jnsgd1na2vs0mg"},{"bike_id":"6d338959-dac2-4460-a617-8941699747f4","system_id":"levelo_inurba_marseille","lat":43.29256,"lon":5.40906,"is_reserved":false,"is_disabled":false,"rental_uris":{"android":"levelo://app?vid=6d338959-dac2-4460-a617-8941699747f4","ios":"levelo://app?vid=6d338959-dac2-4460-a617-8941699747f4"},"vehicle_type_id":"4","last_reported":1731503798,"current_range_meters":26800,"station_id":"ce4bh192rcd13ifvqdc0","pricing_plan_id":"cebpf4jnsgd1na2vs0mg"},{"bike_id":"d939a8d3-7886-485f-80ff-eaccf3fd8656","system_id":"levelo_inurba_marseille","lat":43.23147,"lon":5.43709,"is_reserved":false,"is_disabled":false,"rental_uris":{"android":"levelo://app?vid=d939a8d3-7886-485f-80ff-eaccf3fd8656","ios":"levelo://app?vid=d939a8d3-7886-485f-80ff-eaccf3fd8656"},"vehicle_type_id":"4","last_reported":1731503798,"current_range_meters":14000,"station_id":"ce4bhmp2rcd13ifvqgog","pricing_plan_id":"cebpf4jnsgd1na2vs0mg"},{"bike_id":"44ce39fd-72d4-4013-8d55-211cd8784b0e","system_id":"levelo_inurba_marseille","lat":43.33733,"lon":5.37522,"is_reserved":false,"is_disabled":false,"rental_uris":{"android":"levelo://app?vid=44ce39fd-72d4-4013-8d55-211cd8784b0e","ios":"levelo://app?vid=44ce39fd-72d4-4013-8d55-211cd8784b0e"},"vehicle_type_id":"4","last_reported":1731503798,"current_range_meters":35600,"station_id":"","pricing_plan_id":"cebpf4jnsgd1na2vs0mg"},{"bike_id":"7c240009-8c2b-4097-b148-cc3511e71a66","system_id":"levelo_inurba_marseille","lat":43.33023,"lon":5.39038,"is_reserved":false,"is_disabled":false,"rental_uris":{"android":"levelo://app?vid=7c240009-8c2b-4097-b148-cc3511e71a66","ios":"levelo://app?vid=7c240009-8c2b-4097-b148-cc3511e71a66"},"vehicle_type_id":"4","last_reported":1731503798,"current_range_meters":30800,"station_id":"ce4bhr92rcd13ifvqhrg","pricing_plan_id":"cebpf4jnsgd1na2vs0mg"},{"bike_id":"b7eecc90-35b7-408c-a3b1-9c937760ed5b","system_id":"levelo_inurba_marseille","lat":43.29585,"lon":5.36751,"is_reserved":false,"is_disabled":false,"rental_uris":{"android":"levelo://app?vid=b7eecc90-35b7-408c-a3b1-9c937760ed5b","ios":"levelo://app?vid=b7eecc90-35b7-408c-a3b1-9c937760ed5b"},"vehicle_type_id":"4","last_reported":1731503798,"current_range_meters":32800,"station_id":"ce4bgph2rcd13ifvqc2g","pricing_plan_id":"cebpf4jnsgd1na2vs0mg"},{"bike_id":"b8330569-4a45-417b-ae32-c61dffc181a5","system_id":"levelo_inurba_marseille","lat":43.28981,"lon":5.37843,"is_reserved":false,"is_disabled":false,"rental_uris":{"android":"levelo://app?vid=b8330569-4a45-417b-ae32-c61dffc181a5","ios":"levelo://app?vid=b8330569-4a45-417b-ae32-c61dffc181a5"},"vehicle_type_id":"4","last_reported":1731503798,"current_range_meters":36800,"station_id":"ce4bh9p2rcd13ifvqed0","pricing_plan_id":"cebpf4jnsgd1na2vs0mg"},{"bike_id":"3d2519c6-c063-4ddf-b6b4-22dc2927d791","system_id":"levelo_inurba_marseille","lat":43.32661,"lon":5.40993,"is_reserved":false,"is_disabled":false,"rental_uris":{"android":"levelo://app?vid=3d2519c6-c063-4ddf-b6b4-22dc2927d791","ios":"levelo://app?vid=3d2519c6-c063-4ddf-b6b4-22dc2927d791"},"vehicle_type_id":"4","last_reported":1731503798,"current_range_meters":20000,"station_id":"ce4bhpp2rcd13ifvqhgg","pricing_plan_id":"cebpf4jnsgd1na2vs0mg"},{"bike_id":"5f07638d-4f0f-4d23-ba71-aa66c95b500b","system_id":"levelo_inurba_marseille","lat":43.31717,"lon":5.42393,"is_reserved":false,"is_disabled":false,"rental_uris":{"android":"levelo://app?vid=5f07638d-4f0f-4d23-ba71-aa66c95b500b","ios":"levelo://app?vid=5f07638d-4f0f-4d23-ba71-aa66c95b500b"},"vehicle_type_id":"4","last_reported":1731503798,"current_range_meters":6400,"station_id":"ce4bhp92rcd13ifvqhbg","pricing_plan_id":"cebpf4jnsgd1na2vs0mg"},{"bike_id":"797e37eb-5aad-404f-98b6-b421690943b7","system_id":"levelo_inurba_marseille","lat":43.27565,"lon":5.38419,"is_reserved":false,"is_disabled":false,"rental_uris":{"android":"levelo://app?vid=797e37eb-5aad-404f-98b6-b421690943b7","ios":"levelo://app?vid=797e37eb-5aad-404f-98b6-b421690943b7"},"vehicle_type_id":"4","last_reported":1731503798,"current_range_meters":38400,"station_id":"ce4bhh92rcd13ifvqfi0","pricing_plan_id":"cebpf4jnsgd1na2vs0mg"},{"bike_id":"fd545d20-4954-43d1-8110-c7d74b12f2cd","system_id":"levelo_inurba_marseille","lat":43.27055,"lon":5.40259,"is_reserved":false,"is_disabled":false,"rental_uris":{"android":"levelo://app?vid=fd545d20-4954-43d1-8110-c7d74b12f2cd","ios":"levelo://app?vid=fd545d20-4954-43d1-8110-c7d74b12f2cd"},"vehicle_type_id":"4","last_reported":1731503798,"current_range_meters":19200,"station_id":"ce4bhk92rcd13ifvqgc0","pricing_plan_id":"cebpf4jnsgd1na2vs0mg"},{"bike_id":"b38a4f44-aa8d-4a2d-beed-d85f8fd1eaa3","system_id":"levelo_inurba_marseille","lat":43.337444,"lon":5.374475,"is_reserved":false,"is_disabled":false,"rental_uris":{"android":"levelo://app?vid=b38a4f44-aa8d-4a2d-beed-d85f8fd1eaa3","ios":"levelo://app?vid=b38a4f44-aa8d-4a2d-beed-d85f8fd1eaa3"},"vehicle_type_id":"4","last_reported":1731503798,"current_range_meters":4400,"station_id":"ce4bh0h2rcd13ifvqd40","pricing_plan_id":"cebpf4jnsgd1na2vs0mg"},{"bike_id":"84d9d6a4-530c-4f53-8a05-64f9347dd1fb","system_id":"levelo_inurba_marseille","lat":43.30144,"lon":5.38786,"is_reserved":false,"is_disabled":false,"rental_uris":{"android":"levelo://app?vid=84d9d6a4-530c-4f53-8a05-64f9347dd1fb","ios":"levelo://app?vid=84d9d6a4-530c-4f53-8a05-64f9347dd1fb"},"vehicle_type_id":"4","last_reported":1731503798,"current_range_meters":32800,"station_id":"ce4bghh2rcd13ifvqb60","pricing_plan_id":"cebpf4jnsgd1na2vs0mg"},{"bike_id":"b83d5a8a-b0a5-42e7-98a3-9c12a5510a4e","system_id":"levelo_inurba_marseille","lat":43.28667,"lon":5.3634,"is_reserved":false,"is_disabled":false,"rental_uris":{"android":"levelo://app?vid=b83d5a8a-b0a5-42e7-98a3-9c12a5510a4e","ios":"levelo://app?vid=b83d5a8a-b0a5-42e7-98a3-9c12a5510a4e"},"vehicle_type_id":"4","last_reported":1731503798,"current_range_meters":28800,"station_id":"ce4bhah2rcd13ifvqej0","pricing_plan_id":"cebpf4jnsgd1na2vs0mg"},{"bike_id":"b88fcda8-bfa5-46fa-9ce9-abab1b3d5a26","system_id":"levelo_inurba_marseille","lat":43.28987,"lon":5.37816,"is_reserved":false,"is_disabled":false,"rental_uris":{"android":"levelo://app?vid=b88fcda8-bfa5-46fa-9ce9-abab1b3d5a26","ios":"levelo://app?vid=b88fcda8-bfa5-46fa-9ce9-abab1b3d5a26"},"vehicle_type_id":"4","last_reported":1731503798,"current_range_meters":24800,"station_id":"ce4bh9p2rcd13ifvqed0","pricing_plan_id":"cebpf4jnsgd1na2vs0mg"},{"bike_id":"8963f262-bdcb-43f5-9e37-237198779ba8","system_id":"levelo_inurba_marseille","lat":43.33773,"lon":5.37442,"is_reserved":false,"is_disabled":false,"rental_uris":{"android":"levelo://app?vid=8963f262-bdcb-43f5-9e37-237198779ba8","ios":"levelo://app?vid=8963f262-bdcb-43f5-9e37-237198779ba8"},"vehicle_type_id":"4","last_reported":1731503798,"current_range_meters":38000,"station_id":"","pricing_plan_id":"cebpf4jnsgd1na2vs0mg"},{"bike_id":"9e206ec4-3bc2-4292-bb12-90ccf987d885","system_id":"levelo_inurba_marseille","lat":43.337444,"lon":5.374475,"is_reserved":false,"is_disabled":false,"rental_uris":{"android":"levelo://app?vid=9e206ec4-3bc2-4292-bb12-90ccf987d885","ios":"levelo://app?vid=9e206ec4-3bc2-4292-bb12-90ccf987d885"},"vehicle_type_id":"4","last_reported":1731503798,"current_range_meters":37600,"station_id":"","pricing_plan_id":"cebpf4jnsgd1na2vs0mg"},{"bike_id":"398b47b3-a042-4cec-b1dd-254773a78263","system_id":"levelo_inurba_marseille","lat":43.274068,"lon":5.389505,"is_reserved":false,"is_disabled":false,"rental_uris":{"android":"levelo://app?vid=398b47b3-a042-4cec-b1dd-254773a78263","ios":"levelo://app?vid=398b47b3-a042-4cec-b1dd-254773a78263"},"vehicle_type_id":"4","last_reported":1731503798,"current_range_meters":9200,"station_id":"","pricing_plan_id":"cebpf4jnsgd1na2vs0mg"},{"bike_id":"9748b761-dff6-418f-8a16-173dcf561a0c","system_id":"levelo_inurba_marseille","lat":43.30311,"lon":5.36902,"is_reserved":false,"is_disabled":false,"rental_uris":{"android":"levelo://app?vid=9748b761-dff6-418f-8a16-173dcf561a0c","ios":"levelo://app?vid=9748b761-dff6-418f-8a16-173dcf561a0c"},"vehicle_type_id":"4","last_reported":1731503798,"current_range_meters":15200,"station_id":"ce4bgqh2rcd13ifvqc5g","pricing_plan_id":"cebpf4jnsgd1na2vs0mg"},{"bike_id":"8e8bd5d9-a5da-45ba-a0ca-79517ac3855c","system_id":"levelo_inurba_marseille","lat":43.258235,"lon":5.394275,"is_reserved":false,"is_disabled":false,"rental_uris":{"android":"levelo://app?vid=8e8bd5d9-a5da-45ba-a0ca-79517ac3855c","ios":"levelo://app?vid=8e8bd5d9-a5da-45ba-a0ca-79517ac3855c"},"vehicle_type_id":"4","last_reported":1731503798,"current_range_meters":36000,"station_id":"ce4bhip2rcd13ifvqft0","pricing_plan_id":"cebpf4jnsgd1na2vs0mg"},{"bike_id":"92e3ad17-17c9-4714-a148-ef9436ad6113","system_id":"levelo_inurba_marseille","lat":43.2294,"lon":5.35379,"is_reserved":false,"is_disabled":false,"rental_uris":{"android":"levelo://app?vid=92e3ad17-17c9-4714-a148-ef9436ad6113","ios":"levelo://app?vid=92e3ad17-17c9-4714-a148-ef9436ad6113"},"vehicle_type_id":"4","last_reported":1731503798,"current_range_meters":36800,"station_id":"cpo3532slgdg3j2ikp40","pricing_plan_id":"cebpf4jnsgd1na2vs0mg"},{"bike_id":"d1b2c0bd-3f1f-4886-b759-415c8af5c71b","system_id":"levelo_inurba_marseille","lat":43.2903,"lon":5.3813,"is_reserved":false,"is_disabled":false,"rental_uris":{"android":"levelo://app?vid=d1b2c0bd-3f1f-4886-b759-415c8af5c71b","ios":"levelo://app?vid=d1b2c0bd-3f1f-4886-b759-415c8af5c71b"},"vehicle_type_id":"4","last_reported":1731503798,"current_range_meters":37600,"station_id":"ce4bh4p2rcd13ifvqe1g","pricing_plan_id":"cebpf4jnsgd1na2vs0mg"},{"bike_id":"9b318ec0-f4cc-4e60-af95-e2dced4e1b2d","system_id":"levelo_inurba_marseille","lat":43.25004,"lon":5.38913,"is_reserved":false,"is_disabled":false,"rental_uris":{"android":"levelo://app?vid=9b318ec0-f4cc-4e60-af95-e2dced4e1b2d","ios":"levelo://app?vid=9b318ec0-f4cc-4e60-af95-e2dced4e1b2d"},"vehicle_type_id":"4","last_reported":1731503798,"current_range_meters":38800,"station_id":"ce4bhgp2rcd13ifvqfd0","pricing_plan_id":"cebpf4jnsgd1na2vs0mg"},{"bike_id":"0063a0d3-ec6c-412a-8700-659e036ebb6c","system_id":"levelo_inurba_marseille","lat":43.29794,"lon":5.38105,"is_reserved":false,"is_disabled":false,"rental_uris":{"android":"levelo://app?vid=0063a0d3-ec6c-412a-8700-659e036ebb6c","ios":"levelo://app?vid=0063a0d3-ec6c-412a-8700-659e036ebb6c"},"vehicle_type_id":"4","last_reported":1731503798,"current_range_meters":24000,"station_id":"ce4bgip2rcd13ifvqbb0","pricing_plan_id":"cebpf4jnsgd1na2vs0mg"},{"bike_id":"a0bffd38-f529-4b37-9227-fb3819a7a32a","system_id":"levelo_inurba_marseille","lat":43.29557,"lon":5.4229,"is_reserved":false,"is_disabled":false,"rental_uris":{"android":"levelo://app?vid=a0bffd38-f529-4b37-9227-fb3819a7a32a","ios":"levelo://app?vid=a0bffd38-f529-4b37-9227-fb3819a7a32a"},"vehicle_type_id":"4","last_reported":1731503798,"current_range_meters":34000,"station_id":"ce4bhph2rcd13ifvqhdg","pricing_plan_id":"cebpf4jnsgd1na2vs0mg"},{"bike_id":"beb7b9bd-a544-4d0c-b0ee-a6204f3f5108","system_id":"levelo_inurba_marseille","lat":43.291962,"lon":5.385193,"is_reserved":false,"is_disabled":false,"rental_uris":{"android":"levelo://app?vid=beb7b9bd-a544-4d0c-b0ee-a6204f3f5108","ios":"levelo://app?vid=beb7b9bd-a544-4d0c-b0ee-a6204f3f5108"},"vehicle_type_id":"4","last_reported":1731503798,"current_range_meters":28800,"station_id":"","pricing_plan_id":"cebpf4jnsgd1na2vs0mg"},{"bike_id":"82f309e6-c4ae-421f-89cb-1d64a8e0ef10","system_id":"levelo_inurba_marseille","lat":43.337444,"lon":5.374475,"is_reserved":false,"is_disabled":false,"rental_uris":{"android":"levelo://app?vid=82f309e6-c4ae-421f-89cb-1d64a8e0ef10","ios":"levelo://app?vid=82f309e6-c4ae-421f-89cb-1d64a8e0ef10"},"vehicle_type_id":"4","last_reported":1731503798,"current_range_meters":36800,"station_id":"","pricing_plan_id":"cebpf4jnsgd1na2vs0mg"},{"bike_id":"d2423466-98bc-4d3a-a5fc-c0d33f6c410d","system_id":"levelo_inurba_marseille","lat":43.337444,"lon":5.374475,"is_reserved":false,"is_disabled":false,"rental_uris":{"android":"levelo://app?vid=d2423466-98bc-4d3a-a5fc-c0d33f6c410d","ios":"levelo://app?vid=d2423466-98bc-4d3a-a5fc-c0d33f6c410d"},"vehicle_type_id":"4","last_reported":1731503798,"current_range_meters":36800,"station_id":"","pricing_plan_id":"cebpf4jnsgd1na2vs0mg"},{"bike_id":"dc750cdd-7c9e-4bd3-b20d-3e7ba6babbe2","system_id":"levelo_inurba_marseille","lat":43.337444,"lon":5.374475,"is_reserved":false,"is_disabled":false,"rental_uris":{"android":"levelo://app?vid=dc750cdd-7c9e-4bd3-b20d-3e7ba6babbe2","ios":"levelo://app?vid=dc750cdd-7c9e-4bd3-b20d-3e7ba6babbe2"},"vehicle_type_id":"4","last_reported":1731503798,"current_range_meters":14400,"station_id":"","pricing_plan_id":"cebpf4jnsgd1na2vs0mg"},{"bike_id":"9a32256b-e36b-4f3b-9a95-a9bb777517bf","system_id":"levelo_inurba_marseille","lat":43.29439,"lon":5.39758,"is_reserved":false,"is_disabled":false,"rental_uris":{"android":"levelo://app?vid=9a32256b-e36b-4f3b-9a95-a9bb777517bf","ios":"levelo://app?vid=9a32256b-e36b-4f3b-9a95-a9bb777517bf"},"vehicle_type_id":"4","last_reported":1731503798,"current_range_meters":35200,"station_id":"ce4bh3h2rcd13ifvqdo0","pricing_plan_id":"cebpf4jnsgd1na2vs0mg"},{"bike_id":"e930f63d-833a-4484-af7e-0402e4498782","system_id":"levelo_inurba_marseille","lat":43.28478,"lon":5.38417,"is_reserved":false,"is_disabled":false,"rental_uris":{"android":"levelo://app?vid=e930f63d-833a-4484-af7e-0402e4498782","ios":"levelo://app?vid=e930f63d-833a-4484-af7e-0402e4498782"},"vehicle_type_id":"4","last_reported":1731503798,"current_range_meters":20800,"station_id":"ce4bh512rcd13ifvqe3g","pricing_plan_id":"cebpf4jnsgd1na2vs0mg"},{"bike_id":"6e4ab7d2-c1df-4ea4-bb4b-2f5c43ed5717","system_id":"levelo_inurba_marseille","lat":43.33768,"lon":5.37439,"is_reserved":false,"is_disabled":false,"rental_uris":{"android":"levelo://app?vid=6e4ab7d2-c1df-4ea4-bb4b-2f5c43ed5717","ios":"levelo://app?vid=6e4ab7d2-c1df-4ea4-bb4b-2f5c43ed5717"},"vehicle_type_id":"4","last_reported":1731503798,"current_range_meters":36800,"station_id":"","pricing_plan_id":"cebpf4jnsgd1na2vs0mg"},{"bike_id":"34557501-08f3-4655-9109-f7291fc8681e","system_id":"levelo_inurba_marseille","lat":43.29936,"lon":5.36533,"is_reserved":false,"is_disabled":false,"rental_uris":{"android":"levelo://app?vid=34557501-08f3-4655-9109-f7291fc8681e","ios":"levelo://app?vid=34557501-08f3-4655-9109-f7291fc8681e"},"vehicle_type_id":"4","last_reported":1731503798,"current_range_meters":38800,"station_id":"ce4bgm92rcd13ifvqbr0","pricing_plan_id":"cebpf4jnsgd1na2vs0mg"},{"bike_id":"b1f50a4e-bf80-417b-be95-adf7b4bc4b3b","system_id":"levelo_inurba_marseille","lat":43.303915,"lon":5.36999,"is_reserved":false,"is_disabled":false,"rental_uris":{"android":"levelo://app?vid=b1f50a4e-bf80-417b-be95-adf7b4bc4b3b","ios":"levelo://app?vid=b1f50a4e-bf80-417b-be95-adf7b4bc4b3b"},"vehicle_type_id":"4","last_reported":1731503798,"current_range_meters":36000,"station_id":"","pricing_plan_id":"cebpf4jnsgd1na2vs0mg"},{"bike_id":"263742b9-e7f6-4e92-90b4-249dc62cb355","system_id":"levelo_inurba_marseille","lat":43.30527,"lon":5.38421,"is_reserved":false,"is_disabled":false,"rental_uris":{"android":"levelo://app?vid=263742b9-e7f6-4e92-90b4-249dc62cb355","ios":"levelo://app?vid=263742b9-e7f6-4e92-90b4-249dc62cb355"},"vehicle_type_id":"4","last_reported":1731503798,"current_range_meters":16400,"station_id":"ce4bgg92rcd13ifvqb30","pricing_plan_id":"cebpf4jnsgd1na2vs0mg"},{"bike_id":"945a5559-5e59-4fc4-b873-c82d707065d4","system_id":"levelo_inurba_marseille","lat":43.26684,"lon":5.38273,"is_reserved":false,"is_disabled":false,"rental_uris":{"android":"levelo://app?vid=945a5559-5e59-4fc4-b873-c82d707065d4","ios":"levelo://app?vid=945a5559-5e59-4fc4-b873-c82d707065d4"},"vehicle_type_id":"4","last_reported":1731503798,"current_range_meters":36400,"station_id":"ce4bhg92rcd13ifvqf90","pricing_plan_id":"cebpf4jnsgd1na2vs0mg"},{"bike_id":"2ea7aff9-03cc-4def-b7e3-6baa11e2bed4","system_id":"levelo_inurba_marseille","lat":43.23142,"lon":5.43721,"is_reserved":false,"is_disabled":false,"rental_uris":{"android":"levelo://app?vid=2ea7aff9-03cc-4def-b7e3-6baa11e2bed4","ios":"levelo://app?vid=2ea7aff9-03cc-4def-b7e3-6baa11e2bed4"},"vehicle_type_id":"4","last_reported":1731503798,"current_range_meters":38800,"station_id":"ce4bhmp2rcd13ifvqgog","pricing_plan_id":"cebpf4jnsgd1na2vs0mg"},{"bike_id":"ddf227b5-0305-4c5a-b081-24ffc9b7922c","system_id":"levelo_inurba_marseille","lat":43.28039,"lon":5.3695,"is_reserved":false,"is_disabled":false,"rental_uris":{"android":"levelo://app?vid=ddf227b5-0305-4c5a-b081-24ffc9b7922c","ios":"levelo://app?vid=ddf227b5-0305-4c5a-b081-24ffc9b7922c"},"vehicle_type_id":"4","last_reported":1731503798,"current_range_meters":3200,"station_id":"ce4bha12rcd13ifvqef0","pricing_plan_id":"cebpf4jnsgd1na2vs0mg"},{"bike_id":"85718261-3746-4a85-9f1e-84adac851f6a","system_id":"levelo_inurba_marseille","lat":43.260275,"lon":5.37548,"is_reserved":false,"is_disabled":false,"rental_uris":{"android":"levelo://app?vid=85718261-3746-4a85-9f1e-84adac851f6a","ios":"levelo://app?vid=85718261-3746-4a85-9f1e-84adac851f6a"},"vehicle_type_id":"4","last_reported":1731503798,"current_range_meters":38800,"station_id":"ce4bhgh2rcd13ifvqfa0","pricing_plan_id":"cebpf4jnsgd1na2vs0mg"},{"bike_id":"ef619835-b1e8-429c-acd3-2d17a3e7828b","system_id":"levelo_inurba_marseille","lat":43.310672,"lon":5.42357,"is_reserved":false,"is_disabled":false,"rental_uris":{"android":"levelo://app?vid=ef619835-b1e8-429c-acd3-2d17a3e7828b","ios":"levelo://app?vid=ef619835-b1e8-429c-acd3-2d17a3e7828b"},"vehicle_type_id":"4","last_reported":1731503798,"current_range_meters":28000,"station_id":"ce4bhp92rcd13ifvqhag","pricing_plan_id":"cebpf4jnsgd1na2vs0mg"},{"bike_id":"b123e74b-49e8-4f7e-bff2-d8dff368873a","system_id":"levelo_inurba_marseille","lat":43.29718,"lon":5.3661,"is_reserved":false,"is_disabled":false,"rental_uris":{"android":"levelo://app?vid=b123e74b-49e8-4f7e-bff2-d8dff368873a","ios":"levelo://app?vid=b123e74b-49e8-4f7e-bff2-d8dff368873a"},"vehicle_type_id":"4","last_reported":1731503798,"current_range_meters":19200,"station_id":"ce4bgn12rcd13ifvqbt0","pricing_plan_id":"cebpf4jnsgd1na2vs0mg"},{"bike_id":"13cb1a28-f1b4-4604-8f0e-b6a987c4a8ec","system_id":"levelo_inurba_marseille","lat":43.28682,"lon":5.38663,"is_reserved":false,"is_disabled":false,"rental_uris":{"android":"levelo://app?vid=13cb1a28-f1b4-4604-8f0e-b6a987c4a8ec","ios":"levelo://app?vid=13cb1a28-f1b4-4604-8f0e-b6a987c4a8ec"},"vehicle_type_id":"4","last_reported":1731503798,"current_range_meters":8800,"station_id":"ce4bh492rcd13ifvqdug","pricing_plan_id":"cebpf4jnsgd1na2vs0mg"},{"bike_id":"b0915bbb-fecc-4672-956b-f6227a2d3cda","system_id":"levelo_inurba_marseille","lat":43.29367,"lon":5.37833,"is_reserved":false,"is_disabled":false,"rental_uris":{"android":"levelo://app?vid=b0915bbb-fecc-4672-956b-f6227a2d3cda","ios":"levelo://app?vid=b0915bbb-fecc-4672-956b-f6227a2d3cda"},"vehicle_type_id":"4","last_reported":1731503798,"current_range_meters":4000,"station_id":"ce4bgjh2rcd13ifvqbf0","pricing_plan_id":"cebpf4jnsgd1na2vs0mg"},{"bike_id":"825dbd86-d38a-47ed-9fc4-0ef56717c8e8","system_id":"levelo_inurba_marseille","lat":43.31231,"lon":5.36867,"is_reserved":false,"is_disabled":false,"rental_uris":{"android":"levelo://app?vid=825dbd86-d38a-47ed-9fc4-0ef56717c8e8","ios":"levelo://app?vid=825dbd86-d38a-47ed-9fc4-0ef56717c8e8"},"vehicle_type_id":"4","last_reported":1731503798,"current_range_meters":37600,"station_id":"ce4bgl92rcd13ifvqbq0","pricing_plan_id":"cebpf4jnsgd1na2vs0mg"},{"bike_id":"8a36776f-a2b8-4602-be9d-68d7e9caf8b0","system_id":"levelo_inurba_marseille","lat":43.27058,"lon":5.40258,"is_reserved":false,"is_disabled":false,"rental_uris":{"android":"levelo://app?vid=8a36776f-a2b8-4602-be9d-68d7e9caf8b0","ios":"levelo://app?vid=8a36776f-a2b8-4602-be9d-68d7e9caf8b0"},"vehicle_type_id":"4","last_reported":1731503798,"current_range_meters":26000,"station_id":"ce4bhk92rcd13ifvqgc0","pricing_plan_id":"cebpf4jnsgd1na2vs0mg"},{"bike_id":"158757d0-f89c-452d-9746-6ab2aad19887","system_id":"levelo_inurba_marseille","lat":43.31243,"lon":5.3689,"is_reserved":false,"is_disabled":false,"rental_uris":{"android":"levelo://app?vid=158757d0-f89c-452d-9746-6ab2aad19887","ios":"levelo://app?vid=158757d0-f89c-452d-9746-6ab2aad19887"},"vehicle_type_id":"4","last_reported":1731503798,"current_range_meters":36400,"station_id":"ce4bgl92rcd13ifvqbq0","pricing_plan_id":"cebpf4jnsgd1na2vs0mg"},{"bike_id":"98f6c907-3424-4754-8bfa-a5680f951a52","system_id":"levelo_inurba_marseille","lat":43.32536,"lon":5.4144,"is_reserved":false,"is_disabled":false,"rental_uris":{"android":"levelo://app?vid=98f6c907-3424-4754-8bfa-a5680f951a52","ios":"levelo://app?vid=98f6c907-3424-4754-8bfa-a5680f951a52"},"vehicle_type_id":"4","last_reported":1731503798,"current_range_meters":26800,"station_id":"ce4bhq12rcd13ifvqhhg","pricing_plan_id":"cebpf4jnsgd1na2vs0mg"},{"bike_id":"a259dc59-abd0-4ca1-8047-e50dcef22e3e","system_id":"levelo_inurba_marseille","lat":43.337444,"lon":5.374475,"is_reserved":false,"is_disabled":false,"rental_uris":{"android":"levelo://app?vid=a259dc59-abd0-4ca1-8047-e50dcef22e3e","ios":"levelo://app?vid=a259dc59-abd0-4ca1-8047-e50dcef22e3e"},"vehicle_type_id":"4","last_reported":1731503798,"current_range_meters":36800,"station_id":"","pricing_plan_id":"cebpf4jnsgd1na2vs0mg"},{"bike_id":"d322a100-fb2c-43c2-bdc2-ab97ef79907a","system_id":"levelo_inurba_marseille","lat":43.3013,"lon":5.39875,"is_reserved":false,"is_disabled":false,"rental_uris":{"android":"levelo://app?vid=d322a100-fb2c-43c2-bdc2-ab97ef79907a","ios":"levelo://app?vid=d322a100-fb2c-43c2-bdc2-ab97ef79907a"},"vehicle_type_id":"4","last_reported":1731503798,"current_range_meters":24800,"station_id":"ce4bh0h2rcd13ifvqd40","pricing_plan_id":"cebpf4jnsgd1na2vs0mg"},{"bike_id":"f6c92c08-5ecc-41ec-97bc-5c7107589255","system_id":"levelo_inurba_marseille","lat":43.26792,"lon":5.39414,"is_reserved":false,"is_disabled":false,"rental_uris":{"android":"levelo://app?vid=f6c92c08-5ecc-41ec-97bc-5c7107589255","ios":"levelo://app?vid=f6c92c08-5ecc-41ec-97bc-5c7107589255"},"vehicle_type_id":"4","last_reported":1731503798,"current_range_meters":39200,"station_id":"ce4bhh12rcd13ifvqfg0","pricing_plan_id":"cebpf4jnsgd1na2vs0mg"},{"bike_id":"d907ff91-a2b1-4d77-a7fd-29b5379c02bc","system_id":"levelo_inurba_marseille","lat":43.26573,"lon":5.39001,"is_reserved":false,"is_disabled":false,"rental_uris":{"android":"levelo://app?vid=d907ff91-a2b1-4d77-a7fd-29b5379c02bc","ios":"levelo://app?vid=d907ff91-a2b1-4d77-a7fd-29b5379c02bc"},"vehicle_type_id":"4","last_reported":1731503798,"current_range_meters":14800,"station_id":"ce4bhe12rcd13ifvqf30","pricing_plan_id":"cebpf4jnsgd1na2vs0mg"},{"bike_id":"92a7a4b8-71a2-4d89-a912-8ce23346a0d1","system_id":"levelo_inurba_marseille","lat":43.29894,"lon":5.43657,"is_reserved":false,"is_disabled":false,"rental_uris":{"android":"levelo://app?vid=92a7a4b8-71a2-4d89-a912-8ce23346a0d1","ios":"levelo://app?vid=92a7a4b8-71a2-4d89-a912-8ce23346a0d1"},"vehicle_type_id":"4","last_reported":1731503798,"current_range_meters":6000,"station_id":"ce4bhpp2rcd13ifvqhfg","pricing_plan_id":"cebpf4jnsgd1na2vs0mg"},{"bike_id":"6beff130-26f9-4b61-a3e4-8f5583a6106d","system_id":"levelo_inurba_marseille","lat":43.29734,"lon":5.37682,"is_reserved":false,"is_disabled":false,"rental_uris":{"android":"levelo://app?vid=6beff130-26f9-4b61-a3e4-8f5583a6106d","ios":"levelo://app?vid=6beff130-26f9-4b61-a3e4-8f5583a6106d"},"vehicle_type_id":"4","last_reported":1731503798,"current_range_meters":36400,"station_id":"ce4bgkh2rcd13ifvqbl0","pricing_plan_id":"cebpf4jnsgd1na2vs0mg"},{"bike_id":"be88b65f-758c-41ae-bbef-9b7f5093def9","system_id":"levelo_inurba_marseille","lat":43.28416,"lon":5.34991,"is_reserved":false,"is_disabled":false,"rental_uris":{"android":"levelo://app?vid=be88b65f-758c-41ae-bbef-9b7f5093def9","ios":"levelo://app?vid=be88b65f-758c-41ae-bbef-9b7f5093def9"},"vehicle_type_id":"4","last_reported":1731503798,"current_range_meters":38000,"station_id":"ce4bhbh2rcd13ifvqepg","pricing_plan_id":"cebpf4jnsgd1na2vs0mg"},{"bike_id":"5bc8a2cc-e5b1-4065-a734-e2ab36656fe9","system_id":"levelo_inurba_marseille","lat":43.29923,"lon":5.37493,"is_reserved":false,"is_disabled":false,"rental_uris":{"android":"levelo://app?vid=5bc8a2cc-e5b1-4065-a734-e2ab36656fe9","ios":"levelo://app?vid=5bc8a2cc-e5b1-4065-a734-e2ab36656fe9"},"vehicle_type_id":"4","last_reported":1731503798,"current_range_meters":28400,"station_id":"ce4bgjh2rcd13ifvqbg0","pricing_plan_id":"cebpf4jnsgd1na2vs0mg"},{"bike_id":"35de1438-89b1-4ff8-b43a-c726e6cafe82","system_id":"levelo_inurba_marseille","lat":43.26211,"lon":5.37445,"is_reserved":false,"is_disabled":false,"rental_uris":{"android":"levelo://app?vid=35de1438-89b1-4ff8-b43a-c726e6cafe82","ios":"levelo://app?vid=35de1438-89b1-4ff8-b43a-c726e6cafe82"},"vehicle_type_id":"4","last_reported":1731503798,"current_range_meters":21600,"station_id":"ce4bhgp2rcd13ifvqfc0","pricing_plan_id":"cebpf4jnsgd1na2vs0mg"},{"bike_id":"47fdd3bf-4cb5-4eed-812e-3770c79fd243","system_id":"levelo_inurba_marseille","lat":43.32112,"lon":5.36769,"is_reserved":false,"is_disabled":false,"rental_uris":{"android":"levelo://app?vid=47fdd3bf-4cb5-4eed-812e-3770c79fd243","ios":"levelo://app?vid=47fdd3bf-4cb5-4eed-812e-3770c79fd243"},"vehicle_type_id":"4","last_reported":1731503798,"current_range_meters":14000,"station_id":"ce4bhrh2rcd13ifvqhug","pricing_plan_id":"cebpf4jnsgd1na2vs0mg"},{"bike_id":"4362ed96-7a7c-4eb6-bf01-8ed43f00cc9d","system_id":"levelo_inurba_marseille","lat":43.30192,"lon":5.36629,"is_reserved":false,"is_disabled":false,"rental_uris":{"android":"levelo://app?vid=4362ed96-7a7c-4eb6-bf01-8ed43f00cc9d","ios":"levelo://app?vid=4362ed96-7a7c-4eb6-bf01-8ed43f00cc9d"},"vehicle_type_id":"4","last_reported":1731503798,"current_range_meters":24800,"station_id":"ce4bgrh2rcd13ifvqc8g","pricing_plan_id":"cebpf4jnsgd1na2vs0mg"},{"bike_id":"5ee549b1-bd2f-4393-9d95-574b4d54c858","system_id":"levelo_inurba_marseille","lat":43.2899,"lon":5.36655,"is_reserved":false,"is_disabled":false,"rental_uris":{"android":"levelo://app?vid=5ee549b1-bd2f-4393-9d95-574b4d54c858","ios":"levelo://app?vid=5ee549b1-bd2f-4393-9d95-574b4d54c858"},"vehicle_type_id":"4","last_reported":1731503798,"current_range_meters":8000,"station_id":"ce4bha92rcd13ifvqeh0","pricing_plan_id":"cebpf4jnsgd1na2vs0mg"},{"bike_id":"68f5de20-238b-41c3-a6c0-54ac841a57ea","system_id":"levelo_inurba_marseille","lat":43.32112,"lon":5.36774,"is_reserved":false,"is_disabled":false,"rental_uris":{"android":"levelo://app?vid=68f5de20-238b-41c3-a6c0-54ac841a57ea","ios":"levelo://app?vid=68f5de20-238b-41c3-a6c0-54ac841a57ea"},"vehicle_type_id":"4","last_reported":1731503798,"current_range_meters":5600,"station_id":"ce4bhrh2rcd13ifvqhug","pricing_plan_id":"cebpf4jnsgd1na2vs0mg"},{"bike_id":"06380225-2059-4a1b-ab66-74996d31bff2","system_id":"levelo_inurba_marseille","lat":43.31355,"lon":5.36715,"is_reserved":false,"is_disabled":false,"rental_uris":{"android":"levelo://app?vid=06380225-2059-4a1b-ab66-74996d31bff2","ios":"levelo://app?vid=06380225-2059-4a1b-ab66-74996d31bff2"},"vehicle_type_id":"4","last_reported":1731503798,"current_range_meters":14000,"station_id":"ce4bgr92rcd13ifvqc6g","pricing_plan_id":"cebpf4jnsgd1na2vs0mg"},{"bike_id":"009685b5-854f-4672-b1dc-56173b7f3206","system_id":"levelo_inurba_marseille","lat":43.3091,"lon":5.36843,"is_reserved":false,"is_disabled":false,"rental_uris":{"android":"levelo://app?vid=009685b5-854f-4672-b1dc-56173b7f3206","ios":"levelo://app?vid=009685b5-854f-4672-b1dc-56173b7f3206"},"vehicle_type_id":"4","last_reported":1731503798,"current_range_meters":16000,"station_id":"ce4bgn92rcd13ifvqbvg","pricing_plan_id":"cebpf4jnsgd1na2vs0mg"},{"bike_id":"c3759fc4-015b-492e-9a77-459cf97e8b0d","system_id":"levelo_inurba_marseille","lat":43.31723,"lon":5.4241,"is_reserved":false,"is_disabled":false,"rental_uris":{"android":"levelo://app?vid=c3759fc4-015b-492e-9a77-459cf97e8b0d","ios":"levelo://app?vid=c3759fc4-015b-492e-9a77-459cf97e8b0d"},"vehicle_type_id":"4","last_reported":1731503798,"current_range_meters":11200,"station_id":"ce4bhp92rcd13ifvqhbg","pricing_plan_id":"cebpf4jnsgd1na2vs0mg"},{"bike_id":"1120182f-9596-45a6-ba56-35505811b5ea","system_id":"levelo_inurba_marseille","lat":43.2315,"lon":5.43724,"is_reserved":false,"is_disabled":false,"rental_uris":{"android":"levelo://app?vid=1120182f-9596-45a6-ba56-35505811b5ea","ios":"levelo://app?vid=1120182f-9596-45a6-ba56-35505811b5ea"},"vehicle_type_id":"4","last_reported":1731503798,"current_range_meters":26800,"station_id":"ce4bhmp2rcd13ifvqgog","pricing_plan_id":"cebpf4jnsgd1na2vs0mg"},{"bike_id":"bd905f31-cfc9-44e9-aea9-10bc82628865","system_id":"levelo_inurba_marseille","lat":43.25723,"lon":5.41106,"is_reserved":false,"is_disabled":false,"rental_uris":{"android":"levelo://app?vid=bd905f31-cfc9-44e9-aea9-10bc82628865","ios":"levelo://app?vid=bd905f31-cfc9-44e9-aea9-10bc82628865"},"vehicle_type_id":"4","last_reported":1731503798,"current_range_meters":38800,"station_id":"ce4bhkp2rcd13ifvqgd0","pricing_plan_id":"cebpf4jnsgd1na2vs0mg"},{"bike_id":"d666e54d-f7fe-46ed-855e-477264682dc7","system_id":"levelo_inurba_marseille","lat":43.28708,"lon":5.39988,"is_reserved":false,"is_disabled":false,"rental_uris":{"android":"levelo://app?vid=d666e54d-f7fe-46ed-855e-477264682dc7","ios":"levelo://app?vid=d666e54d-f7fe-46ed-855e-477264682dc7"},"vehicle_type_id":"4","last_reported":1731503798,"current_range_meters":30400,"station_id":"ce4bho92rcd13ifvqh3g","pricing_plan_id":"cebpf4jnsgd1na2vs0mg"},{"bike_id":"5b41e762-1614-46f6-92e6-bba5e7d3cb79","system_id":"levelo_inurba_marseille","lat":43.28464,"lon":5.35885,"is_reserved":false,"is_disabled":false,"rental_uris":{"android":"levelo://app?vid=5b41e762-1614-46f6-92e6-bba5e7d3cb79","ios":"levelo://app?vid=5b41e762-1614-46f6-92e6-bba5e7d3cb79"},"vehicle_type_id":"4","last_reported":1731503798,"current_range_meters":13600,"station_id":"ce4bhah2rcd13ifvqei0","pricing_plan_id":"cebpf4jnsgd1na2vs0mg"},{"bike_id":"f30ff5cf-3d38-4f86-bb4f-c254e8a50795","system_id":"levelo_inurba_marseille","lat":43.29602,"lon":5.37737,"is_reserved":false,"is_disabled":false,"rental_uris":{"android":"levelo://app?vid=f30ff5cf-3d38-4f86-bb4f-c254e8a50795","ios":"levelo://app?vid=f30ff5cf-3d38-4f86-bb4f-c254e8a50795"},"vehicle_type_id":"4","last_reported":1731503798,"current_range_meters":11600,"station_id":"ce4bgnh2rcd13ifvqc0g","pricing_plan_id":"cebpf4jnsgd1na2vs0mg"},{"bike_id":"70e78c93-084e-4ab7-a814-465f1ec8a7f0","system_id":"levelo_inurba_marseille","lat":43.23152,"lon":5.43696,"is_reserved":false,"is_disabled":false,"rental_uris":{"android":"levelo://app?vid=70e78c93-084e-4ab7-a814-465f1ec8a7f0","ios":"levelo://app?vid=70e78c93-084e-4ab7-a814-465f1ec8a7f0"},"vehicle_type_id":"4","last_reported":1731503798,"current_range_meters":28800,"station_id":"ce4bhmp2rcd13ifvqgog","pricing_plan_id":"cebpf4jnsgd1na2vs0mg"},{"bike_id":"cbb0d77d-e7a0-4f81-9899-f50e44b179ef","system_id":"levelo_inurba_marseille","lat":43.28037,"lon":5.36949,"is_reserved":false,"is_disabled":false,"rental_uris":{"android":"levelo://app?vid=cbb0d77d-e7a0-4f81-9899-f50e44b179ef","ios":"levelo://app?vid=cbb0d77d-e7a0-4f81-9899-f50e44b179ef"},"vehicle_type_id":"4","last_reported":1731503798,"current_range_meters":38000,"station_id":"ce4bha12rcd13ifvqef0","pricing_plan_id":"cebpf4jnsgd1na2vs0mg"},{"bike_id":"f2ff6cb7-9c75-4268-983c-1e09bc9ab498","system_id":"levelo_inurba_marseille","lat":43.337444,"lon":5.374475,"is_reserved":false,"is_disabled":false,"rental_uris":{"android":"levelo://app?vid=f2ff6cb7-9c75-4268-983c-1e09bc9ab498","ios":"levelo://app?vid=f2ff6cb7-9c75-4268-983c-1e09bc9ab498"},"vehicle_type_id":"4","last_reported":1731503798,"current_range_meters":37600,"station_id":"","pricing_plan_id":"cebpf4jnsgd1na2vs0mg"},{"bike_id":"8af442b4-f4ea-468d-8e63-f9b8f50587c7","system_id":"levelo_inurba_marseille","lat":43.29422,"lon":5.38629,"is_reserved":false,"is_disabled":false,"rental_uris":{"android":"levelo://app?vid=8af442b4-f4ea-468d-8e63-f9b8f50587c7","ios":"levelo://app?vid=8af442b4-f4ea-468d-8e63-f9b8f50587c7"},"vehicle_type_id":"4","last_reported":1731503798,"current_range_meters":35200,"station_id":"ce4bh2h2rcd13ifvqdh0","pricing_plan_id":"cebpf4jnsgd1na2vs0mg"},{"bike_id":"13347583-be48-4544-b712-ad691916a4f4","system_id":"levelo_inurba_marseille","lat":43.29077,"lon":5.37163,"is_reserved":false,"is_disabled":false,"rental_uris":{"android":"levelo://app?vid=13347583-be48-4544-b712-ad691916a4f4","ios":"levelo://app?vid=13347583-be48-4544-b712-ad691916a4f4"},"vehicle_type_id":"4","last_reported":1731503798,"current_range_meters":33200,"station_id":"ce4bh5p2rcd13ifvqe4g","pricing_plan_id":"cebpf4jnsgd1na2vs0mg"},{"bike_id":"b4908373-becf-493a-a792-92233039c7d3","system_id":"levelo_inurba_marseille","lat":43.28669,"lon":5.38683,"is_reserved":false,"is_disabled":false,"rental_uris":{"android":"levelo://app?vid=b4908373-becf-493a-a792-92233039c7d3","ios":"levelo://app?vid=b4908373-becf-493a-a792-92233039c7d3"},"vehicle_type_id":"4","last_reported":1731503798,"current_range_meters":19200,"station_id":"ce4bh492rcd13ifvqdug","pricing_plan_id":"cebpf4jnsgd1na2vs0mg"},{"bike_id":"7c9b8995-ac96-4708-b4eb-b4b17631b9d8","system_id":"levelo_inurba_marseille","lat":43.337444,"lon":5.374475,"is_reserved":false,"is_disabled":false,"rental_uris":{"android":"levelo://app?vid=7c9b8995-ac96-4708-b4eb-b4b17631b9d8","ios":"levelo://app?vid=7c9b8995-ac96-4708-b4eb-b4b17631b9d8"},"vehicle_type_id":"4","last_reported":1731503798,"current_range_meters":37600,"station_id":"","pricing_plan_id":"cebpf4jnsgd1na2vs0mg"},{"bike_id":"58e12413-d879-4dff-a084-333be006c499","system_id":"levelo_inurba_marseille","lat":43.29551,"lon":5.42279,"is_reserved":false,"is_disabled":false,"rental_uris":{"android":"levelo://app?vid=58e12413-d879-4dff-a084-333be006c499","ios":"levelo://app?vid=58e12413-d879-4dff-a084-333be006c499"},"vehicle_type_id":"4","last_reported":1731503798,"current_range_meters":30000,"station_id":"ce4bhph2rcd13ifvqhdg","pricing_plan_id":"cebpf4jnsgd1na2vs0mg"},{"bike_id":"0f2aaf59-34f1-485d-aa8f-d38b183afce7","system_id":"levelo_inurba_marseille","lat":43.30886,"lon":5.39657,"is_reserved":false,"is_disabled":false,"rental_uris":{"android":"levelo://app?vid=0f2aaf59-34f1-485d-aa8f-d38b183afce7","ios":"levelo://app?vid=0f2aaf59-34f1-485d-aa8f-d38b183afce7"},"vehicle_type_id":"4","last_reported":1731503798,"current_range_meters":17200,"station_id":"ce4bh012rcd13ifvqcv0","pricing_plan_id":"cebpf4jnsgd1na2vs0mg"},{"bike_id":"f1404cde-873d-46d8-9ee8-418dc2fe2a60","system_id":"levelo_inurba_marseille","lat":43.31278,"lon":5.4016,"is_reserved":false,"is_disabled":false,"rental_uris":{"android":"levelo://app?vid=f1404cde-873d-46d8-9ee8-418dc2fe2a60","ios":"levelo://app?vid=f1404cde-873d-46d8-9ee8-418dc2fe2a60"},"vehicle_type_id":"4","last_reported":1731503798,"current_range_meters":16400,"station_id":"ce4bh092rcd13ifvqd30","pricing_plan_id":"cebpf4jnsgd1na2vs0mg"},{"bike_id":"57c784ba-c09f-40ba-9a36-91783f4174bd","system_id":"levelo_inurba_marseille","lat":43.28359,"lon":5.38104,"is_reserved":false,"is_disabled":false,"rental_uris":{"android":"levelo://app?vid=57c784ba-c09f-40ba-9a36-91783f4174bd","ios":"levelo://app?vid=57c784ba-c09f-40ba-9a36-91783f4174bd"},"vehicle_type_id":"4","last_reported":1731503798,"current_range_meters":5600,"station_id":"ce4bh412rcd13ifvqdr0","pricing_plan_id":"cebpf4jnsgd1na2vs0mg"},{"bike_id":"d228d7ea-b8cf-40e2-b961-04de5d4b7beb","system_id":"levelo_inurba_marseille","lat":43.3091,"lon":5.36858,"is_reserved":false,"is_disabled":false,"rental_uris":{"android":"levelo://app?vid=d228d7ea-b8cf-40e2-b961-04de5d4b7beb","ios":"levelo://app?vid=d228d7ea-b8cf-40e2-b961-04de5d4b7beb"},"vehicle_type_id":"4","last_reported":1731503798,"current_range_meters":30400,"station_id":"ce4bgn92rcd13ifvqbvg","pricing_plan_id":"cebpf4jnsgd1na2vs0mg"},{"bike_id":"3b64b994-1238-40ab-a63e-7bc2f25c5df9","system_id":"levelo_inurba_marseille","lat":43.23184,"lon":5.39988,"is_reserved":false,"is_disabled":false,"rental_uris":{"android":"levelo://app?vid=3b64b994-1238-40ab-a63e-7bc2f25c5df9","ios":"levelo://app?vid=3b64b994-1238-40ab-a63e-7bc2f25c5df9"},"vehicle_type_id":"4","last_reported":1731503798,"current_range_meters":36800,"station_id":"ce4bhn12rcd13ifvqgqg","pricing_plan_id":"cebpf4jnsgd1na2vs0mg"},{"bike_id":"6a74bd13-2f0d-4293-a500-24db67983d5b","system_id":"levelo_inurba_marseille","lat":43.23067,"lon":5.35493,"is_reserved":false,"is_disabled":false,"rental_uris":{"android":"levelo://app?vid=6a74bd13-2f0d-4293-a500-24db67983d5b","ios":"levelo://app?vid=6a74bd13-2f0d-4293-a500-24db67983d5b"},"vehicle_type_id":"4","last_reported":1731503798,"current_range_meters":36800,"station_id":"cpo3342slgdg3j2ifvpg","pricing_plan_id":"cebpf4jnsgd1na2vs0mg"},{"bike_id":"62b0f0a6-ae12-4b10-bfe0-2b5f4e12ee76","system_id":"levelo_inurba_marseille","lat":43.2705,"lon":5.4026,"is_reserved":false,"is_disabled":false,"rental_uris":{"android":"levelo://app?vid=62b0f0a6-ae12-4b10-bfe0-2b5f4e12ee76","ios":"levelo://app?vid=62b0f0a6-ae12-4b10-bfe0-2b5f4e12ee76"},"vehicle_type_id":"4","last_reported":1731503798,"current_range_meters":36000,"station_id":"ce4bhk92rcd13ifvqgc0","pricing_plan_id":"cebpf4jnsgd1na2vs0mg"},{"bike_id":"e7f0f219-ab1b-4a74-85cd-bde8fa1eb5e9","system_id":"levelo_inurba_marseille","lat":43.29041,"lon":5.35899,"is_reserved":false,"is_disabled":false,"rental_uris":{"android":"levelo://app?vid=e7f0f219-ab1b-4a74-85cd-bde8fa1eb5e9","ios":"levelo://app?vid=e7f0f219-ab1b-4a74-85cd-bde8fa1eb5e9"},"vehicle_type_id":"4","last_reported":1731503798,"current_range_meters":12000,"station_id":"ce4bha92rcd13ifvqeg0","pricing_plan_id":"cebpf4jnsgd1na2vs0mg"},{"bike_id":"ddf51a43-0fff-4948-ad10-6f7a6747dc95","system_id":"levelo_inurba_marseille","lat":43.26934,"lon":5.40258,"is_reserved":false,"is_disabled":false,"rental_uris":{"android":"levelo://app?vid=ddf51a43-0fff-4948-ad10-6f7a6747dc95","ios":"levelo://app?vid=ddf51a43-0fff-4948-ad10-6f7a6747dc95"},"vehicle_type_id":"4","last_reported":1731503798,"current_range_meters":35200,"station_id":"cjm6bp8fraef2m0cb0m0","pricing_plan_id":"cebpf4jnsgd1na2vs0mg"},{"bike_id":"39967935-7429-4f46-820b-8ae94d7a880a","system_id":"levelo_inurba_marseille","lat":43.29282,"lon":5.36845,"is_reserved":false,"is_disabled":false,"rental_uris":{"android":"levelo://app?vid=39967935-7429-4f46-820b-8ae94d7a880a","ios":"levelo://app?vid=39967935-7429-4f46-820b-8ae94d7a880a"},"vehicle_type_id":"4","last_reported":1731503798,"current_range_meters":30400,"station_id":"ce4bhbp2rcd13ifvqesg","pricing_plan_id":"cebpf4jnsgd1na2vs0mg"},{"bike_id":"2f36df47-0531-4f2c-a511-ea2dc06d29cf","system_id":"levelo_inurba_marseille","lat":43.22927,"lon":5.35374,"is_reserved":false,"is_disabled":false,"rental_uris":{"android":"levelo://app?vid=2f36df47-0531-4f2c-a511-ea2dc06d29cf","ios":"levelo://app?vid=2f36df47-0531-4f2c-a511-ea2dc06d29cf"},"vehicle_type_id":"4","last_reported":1731503798,"current_range_meters":12400,"station_id":"cpo3532slgdg3j2ikp40","pricing_plan_id":"cebpf4jnsgd1na2vs0mg"},{"bike_id":"71737ebd-943e-4b6e-b30e-d60a09cc57ca","system_id":"levelo_inurba_marseille","lat":43.30912,"lon":5.36854,"is_reserved":false,"is_disabled":false,"rental_uris":{"android":"levelo://app?vid=71737ebd-943e-4b6e-b30e-d60a09cc57ca","ios":"levelo://app?vid=71737ebd-943e-4b6e-b30e-d60a09cc57ca"},"vehicle_type_id":"4","last_reported":1731503798,"current_range_meters":9600,"station_id":"ce4bgn92rcd13ifvqbvg","pricing_plan_id":"cebpf4jnsgd1na2vs0mg"},{"bike_id":"c6accb90-92f2-4fb9-9868-586b584c3bd7","system_id":"levelo_inurba_marseille","lat":43.25115,"lon":5.40317,"is_reserved":false,"is_disabled":false,"rental_uris":{"android":"levelo://app?vid=c6accb90-92f2-4fb9-9868-586b584c3bd7","ios":"levelo://app?vid=c6accb90-92f2-4fb9-9868-586b584c3bd7"},"vehicle_type_id":"4","last_reported":1731503798,"current_range_meters":38800,"station_id":"ce4bhlh2rcd13ifvqgig","pricing_plan_id":"cebpf4jnsgd1na2vs0mg"},{"bike_id":"fa6d4646-2b86-47cf-b60a-f0dece95b876","system_id":"levelo_inurba_marseille","lat":43.27424,"lon":5.39415,"is_reserved":false,"is_disabled":false,"rental_uris":{"android":"levelo://app?vid=fa6d4646-2b86-47cf-b60a-f0dece95b876","ios":"levelo://app?vid=fa6d4646-2b86-47cf-b60a-f0dece95b876"},"vehicle_type_id":"4","last_reported":1731503798,"current_range_meters":38400,"station_id":"ce4bhdp2rcd13ifvqf20","pricing_plan_id":"cebpf4jnsgd1na2vs0mg"},{"bike_id":"9d21ff4a-d516-4d71-a226-ead22ace12fd","system_id":"levelo_inurba_marseille","lat":43.259343,"lon":5.40909,"is_reserved":false,"is_disabled":false,"rental_uris":{"android":"levelo://app?vid=9d21ff4a-d516-4d71-a226-ead22ace12fd","ios":"levelo://app?vid=9d21ff4a-d516-4d71-a226-ead22ace12fd"},"vehicle_type_id":"4","last_reported":1731503798,"current_range_meters":18000,"station_id":"ce4bhm92rcd13ifvqglg","pricing_plan_id":"cebpf4jnsgd1na2vs0mg"},{"bike_id":"6b66f377-b416-45a7-b4a7-0978c770250e","system_id":"levelo_inurba_marseille","lat":43.29046,"lon":5.39971,"is_reserved":false,"is_disabled":false,"rental_uris":{"android":"levelo://app?vid=6b66f377-b416-45a7-b4a7-0978c770250e","ios":"levelo://app?vid=6b66f377-b416-45a7-b4a7-0978c770250e"},"vehicle_type_id":"4","last_reported":1731503798,"current_range_meters":39200,"station_id":"ce4bh392rcd13ifvqdm0","pricing_plan_id":"cebpf4jnsgd1na2vs0mg"},{"bike_id":"a34e6d25-0c96-4adf-8371-96fc9ddaa7b8","system_id":"levelo_inurba_marseille","lat":43.30209,"lon":5.39461,"is_reserved":false,"is_disabled":false,"rental_uris":{"android":"levelo://app?vid=a34e6d25-0c96-4adf-8371-96fc9ddaa7b8","ios":"levelo://app?vid=a34e6d25-0c96-4adf-8371-96fc9ddaa7b8"},"vehicle_type_id":"4","last_reported":1731503798,"current_range_meters":20800,"station_id":"","pricing_plan_id":"cebpf4jnsgd1na2vs0mg"},{"bike_id":"0daab32f-1159-4b25-a863-376a8419942d","system_id":"levelo_inurba_marseille","lat":43.28352,"lon":5.38105,"is_reserved":false,"is_disabled":false,"rental_uris":{"android":"levelo://app?vid=0daab32f-1159-4b25-a863-376a8419942d","ios":"levelo://app?vid=0daab32f-1159-4b25-a863-376a8419942d"},"vehicle_type_id":"4","last_reported":1731503798,"current_range_meters":2800,"station_id":"ce4bh412rcd13ifvqdr0","pricing_plan_id":"cebpf4jnsgd1na2vs0mg"},{"bike_id":"ecb7c274-90d0-4e95-92a1-62c481d46dcf","system_id":"levelo_inurba_marseille","lat":43.30528,"lon":5.36543,"is_reserved":false,"is_disabled":false,"rental_uris":{"android":"levelo://app?vid=ecb7c274-90d0-4e95-92a1-62c481d46dcf","ios":"levelo://app?vid=ecb7c274-90d0-4e95-92a1-62c481d46dcf"},"vehicle_type_id":"4","last_reported":1731503798,"current_range_meters":20800,"station_id":"ce4bgs12rcd13ifvqcag","pricing_plan_id":"cebpf4jnsgd1na2vs0mg"},{"bike_id":"febc18f3-1767-41e4-9fe2-ebe9a5eb3405","system_id":"levelo_inurba_marseille","lat":43.284607,"lon":5.358807,"is_reserved":false,"is_disabled":false,"rental_uris":{"android":"levelo://app?vid=febc18f3-1767-41e4-9fe2-ebe9a5eb3405","ios":"levelo://app?vid=febc18f3-1767-41e4-9fe2-ebe9a5eb3405"},"vehicle_type_id":"4","last_reported":1731503798,"current_range_meters":4000,"station_id":"ce4bh392rcd13ifvqdm0","pricing_plan_id":"cebpf4jnsgd1na2vs0mg"},{"bike_id":"46258171-f1e9-4355-831a-478c3294ed01","system_id":"levelo_inurba_marseille","lat":43.29892,"lon":5.436722,"is_reserved":false,"is_disabled":false,"rental_uris":{"android":"levelo://app?vid=46258171-f1e9-4355-831a-478c3294ed01","ios":"levelo://app?vid=46258171-f1e9-4355-831a-478c3294ed01"},"vehicle_type_id":"4","last_reported":1731503798,"current_range_meters":38800,"station_id":"","pricing_plan_id":"cebpf4jnsgd1na2vs0mg"},{"bike_id":"147cffe6-499f-4dd1-bb3a-8fd5bd23ee9e","system_id":"levelo_inurba_marseille","lat":43.27326,"lon":5.3908,"is_reserved":false,"is_disabled":false,"rental_uris":{"android":"levelo://app?vid=147cffe6-499f-4dd1-bb3a-8fd5bd23ee9e","ios":"levelo://app?vid=147cffe6-499f-4dd1-bb3a-8fd5bd23ee9e"},"vehicle_type_id":"4","last_reported":1731503798,"current_range_meters":32000,"station_id":"ce4bhgp2rcd13ifvqfe0","pricing_plan_id":"cebpf4jnsgd1na2vs0mg"},{"bike_id":"e93932a3-045d-44cc-b677-237aef54a207","system_id":"levelo_inurba_marseille","lat":43.30279,"lon":5.3771,"is_reserved":false,"is_disabled":false,"rental_uris":{"android":"levelo://app?vid=e93932a3-045d-44cc-b677-237aef54a207","ios":"levelo://app?vid=e93932a3-045d-44cc-b677-237aef54a207"},"vehicle_type_id":"4","last_reported":1731503798,"current_range_meters":37600,"station_id":"ce4bguh2rcd13ifvqcj0","pricing_plan_id":"cebpf4jnsgd1na2vs0mg"},{"bike_id":"941bd51c-4e20-4947-9a19-df5ad571b251","system_id":"levelo_inurba_marseille","lat":43.30327,"lon":5.40435,"is_reserved":false,"is_disabled":false,"rental_uris":{"android":"levelo://app?vid=941bd51c-4e20-4947-9a19-df5ad571b251","ios":"levelo://app?vid=941bd51c-4e20-4947-9a19-df5ad571b251"},"vehicle_type_id":"4","last_reported":1731503798,"current_range_meters":30800,"station_id":"ce4bh012rcd13ifvqd10","pricing_plan_id":"cebpf4jnsgd1na2vs0mg"},{"bike_id":"459a5777-57d4-4613-900e-258d8697c41c","system_id":"levelo_inurba_marseille","lat":43.2847,"lon":5.35882,"is_reserved":false,"is_disabled":false,"rental_uris":{"android":"levelo://app?vid=459a5777-57d4-4613-900e-258d8697c41c","ios":"levelo://app?vid=459a5777-57d4-4613-900e-258d8697c41c"},"vehicle_type_id":"4","last_reported":1731503798,"current_range_meters":32400,"station_id":"ce4bhah2rcd13ifvqei0","pricing_plan_id":"cebpf4jnsgd1na2vs0mg"},{"bike_id":"a72eefa6-c556-4e58-944d-cc38931f8799","system_id":"levelo_inurba_marseille","lat":43.31351,"lon":5.36704,"is_reserved":false,"is_disabled":false,"rental_uris":{"android":"levelo://app?vid=a72eefa6-c556-4e58-944d-cc38931f8799","ios":"levelo://app?vid=a72eefa6-c556-4e58-944d-cc38931f8799"},"vehicle_type_id":"4","last_reported":1731503798,"current_range_meters":20800,"station_id":"ce4bgr92rcd13ifvqc6g","pricing_plan_id":"cebpf4jnsgd1na2vs0mg"},{"bike_id":"09a0f265-01a7-441e-97e3-fedd4281864f","system_id":"levelo_inurba_marseille","lat":43.29934,"lon":5.36537,"is_reserved":false,"is_disabled":false,"rental_uris":{"android":"levelo://app?vid=09a0f265-01a7-441e-97e3-fedd4281864f","ios":"levelo://app?vid=09a0f265-01a7-441e-97e3-fedd4281864f"},"vehicle_type_id":"4","last_reported":1731503798,"current_range_meters":25600,"station_id":"ce4bgm92rcd13ifvqbr0","pricing_plan_id":"cebpf4jnsgd1na2vs0mg"},{"bike_id":"3caaa35c-9bac-476a-9b7f-638f7d034916","system_id":"levelo_inurba_marseille","lat":43.29922,"lon":5.37418,"is_reserved":false,"is_disabled":false,"rental_uris":{"android":"levelo://app?vid=3caaa35c-9bac-476a-9b7f-638f7d034916","ios":"levelo://app?vid=3caaa35c-9bac-476a-9b7f-638f7d034916"},"vehicle_type_id":"4","last_reported":1731503798,"current_range_meters":6400,"station_id":"","pricing_plan_id":"cebpf4jnsgd1na2vs0mg"},{"bike_id":"876d09ce-2269-4e21-a6c5-815dc7639960","system_id":"levelo_inurba_marseille","lat":43.30547,"lon":5.36528,"is_reserved":false,"is_disabled":false,"rental_uris":{"android":"levelo://app?vid=876d09ce-2269-4e21-a6c5-815dc7639960","ios":"levelo://app?vid=876d09ce-2269-4e21-a6c5-815dc7639960"},"vehicle_type_id":"4","last_reported":1731503798,"current_range_meters":38800,"station_id":"ce4bgs12rcd13ifvqcag","pricing_plan_id":"cebpf4jnsgd1na2vs0mg"},{"bike_id":"49b6b3b4-267f-47a8-8108-96d94442b0f9","system_id":"levelo_inurba_marseille","lat":43.28438,"lon":5.39194,"is_reserved":false,"is_disabled":false,"rental_uris":{"android":"levelo://app?vid=49b6b3b4-267f-47a8-8108-96d94442b0f9","ios":"levelo://app?vid=49b6b3b4-267f-47a8-8108-96d94442b0f9"},"vehicle_type_id":"4","last_reported":1731503798,"current_range_meters":27200,"station_id":"ce4bhoh2rcd13ifvqh5g","pricing_plan_id":"cebpf4jnsgd1na2vs0mg"},{"bike_id":"cd3964b1-33e8-42ec-9fbd-f1eb7c9fe073","system_id":"levelo_inurba_marseille","lat":43.29844,"lon":5.36269,"is_reserved":false,"is_disabled":false,"rental_uris":{"android":"levelo://app?vid=cd3964b1-33e8-42ec-9fbd-f1eb7c9fe073","ios":"levelo://app?vid=cd3964b1-33e8-42ec-9fbd-f1eb7c9fe073"},"vehicle_type_id":"4","last_reported":1731503798,"current_range_meters":38400,"station_id":"ce4bgpp2rcd13ifvqc3g","pricing_plan_id":"cebpf4jnsgd1na2vs0mg"},{"bike_id":"eb92a2c1-6254-47e6-bb9a-0d4e4e59c331","system_id":"levelo_inurba_marseille","lat":43.2917,"lon":5.37145,"is_reserved":false,"is_disabled":false,"rental_uris":{"android":"levelo://app?vid=eb92a2c1-6254-47e6-bb9a-0d4e4e59c331","ios":"levelo://app?vid=eb92a2c1-6254-47e6-bb9a-0d4e4e59c331"},"vehicle_type_id":"4","last_reported":1731503798,"current_range_meters":24400,"station_id":"ce4bha92rcd13ifvqeh0","pricing_plan_id":"cebpf4jnsgd1na2vs0mg"},{"bike_id":"2792eb33-4eb3-44c2-980c-522c2c8588b3","system_id":"levelo_inurba_marseille","lat":43.23148,"lon":5.43724,"is_reserved":false,"is_disabled":false,"rental_uris":{"android":"levelo://app?vid=2792eb33-4eb3-44c2-980c-522c2c8588b3","ios":"levelo://app?vid=2792eb33-4eb3-44c2-980c-522c2c8588b3"},"vehicle_type_id":"4","last_reported":1731503798,"current_range_meters":13600,"station_id":"ce4bhmp2rcd13ifvqgog","pricing_plan_id":"cebpf4jnsgd1na2vs0mg"},{"bike_id":"c5fb8d78-194a-4adb-8999-14199ad223bd","system_id":"levelo_inurba_marseille","lat":43.29237,"lon":5.36055,"is_reserved":false,"is_disabled":false,"rental_uris":{"android":"levelo://app?vid=c5fb8d78-194a-4adb-8999-14199ad223bd","ios":"levelo://app?vid=c5fb8d78-194a-4adb-8999-14199ad223bd"},"vehicle_type_id":"4","last_reported":1731503798,"current_range_meters":23200,"station_id":"ce4bhbh2rcd13ifvqeqg","pricing_plan_id":"cebpf4jnsgd1na2vs0mg"},{"bike_id":"ef64163f-5bc1-4988-9c95-855e4b6b89df","system_id":"levelo_inurba_marseille","lat":43.29583,"lon":5.37504,"is_reserved":false,"is_disabled":false,"rental_uris":{"android":"levelo://app?vid=ef64163f-5bc1-4988-9c95-855e4b6b89df","ios":"levelo://app?vid=ef64163f-5bc1-4988-9c95-855e4b6b89df"},"vehicle_type_id":"4","last_reported":1731503798,"current_range_meters":29600,"station_id":"ce4bgh92rcd13ifvqb50","pricing_plan_id":"cebpf4jnsgd1na2vs0mg"},{"bike_id":"0d9e2e7c-3ea7-4597-9cd0-3b3279e54150","system_id":"levelo_inurba_marseille","lat":43.23185,"lon":5.39981,"is_reserved":false,"is_disabled":false,"rental_uris":{"android":"levelo://app?vid=0d9e2e7c-3ea7-4597-9cd0-3b3279e54150","ios":"levelo://app?vid=0d9e2e7c-3ea7-4597-9cd0-3b3279e54150"},"vehicle_type_id":"4","last_reported":1731503798,"current_range_meters":33200,"station_id":"ce4bhn12rcd13ifvqgqg","pricing_plan_id":"cebpf4jnsgd1na2vs0mg"},{"bike_id":"aa199c9a-6bce-468e-87e6-87a79f6ad67c","system_id":"levelo_inurba_marseille","lat":43.28368,"lon":5.3866,"is_reserved":false,"is_disabled":false,"rental_uris":{"android":"levelo://app?vid=aa199c9a-6bce-468e-87e6-87a79f6ad67c","ios":"levelo://app?vid=aa199c9a-6bce-468e-87e6-87a79f6ad67c"},"vehicle_type_id":"4","last_reported":1731503798,"current_range_meters":39200,"station_id":"ce4bh492rcd13ifvqdvg","pricing_plan_id":"cebpf4jnsgd1na2vs0mg"},{"bike_id":"2c3259f6-ceef-45be-96b5-228e6aa038d6","system_id":"levelo_inurba_marseille","lat":43.27808,"lon":5.40726,"is_reserved":false,"is_disabled":false,"rental_uris":{"android":"levelo://app?vid=2c3259f6-ceef-45be-96b5-228e6aa038d6","ios":"levelo://app?vid=2c3259f6-ceef-45be-96b5-228e6aa038d6"},"vehicle_type_id":"4","last_reported":1731503798,"current_range_meters":34000,"station_id":"ce4bhnh2rcd13ifvqgtg","pricing_plan_id":"cebpf4jnsgd1na2vs0mg"},{"bike_id":"888d78ec-114f-4c17-9c14-c82bca33a261","system_id":"levelo_inurba_marseille","lat":43.30605,"lon":5.37225,"is_reserved":false,"is_disabled":false,"rental_uris":{"android":"levelo://app?vid=888d78ec-114f-4c17-9c14-c82bca33a261","ios":"levelo://app?vid=888d78ec-114f-4c17-9c14-c82bca33a261"},"vehicle_type_id":"4","last_reported":1731503798,"current_range_meters":39200,"station_id":"ce4bgqh2rcd13ifvqc4g","pricing_plan_id":"cebpf4jnsgd1na2vs0mg"},{"bike_id":"5b27cca6-e3e0-4887-9768-3e5941927366","system_id":"levelo_inurba_marseille","lat":43.25086,"lon":5.39518,"is_reserved":false,"is_disabled":false,"rental_uris":{"android":"levelo://app?vid=5b27cca6-e3e0-4887-9768-3e5941927366","ios":"levelo://app?vid=5b27cca6-e3e0-4887-9768-3e5941927366"},"vehicle_type_id":"4","last_reported":1731503798,"current_range_meters":33600,"station_id":"ce4bhm12rcd13ifvqgkg","pricing_plan_id":"cebpf4jnsgd1na2vs0mg"},{"bike_id":"5427ec44-65b5-4156-9be1-ec87130aec0f","system_id":"levelo_inurba_marseille","lat":43.33749,"lon":5.37445,"is_reserved":false,"is_disabled":false,"rental_uris":{"android":"levelo://app?vid=5427ec44-65b5-4156-9be1-ec87130aec0f","ios":"levelo://app?vid=5427ec44-65b5-4156-9be1-ec87130aec0f"},"vehicle_type_id":"4","last_reported":1731503798,"current_range_meters":24800,"station_id":"","pricing_plan_id":"cebpf4jnsgd1na2vs0mg"},{"bike_id":"082e9e38-ed1e-4cc1-a3df-a88469374fe0","system_id":"levelo_inurba_marseille","lat":43.31227,"lon":5.36862,"is_reserved":false,"is_disabled":false,"rental_uris":{"android":"levelo://app?vid=082e9e38-ed1e-4cc1-a3df-a88469374fe0","ios":"levelo://app?vid=082e9e38-ed1e-4cc1-a3df-a88469374fe0"},"vehicle_type_id":"4","last_reported":1731503798,"current_range_meters":24000,"station_id":"ce4bgl92rcd13ifvqbq0","pricing_plan_id":"cebpf4jnsgd1na2vs0mg"},{"bike_id":"876741b3-360a-4ea8-a072-e61ecc49f8fa","system_id":"levelo_inurba_marseille","lat":43.29201,"lon":5.35802,"is_reserved":false,"is_disabled":false,"rental_uris":{"android":"levelo://app?vid=876741b3-360a-4ea8-a072-e61ecc49f8fa","ios":"levelo://app?vid=876741b3-360a-4ea8-a072-e61ecc49f8fa"},"vehicle_type_id":"4","last_reported":1731503798,"current_range_meters":10800,"station_id":"ce4bhb12rcd13ifvqel0","pricing_plan_id":"cebpf4jnsgd1na2vs0mg"},{"bike_id":"accd60a1-2561-4a94-826a-488907ed91c9","system_id":"levelo_inurba_marseille","lat":43.29984,"lon":5.38493,"is_reserved":false,"is_disabled":false,"rental_uris":{"android":"levelo://app?vid=accd60a1-2561-4a94-826a-488907ed91c9","ios":"levelo://app?vid=accd60a1-2561-4a94-826a-488907ed91c9"},"vehicle_type_id":"4","last_reported":1731503798,"current_range_meters":36800,"station_id":"ce4bgj92rcd13ifvqbd0","pricing_plan_id":"cebpf4jnsgd1na2vs0mg"},{"bike_id":"cac398fa-addf-4814-87b3-849529d09945","system_id":"levelo_inurba_marseille","lat":43.31277,"lon":5.40172,"is_reserved":false,"is_disabled":false,"rental_uris":{"android":"levelo://app?vid=cac398fa-addf-4814-87b3-849529d09945","ios":"levelo://app?vid=cac398fa-addf-4814-87b3-849529d09945"},"vehicle_type_id":"4","last_reported":1731503798,"current_range_meters":33600,"station_id":"ce4bh092rcd13ifvqd30","pricing_plan_id":"cebpf4jnsgd1na2vs0mg"},{"bike_id":"2c1d060f-bbab-4c3b-9cd9-fd01fc22708e","system_id":"levelo_inurba_marseille","lat":43.294383,"lon":5.39742,"is_reserved":false,"is_disabled":false,"rental_uris":{"android":"levelo://app?vid=2c1d060f-bbab-4c3b-9cd9-fd01fc22708e","ios":"levelo://app?vid=2c1d060f-bbab-4c3b-9cd9-fd01fc22708e"},"vehicle_type_id":"4","last_reported":1731503798,"current_range_meters":30800,"station_id":"ce4bh3h2rcd13ifvqdo0","pricing_plan_id":"cebpf4jnsgd1na2vs0mg"},{"bike_id":"824aa58f-57cc-49d3-b625-099c257bc04e","system_id":"levelo_inurba_marseille","lat":43.24181,"lon":5.39725,"is_reserved":false,"is_disabled":false,"rental_uris":{"android":"levelo://app?vid=824aa58f-57cc-49d3-b625-099c257bc04e","ios":"levelo://app?vid=824aa58f-57cc-49d3-b625-099c257bc04e"},"vehicle_type_id":"4","last_reported":1731503798,"current_range_meters":38800,"station_id":"ce4bhn12rcd13ifvqgpg","pricing_plan_id":"cebpf4jnsgd1na2vs0mg"},{"bike_id":"8d94310c-ac7c-41cf-b6b5-93089085bd95","system_id":"levelo_inurba_marseille","lat":43.30193,"lon":5.36596,"is_reserved":false,"is_disabled":false,"rental_uris":{"android":"levelo://app?vid=8d94310c-ac7c-41cf-b6b5-93089085bd95","ios":"levelo://app?vid=8d94310c-ac7c-41cf-b6b5-93089085bd95"},"vehicle_type_id":"4","last_reported":1731503798,"current_range_meters":23200,"station_id":"ce4bgrh2rcd13ifvqc8g","pricing_plan_id":"cebpf4jnsgd1na2vs0mg"},{"bike_id":"4e234532-5550-4cbc-b9e4-50d8fc493926","system_id":"levelo_inurba_marseille","lat":43.31235,"lon":5.36871,"is_reserved":false,"is_disabled":false,"rental_uris":{"android":"levelo://app?vid=4e234532-5550-4cbc-b9e4-50d8fc493926","ios":"levelo://app?vid=4e234532-5550-4cbc-b9e4-50d8fc493926"},"vehicle_type_id":"4","last_reported":1731503798,"current_range_meters":23200,"station_id":"ce4bgl92rcd13ifvqbq0","pricing_plan_id":"cebpf4jnsgd1na2vs0mg"},{"bike_id":"a8e7bc15-df4b-4c8a-8171-d8d51586c834","system_id":"levelo_inurba_marseille","lat":43.337444,"lon":5.374475,"is_reserved":false,"is_disabled":false,"rental_uris":{"android":"levelo://app?vid=a8e7bc15-df4b-4c8a-8171-d8d51586c834","ios":"levelo://app?vid=a8e7bc15-df4b-4c8a-8171-d8d51586c834"},"vehicle_type_id":"4","last_reported":1731503798,"current_range_meters":32000,"station_id":"","pricing_plan_id":"cebpf4jnsgd1na2vs0mg"},{"bike_id":"10971788-679d-4eec-a053-491b840b6939","system_id":"levelo_inurba_marseille","lat":43.30529,"lon":5.36571,"is_reserved":false,"is_disabled":false,"rental_uris":{"android":"levelo://app?vid=10971788-679d-4eec-a053-491b840b6939","ios":"levelo://app?vid=10971788-679d-4eec-a053-491b840b6939"},"vehicle_type_id":"4","last_reported":1731503798,"current_range_meters":27200,"station_id":"","pricing_plan_id":"cebpf4jnsgd1na2vs0mg"},{"bike_id":"15fcc91a-3807-4f6c-9623-302142a45e30","system_id":"levelo_inurba_marseille","lat":43.231537,"lon":5.353837,"is_reserved":false,"is_disabled":false,"rental_uris":{"android":"levelo://app?vid=15fcc91a-3807-4f6c-9623-302142a45e30","ios":"levelo://app?vid=15fcc91a-3807-4f6c-9623-302142a45e30"},"vehicle_type_id":"4","last_reported":1731503798,"current_range_meters":23200,"station_id":"cpo3342slgdg3j2ifvpg","pricing_plan_id":"cebpf4jnsgd1na2vs0mg"},{"bike_id":"32bff4c9-9e24-4055-bdf4-09829843cde3","system_id":"levelo_inurba_marseille","lat":43.28421,"lon":5.34996,"is_reserved":false,"is_disabled":false,"rental_uris":{"android":"levelo://app?vid=32bff4c9-9e24-4055-bdf4-09829843cde3","ios":"levelo://app?vid=32bff4c9-9e24-4055-bdf4-09829843cde3"},"vehicle_type_id":"4","last_reported":1731503798,"current_range_meters":39200,"station_id":"ce4bhbh2rcd13ifvqepg","pricing_plan_id":"cebpf4jnsgd1na2vs0mg"},{"bike_id":"d7498404-bf14-4cdc-974e-1226de637aac","system_id":"levelo_inurba_marseille","lat":43.28362,"lon":5.38644,"is_reserved":false,"is_disabled":false,"rental_uris":{"android":"levelo://app?vid=d7498404-bf14-4cdc-974e-1226de637aac","ios":"levelo://app?vid=d7498404-bf14-4cdc-974e-1226de637aac"},"vehicle_type_id":"4","last_reported":1731503798,"current_range_meters":7200,"station_id":"ce4bh492rcd13ifvqdvg","pricing_plan_id":"cebpf4jnsgd1na2vs0mg"},{"bike_id":"b9b9ca99-abc1-4d74-b34d-2422c7c3d10f","system_id":"levelo_inurba_marseille","lat":43.3236,"lon":5.36752,"is_reserved":false,"is_disabled":false,"rental_uris":{"android":"levelo://app?vid=b9b9ca99-abc1-4d74-b34d-2422c7c3d10f","ios":"levelo://app?vid=b9b9ca99-abc1-4d74-b34d-2422c7c3d10f"},"vehicle_type_id":"4","last_reported":1731503798,"current_range_meters":32000,"station_id":"ce4bhsh2rcd13ifvqi2g","pricing_plan_id":"cebpf4jnsgd1na2vs0mg"},{"bike_id":"9b042e2d-acd6-4f43-901e-320c4c74b16a","system_id":"levelo_inurba_marseille","lat":43.28988,"lon":5.37835,"is_reserved":false,"is_disabled":false,"rental_uris":{"android":"levelo://app?vid=9b042e2d-acd6-4f43-901e-320c4c74b16a","ios":"levelo://app?vid=9b042e2d-acd6-4f43-901e-320c4c74b16a"},"vehicle_type_id":"4","last_reported":1731503798,"current_range_meters":38400,"station_id":"ce4bh9p2rcd13ifvqed0","pricing_plan_id":"cebpf4jnsgd1na2vs0mg"},{"bike_id":"aeb9eafa-ef5b-4950-84eb-6ee40c9e3b2a","system_id":"levelo_inurba_marseille","lat":43.32539,"lon":5.41438,"is_reserved":false,"is_disabled":false,"rental_uris":{"android":"levelo://app?vid=aeb9eafa-ef5b-4950-84eb-6ee40c9e3b2a","ios":"levelo://app?vid=aeb9eafa-ef5b-4950-84eb-6ee40c9e3b2a"},"vehicle_type_id":"4","last_reported":1731503798,"current_range_meters":33600,"station_id":"ce4bhq12rcd13ifvqhhg","pricing_plan_id":"cebpf4jnsgd1na2vs0mg"},{"bike_id":"1b6aedf9-aa79-4e62-b4b6-0d4304a12219","system_id":"levelo_inurba_marseille","lat":43.31235,"lon":5.36854,"is_reserved":false,"is_disabled":false,"rental_uris":{"android":"levelo://app?vid=1b6aedf9-aa79-4e62-b4b6-0d4304a12219","ios":"levelo://app?vid=1b6aedf9-aa79-4e62-b4b6-0d4304a12219"},"vehicle_type_id":"4","last_reported":1731503798,"current_range_meters":16800,"station_id":"ce4bgl92rcd13ifvqbq0","pricing_plan_id":"cebpf4jnsgd1na2vs0mg"},{"bike_id":"27227666-be7d-4f0d-b6ab-7d496af6f3eb","system_id":"levelo_inurba_marseille","lat":43.33763,"lon":5.37431,"is_reserved":false,"is_disabled":false,"rental_uris":{"android":"levelo://app?vid=27227666-be7d-4f0d-b6ab-7d496af6f3eb","ios":"levelo://app?vid=27227666-be7d-4f0d-b6ab-7d496af6f3eb"},"vehicle_type_id":"4","last_reported":1731503798,"current_range_meters":38000,"station_id":"","pricing_plan_id":"cebpf4jnsgd1na2vs0mg"},{"bike_id":"4bdd709d-c09e-4132-8786-1e991b24a37e","system_id":"levelo_inurba_marseille","lat":43.232,"lon":5.35548,"is_reserved":false,"is_disabled":false,"rental_uris":{"android":"levelo://app?vid=4bdd709d-c09e-4132-8786-1e991b24a37e","ios":"levelo://app?vid=4bdd709d-c09e-4132-8786-1e991b24a37e"},"vehicle_type_id":"4","last_reported":1731503798,"current_range_meters":37600,"station_id":"ce4bhu92rcd13ifvqi70","pricing_plan_id":"cebpf4jnsgd1na2vs0mg"},{"bike_id":"21809597-df4b-4bb7-ac3d-1537178d4615","system_id":"levelo_inurba_marseille","lat":43.25866,"lon":5.39898,"is_reserved":false,"is_disabled":false,"rental_uris":{"android":"levelo://app?vid=21809597-df4b-4bb7-ac3d-1537178d4615","ios":"levelo://app?vid=21809597-df4b-4bb7-ac3d-1537178d4615"},"vehicle_type_id":"4","last_reported":1731503798,"current_range_meters":27600,"station_id":"ce4bhl92rcd13ifvqghg","pricing_plan_id":"cebpf4jnsgd1na2vs0mg"},{"bike_id":"857cf3b8-a499-4f71-a4af-951511031286","system_id":"levelo_inurba_marseille","lat":43.32477,"lon":5.36565,"is_reserved":false,"is_disabled":false,"rental_uris":{"android":"levelo://app?vid=857cf3b8-a499-4f71-a4af-951511031286","ios":"levelo://app?vid=857cf3b8-a499-4f71-a4af-951511031286"},"vehicle_type_id":"4","last_reported":1731503798,"current_range_meters":37600,"station_id":"ce4bhs12rcd13ifvqhvg","pricing_plan_id":"cebpf4jnsgd1na2vs0mg"},{"bike_id":"46c0c645-e47f-4b6a-86b9-41094fca7c0c","system_id":"levelo_inurba_marseille","lat":43.26289,"lon":5.37594,"is_reserved":false,"is_disabled":false,"rental_uris":{"android":"levelo://app?vid=46c0c645-e47f-4b6a-86b9-41094fca7c0c","ios":"levelo://app?vid=46c0c645-e47f-4b6a-86b9-41094fca7c0c"},"vehicle_type_id":"4","last_reported":1731503798,"current_range_meters":27600,"station_id":"ce4bhbh2rcd13ifvqeo0","pricing_plan_id":"cebpf4jnsgd1na2vs0mg"},{"bike_id":"c60be017-4b8b-490b-8511-6acf2e29d6aa","system_id":"levelo_inurba_marseille","lat":43.29848,"lon":5.36265,"is_reserved":false,"is_disabled":false,"rental_uris":{"android":"levelo://app?vid=c60be017-4b8b-490b-8511-6acf2e29d6aa","ios":"levelo://app?vid=c60be017-4b8b-490b-8511-6acf2e29d6aa"},"vehicle_type_id":"4","last_reported":1731503798,"current_range_meters":18000,"station_id":"ce4bgpp2rcd13ifvqc3g","pricing_plan_id":"cebpf4jnsgd1na2vs0mg"},{"bike_id":"c1cda8fe-78d6-4cd8-b46b-7f9b58f7bc91","system_id":"levelo_inurba_marseille","lat":43.2978,"lon":5.37105,"is_reserved":false,"is_disabled":false,"rental_uris":{"android":"levelo://app?vid=c1cda8fe-78d6-4cd8-b46b-7f9b58f7bc91","ios":"levelo://app?vid=c1cda8fe-78d6-4cd8-b46b-7f9b58f7bc91"},"vehicle_type_id":"4","last_reported":1731503798,"current_range_meters":28000,"station_id":"ce4bgop2rcd13ifvqc1g","pricing_plan_id":"cebpf4jnsgd1na2vs0mg"},{"bike_id":"861e33f9-f2b4-4ac7-bde1-eb7005b55844","system_id":"levelo_inurba_marseille","lat":43.2928,"lon":5.36848,"is_reserved":false,"is_disabled":false,"rental_uris":{"android":"levelo://app?vid=861e33f9-f2b4-4ac7-bde1-eb7005b55844","ios":"levelo://app?vid=861e33f9-f2b4-4ac7-bde1-eb7005b55844"},"vehicle_type_id":"4","last_reported":1731503798,"current_range_meters":6000,"station_id":"ce4bhbp2rcd13ifvqesg","pricing_plan_id":"cebpf4jnsgd1na2vs0mg"},{"bike_id":"b1d3920d-106d-4e11-a08e-d19af4a34f54","system_id":"levelo_inurba_marseille","lat":43.33755,"lon":5.37441,"is_reserved":false,"is_disabled":false,"rental_uris":{"android":"levelo://app?vid=b1d3920d-106d-4e11-a08e-d19af4a34f54","ios":"levelo://app?vid=b1d3920d-106d-4e11-a08e-d19af4a34f54"},"vehicle_type_id":"4","last_reported":1731503798,"current_range_meters":37600,"station_id":"","pricing_plan_id":"cebpf4jnsgd1na2vs0mg"},{"bike_id":"c1161dbf-738d-4128-a7c6-adfd8cc1c38e","system_id":"levelo_inurba_marseille","lat":43.29574,"lon":5.3997,"is_reserved":false,"is_disabled":false,"rental_uris":{"android":"levelo://app?vid=c1161dbf-738d-4128-a7c6-adfd8cc1c38e","ios":"levelo://app?vid=c1161dbf-738d-4128-a7c6-adfd8cc1c38e"},"vehicle_type_id":"4","last_reported":1731503798,"current_range_meters":27200,"station_id":"ce4bh312rcd13ifvqdj0","pricing_plan_id":"cebpf4jnsgd1na2vs0mg"},{"bike_id":"c1f61688-1ef0-403b-968f-458349fc79d4","system_id":"levelo_inurba_marseille","lat":43.27204,"lon":5.39186,"is_reserved":false,"is_disabled":false,"rental_uris":{"android":"levelo://app?vid=c1f61688-1ef0-403b-968f-458349fc79d4","ios":"levelo://app?vid=c1f61688-1ef0-403b-968f-458349fc79d4"},"vehicle_type_id":"4","last_reported":1731503798,"current_range_meters":26800,"station_id":"ce4bhhp2rcd13ifvqfm0","pricing_plan_id":"cebpf4jnsgd1na2vs0mg"},{"bike_id":"2a20158d-1e78-4497-9e3d-fa58740d4a2c","system_id":"levelo_inurba_marseille","lat":43.29796,"lon":5.38141,"is_reserved":false,"is_disabled":false,"rental_uris":{"android":"levelo://app?vid=2a20158d-1e78-4497-9e3d-fa58740d4a2c","ios":"levelo://app?vid=2a20158d-1e78-4497-9e3d-fa58740d4a2c"},"vehicle_type_id":"4","last_reported":1731503798,"current_range_meters":39200,"station_id":"ce4bgip2rcd13ifvqbb0","pricing_plan_id":"cebpf4jnsgd1na2vs0mg"},{"bike_id":"b55fe61e-e2db-4c8d-940b-61d116c0d2b9","system_id":"levelo_inurba_marseille","lat":43.29212,"lon":5.35804,"is_reserved":false,"is_disabled":false,"rental_uris":{"android":"levelo://app?vid=b55fe61e-e2db-4c8d-940b-61d116c0d2b9","ios":"levelo://app?vid=b55fe61e-e2db-4c8d-940b-61d116c0d2b9"},"vehicle_type_id":"4","last_reported":1731503798,"current_range_meters":30000,"station_id":"ce4bhb12rcd13ifvqel0","pricing_plan_id":"cebpf4jnsgd1na2vs0mg"},{"bike_id":"f4d8166f-f4e3-4a2d-b9dd-76615fe6c7b8","system_id":"levelo_inurba_marseille","lat":43.2992,"lon":5.37453,"is_reserved":false,"is_disabled":false,"rental_uris":{"android":"levelo://app?vid=f4d8166f-f4e3-4a2d-b9dd-76615fe6c7b8","ios":"levelo://app?vid=f4d8166f-f4e3-4a2d-b9dd-76615fe6c7b8"},"vehicle_type_id":"4","last_reported":1731503798,"current_range_meters":33600,"station_id":"ce4bgjh2rcd13ifvqbg0","pricing_plan_id":"cebpf4jnsgd1na2vs0mg"},{"bike_id":"dbac7fc9-acb6-43d0-815b-598221562fe0","system_id":"levelo_inurba_marseille","lat":43.29269,"lon":5.4012,"is_reserved":false,"is_disabled":false,"rental_uris":{"android":"levelo://app?vid=dbac7fc9-acb6-43d0-815b-598221562fe0","ios":"levelo://app?vid=dbac7fc9-acb6-43d0-815b-598221562fe0"},"vehicle_type_id":"4","last_reported":1731503798,"current_range_meters":23200,"station_id":"ce4bh312rcd13ifvqdk0","pricing_plan_id":"cebpf4jnsgd1na2vs0mg"},{"bike_id":"c1822cce-7909-497d-963a-e11e6724a9ed","system_id":"levelo_inurba_marseille","lat":43.30888,"lon":5.39653,"is_reserved":false,"is_disabled":false,"rental_uris":{"android":"levelo://app?vid=c1822cce-7909-497d-963a-e11e6724a9ed","ios":"levelo://app?vid=c1822cce-7909-497d-963a-e11e6724a9ed"},"vehicle_type_id":"4","last_reported":1731503798,"current_range_meters":36800,"station_id":"ce4bh012rcd13ifvqcv0","pricing_plan_id":"cebpf4jnsgd1na2vs0mg"},{"bike_id":"4b8189b4-71cd-41a5-8062-db44c3a1534a","system_id":"levelo_inurba_marseille","lat":43.246538,"lon":5.388914,"is_reserved":false,"is_disabled":false,"rental_uris":{"android":"levelo://app?vid=4b8189b4-71cd-41a5-8062-db44c3a1534a","ios":"levelo://app?vid=4b8189b4-71cd-41a5-8062-db44c3a1534a"},"vehicle_type_id":"4","last_reported":1731503798,"current_range_meters":34800,"station_id":"ce4bhg12rcd13ifvqf60","pricing_plan_id":"cebpf4jnsgd1na2vs0mg"},{"bike_id":"5d1f4316-b04e-4ffe-949b-df676969a7da","system_id":"levelo_inurba_marseille","lat":43.27371,"lon":5.36249,"is_reserved":false,"is_disabled":false,"rental_uris":{"android":"levelo://app?vid=5d1f4316-b04e-4ffe-949b-df676969a7da","ios":"levelo://app?vid=5d1f4316-b04e-4ffe-949b-df676969a7da"},"vehicle_type_id":"4","last_reported":1731503798,"current_range_meters":38800,"station_id":"ce4bhbh2rcd13ifvqeo0","pricing_plan_id":"cebpf4jnsgd1na2vs0mg"},{"bike_id":"aac6894c-cd35-49e9-9f01-f9e8d8484c59","system_id":"levelo_inurba_marseille","lat":43.22929,"lon":5.35375,"is_reserved":false,"is_disabled":false,"rental_uris":{"android":"levelo://app?vid=aac6894c-cd35-49e9-9f01-f9e8d8484c59","ios":"levelo://app?vid=aac6894c-cd35-49e9-9f01-f9e8d8484c59"},"vehicle_type_id":"4","last_reported":1731503798,"current_range_meters":37600,"station_id":"cpo3532slgdg3j2ikp40","pricing_plan_id":"cebpf4jnsgd1na2vs0mg"},{"bike_id":"bd242193-93e0-478c-97b8-f1cd0d1bbc8c","system_id":"levelo_inurba_marseille","lat":43.33023,"lon":5.39043,"is_reserved":false,"is_disabled":false,"rental_uris":{"android":"levelo://app?vid=bd242193-93e0-478c-97b8-f1cd0d1bbc8c","ios":"levelo://app?vid=bd242193-93e0-478c-97b8-f1cd0d1bbc8c"},"vehicle_type_id":"4","last_reported":1731503798,"current_range_meters":19600,"station_id":"ce4bhr92rcd13ifvqhrg","pricing_plan_id":"cebpf4jnsgd1na2vs0mg"},{"bike_id":"f0489de5-a90b-461a-8c64-9d51c8eb827c","system_id":"levelo_inurba_marseille","lat":43.27999,"lon":5.41664,"is_reserved":false,"is_disabled":false,"rental_uris":{"android":"levelo://app?vid=f0489de5-a90b-461a-8c64-9d51c8eb827c","ios":"levelo://app?vid=f0489de5-a90b-461a-8c64-9d51c8eb827c"},"vehicle_type_id":"4","last_reported":1731503798,"current_range_meters":16800,"station_id":"ce4bho12rcd13ifvqh1g","pricing_plan_id":"cebpf4jnsgd1na2vs0mg"},{"bike_id":"2dd3a59e-c577-4e49-8917-15920aeb2fff","system_id":"levelo_inurba_marseille","lat":43.30307,"lon":5.369,"is_reserved":false,"is_disabled":false,"rental_uris":{"android":"levelo://app?vid=2dd3a59e-c577-4e49-8917-15920aeb2fff","ios":"levelo://app?vid=2dd3a59e-c577-4e49-8917-15920aeb2fff"},"vehicle_type_id":"4","last_reported":1731503798,"current_range_meters":38800,"station_id":"ce4bgqh2rcd13ifvqc5g","pricing_plan_id":"cebpf4jnsgd1na2vs0mg"},