{"last_updated":1691427944,"ttl":30,"version":"2.2","data":{"bikes":[{"bike_id":"745bd8f1-5cf2-47e9-89f5-711d69d9e857","system_id":"levelo_inurba_marseille","lat":43.309039,"lon":5.371797,"is_reserved":false,"is_disabled":false,"rental_uris":{"android":"levelo://app?vid=745bd8f1-5cf2-47e9-89f5-711d69d9e857","ios":"levelo://app?vid=745bd8f1-5cf2-47e9-89f5-711d69d9e857"},"vehicle_type_id":"4","last_reported":1691427945,"current_range_meters":14000,"station_id":"ce4bguh2rcd13ifvqckg","pricing_plan_id":"free"},{"bike_id":"b802712b-ba33-4186-b029-d111026972a7","system_id":"levelo_inurba_marseille","lat":43.305706,"lon":5.365654,"is_reserved":false,"is_disabled":false,"rental_uris":{"android":"levelo://app?vid=b802712b-ba33-4186-b029-d111026972a7","ios":"levelo://app?vid=b802712b-ba33-4186-b029-d111026972a7"},"vehicle_type_id":"4","last_reported":1691427945,"current_range_meters":2400,"station_id":"ce4bgs12rcd13ifvqcag","pricing_plan_id":"free"},{"bike_id":"f20ea888-8740-440b-bfeb-8eb2a7c1f652","system_id":"levelo_inurba_marseille","lat":43.305989,"lon":5.37225,"is_reserved":false,"is_disabled":false,"rental_uris":{"android":"levelo://app?vid=f20ea888-8740-440b-bfeb-8eb2a7c1f652","ios":"levelo://app?vid=f20ea888-8740-440b-bfeb-8eb2a7c1f652"},"vehicle_type_id":"4","last_reported":1691427945,"current_range_meters":31200,"station_id":"ce4bgqh2rcd13ifvqc4g","pricing_plan_id":"free"},{"bike_id":"6fc7c2b3-e2bc-448d-b581-63438be6ed1b","system_id":"levelo_inurba_marseille","lat":43.30789,"lon":5.37653,"is_reserved":false,"is_disabled":false,"rental_uris":{"android":"levelo://app?vid=6fc7c2b3-e2bc-448d-b581-63438be6ed1b","ios":"levelo://app?vid=6fc7c2b3-e2bc-448d-b581-63438be6ed1b"},"vehicle_type_id":"4","last_reported":1691427945,"current_range_meters":18800,"station_id":"ce4bgv92rcd13ifvqcq0","pricing_plan_id":"free"},{"bike_id":"a8e08286-e9a6-473b-8fd8-a1975fedb575","system_id":"levelo_inurba_marseille","lat":43.317075,"lon":5.377367,"is_reserved":false,"is_disabled":false,"rental_uris":{"android":"levelo://app?vid=a8e08286-e9a6-473b-8fd8-a1975fedb575","ios":"levelo://app?vid=a8e08286-e9a6-473b-8fd8-a1975fedb575"},"vehicle_type_id":"4","last_reported":1691427945,"current_range_meters":23600,"station_id":"ce4bgth2rcd13ifvqch0","pricing_plan_id":"free"},{"bike_id":"36ea8287-97db-4eee-ac55-8ca09c6322ac","system_id":"levelo_inurba_marseille","lat":43.317075,"lon":5.377367,"is_reserved":false,"is_disabled":false,"rental_uris":{"android":"levelo://app?vid=36ea8287-97db-4eee-ac55-8ca09c6322ac","ios":"levelo://app?vid=36ea8287-97db-4eee-ac55-8ca09c6322ac"},"vehicle_type_id":"4","last_reported":1691427945,"current_range_meters":31200,"station_id":"ce4bgth2rcd13ifvqch0","pricing_plan_id":"free"},{"bike_id":"f49eae80-64b6-414d-9fd3-d297bfb2c072","system_id":"levelo_inurba_marseille","lat":43.31537,"lon":5.38028,"is_reserved":false,"is_disabled":false,"rental_uris":{"android":"levelo://app?vid=f49eae80-64b6-414d-9fd3-d297bfb2c072","ios":"levelo://app?vid=f49eae80-64b6-414d-9fd3-d297bfb2c072"},"vehicle_type_id":"4","last_reported":1691427945,"current_range_meters":11200,"station_id":"ce4bhsp2rcd13ifvqi50","pricing_plan_id":"free"},{"bike_id":"3c3407a2-8530-4672-8476-7b061b883cf7","system_id":"levelo_inurba_marseille","lat":43.31527,"lon":5.38036,"is_reserved":false,"is_disabled":false,"rental_uris":{"android":"levelo://app?vid=3c3407a2-8530-4672-8476-7b061b883cf7","ios":"levelo://app?vid=3c3407a2-8530-4672-8476-7b061b883cf7"},"vehicle_type_id":"4","last_reported":1691427945,"current_range_meters":8000,"station_id":"ce4bhsp2rcd13ifvqi50","pricing_plan_id":"free"},{"bike_id":"6dbd2724-1ded-40dd-acf8-ecf762d5bf89","system_id":"levelo_inurba_marseille","lat":43.31531,"lon":5.38041,"is_reserved":false,"is_disabled":false,"rental_uris":{"android":"levelo://app?vid=6dbd2724-1ded-40dd-acf8-ecf762d5bf89","ios":"levelo://app?vid=6dbd2724-1ded-40dd-acf8-ecf762d5bf89"},"vehicle_type_id":"4","last_reported":1691427945,"current_range_meters":16800,"station_id":"ce4bhsp2rcd13ifvqi50","pricing_plan_id":"free"},{"bike_id":"6099e017-02a5-43a9-b4e0-3688526986e2","system_id":"levelo_inurba_marseille","lat":43.31997,"lon":5.38141,"is_reserved":false,"is_disabled":false,"rental_uris":{"android":"levelo://app?vid=6099e017-02a5-43a9-b4e0-3688526986e2","ios":"levelo://app?vid=6099e017-02a5-43a9-b4e0-3688526986e2"},"vehicle_type_id":"4","last_reported":1691427945,"current_range_meters":5600,"station_id":"ce4bhr12rcd13ifvqhpg","pricing_plan_id":"free"},{"bike_id":"95ee1f85-e00d-4974-821e-741d9cb25589","system_id":"levelo_inurba_marseille","lat":43.31995,"lon":5.38165,"is_reserved":false,"is_disabled":false,"rental_uris":{"android":"levelo://app?vid=95ee1f85-e00d-4974-821e-741d9cb25589","ios":"levelo://app?vid=95ee1f85-e00d-4974-821e-741d9cb25589"},"vehicle_type_id":"4","last_reported":1691427945,"current_range_meters":400,"station_id":"ce4bhr12rcd13ifvqhpg","pricing_plan_id":"free"},{"bike_id":"1a02d90e-0ffc-4dd4-81f0-ac44a25294e6","system_id":"levelo_inurba_marseille","lat":43.299222,"lon":5.365554,"is_reserved":false,"is_disabled":false,"rental_uris":{"android":"levelo://app?vid=1a02d90e-0ffc-4dd4-81f0-ac44a25294e6","ios":"levelo://app?vid=1a02d90e-0ffc-4dd4-81f0-ac44a25294e6"},"vehicle_type_id":"4","last_reported":1691427945,"current_range_meters":7200,"station_id":"ce4bgm92rcd13ifvqbr0","pricing_plan_id":"free"},{"bike_id":"cecc2c39-0fa4-4dde-9644-c1de58ae45ef","system_id":"levelo_inurba_marseille","lat":43.298433,"lon":5.362774,"is_reserved":false,"is_disabled":false,"rental_uris":{"android":"levelo://app?vid=cecc2c39-0fa4-4dde-9644-c1de58ae45ef","ios":"levelo://app?vid=cecc2c39-0fa4-4dde-9644-c1de58ae45ef"},"vehicle_type_id":"4","last_reported":1691427945,"current_range_meters":28000,"station_id":"ce4bgpp2rcd13ifvqc3g","pricing_plan_id":"free"},{"bike_id":"30537d43-af02-4a10-b928-7b9b8cf633d2","system_id":"levelo_inurba_marseille","lat":43.305349,"lon":5.384196,"is_reserved":false,"is_disabled":false,"rental_uris":{"android":"levelo://app?vid=30537d43-af02-4a10-b928-7b9b8cf633d2","ios":"levelo://app?vid=30537d43-af02-4a10-b928-7b9b8cf633d2"},"vehicle_type_id":"4","last_reported":1691427945,"current_range_meters":26800,"station_id":"ce4bgg92rcd13ifvqb30","pricing_plan_id":"free"},{"bike_id":"980e72c6-b037-4b1c-98bb-ae5b4472e178","system_id":"levelo_inurba_marseille","lat":43.3055,"lon":5.38439,"is_reserved":false,"is_disabled":false,"rental_uris":{"android":"levelo://app?vid=980e72c6-b037-4b1c-98bb-ae5b4472e178","ios":"levelo://app?vid=980e72c6-b037-4b1c-98bb-ae5b4472e178"},"vehicle_type_id":"4","last_reported":1691427945,"current_range_meters":20400,"station_id":"","pricing_plan_id":"free"},{"bike_id":"4435c2cb-fdda-443d-9075-d0c819070752","system_id":"levelo_inurba_marseille","lat":43.298433,"lon":5.362774,"is_reserved":false,"is_disabled":false,"rental_uris":{"android":"levelo://app?vid=4435c2cb-fdda-443d-9075-d0c819070752","ios":"levelo://app?vid=4435c2cb-fdda-443d-9075-d0c819070752"},"vehicle_type_id":"4","last_reported":1691427945,"current_range_meters":18400,"station_id":"ce4bgpp2rcd13ifvqc3g","pricing_plan_id":"free"},{"bike_id":"374770fb-675f-4c63-8a35-b50e11babe88","system_id":"levelo_inurba_marseille","lat":43.299243,"lon":5.37481,"is_reserved":false,"is_disabled":false,"rental_uris":{"android":"levelo://app?vid=374770fb-675f-4c63-8a35-b50e11babe88","ios":"levelo://app?vid=374770fb-675f-4c63-8a35-b50e11babe88"},"vehicle_type_id":"4","last_reported":1691427945,"current_range_meters":10000,"station_id":"ce4bgjh2rcd13ifvqbg0","pricing_plan_id":"free"},{"bike_id":"b41faf5d-0f14-4ca2-acd5-ef4f91e73ded","system_id":"levelo_inurba_marseille","lat":43.299243,"lon":5.37481,"is_reserved":false,"is_disabled":false,"rental_uris":{"android":"levelo://app?vid=b41faf5d-0f14-4ca2-acd5-ef4f91e73ded","ios":"levelo://app?vid=b41faf5d-0f14-4ca2-acd5-ef4f91e73ded"},"vehicle_type_id":"4","last_reported":1691427945,"current_range_meters":10400,"station_id":"ce4bgjh2rcd13ifvqbg0","pricing_plan_id":"free"},{"bike_id":"b441a352-ea26-492c-9fcb-9e0505e7eaae","system_id":"levelo_inurba_marseille","lat":43.32289,"lon":5.38256,"is_reserved":false,"is_disabled":false,"rental_uris":{"android":"levelo://app?vid=b441a352-ea26-492c-9fcb-9e0505e7eaae","ios":"levelo://app?vid=b441a352-ea26-492c-9fcb-9e0505e7eaae"},"vehicle_type_id":"4","last_reported":1691427945,"current_range_meters":22400,"station_id":"ce4bhr12rcd13ifvqhqg","pricing_plan_id":"free"},{"bike_id":"15b2f289-e8da-4c30-a721-2cf15799ace1","system_id":"levelo_inurba_marseille","lat":43.322872,"lon":5.382756,"is_reserved":false,"is_disabled":false,"rental_uris":{"android":"levelo://app?vid=15b2f289-e8da-4c30-a721-2cf15799ace1","ios":"levelo://app?vid=15b2f289-e8da-4c30-a721-2cf15799ace1"},"vehicle_type_id":"4","last_reported":1691427945,"current_range_meters":14000,"station_id":"ce4bhr12rcd13ifvqhqg","pricing_plan_id":"free"},{"bike_id":"6f6eeb13-8534-45e9-90bb-5ce321a043c4","system_id":"levelo_inurba_marseille","lat":43.328371,"lon":5.366909,"is_reserved":false,"is_disabled":false,"rental_uris":{"android":"levelo://app?vid=6f6eeb13-8534-45e9-90bb-5ce321a043c4","ios":"levelo://app?vid=6f6eeb13-8534-45e9-90bb-5ce321a043c4"},"vehicle_type_id":"4","last_reported":1691427945,"current_range_meters":12000,"station_id":"ce4bhs92rcd13ifvqi0g","pricing_plan_id":"free"},{"bike_id":"bf4a0016-24b8-4a88-b88f-1624c511c71a","system_id":"levelo_inurba_marseille","lat":43.328371,"lon":5.366909,"is_reserved":false,"is_disabled":false,"rental_uris":{"android":"levelo://app?vid=bf4a0016-24b8-4a88-b88f-1624c511c71a","ios":"levelo://app?vid=bf4a0016-24b8-4a88-b88f-1624c511c71a"},"vehicle_type_id":"4","last_reported":1691427945,"current_range_meters":30000,"station_id":"ce4bhs92rcd13ifvqi0g","pricing_plan_id":"free"},{"bike_id":"b903a53c-959d-44ad-9c03-1aaac919aac3","system_id":"levelo_inurba_marseille","lat":43.328371,"lon":5.366909,"is_reserved":false,"is_disabled":false,"rental_uris":{"android":"levelo://app?vid=b903a53c-959d-44ad-9c03-1aaac919aac3","ios":"levelo://app?vid=b903a53c-959d-44ad-9c03-1aaac919aac3"},"vehicle_type_id":"4","last_reported":1691427945,"current_range_meters":0,"station_id":"ce4bhs92rcd13ifvqi0g","pricing_plan_id":"free"},{"bike_id":"662f058c-a03f-4220-9182-f974f75d5bf8","system_id":"levelo_inurba_marseille","lat":43.328371,"lon":5.366909,"is_reserved":false,"is_disabled":false,"rental_uris":{"android":"levelo://app?vid=662f058c-a03f-4220-9182-f974f75d5bf8","ios":"levelo://app?vid=662f058c-a03f-4220-9182-f974f75d5bf8"},"vehicle_type_id":"4","last_reported":1691427945,"current_range_meters":24800,"station_id":"ce4bhs92rcd13ifvqi0g","pricing_plan_id":"free"},{"bike_id":"5836a1e4-4588-49af-9855-adde616cd7f7","system_id":"levelo_inurba_marseille","lat":43.32828,"lon":5.36671,"is_reserved":false,"is_disabled":false,"rental_uris":{"android":"levelo://app?vid=5836a1e4-4588-49af-9855-adde616cd7f7","ios":"levelo://app?vid=5836a1e4-4588-49af-9855-adde616cd7f7"},"vehicle_type_id":"4","last_reported":1691427945,"current_range_meters":14000,"station_id":"ce4bhs92rcd13ifvqi0g","pricing_plan_id":"free"},{"bike_id":"5598ba69-7d08-42d1-9376-d503db4ba6c0","system_id":"levelo_inurba_marseille","lat":43.328371,"lon":5.366909,"is_reserved":false,"is_disabled":false,"rental_uris":{"android":"levelo://app?vid=5598ba69-7d08-42d1-9376-d503db4ba6c0","ios":"levelo://app?vid=5598ba69-7d08-42d1-9376-d503db4ba6c0"},"vehicle_type_id":"4","last_reported":1691427945,"current_range_meters":29200,"station_id":"ce4bhs92rcd13ifvqi0g","pricing_plan_id":"free"},{"bike_id":"1dfb0f28-fb21-43e0-9b30-d5e6195e19ba","system_id":"levelo_inurba_marseille","lat":43.3283,"lon":5.36675,"is_reserved":false,"is_disabled":false,"rental_uris":{"android":"levelo://app?vid=1dfb0f28-fb21-43e0-9b30-d5e6195e19ba","ios":"levelo://app?vid=1dfb0f28-fb21-43e0-9b30-d5e6195e19ba"},"vehicle_type_id":"4","last_reported":1691427945,"current_range_meters":28400,"station_id":"ce4bhs92rcd13ifvqi0g","pricing_plan_id":"free"},{"bike_id":"9fd7bfd1-6f30-484a-93d7-e323269d32c7","system_id":"levelo_inurba_marseille","lat":43.32831,"lon":5.36681,"is_reserved":false,"is_disabled":false,"rental_uris":{"android":"levelo://app?vid=9fd7bfd1-6f30-484a-93d7-e323269d32c7","ios":"levelo://app?vid=9fd7bfd1-6f30-484a-93d7-e323269d32c7"},"vehicle_type_id":"4","last_reported":1691427945,"current_range_meters":23600,"station_id":"ce4bhs92rcd13ifvqi0g","pricing_plan_id":"free"},{"bike_id":"dd789220-e7b5-42c1-b9dc-dc4243148021","system_id":"levelo_inurba_marseille","lat":43.297163,"lon":5.365866,"is_reserved":false,"is_disabled":false,"rental_uris":{"android":"levelo://app?vid=dd789220-e7b5-42c1-b9dc-dc4243148021","ios":"levelo://app?vid=dd789220-e7b5-42c1-b9dc-dc4243148021"},"vehicle_type_id":"4","last_reported":1691427945,"current_range_meters":31200,"station_id":"ce4bgn12rcd13ifvqbt0","pricing_plan_id":"free"},{"bike_id":"6261d363-242a-4771-b4ae-b11d00911b9b","system_id":"levelo_inurba_marseille","lat":43.296131,"lon":5.370773,"is_reserved":false,"is_disabled":false,"rental_uris":{"android":"levelo://app?vid=6261d363-242a-4771-b4ae-b11d00911b9b","ios":"levelo://app?vid=6261d363-242a-4771-b4ae-b11d00911b9b"},"vehicle_type_id":"4","last_reported":1691427945,"current_range_meters":21200,"station_id":"ce4bgnh2rcd13ifvqc0g","pricing_plan_id":"free"},{"bike_id":"8ed55f9f-b174-4398-9a97-dcc2f5f16481","system_id":"levelo_inurba_marseille","lat":43.299028,"lon":5.381509,"is_reserved":false,"is_disabled":false,"rental_uris":{"android":"levelo://app?vid=8ed55f9f-b174-4398-9a97-dcc2f5f16481","ios":"levelo://app?vid=8ed55f9f-b174-4398-9a97-dcc2f5f16481"},"vehicle_type_id":"4","last_reported":1691427945,"current_range_meters":18800,"station_id":"ce4bgj12rcd13ifvqbc0","pricing_plan_id":"free"},{"bike_id":"85705854-0202-4473-9024-ddd53421082b","system_id":"levelo_inurba_marseille","lat":43.29796,"lon":5.38107,"is_reserved":false,"is_disabled":false,"rental_uris":{"android":"levelo://app?vid=85705854-0202-4473-9024-ddd53421082b","ios":"levelo://app?vid=85705854-0202-4473-9024-ddd53421082b"},"vehicle_type_id":"4","last_reported":1691427945,"current_range_meters":17600,"station_id":"","pricing_plan_id":"free"},{"bike_id":"f46777fa-56a9-466e-a834-e843dfca2fa7","system_id":"levelo_inurba_marseille","lat":43.298037,"lon":5.381066,"is_reserved":false,"is_disabled":false,"rental_uris":{"android":"levelo://app?vid=f46777fa-56a9-466e-a834-e843dfca2fa7","ios":"levelo://app?vid=f46777fa-56a9-466e-a834-e843dfca2fa7"},"vehicle_type_id":"4","last_reported":1691427945,"current_range_meters":14800,"station_id":"ce4bgip2rcd13ifvqbb0","pricing_plan_id":"free"},{"bike_id":"a4df99ce-0488-49dd-a888-94686f562e88","system_id":"levelo_inurba_marseille","lat":43.29572,"lon":5.37509,"is_reserved":false,"is_disabled":false,"rental_uris":{"android":"levelo://app?vid=a4df99ce-0488-49dd-a888-94686f562e88","ios":"levelo://app?vid=a4df99ce-0488-49dd-a888-94686f562e88"},"vehicle_type_id":"4","last_reported":1691427945,"current_range_meters":31200,"station_id":"ce4bgh92rcd13ifvqb50","pricing_plan_id":"free"},{"bike_id":"69e2e2d0-1acf-4fab-85da-94f002ecc2a8","system_id":"levelo_inurba_marseille","lat":43.29538,"lon":5.37497,"is_reserved":false,"is_disabled":false,"rental_uris":{"android":"levelo://app?vid=69e2e2d0-1acf-4fab-85da-94f002ecc2a8","ios":"levelo://app?vid=69e2e2d0-1acf-4fab-85da-94f002ecc2a8"},"vehicle_type_id":"4","last_reported":1691427945,"current_range_meters":23600,"station_id":"","pricing_plan_id":"free"},{"bike_id":"c075b882-9087-4faa-9754-b6047ec5ba58","system_id":"levelo_inurba_marseille","lat":43.32362,"lon":5.38879,"is_reserved":false,"is_disabled":false,"rental_uris":{"android":"levelo://app?vid=c075b882-9087-4faa-9754-b6047ec5ba58","ios":"levelo://app?vid=c075b882-9087-4faa-9754-b6047ec5ba58"},"vehicle_type_id":"4","last_reported":1691427945,"current_range_meters":27600,"station_id":"ce4bhqp2rcd13ifvqhog","pricing_plan_id":"free"},{"bike_id":"1aee17c8-b1cb-4104-9d5b-c2b4641080c1","system_id":"levelo_inurba_marseille","lat":43.32365,"lon":5.38877,"is_reserved":false,"is_disabled":false,"rental_uris":{"android":"levelo://app?vid=1aee17c8-b1cb-4104-9d5b-c2b4641080c1","ios":"levelo://app?vid=1aee17c8-b1cb-4104-9d5b-c2b4641080c1"},"vehicle_type_id":"4","last_reported":1691427945,"current_range_meters":25200,"station_id":"ce4bhqp2rcd13ifvqhog","pricing_plan_id":"free"},{"bike_id":"5c764597-7da2-4dc2-af09-7f55fa8ed93c","system_id":"levelo_inurba_marseille","lat":43.32363,"lon":5.3888,"is_reserved":false,"is_disabled":false,"rental_uris":{"android":"levelo://app?vid=5c764597-7da2-4dc2-af09-7f55fa8ed93c","ios":"levelo://app?vid=5c764597-7da2-4dc2-af09-7f55fa8ed93c"},"vehicle_type_id":"4","last_reported":1691427945,"current_range_meters":1600,"station_id":"ce4bhqp2rcd13ifvqhog","pricing_plan_id":"free"},{"bike_id":"0385959f-e4a4-4b53-a83f-b81824876402","system_id":"levelo_inurba_marseille","lat":43.32366,"lon":5.38881,"is_reserved":false,"is_disabled":false,"rental_uris":{"android":"levelo://app?vid=0385959f-e4a4-4b53-a83f-b81824876402","ios":"levelo://app?vid=0385959f-e4a4-4b53-a83f-b81824876402"},"vehicle_type_id":"4","last_reported":1691427945,"current_range_meters":29600,"station_id":"ce4bhqp2rcd13ifvqhog","pricing_plan_id":"free"},{"bike_id":"2aefb029-3927-4d47-8658-23116018ae40","system_id":"levelo_inurba_marseille","lat":43.32369,"lon":5.3888,"is_reserved":false,"is_disabled":false,"rental_uris":{"android":"levelo://app?vid=2aefb029-3927-4d47-8658-23116018ae40","ios":"levelo://app?vid=2aefb029-3927-4d47-8658-23116018ae40"},"vehicle_type_id":"4","last_reported":1691427945,"current_range_meters":29600,"station_id":"ce4bhqp2rcd13ifvqhog","pricing_plan_id":"free"},{"bike_id":"b6507bfb-f7f7-4b6c-b009-2c34d3c1e104","system_id":"levelo_inurba_marseille","lat":43.32375,"lon":5.38879,"is_reserved":false,"is_disabled":false,"rental_uris":{"android":"levelo://app?vid=b6507bfb-f7f7-4b6c-b009-2c34d3c1e104","ios":"levelo://app?vid=b6507bfb-f7f7-4b6c-b009-2c34d3c1e104"},"vehicle_type_id":"4","last_reported":1691427945,"current_range_meters":30400,"station_id":"ce4bhqp2rcd13ifvqhog","pricing_plan_id":"free"},{"bike_id":"f49adda8-5d55-42a6-88f5-7c769ee88ec1","system_id":"levelo_inurba_marseille","lat":43.293071,"lon":5.371741,"is_reserved":false,"is_disabled":false,"rental_uris":{"android":"levelo://app?vid=f49adda8-5d55-42a6-88f5-7c769ee88ec1","ios":"levelo://app?vid=f49adda8-5d55-42a6-88f5-7c769ee88ec1"},"vehicle_type_id":"4","last_reported":1691427945,"current_range_meters":25600,"station_id":"ce4bgh92rcd13ifvqb40","pricing_plan_id":"free"},{"bike_id":"3626b41d-db4a-49db-b2ad-aae1307b1712","system_id":"levelo_inurba_marseille","lat":43.29304,"lon":5.37174,"is_reserved":false,"is_disabled":false,"rental_uris":{"android":"levelo://app?vid=3626b41d-db4a-49db-b2ad-aae1307b1712","ios":"levelo://app?vid=3626b41d-db4a-49db-b2ad-aae1307b1712"},"vehicle_type_id":"4","last_reported":1691427945,"current_range_meters":26400,"station_id":"ce4bgh92rcd13ifvqb40","pricing_plan_id":"free"},{"bike_id":"dbe406a0-e31d-4174-932b-0d8d584d17c2","system_id":"levelo_inurba_marseille","lat":43.292749,"lon":5.368398,"is_reserved":false,"is_disabled":false,"rental_uris":{"android":"levelo://app?vid=dbe406a0-e31d-4174-932b-0d8d584d17c2","ios":"levelo://app?vid=dbe406a0-e31d-4174-932b-0d8d584d17c2"},"vehicle_type_id":"4","last_reported":1691427945,"current_range_meters":31200,"station_id":"ce4bhbp2rcd13ifvqesg","pricing_plan_id":"free"},{"bike_id":"50e869f1-92f3-4dfe-b93a-0ddedb5440cd","system_id":"levelo_inurba_marseille","lat":43.293009,"lon":5.374584,"is_reserved":false,"is_disabled":false,"rental_uris":{"android":"levelo://app?vid=50e869f1-92f3-4dfe-b93a-0ddedb5440cd","ios":"levelo://app?vid=50e869f1-92f3-4dfe-b93a-0ddedb5440cd"},"vehicle_type_id":"4","last_reported":1691427945,"current_range_meters":29600,"station_id":"ce4bgi12rcd13ifvqb70","pricing_plan_id":"free"},{"bike_id":"126a14f7-b20a-4576-81c8-b3a731693f77","system_id":"levelo_inurba_marseille","lat":43.30317,"lon":5.39194,"is_reserved":false,"is_disabled":false,"rental_uris":{"android":"levelo://app?vid=126a14f7-b20a-4576-81c8-b3a731693f77","ios":"levelo://app?vid=126a14f7-b20a-4576-81c8-b3a731693f77"},"vehicle_type_id":"4","last_reported":1691427945,"current_range_meters":18000,"station_id":"ce4bgkh2rcd13ifvqbk0","pricing_plan_id":"free"},{"bike_id":"eaa4be00-35f9-481f-bc81-9b8c7665cb28","system_id":"levelo_inurba_marseille","lat":43.292311,"lon":5.360731,"is_reserved":false,"is_disabled":false,"rental_uris":{"android":"levelo://app?vid=eaa4be00-35f9-481f-bc81-9b8c7665cb28","ios":"levelo://app?vid=eaa4be00-35f9-481f-bc81-9b8c7665cb28"},"vehicle_type_id":"4","last_reported":1691427945,"current_range_meters":0,"station_id":"ce4bhbh2rcd13ifvqeqg","pricing_plan_id":"free"},{"bike_id":"7b3f3afe-9621-451d-a75a-cfbf4ccdb6d5","system_id":"levelo_inurba_marseille","lat":43.292311,"lon":5.360731,"is_reserved":false,"is_disabled":false,"rental_uris":{"android":"levelo://app?vid=7b3f3afe-9621-451d-a75a-cfbf4ccdb6d5","ios":"levelo://app?vid=7b3f3afe-9621-451d-a75a-cfbf4ccdb6d5"},"vehicle_type_id":"4","last_reported":1691427945,"current_range_meters":5600,"station_id":"ce4bhbh2rcd13ifvqeqg","pricing_plan_id":"free"},{"bike_id":"2cb8ba71-a220-46d2-a277-e9867e142ba8","system_id":"levelo_inurba_marseille","lat":43.2989,"lon":5.3889,"is_reserved":false,"is_disabled":false,"rental_uris":{"android":"levelo://app?vid=2cb8ba71-a220-46d2-a277-e9867e142ba8","ios":"levelo://app?vid=2cb8ba71-a220-46d2-a277-e9867e142ba8"},"vehicle_type_id":"4","last_reported":1691427945,"current_range_meters":13600,"station_id":"ce4bh392rcd13ifvqdl0","pricing_plan_id":"free"},{"bike_id":"e2fc2d3c-1302-4d5b-8f43-598bed24fa16","system_id":"levelo_inurba_marseille","lat":43.298764,"lon":5.388973,"is_reserved":false,"is_disabled":false,"rental_uris":{"android":"levelo://app?vid=e2fc2d3c-1302-4d5b-8f43-598bed24fa16","ios":"levelo://app?vid=e2fc2d3c-1302-4d5b-8f43-598bed24fa16"},"vehicle_type_id":"4","last_reported":1691427945,"current_range_meters":14400,"station_id":"ce4bh392rcd13ifvqdl0","pricing_plan_id":"free"},{"bike_id":"8dabf11c-d13d-460e-af64-01e42990cc0d","system_id":"levelo_inurba_marseille","lat":43.290631,"lon":5.359244,"is_reserved":false,"is_disabled":false,"rental_uris":{"android":"levelo://app?vid=8dabf11c-d13d-460e-af64-01e42990cc0d","ios":"levelo://app?vid=8dabf11c-d13d-460e-af64-01e42990cc0d"},"vehicle_type_id":"4","last_reported":1691427945,"current_range_meters":15600,"station_id":"ce4bha92rcd13ifvqeg0","pricing_plan_id":"free"},{"bike_id":"0cefbc9c-4c72-4898-8f73-b4c0f068d63b","system_id":"levelo_inurba_marseille","lat":43.3094,"lon":5.39645,"is_reserved":false,"is_disabled":false,"rental_uris":{"android":"levelo://app?vid=0cefbc9c-4c72-4898-8f73-b4c0f068d63b","ios":"levelo://app?vid=0cefbc9c-4c72-4898-8f73-b4c0f068d63b"},"vehicle_type_id":"4","last_reported":1691427945,"current_range_meters":0,"station_id":"ce4bgvp2rcd13ifvqcu0","pricing_plan_id":"free"},{"bike_id":"ec34b224-082f-4e84-8213-2db6aac4df1d","system_id":"levelo_inurba_marseille","lat":43.309038,"lon":5.396546,"is_reserved":false,"is_disabled":false,"rental_uris":{"android":"levelo://app?vid=ec34b224-082f-4e84-8213-2db6aac4df1d","ios":"levelo://app?vid=ec34b224-082f-4e84-8213-2db6aac4df1d"},"vehicle_type_id":"4","last_reported":1691427945,"current_range_meters":24000,"station_id":"ce4bh012rcd13ifvqcv0","pricing_plan_id":"free"},{"bike_id":"c121159f-cd73-4d08-bcff-f42dca206c5e","system_id":"levelo_inurba_marseille","lat":43.30887,"lon":5.39655,"is_reserved":false,"is_disabled":false,"rental_uris":{"android":"levelo://app?vid=c121159f-cd73-4d08-bcff-f42dca206c5e","ios":"levelo://app?vid=c121159f-cd73-4d08-bcff-f42dca206c5e"},"vehicle_type_id":"4","last_reported":1691427945,"current_range_meters":9600,"station_id":"ce4bh012rcd13ifvqcv0","pricing_plan_id":"free"},{"bike_id":"f097f987-393c-48c7-99f1-232f7eedc470","system_id":"levelo_inurba_marseille","lat":43.3088,"lon":5.39655,"is_reserved":false,"is_disabled":false,"rental_uris":{"android":"levelo://app?vid=f097f987-393c-48c7-99f1-232f7eedc470","ios":"levelo://app?vid=f097f987-393c-48c7-99f1-232f7eedc470"},"vehicle_type_id":"4","last_reported":1691427945,"current_range_meters":20000,"station_id":"ce4bh012rcd13ifvqcv0","pricing_plan_id":"free"},{"bike_id":"57ff3957-7d41-4e54-8ce0-26fdc4900ce4","system_id":"levelo_inurba_marseille","lat":43.29076,"lon":5.37163,"is_reserved":false,"is_disabled":false,"rental_uris":{"android":"levelo://app?vid=57ff3957-7d41-4e54-8ce0-26fdc4900ce4","ios":"levelo://app?vid=57ff3957-7d41-4e54-8ce0-26fdc4900ce4"},"vehicle_type_id":"4","last_reported":1691427945,"current_range_meters":0,"station_id":"ce4bh5p2rcd13ifvqe4g","pricing_plan_id":"free"},{"bike_id":"ae40872f-8ff6-4ff3-ad60-e2180dbbcc30","system_id":"levelo_inurba_marseille","lat":43.290624,"lon":5.359245,"is_reserved":false,"is_disabled":false,"rental_uris":{"android":"levelo://app?vid=ae40872f-8ff6-4ff3-ad60-e2180dbbcc30","ios":"levelo://app?vid=ae40872f-8ff6-4ff3-ad60-e2180dbbcc30"},"vehicle_type_id":"4","last_reported":1691427945,"current_range_meters":20400,"station_id":"ce4bha92rcd13ifvqeg0","pricing_plan_id":"free"},{"bike_id":"40facd0e-91ce-43eb-894e-c69cbfd28a0c","system_id":"levelo_inurba_marseille","lat":43.290631,"lon":5.359244,"is_reserved":false,"is_disabled":false,"rental_uris":{"android":"levelo://app?vid=40facd0e-91ce-43eb-894e-c69cbfd28a0c","ios":"levelo://app?vid=40facd0e-91ce-43eb-894e-c69cbfd28a0c"},"vehicle_type_id":"4","last_reported":1691427945,"current_range_meters":6000,"station_id":"ce4bha92rcd13ifvqeg0","pricing_plan_id":"free"},{"bike_id":"c958f863-9d12-4615-84eb-3b83023f5ec4","system_id":"levelo_inurba_marseille","lat":43.290631,"lon":5.359244,"is_reserved":false,"is_disabled":false,"rental_uris":{"android":"levelo://app?vid=c958f863-9d12-4615-84eb-3b83023f5ec4","ios":"levelo://app?vid=c958f863-9d12-4615-84eb-3b83023f5ec4"},"vehicle_type_id":"4","last_reported":1691427945,"current_range_meters":0,"station_id":"ce4bha92rcd13ifvqeg0","pricing_plan_id":"free"},{"bike_id":"c95809dd-da3f-4cbf-9e8c-d96e875aa3b6","system_id":"levelo_inurba_marseille","lat":43.289184,"lon":5.366408,"is_reserved":false,"is_disabled":false,"rental_uris":{"android":"levelo://app?vid=c95809dd-da3f-4cbf-9e8c-d96e875aa3b6","ios":"levelo://app?vid=c95809dd-da3f-4cbf-9e8c-d96e875aa3b6"},"vehicle_type_id":"4","last_reported":1691427945,"current_range_meters":15200,"station_id":"ce4bhap2rcd13ifvqek0","pricing_plan_id":"free"},{"bike_id":"cae32f2b-1dff-4c89-9279-2b1ed3e063eb","system_id":"levelo_inurba_marseille","lat":43.289184,"lon":5.366408,"is_reserved":false,"is_disabled":false,"rental_uris":{"android":"levelo://app?vid=cae32f2b-1dff-4c89-9279-2b1ed3e063eb","ios":"levelo://app?vid=cae32f2b-1dff-4c89-9279-2b1ed3e063eb"},"vehicle_type_id":"4","last_reported":1691427945,"current_range_meters":20800,"station_id":"ce4bhap2rcd13ifvqek0","pricing_plan_id":"free"},{"bike_id":"03905427-f175-4756-9002-b56c9ebe48c0","system_id":"levelo_inurba_marseille","lat":43.289184,"lon":5.366408,"is_reserved":false,"is_disabled":false,"rental_uris":{"android":"levelo://app?vid=03905427-f175-4756-9002-b56c9ebe48c0","ios":"levelo://app?vid=03905427-f175-4756-9002-b56c9ebe48c0"},"vehicle_type_id":"4","last_reported":1691427945,"current_range_meters":13600,"station_id":"ce4bhap2rcd13ifvqek0","pricing_plan_id":"free"},{"bike_id":"e99785b8-d135-478e-a098-379cbde181cd","system_id":"levelo_inurba_marseille","lat":43.28943,"lon":5.36402,"is_reserved":false,"is_disabled":false,"rental_uris":{"android":"levelo://app?vid=e99785b8-d135-478e-a098-379cbde181cd","ios":"levelo://app?vid=e99785b8-d135-478e-a098-379cbde181cd"},"vehicle_type_id":"4","last_reported":1691427945,"current_range_meters":11600,"station_id":"","pricing_plan_id":"free"},{"bike_id":"bfcaa565-13c1-4bf9-b0b4-8796409725a8","system_id":"levelo_inurba_marseille","lat":43.289184,"lon":5.366408,"is_reserved":false,"is_disabled":false,"rental_uris":{"android":"levelo://app?vid=bfcaa565-13c1-4bf9-b0b4-8796409725a8","ios":"levelo://app?vid=bfcaa565-13c1-4bf9-b0b4-8796409725a8"},"vehicle_type_id":"4","last_reported":1691427945,"current_range_meters":23200,"station_id":"ce4bhap2rcd13ifvqek0","pricing_plan_id":"free"},{"bike_id":"39db1771-6a11-4b34-ad7c-7599fbc796bc","system_id":"levelo_inurba_marseille","lat":43.292644,"lon":5.384257,"is_reserved":false,"is_disabled":false,"rental_uris":{"android":"levelo://app?vid=39db1771-6a11-4b34-ad7c-7599fbc796bc","ios":"levelo://app?vid=39db1771-6a11-4b34-ad7c-7599fbc796bc"},"vehicle_type_id":"4","last_reported":1691427945,"current_range_meters":16400,"station_id":"ce4bh692rcd13ifvqea0","pricing_plan_id":"free"},{"bike_id":"51eb122b-2726-4358-9783-d3a463fd8933","system_id":"levelo_inurba_marseille","lat":43.304274,"lon":5.397513,"is_reserved":false,"is_disabled":false,"rental_uris":{"android":"levelo://app?vid=51eb122b-2726-4358-9783-d3a463fd8933","ios":"levelo://app?vid=51eb122b-2726-4358-9783-d3a463fd8933"},"vehicle_type_id":"4","last_reported":1691427945,"current_range_meters":17200,"station_id":"ce4bh092rcd13ifvqd20","pricing_plan_id":"free"},{"bike_id":"00fd824e-e473-426e-8c41-4fdf45761cbc","system_id":"levelo_inurba_marseille","lat":43.292644,"lon":5.384257,"is_reserved":false,"is_disabled":false,"rental_uris":{"android":"levelo://app?vid=00fd824e-e473-426e-8c41-4fdf45761cbc","ios":"levelo://app?vid=00fd824e-e473-426e-8c41-4fdf45761cbc"},"vehicle_type_id":"4","last_reported":1691427945,"current_range_meters":28000,"station_id":"ce4bh692rcd13ifvqea0","pricing_plan_id":"free"},{"bike_id":"86955e39-16a7-4e9a-a6d3-9c211880e3b7","system_id":"levelo_inurba_marseille","lat":43.292642,"lon":5.384254,"is_reserved":false,"is_disabled":false,"rental_uris":{"android":"levelo://app?vid=86955e39-16a7-4e9a-a6d3-9c211880e3b7","ios":"levelo://app?vid=86955e39-16a7-4e9a-a6d3-9c211880e3b7"},"vehicle_type_id":"4","last_reported":1691427945,"current_range_meters":8000,"station_id":"ce4bh692rcd13ifvqea0","pricing_plan_id":"free"},{"bike_id":"464a1a94-7e89-4544-9db0-c5a813a402c0","system_id":"levelo_inurba_marseille","lat":43.292644,"lon":5.384257,"is_reserved":false,"is_disabled":false,"rental_uris":{"android":"levelo://app?vid=464a1a94-7e89-4544-9db0-c5a813a402c0","ios":"levelo://app?vid=464a1a94-7e89-4544-9db0-c5a813a402c0"},"vehicle_type_id":"4","last_reported":1691427945,"current_range_meters":12000,"station_id":"ce4bh692rcd13ifvqea0","pricing_plan_id":"free"},{"bike_id":"928e9def-da27-4ff6-a84e-0d2ce8cc61c3","system_id":"levelo_inurba_marseille","lat":43.304274,"lon":5.397513,"is_reserved":false,"is_disabled":false,"rental_uris":{"android":"levelo://app?vid=928e9def-da27-4ff6-a84e-0d2ce8cc61c3","ios":"levelo://app?vid=928e9def-da27-4ff6-a84e-0d2ce8cc61c3"},"vehicle_type_id":"4","last_reported":1691427945,"current_range_meters":15200,"station_id":"ce4bh092rcd13ifvqd20","pricing_plan_id":"free"},{"bike_id":"ddb9660f-9365-489a-8e88-6ad661355e93","system_id":"levelo_inurba_marseille","lat":43.292644,"lon":5.384257,"is_reserved":false,"is_disabled":false,"rental_uris":{"android":"levelo://app?vid=ddb9660f-9365-489a-8e88-6ad661355e93","ios":"levelo://app?vid=ddb9660f-9365-489a-8e88-6ad661355e93"},"vehicle_type_id":"4","last_reported":1691427945,"current_range_meters":19200,"station_id":"ce4bh692rcd13ifvqea0","pricing_plan_id":"free"},{"bike_id":"3c318bb6-d301-46e3-b952-3253ae19ef46","system_id":"levelo_inurba_marseille","lat":43.29262,"lon":5.38436,"is_reserved":false,"is_disabled":false,"rental_uris":{"android":"levelo://app?vid=3c318bb6-d301-46e3-b952-3253ae19ef46","ios":"levelo://app?vid=3c318bb6-d301-46e3-b952-3253ae19ef46"},"vehicle_type_id":"4","last_reported":1691427945,"current_range_meters":9600,"station_id":"ce4bh692rcd13ifvqea0","pricing_plan_id":"free"},{"bike_id":"d1aad9eb-68c6-4588-bdb3-993ecf89bccf","system_id":"levelo_inurba_marseille","lat":43.292642,"lon":5.384254,"is_reserved":false,"is_disabled":false,"rental_uris":{"android":"levelo://app?vid=d1aad9eb-68c6-4588-bdb3-993ecf89bccf","ios":"levelo://app?vid=d1aad9eb-68c6-4588-bdb3-993ecf89bccf"},"vehicle_type_id":"4","last_reported":1691427945,"current_range_meters":28000,"station_id":"ce4bh692rcd13ifvqea0","pricing_plan_id":"free"},{"bike_id":"b66ac4ce-2a5c-44f5-9f4d-10a9391d7297","system_id":"levelo_inurba_marseille","lat":43.290104,"lon":5.356111,"is_reserved":false,"is_disabled":false,"rental_uris":{"android":"levelo://app?vid=b66ac4ce-2a5c-44f5-9f4d-10a9391d7297","ios":"levelo://app?vid=b66ac4ce-2a5c-44f5-9f4d-10a9391d7297"},"vehicle_type_id":"4","last_reported":1691427945,"current_range_meters":24400,"station_id":"ce4bhb92rcd13ifvqen0","pricing_plan_id":"free"},{"bike_id":"d92191b5-3897-428d-989c-4b986c7a7e64","system_id":"levelo_inurba_marseille","lat":43.29006,"lon":5.35606,"is_reserved":false,"is_disabled":false,"rental_uris":{"android":"levelo://app?vid=d92191b5-3897-428d-989c-4b986c7a7e64","ios":"levelo://app?vid=d92191b5-3897-428d-989c-4b986c7a7e64"},"vehicle_type_id":"4","last_reported":1691427945,"current_range_meters":14000,"station_id":"ce4bhb92rcd13ifvqen0","pricing_plan_id":"free"},{"bike_id":"78a1a5bb-1590-410b-a41c-786e430d786c","system_id":"levelo_inurba_marseille","lat":43.297815,"lon":5.393548,"is_reserved":false,"is_disabled":false,"rental_uris":{"android":"levelo://app?vid=78a1a5bb-1590-410b-a41c-786e430d786c","ios":"levelo://app?vid=78a1a5bb-1590-410b-a41c-786e430d786c"},"vehicle_type_id":"4","last_reported":1691427945,"current_range_meters":0,"station_id":"chh1huq6cuj3fo74tm60","pricing_plan_id":"free"},{"bike_id":"4a5e6f2f-76ed-43ca-8dc2-41f966fbe095","system_id":"levelo_inurba_marseille","lat":43.290995,"lon":5.381361,"is_reserved":false,"is_disabled":false,"rental_uris":{"android":"levelo://app?vid=4a5e6f2f-76ed-43ca-8dc2-41f966fbe095","ios":"levelo://app?vid=4a5e6f2f-76ed-43ca-8dc2-41f966fbe095"},"vehicle_type_id":"4","last_reported":1691427945,"current_range_meters":20400,"station_id":"ce4bh512rcd13ifvqe2g","pricing_plan_id":"free"},{"bike_id":"beffb94e-8875-49e1-9767-808ff67f68ea","system_id":"levelo_inurba_marseille","lat":43.28989,"lon":5.37833,"is_reserved":false,"is_disabled":false,"rental_uris":{"android":"levelo://app?vid=beffb94e-8875-49e1-9767-808ff67f68ea","ios":"levelo://app?vid=beffb94e-8875-49e1-9767-808ff67f68ea"},"vehicle_type_id":"4","last_reported":1691427945,"current_range_meters":23200,"station_id":"ce4bh9p2rcd13ifvqed0","pricing_plan_id":"free"},{"bike_id":"5de34043-594b-4fff-b6d9-cea24ff661bd","system_id":"levelo_inurba_marseille","lat":43.289741,"lon":5.378306,"is_reserved":false,"is_disabled":false,"rental_uris":{"android":"levelo://app?vid=5de34043-594b-4fff-b6d9-cea24ff661bd","ios":"levelo://app?vid=5de34043-594b-4fff-b6d9-cea24ff661bd"},"vehicle_type_id":"4","last_reported":1691427945,"current_range_meters":26800,"station_id":"ce4bh9p2rcd13ifvqed0","pricing_plan_id":"free"},{"bike_id":"20cf87b2-343b-4762-80b5-17b2bab9929e","system_id":"levelo_inurba_marseille","lat":43.295169,"lon":5.390426,"is_reserved":false,"is_disabled":false,"rental_uris":{"android":"levelo://app?vid=20cf87b2-343b-4762-80b5-17b2bab9929e","ios":"levelo://app?vid=20cf87b2-343b-4762-80b5-17b2bab9929e"},"vehicle_type_id":"4","last_reported":1691427945,"current_range_meters":28800,"station_id":"ce4bh3p2rcd13ifvqdp0","pricing_plan_id":"free"},{"bike_id":"9141faaf-a227-4e9c-b12b-aa6ddb3fbd1a","system_id":"levelo_inurba_marseille","lat":43.28856,"lon":5.358371,"is_reserved":false,"is_disabled":false,"rental_uris":{"android":"levelo://app?vid=9141faaf-a227-4e9c-b12b-aa6ddb3fbd1a","ios":"levelo://app?vid=9141faaf-a227-4e9c-b12b-aa6ddb3fbd1a"},"vehicle_type_id":"4","last_reported":1691427945,"current_range_meters":25600,"station_id":"ce4bhb12rcd13ifvqem0","pricing_plan_id":"free"},{"bike_id":"730e8f54-b958-46cc-a19c-61abb4379369","system_id":"levelo_inurba_marseille","lat":43.28856,"lon":5.358371,"is_reserved":false,"is_disabled":false,"rental_uris":{"android":"levelo://app?vid=730e8f54-b958-46cc-a19c-61abb4379369","ios":"levelo://app?vid=730e8f54-b958-46cc-a19c-61abb4379369"},"vehicle_type_id":"4","last_reported":1691427945,"current_range_meters":29200,"station_id":"ce4bhb12rcd13ifvqem0","pricing_plan_id":"free"},{"bike_id":"78331bc9-bd8b-476c-87dd-a4e57c40dc57","system_id":"levelo_inurba_marseille","lat":43.28856,"lon":5.358371,"is_reserved":false,"is_disabled":false,"rental_uris":{"android":"levelo://app?vid=78331bc9-bd8b-476c-87dd-a4e57c40dc57","ios":"levelo://app?vid=78331bc9-bd8b-476c-87dd-a4e57c40dc57"},"vehicle_type_id":"4","last_reported":1691427945,"current_range_meters":0,"station_id":"ce4bhb12rcd13ifvqem0","pricing_plan_id":"free"},{"bike_id":"9de65630-4b25-41ef-b3d8-0d3659335697","system_id":"levelo_inurba_marseille","lat":43.28856,"lon":5.358371,"is_reserved":false,"is_disabled":false,"rental_uris":{"android":"levelo://app?vid=9de65630-4b25-41ef-b3d8-0d3659335697","ios":"levelo://app?vid=9de65630-4b25-41ef-b3d8-0d3659335697"},"vehicle_type_id":"4","last_reported":1691427945,"current_range_meters":16000,"station_id":"ce4bhb12rcd13ifvqem0","pricing_plan_id":"free"},{"bike_id":"c0bd893f-e221-4abc-b62c-b8b3c9a64f83","system_id":"levelo_inurba_marseille","lat":43.28856,"lon":5.358371,"is_reserved":false,"is_disabled":false,"rental_uris":{"android":"levelo://app?vid=c0bd893f-e221-4abc-b62c-b8b3c9a64f83","ios":"levelo://app?vid=c0bd893f-e221-4abc-b62c-b8b3c9a64f83"},"vehicle_type_id":"4","last_reported":1691427945,"current_range_meters":6800,"station_id":"ce4bhb12rcd13ifvqem0","pricing_plan_id":"free"},{"bike_id":"bbf042be-5681-4a2d-b962-f2ce4929c515","system_id":"levelo_inurba_marseille","lat":43.28856,"lon":5.358371,"is_reserved":false,"is_disabled":false,"rental_uris":{"android":"levelo://app?vid=bbf042be-5681-4a2d-b962-f2ce4929c515","ios":"levelo://app?vid=bbf042be-5681-4a2d-b962-f2ce4929c515"},"vehicle_type_id":"4","last_reported":1691427945,"current_range_meters":18000,"station_id":"ce4bhb12rcd13ifvqem0","pricing_plan_id":"free"},{"bike_id":"ee77238a-73b2-4eb6-bf1b-6b00710d040b","system_id":"levelo_inurba_marseille","lat":43.29065,"lon":5.38315,"is_reserved":false,"is_disabled":false,"rental_uris":{"android":"levelo://app?vid=ee77238a-73b2-4eb6-bf1b-6b00710d040b","ios":"levelo://app?vid=ee77238a-73b2-4eb6-bf1b-6b00710d040b"},"vehicle_type_id":"4","last_reported":1691427945,"current_range_meters":26400,"station_id":"","pricing_plan_id":"free"},{"bike_id":"7a8f5885-681f-47c2-9109-1c61b3d7090c","system_id":"levelo_inurba_marseille","lat":43.306625,"lon":5.400702,"is_reserved":false,"is_disabled":false,"rental_uris":{"android":"levelo://app?vid=7a8f5885-681f-47c2-9109-1c61b3d7090c","ios":"levelo://app?vid=7a8f5885-681f-47c2-9109-1c61b3d7090c"},"vehicle_type_id":"4","last_reported":1691427945,"current_range_meters":21600,"station_id":"ce4bh112rcd13ifvqda0","pricing_plan_id":"free"},{"bike_id":"b4d8aed1-1f04-42b9-b8e1-181f1a848827","system_id":"levelo_inurba_marseille","lat":43.309371,"lon":5.401449,"is_reserved":false,"is_disabled":false,"rental_uris":{"android":"levelo://app?vid=b4d8aed1-1f04-42b9-b8e1-181f1a848827","ios":"levelo://app?vid=b4d8aed1-1f04-42b9-b8e1-181f1a848827"},"vehicle_type_id":"4","last_reported":1691427945,"current_range_meters":16800,"station_id":"ce4bgvp2rcd13ifvqct0","pricing_plan_id":"free"},{"bike_id":"faa05b54-80ff-40f9-beb3-64085fddf76b","system_id":"levelo_inurba_marseille","lat":43.33762,"lon":5.3742,"is_reserved":false,"is_disabled":false,"rental_uris":{"android":"levelo://app?vid=faa05b54-80ff-40f9-beb3-64085fddf76b","ios":"levelo://app?vid=faa05b54-80ff-40f9-beb3-64085fddf76b"},"vehicle_type_id":"4","last_reported":1691427945,"current_range_meters":22400,"station_id":"","pricing_plan_id":"free"},{"bike_id":"7942c60a-e00a-490e-8597-8f3e2ad7ed5b","system_id":"levelo_inurba_marseille","lat":43.30642,"lon":5.40084,"is_reserved":false,"is_disabled":false,"rental_uris":{"android":"levelo://app?vid=7942c60a-e00a-490e-8597-8f3e2ad7ed5b","ios":"levelo://app?vid=7942c60a-e00a-490e-8597-8f3e2ad7ed5b"},"vehicle_type_id":"4","last_reported":1691427945,"current_range_meters":27200,"station_id":"ce4bh112rcd13ifvqda0","pricing_plan_id":"free"},{"bike_id":"80bed581-1089-4454-8eee-fcff8a3db227","system_id":"levelo_inurba_marseille","lat":43.33765,"lon":5.37427,"is_reserved":false,"is_disabled":false,"rental_uris":{"android":"levelo://app?vid=80bed581-1089-4454-8eee-fcff8a3db227","ios":"levelo://app?vid=80bed581-1089-4454-8eee-fcff8a3db227"},"vehicle_type_id":"4","last_reported":1691427945,"current_range_meters":31200,"station_id":"","pricing_plan_id":"free"},{"bike_id":"5b1d34c5-88f6-4132-a324-fe1da659b5f8","system_id":"levelo_inurba_marseille","lat":43.33775,"lon":5.37421,"is_reserved":false,"is_disabled":false,"rental_uris":{"android":"levelo://app?vid=5b1d34c5-88f6-4132-a324-fe1da659b5f8","ios":"levelo://app?vid=5b1d34c5-88f6-4132-a324-fe1da659b5f8"},"vehicle_type_id":"4","last_reported":1691427945,"current_range_meters":30400,"station_id":"","pricing_plan_id":"free"},{"bike_id":"ceab0e6c-16aa-433c-85df-bea3479c39b4","system_id":"levelo_inurba_marseille","lat":43.28856,"lon":5.358371,"is_reserved":false,"is_disabled":false,"rental_uris":{"android":"levelo://app?vid=ceab0e6c-16aa-433c-85df-bea3479c39b4","ios":"levelo://app?vid=ceab0e6c-16aa-433c-85df-bea3479c39b4"},"vehicle_type_id":"4","last_reported":1691427945,"current_range_meters":18800,"station_id":"ce4bhb12rcd13ifvqem0","pricing_plan_id":"free"},{"bike_id":"8011b3e1-e265-4e10-9565-9385315acdd3","system_id":"levelo_inurba_marseille","lat":43.301117,"lon":5.398795,"is_reserved":false,"is_disabled":false,"rental_uris":{"android":"levelo://app?vid=8011b3e1-e265-4e10-9565-9385315acdd3","ios":"levelo://app?vid=8011b3e1-e265-4e10-9565-9385315acdd3"},"vehicle_type_id":"4","last_reported":1691427945,"current_range_meters":1200,"station_id":"ce4bh0h2rcd13ifvqd40","pricing_plan_id":"free"},{"bike_id":"a6bd8bc9-a96e-4a7b-8b9d-3cf7b2fee1bc","system_id":"levelo_inurba_marseille","lat":43.286961,"lon":5.373785,"is_reserved":false,"is_disabled":false,"rental_uris":{"android":"levelo://app?vid=a6bd8bc9-a96e-4a7b-8b9d-3cf7b2fee1bc","ios":"levelo://app?vid=a6bd8bc9-a96e-4a7b-8b9d-3cf7b2fee1bc"},"vehicle_type_id":"4","last_reported":1691427945,"current_range_meters":11200,"station_id":"ce4bh3p2rcd13ifvqdq0","pricing_plan_id":"free"},{"bike_id":"75199276-b705-4ad7-b6a9-49aeaa84628a","system_id":"levelo_inurba_marseille","lat":43.286591,"lon":5.363346,"is_reserved":false,"is_disabled":false,"rental_uris":{"android":"levelo://app?vid=75199276-b705-4ad7-b6a9-49aeaa84628a","ios":"levelo://app?vid=75199276-b705-4ad7-b6a9-49aeaa84628a"},"vehicle_type_id":"4","last_reported":1691427945,"current_range_meters":31200,"station_id":"ce4bhah2rcd13ifvqej0","pricing_plan_id":"free"},{"bike_id":"7b9e2d57-7c2f-4652-8ec0-ee4d147afe24","system_id":"levelo_inurba_marseille","lat":43.302548,"lon":5.400568,"is_reserved":false,"is_disabled":false,"rental_uris":{"android":"levelo://app?vid=7b9e2d57-7c2f-4652-8ec0-ee4d147afe24","ios":"levelo://app?vid=7b9e2d57-7c2f-4652-8ec0-ee4d147afe24"},"vehicle_type_id":"4","last_reported":1691427945,"current_range_meters":2400,"station_id":"","pricing_plan_id":"free"},{"bike_id":"4d99cc9e-da66-4752-8474-6026d0c6e443","system_id":"levelo_inurba_marseille","lat":43.302759,"lon":5.400793,"is_reserved":false,"is_disabled":false,"rental_uris":{"android":"levelo://app?vid=4d99cc9e-da66-4752-8474-6026d0c6e443","ios":"levelo://app?vid=4d99cc9e-da66-4752-8474-6026d0c6e443"},"vehicle_type_id":"4","last_reported":1691427945,"current_range_meters":27600,"station_id":"ce4bgvh2rcd13ifvqcs0","pricing_plan_id":"free"},{"bike_id":"0c609a5a-5d63-4e7a-ad36-80e0a2dd06a5","system_id":"levelo_inurba_marseille","lat":43.302759,"lon":5.400793,"is_reserved":false,"is_disabled":false,"rental_uris":{"android":"levelo://app?vid=0c609a5a-5d63-4e7a-ad36-80e0a2dd06a5","ios":"levelo://app?vid=0c609a5a-5d63-4e7a-ad36-80e0a2dd06a5"},"vehicle_type_id":"4","last_reported":1691427945,"current_range_meters":9600,"station_id":"ce4bgvh2rcd13ifvqcs0","pricing_plan_id":"free"},{"bike_id":"1f707f92-2a78-48c9-8c64-043b644bda8b","system_id":"levelo_inurba_marseille","lat":43.302759,"lon":5.400793,"is_reserved":false,"is_disabled":false,"rental_uris":{"android":"levelo://app?vid=1f707f92-2a78-48c9-8c64-043b644bda8b","ios":"levelo://app?vid=1f707f92-2a78-48c9-8c64-043b644bda8b"},"vehicle_type_id":"4","last_reported":1691427945,"current_range_meters":18400,"station_id":"ce4bgvh2rcd13ifvqcs0","pricing_plan_id":"free"},{"bike_id":"878b0671-ded1-4b86-81d0-e438155804ca","system_id":"levelo_inurba_marseille","lat":43.286039,"lon":5.370681,"is_reserved":false,"is_disabled":false,"rental_uris":{"android":"levelo://app?vid=878b0671-ded1-4b86-81d0-e438155804ca","ios":"levelo://app?vid=878b0671-ded1-4b86-81d0-e438155804ca"},"vehicle_type_id":"4","last_reported":1691427945,"current_range_meters":23600,"station_id":"ce4bht12rcd13ifvqi60","pricing_plan_id":"free"},{"bike_id":"863f9863-cfe6-42f7-8204-06d78d0b4fa7","system_id":"levelo_inurba_marseille","lat":43.286039,"lon":5.370679,"is_reserved":false,"is_disabled":false,"rental_uris":{"android":"levelo://app?vid=863f9863-cfe6-42f7-8204-06d78d0b4fa7","ios":"levelo://app?vid=863f9863-cfe6-42f7-8204-06d78d0b4fa7"},"vehicle_type_id":"4","last_reported":1691427945,"current_range_meters":20400,"station_id":"ce4bht12rcd13ifvqi60","pricing_plan_id":"free"},{"bike_id":"1a474f1a-e2e8-4fe1-9ee7-85b9f5376d66","system_id":"levelo_inurba_marseille","lat":43.286039,"lon":5.370679,"is_reserved":false,"is_disabled":false,"rental_uris":{"android":"levelo://app?vid=1a474f1a-e2e8-4fe1-9ee7-85b9f5376d66","ios":"levelo://app?vid=1a474f1a-e2e8-4fe1-9ee7-85b9f5376d66"},"vehicle_type_id":"4","last_reported":1691427945,"current_range_meters":31200,"station_id":"ce4bht12rcd13ifvqi60","pricing_plan_id":"free"},{"bike_id":"12a26d8e-285f-4a3b-b447-3229cf77c984","system_id":"levelo_inurba_marseille","lat":43.316517,"lon":5.404375,"is_reserved":false,"is_disabled":false,"rental_uris":{"android":"levelo://app?vid=12a26d8e-285f-4a3b-b447-3229cf77c984","ios":"levelo://app?vid=12a26d8e-285f-4a3b-b447-3229cf77c984"},"vehicle_type_id":"4","last_reported":1691427945,"current_range_meters":27200,"station_id":"ce4bh012rcd13ifvqd00","pricing_plan_id":"free"},{"bike_id":"31682d5c-fb13-465b-9f7f-1afd8203d238","system_id":"levelo_inurba_marseille","lat":43.31649,"lon":5.40429,"is_reserved":false,"is_disabled":false,"rental_uris":{"android":"levelo://app?vid=31682d5c-fb13-465b-9f7f-1afd8203d238","ios":"levelo://app?vid=31682d5c-fb13-465b-9f7f-1afd8203d238"},"vehicle_type_id":"4","last_reported":1691427945,"current_range_meters":30800,"station_id":"ce4bh012rcd13ifvqd00","pricing_plan_id":"free"},{"bike_id":"64cc1f04-2ec6-4a5f-8638-d30525d3f4a8","system_id":"levelo_inurba_marseille","lat":43.31644,"lon":5.40432,"is_reserved":false,"is_disabled":false,"rental_uris":{"android":"levelo://app?vid=64cc1f04-2ec6-4a5f-8638-d30525d3f4a8","ios":"levelo://app?vid=64cc1f04-2ec6-4a5f-8638-d30525d3f4a8"},"vehicle_type_id":"4","last_reported":1691427945,"current_range_meters":30400,"station_id":"ce4bh012rcd13ifvqd00","pricing_plan_id":"free"},{"bike_id":"0238288f-0a11-4978-83ca-aa8bcde3e3f6","system_id":"levelo_inurba_marseille","lat":43.31645,"lon":5.40432,"is_reserved":false,"is_disabled":false,"rental_uris":{"android":"levelo://app?vid=0238288f-0a11-4978-83ca-aa8bcde3e3f6","ios":"levelo://app?vid=0238288f-0a11-4978-83ca-aa8bcde3e3f6"},"vehicle_type_id":"4","last_reported":1691427945,"current_range_meters":27600,"station_id":"ce4bh012rcd13ifvqd00","pricing_plan_id":"free"},{"bike_id":"c7e983fb-690a-471b-b033-292c7e7289c8","system_id":"levelo_inurba_marseille","lat":43.316517,"lon":5.404375,"is_reserved":false,"is_disabled":false,"rental_uris":{"android":"levelo://app?vid=c7e983fb-690a-471b-b033-292c7e7289c8","ios":"levelo://app?vid=c7e983fb-690a-471b-b033-292c7e7289c8"},"vehicle_type_id":"4","last_reported":1691427945,"current_range_meters":18000,"station_id":"ce4bh012rcd13ifvqd00","pricing_plan_id":"free"},{"bike_id":"39aa1114-e07d-4b76-bda8-591777b9c48a","system_id":"levelo_inurba_marseille","lat":43.316459,"lon":5.404329,"is_reserved":false,"is_disabled":false,"rental_uris":{"android":"levelo://app?vid=39aa1114-e07d-4b76-bda8-591777b9c48a","ios":"levelo://app?vid=39aa1114-e07d-4b76-bda8-591777b9c48a"},"vehicle_type_id":"4","last_reported":1691427945,"current_range_meters":26800,"station_id":"ce4bh012rcd13ifvqd00","pricing_plan_id":"free"},{"bike_id":"db6c8fbd-431c-4cfc-a31f-9f1f15fe3b31","system_id":"levelo_inurba_marseille","lat":43.316517,"lon":5.404375,"is_reserved":false,"is_disabled":false,"rental_uris":{"android":"levelo://app?vid=db6c8fbd-431c-4cfc-a31f-9f1f15fe3b31","ios":"levelo://app?vid=db6c8fbd-431c-4cfc-a31f-9f1f15fe3b31"},"vehicle_type_id":"4","last_reported":1691427945,"current_range_meters":30800,"station_id":"ce4bh012rcd13ifvqd00","pricing_plan_id":"free"},{"bike_id":"89696661-9fc5-4e30-b38b-ce2ab61d936f","system_id":"levelo_inurba_marseille","lat":43.31647,"lon":5.40434,"is_reserved":false,"is_disabled":false,"rental_uris":{"android":"levelo://app?vid=89696661-9fc5-4e30-b38b-ce2ab61d936f","ios":"levelo://app?vid=89696661-9fc5-4e30-b38b-ce2ab61d936f"},"vehicle_type_id":"4","last_reported":1691427945,"current_range_meters":31200,"station_id":"ce4bh012rcd13ifvqd00","pricing_plan_id":"free"},{"bike_id":"11327d1c-8937-422b-b963-0f9ddf721f1b","system_id":"levelo_inurba_marseille","lat":43.316517,"lon":5.404375,"is_reserved":false,"is_disabled":false,"rental_uris":{"android":"levelo://app?vid=11327d1c-8937-422b-b963-0f9ddf721f1b","ios":"levelo://app?vid=11327d1c-8937-422b-b963-0f9ddf721f1b"},"vehicle_type_id":"4","last_reported":1691427945,"current_range_meters":29200,"station_id":"ce4bh012rcd13ifvqd00","pricing_plan_id":"free"},{"bike_id":"bba81357-e5cd-4a06-9bea-3e5b69789465","system_id":"levelo_inurba_marseille","lat":43.31651,"lon":5.40434,"is_reserved":false,"is_disabled":false,"rental_uris":{"android":"levelo://app?vid=bba81357-e5cd-4a06-9bea-3e5b69789465","ios":"levelo://app?vid=bba81357-e5cd-4a06-9bea-3e5b69789465"},"vehicle_type_id":"4","last_reported":1691427945,"current_range_meters":28800,"station_id":"ce4bh012rcd13ifvqd00","pricing_plan_id":"free"},{"bike_id":"70989047-32d1-4699-af66-286b7c40a556","system_id":"levelo_inurba_marseille","lat":43.31648,"lon":5.40435,"is_reserved":false,"is_disabled":false,"rental_uris":{"android":"levelo://app?vid=70989047-32d1-4699-af66-286b7c40a556","ios":"levelo://app?vid=70989047-32d1-4699-af66-286b7c40a556"},"vehicle_type_id":"4","last_reported":1691427945,"current_range_meters":13600,"station_id":"ce4bh012rcd13ifvqd00","pricing_plan_id":"free"},{"bike_id":"93c542a7-0a44-4c60-9997-7ce8c089f8cd","system_id":"levelo_inurba_marseille","lat":43.3165,"lon":5.40435,"is_reserved":false,"is_disabled":false,"rental_uris":{"android":"levelo://app?vid=93c542a7-0a44-4c60-9997-7ce8c089f8cd","ios":"levelo://app?vid=93c542a7-0a44-4c60-9997-7ce8c089f8cd"},"vehicle_type_id":"4","last_reported":1691427945,"current_range_meters":24800,"station_id":"ce4bh012rcd13ifvqd00","pricing_plan_id":"free"},{"bike_id":"a2c32661-2c8b-4ac3-9625-e2734fe83214","system_id":"levelo_inurba_marseille","lat":43.31646,"lon":5.40436,"is_reserved":false,"is_disabled":false,"rental_uris":{"android":"levelo://app?vid=a2c32661-2c8b-4ac3-9625-e2734fe83214","ios":"levelo://app?vid=a2c32661-2c8b-4ac3-9625-e2734fe83214"},"vehicle_type_id":"4","last_reported":1691427945,"current_range_meters":29600,"station_id":"ce4bh012rcd13ifvqd00","pricing_plan_id":"free"},{"bike_id":"18da9808-bd65-47c0-9b20-682656c752bd","system_id":"levelo_inurba_marseille","lat":43.316517,"lon":5.404375,"is_reserved":false,"is_disabled":false,"rental_uris":{"android":"levelo://app?vid=18da9808-bd65-47c0-9b20-682656c752bd","ios":"levelo://app?vid=18da9808-bd65-47c0-9b20-682656c752bd"},"vehicle_type_id":"4","last_reported":1691427945,"current_range_meters":30800,"station_id":"ce4bh012rcd13ifvqd00","pricing_plan_id":"free"},{"bike_id":"bc358dd4-0e4f-4588-a58b-3e155cfb12ad","system_id":"levelo_inurba_marseille","lat":43.31649,"lon":5.40436,"is_reserved":false,"is_disabled":false,"rental_uris":{"android":"levelo://app?vid=bc358dd4-0e4f-4588-a58b-3e155cfb12ad","ios":"levelo://app?vid=bc358dd4-0e4f-4588-a58b-3e155cfb12ad"},"vehicle_type_id":"4","last_reported":1691427945,"current_range_meters":0,"station_id":"ce4bh012rcd13ifvqd00","pricing_plan_id":"free"},{"bike_id":"aa507ce0-3582-415a-a41a-5d561f16bef2","system_id":"levelo_inurba_marseille","lat":43.29205,"lon":5.39315,"is_reserved":false,"is_disabled":false,"rental_uris":{"android":"levelo://app?vid=aa507ce0-3582-415a-a41a-5d561f16bef2","ios":"levelo://app?vid=aa507ce0-3582-415a-a41a-5d561f16bef2"},"vehicle_type_id":"4","last_reported":1691427945,"current_range_meters":6400,"station_id":"ce4bh192rcd13ifvqdd0","pricing_plan_id":"free"},{"bike_id":"632c2d00-6668-4f51-b5f0-8985ba8a9bee","system_id":"levelo_inurba_marseille","lat":43.292072,"lon":5.393244,"is_reserved":false,"is_disabled":false,"rental_uris":{"android":"levelo://app?vid=632c2d00-6668-4f51-b5f0-8985ba8a9bee","ios":"levelo://app?vid=632c2d00-6668-4f51-b5f0-8985ba8a9bee"},"vehicle_type_id":"4","last_reported":1691427945,"current_range_meters":4000,"station_id":"ce4bh192rcd13ifvqdd0","pricing_plan_id":"free"},{"bike_id":"1942cdaa-ea5c-4782-99c5-93b4e1817f69","system_id":"levelo_inurba_marseille","lat":43.291994,"lon":5.392907,"is_reserved":false,"is_disabled":false,"rental_uris":{"android":"levelo://app?vid=1942cdaa-ea5c-4782-99c5-93b4e1817f69","ios":"levelo://app?vid=1942cdaa-ea5c-4782-99c5-93b4e1817f69"},"vehicle_type_id":"4","last_reported":1691427945,"current_range_meters":6000,"station_id":"ce4bh192rcd13ifvqdd0","pricing_plan_id":"free"},{"bike_id":"c1c0e7fd-aac8-4975-ad9e-10417149bb04","system_id":"levelo_inurba_marseille","lat":43.291994,"lon":5.392907,"is_reserved":false,"is_disabled":false,"rental_uris":{"android":"levelo://app?vid=c1c0e7fd-aac8-4975-ad9e-10417149bb04","ios":"levelo://app?vid=c1c0e7fd-aac8-4975-ad9e-10417149bb04"},"vehicle_type_id":"4","last_reported":1691427945,"current_range_meters":17200,"station_id":"ce4bh192rcd13ifvqdd0","pricing_plan_id":"free"},{"bike_id":"dc6ef6b1-8a17-4583-b58e-768dc1bb19dc","system_id":"levelo_inurba_marseille","lat":43.291994,"lon":5.392907,"is_reserved":false,"is_disabled":false,"rental_uris":{"android":"levelo://app?vid=dc6ef6b1-8a17-4583-b58e-768dc1bb19dc","ios":"levelo://app?vid=dc6ef6b1-8a17-4583-b58e-768dc1bb19dc"},"vehicle_type_id":"4","last_reported":1691427945,"current_range_meters":31200,"station_id":"ce4bh192rcd13ifvqdd0","pricing_plan_id":"free"},{"bike_id":"8da1e377-a1c8-409b-8586-b79d1a378733","system_id":"levelo_inurba_marseille","lat":43.291994,"lon":5.392907,"is_reserved":false,"is_disabled":false,"rental_uris":{"android":"levelo://app?vid=8da1e377-a1c8-409b-8586-b79d1a378733","ios":"levelo://app?vid=8da1e377-a1c8-409b-8586-b79d1a378733"},"vehicle_type_id":"4","last_reported":1691427945,"current_range_meters":29600,"station_id":"ce4bh192rcd13ifvqdd0","pricing_plan_id":"free"},{"bike_id":"2a07ef3b-22e3-43af-8af5-369dbce2cf45","system_id":"levelo_inurba_marseille","lat":43.291994,"lon":5.392907,"is_reserved":false,"is_disabled":false,"rental_uris":{"android":"levelo://app?vid=2a07ef3b-22e3-43af-8af5-369dbce2cf45","ios":"levelo://app?vid=2a07ef3b-22e3-43af-8af5-369dbce2cf45"},"vehicle_type_id":"4","last_reported":1691427945,"current_range_meters":31600,"station_id":"ce4bh192rcd13ifvqdd0","pricing_plan_id":"free"},{"bike_id":"8ad77042-a07b-4dd0-ab2a-b4f26a849585","system_id":"levelo_inurba_marseille","lat":43.284538,"lon":5.358657,"is_reserved":false,"is_disabled":false,"rental_uris":{"android":"levelo://app?vid=8ad77042-a07b-4dd0-ab2a-b4f26a849585","ios":"levelo://app?vid=8ad77042-a07b-4dd0-ab2a-b4f26a849585"},"vehicle_type_id":"4","last_reported":1691427945,"current_range_meters":15200,"station_id":"ce4bhah2rcd13ifvqei0","pricing_plan_id":"free"},{"bike_id":"7e779372-b108-46aa-9875-6f8cd660f231","system_id":"levelo_inurba_marseille","lat":43.284538,"lon":5.358657,"is_reserved":false,"is_disabled":false,"rental_uris":{"android":"levelo://app?vid=7e779372-b108-46aa-9875-6f8cd660f231","ios":"levelo://app?vid=7e779372-b108-46aa-9875-6f8cd660f231"},"vehicle_type_id":"4","last_reported":1691427945,"current_range_meters":9200,"station_id":"ce4bhah2rcd13ifvqei0","pricing_plan_id":"free"},{"bike_id":"e45f0388-cf1a-4960-a73d-a3275874bd06","system_id":"levelo_inurba_marseille","lat":43.284534,"lon":5.358662,"is_reserved":false,"is_disabled":false,"rental_uris":{"android":"levelo://app?vid=e45f0388-cf1a-4960-a73d-a3275874bd06","ios":"levelo://app?vid=e45f0388-cf1a-4960-a73d-a3275874bd06"},"vehicle_type_id":"4","last_reported":1691427945,"current_range_meters":21600,"station_id":"ce4bhah2rcd13ifvqei0","pricing_plan_id":"free"},{"bike_id":"7b78d55e-e99c-4fa7-968a-c672d6912f00","system_id":"levelo_inurba_marseille","lat":43.28458,"lon":5.35896,"is_reserved":false,"is_disabled":false,"rental_uris":{"android":"levelo://app?vid=7b78d55e-e99c-4fa7-968a-c672d6912f00","ios":"levelo://app?vid=7b78d55e-e99c-4fa7-968a-c672d6912f00"},"vehicle_type_id":"4","last_reported":1691427945,"current_range_meters":31200,"station_id":"ce4bhah2rcd13ifvqei0","pricing_plan_id":"free"},{"bike_id":"01535868-c7b1-4ebd-9133-8c3889bc92f2","system_id":"levelo_inurba_marseille","lat":43.32891,"lon":5.39969,"is_reserved":false,"is_disabled":false,"rental_uris":{"android":"levelo://app?vid=01535868-c7b1-4ebd-9133-8c3889bc92f2","ios":"levelo://app?vid=01535868-c7b1-4ebd-9133-8c3889bc92f2"},"vehicle_type_id":"4","last_reported":1691427945,"current_range_meters":6400,"station_id":"","pricing_plan_id":"free"},{"bike_id":"432eac9f-3495-4abc-ab67-a39d97afe078","system_id":"levelo_inurba_marseille","lat":43.285856,"lon":5.350771,"is_reserved":false,"is_disabled":false,"rental_uris":{"android":"levelo://app?vid=432eac9f-3495-4abc-ab67-a39d97afe078","ios":"levelo://app?vid=432eac9f-3495-4abc-ab67-a39d97afe078"},"vehicle_type_id":"4","last_reported":1691427945,"current_range_meters":0,"station_id":"ce4bhch2rcd13ifvqeug","pricing_plan_id":"free"},{"bike_id":"d992b01b-e864-45df-9ca6-c260941559d8","system_id":"levelo_inurba_marseille","lat":43.285856,"lon":5.350771,"is_reserved":false,"is_disabled":false,"rental_uris":{"android":"levelo://app?vid=d992b01b-e864-45df-9ca6-c260941559d8","ios":"levelo://app?vid=d992b01b-e864-45df-9ca6-c260941559d8"},"vehicle_type_id":"4","last_reported":1691427945,"current_range_meters":9200,"station_id":"ce4bhch2rcd13ifvqeug","pricing_plan_id":"free"},{"bike_id":"ae0ae41e-3ec0-478c-af9f-bd5e0e625fe7","system_id":"levelo_inurba_marseille","lat":43.283998,"lon":5.375062,"is_reserved":false,"is_disabled":false,"rental_uris":{"android":"levelo://app?vid=ae0ae41e-3ec0-478c-af9f-bd5e0e625fe7","ios":"levelo://app?vid=ae0ae41e-3ec0-478c-af9f-bd5e0e625fe7"},"vehicle_type_id":"4","last_reported":1691427945,"current_range_meters":14000,"station_id":"ce4bh412rcd13ifvqds0","pricing_plan_id":"free"},{"bike_id":"7f070500-2937-40f9-a480-923ff5ff3e33","system_id":"levelo_inurba_marseille","lat":43.31888,"lon":5.40731,"is_reserved":false,"is_disabled":false,"rental_uris":{"android":"levelo://app?vid=7f070500-2937-40f9-a480-923ff5ff3e33","ios":"levelo://app?vid=7f070500-2937-40f9-a480-923ff5ff3e33"},"vehicle_type_id":"4","last_reported":1691427945,"current_range_meters":14800,"station_id":"ce4bhq12rcd13ifvqhig","pricing_plan_id":"free"},{"bike_id":"e6718a1b-850e-4ed7-ae2a-64fcbafe5f04","system_id":"levelo_inurba_marseille","lat":43.33721,"lon":5.39183,"is_reserved":false,"is_disabled":false,"rental_uris":{"android":"levelo://app?vid=e6718a1b-850e-4ed7-ae2a-64fcbafe5f04","ios":"levelo://app?vid=e6718a1b-850e-4ed7-ae2a-64fcbafe5f04"},"vehicle_type_id":"4","last_reported":1691427945,"current_range_meters":11600,"station_id":"ce4bhr92rcd13ifvqhsg","pricing_plan_id":"free"},{"bike_id":"9d8dc018-8295-487e-aae9-79ce0f469cdf","system_id":"levelo_inurba_marseille","lat":43.33723,"lon":5.39184,"is_reserved":false,"is_disabled":false,"rental_uris":{"android":"levelo://app?vid=9d8dc018-8295-487e-aae9-79ce0f469cdf","ios":"levelo://app?vid=9d8dc018-8295-487e-aae9-79ce0f469cdf"},"vehicle_type_id":"4","last_reported":1691427945,"current_range_meters":30400,"station_id":"ce4bhr92rcd13ifvqhsg","pricing_plan_id":"free"},{"bike_id":"65e7209e-43de-4472-85bf-edccad84c81f","system_id":"levelo_inurba_marseille","lat":43.33728,"lon":5.39183,"is_reserved":false,"is_disabled":false,"rental_uris":{"android":"levelo://app?vid=65e7209e-43de-4472-85bf-edccad84c81f","ios":"levelo://app?vid=65e7209e-43de-4472-85bf-edccad84c81f"},"vehicle_type_id":"4","last_reported":1691427945,"current_range_meters":11200,"station_id":"ce4bhr92rcd13ifvqhsg","pricing_plan_id":"free"},{"bike_id":"5221f333-a5db-4967-89ab-86a0b2977f0a","system_id":"levelo_inurba_marseille","lat":43.323464,"lon":5.406297,"is_reserved":false,"is_disabled":false,"rental_uris":{"android":"levelo://app?vid=5221f333-a5db-4967-89ab-86a0b2977f0a","ios":"levelo://app?vid=5221f333-a5db-4967-89ab-86a0b2977f0a"},"vehicle_type_id":"4","last_reported":1691427945,"current_range_meters":9600,"station_id":"ce4bhq92rcd13ifvqhjg","pricing_plan_id":"free"},{"bike_id":"6fbb1559-0cb5-44e0-a48a-52547dc44cd4","system_id":"levelo_inurba_marseille","lat":43.29807,"lon":5.40407,"is_reserved":false,"is_disabled":false,"rental_uris":{"android":"levelo://app?vid=6fbb1559-0cb5-44e0-a48a-52547dc44cd4","ios":"levelo://app?vid=6fbb1559-0cb5-44e0-a48a-52547dc44cd4"},"vehicle_type_id":"4","last_reported":1691427945,"current_range_meters":10800,"station_id":"","pricing_plan_id":"free"},{"bike_id":"03d3a76f-1a10-4421-bd78-ed2800b46cd3","system_id":"levelo_inurba_marseille","lat":43.288497,"lon":5.393089,"is_reserved":false,"is_disabled":false,"rental_uris":{"android":"levelo://app?vid=03d3a76f-1a10-4421-bd78-ed2800b46cd3","ios":"levelo://app?vid=03d3a76f-1a10-4421-bd78-ed2800b46cd3"},"vehicle_type_id":"4","last_reported":1691427945,"current_range_meters":18400,"station_id":"ce4bh2p2rcd13ifvqdi0","pricing_plan_id":"free"},{"bike_id":"36911d07-d816-4dfe-8fb0-4fc5265d21fa","system_id":"levelo_inurba_marseille","lat":43.288501,"lon":5.393087,"is_reserved":false,"is_disabled":false,"rental_uris":{"android":"levelo://app?vid=36911d07-d816-4dfe-8fb0-4fc5265d21fa","ios":"levelo://app?vid=36911d07-d816-4dfe-8fb0-4fc5265d21fa"},"vehicle_type_id":"4","last_reported":1691427945,"current_range_meters":20000,"station_id":"ce4bh2p2rcd13ifvqdi0","pricing_plan_id":"free"},{"bike_id":"bcc1119f-fce1-4c97-8597-febbd9a3c9b7","system_id":"levelo_inurba_marseille","lat":43.28838,"lon":5.39321,"is_reserved":false,"is_disabled":false,"rental_uris":{"android":"levelo://app?vid=bcc1119f-fce1-4c97-8597-febbd9a3c9b7","ios":"levelo://app?vid=bcc1119f-fce1-4c97-8597-febbd9a3c9b7"},"vehicle_type_id":"4","last_reported":1691427945,"current_range_meters":0,"station_id":"ce4bh2p2rcd13ifvqdi0","pricing_plan_id":"free"},{"bike_id":"c89f3697-de73-4648-a292-aa685d2035fa","system_id":"levelo_inurba_marseille","lat":43.28428,"lon":5.35001,"is_reserved":false,"is_disabled":false,"rental_uris":{"android":"levelo://app?vid=c89f3697-de73-4648-a292-aa685d2035fa","ios":"levelo://app?vid=c89f3697-de73-4648-a292-aa685d2035fa"},"vehicle_type_id":"4","last_reported":1691427945,"current_range_meters":31200,"station_id":"ce4bhbh2rcd13ifvqepg","pricing_plan_id":"free"},{"bike_id":"4e9de8d9-f855-45b0-b22f-060eff3e64ef","system_id":"levelo_inurba_marseille","lat":43.284219,"lon":5.3497,"is_reserved":false,"is_disabled":false,"rental_uris":{"android":"levelo://app?vid=4e9de8d9-f855-45b0-b22f-060eff3e64ef","ios":"levelo://app?vid=4e9de8d9-f855-45b0-b22f-060eff3e64ef"},"vehicle_type_id":"4","last_reported":1691427945,"current_range_meters":14800,"station_id":"ce4bhbh2rcd13ifvqepg","pricing_plan_id":"free"},{"bike_id":"cedf5dbc-c95c-44f0-af5b-3597aa3f4657","system_id":"levelo_inurba_marseille","lat":43.284219,"lon":5.3497,"is_reserved":false,"is_disabled":false,"rental_uris":{"android":"levelo://app?vid=cedf5dbc-c95c-44f0-af5b-3597aa3f4657","ios":"levelo://app?vid=cedf5dbc-c95c-44f0-af5b-3597aa3f4657"},"vehicle_type_id":"4","last_reported":1691427945,"current_range_meters":13600,"station_id":"ce4bhbh2rcd13ifvqepg","pricing_plan_id":"free"},{"bike_id":"bffeb117-007a-42a0-a12e-e795962dfe91","system_id":"levelo_inurba_marseille","lat":43.284219,"lon":5.3497,"is_reserved":false,"is_disabled":false,"rental_uris":{"android":"levelo://app?vid=bffeb117-007a-42a0-a12e-e795962dfe91","ios":"levelo://app?vid=bffeb117-007a-42a0-a12e-e795962dfe91"},"vehicle_type_id":"4","last_reported":1691427945,"current_range_meters":29600,"station_id":"ce4bhbh2rcd13ifvqepg","pricing_plan_id":"free"},{"bike_id":"e9117fc5-188b-4029-8e23-02399333d086","system_id":"levelo_inurba_marseille","lat":43.284219,"lon":5.3497,"is_reserved":false,"is_disabled":false,"rental_uris":{"android":"levelo://app?vid=e9117fc5-188b-4029-8e23-02399333d086","ios":"levelo://app?vid=e9117fc5-188b-4029-8e23-02399333d086"},"vehicle_type_id":"4","last_reported":1691427945,"current_range_meters":24800,"station_id":"ce4bhbh2rcd13ifvqepg","pricing_plan_id":"free"},{"bike_id":"a006b88c-c05e-4052-b5a2-9bfe7d3971a9","system_id":"levelo_inurba_marseille","lat":43.28426,"lon":5.34996,"is_reserved":false,"is_disabled":false,"rental_uris":{"android":"levelo://app?vid=a006b88c-c05e-4052-b5a2-9bfe7d3971a9","ios":"levelo://app?vid=a006b88c-c05e-4052-b5a2-9bfe7d3971a9"},"vehicle_type_id":"4","last_reported":1691427945,"current_range_meters":23200,"station_id":"ce4bhbh2rcd13ifvqepg","pricing_plan_id":"free"},{"bike_id":"ad83f5a7-c34a-46ca-ae4d-2d8d80748848","system_id":"levelo_inurba_marseille","lat":43.28427,"lon":5.34988,"is_reserved":false,"is_disabled":false,"rental_uris":{"android":"levelo://app?vid=ad83f5a7-c34a-46ca-ae4d-2d8d80748848","ios":"levelo://app?vid=ad83f5a7-c34a-46ca-ae4d-2d8d80748848"},"vehicle_type_id":"4","last_reported":1691427945,"current_range_meters":24800,"station_id":"ce4bhbh2rcd13ifvqepg","pricing_plan_id":"free"},{"bike_id":"7b420d08-7849-4569-928b-33de998374aa","system_id":"levelo_inurba_marseille","lat":43.28424,"lon":5.34993,"is_reserved":false,"is_disabled":false,"rental_uris":{"android":"levelo://app?vid=7b420d08-7849-4569-928b-33de998374aa","ios":"levelo://app?vid=7b420d08-7849-4569-928b-33de998374aa"},"vehicle_type_id":"4","last_reported":1691427945,"current_range_meters":12800,"station_id":"ce4bhbh2rcd13ifvqepg","pricing_plan_id":"free"},{"bike_id":"d87db6e6-b2a8-4a13-8d8a-5d0883426b85","system_id":"levelo_inurba_marseille","lat":43.284219,"lon":5.3497,"is_reserved":false,"is_disabled":false,"rental_uris":{"android":"levelo://app?vid=d87db6e6-b2a8-4a13-8d8a-5d0883426b85","ios":"levelo://app?vid=d87db6e6-b2a8-4a13-8d8a-5d0883426b85"},"vehicle_type_id":"4","last_reported":1691427945,"current_range_meters":26800,"station_id":"ce4bhbh2rcd13ifvqepg","pricing_plan_id":"free"},{"bike_id":"7ba975d9-7bde-4373-90b6-06c41551dbfc","system_id":"levelo_inurba_marseille","lat":43.28426,"lon":5.34982,"is_reserved":false,"is_disabled":false,"rental_uris":{"android":"levelo://app?vid=7ba975d9-7bde-4373-90b6-06c41551dbfc","ios":"levelo://app?vid=7ba975d9-7bde-4373-90b6-06c41551dbfc"},"vehicle_type_id":"4","last_reported":1691427945,"current_range_meters":22400,"station_id":"ce4bhbh2rcd13ifvqepg","pricing_plan_id":"free"},{"bike_id":"5ee7afa3-8c2a-4135-8cb1-39d6dd74e32f","system_id":"levelo_inurba_marseille","lat":43.284219,"lon":5.3497,"is_reserved":false,"is_disabled":false,"rental_uris":{"android":"levelo://app?vid=5ee7afa3-8c2a-4135-8cb1-39d6dd74e32f","ios":"levelo://app?vid=5ee7afa3-8c2a-4135-8cb1-39d6dd74e32f"},"vehicle_type_id":"4","last_reported":1691427945,"current_range_meters":18800,"station_id":"ce4bhbh2rcd13ifvqepg","pricing_plan_id":"free"},{"bike_id":"e7dcd018-ca83-4926-9894-f0068868c9b1","system_id":"levelo_inurba_marseille","lat":43.284219,"lon":5.3497,"is_reserved":false,"is_disabled":false,"rental_uris":{"android":"levelo://app?vid=e7dcd018-ca83-4926-9894-f0068868c9b1","ios":"levelo://app?vid=e7dcd018-ca83-4926-9894-f0068868c9b1"},"vehicle_type_id":"4","last_reported":1691427945,"current_range_meters":27600,"station_id":"ce4bhbh2rcd13ifvqepg","pricing_plan_id":"free"},{"bike_id":"a1ce092a-c9bd-41f6-bdd6-1e149148f3e8","system_id":"levelo_inurba_marseille","lat":43.284219,"lon":5.3497,"is_reserved":false,"is_disabled":false,"rental_uris":{"android":"levelo://app?vid=a1ce092a-c9bd-41f6-bdd6-1e149148f3e8","ios":"levelo://app?vid=a1ce092a-c9bd-41f6-bdd6-1e149148f3e8"},"vehicle_type_id":"4","last_reported":1691427945,"current_range_meters":31200,"station_id":"ce4bhbh2rcd13ifvqepg","pricing_plan_id":"free"},{"bike_id":"00f71d0d-fee9-472f-8be5-87f13593876e","system_id":"levelo_inurba_marseille","lat":43.28421,"lon":5.34985,"is_reserved":false,"is_disabled":false,"rental_uris":{"android":"levelo://app?vid=00f71d0d-fee9-472f-8be5-87f13593876e","ios":"levelo://app?vid=00f71d0d-fee9-472f-8be5-87f13593876e"},"vehicle_type_id":"4","last_reported":1691427945,"current_range_meters":19200,"station_id":"ce4bhbh2rcd13ifvqepg","pricing_plan_id":"free"},{"bike_id":"ae5d6b05-fbee-4503-8e40-caf0ede1e822","system_id":"levelo_inurba_marseille","lat":43.284219,"lon":5.3497,"is_reserved":false,"is_disabled":false,"rental_uris":{"android":"levelo://app?vid=ae5d6b05-fbee-4503-8e40-caf0ede1e822","ios":"levelo://app?vid=ae5d6b05-fbee-4503-8e40-caf0ede1e822"},"vehicle_type_id":"4","last_reported":1691427945,"current_range_meters":30400,"station_id":"ce4bhbh2rcd13ifvqepg","pricing_plan_id":"free"},{"bike_id":"cc3f7709-ddb9-49b1-9fca-b9119c3fa7fa","system_id":"levelo_inurba_marseille","lat":43.284219,"lon":5.3497,"is_reserved":false,"is_disabled":false,"rental_uris":{"android":"levelo://app?vid=cc3f7709-ddb9-49b1-9fca-b9119c3fa7fa","ios":"levelo://app?vid=cc3f7709-ddb9-49b1-9fca-b9119c3fa7fa"},"vehicle_type_id":"4","last_reported":1691427945,"current_range_meters":12000,"station_id":"ce4bhbh2rcd13ifvqepg","pricing_plan_id":"free"},{"bike_id":"6101808c-22c8-4327-ba07-e6d0d4291553","system_id":"levelo_inurba_marseille","lat":43.2842,"lon":5.34973,"is_reserved":false,"is_disabled":false,"rental_uris":{"android":"levelo://app?vid=6101808c-22c8-4327-ba07-e6d0d4291553","ios":"levelo://app?vid=6101808c-22c8-4327-ba07-e6d0d4291553"},"vehicle_type_id":"4","last_reported":1691427945,"current_range_meters":3200,"station_id":"ce4bhbh2rcd13ifvqepg","pricing_plan_id":"free"},{"bike_id":"a335cd74-c002-4d33-a187-8e07f032a97f","system_id":"levelo_inurba_marseille","lat":43.28415,"lon":5.34988,"is_reserved":false,"is_disabled":false,"rental_uris":{"android":"levelo://app?vid=a335cd74-c002-4d33-a187-8e07f032a97f","ios":"levelo://app?vid=a335cd74-c002-4d33-a187-8e07f032a97f"},"vehicle_type_id":"4","last_reported":1691427945,"current_range_meters":28800,"station_id":"ce4bhbh2rcd13ifvqepg","pricing_plan_id":"free"},{"bike_id":"3133945e-5c56-482c-8900-d556b89dd9f0","system_id":"levelo_inurba_marseille","lat":43.28416,"lon":5.34979,"is_reserved":false,"is_disabled":false,"rental_uris":{"android":"levelo://app?vid=3133945e-5c56-482c-8900-d556b89dd9f0","ios":"levelo://app?vid=3133945e-5c56-482c-8900-d556b89dd9f0"},"vehicle_type_id":"4","last_reported":1691427945,"current_range_meters":31200,"station_id":"ce4bhbh2rcd13ifvqepg","pricing_plan_id":"free"},{"bike_id":"5c169501-3e07-45d0-9892-d4316f86d9ed","system_id":"levelo_inurba_marseille","lat":43.28409,"lon":5.34994,"is_reserved":false,"is_disabled":false,"rental_uris":{"android":"levelo://app?vid=5c169501-3e07-45d0-9892-d4316f86d9ed","ios":"levelo://app?vid=5c169501-3e07-45d0-9892-d4316f86d9ed"},"vehicle_type_id":"4","last_reported":1691427945,"current_range_meters":31200,"station_id":"ce4bhbh2rcd13ifvqepg","pricing_plan_id":"free"},{"bike_id":"f48fd65e-2eef-45d0-a069-ca664765d97e","system_id":"levelo_inurba_marseille","lat":43.28413,"lon":5.34981,"is_reserved":false,"is_disabled":false,"rental_uris":{"android":"levelo://app?vid=f48fd65e-2eef-45d0-a069-ca664765d97e","ios":"levelo://app?vid=f48fd65e-2eef-45d0-a069-ca664765d97e"},"vehicle_type_id":"4","last_reported":1691427945,"current_range_meters":20800,"station_id":"ce4bhbh2rcd13ifvqepg","pricing_plan_id":"free"},{"bike_id":"d6674b5c-5ba0-4ada-bde9-63d29835dda9","system_id":"levelo_inurba_marseille","lat":43.28411,"lon":5.34983,"is_reserved":false,"is_disabled":false,"rental_uris":{"android":"levelo://app?vid=d6674b5c-5ba0-4ada-bde9-63d29835dda9","ios":"levelo://app?vid=d6674b5c-5ba0-4ada-bde9-63d29835dda9"},"vehicle_type_id":"4","last_reported":1691427945,"current_range_meters":28000,"station_id":"ce4bhbh2rcd13ifvqepg","pricing_plan_id":"free"},{"bike_id":"c915d3a7-853b-4375-9332-76e96ef43a92","system_id":"levelo_inurba_marseille","lat":43.292724,"lon":5.401131,"is_reserved":false,"is_disabled":false,"rental_uris":{"android":"levelo://app?vid=c915d3a7-853b-4375-9332-76e96ef43a92","ios":"levelo://app?vid=c915d3a7-853b-4375-9332-76e96ef43a92"},"vehicle_type_id":"4","last_reported":1691427945,"current_range_meters":13600,"station_id":"ce4bh312rcd13ifvqdk0","pricing_plan_id":"free"},{"bike_id":"0014bb5f-aec9-4526-a227-45f70bf5a002","system_id":"levelo_inurba_marseille","lat":43.292724,"lon":5.401131,"is_reserved":false,"is_disabled":false,"rental_uris":{"android":"levelo://app?vid=0014bb5f-aec9-4526-a227-45f70bf5a002","ios":"levelo://app?vid=0014bb5f-aec9-4526-a227-45f70bf5a002"},"vehicle_type_id":"4","last_reported":1691427945,"current_range_meters":15600,"station_id":"ce4bh312rcd13ifvqdk0","pricing_plan_id":"free"},{"bike_id":"50708475-9872-4149-a633-6672f02210b1","system_id":"levelo_inurba_marseille","lat":43.28289,"lon":5.3508,"is_reserved":false,"is_disabled":false,"rental_uris":{"android":"levelo://app?vid=50708475-9872-4149-a633-6672f02210b1","ios":"levelo://app?vid=50708475-9872-4149-a633-6672f02210b1"},"vehicle_type_id":"4","last_reported":1691427945,"current_range_meters":10800,"station_id":"ce4bhbp2rcd13ifvqerg","pricing_plan_id":"free"},{"bike_id":"831601fa-c484-4bff-99da-e2b2e518b0f5","system_id":"levelo_inurba_marseille","lat":43.28287,"lon":5.35078,"is_reserved":false,"is_disabled":false,"rental_uris":{"android":"levelo://app?vid=831601fa-c484-4bff-99da-e2b2e518b0f5","ios":"levelo://app?vid=831601fa-c484-4bff-99da-e2b2e518b0f5"},"vehicle_type_id":"4","last_reported":1691427945,"current_range_meters":31200,"station_id":"ce4bhbp2rcd13ifvqerg","pricing_plan_id":"free"},{"bike_id":"0be2aa55-979e-4d30-87b1-d73f0793f4cf","system_id":"levelo_inurba_marseille","lat":43.28286,"lon":5.35081,"is_reserved":false,"is_disabled":false,"rental_uris":{"android":"levelo://app?vid=0be2aa55-979e-4d30-87b1-d73f0793f4cf","ios":"levelo://app?vid=0be2aa55-979e-4d30-87b1-d73f0793f4cf"},"vehicle_type_id":"4","last_reported":1691427945,"current_range_meters":18800,"station_id":"ce4bhbp2rcd13ifvqerg","pricing_plan_id":"free"},{"bike_id":"b4267e20-9073-47e3-990e-7c7f0831b71e","system_id":"levelo_inurba_marseille","lat":43.28278,"lon":5.35073,"is_reserved":false,"is_disabled":false,"rental_uris":{"android":"levelo://app?vid=b4267e20-9073-47e3-990e-7c7f0831b71e","ios":"levelo://app?vid=b4267e20-9073-47e3-990e-7c7f0831b71e"},"vehicle_type_id":"4","last_reported":1691427945,"current_range_meters":30800,"station_id":"ce4bhbp2rcd13ifvqerg","pricing_plan_id":"free"},{"bike_id":"d60e3c12-6a6a-40f8-b5b3-473448f2c052","system_id":"levelo_inurba_marseille","lat":43.2828,"lon":5.35061,"is_reserved":false,"is_disabled":false,"rental_uris":{"android":"levelo://app?vid=d60e3c12-6a6a-40f8-b5b3-473448f2c052","ios":"levelo://app?vid=d60e3c12-6a6a-40f8-b5b3-473448f2c052"},"vehicle_type_id":"4","last_reported":1691427945,"current_range_meters":8800,"station_id":"ce4bhbp2rcd13ifvqerg","pricing_plan_id":"free"},{"bike_id":"90c4edc2-59e6-4758-8823-714cb1c81b36","system_id":"levelo_inurba_marseille","lat":43.28279,"lon":5.35063,"is_reserved":false,"is_disabled":false,"rental_uris":{"android":"levelo://app?vid=90c4edc2-59e6-4758-8823-714cb1c81b36","ios":"levelo://app?vid=90c4edc2-59e6-4758-8823-714cb1c81b36"},"vehicle_type_id":"4","last_reported":1691427945,"current_range_meters":9600,"station_id":"ce4bhbp2rcd13ifvqerg","pricing_plan_id":"free"},{"bike_id":"2825ae9f-3839-4dad-bde2-c9261d98582f","system_id":"levelo_inurba_marseille","lat":43.282744,"lon":5.350533,"is_reserved":false,"is_disabled":false,"rental_uris":{"android":"levelo://app?vid=2825ae9f-3839-4dad-bde2-c9261d98582f","ios":"levelo://app?vid=2825ae9f-3839-4dad-bde2-c9261d98582f"},"vehicle_type_id":"4","last_reported":1691427945,"current_range_meters":31200,"station_id":"ce4bhbp2rcd13ifvqerg","pricing_plan_id":"free"},{"bike_id":"88940920-727e-47f8-bee6-24feedff1167","system_id":"levelo_inurba_marseille","lat":43.282744,"lon":5.350533,"is_reserved":false,"is_disabled":false,"rental_uris":{"android":"levelo://app?vid=88940920-727e-47f8-bee6-24feedff1167","ios":"levelo://app?vid=88940920-727e-47f8-bee6-24feedff1167"},"vehicle_type_id":"4","last_reported":1691427945,"current_range_meters":31200,"station_id":"ce4bhbp2rcd13ifvqerg","pricing_plan_id":"free"},{"bike_id":"c134b9b7-fd6c-4c26-b13a-d076ec6d171b","system_id":"levelo_inurba_marseille","lat":43.282744,"lon":5.350533,"is_reserved":false,"is_disabled":false,"rental_uris":{"android":"levelo://app?vid=c134b9b7-fd6c-4c26-b13a-d076ec6d171b","ios":"levelo://app?vid=c134b9b7-fd6c-4c26-b13a-d076ec6d171b"},"vehicle_type_id":"4","last_reported":1691427945,"current_range_meters":31200,"station_id":"ce4bhbp2rcd13ifvqerg","pricing_plan_id":"free"},{"bike_id":"ed696f17-39e6-4de1-ac46-ededa50d553b","system_id":"levelo_inurba_marseille","lat":43.282744,"lon":5.350533,"is_reserved":false,"is_disabled":false,"rental_uris":{"android":"levelo://app?vid=ed696f17-39e6-4de1-ac46-ededa50d553b","ios":"levelo://app?vid=ed696f17-39e6-4de1-ac46-ededa50d553b"},"vehicle_type_id":"4","last_reported":1691427945,"current_range_meters":16400,"station_id":"ce4bhbp2rcd13ifvqerg","pricing_plan_id":"free"},{"bike_id":"67af6996-2eaf-4e8e-816c-285656901d07","system_id":"levelo_inurba_marseille","lat":43.282744,"lon":5.350533,"is_reserved":false,"is_disabled":false,"rental_uris":{"android":"levelo://app?vid=67af6996-2eaf-4e8e-816c-285656901d07","ios":"levelo://app?vid=67af6996-2eaf-4e8e-816c-285656901d07"},"vehicle_type_id":"4","last_reported":1691427945,"current_range_meters":9600,"station_id":"ce4bhbp2rcd13ifvqerg","pricing_plan_id":"free"},{"bike_id":"239bd376-1a50-4e6a-ba23-6c9c2bff92e1","system_id":"levelo_inurba_marseille","lat":43.28041,"lon":5.36935,"is_reserved":false,"is_disabled":false,"rental_uris":{"android":"levelo://app?vid=239bd376-1a50-4e6a-ba23-6c9c2bff92e1","ios":"levelo://app?vid=239bd376-1a50-4e6a-ba23-6c9c2bff92e1"},"vehicle_type_id":"4","last_reported":1691427945,"current_range_meters":23200,"station_id":"ce4bha12rcd13ifvqef0","pricing_plan_id":"free"},{"bike_id":"57268649-0f2e-4949-8a73-c8872d0e49f3","system_id":"levelo_inurba_marseille","lat":43.28036,"lon":5.36945,"is_reserved":false,"is_disabled":false,"rental_uris":{"android":"levelo://app?vid=57268649-0f2e-4949-8a73-c8872d0e49f3","ios":"levelo://app?vid=57268649-0f2e-4949-8a73-c8872d0e49f3"},"vehicle_type_id":"4","last_reported":1691427945,"current_range_meters":7600,"station_id":"","pricing_plan_id":"free"},{"bike_id":"9d9a7449-1382-43c0-be53-4ad61c1d3fd4","system_id":"levelo_inurba_marseille","lat":43.280382,"lon":5.369291,"is_reserved":false,"is_disabled":false,"rental_uris":{"android":"levelo://app?vid=9d9a7449-1382-43c0-be53-4ad61c1d3fd4","ios":"levelo://app?vid=9d9a7449-1382-43c0-be53-4ad61c1d3fd4"},"vehicle_type_id":"4","last_reported":1691427945,"current_range_meters":0,"station_id":"ce4bha12rcd13ifvqef0","pricing_plan_id":"free"},{"bike_id":"b2d03303-d257-4e2b-b76b-9e58fccd9b4d","system_id":"levelo_inurba_marseille","lat":43.32632,"lon":5.40936,"is_reserved":false,"is_disabled":false,"rental_uris":{"android":"levelo://app?vid=b2d03303-d257-4e2b-b76b-9e58fccd9b4d","ios":"levelo://app?vid=b2d03303-d257-4e2b-b76b-9e58fccd9b4d"},"vehicle_type_id":"4","last_reported":1691427945,"current_range_meters":9600,"station_id":"","pricing_plan_id":"free"},{"bike_id":"46c47a7e-699f-49c0-9c54-e7fb08d7bb6f","system_id":"levelo_inurba_marseille","lat":43.284462,"lon":5.392121,"is_reserved":false,"is_disabled":false,"rental_uris":{"android":"levelo://app?vid=46c47a7e-699f-49c0-9c54-e7fb08d7bb6f","ios":"levelo://app?vid=46c47a7e-699f-49c0-9c54-e7fb08d7bb6f"},"vehicle_type_id":"4","last_reported":1691427945,"current_range_meters":13600,"station_id":"ce4bhoh2rcd13ifvqh5g","pricing_plan_id":"free"},{"bike_id":"8a72f798-3b61-4365-bdf5-62c42611d638","system_id":"levelo_inurba_marseille","lat":43.32656,"lon":5.40987,"is_reserved":false,"is_disabled":false,"rental_uris":{"android":"levelo://app?vid=8a72f798-3b61-4365-bdf5-62c42611d638","ios":"levelo://app?vid=8a72f798-3b61-4365-bdf5-62c42611d638"},"vehicle_type_id":"4","last_reported":1691427945,"current_range_meters":10000,"station_id":"ce4bhpp2rcd13ifvqhgg","pricing_plan_id":"free"},{"bike_id":"bf8fdc47-8b76-4a2e-9be6-4788e5f55516","system_id":"levelo_inurba_marseille","lat":43.326605,"lon":5.409903,"is_reserved":false,"is_disabled":false,"rental_uris":{"android":"levelo://app?vid=bf8fdc47-8b76-4a2e-9be6-4788e5f55516","ios":"levelo://app?vid=bf8fdc47-8b76-4a2e-9be6-4788e5f55516"},"vehicle_type_id":"4","last_reported":1691427945,"current_range_meters":3600,"station_id":"ce4bhpp2rcd13ifvqhgg","pricing_plan_id":"free"},{"bike_id":"045bfddd-6cf9-400c-b2ae-f1238b992e27","system_id":"levelo_inurba_marseille","lat":43.32656,"lon":5.40992,"is_reserved":false,"is_disabled":false,"rental_uris":{"android":"levelo://app?vid=045bfddd-6cf9-400c-b2ae-f1238b992e27","ios":"levelo://app?vid=045bfddd-6cf9-400c-b2ae-f1238b992e27"},"vehicle_type_id":"4","last_reported":1691427945,"current_range_meters":30000,"station_id":"ce4bhpp2rcd13ifvqhgg","pricing_plan_id":"free"},{"bike_id":"14710d1e-aabe-4ea7-8004-5aa31b3cae3e","system_id":"levelo_inurba_marseille","lat":43.326605,"lon":5.409903,"is_reserved":false,"is_disabled":false,"rental_uris":{"android":"levelo://app?vid=14710d1e-aabe-4ea7-8004-5aa31b3cae3e","ios":"levelo://app?vid=14710d1e-aabe-4ea7-8004-5aa31b3cae3e"},"vehicle_type_id":"4","last_reported":1691427945,"current_range_meters":24400,"station_id":"ce4bhpp2rcd13ifvqhgg","pricing_plan_id":"free"},{"bike_id":"accd64b8-2260-42e6-b34d-0ff84bb86893","system_id":"levelo_inurba_marseille","lat":43.32656,"lon":5.40999,"is_reserved":false,"is_disabled":false,"rental_uris":{"android":"levelo://app?vid=accd64b8-2260-42e6-b34d-0ff84bb86893","ios":"levelo://app?vid=accd64b8-2260-42e6-b34d-0ff84bb86893"},"vehicle_type_id":"4","last_reported":1691427945,"current_range_meters":21200,"station_id":"ce4bhpp2rcd13ifvqhgg","pricing_plan_id":"free"},{"bike_id":"e40fc3b8-98dc-40b6-88d8-bbc19414cb90","system_id":"levelo_inurba_marseille","lat":43.326658,"lon":5.409938,"is_reserved":false,"is_disabled":false,"rental_uris":{"android":"levelo://app?vid=e40fc3b8-98dc-40b6-88d8-bbc19414cb90","ios":"levelo://app?vid=e40fc3b8-98dc-40b6-88d8-bbc19414cb90"},"vehicle_type_id":"4","last_reported":1691427945,"current_range_meters":6800,"station_id":"","pricing_plan_id":"free"},{"bike_id":"001e3895-dcca-436d-8647-ea41e39b6e5d","system_id":"levelo_inurba_marseille","lat":43.29169,"lon":5.40417,"is_reserved":false,"is_disabled":false,"rental_uris":{"android":"levelo://app?vid=001e3895-dcca-436d-8647-ea41e39b6e5d","ios":"levelo://app?vid=001e3895-dcca-436d-8647-ea41e39b6e5d"},"vehicle_type_id":"4","last_reported":1691427945,"current_range_meters":24000,"station_id":"","pricing_plan_id":"free"},{"bike_id":"565c252e-5507-49bc-a704-9d16ff8cd1c1","system_id":"levelo_inurba_marseille","lat":43.299579,"lon":5.413255,"is_reserved":false,"is_disabled":false,"rental_uris":{"android":"levelo://app?vid=565c252e-5507-49bc-a704-9d16ff8cd1c1","ios":"levelo://app?vid=565c252e-5507-49bc-a704-9d16ff8cd1c1"},"vehicle_type_id":"4","last_reported":1691427945,"current_range_meters":31200,"station_id":"ce4bhp12rcd13ifvqh9g","pricing_plan_id":"free"},{"bike_id":"5e33eaad-96a1-4f45-ae6e-fc888ee45a2f","system_id":"levelo_inurba_marseille","lat":43.299579,"lon":5.413068,"is_reserved":false,"is_disabled":false,"rental_uris":{"android":"levelo://app?vid=5e33eaad-96a1-4f45-ae6e-fc888ee45a2f","ios":"levelo://app?vid=5e33eaad-96a1-4f45-ae6e-fc888ee45a2f"},"vehicle_type_id":"4","last_reported":1691427945,"current_range_meters":4000,"station_id":"","pricing_plan_id":"free"},{"bike_id":"b61a045f-4bed-43e3-9bc3-1b5b64581f4b","system_id":"levelo_inurba_marseille","lat":43.320045,"lon":5.415046,"is_reserved":false,"is_disabled":false,"rental_uris":{"android":"levelo://app?vid=b61a045f-4bed-43e3-9bc3-1b5b64581f4b","ios":"levelo://app?vid=b61a045f-4bed-43e3-9bc3-1b5b64581f4b"},"vehicle_type_id":"4","last_reported":1691427945,"current_range_meters":31600,"station_id":"ce4bhq92rcd13ifvqhkg","pricing_plan_id":"free"},{"bike_id":"27f5aac6-d8e1-4a02-87b3-607a4cf39cab","system_id":"levelo_inurba_marseille","lat":43.320045,"lon":5.415046,"is_reserved":false,"is_disabled":false,"rental_uris":{"android":"levelo://app?vid=27f5aac6-d8e1-4a02-87b3-607a4cf39cab","ios":"levelo://app?vid=27f5aac6-d8e1-4a02-87b3-607a4cf39cab"},"vehicle_type_id":"4","last_reported":1691427945,"current_range_meters":31600,"station_id":"ce4bhq92rcd13ifvqhkg","pricing_plan_id":"free"},{"bike_id":"4b52bb74-8b04-49cf-84c7-e858cffecf92","system_id":"levelo_inurba_marseille","lat":43.320045,"lon":5.415046,"is_reserved":false,"is_disabled":false,"rental_uris":{"android":"levelo://app?vid=4b52bb74-8b04-49cf-84c7-e858cffecf92","ios":"levelo://app?vid=4b52bb74-8b04-49cf-84c7-e858cffecf92"},"vehicle_type_id":"4","last_reported":1691427945,"current_range_meters":31600,"station_id":"ce4bhq92rcd13ifvqhkg","pricing_plan_id":"free"},{"bike_id":"fca57ec6-648c-4b7c-aba8-325c18d937f0","system_id":"levelo_inurba_marseille","lat":43.320045,"lon":5.415046,"is_reserved":false,"is_disabled":false,"rental_uris":{"android":"levelo://app?vid=fca57ec6-648c-4b7c-aba8-325c18d937f0","ios":"levelo://app?vid=fca57ec6-648c-4b7c-aba8-325c18d937f0"},"vehicle_type_id":"4","last_reported":1691427945,"current_range_meters":14800,"station_id":"ce4bhq92rcd13ifvqhkg","pricing_plan_id":"free"},{"bike_id":"9b4f9449-4798-4fde-a7bf-53432cbf9ae4","system_id":"levelo_inurba_marseille","lat":43.320045,"lon":5.415046,"is_reserved":false,"is_disabled":false,"rental_uris":{"android":"levelo://app?vid=9b4f9449-4798-4fde-a7bf-53432cbf9ae4","ios":"levelo://app?vid=9b4f9449-4798-4fde-a7bf-53432cbf9ae4"},"vehicle_type_id":"4","last_reported":1691427945,"current_range_meters":32000,"station_id":"ce4bhq92rcd13ifvqhkg","pricing_plan_id":"free"},{"bike_id":"8fdfd881-3d13-490f-900f-00607f6b3f51","system_id":"levelo_inurba_marseille","lat":43.320045,"lon":5.415046,"is_reserved":false,"is_disabled":false,"rental_uris":{"android":"levelo://app?vid=8fdfd881-3d13-490f-900f-00607f6b3f51","ios":"levelo://app?vid=8fdfd881-3d13-490f-900f-00607f6b3f51"},"vehicle_type_id":"4","last_reported":1691427945,"current_range_meters":31600,"station_id":"ce4bhq92rcd13ifvqhkg","pricing_plan_id":"free"},{"bike_id":"72e98432-397a-44d0-835e-de943382dde5","system_id":"levelo_inurba_marseille","lat":43.299577,"lon":5.413277,"is_reserved":false,"is_disabled":false,"rental_uris":{"android":"levelo://app?vid=72e98432-397a-44d0-835e-de943382dde5","ios":"levelo://app?vid=72e98432-397a-44d0-835e-de943382dde5"},"vehicle_type_id":"4","last_reported":1691427945,"current_range_meters":18800,"station_id":"ce4bhp12rcd13ifvqh9g","pricing_plan_id":"free"},{"bike_id":"a4e74975-0e5e-4750-8194-b56f0944f975","system_id":"levelo_inurba_marseille","lat":43.320045,"lon":5.415048,"is_reserved":false,"is_disabled":false,"rental_uris":{"android":"levelo://app?vid=a4e74975-0e5e-4750-8194-b56f0944f975","ios":"levelo://app?vid=a4e74975-0e5e-4750-8194-b56f0944f975"},"vehicle_type_id":"4","last_reported":1691427945,"current_range_meters":31200,"station_id":"ce4bhq92rcd13ifvqhkg","pricing_plan_id":"free"},{"bike_id":"c327718a-8fe6-4791-a349-aba0f8f94e82","system_id":"levelo_inurba_marseille","lat":43.279742,"lon":5.38744,"is_reserved":false,"is_disabled":false,"rental_uris":{"android":"levelo://app?vid=c327718a-8fe6-4791-a349-aba0f8f94e82","ios":"levelo://app?vid=c327718a-8fe6-4791-a349-aba0f8f94e82"},"vehicle_type_id":"4","last_reported":1691427945,"current_range_meters":30800,"station_id":"ce4bhg12rcd13ifvqf80","pricing_plan_id":"free"},{"bike_id":"b516ef53-1641-45ad-bf20-d0e03bbc7496","system_id":"levelo_inurba_marseille","lat":43.320045,"lon":5.415046,"is_reserved":false,"is_disabled":false,"rental_uris":{"android":"levelo://app?vid=b516ef53-1641-45ad-bf20-d0e03bbc7496","ios":"levelo://app?vid=b516ef53-1641-45ad-bf20-d0e03bbc7496"},"vehicle_type_id":"4","last_reported":1691427945,"current_range_meters":31200,"station_id":"ce4bhq92rcd13ifvqhkg","pricing_plan_id":"free"},{"bike_id":"7dcb829f-36ed-4c8e-a31f-e7a5303f5cc1","system_id":"levelo_inurba_marseille","lat":43.320045,"lon":5.415046,"is_reserved":false,"is_disabled":false,"rental_uris":{"android":"levelo://app?vid=7dcb829f-36ed-4c8e-a31f-e7a5303f5cc1","ios":"levelo://app?vid=7dcb829f-36ed-4c8e-a31f-e7a5303f5cc1"},"vehicle_type_id":"4","last_reported":1691427945,"current_range_meters":31200,"station_id":"ce4bhq92rcd13ifvqhkg","pricing_plan_id":"free"},{"bike_id":"6ee9dafb-417d-45b1-b315-7741823c9499","system_id":"levelo_inurba_marseille","lat":43.292571,"lon":5.409107,"is_reserved":false,"is_disabled":false,"rental_uris":{"android":"levelo://app?vid=6ee9dafb-417d-45b1-b315-7741823c9499","ios":"levelo://app?vid=6ee9dafb-417d-45b1-b315-7741823c9499"},"vehicle_type_id":"4","last_reported":1691427945,"current_range_meters":25600,"station_id":"ce4bh192rcd13ifvqdc0","pricing_plan_id":"free"},{"bike_id":"b49c10cb-6aac-4921-a46b-991fcdbf2211","system_id":"levelo_inurba_marseille","lat":43.292569,"lon":5.409107,"is_reserved":false,"is_disabled":false,"rental_uris":{"android":"levelo://app?vid=b49c10cb-6aac-4921-a46b-991fcdbf2211","ios":"levelo://app?vid=b49c10cb-6aac-4921-a46b-991fcdbf2211"},"vehicle_type_id":"4","last_reported":1691427945,"current_range_meters":21600,"station_id":"ce4bh192rcd13ifvqdc0","pricing_plan_id":"free"},{"bike_id":"63dc5c0f-df33-424e-80ec-5690bbc032de","system_id":"levelo_inurba_marseille","lat":43.292569,"lon":5.409107,"is_reserved":false,"is_disabled":false,"rental_uris":{"android":"levelo://app?vid=63dc5c0f-df33-424e-80ec-5690bbc032de","ios":"levelo://app?vid=63dc5c0f-df33-424e-80ec-5690bbc032de"},"vehicle_type_id":"4","last_reported":1691427945,"current_range_meters":10400,"station_id":"ce4bh192rcd13ifvqdc0","pricing_plan_id":"free"},{"bike_id":"5d97c225-d000-4c93-9a3e-62afb7b6b29d","system_id":"levelo_inurba_marseille","lat":43.325233,"lon":5.414318,"is_reserved":false,"is_disabled":false,"rental_uris":{"android":"levelo://app?vid=5d97c225-d000-4c93-9a3e-62afb7b6b29d","ios":"levelo://app?vid=5d97c225-d000-4c93-9a3e-62afb7b6b29d"},"vehicle_type_id":"4","last_reported":1691427945,"current_range_meters":28400,"station_id":"ce4bhq12rcd13ifvqhhg","pricing_plan_id":"free"},{"bike_id":"4b4e4d94-ae04-498d-b8e5-ff686e766c1d","system_id":"levelo_inurba_marseille","lat":43.276179,"lon":5.361009,"is_reserved":false,"is_disabled":false,"rental_uris":{"android":"levelo://app?vid=4b4e4d94-ae04-498d-b8e5-ff686e766c1d","ios":"levelo://app?vid=4b4e4d94-ae04-498d-b8e5-ff686e766c1d"},"vehicle_type_id":"4","last_reported":1691427945,"current_range_meters":0,"station_id":"ce4bgj92rcd13ifvqbe0","pricing_plan_id":"free"},{"bike_id":"b17b164c-cd6a-4f74-bf9e-c8f18f849bdc","system_id":"levelo_inurba_marseille","lat":43.32545,"lon":5.4144,"is_reserved":false,"is_disabled":false,"rental_uris":{"android":"levelo://app?vid=b17b164c-cd6a-4f74-bf9e-c8f18f849bdc","ios":"levelo://app?vid=b17b164c-cd6a-4f74-bf9e-c8f18f849bdc"},"vehicle_type_id":"4","last_reported":1691427945,"current_range_meters":12000,"station_id":"ce4bhq12rcd13ifvqhhg","pricing_plan_id":"free"},{"bike_id":"386ed8e3-b71e-4f68-86af-202c5b76503e","system_id":"levelo_inurba_marseille","lat":43.276179,"lon":5.361009,"is_reserved":false,"is_disabled":false,"rental_uris":{"android":"levelo://app?vid=386ed8e3-b71e-4f68-86af-202c5b76503e","ios":"levelo://app?vid=386ed8e3-b71e-4f68-86af-202c5b76503e"},"vehicle_type_id":"4","last_reported":1691427945,"current_range_meters":23200,"station_id":"ce4bgj92rcd13ifvqbe0","pricing_plan_id":"free"},{"bike_id":"fc7c7247-d658-42cc-b53c-a68902f3c3cb","system_id":"levelo_inurba_marseille","lat":43.280784,"lon":5.396622,"is_reserved":false,"is_disabled":false,"rental_uris":{"android":"levelo://app?vid=fc7c7247-d658-42cc-b53c-a68902f3c3cb","ios":"levelo://app?vid=fc7c7247-d658-42cc-b53c-a68902f3c3cb"},"vehicle_type_id":"4","last_reported":1691427945,"current_range_meters":20000,"station_id":"ce4bho12rcd13ifvqh2g","pricing_plan_id":"free"},{"bike_id":"35ee3846-7b5c-4ddd-ad1b-906df3a2ee93","system_id":"levelo_inurba_marseille","lat":43.27381,"lon":5.36253,"is_reserved":false,"is_disabled":false,"rental_uris":{"android":"levelo://app?vid=35ee3846-7b5c-4ddd-ad1b-906df3a2ee93","ios":"levelo://app?vid=35ee3846-7b5c-4ddd-ad1b-906df3a2ee93"},"vehicle_type_id":"4","last_reported":1691427945,"current_range_meters":18000,"station_id":"ce4bhbh2rcd13ifvqeo0","pricing_plan_id":"free"},{"bike_id":"a948f9c6-e688-43ab-a3cf-833c31914359","system_id":"levelo_inurba_marseille","lat":43.2738,"lon":5.3626,"is_reserved":false,"is_disabled":false,"rental_uris":{"android":"levelo://app?vid=a948f9c6-e688-43ab-a3cf-833c31914359","ios":"levelo://app?vid=a948f9c6-e688-43ab-a3cf-833c31914359"},"vehicle_type_id":"4","last_reported":1691427945,"current_range_meters":13600,"station_id":"","pricing_plan_id":"free"},{"bike_id":"135aade6-3653-4363-89d6-75b444e9add0","system_id":"levelo_inurba_marseille","lat":43.273613,"lon":5.362705,"is_reserved":false,"is_disabled":false,"rental_uris":{"android":"levelo://app?vid=135aade6-3653-4363-89d6-75b444e9add0","ios":"levelo://app?vid=135aade6-3653-4363-89d6-75b444e9add0"},"vehicle_type_id":"4","last_reported":1691427945,"current_range_meters":0,"station_id":"ce4bhbh2rcd13ifvqeo0","pricing_plan_id":"free"},{"bike_id":"dda78960-6964-4bdd-9eb3-2d9aac1614c8","system_id":"levelo_inurba_marseille","lat":43.27379,"lon":5.36258,"is_reserved":false,"is_disabled":false,"rental_uris":{"android":"levelo://app?vid=dda78960-6964-4bdd-9eb3-2d9aac1614c8","ios":"levelo://app?vid=dda78960-6964-4bdd-9eb3-2d9aac1614c8"},"vehicle_type_id":"4","last_reported":1691427945,"current_range_meters":31200,"station_id":"ce4bhbh2rcd13ifvqeo0","pricing_plan_id":"free"},{"bike_id":"a93daa77-bcb0-4cc9-9862-b00ec9cafc45","system_id":"levelo_inurba_marseille","lat":43.278399,"lon":5.392139,"is_reserved":false,"is_disabled":false,"rental_uris":{"android":"levelo://app?vid=a93daa77-bcb0-4cc9-9862-b00ec9cafc45","ios":"levelo://app?vid=a93daa77-bcb0-4cc9-9862-b00ec9cafc45"},"vehicle_type_id":"4","last_reported":1691427945,"current_range_meters":6400,"station_id":"ce4bhjp2rcd13ifvqga0","pricing_plan_id":"free"},{"bike_id":"838ff26e-4959-4798-a7c8-25def3cf3271","system_id":"levelo_inurba_marseille","lat":43.273613,"lon":5.362705,"is_reserved":false,"is_disabled":false,"rental_uris":{"android":"levelo://app?vid=838ff26e-4959-4798-a7c8-25def3cf3271","ios":"levelo://app?vid=838ff26e-4959-4798-a7c8-25def3cf3271"},"vehicle_type_id":"4","last_reported":1691427945,"current_range_meters":24800,"station_id":"ce4bhbh2rcd13ifvqeo0","pricing_plan_id":"free"},{"bike_id":"33a31fe9-f336-46a5-b8f7-ebc114419824","system_id":"levelo_inurba_marseille","lat":43.27375,"lon":5.36246,"is_reserved":false,"is_disabled":false,"rental_uris":{"android":"levelo://app?vid=33a31fe9-f336-46a5-b8f7-ebc114419824","ios":"levelo://app?vid=33a31fe9-f336-46a5-b8f7-ebc114419824"},"vehicle_type_id":"4","last_reported":1691427945,"current_range_meters":400,"station_id":"ce4bhbh2rcd13ifvqeo0","pricing_plan_id":"free"},{"bike_id":"ed771aed-8d13-4de2-8d2c-94c33443233b","system_id":"levelo_inurba_marseille","lat":43.273613,"lon":5.362705,"is_reserved":false,"is_disabled":false,"rental_uris":{"android":"levelo://app?vid=ed771aed-8d13-4de2-8d2c-94c33443233b","ios":"levelo://app?vid=ed771aed-8d13-4de2-8d2c-94c33443233b"},"vehicle_type_id":"4","last_reported":1691427945,"current_range_meters":31200,"station_id":"ce4bhbh2rcd13ifvqeo0","pricing_plan_id":"free"},{"bike_id":"52ec5ada-69ad-4587-aa63-ed2c73791bbf","system_id":"levelo_inurba_marseille","lat":43.273613,"lon":5.362705,"is_reserved":false,"is_disabled":false,"rental_uris":{"android":"levelo://app?vid=52ec5ada-69ad-4587-aa63-ed2c73791bbf","ios":"levelo://app?vid=52ec5ada-69ad-4587-aa63-ed2c73791bbf"},"vehicle_type_id":"4","last_reported":1691427945,"current_range_meters":31200,"station_id":"ce4bhbh2rcd13ifvqeo0","pricing_plan_id":"free"},{"bike_id":"3f9ca6ef-3a16-4e67-972a-cee5835e31e5","system_id":"levelo_inurba_marseille","lat":43.273613,"lon":5.362705,"is_reserved":false,"is_disabled":false,"rental_uris":{"android":"levelo://app?vid=3f9ca6ef-3a16-4e67-972a-cee5835e31e5","ios":"levelo://app?vid=3f9ca6ef-3a16-4e67-972a-cee5835e31e5"},"vehicle_type_id":"4","last_reported":1691427945,"current_range_meters":31200,"station_id":"ce4bhbh2rcd13ifvqeo0","pricing_plan_id":"free"},{"bike_id":"0c922946-fbcd-4d44-8abe-fc5957f50737","system_id":"levelo_inurba_marseille","lat":43.275625,"lon":5.384392,"is_reserved":false,"is_disabled":false,"rental_uris":{"android":"levelo://app?vid=0c922946-fbcd-4d44-8abe-fc5957f50737","ios":"levelo://app?vid=0c922946-fbcd-4d44-8abe-fc5957f50737"},"vehicle_type_id":"4","last_reported":1691427945,"current_range_meters":2000,"station_id":"ce4bhh92rcd13ifvqfi0","pricing_plan_id":"free"},{"bike_id":"5f5228e6-f226-4ca1-8a4e-2d448c38d6a6","system_id":"levelo_inurba_marseille","lat":43.275625,"lon":5.384392,"is_reserved":false,"is_disabled":false,"rental_uris":{"android":"levelo://app?vid=5f5228e6-f226-4ca1-8a4e-2d448c38d6a6","ios":"levelo://app?vid=5f5228e6-f226-4ca1-8a4e-2d448c38d6a6"},"vehicle_type_id":"4","last_reported":1691427945,"current_range_meters":7200,"station_id":"ce4bhh92rcd13ifvqfi0","pricing_plan_id":"free"},{"bike_id":"40159999-7ffe-498f-a2a9-750c8fb119e1","system_id":"levelo_inurba_marseille","lat":43.336134,"lon":5.410341,"is_reserved":false,"is_disabled":false,"rental_uris":{"android":"levelo://app?vid=40159999-7ffe-498f-a2a9-750c8fb119e1","ios":"levelo://app?vid=40159999-7ffe-498f-a2a9-750c8fb119e1"},"vehicle_type_id":"4","last_reported":1691427945,"current_range_meters":19600,"station_id":"ce4bhqh2rcd13ifvqhmg","pricing_plan_id":"free"},{"bike_id":"6a9aeeab-f53f-4cda-84a2-d4fc5f659cd5","system_id":"levelo_inurba_marseille","lat":43.33612,"lon":5.410321,"is_reserved":false,"is_disabled":false,"rental_uris":{"android":"levelo://app?vid=6a9aeeab-f53f-4cda-84a2-d4fc5f659cd5","ios":"levelo://app?vid=6a9aeeab-f53f-4cda-84a2-d4fc5f659cd5"},"vehicle_type_id":"4","last_reported":1691427945,"current_range_meters":3200,"station_id":"ce4bhqh2rcd13ifvqhmg","pricing_plan_id":"free"},{"bike_id":"a56c53d4-408f-4676-b032-a77656331880","system_id":"levelo_inurba_marseille","lat":43.317121,"lon":5.423936,"is_reserved":false,"is_disabled":false,"rental_uris":{"android":"levelo://app?vid=a56c53d4-408f-4676-b032-a77656331880","ios":"levelo://app?vid=a56c53d4-408f-4676-b032-a77656331880"},"vehicle_type_id":"4","last_reported":1691427945,"current_range_meters":8800,"station_id":"ce4bhp92rcd13ifvqhbg","pricing_plan_id":"free"},{"bike_id":"08e7d110-1261-45ec-ba50-d34309f98668","system_id":"levelo_inurba_marseille","lat":43.31713,"lon":5.42398,"is_reserved":false,"is_disabled":false,"rental_uris":{"android":"levelo://app?vid=08e7d110-1261-45ec-ba50-d34309f98668","ios":"levelo://app?vid=08e7d110-1261-45ec-ba50-d34309f98668"},"vehicle_type_id":"4","last_reported":1691427945,"current_range_meters":26400,"station_id":"","pricing_plan_id":"free"},