{"last_updated":1723284567,"ttl":30,"version":"2.2","data":{"bikes":[{"bike_id":"d9c00a51-27af-491a-aa4e-61e24ca51e4f","system_id":"levelo_inurba_marseille","lat":43.312239,"lon":5.368562,"is_reserved":false,"is_disabled":false,"rental_uris":{"android":"levelo://app?vid=d9c00a51-27af-491a-aa4e-61e24ca51e4f","ios":"levelo://app?vid=d9c00a51-27af-491a-aa4e-61e24ca51e4f"},"vehicle_type_id":"4","last_reported":1723284567,"current_range_meters":3200,"station_id":"ce4bgl92rcd13ifvqbq0","pricing_plan_id":"cebpf4jnsgd1na2vs0mg"},{"bike_id":"134f2a4e-31f8-4c42-9099-d59546d982de","system_id":"levelo_inurba_marseille","lat":43.312239,"lon":5.368562,"is_reserved":false,"is_disabled":false,"rental_uris":{"android":"levelo://app?vid=134f2a4e-31f8-4c42-9099-d59546d982de","ios":"levelo://app?vid=134f2a4e-31f8-4c42-9099-d59546d982de"},"vehicle_type_id":"4","last_reported":1723284567,"current_range_meters":7600,"station_id":"ce4bgl92rcd13ifvqbq0","pricing_plan_id":"cebpf4jnsgd1na2vs0mg"},{"bike_id":"f82e57b8-fbbe-4adc-b87c-a8ef90fbbc7f","system_id":"levelo_inurba_marseille","lat":43.31495,"lon":5.37294,"is_reserved":false,"is_disabled":false,"rental_uris":{"android":"levelo://app?vid=f82e57b8-fbbe-4adc-b87c-a8ef90fbbc7f","ios":"levelo://app?vid=f82e57b8-fbbe-4adc-b87c-a8ef90fbbc7f"},"vehicle_type_id":"4","last_reported":1723284567,"current_range_meters":5200,"station_id":"ce4bgt12rcd13ifvqcd0","pricing_plan_id":"cebpf4jnsgd1na2vs0mg"},{"bike_id":"dceb7393-da0f-449c-abe1-ce72972c64b4","system_id":"levelo_inurba_marseille","lat":43.315686,"lon":5.372364,"is_reserved":false,"is_disabled":false,"rental_uris":{"android":"levelo://app?vid=dceb7393-da0f-449c-abe1-ce72972c64b4","ios":"levelo://app?vid=dceb7393-da0f-449c-abe1-ce72972c64b4"},"vehicle_type_id":"4","last_reported":1723284567,"current_range_meters":5200,"station_id":"","pricing_plan_id":"cebpf4jnsgd1na2vs0mg"},{"bike_id":"04205170-01ab-4094-ae69-0a74150a8209","system_id":"levelo_inurba_marseille","lat":43.314811,"lon":5.373104,"is_reserved":false,"is_disabled":false,"rental_uris":{"android":"levelo://app?vid=04205170-01ab-4094-ae69-0a74150a8209","ios":"levelo://app?vid=04205170-01ab-4094-ae69-0a74150a8209"},"vehicle_type_id":"4","last_reported":1723284567,"current_range_meters":30000,"station_id":"ce4bgt12rcd13ifvqcd0","pricing_plan_id":"cebpf4jnsgd1na2vs0mg"},{"bike_id":"4f17fca9-d0b6-48b5-8094-ea8901223f7a","system_id":"levelo_inurba_marseille","lat":43.309039,"lon":5.371797,"is_reserved":false,"is_disabled":false,"rental_uris":{"android":"levelo://app?vid=4f17fca9-d0b6-48b5-8094-ea8901223f7a","ios":"levelo://app?vid=4f17fca9-d0b6-48b5-8094-ea8901223f7a"},"vehicle_type_id":"4","last_reported":1723284567,"current_range_meters":24800,"station_id":"ce4bguh2rcd13ifvqckg","pricing_plan_id":"cebpf4jnsgd1na2vs0mg"},{"bike_id":"6e286676-a536-4e68-9a98-704c4fd65197","system_id":"levelo_inurba_marseille","lat":43.309034,"lon":5.371783,"is_reserved":false,"is_disabled":false,"rental_uris":{"android":"levelo://app?vid=6e286676-a536-4e68-9a98-704c4fd65197","ios":"levelo://app?vid=6e286676-a536-4e68-9a98-704c4fd65197"},"vehicle_type_id":"4","last_reported":1723284567,"current_range_meters":26000,"station_id":"ce4bguh2rcd13ifvqckg","pricing_plan_id":"cebpf4jnsgd1na2vs0mg"},{"bike_id":"a819206d-a57c-487c-8b46-6b1806e6fc09","system_id":"levelo_inurba_marseille","lat":43.305706,"lon":5.365654,"is_reserved":false,"is_disabled":false,"rental_uris":{"android":"levelo://app?vid=a819206d-a57c-487c-8b46-6b1806e6fc09","ios":"levelo://app?vid=a819206d-a57c-487c-8b46-6b1806e6fc09"},"vehicle_type_id":"4","last_reported":1723284567,"current_range_meters":4000,"station_id":"ce4bgs12rcd13ifvqcag","pricing_plan_id":"cebpf4jnsgd1na2vs0mg"},{"bike_id":"1719979f-b5fa-4608-acb2-6b69960a04fe","system_id":"levelo_inurba_marseille","lat":43.30537,"lon":5.367345,"is_reserved":false,"is_disabled":false,"rental_uris":{"android":"levelo://app?vid=1719979f-b5fa-4608-acb2-6b69960a04fe","ios":"levelo://app?vid=1719979f-b5fa-4608-acb2-6b69960a04fe"},"vehicle_type_id":"4","last_reported":1723284567,"current_range_meters":30000,"station_id":"ce4bgrp2rcd13ifvqc9g","pricing_plan_id":"cebpf4jnsgd1na2vs0mg"},{"bike_id":"500821be-ccb5-4169-8895-faa398ae6266","system_id":"levelo_inurba_marseille","lat":43.305712,"lon":5.365641,"is_reserved":false,"is_disabled":false,"rental_uris":{"android":"levelo://app?vid=500821be-ccb5-4169-8895-faa398ae6266","ios":"levelo://app?vid=500821be-ccb5-4169-8895-faa398ae6266"},"vehicle_type_id":"4","last_reported":1723284567,"current_range_meters":14800,"station_id":"ce4bgs12rcd13ifvqcag","pricing_plan_id":"cebpf4jnsgd1na2vs0mg"},{"bike_id":"6c817fd9-02ca-421e-8513-0a7496a5a2b9","system_id":"levelo_inurba_marseille","lat":43.305567,"lon":5.365583,"is_reserved":false,"is_disabled":false,"rental_uris":{"android":"levelo://app?vid=6c817fd9-02ca-421e-8513-0a7496a5a2b9","ios":"levelo://app?vid=6c817fd9-02ca-421e-8513-0a7496a5a2b9"},"vehicle_type_id":"4","last_reported":1723284567,"current_range_meters":6000,"station_id":"ce4bgs12rcd13ifvqcag","pricing_plan_id":"cebpf4jnsgd1na2vs0mg"},{"bike_id":"b7e5d15c-e1a9-4758-a665-ba8cce1fa3e6","system_id":"levelo_inurba_marseille","lat":43.305712,"lon":5.365641,"is_reserved":false,"is_disabled":false,"rental_uris":{"android":"levelo://app?vid=b7e5d15c-e1a9-4758-a665-ba8cce1fa3e6","ios":"levelo://app?vid=b7e5d15c-e1a9-4758-a665-ba8cce1fa3e6"},"vehicle_type_id":"4","last_reported":1723284567,"current_range_meters":22400,"station_id":"ce4bgs12rcd13ifvqcag","pricing_plan_id":"cebpf4jnsgd1na2vs0mg"},{"bike_id":"a19fc82c-4d43-40f3-a089-4ea82d941216","system_id":"levelo_inurba_marseille","lat":43.305368,"lon":5.367343,"is_reserved":false,"is_disabled":false,"rental_uris":{"android":"levelo://app?vid=a19fc82c-4d43-40f3-a089-4ea82d941216","ios":"levelo://app?vid=a19fc82c-4d43-40f3-a089-4ea82d941216"},"vehicle_type_id":"4","last_reported":1723284567,"current_range_meters":20800,"station_id":"ce4bgrp2rcd13ifvqc9g","pricing_plan_id":"cebpf4jnsgd1na2vs0mg"},{"bike_id":"3baf2230-a8ee-4b96-92ec-b21b6239e794","system_id":"levelo_inurba_marseille","lat":43.305714,"lon":5.365633,"is_reserved":false,"is_disabled":false,"rental_uris":{"android":"levelo://app?vid=3baf2230-a8ee-4b96-92ec-b21b6239e794","ios":"levelo://app?vid=3baf2230-a8ee-4b96-92ec-b21b6239e794"},"vehicle_type_id":"4","last_reported":1723284567,"current_range_meters":7200,"station_id":"ce4bgs12rcd13ifvqcag","pricing_plan_id":"cebpf4jnsgd1na2vs0mg"},{"bike_id":"7e43af63-c5f2-412e-9330-e02727ec6bb5","system_id":"levelo_inurba_marseille","lat":43.305368,"lon":5.367343,"is_reserved":false,"is_disabled":false,"rental_uris":{"android":"levelo://app?vid=7e43af63-c5f2-412e-9330-e02727ec6bb5","ios":"levelo://app?vid=7e43af63-c5f2-412e-9330-e02727ec6bb5"},"vehicle_type_id":"4","last_reported":1723284567,"current_range_meters":31600,"station_id":"ce4bgrp2rcd13ifvqc9g","pricing_plan_id":"cebpf4jnsgd1na2vs0mg"},{"bike_id":"3e371c44-29f3-440a-aec5-1bc722a3f4d7","system_id":"levelo_inurba_marseille","lat":43.305706,"lon":5.365654,"is_reserved":false,"is_disabled":false,"rental_uris":{"android":"levelo://app?vid=3e371c44-29f3-440a-aec5-1bc722a3f4d7","ios":"levelo://app?vid=3e371c44-29f3-440a-aec5-1bc722a3f4d7"},"vehicle_type_id":"4","last_reported":1723284567,"current_range_meters":18800,"station_id":"ce4bgs12rcd13ifvqcag","pricing_plan_id":"cebpf4jnsgd1na2vs0mg"},{"bike_id":"a9aea219-fb27-406e-b56f-1eb7d95560f5","system_id":"levelo_inurba_marseille","lat":43.305714,"lon":5.365633,"is_reserved":false,"is_disabled":false,"rental_uris":{"android":"levelo://app?vid=a9aea219-fb27-406e-b56f-1eb7d95560f5","ios":"levelo://app?vid=a9aea219-fb27-406e-b56f-1eb7d95560f5"},"vehicle_type_id":"4","last_reported":1723284567,"current_range_meters":5600,"station_id":"ce4bgs12rcd13ifvqcag","pricing_plan_id":"cebpf4jnsgd1na2vs0mg"},{"bike_id":"579a79c6-c31b-4d08-be74-addc798c4507","system_id":"levelo_inurba_marseille","lat":43.30543,"lon":5.36541,"is_reserved":false,"is_disabled":false,"rental_uris":{"android":"levelo://app?vid=579a79c6-c31b-4d08-be74-addc798c4507","ios":"levelo://app?vid=579a79c6-c31b-4d08-be74-addc798c4507"},"vehicle_type_id":"4","last_reported":1723284567,"current_range_meters":22800,"station_id":"ce4bgs12rcd13ifvqcag","pricing_plan_id":"cebpf4jnsgd1na2vs0mg"},{"bike_id":"23eb4d4d-0c7d-4642-89fd-34f15d9f42d0","system_id":"levelo_inurba_marseille","lat":43.305714,"lon":5.365633,"is_reserved":false,"is_disabled":false,"rental_uris":{"android":"levelo://app?vid=23eb4d4d-0c7d-4642-89fd-34f15d9f42d0","ios":"levelo://app?vid=23eb4d4d-0c7d-4642-89fd-34f15d9f42d0"},"vehicle_type_id":"4","last_reported":1723284567,"current_range_meters":28400,"station_id":"ce4bgs12rcd13ifvqcag","pricing_plan_id":"cebpf4jnsgd1na2vs0mg"},{"bike_id":"40dd708f-1563-45ec-a17a-e844ad7f7362","system_id":"levelo_inurba_marseille","lat":43.305706,"lon":5.365654,"is_reserved":false,"is_disabled":false,"rental_uris":{"android":"levelo://app?vid=40dd708f-1563-45ec-a17a-e844ad7f7362","ios":"levelo://app?vid=40dd708f-1563-45ec-a17a-e844ad7f7362"},"vehicle_type_id":"4","last_reported":1723284567,"current_range_meters":11600,"station_id":"ce4bgs12rcd13ifvqcag","pricing_plan_id":"cebpf4jnsgd1na2vs0mg"},{"bike_id":"2c38964e-01ae-4b6b-bc72-fb776c391592","system_id":"levelo_inurba_marseille","lat":43.305368,"lon":5.367343,"is_reserved":false,"is_disabled":false,"rental_uris":{"android":"levelo://app?vid=2c38964e-01ae-4b6b-bc72-fb776c391592","ios":"levelo://app?vid=2c38964e-01ae-4b6b-bc72-fb776c391592"},"vehicle_type_id":"4","last_reported":1723284567,"current_range_meters":26800,"station_id":"ce4bgrp2rcd13ifvqc9g","pricing_plan_id":"cebpf4jnsgd1na2vs0mg"},{"bike_id":"47a56d62-cb73-48dc-af2e-6c6f9fef01c7","system_id":"levelo_inurba_marseille","lat":43.305368,"lon":5.367343,"is_reserved":false,"is_disabled":false,"rental_uris":{"android":"levelo://app?vid=47a56d62-cb73-48dc-af2e-6c6f9fef01c7","ios":"levelo://app?vid=47a56d62-cb73-48dc-af2e-6c6f9fef01c7"},"vehicle_type_id":"4","last_reported":1723284567,"current_range_meters":12000,"station_id":"ce4bgrp2rcd13ifvqc9g","pricing_plan_id":"cebpf4jnsgd1na2vs0mg"},{"bike_id":"868f46b2-0c19-4454-a1b2-b1200edd5198","system_id":"levelo_inurba_marseille","lat":43.305706,"lon":5.365654,"is_reserved":false,"is_disabled":false,"rental_uris":{"android":"levelo://app?vid=868f46b2-0c19-4454-a1b2-b1200edd5198","ios":"levelo://app?vid=868f46b2-0c19-4454-a1b2-b1200edd5198"},"vehicle_type_id":"4","last_reported":1723284567,"current_range_meters":31600,"station_id":"ce4bgs12rcd13ifvqcag","pricing_plan_id":"cebpf4jnsgd1na2vs0mg"},{"bike_id":"3b3efac0-cfed-497f-82d0-03ebc1e98558","system_id":"levelo_inurba_marseille","lat":43.30605,"lon":5.37228,"is_reserved":false,"is_disabled":false,"rental_uris":{"android":"levelo://app?vid=3b3efac0-cfed-497f-82d0-03ebc1e98558","ios":"levelo://app?vid=3b3efac0-cfed-497f-82d0-03ebc1e98558"},"vehicle_type_id":"4","last_reported":1723284567,"current_range_meters":7600,"station_id":"ce4bgqh2rcd13ifvqc4g","pricing_plan_id":"cebpf4jnsgd1na2vs0mg"},{"bike_id":"d5661e93-8c32-4943-8830-488f7b7b012a","system_id":"levelo_inurba_marseille","lat":43.30604,"lon":5.37226,"is_reserved":false,"is_disabled":false,"rental_uris":{"android":"levelo://app?vid=d5661e93-8c32-4943-8830-488f7b7b012a","ios":"levelo://app?vid=d5661e93-8c32-4943-8830-488f7b7b012a"},"vehicle_type_id":"4","last_reported":1723284567,"current_range_meters":26800,"station_id":"ce4bgqh2rcd13ifvqc4g","pricing_plan_id":"cebpf4jnsgd1na2vs0mg"},{"bike_id":"f263c195-dd8a-43da-afa7-9f585102c646","system_id":"levelo_inurba_marseille","lat":43.305989,"lon":5.37225,"is_reserved":false,"is_disabled":false,"rental_uris":{"android":"levelo://app?vid=f263c195-dd8a-43da-afa7-9f585102c646","ios":"levelo://app?vid=f263c195-dd8a-43da-afa7-9f585102c646"},"vehicle_type_id":"4","last_reported":1723284567,"current_range_meters":12800,"station_id":"ce4bgqh2rcd13ifvqc4g","pricing_plan_id":"cebpf4jnsgd1na2vs0mg"},{"bike_id":"ff54e85a-aafb-4f8b-b401-2460adc244fa","system_id":"levelo_inurba_marseille","lat":43.305989,"lon":5.37225,"is_reserved":false,"is_disabled":false,"rental_uris":{"android":"levelo://app?vid=ff54e85a-aafb-4f8b-b401-2460adc244fa","ios":"levelo://app?vid=ff54e85a-aafb-4f8b-b401-2460adc244fa"},"vehicle_type_id":"4","last_reported":1723284567,"current_range_meters":27600,"station_id":"ce4bgqh2rcd13ifvqc4g","pricing_plan_id":"cebpf4jnsgd1na2vs0mg"},{"bike_id":"b1ea9073-18cd-483a-8e57-1fad63d72614","system_id":"levelo_inurba_marseille","lat":43.311125,"lon":5.377624,"is_reserved":false,"is_disabled":false,"rental_uris":{"android":"levelo://app?vid=b1ea9073-18cd-483a-8e57-1fad63d72614","ios":"levelo://app?vid=b1ea9073-18cd-483a-8e57-1fad63d72614"},"vehicle_type_id":"4","last_reported":1723284567,"current_range_meters":1200,"station_id":"ce4bgt92rcd13ifvqcg0","pricing_plan_id":"cebpf4jnsgd1na2vs0mg"},{"bike_id":"43427424-80c5-404c-b08a-8091cb3f08bd","system_id":"levelo_inurba_marseille","lat":43.311125,"lon":5.377624,"is_reserved":false,"is_disabled":false,"rental_uris":{"android":"levelo://app?vid=43427424-80c5-404c-b08a-8091cb3f08bd","ios":"levelo://app?vid=43427424-80c5-404c-b08a-8091cb3f08bd"},"vehicle_type_id":"4","last_reported":1723284567,"current_range_meters":26400,"station_id":"ce4bgt92rcd13ifvqcg0","pricing_plan_id":"cebpf4jnsgd1na2vs0mg"},{"bike_id":"9e7a22c7-d932-46ea-bf4e-d974d90b1286","system_id":"levelo_inurba_marseille","lat":43.307945,"lon":5.376487,"is_reserved":false,"is_disabled":false,"rental_uris":{"android":"levelo://app?vid=9e7a22c7-d932-46ea-bf4e-d974d90b1286","ios":"levelo://app?vid=9e7a22c7-d932-46ea-bf4e-d974d90b1286"},"vehicle_type_id":"4","last_reported":1723284567,"current_range_meters":5200,"station_id":"ce4bgv92rcd13ifvqcq0","pricing_plan_id":"cebpf4jnsgd1na2vs0mg"},{"bike_id":"9a59e50b-d238-410b-a5e6-20c33b7f24a9","system_id":"levelo_inurba_marseille","lat":43.308012,"lon":5.381511,"is_reserved":false,"is_disabled":false,"rental_uris":{"android":"levelo://app?vid=9a59e50b-d238-410b-a5e6-20c33b7f24a9","ios":"levelo://app?vid=9a59e50b-d238-410b-a5e6-20c33b7f24a9"},"vehicle_type_id":"4","last_reported":1723284567,"current_range_meters":10000,"station_id":"ce4bgt12rcd13ifvqce0","pricing_plan_id":"cebpf4jnsgd1na2vs0mg"},{"bike_id":"192bc778-be1f-402d-b1df-16d7172e5519","system_id":"levelo_inurba_marseille","lat":43.31359,"lon":5.38283,"is_reserved":false,"is_disabled":false,"rental_uris":{"android":"levelo://app?vid=192bc778-be1f-402d-b1df-16d7172e5519","ios":"levelo://app?vid=192bc778-be1f-402d-b1df-16d7172e5519"},"vehicle_type_id":"4","last_reported":1723284567,"current_range_meters":1200,"station_id":"","pricing_plan_id":"cebpf4jnsgd1na2vs0mg"},{"bike_id":"7bfe33dd-1a97-41b4-94f2-90e6d533c7bc","system_id":"levelo_inurba_marseille","lat":43.308012,"lon":5.381511,"is_reserved":false,"is_disabled":false,"rental_uris":{"android":"levelo://app?vid=7bfe33dd-1a97-41b4-94f2-90e6d533c7bc","ios":"levelo://app?vid=7bfe33dd-1a97-41b4-94f2-90e6d533c7bc"},"vehicle_type_id":"4","last_reported":1723284567,"current_range_meters":4000,"station_id":"ce4bgt12rcd13ifvqce0","pricing_plan_id":"cebpf4jnsgd1na2vs0mg"},{"bike_id":"470e62f3-043f-40d8-856f-d8b837719837","system_id":"levelo_inurba_marseille","lat":43.304606,"lon":5.379026,"is_reserved":false,"is_disabled":false,"rental_uris":{"android":"levelo://app?vid=470e62f3-043f-40d8-856f-d8b837719837","ios":"levelo://app?vid=470e62f3-043f-40d8-856f-d8b837719837"},"vehicle_type_id":"4","last_reported":1723284567,"current_range_meters":8000,"station_id":"ce4bgup2rcd13ifvqcn0","pricing_plan_id":"cebpf4jnsgd1na2vs0mg"},{"bike_id":"e3213418-2571-4f9e-9aa1-3383f44e1522","system_id":"levelo_inurba_marseille","lat":43.304606,"lon":5.379026,"is_reserved":false,"is_disabled":false,"rental_uris":{"android":"levelo://app?vid=e3213418-2571-4f9e-9aa1-3383f44e1522","ios":"levelo://app?vid=e3213418-2571-4f9e-9aa1-3383f44e1522"},"vehicle_type_id":"4","last_reported":1723284567,"current_range_meters":31200,"station_id":"ce4bgup2rcd13ifvqcn0","pricing_plan_id":"cebpf4jnsgd1na2vs0mg"},{"bike_id":"3461321c-5221-4d00-ab76-0081a31ceb8a","system_id":"levelo_inurba_marseille","lat":43.304606,"lon":5.379026,"is_reserved":false,"is_disabled":false,"rental_uris":{"android":"levelo://app?vid=3461321c-5221-4d00-ab76-0081a31ceb8a","ios":"levelo://app?vid=3461321c-5221-4d00-ab76-0081a31ceb8a"},"vehicle_type_id":"4","last_reported":1723284567,"current_range_meters":31600,"station_id":"ce4bgup2rcd13ifvqcn0","pricing_plan_id":"cebpf4jnsgd1na2vs0mg"},{"bike_id":"e96338a7-8e50-4fbb-9c05-d195118e45ec","system_id":"levelo_inurba_marseille","lat":43.304606,"lon":5.379026,"is_reserved":false,"is_disabled":false,"rental_uris":{"android":"levelo://app?vid=e96338a7-8e50-4fbb-9c05-d195118e45ec","ios":"levelo://app?vid=e96338a7-8e50-4fbb-9c05-d195118e45ec"},"vehicle_type_id":"4","last_reported":1723284567,"current_range_meters":22000,"station_id":"ce4bgup2rcd13ifvqcn0","pricing_plan_id":"cebpf4jnsgd1na2vs0mg"},{"bike_id":"ca758db3-78a8-4e51-9654-3aa1b605a433","system_id":"levelo_inurba_marseille","lat":43.304606,"lon":5.379026,"is_reserved":false,"is_disabled":false,"rental_uris":{"android":"levelo://app?vid=ca758db3-78a8-4e51-9654-3aa1b605a433","ios":"levelo://app?vid=ca758db3-78a8-4e51-9654-3aa1b605a433"},"vehicle_type_id":"4","last_reported":1723284567,"current_range_meters":28400,"station_id":"ce4bgup2rcd13ifvqcn0","pricing_plan_id":"cebpf4jnsgd1na2vs0mg"},{"bike_id":"a5bf73d9-f4a6-4560-b5dd-1ae1cc281b04","system_id":"levelo_inurba_marseille","lat":43.304606,"lon":5.379026,"is_reserved":false,"is_disabled":false,"rental_uris":{"android":"levelo://app?vid=a5bf73d9-f4a6-4560-b5dd-1ae1cc281b04","ios":"levelo://app?vid=a5bf73d9-f4a6-4560-b5dd-1ae1cc281b04"},"vehicle_type_id":"4","last_reported":1723284567,"current_range_meters":10800,"station_id":"ce4bgup2rcd13ifvqcn0","pricing_plan_id":"cebpf4jnsgd1na2vs0mg"},{"bike_id":"d25f941e-3ce6-45a9-86c5-5d36fbd36951","system_id":"levelo_inurba_marseille","lat":43.304606,"lon":5.379026,"is_reserved":false,"is_disabled":false,"rental_uris":{"android":"levelo://app?vid=d25f941e-3ce6-45a9-86c5-5d36fbd36951","ios":"levelo://app?vid=d25f941e-3ce6-45a9-86c5-5d36fbd36951"},"vehicle_type_id":"4","last_reported":1723284567,"current_range_meters":27200,"station_id":"ce4bgup2rcd13ifvqcn0","pricing_plan_id":"cebpf4jnsgd1na2vs0mg"},{"bike_id":"0d02d481-c5ab-4771-888c-3d10ed2eea58","system_id":"levelo_inurba_marseille","lat":43.304606,"lon":5.379026,"is_reserved":false,"is_disabled":false,"rental_uris":{"android":"levelo://app?vid=0d02d481-c5ab-4771-888c-3d10ed2eea58","ios":"levelo://app?vid=0d02d481-c5ab-4771-888c-3d10ed2eea58"},"vehicle_type_id":"4","last_reported":1723284567,"current_range_meters":30800,"station_id":"ce4bgup2rcd13ifvqcn0","pricing_plan_id":"cebpf4jnsgd1na2vs0mg"},{"bike_id":"02705155-ff23-49b6-b07a-f522c9c34be3","system_id":"levelo_inurba_marseille","lat":43.304606,"lon":5.379026,"is_reserved":false,"is_disabled":false,"rental_uris":{"android":"levelo://app?vid=02705155-ff23-49b6-b07a-f522c9c34be3","ios":"levelo://app?vid=02705155-ff23-49b6-b07a-f522c9c34be3"},"vehicle_type_id":"4","last_reported":1723284567,"current_range_meters":31600,"station_id":"ce4bgup2rcd13ifvqcn0","pricing_plan_id":"cebpf4jnsgd1na2vs0mg"},{"bike_id":"280ab239-34c8-47a7-b78f-a0dc72e5ac5b","system_id":"levelo_inurba_marseille","lat":43.304606,"lon":5.379026,"is_reserved":false,"is_disabled":false,"rental_uris":{"android":"levelo://app?vid=280ab239-34c8-47a7-b78f-a0dc72e5ac5b","ios":"levelo://app?vid=280ab239-34c8-47a7-b78f-a0dc72e5ac5b"},"vehicle_type_id":"4","last_reported":1723284567,"current_range_meters":16800,"station_id":"ce4bgup2rcd13ifvqcn0","pricing_plan_id":"cebpf4jnsgd1na2vs0mg"},{"bike_id":"ca40185a-78fd-4df5-a9ea-db25aa86630b","system_id":"levelo_inurba_marseille","lat":43.304606,"lon":5.379026,"is_reserved":false,"is_disabled":false,"rental_uris":{"android":"levelo://app?vid=ca40185a-78fd-4df5-a9ea-db25aa86630b","ios":"levelo://app?vid=ca40185a-78fd-4df5-a9ea-db25aa86630b"},"vehicle_type_id":"4","last_reported":1723284567,"current_range_meters":28000,"station_id":"ce4bgup2rcd13ifvqcn0","pricing_plan_id":"cebpf4jnsgd1na2vs0mg"},{"bike_id":"b02d4154-9408-45a2-9880-c5901a591aec","system_id":"levelo_inurba_marseille","lat":43.304606,"lon":5.379026,"is_reserved":false,"is_disabled":false,"rental_uris":{"android":"levelo://app?vid=b02d4154-9408-45a2-9880-c5901a591aec","ios":"levelo://app?vid=b02d4154-9408-45a2-9880-c5901a591aec"},"vehicle_type_id":"4","last_reported":1723284567,"current_range_meters":31600,"station_id":"ce4bgup2rcd13ifvqcn0","pricing_plan_id":"cebpf4jnsgd1na2vs0mg"},{"bike_id":"88609de2-69df-4d61-9dba-dc654c6db5a2","system_id":"levelo_inurba_marseille","lat":43.324771,"lon":5.36557,"is_reserved":false,"is_disabled":false,"rental_uris":{"android":"levelo://app?vid=88609de2-69df-4d61-9dba-dc654c6db5a2","ios":"levelo://app?vid=88609de2-69df-4d61-9dba-dc654c6db5a2"},"vehicle_type_id":"4","last_reported":1723284567,"current_range_meters":20000,"station_id":"ce4bhs12rcd13ifvqhvg","pricing_plan_id":"cebpf4jnsgd1na2vs0mg"},{"bike_id":"eee0473b-958b-40b7-bb28-c27772b76968","system_id":"levelo_inurba_marseille","lat":43.324771,"lon":5.36557,"is_reserved":false,"is_disabled":false,"rental_uris":{"android":"levelo://app?vid=eee0473b-958b-40b7-bb28-c27772b76968","ios":"levelo://app?vid=eee0473b-958b-40b7-bb28-c27772b76968"},"vehicle_type_id":"4","last_reported":1723284567,"current_range_meters":28800,"station_id":"ce4bhs12rcd13ifvqhvg","pricing_plan_id":"cebpf4jnsgd1na2vs0mg"},{"bike_id":"22266331-20d1-4504-b1b6-0929e521c8df","system_id":"levelo_inurba_marseille","lat":43.324795,"lon":5.365524,"is_reserved":false,"is_disabled":false,"rental_uris":{"android":"levelo://app?vid=22266331-20d1-4504-b1b6-0929e521c8df","ios":"levelo://app?vid=22266331-20d1-4504-b1b6-0929e521c8df"},"vehicle_type_id":"4","last_reported":1723284567,"current_range_meters":30400,"station_id":"ce4bhs12rcd13ifvqhvg","pricing_plan_id":"cebpf4jnsgd1na2vs0mg"},{"bike_id":"65489488-b956-466e-8897-bb951bb935f2","system_id":"levelo_inurba_marseille","lat":43.324771,"lon":5.36557,"is_reserved":false,"is_disabled":false,"rental_uris":{"android":"levelo://app?vid=65489488-b956-466e-8897-bb951bb935f2","ios":"levelo://app?vid=65489488-b956-466e-8897-bb951bb935f2"},"vehicle_type_id":"4","last_reported":1723284567,"current_range_meters":4400,"station_id":"ce4bhs12rcd13ifvqhvg","pricing_plan_id":"cebpf4jnsgd1na2vs0mg"},{"bike_id":"79ffface-54d4-40fb-95c7-8256a85b69f0","system_id":"levelo_inurba_marseille","lat":43.324771,"lon":5.36557,"is_reserved":false,"is_disabled":false,"rental_uris":{"android":"levelo://app?vid=79ffface-54d4-40fb-95c7-8256a85b69f0","ios":"levelo://app?vid=79ffface-54d4-40fb-95c7-8256a85b69f0"},"vehicle_type_id":"4","last_reported":1723284567,"current_range_meters":28400,"station_id":"ce4bhs12rcd13ifvqhvg","pricing_plan_id":"cebpf4jnsgd1na2vs0mg"},{"bike_id":"8c271a0d-a394-4d18-891f-48438409eb3a","system_id":"levelo_inurba_marseille","lat":43.324771,"lon":5.36557,"is_reserved":false,"is_disabled":false,"rental_uris":{"android":"levelo://app?vid=8c271a0d-a394-4d18-891f-48438409eb3a","ios":"levelo://app?vid=8c271a0d-a394-4d18-891f-48438409eb3a"},"vehicle_type_id":"4","last_reported":1723284567,"current_range_meters":16400,"station_id":"ce4bhs12rcd13ifvqhvg","pricing_plan_id":"cebpf4jnsgd1na2vs0mg"},{"bike_id":"a5ad36c9-6631-415b-8e10-7c7e9517d651","system_id":"levelo_inurba_marseille","lat":43.324771,"lon":5.36557,"is_reserved":false,"is_disabled":false,"rental_uris":{"android":"levelo://app?vid=a5ad36c9-6631-415b-8e10-7c7e9517d651","ios":"levelo://app?vid=a5ad36c9-6631-415b-8e10-7c7e9517d651"},"vehicle_type_id":"4","last_reported":1723284567,"current_range_meters":32000,"station_id":"ce4bhs12rcd13ifvqhvg","pricing_plan_id":"cebpf4jnsgd1na2vs0mg"},{"bike_id":"a46b580f-2d89-44fe-a32a-e8d7622bf590","system_id":"levelo_inurba_marseille","lat":43.324771,"lon":5.36557,"is_reserved":false,"is_disabled":false,"rental_uris":{"android":"levelo://app?vid=a46b580f-2d89-44fe-a32a-e8d7622bf590","ios":"levelo://app?vid=a46b580f-2d89-44fe-a32a-e8d7622bf590"},"vehicle_type_id":"4","last_reported":1723284567,"current_range_meters":22400,"station_id":"ce4bhs12rcd13ifvqhvg","pricing_plan_id":"cebpf4jnsgd1na2vs0mg"},{"bike_id":"ad0eded6-3eac-4844-ad57-aaa32c42246e","system_id":"levelo_inurba_marseille","lat":43.324771,"lon":5.36557,"is_reserved":false,"is_disabled":false,"rental_uris":{"android":"levelo://app?vid=ad0eded6-3eac-4844-ad57-aaa32c42246e","ios":"levelo://app?vid=ad0eded6-3eac-4844-ad57-aaa32c42246e"},"vehicle_type_id":"4","last_reported":1723284567,"current_range_meters":24400,"station_id":"ce4bhs12rcd13ifvqhvg","pricing_plan_id":"cebpf4jnsgd1na2vs0mg"},{"bike_id":"1b04ca77-32b9-41cd-8b1e-11ea307a1477","system_id":"levelo_inurba_marseille","lat":43.324771,"lon":5.36557,"is_reserved":false,"is_disabled":false,"rental_uris":{"android":"levelo://app?vid=1b04ca77-32b9-41cd-8b1e-11ea307a1477","ios":"levelo://app?vid=1b04ca77-32b9-41cd-8b1e-11ea307a1477"},"vehicle_type_id":"4","last_reported":1723284567,"current_range_meters":22800,"station_id":"ce4bhs12rcd13ifvqhvg","pricing_plan_id":"cebpf4jnsgd1na2vs0mg"},{"bike_id":"282e32e0-db08-42d5-a972-b34979e8de75","system_id":"levelo_inurba_marseille","lat":43.324771,"lon":5.36557,"is_reserved":false,"is_disabled":false,"rental_uris":{"android":"levelo://app?vid=282e32e0-db08-42d5-a972-b34979e8de75","ios":"levelo://app?vid=282e32e0-db08-42d5-a972-b34979e8de75"},"vehicle_type_id":"4","last_reported":1723284567,"current_range_meters":31200,"station_id":"ce4bhs12rcd13ifvqhvg","pricing_plan_id":"cebpf4jnsgd1na2vs0mg"},{"bike_id":"addba48e-e352-46be-ab8a-741256f4ced7","system_id":"levelo_inurba_marseille","lat":43.324771,"lon":5.36557,"is_reserved":false,"is_disabled":false,"rental_uris":{"android":"levelo://app?vid=addba48e-e352-46be-ab8a-741256f4ced7","ios":"levelo://app?vid=addba48e-e352-46be-ab8a-741256f4ced7"},"vehicle_type_id":"4","last_reported":1723284567,"current_range_meters":16400,"station_id":"ce4bhs12rcd13ifvqhvg","pricing_plan_id":"cebpf4jnsgd1na2vs0mg"},{"bike_id":"8baa4a9e-365a-4164-84d9-420fcfea9904","system_id":"levelo_inurba_marseille","lat":43.302784,"lon":5.377158,"is_reserved":false,"is_disabled":false,"rental_uris":{"android":"levelo://app?vid=8baa4a9e-365a-4164-84d9-420fcfea9904","ios":"levelo://app?vid=8baa4a9e-365a-4164-84d9-420fcfea9904"},"vehicle_type_id":"4","last_reported":1723284567,"current_range_meters":21200,"station_id":"ce4bguh2rcd13ifvqcj0","pricing_plan_id":"cebpf4jnsgd1na2vs0mg"},{"bike_id":"457e3181-7681-4ad4-9e9f-09b046b459de","system_id":"levelo_inurba_marseille","lat":43.319935,"lon":5.381699,"is_reserved":false,"is_disabled":false,"rental_uris":{"android":"levelo://app?vid=457e3181-7681-4ad4-9e9f-09b046b459de","ios":"levelo://app?vid=457e3181-7681-4ad4-9e9f-09b046b459de"},"vehicle_type_id":"4","last_reported":1723284567,"current_range_meters":30800,"station_id":"ce4bhr12rcd13ifvqhpg","pricing_plan_id":"cebpf4jnsgd1na2vs0mg"},{"bike_id":"fb4d6af6-d354-400f-81d9-8bc990cce2b3","system_id":"levelo_inurba_marseille","lat":43.299222,"lon":5.365554,"is_reserved":false,"is_disabled":false,"rental_uris":{"android":"levelo://app?vid=fb4d6af6-d354-400f-81d9-8bc990cce2b3","ios":"levelo://app?vid=fb4d6af6-d354-400f-81d9-8bc990cce2b3"},"vehicle_type_id":"4","last_reported":1723284567,"current_range_meters":16400,"station_id":"ce4bgm92rcd13ifvqbr0","pricing_plan_id":"cebpf4jnsgd1na2vs0mg"},{"bike_id":"dc1a015f-1222-4c5b-8c5e-e8d1923eb6be","system_id":"levelo_inurba_marseille","lat":43.299222,"lon":5.365554,"is_reserved":false,"is_disabled":false,"rental_uris":{"android":"levelo://app?vid=dc1a015f-1222-4c5b-8c5e-e8d1923eb6be","ios":"levelo://app?vid=dc1a015f-1222-4c5b-8c5e-e8d1923eb6be"},"vehicle_type_id":"4","last_reported":1723284567,"current_range_meters":9600,"station_id":"ce4bgm92rcd13ifvqbr0","pricing_plan_id":"cebpf4jnsgd1na2vs0mg"},{"bike_id":"986334d8-5c9c-4eef-916b-bf67ac953610","system_id":"levelo_inurba_marseille","lat":43.299222,"lon":5.365554,"is_reserved":false,"is_disabled":false,"rental_uris":{"android":"levelo://app?vid=986334d8-5c9c-4eef-916b-bf67ac953610","ios":"levelo://app?vid=986334d8-5c9c-4eef-916b-bf67ac953610"},"vehicle_type_id":"4","last_reported":1723284567,"current_range_meters":28000,"station_id":"ce4bgm92rcd13ifvqbr0","pricing_plan_id":"cebpf4jnsgd1na2vs0mg"},{"bike_id":"6100d477-e512-4bc2-bac0-43f8f6cc984f","system_id":"levelo_inurba_marseille","lat":43.299222,"lon":5.365554,"is_reserved":false,"is_disabled":false,"rental_uris":{"android":"levelo://app?vid=6100d477-e512-4bc2-bac0-43f8f6cc984f","ios":"levelo://app?vid=6100d477-e512-4bc2-bac0-43f8f6cc984f"},"vehicle_type_id":"4","last_reported":1723284567,"current_range_meters":26400,"station_id":"ce4bgm92rcd13ifvqbr0","pricing_plan_id":"cebpf4jnsgd1na2vs0mg"},{"bike_id":"84e863ad-e883-4791-9257-e50753c78e31","system_id":"levelo_inurba_marseille","lat":43.299222,"lon":5.365554,"is_reserved":false,"is_disabled":false,"rental_uris":{"android":"levelo://app?vid=84e863ad-e883-4791-9257-e50753c78e31","ios":"levelo://app?vid=84e863ad-e883-4791-9257-e50753c78e31"},"vehicle_type_id":"4","last_reported":1723284567,"current_range_meters":5200,"station_id":"ce4bgm92rcd13ifvqbr0","pricing_plan_id":"cebpf4jnsgd1na2vs0mg"},{"bike_id":"1dd1f4d0-696b-43d6-9cf0-15d40c0c9ac6","system_id":"levelo_inurba_marseille","lat":43.299222,"lon":5.365554,"is_reserved":false,"is_disabled":false,"rental_uris":{"android":"levelo://app?vid=1dd1f4d0-696b-43d6-9cf0-15d40c0c9ac6","ios":"levelo://app?vid=1dd1f4d0-696b-43d6-9cf0-15d40c0c9ac6"},"vehicle_type_id":"4","last_reported":1723284567,"current_range_meters":18800,"station_id":"ce4bgm92rcd13ifvqbr0","pricing_plan_id":"cebpf4jnsgd1na2vs0mg"},{"bike_id":"721a4ae2-247a-4b0b-9045-78e4df21e6a7","system_id":"levelo_inurba_marseille","lat":43.29976,"lon":5.37195,"is_reserved":false,"is_disabled":false,"rental_uris":{"android":"levelo://app?vid=721a4ae2-247a-4b0b-9045-78e4df21e6a7","ios":"levelo://app?vid=721a4ae2-247a-4b0b-9045-78e4df21e6a7"},"vehicle_type_id":"4","last_reported":1723284567,"current_range_meters":26400,"station_id":"ce4bgr92rcd13ifvqc7g","pricing_plan_id":"cebpf4jnsgd1na2vs0mg"},{"bike_id":"a6ee31d7-cb89-4ee8-ab22-a5b92b6284ce","system_id":"levelo_inurba_marseille","lat":43.299222,"lon":5.365554,"is_reserved":false,"is_disabled":false,"rental_uris":{"android":"levelo://app?vid=a6ee31d7-cb89-4ee8-ab22-a5b92b6284ce","ios":"levelo://app?vid=a6ee31d7-cb89-4ee8-ab22-a5b92b6284ce"},"vehicle_type_id":"4","last_reported":1723284567,"current_range_meters":26000,"station_id":"ce4bgm92rcd13ifvqbr0","pricing_plan_id":"cebpf4jnsgd1na2vs0mg"},{"bike_id":"95f8c67f-0e06-49d1-b04c-a28981cff357","system_id":"levelo_inurba_marseille","lat":43.299222,"lon":5.365554,"is_reserved":false,"is_disabled":false,"rental_uris":{"android":"levelo://app?vid=95f8c67f-0e06-49d1-b04c-a28981cff357","ios":"levelo://app?vid=95f8c67f-0e06-49d1-b04c-a28981cff357"},"vehicle_type_id":"4","last_reported":1723284567,"current_range_meters":11600,"station_id":"ce4bgm92rcd13ifvqbr0","pricing_plan_id":"cebpf4jnsgd1na2vs0mg"},{"bike_id":"d8cbfb37-f334-443c-8762-ad38bbc8a8a5","system_id":"levelo_inurba_marseille","lat":43.299222,"lon":5.365554,"is_reserved":false,"is_disabled":false,"rental_uris":{"android":"levelo://app?vid=d8cbfb37-f334-443c-8762-ad38bbc8a8a5","ios":"levelo://app?vid=d8cbfb37-f334-443c-8762-ad38bbc8a8a5"},"vehicle_type_id":"4","last_reported":1723284567,"current_range_meters":25600,"station_id":"ce4bgm92rcd13ifvqbr0","pricing_plan_id":"cebpf4jnsgd1na2vs0mg"},{"bike_id":"5ece2463-a4a9-4cc9-b73d-023d641044d7","system_id":"levelo_inurba_marseille","lat":43.299724,"lon":5.371829,"is_reserved":false,"is_disabled":false,"rental_uris":{"android":"levelo://app?vid=5ece2463-a4a9-4cc9-b73d-023d641044d7","ios":"levelo://app?vid=5ece2463-a4a9-4cc9-b73d-023d641044d7"},"vehicle_type_id":"4","last_reported":1723284567,"current_range_meters":24800,"station_id":"ce4bgr92rcd13ifvqc7g","pricing_plan_id":"cebpf4jnsgd1na2vs0mg"},{"bike_id":"80b1d27d-942b-4f47-9c71-8efa680ce0ab","system_id":"levelo_inurba_marseille","lat":43.299222,"lon":5.365554,"is_reserved":false,"is_disabled":false,"rental_uris":{"android":"levelo://app?vid=80b1d27d-942b-4f47-9c71-8efa680ce0ab","ios":"levelo://app?vid=80b1d27d-942b-4f47-9c71-8efa680ce0ab"},"vehicle_type_id":"4","last_reported":1723284567,"current_range_meters":19200,"station_id":"ce4bgm92rcd13ifvqbr0","pricing_plan_id":"cebpf4jnsgd1na2vs0mg"},{"bike_id":"18081649-b65a-4504-b82d-640352df7f34","system_id":"levelo_inurba_marseille","lat":43.298433,"lon":5.362774,"is_reserved":false,"is_disabled":false,"rental_uris":{"android":"levelo://app?vid=18081649-b65a-4504-b82d-640352df7f34","ios":"levelo://app?vid=18081649-b65a-4504-b82d-640352df7f34"},"vehicle_type_id":"4","last_reported":1723284567,"current_range_meters":26000,"station_id":"ce4bgpp2rcd13ifvqc3g","pricing_plan_id":"cebpf4jnsgd1na2vs0mg"},{"bike_id":"44ed99cc-b651-4b4b-bfd1-3a3b977cdeda","system_id":"levelo_inurba_marseille","lat":43.298433,"lon":5.362774,"is_reserved":false,"is_disabled":false,"rental_uris":{"android":"levelo://app?vid=44ed99cc-b651-4b4b-bfd1-3a3b977cdeda","ios":"levelo://app?vid=44ed99cc-b651-4b4b-bfd1-3a3b977cdeda"},"vehicle_type_id":"4","last_reported":1723284567,"current_range_meters":25200,"station_id":"ce4bgpp2rcd13ifvqc3g","pricing_plan_id":"cebpf4jnsgd1na2vs0mg"},{"bike_id":"f64563a9-d4ec-4299-8948-1542742f4eec","system_id":"levelo_inurba_marseille","lat":43.305364,"lon":5.384119,"is_reserved":false,"is_disabled":false,"rental_uris":{"android":"levelo://app?vid=f64563a9-d4ec-4299-8948-1542742f4eec","ios":"levelo://app?vid=f64563a9-d4ec-4299-8948-1542742f4eec"},"vehicle_type_id":"4","last_reported":1723284567,"current_range_meters":14800,"station_id":"ce4bgg92rcd13ifvqb30","pricing_plan_id":"cebpf4jnsgd1na2vs0mg"},{"bike_id":"3f017d57-2dbf-49fc-937e-ecb7051fd18a","system_id":"levelo_inurba_marseille","lat":43.298433,"lon":5.362774,"is_reserved":false,"is_disabled":false,"rental_uris":{"android":"levelo://app?vid=3f017d57-2dbf-49fc-937e-ecb7051fd18a","ios":"levelo://app?vid=3f017d57-2dbf-49fc-937e-ecb7051fd18a"},"vehicle_type_id":"4","last_reported":1723284567,"current_range_meters":21200,"station_id":"ce4bgpp2rcd13ifvqc3g","pricing_plan_id":"cebpf4jnsgd1na2vs0mg"},{"bike_id":"55d7fc10-200c-4b50-8f00-f341b92ce786","system_id":"levelo_inurba_marseille","lat":43.299243,"lon":5.374807,"is_reserved":false,"is_disabled":false,"rental_uris":{"android":"levelo://app?vid=55d7fc10-200c-4b50-8f00-f341b92ce786","ios":"levelo://app?vid=55d7fc10-200c-4b50-8f00-f341b92ce786"},"vehicle_type_id":"4","last_reported":1723284567,"current_range_meters":7200,"station_id":"ce4bgjh2rcd13ifvqbg0","pricing_plan_id":"cebpf4jnsgd1na2vs0mg"},{"bike_id":"2c05cb8d-d277-481e-b7b1-b6e21992e3cf","system_id":"levelo_inurba_marseille","lat":43.298433,"lon":5.362774,"is_reserved":false,"is_disabled":false,"rental_uris":{"android":"levelo://app?vid=2c05cb8d-d277-481e-b7b1-b6e21992e3cf","ios":"levelo://app?vid=2c05cb8d-d277-481e-b7b1-b6e21992e3cf"},"vehicle_type_id":"4","last_reported":1723284567,"current_range_meters":29600,"station_id":"ce4bgpp2rcd13ifvqc3g","pricing_plan_id":"cebpf4jnsgd1na2vs0mg"},{"bike_id":"c6404903-8345-4644-a154-bc64d2020b42","system_id":"levelo_inurba_marseille","lat":43.298433,"lon":5.362774,"is_reserved":false,"is_disabled":false,"rental_uris":{"android":"levelo://app?vid=c6404903-8345-4644-a154-bc64d2020b42","ios":"levelo://app?vid=c6404903-8345-4644-a154-bc64d2020b42"},"vehicle_type_id":"4","last_reported":1723284567,"current_range_meters":26400,"station_id":"ce4bgpp2rcd13ifvqc3g","pricing_plan_id":"cebpf4jnsgd1na2vs0mg"},{"bike_id":"d773011f-b65d-422b-849a-5ea618617615","system_id":"levelo_inurba_marseille","lat":43.298433,"lon":5.362774,"is_reserved":false,"is_disabled":false,"rental_uris":{"android":"levelo://app?vid=d773011f-b65d-422b-849a-5ea618617615","ios":"levelo://app?vid=d773011f-b65d-422b-849a-5ea618617615"},"vehicle_type_id":"4","last_reported":1723284567,"current_range_meters":28000,"station_id":"ce4bgpp2rcd13ifvqc3g","pricing_plan_id":"cebpf4jnsgd1na2vs0mg"},{"bike_id":"402f28cd-b1ce-4ca9-ac05-8fe05c68a62b","system_id":"levelo_inurba_marseille","lat":43.298433,"lon":5.362774,"is_reserved":false,"is_disabled":false,"rental_uris":{"android":"levelo://app?vid=402f28cd-b1ce-4ca9-ac05-8fe05c68a62b","ios":"levelo://app?vid=402f28cd-b1ce-4ca9-ac05-8fe05c68a62b"},"vehicle_type_id":"4","last_reported":1723284567,"current_range_meters":31200,"station_id":"ce4bgpp2rcd13ifvqc3g","pricing_plan_id":"cebpf4jnsgd1na2vs0mg"},{"bike_id":"b8baac41-f9ea-4efd-814c-50f5e2ba6e39","system_id":"levelo_inurba_marseille","lat":43.305364,"lon":5.384119,"is_reserved":false,"is_disabled":false,"rental_uris":{"android":"levelo://app?vid=b8baac41-f9ea-4efd-814c-50f5e2ba6e39","ios":"levelo://app?vid=b8baac41-f9ea-4efd-814c-50f5e2ba6e39"},"vehicle_type_id":"4","last_reported":1723284567,"current_range_meters":28000,"station_id":"ce4bgg92rcd13ifvqb30","pricing_plan_id":"cebpf4jnsgd1na2vs0mg"},{"bike_id":"6aca5d6d-4f81-4f67-b0b1-7bcc978318b3","system_id":"levelo_inurba_marseille","lat":43.31203,"lon":5.387212,"is_reserved":false,"is_disabled":false,"rental_uris":{"android":"levelo://app?vid=6aca5d6d-4f81-4f67-b0b1-7bcc978318b3","ios":"levelo://app?vid=6aca5d6d-4f81-4f67-b0b1-7bcc978318b3"},"vehicle_type_id":"4","last_reported":1723284567,"current_range_meters":26400,"station_id":"ce4bgv12rcd13ifvqcp0","pricing_plan_id":"cebpf4jnsgd1na2vs0mg"},{"bike_id":"92f6295b-a19a-47e1-a1c1-5df82fd85d06","system_id":"levelo_inurba_marseille","lat":43.311722,"lon":5.387247,"is_reserved":false,"is_disabled":false,"rental_uris":{"android":"levelo://app?vid=92f6295b-a19a-47e1-a1c1-5df82fd85d06","ios":"levelo://app?vid=92f6295b-a19a-47e1-a1c1-5df82fd85d06"},"vehicle_type_id":"4","last_reported":1723284567,"current_range_meters":15200,"station_id":"ce4bgv12rcd13ifvqcp0","pricing_plan_id":"cebpf4jnsgd1na2vs0mg"},{"bike_id":"f96b4b6d-3d52-4219-8976-bab826e9f589","system_id":"levelo_inurba_marseille","lat":43.297794,"lon":5.370888,"is_reserved":false,"is_disabled":false,"rental_uris":{"android":"levelo://app?vid=f96b4b6d-3d52-4219-8976-bab826e9f589","ios":"levelo://app?vid=f96b4b6d-3d52-4219-8976-bab826e9f589"},"vehicle_type_id":"4","last_reported":1723284567,"current_range_meters":2800,"station_id":"ce4bgop2rcd13ifvqc1g","pricing_plan_id":"cebpf4jnsgd1na2vs0mg"},{"bike_id":"6670c5b5-10b7-48d1-8b85-eaf8441c7536","system_id":"levelo_inurba_marseille","lat":43.297774,"lon":5.370875,"is_reserved":false,"is_disabled":false,"rental_uris":{"android":"levelo://app?vid=6670c5b5-10b7-48d1-8b85-eaf8441c7536","ios":"levelo://app?vid=6670c5b5-10b7-48d1-8b85-eaf8441c7536"},"vehicle_type_id":"4","last_reported":1723284567,"current_range_meters":12000,"station_id":"ce4bgop2rcd13ifvqc1g","pricing_plan_id":"cebpf4jnsgd1na2vs0mg"},{"bike_id":"c30afed9-af68-4726-8063-f30054d89dd8","system_id":"levelo_inurba_marseille","lat":43.32288,"lon":5.38257,"is_reserved":false,"is_disabled":false,"rental_uris":{"android":"levelo://app?vid=c30afed9-af68-4726-8063-f30054d89dd8","ios":"levelo://app?vid=c30afed9-af68-4726-8063-f30054d89dd8"},"vehicle_type_id":"4","last_reported":1723284567,"current_range_meters":9600,"station_id":"ce4bhr12rcd13ifvqhqg","pricing_plan_id":"cebpf4jnsgd1na2vs0mg"},{"bike_id":"216240ef-238f-48ba-bd26-5d1c9cf540df","system_id":"levelo_inurba_marseille","lat":43.31456,"lon":5.38784,"is_reserved":false,"is_disabled":false,"rental_uris":{"android":"levelo://app?vid=216240ef-238f-48ba-bd26-5d1c9cf540df","ios":"levelo://app?vid=216240ef-238f-48ba-bd26-5d1c9cf540df"},"vehicle_type_id":"4","last_reported":1723284567,"current_range_meters":1200,"station_id":"","pricing_plan_id":"cebpf4jnsgd1na2vs0mg"},{"bike_id":"435cae36-4ed6-4222-85d4-60949a07cac7","system_id":"levelo_inurba_marseille","lat":43.322905,"lon":5.382694,"is_reserved":false,"is_disabled":false,"rental_uris":{"android":"levelo://app?vid=435cae36-4ed6-4222-85d4-60949a07cac7","ios":"levelo://app?vid=435cae36-4ed6-4222-85d4-60949a07cac7"},"vehicle_type_id":"4","last_reported":1723284567,"current_range_meters":30400,"station_id":"ce4bhr12rcd13ifvqhqg","pricing_plan_id":"cebpf4jnsgd1na2vs0mg"},{"bike_id":"2a1e9806-b2ef-49ba-9af7-2d0df20c945b","system_id":"levelo_inurba_marseille","lat":43.297794,"lon":5.370888,"is_reserved":false,"is_disabled":false,"rental_uris":{"android":"levelo://app?vid=2a1e9806-b2ef-49ba-9af7-2d0df20c945b","ios":"levelo://app?vid=2a1e9806-b2ef-49ba-9af7-2d0df20c945b"},"vehicle_type_id":"4","last_reported":1723284567,"current_range_meters":19600,"station_id":"ce4bgop2rcd13ifvqc1g","pricing_plan_id":"cebpf4jnsgd1na2vs0mg"},{"bike_id":"82f14497-3d6f-4696-b168-54ad0dd479fa","system_id":"levelo_inurba_marseille","lat":43.322858,"lon":5.382776,"is_reserved":false,"is_disabled":false,"rental_uris":{"android":"levelo://app?vid=82f14497-3d6f-4696-b168-54ad0dd479fa","ios":"levelo://app?vid=82f14497-3d6f-4696-b168-54ad0dd479fa"},"vehicle_type_id":"4","last_reported":1723284567,"current_range_meters":31200,"station_id":"ce4bhr12rcd13ifvqhqg","pricing_plan_id":"cebpf4jnsgd1na2vs0mg"},{"bike_id":"35194bdd-0094-40e7-b9a0-7e8e9e1cead9","system_id":"levelo_inurba_marseille","lat":43.322926,"lon":5.38271,"is_reserved":false,"is_disabled":false,"rental_uris":{"android":"levelo://app?vid=35194bdd-0094-40e7-b9a0-7e8e9e1cead9","ios":"levelo://app?vid=35194bdd-0094-40e7-b9a0-7e8e9e1cead9"},"vehicle_type_id":"4","last_reported":1723284567,"current_range_meters":28800,"station_id":"ce4bhr12rcd13ifvqhqg","pricing_plan_id":"cebpf4jnsgd1na2vs0mg"},{"bike_id":"7dc8f205-bc0f-4c93-a972-2621d0b99c1a","system_id":"levelo_inurba_marseille","lat":43.322872,"lon":5.382756,"is_reserved":false,"is_disabled":false,"rental_uris":{"android":"levelo://app?vid=7dc8f205-bc0f-4c93-a972-2621d0b99c1a","ios":"levelo://app?vid=7dc8f205-bc0f-4c93-a972-2621d0b99c1a"},"vehicle_type_id":"4","last_reported":1723284567,"current_range_meters":31200,"station_id":"ce4bhr12rcd13ifvqhqg","pricing_plan_id":"cebpf4jnsgd1na2vs0mg"},{"bike_id":"77a33cde-b291-40c4-bce9-d17120c1e09a","system_id":"levelo_inurba_marseille","lat":43.297774,"lon":5.370875,"is_reserved":false,"is_disabled":false,"rental_uris":{"android":"levelo://app?vid=77a33cde-b291-40c4-bce9-d17120c1e09a","ios":"levelo://app?vid=77a33cde-b291-40c4-bce9-d17120c1e09a"},"vehicle_type_id":"4","last_reported":1723284567,"current_range_meters":6800,"station_id":"ce4bgop2rcd13ifvqc1g","pricing_plan_id":"cebpf4jnsgd1na2vs0mg"},{"bike_id":"b2186dfa-952c-4b55-a1fa-48c7ec4cde3a","system_id":"levelo_inurba_marseille","lat":43.297163,"lon":5.365866,"is_reserved":false,"is_disabled":false,"rental_uris":{"android":"levelo://app?vid=b2186dfa-952c-4b55-a1fa-48c7ec4cde3a","ios":"levelo://app?vid=b2186dfa-952c-4b55-a1fa-48c7ec4cde3a"},"vehicle_type_id":"4","last_reported":1723284567,"current_range_meters":31200,"station_id":"ce4bgn12rcd13ifvqbt0","pricing_plan_id":"cebpf4jnsgd1na2vs0mg"},{"bike_id":"9ea04a7c-e6fd-491b-b40d-c3098b34e87f","system_id":"levelo_inurba_marseille","lat":43.297163,"lon":5.365866,"is_reserved":false,"is_disabled":false,"rental_uris":{"android":"levelo://app?vid=9ea04a7c-e6fd-491b-b40d-c3098b34e87f","ios":"levelo://app?vid=9ea04a7c-e6fd-491b-b40d-c3098b34e87f"},"vehicle_type_id":"4","last_reported":1723284567,"current_range_meters":28000,"station_id":"ce4bgn12rcd13ifvqbt0","pricing_plan_id":"cebpf4jnsgd1na2vs0mg"},{"bike_id":"82283dbf-5f7f-47c0-be83-8f1ac743cb7c","system_id":"levelo_inurba_marseille","lat":43.297163,"lon":5.365866,"is_reserved":false,"is_disabled":false,"rental_uris":{"android":"levelo://app?vid=82283dbf-5f7f-47c0-be83-8f1ac743cb7c","ios":"levelo://app?vid=82283dbf-5f7f-47c0-be83-8f1ac743cb7c"},"vehicle_type_id":"4","last_reported":1723284567,"current_range_meters":28400,"station_id":"ce4bgn12rcd13ifvqbt0","pricing_plan_id":"cebpf4jnsgd1na2vs0mg"},{"bike_id":"8c7d30bf-198e-480c-8549-4973a02ec245","system_id":"levelo_inurba_marseille","lat":43.297163,"lon":5.365866,"is_reserved":false,"is_disabled":false,"rental_uris":{"android":"levelo://app?vid=8c7d30bf-198e-480c-8549-4973a02ec245","ios":"levelo://app?vid=8c7d30bf-198e-480c-8549-4973a02ec245"},"vehicle_type_id":"4","last_reported":1723284567,"current_range_meters":20800,"station_id":"ce4bgn12rcd13ifvqbt0","pricing_plan_id":"cebpf4jnsgd1na2vs0mg"},{"bike_id":"59e4dafb-f2d2-4837-bdfb-4be7dbc0ac70","system_id":"levelo_inurba_marseille","lat":43.297163,"lon":5.365866,"is_reserved":false,"is_disabled":false,"rental_uris":{"android":"levelo://app?vid=59e4dafb-f2d2-4837-bdfb-4be7dbc0ac70","ios":"levelo://app?vid=59e4dafb-f2d2-4837-bdfb-4be7dbc0ac70"},"vehicle_type_id":"4","last_reported":1723284567,"current_range_meters":22400,"station_id":"ce4bgn12rcd13ifvqbt0","pricing_plan_id":"cebpf4jnsgd1na2vs0mg"},{"bike_id":"501987af-622b-43fc-9677-294df046d761","system_id":"levelo_inurba_marseille","lat":43.2968,"lon":5.37291,"is_reserved":false,"is_disabled":false,"rental_uris":{"android":"levelo://app?vid=501987af-622b-43fc-9677-294df046d761","ios":"levelo://app?vid=501987af-622b-43fc-9677-294df046d761"},"vehicle_type_id":"4","last_reported":1723284567,"current_range_meters":14000,"station_id":"ce4bgk12rcd13ifvqbj0","pricing_plan_id":"cebpf4jnsgd1na2vs0mg"},{"bike_id":"d50f1862-8389-4d38-bf69-907f1a57f7b8","system_id":"levelo_inurba_marseille","lat":43.2968,"lon":5.37291,"is_reserved":false,"is_disabled":false,"rental_uris":{"android":"levelo://app?vid=d50f1862-8389-4d38-bf69-907f1a57f7b8","ios":"levelo://app?vid=d50f1862-8389-4d38-bf69-907f1a57f7b8"},"vehicle_type_id":"4","last_reported":1723284567,"current_range_meters":27600,"station_id":"ce4bgk12rcd13ifvqbj0","pricing_plan_id":"cebpf4jnsgd1na2vs0mg"},{"bike_id":"0e7f1d24-5ec2-4bf2-979e-91875786b8df","system_id":"levelo_inurba_marseille","lat":43.2968,"lon":5.37291,"is_reserved":false,"is_disabled":false,"rental_uris":{"android":"levelo://app?vid=0e7f1d24-5ec2-4bf2-979e-91875786b8df","ios":"levelo://app?vid=0e7f1d24-5ec2-4bf2-979e-91875786b8df"},"vehicle_type_id":"4","last_reported":1723284567,"current_range_meters":28400,"station_id":"ce4bgk12rcd13ifvqbj0","pricing_plan_id":"cebpf4jnsgd1na2vs0mg"},{"bike_id":"9c317eac-c7ab-4c89-a13f-153cd8b53a9a","system_id":"levelo_inurba_marseille","lat":43.2968,"lon":5.37291,"is_reserved":false,"is_disabled":false,"rental_uris":{"android":"levelo://app?vid=9c317eac-c7ab-4c89-a13f-153cd8b53a9a","ios":"levelo://app?vid=9c317eac-c7ab-4c89-a13f-153cd8b53a9a"},"vehicle_type_id":"4","last_reported":1723284567,"current_range_meters":3600,"station_id":"ce4bgk12rcd13ifvqbj0","pricing_plan_id":"cebpf4jnsgd1na2vs0mg"},{"bike_id":"e57524ac-8711-45a9-ae27-46baabb57b66","system_id":"levelo_inurba_marseille","lat":43.296131,"lon":5.370791,"is_reserved":false,"is_disabled":false,"rental_uris":{"android":"levelo://app?vid=e57524ac-8711-45a9-ae27-46baabb57b66","ios":"levelo://app?vid=e57524ac-8711-45a9-ae27-46baabb57b66"},"vehicle_type_id":"4","last_reported":1723284567,"current_range_meters":2400,"station_id":"ce4bgnh2rcd13ifvqc0g","pricing_plan_id":"cebpf4jnsgd1na2vs0mg"},{"bike_id":"599ccaf8-26d1-4445-ad1a-5f4812e288ce","system_id":"levelo_inurba_marseille","lat":43.29573,"lon":5.367355,"is_reserved":false,"is_disabled":false,"rental_uris":{"android":"levelo://app?vid=599ccaf8-26d1-4445-ad1a-5f4812e288ce","ios":"levelo://app?vid=599ccaf8-26d1-4445-ad1a-5f4812e288ce"},"vehicle_type_id":"4","last_reported":1723284567,"current_range_meters":6000,"station_id":"ce4bgph2rcd13ifvqc2g","pricing_plan_id":"cebpf4jnsgd1na2vs0mg"},{"bike_id":"1f005626-6d89-49ec-85b9-965bb0322447","system_id":"levelo_inurba_marseille","lat":43.296203,"lon":5.371335,"is_reserved":false,"is_disabled":false,"rental_uris":{"android":"levelo://app?vid=1f005626-6d89-49ec-85b9-965bb0322447","ios":"levelo://app?vid=1f005626-6d89-49ec-85b9-965bb0322447"},"vehicle_type_id":"4","last_reported":1723284567,"current_range_meters":25600,"station_id":"","pricing_plan_id":"cebpf4jnsgd1na2vs0mg"},{"bike_id":"2475cc8d-a311-4d3c-a665-be53e35866a3","system_id":"levelo_inurba_marseille","lat":43.296131,"lon":5.370773,"is_reserved":false,"is_disabled":false,"rental_uris":{"android":"levelo://app?vid=2475cc8d-a311-4d3c-a665-be53e35866a3","ios":"levelo://app?vid=2475cc8d-a311-4d3c-a665-be53e35866a3"},"vehicle_type_id":"4","last_reported":1723284567,"current_range_meters":20000,"station_id":"ce4bgnh2rcd13ifvqc0g","pricing_plan_id":"cebpf4jnsgd1na2vs0mg"},{"bike_id":"d2e59a72-017e-4896-9a72-5173e511c461","system_id":"levelo_inurba_marseille","lat":43.29573,"lon":5.367355,"is_reserved":false,"is_disabled":false,"rental_uris":{"android":"levelo://app?vid=d2e59a72-017e-4896-9a72-5173e511c461","ios":"levelo://app?vid=d2e59a72-017e-4896-9a72-5173e511c461"},"vehicle_type_id":"4","last_reported":1723284567,"current_range_meters":20000,"station_id":"ce4bgph2rcd13ifvqc2g","pricing_plan_id":"cebpf4jnsgd1na2vs0mg"},{"bike_id":"d8fdd0b0-2103-4dde-937a-86549add558b","system_id":"levelo_inurba_marseille","lat":43.29573,"lon":5.367355,"is_reserved":false,"is_disabled":false,"rental_uris":{"android":"levelo://app?vid=d8fdd0b0-2103-4dde-937a-86549add558b","ios":"levelo://app?vid=d8fdd0b0-2103-4dde-937a-86549add558b"},"vehicle_type_id":"4","last_reported":1723284567,"current_range_meters":3600,"station_id":"ce4bgph2rcd13ifvqc2g","pricing_plan_id":"cebpf4jnsgd1na2vs0mg"},{"bike_id":"e608555e-db47-4913-9926-38e43390730a","system_id":"levelo_inurba_marseille","lat":43.29573,"lon":5.367355,"is_reserved":false,"is_disabled":false,"rental_uris":{"android":"levelo://app?vid=e608555e-db47-4913-9926-38e43390730a","ios":"levelo://app?vid=e608555e-db47-4913-9926-38e43390730a"},"vehicle_type_id":"4","last_reported":1723284567,"current_range_meters":25600,"station_id":"ce4bgph2rcd13ifvqc2g","pricing_plan_id":"cebpf4jnsgd1na2vs0mg"},{"bike_id":"045f9d40-d4d5-4025-8f17-49102495d87f","system_id":"levelo_inurba_marseille","lat":43.29573,"lon":5.367355,"is_reserved":false,"is_disabled":false,"rental_uris":{"android":"levelo://app?vid=045f9d40-d4d5-4025-8f17-49102495d87f","ios":"levelo://app?vid=045f9d40-d4d5-4025-8f17-49102495d87f"},"vehicle_type_id":"4","last_reported":1723284567,"current_range_meters":29200,"station_id":"ce4bgph2rcd13ifvqc2g","pricing_plan_id":"cebpf4jnsgd1na2vs0mg"},{"bike_id":"0454fe9e-4b9f-4382-b2bf-efee7499d1c8","system_id":"levelo_inurba_marseille","lat":43.29573,"lon":5.367355,"is_reserved":false,"is_disabled":false,"rental_uris":{"android":"levelo://app?vid=0454fe9e-4b9f-4382-b2bf-efee7499d1c8","ios":"levelo://app?vid=0454fe9e-4b9f-4382-b2bf-efee7499d1c8"},"vehicle_type_id":"4","last_reported":1723284567,"current_range_meters":23200,"station_id":"ce4bgph2rcd13ifvqc2g","pricing_plan_id":"cebpf4jnsgd1na2vs0mg"},{"bike_id":"e606cc9a-72e5-4d10-90ee-17f7d914b857","system_id":"levelo_inurba_marseille","lat":43.299028,"lon":5.381509,"is_reserved":false,"is_disabled":false,"rental_uris":{"android":"levelo://app?vid=e606cc9a-72e5-4d10-90ee-17f7d914b857","ios":"levelo://app?vid=e606cc9a-72e5-4d10-90ee-17f7d914b857"},"vehicle_type_id":"4","last_reported":1723284567,"current_range_meters":2400,"station_id":"ce4bgj12rcd13ifvqbc0","pricing_plan_id":"cebpf4jnsgd1na2vs0mg"},{"bike_id":"cc14703d-0fb4-42ed-af82-c3dfc133aad3","system_id":"levelo_inurba_marseille","lat":43.309589,"lon":5.390258,"is_reserved":false,"is_disabled":false,"rental_uris":{"android":"levelo://app?vid=cc14703d-0fb4-42ed-af82-c3dfc133aad3","ios":"levelo://app?vid=cc14703d-0fb4-42ed-af82-c3dfc133aad3"},"vehicle_type_id":"4","last_reported":1723284567,"current_range_meters":6800,"station_id":"ce4bgup2rcd13ifvqco0","pricing_plan_id":"cebpf4jnsgd1na2vs0mg"},{"bike_id":"6e75dd09-205b-412c-b47f-766d69cf1421","system_id":"levelo_inurba_marseille","lat":43.299028,"lon":5.381509,"is_reserved":false,"is_disabled":false,"rental_uris":{"android":"levelo://app?vid=6e75dd09-205b-412c-b47f-766d69cf1421","ios":"levelo://app?vid=6e75dd09-205b-412c-b47f-766d69cf1421"},"vehicle_type_id":"4","last_reported":1723284567,"current_range_meters":28000,"station_id":"ce4bgj12rcd13ifvqbc0","pricing_plan_id":"cebpf4jnsgd1na2vs0mg"},{"bike_id":"edd2612c-7577-4fbe-aaf2-19de573a8b9f","system_id":"levelo_inurba_marseille","lat":43.309589,"lon":5.390258,"is_reserved":false,"is_disabled":false,"rental_uris":{"android":"levelo://app?vid=edd2612c-7577-4fbe-aaf2-19de573a8b9f","ios":"levelo://app?vid=edd2612c-7577-4fbe-aaf2-19de573a8b9f"},"vehicle_type_id":"4","last_reported":1723284567,"current_range_meters":17200,"station_id":"ce4bgup2rcd13ifvqco0","pricing_plan_id":"cebpf4jnsgd1na2vs0mg"},{"bike_id":"397958ce-a68c-488c-806b-0328e9b865dd","system_id":"levelo_inurba_marseille","lat":43.30955,"lon":5.39025,"is_reserved":false,"is_disabled":false,"rental_uris":{"android":"levelo://app?vid=397958ce-a68c-488c-806b-0328e9b865dd","ios":"levelo://app?vid=397958ce-a68c-488c-806b-0328e9b865dd"},"vehicle_type_id":"4","last_reported":1723284567,"current_range_meters":18000,"station_id":"ce4bgup2rcd13ifvqco0","pricing_plan_id":"cebpf4jnsgd1na2vs0mg"},{"bike_id":"b4ae3890-f605-4546-9521-2827667c595c","system_id":"levelo_inurba_marseille","lat":43.296921,"lon":5.376579,"is_reserved":false,"is_disabled":false,"rental_uris":{"android":"levelo://app?vid=b4ae3890-f605-4546-9521-2827667c595c","ios":"levelo://app?vid=b4ae3890-f605-4546-9521-2827667c595c"},"vehicle_type_id":"4","last_reported":1723284567,"current_range_meters":0,"station_id":"ce4bgkh2rcd13ifvqbl0","pricing_plan_id":"cebpf4jnsgd1na2vs0mg"},{"bike_id":"5002fdf4-9ddf-47ff-916f-547110b50234","system_id":"levelo_inurba_marseille","lat":43.31973,"lon":5.38877,"is_reserved":false,"is_disabled":false,"rental_uris":{"android":"levelo://app?vid=5002fdf4-9ddf-47ff-916f-547110b50234","ios":"levelo://app?vid=5002fdf4-9ddf-47ff-916f-547110b50234"},"vehicle_type_id":"4","last_reported":1723284567,"current_range_meters":6400,"station_id":"","pricing_plan_id":"cebpf4jnsgd1na2vs0mg"},{"bike_id":"7a04d89e-5cd8-4f41-bee9-32599729865d","system_id":"levelo_inurba_marseille","lat":43.309589,"lon":5.390258,"is_reserved":false,"is_disabled":false,"rental_uris":{"android":"levelo://app?vid=7a04d89e-5cd8-4f41-bee9-32599729865d","ios":"levelo://app?vid=7a04d89e-5cd8-4f41-bee9-32599729865d"},"vehicle_type_id":"4","last_reported":1723284567,"current_range_meters":21600,"station_id":"ce4bgup2rcd13ifvqco0","pricing_plan_id":"cebpf4jnsgd1na2vs0mg"},{"bike_id":"57c1254d-cee9-439e-81bc-2fa555d85676","system_id":"levelo_inurba_marseille","lat":43.309589,"lon":5.390258,"is_reserved":false,"is_disabled":false,"rental_uris":{"android":"levelo://app?vid=57c1254d-cee9-439e-81bc-2fa555d85676","ios":"levelo://app?vid=57c1254d-cee9-439e-81bc-2fa555d85676"},"vehicle_type_id":"4","last_reported":1723284567,"current_range_meters":25600,"station_id":"ce4bgup2rcd13ifvqco0","pricing_plan_id":"cebpf4jnsgd1na2vs0mg"},{"bike_id":"58bf4bb6-35db-4178-b88a-e4082560f8a4","system_id":"levelo_inurba_marseille","lat":43.29535,"lon":5.36529,"is_reserved":false,"is_disabled":false,"rental_uris":{"android":"levelo://app?vid=58bf4bb6-35db-4178-b88a-e4082560f8a4","ios":"levelo://app?vid=58bf4bb6-35db-4178-b88a-e4082560f8a4"},"vehicle_type_id":"4","last_reported":1723284567,"current_range_meters":24400,"station_id":"","pricing_plan_id":"cebpf4jnsgd1na2vs0mg"},{"bike_id":"d1c2b95c-6fc1-49e4-8bdc-7f65648f64eb","system_id":"levelo_inurba_marseille","lat":43.296921,"lon":5.376579,"is_reserved":false,"is_disabled":false,"rental_uris":{"android":"levelo://app?vid=d1c2b95c-6fc1-49e4-8bdc-7f65648f64eb","ios":"levelo://app?vid=d1c2b95c-6fc1-49e4-8bdc-7f65648f64eb"},"vehicle_type_id":"4","last_reported":1723284567,"current_range_meters":29200,"station_id":"ce4bgkh2rcd13ifvqbl0","pricing_plan_id":"cebpf4jnsgd1na2vs0mg"},{"bike_id":"e3e896b7-3260-42ee-a2cc-aaab0b46ab74","system_id":"levelo_inurba_marseille","lat":43.3176,"lon":5.39012,"is_reserved":false,"is_disabled":false,"rental_uris":{"android":"levelo://app?vid=e3e896b7-3260-42ee-a2cc-aaab0b46ab74","ios":"levelo://app?vid=e3e896b7-3260-42ee-a2cc-aaab0b46ab74"},"vehicle_type_id":"4","last_reported":1723284567,"current_range_meters":27600,"station_id":"ce4bhqp2rcd13ifvqhng","pricing_plan_id":"cebpf4jnsgd1na2vs0mg"},{"bike_id":"18a48a07-2090-4b1f-8fa3-5de2fac829f6","system_id":"levelo_inurba_marseille","lat":43.29799,"lon":5.38096,"is_reserved":false,"is_disabled":false,"rental_uris":{"android":"levelo://app?vid=18a48a07-2090-4b1f-8fa3-5de2fac829f6","ios":"levelo://app?vid=18a48a07-2090-4b1f-8fa3-5de2fac829f6"},"vehicle_type_id":"4","last_reported":1723284567,"current_range_meters":18400,"station_id":"","pricing_plan_id":"cebpf4jnsgd1na2vs0mg"},{"bike_id":"8a7b7afc-310d-4a61-80a6-9fd0f833a3f6","system_id":"levelo_inurba_marseille","lat":43.29582,"lon":5.37513,"is_reserved":false,"is_disabled":false,"rental_uris":{"android":"levelo://app?vid=8a7b7afc-310d-4a61-80a6-9fd0f833a3f6","ios":"levelo://app?vid=8a7b7afc-310d-4a61-80a6-9fd0f833a3f6"},"vehicle_type_id":"4","last_reported":1723284567,"current_range_meters":7200,"station_id":"ce4bgh92rcd13ifvqb50","pricing_plan_id":"cebpf4jnsgd1na2vs0mg"},{"bike_id":"73c6672c-9e42-4e72-8482-4a561cd8cce7","system_id":"levelo_inurba_marseille","lat":43.29565,"lon":5.3751,"is_reserved":false,"is_disabled":false,"rental_uris":{"android":"levelo://app?vid=73c6672c-9e42-4e72-8482-4a561cd8cce7","ios":"levelo://app?vid=73c6672c-9e42-4e72-8482-4a561cd8cce7"},"vehicle_type_id":"4","last_reported":1723284567,"current_range_meters":27600,"station_id":"ce4bgh92rcd13ifvqb50","pricing_plan_id":"cebpf4jnsgd1na2vs0mg"},{"bike_id":"5db37601-0ec7-4f60-b811-b3a09e1f2f4f","system_id":"levelo_inurba_marseille","lat":43.29564,"lon":5.37509,"is_reserved":false,"is_disabled":false,"rental_uris":{"android":"levelo://app?vid=5db37601-0ec7-4f60-b811-b3a09e1f2f4f","ios":"levelo://app?vid=5db37601-0ec7-4f60-b811-b3a09e1f2f4f"},"vehicle_type_id":"4","last_reported":1723284567,"current_range_meters":15600,"station_id":"ce4bgh92rcd13ifvqb50","pricing_plan_id":"cebpf4jnsgd1na2vs0mg"},{"bike_id":"ecd66854-087a-48b9-b42f-320ee188018f","system_id":"levelo_inurba_marseille","lat":43.29558,"lon":5.37504,"is_reserved":false,"is_disabled":false,"rental_uris":{"android":"levelo://app?vid=ecd66854-087a-48b9-b42f-320ee188018f","ios":"levelo://app?vid=ecd66854-087a-48b9-b42f-320ee188018f"},"vehicle_type_id":"4","last_reported":1723284567,"current_range_meters":8800,"station_id":"ce4bgh92rcd13ifvqb50","pricing_plan_id":"cebpf4jnsgd1na2vs0mg"},{"bike_id":"cc751a65-02c5-438a-8663-7e7a868929ea","system_id":"levelo_inurba_marseille","lat":43.29554,"lon":5.37507,"is_reserved":false,"is_disabled":false,"rental_uris":{"android":"levelo://app?vid=cc751a65-02c5-438a-8663-7e7a868929ea","ios":"levelo://app?vid=cc751a65-02c5-438a-8663-7e7a868929ea"},"vehicle_type_id":"4","last_reported":1723284567,"current_range_meters":22000,"station_id":"ce4bgh92rcd13ifvqb50","pricing_plan_id":"cebpf4jnsgd1na2vs0mg"},{"bike_id":"bad6aca8-cf03-4050-8452-c503871bbd28","system_id":"levelo_inurba_marseille","lat":43.296263,"lon":5.377094,"is_reserved":false,"is_disabled":false,"rental_uris":{"android":"levelo://app?vid=bad6aca8-cf03-4050-8452-c503871bbd28","ios":"levelo://app?vid=bad6aca8-cf03-4050-8452-c503871bbd28"},"vehicle_type_id":"4","last_reported":1723284567,"current_range_meters":25600,"station_id":"ce4bgi92rcd13ifvqb90","pricing_plan_id":"cebpf4jnsgd1na2vs0mg"},{"bike_id":"2e25e56f-aeaa-4f87-9d2b-ec22bb00fb4d","system_id":"levelo_inurba_marseille","lat":43.295279,"lon":5.375048,"is_reserved":false,"is_disabled":false,"rental_uris":{"android":"levelo://app?vid=2e25e56f-aeaa-4f87-9d2b-ec22bb00fb4d","ios":"levelo://app?vid=2e25e56f-aeaa-4f87-9d2b-ec22bb00fb4d"},"vehicle_type_id":"4","last_reported":1723284567,"current_range_meters":5600,"station_id":"ce4bgkp2rcd13ifvqbmg","pricing_plan_id":"cebpf4jnsgd1na2vs0mg"},{"bike_id":"6198890f-cb77-4031-87ef-9fb07e6ac403","system_id":"levelo_inurba_marseille","lat":43.295279,"lon":5.375048,"is_reserved":false,"is_disabled":false,"rental_uris":{"android":"levelo://app?vid=6198890f-cb77-4031-87ef-9fb07e6ac403","ios":"levelo://app?vid=6198890f-cb77-4031-87ef-9fb07e6ac403"},"vehicle_type_id":"4","last_reported":1723284567,"current_range_meters":8800,"station_id":"ce4bgkp2rcd13ifvqbmg","pricing_plan_id":"cebpf4jnsgd1na2vs0mg"},{"bike_id":"e70bd407-90c9-4dc1-93c9-134055341e0c","system_id":"levelo_inurba_marseille","lat":43.295279,"lon":5.375048,"is_reserved":false,"is_disabled":false,"rental_uris":{"android":"levelo://app?vid=e70bd407-90c9-4dc1-93c9-134055341e0c","ios":"levelo://app?vid=e70bd407-90c9-4dc1-93c9-134055341e0c"},"vehicle_type_id":"4","last_reported":1723284567,"current_range_meters":2800,"station_id":"ce4bgkp2rcd13ifvqbmg","pricing_plan_id":"cebpf4jnsgd1na2vs0mg"},{"bike_id":"14ce707b-1eac-4471-af80-fc861df30f9b","system_id":"levelo_inurba_marseille","lat":43.295279,"lon":5.375048,"is_reserved":false,"is_disabled":false,"rental_uris":{"android":"levelo://app?vid=14ce707b-1eac-4471-af80-fc861df30f9b","ios":"levelo://app?vid=14ce707b-1eac-4471-af80-fc861df30f9b"},"vehicle_type_id":"4","last_reported":1723284567,"current_range_meters":19200,"station_id":"ce4bgkp2rcd13ifvqbmg","pricing_plan_id":"cebpf4jnsgd1na2vs0mg"},{"bike_id":"faec983d-f095-4c9a-b83b-212f8037ce2e","system_id":"levelo_inurba_marseille","lat":43.301396,"lon":5.387812,"is_reserved":false,"is_disabled":false,"rental_uris":{"android":"levelo://app?vid=faec983d-f095-4c9a-b83b-212f8037ce2e","ios":"levelo://app?vid=faec983d-f095-4c9a-b83b-212f8037ce2e"},"vehicle_type_id":"4","last_reported":1723284567,"current_range_meters":9200,"station_id":"ce4bghh2rcd13ifvqb60","pricing_plan_id":"cebpf4jnsgd1na2vs0mg"},{"bike_id":"6c8dfafe-8452-4ce3-a9eb-5f55fe4bd590","system_id":"levelo_inurba_marseille","lat":43.301396,"lon":5.387812,"is_reserved":false,"is_disabled":false,"rental_uris":{"android":"levelo://app?vid=6c8dfafe-8452-4ce3-a9eb-5f55fe4bd590","ios":"levelo://app?vid=6c8dfafe-8452-4ce3-a9eb-5f55fe4bd590"},"vehicle_type_id":"4","last_reported":1723284567,"current_range_meters":14400,"station_id":"ce4bghh2rcd13ifvqb60","pricing_plan_id":"cebpf4jnsgd1na2vs0mg"},{"bike_id":"c5db5a32-8c74-48c8-9b07-91b507e11a4d","system_id":"levelo_inurba_marseille","lat":43.301396,"lon":5.387812,"is_reserved":false,"is_disabled":false,"rental_uris":{"android":"levelo://app?vid=c5db5a32-8c74-48c8-9b07-91b507e11a4d","ios":"levelo://app?vid=c5db5a32-8c74-48c8-9b07-91b507e11a4d"},"vehicle_type_id":"4","last_reported":1723284567,"current_range_meters":2800,"station_id":"ce4bghh2rcd13ifvqb60","pricing_plan_id":"cebpf4jnsgd1na2vs0mg"},{"bike_id":"ad431f4c-eb99-4625-a446-e429f4e11853","system_id":"levelo_inurba_marseille","lat":43.32367,"lon":5.38876,"is_reserved":false,"is_disabled":false,"rental_uris":{"android":"levelo://app?vid=ad431f4c-eb99-4625-a446-e429f4e11853","ios":"levelo://app?vid=ad431f4c-eb99-4625-a446-e429f4e11853"},"vehicle_type_id":"4","last_reported":1723284567,"current_range_meters":8400,"station_id":"ce4bhqp2rcd13ifvqhog","pricing_plan_id":"cebpf4jnsgd1na2vs0mg"},{"bike_id":"4385894f-5195-4653-8119-e4750b9f5d33","system_id":"levelo_inurba_marseille","lat":43.32367,"lon":5.388836,"is_reserved":false,"is_disabled":false,"rental_uris":{"android":"levelo://app?vid=4385894f-5195-4653-8119-e4750b9f5d33","ios":"levelo://app?vid=4385894f-5195-4653-8119-e4750b9f5d33"},"vehicle_type_id":"4","last_reported":1723284567,"current_range_meters":4800,"station_id":"ce4bhqp2rcd13ifvqhog","pricing_plan_id":"cebpf4jnsgd1na2vs0mg"},{"bike_id":"eacc1544-06e0-4bf7-bfa1-0fe4e03109d6","system_id":"levelo_inurba_marseille","lat":43.29602,"lon":5.381084,"is_reserved":false,"is_disabled":false,"rental_uris":{"android":"levelo://app?vid=eacc1544-06e0-4bf7-bfa1-0fe4e03109d6","ios":"levelo://app?vid=eacc1544-06e0-4bf7-bfa1-0fe4e03109d6"},"vehicle_type_id":"4","last_reported":1723284567,"current_range_meters":6800,"station_id":"ce4bgl12rcd13ifvqbo0","pricing_plan_id":"cebpf4jnsgd1na2vs0mg"},{"bike_id":"592f6b8a-369c-4793-8751-9070eba28059","system_id":"levelo_inurba_marseille","lat":43.29602,"lon":5.381084,"is_reserved":false,"is_disabled":false,"rental_uris":{"android":"levelo://app?vid=592f6b8a-369c-4793-8751-9070eba28059","ios":"levelo://app?vid=592f6b8a-369c-4793-8751-9070eba28059"},"vehicle_type_id":"4","last_reported":1723284567,"current_range_meters":29600,"station_id":"ce4bgl12rcd13ifvqbo0","pricing_plan_id":"cebpf4jnsgd1na2vs0mg"},{"bike_id":"08786f94-e3be-4ef3-898b-82bab2d50a76","system_id":"levelo_inurba_marseille","lat":43.292005,"lon":5.357875,"is_reserved":false,"is_disabled":false,"rental_uris":{"android":"levelo://app?vid=08786f94-e3be-4ef3-898b-82bab2d50a76","ios":"levelo://app?vid=08786f94-e3be-4ef3-898b-82bab2d50a76"},"vehicle_type_id":"4","last_reported":1723284567,"current_range_meters":18000,"station_id":"ce4bhb12rcd13ifvqel0","pricing_plan_id":"cebpf4jnsgd1na2vs0mg"},{"bike_id":"4b885db0-3a2a-41e4-b2df-4701f78e63e3","system_id":"levelo_inurba_marseille","lat":43.29274,"lon":5.36843,"is_reserved":false,"is_disabled":false,"rental_uris":{"android":"levelo://app?vid=4b885db0-3a2a-41e4-b2df-4701f78e63e3","ios":"levelo://app?vid=4b885db0-3a2a-41e4-b2df-4701f78e63e3"},"vehicle_type_id":"4","last_reported":1723284567,"current_range_meters":28800,"station_id":"","pricing_plan_id":"cebpf4jnsgd1na2vs0mg"},{"bike_id":"dd484680-c59a-47a7-903b-bf12a86b6320","system_id":"levelo_inurba_marseille","lat":43.293009,"lon":5.374584,"is_reserved":false,"is_disabled":false,"rental_uris":{"android":"levelo://app?vid=dd484680-c59a-47a7-903b-bf12a86b6320","ios":"levelo://app?vid=dd484680-c59a-47a7-903b-bf12a86b6320"},"vehicle_type_id":"4","last_reported":1723284567,"current_range_meters":20800,"station_id":"ce4bgi12rcd13ifvqb70","pricing_plan_id":"cebpf4jnsgd1na2vs0mg"},{"bike_id":"8d37495d-9961-45f8-ba67-ee81725ae3ae","system_id":"levelo_inurba_marseille","lat":43.29228,"lon":5.36363,"is_reserved":false,"is_disabled":false,"rental_uris":{"android":"levelo://app?vid=8d37495d-9961-45f8-ba67-ee81725ae3ae","ios":"levelo://app?vid=8d37495d-9961-45f8-ba67-ee81725ae3ae"},"vehicle_type_id":"4","last_reported":1723284567,"current_range_meters":9600,"station_id":"","pricing_plan_id":"cebpf4jnsgd1na2vs0mg"},{"bike_id":"55e77558-e7c0-4fd2-84fe-6955bde7eba6","system_id":"levelo_inurba_marseille","lat":43.303002,"lon":5.392142,"is_reserved":false,"is_disabled":false,"rental_uris":{"android":"levelo://app?vid=55e77558-e7c0-4fd2-84fe-6955bde7eba6","ios":"levelo://app?vid=55e77558-e7c0-4fd2-84fe-6955bde7eba6"},"vehicle_type_id":"4","last_reported":1723284567,"current_range_meters":8400,"station_id":"ce4bgkh2rcd13ifvqbk0","pricing_plan_id":"cebpf4jnsgd1na2vs0mg"},{"bike_id":"2a656c8b-8658-49fe-b356-4eec840138dc","system_id":"levelo_inurba_marseille","lat":43.30297,"lon":5.39211,"is_reserved":false,"is_disabled":false,"rental_uris":{"android":"levelo://app?vid=2a656c8b-8658-49fe-b356-4eec840138dc","ios":"levelo://app?vid=2a656c8b-8658-49fe-b356-4eec840138dc"},"vehicle_type_id":"4","last_reported":1723284567,"current_range_meters":0,"station_id":"ce4bgkh2rcd13ifvqbk0","pricing_plan_id":"cebpf4jnsgd1na2vs0mg"},{"bike_id":"f661eb5f-6183-475a-b309-3ddacf5cd9e9","system_id":"levelo_inurba_marseille","lat":43.302992,"lon":5.392136,"is_reserved":false,"is_disabled":false,"rental_uris":{"android":"levelo://app?vid=f661eb5f-6183-475a-b309-3ddacf5cd9e9","ios":"levelo://app?vid=f661eb5f-6183-475a-b309-3ddacf5cd9e9"},"vehicle_type_id":"4","last_reported":1723284567,"current_range_meters":6800,"station_id":"ce4bgkh2rcd13ifvqbk0","pricing_plan_id":"cebpf4jnsgd1na2vs0mg"},{"bike_id":"397f9807-e36e-4d6f-9c70-45fd82713d9a","system_id":"levelo_inurba_marseille","lat":43.300852,"lon":5.390859,"is_reserved":false,"is_disabled":false,"rental_uris":{"android":"levelo://app?vid=397f9807-e36e-4d6f-9c70-45fd82713d9a","ios":"levelo://app?vid=397f9807-e36e-4d6f-9c70-45fd82713d9a"},"vehicle_type_id":"4","last_reported":1723284567,"current_range_meters":2000,"station_id":"ce4bh192rcd13ifvqdb0","pricing_plan_id":"cebpf4jnsgd1na2vs0mg"},{"bike_id":"867bbd69-ef69-48c3-a728-1b99c56a633b","system_id":"levelo_inurba_marseille","lat":43.292311,"lon":5.360731,"is_reserved":false,"is_disabled":false,"rental_uris":{"android":"levelo://app?vid=867bbd69-ef69-48c3-a728-1b99c56a633b","ios":"levelo://app?vid=867bbd69-ef69-48c3-a728-1b99c56a633b"},"vehicle_type_id":"4","last_reported":1723284567,"current_range_meters":24800,"station_id":"ce4bhbh2rcd13ifvqeqg","pricing_plan_id":"cebpf4jnsgd1na2vs0mg"},{"bike_id":"2b13c5cd-091b-4ff0-9790-efe371fe942a","system_id":"levelo_inurba_marseille","lat":43.292311,"lon":5.360731,"is_reserved":false,"is_disabled":false,"rental_uris":{"android":"levelo://app?vid=2b13c5cd-091b-4ff0-9790-efe371fe942a","ios":"levelo://app?vid=2b13c5cd-091b-4ff0-9790-efe371fe942a"},"vehicle_type_id":"4","last_reported":1723284567,"current_range_meters":26800,"station_id":"ce4bhbh2rcd13ifvqeqg","pricing_plan_id":"cebpf4jnsgd1na2vs0mg"},{"bike_id":"62c27b8e-2ad4-4bb1-9c9a-1fe4d99a424a","system_id":"levelo_inurba_marseille","lat":43.29268,"lon":5.3761,"is_reserved":false,"is_disabled":false,"rental_uris":{"android":"levelo://app?vid=62c27b8e-2ad4-4bb1-9c9a-1fe4d99a424a","ios":"levelo://app?vid=62c27b8e-2ad4-4bb1-9c9a-1fe4d99a424a"},"vehicle_type_id":"4","last_reported":1723284567,"current_range_meters":23200,"station_id":"ce4bgi12rcd13ifvqb80","pricing_plan_id":"cebpf4jnsgd1na2vs0mg"},{"bike_id":"8669c215-f64f-4991-918a-38e605b47e3d","system_id":"levelo_inurba_marseille","lat":43.292873,"lon":5.355551,"is_reserved":false,"is_disabled":false,"rental_uris":{"android":"levelo://app?vid=8669c215-f64f-4991-918a-38e605b47e3d","ios":"levelo://app?vid=8669c215-f64f-4991-918a-38e605b47e3d"},"vehicle_type_id":"4","last_reported":1723284567,"current_range_meters":8400,"station_id":"","pricing_plan_id":"cebpf4jnsgd1na2vs0mg"},{"bike_id":"5bcf39c3-46e5-4350-8c02-ef2bf49130a3","system_id":"levelo_inurba_marseille","lat":43.292005,"lon":5.357875,"is_reserved":false,"is_disabled":false,"rental_uris":{"android":"levelo://app?vid=5bcf39c3-46e5-4350-8c02-ef2bf49130a3","ios":"levelo://app?vid=5bcf39c3-46e5-4350-8c02-ef2bf49130a3"},"vehicle_type_id":"4","last_reported":1723284567,"current_range_meters":25600,"station_id":"ce4bhb12rcd13ifvqel0","pricing_plan_id":"cebpf4jnsgd1na2vs0mg"},{"bike_id":"a208c92f-d234-40e8-8fe6-8282e6edba9d","system_id":"levelo_inurba_marseille","lat":43.29198,"lon":5.35784,"is_reserved":false,"is_disabled":false,"rental_uris":{"android":"levelo://app?vid=a208c92f-d234-40e8-8fe6-8282e6edba9d","ios":"levelo://app?vid=a208c92f-d234-40e8-8fe6-8282e6edba9d"},"vehicle_type_id":"4","last_reported":1723284567,"current_range_meters":20000,"station_id":"ce4bhb12rcd13ifvqel0","pricing_plan_id":"cebpf4jnsgd1na2vs0mg"},{"bike_id":"21417f49-7003-4cb6-ad76-5d8a136641c0","system_id":"levelo_inurba_marseille","lat":43.291994,"lon":5.357886,"is_reserved":false,"is_disabled":false,"rental_uris":{"android":"levelo://app?vid=21417f49-7003-4cb6-ad76-5d8a136641c0","ios":"levelo://app?vid=21417f49-7003-4cb6-ad76-5d8a136641c0"},"vehicle_type_id":"4","last_reported":1723284567,"current_range_meters":6000,"station_id":"ce4bhb12rcd13ifvqel0","pricing_plan_id":"cebpf4jnsgd1na2vs0mg"},{"bike_id":"96facf3c-182e-4d42-a462-9b51061bde70","system_id":"levelo_inurba_marseille","lat":43.291994,"lon":5.357886,"is_reserved":false,"is_disabled":false,"rental_uris":{"android":"levelo://app?vid=96facf3c-182e-4d42-a462-9b51061bde70","ios":"levelo://app?vid=96facf3c-182e-4d42-a462-9b51061bde70"},"vehicle_type_id":"4","last_reported":1723284567,"current_range_meters":2800,"station_id":"ce4bhb12rcd13ifvqel0","pricing_plan_id":"cebpf4jnsgd1na2vs0mg"},{"bike_id":"be5dfea2-9274-4213-8b9a-975949b1b6cf","system_id":"levelo_inurba_marseille","lat":43.292005,"lon":5.357875,"is_reserved":false,"is_disabled":false,"rental_uris":{"android":"levelo://app?vid=be5dfea2-9274-4213-8b9a-975949b1b6cf","ios":"levelo://app?vid=be5dfea2-9274-4213-8b9a-975949b1b6cf"},"vehicle_type_id":"4","last_reported":1723284567,"current_range_meters":9200,"station_id":"ce4bhb12rcd13ifvqel0","pricing_plan_id":"cebpf4jnsgd1na2vs0mg"},{"bike_id":"9d4b68a5-c93f-4844-a235-5ff4a055b660","system_id":"levelo_inurba_marseille","lat":43.292385,"lon":5.37767,"is_reserved":false,"is_disabled":false,"rental_uris":{"android":"levelo://app?vid=9d4b68a5-c93f-4844-a235-5ff4a055b660","ios":"levelo://app?vid=9d4b68a5-c93f-4844-a235-5ff4a055b660"},"vehicle_type_id":"4","last_reported":1723284567,"current_range_meters":12400,"station_id":"","pricing_plan_id":"cebpf4jnsgd1na2vs0mg"},{"bike_id":"b540f861-1445-492c-8d42-5797d76a0028","system_id":"levelo_inurba_marseille","lat":43.291994,"lon":5.357886,"is_reserved":false,"is_disabled":false,"rental_uris":{"android":"levelo://app?vid=b540f861-1445-492c-8d42-5797d76a0028","ios":"levelo://app?vid=b540f861-1445-492c-8d42-5797d76a0028"},"vehicle_type_id":"4","last_reported":1723284567,"current_range_meters":31200,"station_id":"ce4bhb12rcd13ifvqel0","pricing_plan_id":"cebpf4jnsgd1na2vs0mg"},{"bike_id":"16876147-2842-422e-b661-95c434908e59","system_id":"levelo_inurba_marseille","lat":43.29529,"lon":5.385581,"is_reserved":false,"is_disabled":false,"rental_uris":{"android":"levelo://app?vid=16876147-2842-422e-b661-95c434908e59","ios":"levelo://app?vid=16876147-2842-422e-b661-95c434908e59"},"vehicle_type_id":"4","last_reported":1723284567,"current_range_meters":29200,"station_id":"ce4bgih2rcd13ifvqba0","pricing_plan_id":"cebpf4jnsgd1na2vs0mg"},{"bike_id":"9319951f-ac54-48ba-a881-38837b9a9855","system_id":"levelo_inurba_marseille","lat":43.33517,"lon":5.36159,"is_reserved":false,"is_disabled":false,"rental_uris":{"android":"levelo://app?vid=9319951f-ac54-48ba-a881-38837b9a9855","ios":"levelo://app?vid=9319951f-ac54-48ba-a881-38837b9a9855"},"vehicle_type_id":"4","last_reported":1723284567,"current_range_meters":20800,"station_id":"","pricing_plan_id":"cebpf4jnsgd1na2vs0mg"},{"bike_id":"9440bb2a-4058-459e-aa3e-0ff870b117a1","system_id":"levelo_inurba_marseille","lat":43.290624,"lon":5.359245,"is_reserved":false,"is_disabled":false,"rental_uris":{"android":"levelo://app?vid=9440bb2a-4058-459e-aa3e-0ff870b117a1","ios":"levelo://app?vid=9440bb2a-4058-459e-aa3e-0ff870b117a1"},"vehicle_type_id":"4","last_reported":1723284567,"current_range_meters":30400,"station_id":"ce4bha92rcd13ifvqeg0","pricing_plan_id":"cebpf4jnsgd1na2vs0mg"},{"bike_id":"a15d705a-6a8c-4a19-b5ae-3aa8b025e455","system_id":"levelo_inurba_marseille","lat":43.290631,"lon":5.359244,"is_reserved":false,"is_disabled":false,"rental_uris":{"android":"levelo://app?vid=a15d705a-6a8c-4a19-b5ae-3aa8b025e455","ios":"levelo://app?vid=a15d705a-6a8c-4a19-b5ae-3aa8b025e455"},"vehicle_type_id":"4","last_reported":1723284567,"current_range_meters":27200,"station_id":"ce4bha92rcd13ifvqeg0","pricing_plan_id":"cebpf4jnsgd1na2vs0mg"},{"bike_id":"a42794e9-7626-420e-8939-e5e49c66cfb8","system_id":"levelo_inurba_marseille","lat":43.290624,"lon":5.359245,"is_reserved":false,"is_disabled":false,"rental_uris":{"android":"levelo://app?vid=a42794e9-7626-420e-8939-e5e49c66cfb8","ios":"levelo://app?vid=a42794e9-7626-420e-8939-e5e49c66cfb8"},"vehicle_type_id":"4","last_reported":1723284567,"current_range_meters":31200,"station_id":"ce4bha92rcd13ifvqeg0","pricing_plan_id":"cebpf4jnsgd1na2vs0mg"},{"bike_id":"46ef4ff2-44cf-442f-a950-fd8349efb06c","system_id":"levelo_inurba_marseille","lat":43.29427,"lon":5.38621,"is_reserved":false,"is_disabled":false,"rental_uris":{"android":"levelo://app?vid=46ef4ff2-44cf-442f-a950-fd8349efb06c","ios":"levelo://app?vid=46ef4ff2-44cf-442f-a950-fd8349efb06c"},"vehicle_type_id":"4","last_reported":1723284567,"current_range_meters":18400,"station_id":"ce4bh2h2rcd13ifvqdh0","pricing_plan_id":"cebpf4jnsgd1na2vs0mg"},{"bike_id":"5fbfc5b8-e448-41ae-ba5e-59e1889eafb3","system_id":"levelo_inurba_marseille","lat":43.29421,"lon":5.3862,"is_reserved":false,"is_disabled":false,"rental_uris":{"android":"levelo://app?vid=5fbfc5b8-e448-41ae-ba5e-59e1889eafb3","ios":"levelo://app?vid=5fbfc5b8-e448-41ae-ba5e-59e1889eafb3"},"vehicle_type_id":"4","last_reported":1723284567,"current_range_meters":24800,"station_id":"ce4bh2h2rcd13ifvqdh0","pricing_plan_id":"cebpf4jnsgd1na2vs0mg"},{"bike_id":"93ce446e-ee0d-4f25-9e4a-673b9c9acc5b","system_id":"levelo_inurba_marseille","lat":43.290319,"lon":5.375732,"is_reserved":false,"is_disabled":false,"rental_uris":{"android":"levelo://app?vid=93ce446e-ee0d-4f25-9e4a-673b9c9acc5b","ios":"levelo://app?vid=93ce446e-ee0d-4f25-9e4a-673b9c9acc5b"},"vehicle_type_id":"4","last_reported":1723284567,"current_range_meters":23200,"station_id":"ce4bh692rcd13ifvqe90","pricing_plan_id":"cebpf4jnsgd1na2vs0mg"},{"bike_id":"71ea3617-e968-4be2-b6e2-0b366f39ce18","system_id":"levelo_inurba_marseille","lat":43.290319,"lon":5.375732,"is_reserved":false,"is_disabled":false,"rental_uris":{"android":"levelo://app?vid=71ea3617-e968-4be2-b6e2-0b366f39ce18","ios":"levelo://app?vid=71ea3617-e968-4be2-b6e2-0b366f39ce18"},"vehicle_type_id":"4","last_reported":1723284567,"current_range_meters":29200,"station_id":"ce4bh692rcd13ifvqe90","pricing_plan_id":"cebpf4jnsgd1na2vs0mg"},{"bike_id":"c074b73f-695e-4b97-9938-4febb9958299","system_id":"levelo_inurba_marseille","lat":43.290327,"lon":5.375711,"is_reserved":false,"is_disabled":false,"rental_uris":{"android":"levelo://app?vid=c074b73f-695e-4b97-9938-4febb9958299","ios":"levelo://app?vid=c074b73f-695e-4b97-9938-4febb9958299"},"vehicle_type_id":"4","last_reported":1723284567,"current_range_meters":3600,"station_id":"ce4bh692rcd13ifvqe90","pricing_plan_id":"cebpf4jnsgd1na2vs0mg"},{"bike_id":"013f1895-c515-4d27-b378-f82f1b223075","system_id":"levelo_inurba_marseille","lat":43.294082,"lon":5.386207,"is_reserved":false,"is_disabled":false,"rental_uris":{"android":"levelo://app?vid=013f1895-c515-4d27-b378-f82f1b223075","ios":"levelo://app?vid=013f1895-c515-4d27-b378-f82f1b223075"},"vehicle_type_id":"4","last_reported":1723284567,"current_range_meters":14800,"station_id":"ce4bh2h2rcd13ifvqdh0","pricing_plan_id":"cebpf4jnsgd1na2vs0mg"},{"bike_id":"f27b6ece-ddaa-415f-9fc5-a7affd581c48","system_id":"levelo_inurba_marseille","lat":43.289468,"lon":5.363719,"is_reserved":false,"is_disabled":false,"rental_uris":{"android":"levelo://app?vid=f27b6ece-ddaa-415f-9fc5-a7affd581c48","ios":"levelo://app?vid=f27b6ece-ddaa-415f-9fc5-a7affd581c48"},"vehicle_type_id":"4","last_reported":1723284567,"current_range_meters":0,"station_id":"ce4bhc92rcd13ifvqetg","pricing_plan_id":"cebpf4jnsgd1na2vs0mg"},{"bike_id":"693c51f1-3b45-4f2e-b41a-2bafc2f8e87c","system_id":"levelo_inurba_marseille","lat":43.304296,"lon":5.397513,"is_reserved":false,"is_disabled":false,"rental_uris":{"android":"levelo://app?vid=693c51f1-3b45-4f2e-b41a-2bafc2f8e87c","ios":"levelo://app?vid=693c51f1-3b45-4f2e-b41a-2bafc2f8e87c"},"vehicle_type_id":"4","last_reported":1723284567,"current_range_meters":9600,"station_id":"ce4bh092rcd13ifvqd20","pricing_plan_id":"cebpf4jnsgd1na2vs0mg"},{"bike_id":"1f5c62a1-ecdc-4dae-91af-9f04295be7a1","system_id":"levelo_inurba_marseille","lat":43.304274,"lon":5.397513,"is_reserved":false,"is_disabled":false,"rental_uris":{"android":"levelo://app?vid=1f5c62a1-ecdc-4dae-91af-9f04295be7a1","ios":"levelo://app?vid=1f5c62a1-ecdc-4dae-91af-9f04295be7a1"},"vehicle_type_id":"4","last_reported":1723284567,"current_range_meters":31200,"station_id":"ce4bh092rcd13ifvqd20","pricing_plan_id":"cebpf4jnsgd1na2vs0mg"},{"bike_id":"8391416f-4bfa-4fe9-8c14-319844ce4b02","system_id":"levelo_inurba_marseille","lat":43.304296,"lon":5.397513,"is_reserved":false,"is_disabled":false,"rental_uris":{"android":"levelo://app?vid=8391416f-4bfa-4fe9-8c14-319844ce4b02","ios":"levelo://app?vid=8391416f-4bfa-4fe9-8c14-319844ce4b02"},"vehicle_type_id":"4","last_reported":1723284567,"current_range_meters":31200,"station_id":"ce4bh092rcd13ifvqd20","pricing_plan_id":"cebpf4jnsgd1na2vs0mg"},{"bike_id":"ce45dd98-0438-4575-b241-3665083f8807","system_id":"levelo_inurba_marseille","lat":43.304274,"lon":5.397513,"is_reserved":false,"is_disabled":false,"rental_uris":{"android":"levelo://app?vid=ce45dd98-0438-4575-b241-3665083f8807","ios":"levelo://app?vid=ce45dd98-0438-4575-b241-3665083f8807"},"vehicle_type_id":"4","last_reported":1723284567,"current_range_meters":31200,"station_id":"ce4bh092rcd13ifvqd20","pricing_plan_id":"cebpf4jnsgd1na2vs0mg"},{"bike_id":"8f0be9e7-b1a1-4604-9f43-090bc987e73b","system_id":"levelo_inurba_marseille","lat":43.29005,"lon":5.35616,"is_reserved":false,"is_disabled":false,"rental_uris":{"android":"levelo://app?vid=8f0be9e7-b1a1-4604-9f43-090bc987e73b","ios":"levelo://app?vid=8f0be9e7-b1a1-4604-9f43-090bc987e73b"},"vehicle_type_id":"4","last_reported":1723284567,"current_range_meters":20800,"station_id":"ce4bhb92rcd13ifvqen0","pricing_plan_id":"cebpf4jnsgd1na2vs0mg"},{"bike_id":"2231c333-0339-41b0-9d21-e0da3ac488f5","system_id":"levelo_inurba_marseille","lat":43.290103,"lon":5.356114,"is_reserved":false,"is_disabled":false,"rental_uris":{"android":"levelo://app?vid=2231c333-0339-41b0-9d21-e0da3ac488f5","ios":"levelo://app?vid=2231c333-0339-41b0-9d21-e0da3ac488f5"},"vehicle_type_id":"4","last_reported":1723284567,"current_range_meters":11600,"station_id":"ce4bhb92rcd13ifvqen0","pricing_plan_id":"cebpf4jnsgd1na2vs0mg"},{"bike_id":"410d8ce9-2118-473f-9625-541ff440d69d","system_id":"levelo_inurba_marseille","lat":43.29004,"lon":5.35608,"is_reserved":false,"is_disabled":false,"rental_uris":{"android":"levelo://app?vid=410d8ce9-2118-473f-9625-541ff440d69d","ios":"levelo://app?vid=410d8ce9-2118-473f-9625-541ff440d69d"},"vehicle_type_id":"4","last_reported":1723284567,"current_range_meters":18400,"station_id":"ce4bhb92rcd13ifvqen0","pricing_plan_id":"cebpf4jnsgd1na2vs0mg"},{"bike_id":"c883637d-d16c-4b33-b4a5-2ef210cfad99","system_id":"levelo_inurba_marseille","lat":43.290103,"lon":5.356114,"is_reserved":false,"is_disabled":false,"rental_uris":{"android":"levelo://app?vid=c883637d-d16c-4b33-b4a5-2ef210cfad99","ios":"levelo://app?vid=c883637d-d16c-4b33-b4a5-2ef210cfad99"},"vehicle_type_id":"4","last_reported":1723284567,"current_range_meters":17200,"station_id":"ce4bhb92rcd13ifvqen0","pricing_plan_id":"cebpf4jnsgd1na2vs0mg"},{"bike_id":"75b11041-cee9-4a96-a391-9ae4a99ae423","system_id":"levelo_inurba_marseille","lat":43.290103,"lon":5.356114,"is_reserved":false,"is_disabled":false,"rental_uris":{"android":"levelo://app?vid=75b11041-cee9-4a96-a391-9ae4a99ae423","ios":"levelo://app?vid=75b11041-cee9-4a96-a391-9ae4a99ae423"},"vehicle_type_id":"4","last_reported":1723284567,"current_range_meters":32000,"station_id":"ce4bhb92rcd13ifvqen0","pricing_plan_id":"cebpf4jnsgd1na2vs0mg"},{"bike_id":"ee3744f9-8d87-438e-bf2e-857bf66b776a","system_id":"levelo_inurba_marseille","lat":43.290995,"lon":5.381361,"is_reserved":false,"is_disabled":false,"rental_uris":{"android":"levelo://app?vid=ee3744f9-8d87-438e-bf2e-857bf66b776a","ios":"levelo://app?vid=ee3744f9-8d87-438e-bf2e-857bf66b776a"},"vehicle_type_id":"4","last_reported":1723284567,"current_range_meters":17200,"station_id":"ce4bh512rcd13ifvqe2g","pricing_plan_id":"cebpf4jnsgd1na2vs0mg"},{"bike_id":"5d07b028-ea05-4457-bb0d-78c8e31c24f4","system_id":"levelo_inurba_marseille","lat":43.33018,"lon":5.39039,"is_reserved":false,"is_disabled":false,"rental_uris":{"android":"levelo://app?vid=5d07b028-ea05-4457-bb0d-78c8e31c24f4","ios":"levelo://app?vid=5d07b028-ea05-4457-bb0d-78c8e31c24f4"},"vehicle_type_id":"4","last_reported":1723284567,"current_range_meters":15200,"station_id":"ce4bhr92rcd13ifvqhrg","pricing_plan_id":"cebpf4jnsgd1na2vs0mg"},{"bike_id":"6f6248af-836f-46b5-b6b4-4908ddb8f695","system_id":"levelo_inurba_marseille","lat":43.297807,"lon":5.393533,"is_reserved":false,"is_disabled":false,"rental_uris":{"android":"levelo://app?vid=6f6248af-836f-46b5-b6b4-4908ddb8f695","ios":"levelo://app?vid=6f6248af-836f-46b5-b6b4-4908ddb8f695"},"vehicle_type_id":"4","last_reported":1723284567,"current_range_meters":400,"station_id":"chh1huq6cuj3fo74tm60","pricing_plan_id":"cebpf4jnsgd1na2vs0mg"},{"bike_id":"45400c6e-8fe0-489f-a0b7-378baeec17c2","system_id":"levelo_inurba_marseille","lat":43.330442,"lon":5.389148,"is_reserved":false,"is_disabled":false,"rental_uris":{"android":"levelo://app?vid=45400c6e-8fe0-489f-a0b7-378baeec17c2","ios":"levelo://app?vid=45400c6e-8fe0-489f-a0b7-378baeec17c2"},"vehicle_type_id":"4","last_reported":1723284567,"current_range_meters":30000,"station_id":"ce4bhr92rcd13ifvqhrg","pricing_plan_id":"cebpf4jnsgd1na2vs0mg"},{"bike_id":"955f7c39-8a7e-4dec-b39c-c97a67b5433a","system_id":"levelo_inurba_marseille","lat":43.33025,"lon":5.39036,"is_reserved":false,"is_disabled":false,"rental_uris":{"android":"levelo://app?vid=955f7c39-8a7e-4dec-b39c-c97a67b5433a","ios":"levelo://app?vid=955f7c39-8a7e-4dec-b39c-c97a67b5433a"},"vehicle_type_id":"4","last_reported":1723284567,"current_range_meters":25200,"station_id":"ce4bhr92rcd13ifvqhrg","pricing_plan_id":"cebpf4jnsgd1na2vs0mg"},{"bike_id":"17d47b9d-e540-4f88-b3e0-d23240ec52df","system_id":"levelo_inurba_marseille","lat":43.330442,"lon":5.389148,"is_reserved":false,"is_disabled":false,"rental_uris":{"android":"levelo://app?vid=17d47b9d-e540-4f88-b3e0-d23240ec52df","ios":"levelo://app?vid=17d47b9d-e540-4f88-b3e0-d23240ec52df"},"vehicle_type_id":"4","last_reported":1723284567,"current_range_meters":5600,"station_id":"ce4bhr92rcd13ifvqhrg","pricing_plan_id":"cebpf4jnsgd1na2vs0mg"},{"bike_id":"89afadd2-b246-46c8-925b-ecf32b200d4f","system_id":"levelo_inurba_marseille","lat":43.33024,"lon":5.3904,"is_reserved":false,"is_disabled":false,"rental_uris":{"android":"levelo://app?vid=89afadd2-b246-46c8-925b-ecf32b200d4f","ios":"levelo://app?vid=89afadd2-b246-46c8-925b-ecf32b200d4f"},"vehicle_type_id":"4","last_reported":1723284567,"current_range_meters":31200,"station_id":"ce4bhr92rcd13ifvqhrg","pricing_plan_id":"cebpf4jnsgd1na2vs0mg"},{"bike_id":"25cf6e4b-b30a-4646-ad45-bdf7936cb5a2","system_id":"levelo_inurba_marseille","lat":43.33024,"lon":5.3904,"is_reserved":false,"is_disabled":false,"rental_uris":{"android":"levelo://app?vid=25cf6e4b-b30a-4646-ad45-bdf7936cb5a2","ios":"levelo://app?vid=25cf6e4b-b30a-4646-ad45-bdf7936cb5a2"},"vehicle_type_id":"4","last_reported":1723284567,"current_range_meters":31200,"station_id":"ce4bhr92rcd13ifvqhrg","pricing_plan_id":"cebpf4jnsgd1na2vs0mg"},{"bike_id":"3e8361a5-70cb-4795-a351-0c9497d9c4db","system_id":"levelo_inurba_marseille","lat":43.33024,"lon":5.39041,"is_reserved":false,"is_disabled":false,"rental_uris":{"android":"levelo://app?vid=3e8361a5-70cb-4795-a351-0c9497d9c4db","ios":"levelo://app?vid=3e8361a5-70cb-4795-a351-0c9497d9c4db"},"vehicle_type_id":"4","last_reported":1723284567,"current_range_meters":12400,"station_id":"ce4bhr92rcd13ifvqhrg","pricing_plan_id":"cebpf4jnsgd1na2vs0mg"},{"bike_id":"7cadf526-ec97-45fc-a408-1ccaeb4406b1","system_id":"levelo_inurba_marseille","lat":43.33026,"lon":5.39039,"is_reserved":false,"is_disabled":false,"rental_uris":{"android":"levelo://app?vid=7cadf526-ec97-45fc-a408-1ccaeb4406b1","ios":"levelo://app?vid=7cadf526-ec97-45fc-a408-1ccaeb4406b1"},"vehicle_type_id":"4","last_reported":1723284567,"current_range_meters":24000,"station_id":"ce4bhr92rcd13ifvqhrg","pricing_plan_id":"cebpf4jnsgd1na2vs0mg"},{"bike_id":"3426e4c0-ccf4-47a9-aa94-cc9d783b72ec","system_id":"levelo_inurba_marseille","lat":43.33024,"lon":5.39042,"is_reserved":false,"is_disabled":false,"rental_uris":{"android":"levelo://app?vid=3426e4c0-ccf4-47a9-aa94-cc9d783b72ec","ios":"levelo://app?vid=3426e4c0-ccf4-47a9-aa94-cc9d783b72ec"},"vehicle_type_id":"4","last_reported":1723284567,"current_range_meters":13600,"station_id":"ce4bhr92rcd13ifvqhrg","pricing_plan_id":"cebpf4jnsgd1na2vs0mg"},{"bike_id":"c4b95fca-eb6e-4bc8-99b3-f17f77fd62a5","system_id":"levelo_inurba_marseille","lat":43.33025,"lon":5.39046,"is_reserved":false,"is_disabled":false,"rental_uris":{"android":"levelo://app?vid=c4b95fca-eb6e-4bc8-99b3-f17f77fd62a5","ios":"levelo://app?vid=c4b95fca-eb6e-4bc8-99b3-f17f77fd62a5"},"vehicle_type_id":"4","last_reported":1723284567,"current_range_meters":26800,"station_id":"ce4bhr92rcd13ifvqhrg","pricing_plan_id":"cebpf4jnsgd1na2vs0mg"},{"bike_id":"0c0e1fec-3432-45ae-8332-161f590ece58","system_id":"levelo_inurba_marseille","lat":43.33029,"lon":5.39041,"is_reserved":false,"is_disabled":false,"rental_uris":{"android":"levelo://app?vid=0c0e1fec-3432-45ae-8332-161f590ece58","ios":"levelo://app?vid=0c0e1fec-3432-45ae-8332-161f590ece58"},"vehicle_type_id":"4","last_reported":1723284567,"current_range_meters":28800,"station_id":"ce4bhr92rcd13ifvqhrg","pricing_plan_id":"cebpf4jnsgd1na2vs0mg"},{"bike_id":"d7465d6c-4a2c-474a-96f4-f2c7bd635460","system_id":"levelo_inurba_marseille","lat":43.295169,"lon":5.390426,"is_reserved":false,"is_disabled":false,"rental_uris":{"android":"levelo://app?vid=d7465d6c-4a2c-474a-96f4-f2c7bd635460","ios":"levelo://app?vid=d7465d6c-4a2c-474a-96f4-f2c7bd635460"},"vehicle_type_id":"4","last_reported":1723284567,"current_range_meters":26000,"station_id":"ce4bh3p2rcd13ifvqdp0","pricing_plan_id":"cebpf4jnsgd1na2vs0mg"},{"bike_id":"fdf2a788-7aa8-4dee-b60c-66e844019b80","system_id":"levelo_inurba_marseille","lat":43.295169,"lon":5.390426,"is_reserved":false,"is_disabled":false,"rental_uris":{"android":"levelo://app?vid=fdf2a788-7aa8-4dee-b60c-66e844019b80","ios":"levelo://app?vid=fdf2a788-7aa8-4dee-b60c-66e844019b80"},"vehicle_type_id":"4","last_reported":1723284567,"current_range_meters":17200,"station_id":"ce4bh3p2rcd13ifvqdp0","pricing_plan_id":"cebpf4jnsgd1na2vs0mg"},{"bike_id":"ba04280e-ebac-44a3-a851-331330996b2d","system_id":"levelo_inurba_marseille","lat":43.289363,"lon":5.396322,"is_reserved":false,"is_disabled":false,"rental_uris":{"android":"levelo://app?vid=ba04280e-ebac-44a3-a851-331330996b2d","ios":"levelo://app?vid=ba04280e-ebac-44a3-a851-331330996b2d"},"vehicle_type_id":"4","last_reported":1723284567,"current_range_meters":17200,"station_id":"ce4bh3h2rcd13ifvqdn0","pricing_plan_id":"cebpf4jnsgd1na2vs0mg"},{"bike_id":"35fd4fcb-2d90-4e11-9379-5da1c1fb1c0e","system_id":"levelo_inurba_marseille","lat":43.318834,"lon":5.399794,"is_reserved":false,"is_disabled":false,"rental_uris":{"android":"levelo://app?vid=35fd4fcb-2d90-4e11-9379-5da1c1fb1c0e","ios":"levelo://app?vid=35fd4fcb-2d90-4e11-9379-5da1c1fb1c0e"},"vehicle_type_id":"4","last_reported":1723284567,"current_range_meters":10000,"station_id":"","pricing_plan_id":"cebpf4jnsgd1na2vs0mg"},{"bike_id":"57aa7534-ceb4-4eda-98d2-a42f6caa1222","system_id":"levelo_inurba_marseille","lat":43.318793,"lon":5.399899,"is_reserved":false,"is_disabled":false,"rental_uris":{"android":"levelo://app?vid=57aa7534-ceb4-4eda-98d2-a42f6caa1222","ios":"levelo://app?vid=57aa7534-ceb4-4eda-98d2-a42f6caa1222"},"vehicle_type_id":"4","last_reported":1723284567,"current_range_meters":12000,"station_id":"","pricing_plan_id":"cebpf4jnsgd1na2vs0mg"},{"bike_id":"b6a8df52-c603-42c2-8f31-f0e31d5da529","system_id":"levelo_inurba_marseille","lat":43.28844,"lon":5.35845,"is_reserved":false,"is_disabled":false,"rental_uris":{"android":"levelo://app?vid=b6a8df52-c603-42c2-8f31-f0e31d5da529","ios":"levelo://app?vid=b6a8df52-c603-42c2-8f31-f0e31d5da529"},"vehicle_type_id":"4","last_reported":1723284567,"current_range_meters":30000,"station_id":"ce4bhb12rcd13ifvqem0","pricing_plan_id":"cebpf4jnsgd1na2vs0mg"},{"bike_id":"b82d858a-91a0-49bf-a6fc-8ae898ab18fa","system_id":"levelo_inurba_marseille","lat":43.312609,"lon":5.401662,"is_reserved":false,"is_disabled":false,"rental_uris":{"android":"levelo://app?vid=b82d858a-91a0-49bf-a6fc-8ae898ab18fa","ios":"levelo://app?vid=b82d858a-91a0-49bf-a6fc-8ae898ab18fa"},"vehicle_type_id":"4","last_reported":1723284567,"current_range_meters":30800,"station_id":"ce4bh092rcd13ifvqd30","pricing_plan_id":"cebpf4jnsgd1na2vs0mg"},{"bike_id":"7f4a4c6f-9116-49e3-9148-94c29c22873f","system_id":"levelo_inurba_marseille","lat":43.33737,"lon":5.37457,"is_reserved":false,"is_disabled":false,"rental_uris":{"android":"levelo://app?vid=7f4a4c6f-9116-49e3-9148-94c29c22873f","ios":"levelo://app?vid=7f4a4c6f-9116-49e3-9148-94c29c22873f"},"vehicle_type_id":"4","last_reported":1723284567,"current_range_meters":29600,"station_id":"","pricing_plan_id":"cebpf4jnsgd1na2vs0mg"},{"bike_id":"1d380d86-5e76-461b-bb6c-dc94aca12cd4","system_id":"levelo_inurba_marseille","lat":43.33741,"lon":5.37454,"is_reserved":false,"is_disabled":false,"rental_uris":{"android":"levelo://app?vid=1d380d86-5e76-461b-bb6c-dc94aca12cd4","ios":"levelo://app?vid=1d380d86-5e76-461b-bb6c-dc94aca12cd4"},"vehicle_type_id":"4","last_reported":1723284567,"current_range_meters":7600,"station_id":"","pricing_plan_id":"cebpf4jnsgd1na2vs0mg"},{"bike_id":"176078ac-dbf3-4a59-b7a0-e3f26aa7db6d","system_id":"levelo_inurba_marseille","lat":43.33742,"lon":5.37452,"is_reserved":false,"is_disabled":false,"rental_uris":{"android":"levelo://app?vid=176078ac-dbf3-4a59-b7a0-e3f26aa7db6d","ios":"levelo://app?vid=176078ac-dbf3-4a59-b7a0-e3f26aa7db6d"},"vehicle_type_id":"4","last_reported":1723284567,"current_range_meters":11200,"station_id":"","pricing_plan_id":"cebpf4jnsgd1na2vs0mg"},{"bike_id":"1115374c-9bd1-4203-8798-2954097db088","system_id":"levelo_inurba_marseille","lat":43.33742,"lon":5.37453,"is_reserved":false,"is_disabled":false,"rental_uris":{"android":"levelo://app?vid=1115374c-9bd1-4203-8798-2954097db088","ios":"levelo://app?vid=1115374c-9bd1-4203-8798-2954097db088"},"vehicle_type_id":"4","last_reported":1723284567,"current_range_meters":6800,"station_id":"","pricing_plan_id":"cebpf4jnsgd1na2vs0mg"},{"bike_id":"a99690a8-3e4f-41a1-9b6a-5b43249a269f","system_id":"levelo_inurba_marseille","lat":43.33741,"lon":5.3746,"is_reserved":false,"is_disabled":false,"rental_uris":{"android":"levelo://app?vid=a99690a8-3e4f-41a1-9b6a-5b43249a269f","ios":"levelo://app?vid=a99690a8-3e4f-41a1-9b6a-5b43249a269f"},"vehicle_type_id":"4","last_reported":1723284567,"current_range_meters":5600,"station_id":"","pricing_plan_id":"cebpf4jnsgd1na2vs0mg"},{"bike_id":"ac75d8e5-5139-4e43-a64e-51e7994c2517","system_id":"levelo_inurba_marseille","lat":43.337444,"lon":5.374475,"is_reserved":false,"is_disabled":false,"rental_uris":{"android":"levelo://app?vid=ac75d8e5-5139-4e43-a64e-51e7994c2517","ios":"levelo://app?vid=ac75d8e5-5139-4e43-a64e-51e7994c2517"},"vehicle_type_id":"3","last_reported":1723284567,"current_range_meters":24800,"station_id":"","pricing_plan_id":"cebpf4jnsgd1na2vs0mg"},{"bike_id":"0ad0e48e-2f12-4bd3-af98-8a0fd52189f5","system_id":"levelo_inurba_marseille","lat":43.312609,"lon":5.401662,"is_reserved":false,"is_disabled":false,"rental_uris":{"android":"levelo://app?vid=0ad0e48e-2f12-4bd3-af98-8a0fd52189f5","ios":"levelo://app?vid=0ad0e48e-2f12-4bd3-af98-8a0fd52189f5"},"vehicle_type_id":"4","last_reported":1723284567,"current_range_meters":22000,"station_id":"ce4bh092rcd13ifvqd30","pricing_plan_id":"cebpf4jnsgd1na2vs0mg"},{"bike_id":"7fd52e3d-d8a0-4216-a455-f832a3c42d30","system_id":"levelo_inurba_marseille","lat":43.33745,"lon":5.37452,"is_reserved":false,"is_disabled":false,"rental_uris":{"android":"levelo://app?vid=7fd52e3d-d8a0-4216-a455-f832a3c42d30","ios":"levelo://app?vid=7fd52e3d-d8a0-4216-a455-f832a3c42d30"},"vehicle_type_id":"4","last_reported":1723284567,"current_range_meters":30000,"station_id":"","pricing_plan_id":"cebpf4jnsgd1na2vs0mg"},{"bike_id":"c55b5c0a-45c1-47d3-8d2d-10584f22e33f","system_id":"levelo_inurba_marseille","lat":43.33743,"lon":5.37468,"is_reserved":false,"is_disabled":false,"rental_uris":{"android":"levelo://app?vid=c55b5c0a-45c1-47d3-8d2d-10584f22e33f","ios":"levelo://app?vid=c55b5c0a-45c1-47d3-8d2d-10584f22e33f"},"vehicle_type_id":"4","last_reported":1723284567,"current_range_meters":800,"station_id":"","pricing_plan_id":"cebpf4jnsgd1na2vs0mg"},{"bike_id":"99ff80d6-767c-4ca9-81b5-c19f253f3bd3","system_id":"levelo_inurba_marseille","lat":43.33746,"lon":5.37453,"is_reserved":false,"is_disabled":false,"rental_uris":{"android":"levelo://app?vid=99ff80d6-767c-4ca9-81b5-c19f253f3bd3","ios":"levelo://app?vid=99ff80d6-767c-4ca9-81b5-c19f253f3bd3"},"vehicle_type_id":"4","last_reported":1723284567,"current_range_meters":4800,"station_id":"","pricing_plan_id":"cebpf4jnsgd1na2vs0mg"},{"bike_id":"05b50d76-7193-4433-8135-a17e4315fb2d","system_id":"levelo_inurba_marseille","lat":43.33748,"lon":5.37443,"is_reserved":false,"is_disabled":false,"rental_uris":{"android":"levelo://app?vid=05b50d76-7193-4433-8135-a17e4315fb2d","ios":"levelo://app?vid=05b50d76-7193-4433-8135-a17e4315fb2d"},"vehicle_type_id":"4","last_reported":1723284567,"current_range_meters":26800,"station_id":"","pricing_plan_id":"cebpf4jnsgd1na2vs0mg"},{"bike_id":"1596ed5a-2748-4147-884b-51e994b2b8ca","system_id":"levelo_inurba_marseille","lat":43.337482,"lon":5.374568,"is_reserved":false,"is_disabled":false,"rental_uris":{"android":"levelo://app?vid=1596ed5a-2748-4147-884b-51e994b2b8ca","ios":"levelo://app?vid=1596ed5a-2748-4147-884b-51e994b2b8ca"},"vehicle_type_id":"4","last_reported":1723284567,"current_range_meters":17200,"station_id":"","pricing_plan_id":"cebpf4jnsgd1na2vs0mg"},{"bike_id":"17b56712-d908-4596-b21a-f4eb5e805a6f","system_id":"levelo_inurba_marseille","lat":43.33748,"lon":5.37458,"is_reserved":false,"is_disabled":false,"rental_uris":{"android":"levelo://app?vid=17b56712-d908-4596-b21a-f4eb5e805a6f","ios":"levelo://app?vid=17b56712-d908-4596-b21a-f4eb5e805a6f"},"vehicle_type_id":"4","last_reported":1723284567,"current_range_meters":6800,"station_id":"","pricing_plan_id":"cebpf4jnsgd1na2vs0mg"},{"bike_id":"fcb552aa-4b86-4ab7-bdf4-7617d41dcd66","system_id":"levelo_inurba_marseille","lat":43.33753,"lon":5.37433,"is_reserved":false,"is_disabled":false,"rental_uris":{"android":"levelo://app?vid=fcb552aa-4b86-4ab7-bdf4-7617d41dcd66","ios":"levelo://app?vid=fcb552aa-4b86-4ab7-bdf4-7617d41dcd66"},"vehicle_type_id":"4","last_reported":1723284567,"current_range_meters":27600,"station_id":"","pricing_plan_id":"cebpf4jnsgd1na2vs0mg"},{"bike_id":"e27a01ef-061c-4c0e-acd8-74bd06f8bfac","system_id":"levelo_inurba_marseille","lat":43.33749,"lon":5.37463,"is_reserved":false,"is_disabled":false,"rental_uris":{"android":"levelo://app?vid=e27a01ef-061c-4c0e-acd8-74bd06f8bfac","ios":"levelo://app?vid=e27a01ef-061c-4c0e-acd8-74bd06f8bfac"},"vehicle_type_id":"4","last_reported":1723284567,"current_range_meters":30400,"station_id":"","pricing_plan_id":"cebpf4jnsgd1na2vs0mg"},{"bike_id":"6137b86e-8de9-4c4f-94ef-bfa372175031","system_id":"levelo_inurba_marseille","lat":43.337513,"lon":5.37454,"is_reserved":false,"is_disabled":false,"rental_uris":{"android":"levelo://app?vid=6137b86e-8de9-4c4f-94ef-bfa372175031","ios":"levelo://app?vid=6137b86e-8de9-4c4f-94ef-bfa372175031"},"vehicle_type_id":"4","last_reported":1723284567,"current_range_meters":16400,"station_id":"","pricing_plan_id":"cebpf4jnsgd1na2vs0mg"},{"bike_id":"3bf2c92b-e810-4497-81f3-0eb40ecad1f5","system_id":"levelo_inurba_marseille","lat":43.33754,"lon":5.3744,"is_reserved":false,"is_disabled":false,"rental_uris":{"android":"levelo://app?vid=3bf2c92b-e810-4497-81f3-0eb40ecad1f5","ios":"levelo://app?vid=3bf2c92b-e810-4497-81f3-0eb40ecad1f5"},"vehicle_type_id":"4","last_reported":1723284567,"current_range_meters":30400,"station_id":"","pricing_plan_id":"cebpf4jnsgd1na2vs0mg"},{"bike_id":"43f21911-683d-4ba4-93d3-8a7e20e1c78c","system_id":"levelo_inurba_marseille","lat":43.337524,"lon":5.374538,"is_reserved":false,"is_disabled":false,"rental_uris":{"android":"levelo://app?vid=43f21911-683d-4ba4-93d3-8a7e20e1c78c","ios":"levelo://app?vid=43f21911-683d-4ba4-93d3-8a7e20e1c78c"},"vehicle_type_id":"4","last_reported":1723284567,"current_range_meters":31200,"station_id":"","pricing_plan_id":"cebpf4jnsgd1na2vs0mg"},