{"last_updated":1769635211,"ttl":60,"version":"2.2","data":{"bikes":[{"bike_id":"fa9cdf49-3805-4429-be46-3d158a754724","system_id":"levelo_inurba_marseille","lat":43.31681,"lon":5.37662,"is_reserved":false,"is_disabled":false,"rental_uris":{"android":"levelo://app?vid=fa9cdf49-3805-4429-be46-3d158a754724","ios":"levelo://app?vid=fa9cdf49-3805-4429-be46-3d158a754724"},"vehicle_type_id":"4","last_reported":1769635212,"current_range_meters":2800,"station_id":"ce4bgth2rcd13ifvqch0","pricing_plan_id":"cebpf4jnsgd1na2vs0mg"},{"bike_id":"51b8f39f-e87e-4327-a9b7-dad481cf0cba","system_id":"levelo_inurba_marseille","lat":43.2378,"lon":5.36622,"is_reserved":false,"is_disabled":false,"rental_uris":{"android":"levelo://app?vid=51b8f39f-e87e-4327-a9b7-dad481cf0cba","ios":"levelo://app?vid=51b8f39f-e87e-4327-a9b7-dad481cf0cba"},"vehicle_type_id":"4","last_reported":1769635212,"current_range_meters":2800,"station_id":"st_d3nk18o9ro0c73en2l3g","pricing_plan_id":"cebpf4jnsgd1na2vs0mg"},{"bike_id":"c66edf8f-b6c5-4b2f-be4e-f452895b77a1","system_id":"levelo_inurba_marseille","lat":43.23151,"lon":5.43706,"is_reserved":false,"is_disabled":false,"rental_uris":{"android":"levelo://app?vid=c66edf8f-b6c5-4b2f-be4e-f452895b77a1","ios":"levelo://app?vid=c66edf8f-b6c5-4b2f-be4e-f452895b77a1"},"vehicle_type_id":"4","last_reported":1769635212,"current_range_meters":2800,"station_id":"ce4bhmp2rcd13ifvqgog","pricing_plan_id":"cebpf4jnsgd1na2vs0mg"},{"bike_id":"56e01f36-328e-43f0-84f6-e09a0e326ea2","system_id":"levelo_inurba_marseille","lat":43.29791,"lon":5.39359,"is_reserved":false,"is_disabled":false,"rental_uris":{"android":"levelo://app?vid=56e01f36-328e-43f0-84f6-e09a0e326ea2","ios":"levelo://app?vid=56e01f36-328e-43f0-84f6-e09a0e326ea2"},"vehicle_type_id":"4","last_reported":1769635212,"current_range_meters":2800,"station_id":"chh1huq6cuj3fo74tm60","pricing_plan_id":"cebpf4jnsgd1na2vs0mg"},{"bike_id":"0e3e56a8-c028-4a2f-88ed-6334be577f88","system_id":"levelo_inurba_marseille","lat":43.23158,"lon":5.43709,"is_reserved":false,"is_disabled":false,"rental_uris":{"android":"levelo://app?vid=0e3e56a8-c028-4a2f-88ed-6334be577f88","ios":"levelo://app?vid=0e3e56a8-c028-4a2f-88ed-6334be577f88"},"vehicle_type_id":"4","last_reported":1769635212,"current_range_meters":2800,"station_id":"ce4bhmp2rcd13ifvqgog","pricing_plan_id":"cebpf4jnsgd1na2vs0mg"},{"bike_id":"db91af1c-8610-46d2-8811-cba210a8ff4f","system_id":"levelo_inurba_marseille","lat":43.33275,"lon":5.37964,"is_reserved":false,"is_disabled":false,"rental_uris":{"android":"levelo://app?vid=db91af1c-8610-46d2-8811-cba210a8ff4f","ios":"levelo://app?vid=db91af1c-8610-46d2-8811-cba210a8ff4f"},"vehicle_type_id":"4","last_reported":1769635212,"current_range_meters":2800,"station_id":"","pricing_plan_id":"cebpf4jnsgd1na2vs0mg"},{"bike_id":"caf214c6-f51e-422f-a150-65a2d01f29fe","system_id":"levelo_inurba_marseille","lat":43.3328,"lon":5.36618,"is_reserved":false,"is_disabled":false,"rental_uris":{"android":"levelo://app?vid=caf214c6-f51e-422f-a150-65a2d01f29fe","ios":"levelo://app?vid=caf214c6-f51e-422f-a150-65a2d01f29fe"},"vehicle_type_id":"4","last_reported":1769635212,"current_range_meters":2800,"station_id":"","pricing_plan_id":"cebpf4jnsgd1na2vs0mg"},{"bike_id":"cc3ac882-02f0-463d-8a55-b339dc6520ab","system_id":"levelo_inurba_marseille","lat":43.32291,"lon":5.38272,"is_reserved":false,"is_disabled":false,"rental_uris":{"android":"levelo://app?vid=cc3ac882-02f0-463d-8a55-b339dc6520ab","ios":"levelo://app?vid=cc3ac882-02f0-463d-8a55-b339dc6520ab"},"vehicle_type_id":"4","last_reported":1769635212,"current_range_meters":3200,"station_id":"ce4bhr12rcd13ifvqhqg","pricing_plan_id":"cebpf4jnsgd1na2vs0mg"},{"bike_id":"c372c5f7-4e3e-4c79-973c-a24aea73ee92","system_id":"levelo_inurba_marseille","lat":43.3004,"lon":5.38906,"is_reserved":false,"is_disabled":false,"rental_uris":{"android":"levelo://app?vid=c372c5f7-4e3e-4c79-973c-a24aea73ee92","ios":"levelo://app?vid=c372c5f7-4e3e-4c79-973c-a24aea73ee92"},"vehicle_type_id":"4","last_reported":1769635212,"current_range_meters":3200,"station_id":"","pricing_plan_id":"cebpf4jnsgd1na2vs0mg"},{"bike_id":"4552afe7-3b89-49b5-bc1f-a95e2a58dbf5","system_id":"levelo_inurba_marseille","lat":43.22574,"lon":5.41653,"is_reserved":false,"is_disabled":false,"rental_uris":{"android":"levelo://app?vid=4552afe7-3b89-49b5-bc1f-a95e2a58dbf5","ios":"levelo://app?vid=4552afe7-3b89-49b5-bc1f-a95e2a58dbf5"},"vehicle_type_id":"4","last_reported":1769635212,"current_range_meters":3200,"station_id":"st_d2o4gvlbi1j2169b742g","pricing_plan_id":"cebpf4jnsgd1na2vs0mg"},{"bike_id":"a8f63d2c-39d2-449c-95a5-17db81c8856e","system_id":"levelo_inurba_marseille","lat":43.29728,"lon":5.37703,"is_reserved":false,"is_disabled":true,"rental_uris":{"android":"levelo://app?vid=a8f63d2c-39d2-449c-95a5-17db81c8856e","ios":"levelo://app?vid=a8f63d2c-39d2-449c-95a5-17db81c8856e"},"vehicle_type_id":"4","last_reported":1769635212,"current_range_meters":3200,"station_id":"ce4bgkh2rcd13ifvqbl0","pricing_plan_id":"cebpf4jnsgd1na2vs0mg"},{"bike_id":"38939492-5112-461d-8788-f383260a8286","system_id":"levelo_inurba_marseille","lat":43.33169,"lon":5.3769,"is_reserved":false,"is_disabled":false,"rental_uris":{"android":"levelo://app?vid=38939492-5112-461d-8788-f383260a8286","ios":"levelo://app?vid=38939492-5112-461d-8788-f383260a8286"},"vehicle_type_id":"4","last_reported":1769635212,"current_range_meters":3200,"station_id":"st_d46cu089ee8s73dldbu0","pricing_plan_id":"cebpf4jnsgd1na2vs0mg"},{"bike_id":"832ba7eb-1c35-43cb-be63-61f58639df63","system_id":"levelo_inurba_marseille","lat":43.3237,"lon":5.36696,"is_reserved":false,"is_disabled":false,"rental_uris":{"android":"levelo://app?vid=832ba7eb-1c35-43cb-be63-61f58639df63","ios":"levelo://app?vid=832ba7eb-1c35-43cb-be63-61f58639df63"},"vehicle_type_id":"4","last_reported":1769635212,"current_range_meters":3200,"station_id":"","pricing_plan_id":"cebpf4jnsgd1na2vs0mg"},{"bike_id":"9c8d4b34-c932-4283-97b0-293f18098f46","system_id":"levelo_inurba_marseille","lat":43.308297,"lon":5.397041,"is_reserved":false,"is_disabled":false,"rental_uris":{"android":"levelo://app?vid=9c8d4b34-c932-4283-97b0-293f18098f46","ios":"levelo://app?vid=9c8d4b34-c932-4283-97b0-293f18098f46"},"vehicle_type_id":"4","last_reported":1769635212,"current_range_meters":3200,"station_id":"ce4bh012rcd13ifvqcv0","pricing_plan_id":"cebpf4jnsgd1na2vs0mg"},{"bike_id":"d2c4eb74-42b0-4647-9a1a-00c8b86dfe4c","system_id":"levelo_inurba_marseille","lat":43.25826,"lon":5.39422,"is_reserved":false,"is_disabled":false,"rental_uris":{"android":"levelo://app?vid=d2c4eb74-42b0-4647-9a1a-00c8b86dfe4c","ios":"levelo://app?vid=d2c4eb74-42b0-4647-9a1a-00c8b86dfe4c"},"vehicle_type_id":"4","last_reported":1769635212,"current_range_meters":3600,"station_id":"ce4bhip2rcd13ifvqft0","pricing_plan_id":"cebpf4jnsgd1na2vs0mg"},{"bike_id":"1acf350e-2e0b-4ac8-9800-5b952b099760","system_id":"levelo_inurba_marseille","lat":43.25086,"lon":5.39522,"is_reserved":false,"is_disabled":false,"rental_uris":{"android":"levelo://app?vid=1acf350e-2e0b-4ac8-9800-5b952b099760","ios":"levelo://app?vid=1acf350e-2e0b-4ac8-9800-5b952b099760"},"vehicle_type_id":"4","last_reported":1769635212,"current_range_meters":3600,"station_id":"","pricing_plan_id":"cebpf4jnsgd1na2vs0mg"},{"bike_id":"a380114a-1d66-461f-b4a0-4a6ba8946523","system_id":"levelo_inurba_marseille","lat":43.290392,"lon":5.35923,"is_reserved":false,"is_disabled":false,"rental_uris":{"android":"levelo://app?vid=a380114a-1d66-461f-b4a0-4a6ba8946523","ios":"levelo://app?vid=a380114a-1d66-461f-b4a0-4a6ba8946523"},"vehicle_type_id":"4","last_reported":1769635212,"current_range_meters":3600,"station_id":"ce4bha92rcd13ifvqeg0","pricing_plan_id":"cebpf4jnsgd1na2vs0mg"},{"bike_id":"30d5ad6b-daa5-4699-ad03-8950354a49a5","system_id":"levelo_inurba_marseille","lat":43.3212,"lon":5.36768,"is_reserved":false,"is_disabled":false,"rental_uris":{"android":"levelo://app?vid=30d5ad6b-daa5-4699-ad03-8950354a49a5","ios":"levelo://app?vid=30d5ad6b-daa5-4699-ad03-8950354a49a5"},"vehicle_type_id":"4","last_reported":1769635212,"current_range_meters":3600,"station_id":"ce4bhrh2rcd13ifvqhug","pricing_plan_id":"cebpf4jnsgd1na2vs0mg"},{"bike_id":"2e77998e-c517-4f35-8821-169fc0fea54e","system_id":"levelo_inurba_marseille","lat":43.23201,"lon":5.35522,"is_reserved":false,"is_disabled":false,"rental_uris":{"android":"levelo://app?vid=2e77998e-c517-4f35-8821-169fc0fea54e","ios":"levelo://app?vid=2e77998e-c517-4f35-8821-169fc0fea54e"},"vehicle_type_id":"4","last_reported":1769635212,"current_range_meters":3600,"station_id":"ce4bhu92rcd13ifvqi70","pricing_plan_id":"cebpf4jnsgd1na2vs0mg"},{"bike_id":"bd51588e-3b1b-43cc-abd8-ac28ecf3a1d5","system_id":"levelo_inurba_marseille","lat":43.24183,"lon":5.39727,"is_reserved":false,"is_disabled":false,"rental_uris":{"android":"levelo://app?vid=bd51588e-3b1b-43cc-abd8-ac28ecf3a1d5","ios":"levelo://app?vid=bd51588e-3b1b-43cc-abd8-ac28ecf3a1d5"},"vehicle_type_id":"4","last_reported":1769635212,"current_range_meters":4000,"station_id":"ce4bhn12rcd13ifvqgpg","pricing_plan_id":"cebpf4jnsgd1na2vs0mg"},{"bike_id":"fbd3674a-87b8-4b4e-a5ba-19fcce1180f5","system_id":"levelo_inurba_marseille","lat":43.29537,"lon":5.39035,"is_reserved":false,"is_disabled":false,"rental_uris":{"android":"levelo://app?vid=fbd3674a-87b8-4b4e-a5ba-19fcce1180f5","ios":"levelo://app?vid=fbd3674a-87b8-4b4e-a5ba-19fcce1180f5"},"vehicle_type_id":"4","last_reported":1769635212,"current_range_meters":4000,"station_id":"ce4bh3p2rcd13ifvqdp0","pricing_plan_id":"cebpf4jnsgd1na2vs0mg"},{"bike_id":"8de525a9-5bd3-43a9-9291-a02ed36bbc58","system_id":"levelo_inurba_marseille","lat":43.33164,"lon":5.37687,"is_reserved":false,"is_disabled":false,"rental_uris":{"android":"levelo://app?vid=8de525a9-5bd3-43a9-9291-a02ed36bbc58","ios":"levelo://app?vid=8de525a9-5bd3-43a9-9291-a02ed36bbc58"},"vehicle_type_id":"4","last_reported":1769635212,"current_range_meters":4000,"station_id":"st_d46cu089ee8s73dldbu0","pricing_plan_id":"cebpf4jnsgd1na2vs0mg"},{"bike_id":"1e7d407f-1c4a-4b36-8120-50f317fee588","system_id":"levelo_inurba_marseille","lat":43.26583,"lon":5.40334,"is_reserved":false,"is_disabled":false,"rental_uris":{"android":"levelo://app?vid=1e7d407f-1c4a-4b36-8120-50f317fee588","ios":"levelo://app?vid=1e7d407f-1c4a-4b36-8120-50f317fee588"},"vehicle_type_id":"4","last_reported":1769635212,"current_range_meters":4000,"station_id":"ce4bhmp2rcd13ifvqgng","pricing_plan_id":"cebpf4jnsgd1na2vs0mg"},{"bike_id":"82a6b099-0577-4798-9a60-21fb38c2bbb7","system_id":"levelo_inurba_marseille","lat":43.29833,"lon":5.4406,"is_reserved":false,"is_disabled":false,"rental_uris":{"android":"levelo://app?vid=82a6b099-0577-4798-9a60-21fb38c2bbb7","ios":"levelo://app?vid=82a6b099-0577-4798-9a60-21fb38c2bbb7"},"vehicle_type_id":"4","last_reported":1769635212,"current_range_meters":4400,"station_id":"","pricing_plan_id":"cebpf4jnsgd1na2vs0mg"},{"bike_id":"0994699c-2493-4cc2-b13f-c5567f29cfd1","system_id":"levelo_inurba_marseille","lat":43.25119,"lon":5.40334,"is_reserved":false,"is_disabled":false,"rental_uris":{"android":"levelo://app?vid=0994699c-2493-4cc2-b13f-c5567f29cfd1","ios":"levelo://app?vid=0994699c-2493-4cc2-b13f-c5567f29cfd1"},"vehicle_type_id":"4","last_reported":1769635212,"current_range_meters":4400,"station_id":"ce4bhlh2rcd13ifvqgig","pricing_plan_id":"cebpf4jnsgd1na2vs0mg"},{"bike_id":"7040bdbc-5052-46fd-9d78-6fb9765e379a","system_id":"levelo_inurba_marseille","lat":43.23971,"lon":5.3664,"is_reserved":false,"is_disabled":false,"rental_uris":{"android":"levelo://app?vid=7040bdbc-5052-46fd-9d78-6fb9765e379a","ios":"levelo://app?vid=7040bdbc-5052-46fd-9d78-6fb9765e379a"},"vehicle_type_id":"4","last_reported":1769635212,"current_range_meters":4400,"station_id":"ce4bhi12rcd13ifvqfp0","pricing_plan_id":"cebpf4jnsgd1na2vs0mg"},{"bike_id":"413006d6-f7e9-4cb1-b9cb-22a751913fbd","system_id":"levelo_inurba_marseille","lat":43.24806,"lon":5.37453,"is_reserved":false,"is_disabled":false,"rental_uris":{"android":"levelo://app?vid=413006d6-f7e9-4cb1-b9cb-22a751913fbd","ios":"levelo://app?vid=413006d6-f7e9-4cb1-b9cb-22a751913fbd"},"vehicle_type_id":"4","last_reported":1769635212,"current_range_meters":4400,"station_id":"ce4bhgh2rcd13ifvqfb0","pricing_plan_id":"cebpf4jnsgd1na2vs0mg"},{"bike_id":"1cf9dca6-72ef-480d-a19a-5c70638c6629","system_id":"levelo_inurba_marseille","lat":43.29285,"lon":5.36868,"is_reserved":false,"is_disabled":false,"rental_uris":{"android":"levelo://app?vid=1cf9dca6-72ef-480d-a19a-5c70638c6629","ios":"levelo://app?vid=1cf9dca6-72ef-480d-a19a-5c70638c6629"},"vehicle_type_id":"4","last_reported":1769635212,"current_range_meters":4400,"station_id":"ce4bhbp2rcd13ifvqesg","pricing_plan_id":"cebpf4jnsgd1na2vs0mg"},{"bike_id":"0c36045d-21d9-414f-adc7-93b78264ea05","system_id":"levelo_inurba_marseille","lat":43.28338,"lon":5.38108,"is_reserved":false,"is_disabled":false,"rental_uris":{"android":"levelo://app?vid=0c36045d-21d9-414f-adc7-93b78264ea05","ios":"levelo://app?vid=0c36045d-21d9-414f-adc7-93b78264ea05"},"vehicle_type_id":"4","last_reported":1769635212,"current_range_meters":4400,"station_id":"ce4bh412rcd13ifvqdr0","pricing_plan_id":"cebpf4jnsgd1na2vs0mg"},{"bike_id":"5432d7a0-1700-4fbb-98da-e9587b56686e","system_id":"levelo_inurba_marseille","lat":43.27618,"lon":5.36111,"is_reserved":false,"is_disabled":false,"rental_uris":{"android":"levelo://app?vid=5432d7a0-1700-4fbb-98da-e9587b56686e","ios":"levelo://app?vid=5432d7a0-1700-4fbb-98da-e9587b56686e"},"vehicle_type_id":"4","last_reported":1769635212,"current_range_meters":4800,"station_id":"ce4bgj92rcd13ifvqbe0","pricing_plan_id":"cebpf4jnsgd1na2vs0mg"},{"bike_id":"b0d0ca1c-3ec0-4474-8c0d-81ed475fe700","system_id":"levelo_inurba_marseille","lat":43.268066,"lon":5.402724,"is_reserved":false,"is_disabled":false,"rental_uris":{"android":"levelo://app?vid=b0d0ca1c-3ec0-4474-8c0d-81ed475fe700","ios":"levelo://app?vid=b0d0ca1c-3ec0-4474-8c0d-81ed475fe700"},"vehicle_type_id":"4","last_reported":1769635212,"current_range_meters":4800,"station_id":"ce501612rcd8frsf0b60","pricing_plan_id":"cebpf4jnsgd1na2vs0mg"},{"bike_id":"85165d95-55d2-4d6a-ba10-247f7996ac24","system_id":"levelo_inurba_marseille","lat":43.25344,"lon":5.42168,"is_reserved":false,"is_disabled":true,"rental_uris":{"android":"levelo://app?vid=85165d95-55d2-4d6a-ba10-247f7996ac24","ios":"levelo://app?vid=85165d95-55d2-4d6a-ba10-247f7996ac24"},"vehicle_type_id":"4","last_reported":1769635212,"current_range_meters":4800,"station_id":"st_d2m65c5bi1j21697t3ng","pricing_plan_id":"cebpf4jnsgd1na2vs0mg"},{"bike_id":"83fc51a6-33d8-4514-8bb6-691df6dd60b4","system_id":"levelo_inurba_marseille","lat":43.301258,"lon":5.431162,"is_reserved":false,"is_disabled":false,"rental_uris":{"android":"levelo://app?vid=83fc51a6-33d8-4514-8bb6-691df6dd60b4","ios":"levelo://app?vid=83fc51a6-33d8-4514-8bb6-691df6dd60b4"},"vehicle_type_id":"4","last_reported":1769635212,"current_range_meters":4800,"station_id":"st_d3js3co5814s73ftftug","pricing_plan_id":"cebpf4jnsgd1na2vs0mg"},{"bike_id":"01581b98-67ff-4bcc-9ddb-c3ce91143905","system_id":"levelo_inurba_marseille","lat":43.31209,"lon":5.39158,"is_reserved":false,"is_disabled":false,"rental_uris":{"android":"levelo://app?vid=01581b98-67ff-4bcc-9ddb-c3ce91143905","ios":"levelo://app?vid=01581b98-67ff-4bcc-9ddb-c3ce91143905"},"vehicle_type_id":"4","last_reported":1769635212,"current_range_meters":4800,"station_id":"","pricing_plan_id":"cebpf4jnsgd1na2vs0mg"},{"bike_id":"816eb520-f531-42e2-a20d-e9b7478ccf2a","system_id":"levelo_inurba_marseille","lat":43.28706,"lon":5.37385,"is_reserved":false,"is_disabled":false,"rental_uris":{"android":"levelo://app?vid=816eb520-f531-42e2-a20d-e9b7478ccf2a","ios":"levelo://app?vid=816eb520-f531-42e2-a20d-e9b7478ccf2a"},"vehicle_type_id":"4","last_reported":1769635212,"current_range_meters":4800,"station_id":"ce4bh3p2rcd13ifvqdq0","pricing_plan_id":"cebpf4jnsgd1na2vs0mg"},{"bike_id":"f3e9f9a1-18e7-4a48-a464-0191ac1803bc","system_id":"levelo_inurba_marseille","lat":43.274,"lon":5.3936,"is_reserved":false,"is_disabled":false,"rental_uris":{"android":"levelo://app?vid=f3e9f9a1-18e7-4a48-a464-0191ac1803bc","ios":"levelo://app?vid=f3e9f9a1-18e7-4a48-a464-0191ac1803bc"},"vehicle_type_id":"4","last_reported":1769635212,"current_range_meters":4800,"station_id":"ce4bhdp2rcd13ifvqf20","pricing_plan_id":"cebpf4jnsgd1na2vs0mg"},{"bike_id":"69015cf3-bc6b-446f-9be5-f6f422a1478d","system_id":"levelo_inurba_marseille","lat":43.28887,"lon":5.42513,"is_reserved":false,"is_disabled":false,"rental_uris":{"android":"levelo://app?vid=69015cf3-bc6b-446f-9be5-f6f422a1478d","ios":"levelo://app?vid=69015cf3-bc6b-446f-9be5-f6f422a1478d"},"vehicle_type_id":"4","last_reported":1769635212,"current_range_meters":4800,"station_id":"st_d3b462108ojc7389ooeg","pricing_plan_id":"cebpf4jnsgd1na2vs0mg"},{"bike_id":"5c4946bb-467c-4e13-93fb-6a7f74490291","system_id":"levelo_inurba_marseille","lat":43.293073,"lon":5.371592,"is_reserved":false,"is_disabled":false,"rental_uris":{"android":"levelo://app?vid=5c4946bb-467c-4e13-93fb-6a7f74490291","ios":"levelo://app?vid=5c4946bb-467c-4e13-93fb-6a7f74490291"},"vehicle_type_id":"4","last_reported":1769635212,"current_range_meters":4800,"station_id":"ce4bgh92rcd13ifvqb40","pricing_plan_id":"cebpf4jnsgd1na2vs0mg"},{"bike_id":"725738f1-82fd-49fd-9e47-51637d72c16b","system_id":"levelo_inurba_marseille","lat":43.27992,"lon":5.40017,"is_reserved":false,"is_disabled":false,"rental_uris":{"android":"levelo://app?vid=725738f1-82fd-49fd-9e47-51637d72c16b","ios":"levelo://app?vid=725738f1-82fd-49fd-9e47-51637d72c16b"},"vehicle_type_id":"4","last_reported":1769635212,"current_range_meters":5600,"station_id":"ce4bho92rcd13ifvqh4g","pricing_plan_id":"cebpf4jnsgd1na2vs0mg"},{"bike_id":"7f17d0e0-c551-448a-9a02-7034a1e1a800","system_id":"levelo_inurba_marseille","lat":43.28675,"lon":5.38697,"is_reserved":false,"is_disabled":false,"rental_uris":{"android":"levelo://app?vid=7f17d0e0-c551-448a-9a02-7034a1e1a800","ios":"levelo://app?vid=7f17d0e0-c551-448a-9a02-7034a1e1a800"},"vehicle_type_id":"4","last_reported":1769635212,"current_range_meters":5600,"station_id":"ce4bh492rcd13ifvqdug","pricing_plan_id":"cebpf4jnsgd1na2vs0mg"},{"bike_id":"71474573-e139-42f3-bf94-d0fc6a99c0c9","system_id":"levelo_inurba_marseille","lat":43.28108,"lon":5.42664,"is_reserved":false,"is_disabled":false,"rental_uris":{"android":"levelo://app?vid=71474573-e139-42f3-bf94-d0fc6a99c0c9","ios":"levelo://app?vid=71474573-e139-42f3-bf94-d0fc6a99c0c9"},"vehicle_type_id":"4","last_reported":1769635212,"current_range_meters":5600,"station_id":"","pricing_plan_id":"cebpf4jnsgd1na2vs0mg"},{"bike_id":"b2d1a884-1541-45ce-ba1a-d04506708ff2","system_id":"levelo_inurba_marseille","lat":43.26563,"lon":5.37283,"is_reserved":false,"is_disabled":false,"rental_uris":{"android":"levelo://app?vid=b2d1a884-1541-45ce-ba1a-d04506708ff2","ios":"levelo://app?vid=b2d1a884-1541-45ce-ba1a-d04506708ff2"},"vehicle_type_id":"4","last_reported":1769635212,"current_range_meters":5600,"station_id":"ce4bhg12rcd13ifvqf70","pricing_plan_id":"cebpf4jnsgd1na2vs0mg"},{"bike_id":"72089be9-38d6-423c-b54b-444cdb64406b","system_id":"levelo_inurba_marseille","lat":43.2843,"lon":5.34972,"is_reserved":false,"is_disabled":false,"rental_uris":{"android":"levelo://app?vid=72089be9-38d6-423c-b54b-444cdb64406b","ios":"levelo://app?vid=72089be9-38d6-423c-b54b-444cdb64406b"},"vehicle_type_id":"4","last_reported":1769635212,"current_range_meters":5600,"station_id":"ce4bhbh2rcd13ifvqepg","pricing_plan_id":"cebpf4jnsgd1na2vs0mg"},{"bike_id":"dd89bf3d-45fd-460e-b92d-743d68f5711f","system_id":"levelo_inurba_marseille","lat":43.26827,"lon":5.40254,"is_reserved":false,"is_disabled":false,"rental_uris":{"android":"levelo://app?vid=dd89bf3d-45fd-460e-b92d-743d68f5711f","ios":"levelo://app?vid=dd89bf3d-45fd-460e-b92d-743d68f5711f"},"vehicle_type_id":"4","last_reported":1769635212,"current_range_meters":5600,"station_id":"ce501612rcd8frsf0b60","pricing_plan_id":"cebpf4jnsgd1na2vs0mg"},{"bike_id":"f48c1f6e-0473-4847-8c29-30c8ea2f18f5","system_id":"levelo_inurba_marseille","lat":43.29486,"lon":5.43308,"is_reserved":false,"is_disabled":false,"rental_uris":{"android":"levelo://app?vid=f48c1f6e-0473-4847-8c29-30c8ea2f18f5","ios":"levelo://app?vid=f48c1f6e-0473-4847-8c29-30c8ea2f18f5"},"vehicle_type_id":"4","last_reported":1769635212,"current_range_meters":5600,"station_id":"st_d3j5ugp08ojc73fj9d10","pricing_plan_id":"cebpf4jnsgd1na2vs0mg"},{"bike_id":"3aaa97e8-6cbb-46f2-8298-95220655c5c8","system_id":"levelo_inurba_marseille","lat":43.28485,"lon":5.48371,"is_reserved":false,"is_disabled":false,"rental_uris":{"android":"levelo://app?vid=3aaa97e8-6cbb-46f2-8298-95220655c5c8","ios":"levelo://app?vid=3aaa97e8-6cbb-46f2-8298-95220655c5c8"},"vehicle_type_id":"4","last_reported":1769635212,"current_range_meters":5600,"station_id":"st_d3svhcjqgbts73a3dn0g","pricing_plan_id":"cebpf4jnsgd1na2vs0mg"},{"bike_id":"d89cb808-8be7-494a-ac67-861b643bb449","system_id":"levelo_inurba_marseille","lat":43.26587,"lon":5.39031,"is_reserved":false,"is_disabled":false,"rental_uris":{"android":"levelo://app?vid=d89cb808-8be7-494a-ac67-861b643bb449","ios":"levelo://app?vid=d89cb808-8be7-494a-ac67-861b643bb449"},"vehicle_type_id":"4","last_reported":1769635212,"current_range_meters":5600,"station_id":"ce4bhe12rcd13ifvqf30","pricing_plan_id":"cebpf4jnsgd1na2vs0mg"},{"bike_id":"dd025a3b-8d88-4cc7-98ea-d46d5c91c806","system_id":"levelo_inurba_marseille","lat":43.27187,"lon":5.40996,"is_reserved":false,"is_disabled":false,"rental_uris":{"android":"levelo://app?vid=dd025a3b-8d88-4cc7-98ea-d46d5c91c806","ios":"levelo://app?vid=dd025a3b-8d88-4cc7-98ea-d46d5c91c806"},"vehicle_type_id":"4","last_reported":1769635212,"current_range_meters":5600,"station_id":"ce4bhl12rcd13ifvqgf0","pricing_plan_id":"cebpf4jnsgd1na2vs0mg"},{"bike_id":"8e605c7c-a289-4860-970e-e9553ff10db2","system_id":"levelo_inurba_marseille","lat":43.28595,"lon":5.38537,"is_reserved":false,"is_disabled":false,"rental_uris":{"android":"levelo://app?vid=8e605c7c-a289-4860-970e-e9553ff10db2","ios":"levelo://app?vid=8e605c7c-a289-4860-970e-e9553ff10db2"},"vehicle_type_id":"4","last_reported":1769635212,"current_range_meters":5600,"station_id":"","pricing_plan_id":"cebpf4jnsgd1na2vs0mg"},{"bike_id":"b4cc194d-64fb-48ee-9836-91684353904f","system_id":"levelo_inurba_marseille","lat":43.29525,"lon":5.39027,"is_reserved":false,"is_disabled":false,"rental_uris":{"android":"levelo://app?vid=b4cc194d-64fb-48ee-9836-91684353904f","ios":"levelo://app?vid=b4cc194d-64fb-48ee-9836-91684353904f"},"vehicle_type_id":"4","last_reported":1769635212,"current_range_meters":5600,"station_id":"ce4bh3p2rcd13ifvqdp0","pricing_plan_id":"cebpf4jnsgd1na2vs0mg"},{"bike_id":"1c28b0bd-3eca-46f6-a58a-d76a26f70029","system_id":"levelo_inurba_marseille","lat":43.25586,"lon":5.38234,"is_reserved":false,"is_disabled":false,"rental_uris":{"android":"levelo://app?vid=1c28b0bd-3eca-46f6-a58a-d76a26f70029","ios":"levelo://app?vid=1c28b0bd-3eca-46f6-a58a-d76a26f70029"},"vehicle_type_id":"4","last_reported":1769635212,"current_range_meters":6000,"station_id":"ce4bhih2rcd13ifvqfs0","pricing_plan_id":"cebpf4jnsgd1na2vs0mg"},{"bike_id":"2b025830-a75f-4dd0-9345-1f4a2853b8f8","system_id":"levelo_inurba_marseille","lat":43.32371,"lon":5.36717,"is_reserved":false,"is_disabled":false,"rental_uris":{"android":"levelo://app?vid=2b025830-a75f-4dd0-9345-1f4a2853b8f8","ios":"levelo://app?vid=2b025830-a75f-4dd0-9345-1f4a2853b8f8"},"vehicle_type_id":"4","last_reported":1769635212,"current_range_meters":6000,"station_id":"","pricing_plan_id":"cebpf4jnsgd1na2vs0mg"},{"bike_id":"3b349a26-b9cd-4889-8572-98eda2b02afd","system_id":"levelo_inurba_marseille","lat":43.29008,"lon":5.35603,"is_reserved":false,"is_disabled":false,"rental_uris":{"android":"levelo://app?vid=3b349a26-b9cd-4889-8572-98eda2b02afd","ios":"levelo://app?vid=3b349a26-b9cd-4889-8572-98eda2b02afd"},"vehicle_type_id":"4","last_reported":1769635212,"current_range_meters":6000,"station_id":"ce4bhb92rcd13ifvqen0","pricing_plan_id":"cebpf4jnsgd1na2vs0mg"},{"bike_id":"b519bc17-e693-4595-a4db-151d92295964","system_id":"levelo_inurba_marseille","lat":43.29309,"lon":5.37478,"is_reserved":false,"is_disabled":false,"rental_uris":{"android":"levelo://app?vid=b519bc17-e693-4595-a4db-151d92295964","ios":"levelo://app?vid=b519bc17-e693-4595-a4db-151d92295964"},"vehicle_type_id":"4","last_reported":1769635212,"current_range_meters":6000,"station_id":"ce4bgi12rcd13ifvqb70","pricing_plan_id":"cebpf4jnsgd1na2vs0mg"},{"bike_id":"64121344-1e65-4a9c-ab6f-e47ecd652c7b","system_id":"levelo_inurba_marseille","lat":43.30158,"lon":5.3743,"is_reserved":false,"is_disabled":false,"rental_uris":{"android":"levelo://app?vid=64121344-1e65-4a9c-ab6f-e47ecd652c7b","ios":"levelo://app?vid=64121344-1e65-4a9c-ab6f-e47ecd652c7b"},"vehicle_type_id":"4","last_reported":1769635212,"current_range_meters":6000,"station_id":"ce4bgs92rcd13ifvqcc0","pricing_plan_id":"cebpf4jnsgd1na2vs0mg"},{"bike_id":"11ea5605-7882-4487-a008-b5f4221886b5","system_id":"levelo_inurba_marseille","lat":43.31438,"lon":5.37413,"is_reserved":false,"is_disabled":false,"rental_uris":{"android":"levelo://app?vid=11ea5605-7882-4487-a008-b5f4221886b5","ios":"levelo://app?vid=11ea5605-7882-4487-a008-b5f4221886b5"},"vehicle_type_id":"4","last_reported":1769635212,"current_range_meters":6000,"station_id":"","pricing_plan_id":"cebpf4jnsgd1na2vs0mg"},{"bike_id":"930c65a4-41b5-4fde-b2c8-b090ce1093d6","system_id":"levelo_inurba_marseille","lat":43.28476,"lon":5.35887,"is_reserved":false,"is_disabled":false,"rental_uris":{"android":"levelo://app?vid=930c65a4-41b5-4fde-b2c8-b090ce1093d6","ios":"levelo://app?vid=930c65a4-41b5-4fde-b2c8-b090ce1093d6"},"vehicle_type_id":"4","last_reported":1769635212,"current_range_meters":6000,"station_id":"ce4bhah2rcd13ifvqei0","pricing_plan_id":"cebpf4jnsgd1na2vs0mg"},{"bike_id":"cd737560-f7db-4070-9139-519c55f31a04","system_id":"levelo_inurba_marseille","lat":43.2319,"lon":5.4001,"is_reserved":false,"is_disabled":false,"rental_uris":{"android":"levelo://app?vid=cd737560-f7db-4070-9139-519c55f31a04","ios":"levelo://app?vid=cd737560-f7db-4070-9139-519c55f31a04"},"vehicle_type_id":"4","last_reported":1769635212,"current_range_meters":6000,"station_id":"ce4bhn12rcd13ifvqgqg","pricing_plan_id":"cebpf4jnsgd1na2vs0mg"},{"bike_id":"fa4f137b-a5cd-4c21-a300-5864eb1e4bc1","system_id":"levelo_inurba_marseille","lat":43.27958,"lon":5.38725,"is_reserved":false,"is_disabled":true,"rental_uris":{"android":"levelo://app?vid=fa4f137b-a5cd-4c21-a300-5864eb1e4bc1","ios":"levelo://app?vid=fa4f137b-a5cd-4c21-a300-5864eb1e4bc1"},"vehicle_type_id":"4","last_reported":1769635212,"current_range_meters":6000,"station_id":"ce4bhg12rcd13ifvqf80","pricing_plan_id":"cebpf4jnsgd1na2vs0mg"},{"bike_id":"6a691a1a-2aa7-452c-9f69-61787aa27673","system_id":"levelo_inurba_marseille","lat":43.292735,"lon":5.368462,"is_reserved":false,"is_disabled":false,"rental_uris":{"android":"levelo://app?vid=6a691a1a-2aa7-452c-9f69-61787aa27673","ios":"levelo://app?vid=6a691a1a-2aa7-452c-9f69-61787aa27673"},"vehicle_type_id":"4","last_reported":1769635212,"current_range_meters":6000,"station_id":"ce4bhbp2rcd13ifvqesg","pricing_plan_id":"cebpf4jnsgd1na2vs0mg"},{"bike_id":"575ef269-368a-43ce-ae39-c066413ba15d","system_id":"levelo_inurba_marseille","lat":43.28045,"lon":5.36949,"is_reserved":false,"is_disabled":false,"rental_uris":{"android":"levelo://app?vid=575ef269-368a-43ce-ae39-c066413ba15d","ios":"levelo://app?vid=575ef269-368a-43ce-ae39-c066413ba15d"},"vehicle_type_id":"4","last_reported":1769635212,"current_range_meters":6000,"station_id":"ce4bha12rcd13ifvqef0","pricing_plan_id":"cebpf4jnsgd1na2vs0mg"},{"bike_id":"66a9efd0-01de-4cac-ae4f-a848ca6a2a1d","system_id":"levelo_inurba_marseille","lat":43.26811,"lon":5.40295,"is_reserved":false,"is_disabled":false,"rental_uris":{"android":"levelo://app?vid=66a9efd0-01de-4cac-ae4f-a848ca6a2a1d","ios":"levelo://app?vid=66a9efd0-01de-4cac-ae4f-a848ca6a2a1d"},"vehicle_type_id":"4","last_reported":1769635212,"current_range_meters":6000,"station_id":"ce501612rcd8frsf0b60","pricing_plan_id":"cebpf4jnsgd1na2vs0mg"},{"bike_id":"7685a49c-8aa3-4105-b6c4-9b0fdec5d0f8","system_id":"levelo_inurba_marseille","lat":43.31499,"lon":5.3723,"is_reserved":false,"is_disabled":false,"rental_uris":{"android":"levelo://app?vid=7685a49c-8aa3-4105-b6c4-9b0fdec5d0f8","ios":"levelo://app?vid=7685a49c-8aa3-4105-b6c4-9b0fdec5d0f8"},"vehicle_type_id":"4","last_reported":1769635212,"current_range_meters":6000,"station_id":"","pricing_plan_id":"cebpf4jnsgd1na2vs0mg"},{"bike_id":"80142bb3-b198-40c8-8cf5-2be98848c7b0","system_id":"levelo_inurba_marseille","lat":43.28275,"lon":5.35067,"is_reserved":false,"is_disabled":false,"rental_uris":{"android":"levelo://app?vid=80142bb3-b198-40c8-8cf5-2be98848c7b0","ios":"levelo://app?vid=80142bb3-b198-40c8-8cf5-2be98848c7b0"},"vehicle_type_id":"4","last_reported":1769635212,"current_range_meters":6000,"station_id":"ce4bhbp2rcd13ifvqerg","pricing_plan_id":"cebpf4jnsgd1na2vs0mg"},{"bike_id":"8d798e6d-f25a-4bb0-a8e7-6f01b0dea7db","system_id":"levelo_inurba_marseille","lat":43.296,"lon":5.37687,"is_reserved":false,"is_disabled":true,"rental_uris":{"android":"levelo://app?vid=8d798e6d-f25a-4bb0-a8e7-6f01b0dea7db","ios":"levelo://app?vid=8d798e6d-f25a-4bb0-a8e7-6f01b0dea7db"},"vehicle_type_id":"4","last_reported":1769635212,"current_range_meters":6400,"station_id":"ce4bgi92rcd13ifvqb90","pricing_plan_id":"cebpf4jnsgd1na2vs0mg"},{"bike_id":"b32156a5-0f42-4031-8c85-8ff425eea62c","system_id":"levelo_inurba_marseille","lat":43.30928,"lon":5.39652,"is_reserved":false,"is_disabled":false,"rental_uris":{"android":"levelo://app?vid=b32156a5-0f42-4031-8c85-8ff425eea62c","ios":"levelo://app?vid=b32156a5-0f42-4031-8c85-8ff425eea62c"},"vehicle_type_id":"4","last_reported":1769635212,"current_range_meters":6400,"station_id":"ce4bh012rcd13ifvqcv0","pricing_plan_id":"cebpf4jnsgd1na2vs0mg"},{"bike_id":"18975a44-e499-49a1-a68c-bdc7f9cfefe3","system_id":"levelo_inurba_marseille","lat":43.24073,"lon":5.37765,"is_reserved":false,"is_disabled":false,"rental_uris":{"android":"levelo://app?vid=18975a44-e499-49a1-a68c-bdc7f9cfefe3","ios":"levelo://app?vid=18975a44-e499-49a1-a68c-bdc7f9cfefe3"},"vehicle_type_id":"4","last_reported":1769635212,"current_range_meters":6400,"station_id":"ce4bhnp2rcd13ifvqgvg","pricing_plan_id":"cebpf4jnsgd1na2vs0mg"},{"bike_id":"c05dd82c-c313-4155-97d6-b2845c2b674b","system_id":"levelo_inurba_marseille","lat":43.30657,"lon":5.40102,"is_reserved":false,"is_disabled":false,"rental_uris":{"android":"levelo://app?vid=c05dd82c-c313-4155-97d6-b2845c2b674b","ios":"levelo://app?vid=c05dd82c-c313-4155-97d6-b2845c2b674b"},"vehicle_type_id":"4","last_reported":1769635212,"current_range_meters":6400,"station_id":"ce4bh112rcd13ifvqda0","pricing_plan_id":"cebpf4jnsgd1na2vs0mg"},{"bike_id":"91a684bf-aaa1-4f4c-aff7-c10249f555a8","system_id":"levelo_inurba_marseille","lat":43.30111,"lon":5.39089,"is_reserved":false,"is_disabled":true,"rental_uris":{"android":"levelo://app?vid=91a684bf-aaa1-4f4c-aff7-c10249f555a8","ios":"levelo://app?vid=91a684bf-aaa1-4f4c-aff7-c10249f555a8"},"vehicle_type_id":"4","last_reported":1769635212,"current_range_meters":6400,"station_id":"ce4bh192rcd13ifvqdb0","pricing_plan_id":"cebpf4jnsgd1na2vs0mg"},{"bike_id":"eabc1a0b-29e5-4a39-9680-b7193c71163a","system_id":"levelo_inurba_marseille","lat":43.31061,"lon":5.38369,"is_reserved":false,"is_disabled":false,"rental_uris":{"android":"levelo://app?vid=eabc1a0b-29e5-4a39-9680-b7193c71163a","ios":"levelo://app?vid=eabc1a0b-29e5-4a39-9680-b7193c71163a"},"vehicle_type_id":"4","last_reported":1769635212,"current_range_meters":6400,"station_id":"ce4bgv92rcd13ifvqcr0","pricing_plan_id":"cebpf4jnsgd1na2vs0mg"},{"bike_id":"127506ad-716b-45f9-be38-46d06665f504","system_id":"levelo_inurba_marseille","lat":43.30348,"lon":5.40428,"is_reserved":false,"is_disabled":false,"rental_uris":{"android":"levelo://app?vid=127506ad-716b-45f9-be38-46d06665f504","ios":"levelo://app?vid=127506ad-716b-45f9-be38-46d06665f504"},"vehicle_type_id":"4","last_reported":1769635212,"current_range_meters":6400,"station_id":"ce4bh012rcd13ifvqd10","pricing_plan_id":"cebpf4jnsgd1na2vs0mg"},{"bike_id":"87fb2bbb-e7b2-41eb-8bfb-45f7cbe760ab","system_id":"levelo_inurba_marseille","lat":43.28014,"lon":5.40034,"is_reserved":false,"is_disabled":false,"rental_uris":{"android":"levelo://app?vid=87fb2bbb-e7b2-41eb-8bfb-45f7cbe760ab","ios":"levelo://app?vid=87fb2bbb-e7b2-41eb-8bfb-45f7cbe760ab"},"vehicle_type_id":"4","last_reported":1769635212,"current_range_meters":6400,"station_id":"ce4bho92rcd13ifvqh4g","pricing_plan_id":"cebpf4jnsgd1na2vs0mg"},{"bike_id":"3ac5ebe5-0653-413b-95dd-c53fcaae71d6","system_id":"levelo_inurba_marseille","lat":43.299178,"lon":5.374786,"is_reserved":false,"is_disabled":false,"rental_uris":{"android":"levelo://app?vid=3ac5ebe5-0653-413b-95dd-c53fcaae71d6","ios":"levelo://app?vid=3ac5ebe5-0653-413b-95dd-c53fcaae71d6"},"vehicle_type_id":"4","last_reported":1769635212,"current_range_meters":6400,"station_id":"","pricing_plan_id":"cebpf4jnsgd1na2vs0mg"},{"bike_id":"215d9242-cc67-4957-98e5-94a2159c71f8","system_id":"levelo_inurba_marseille","lat":43.32366,"lon":5.36756,"is_reserved":false,"is_disabled":false,"rental_uris":{"android":"levelo://app?vid=215d9242-cc67-4957-98e5-94a2159c71f8","ios":"levelo://app?vid=215d9242-cc67-4957-98e5-94a2159c71f8"},"vehicle_type_id":"4","last_reported":1769635212,"current_range_meters":6400,"station_id":"ce4bhsh2rcd13ifvqi2g","pricing_plan_id":"cebpf4jnsgd1na2vs0mg"},{"bike_id":"471829e1-c067-4549-a05d-ab9d3f7ce478","system_id":"levelo_inurba_marseille","lat":43.287291,"lon":5.38913,"is_reserved":false,"is_disabled":false,"rental_uris":{"android":"levelo://app?vid=471829e1-c067-4549-a05d-ab9d3f7ce478","ios":"levelo://app?vid=471829e1-c067-4549-a05d-ab9d3f7ce478"},"vehicle_type_id":"4","last_reported":1769635212,"current_range_meters":6400,"station_id":"ce4bh192rcd13ifvqdb0","pricing_plan_id":"cebpf4jnsgd1na2vs0mg"},{"bike_id":"c00d1abe-f6f3-4677-9b5b-65f2d4348ca7","system_id":"levelo_inurba_marseille","lat":43.23195,"lon":5.35557,"is_reserved":false,"is_disabled":false,"rental_uris":{"android":"levelo://app?vid=c00d1abe-f6f3-4677-9b5b-65f2d4348ca7","ios":"levelo://app?vid=c00d1abe-f6f3-4677-9b5b-65f2d4348ca7"},"vehicle_type_id":"4","last_reported":1769635212,"current_range_meters":6400,"station_id":"ce4bhu92rcd13ifvqi70","pricing_plan_id":"cebpf4jnsgd1na2vs0mg"},{"bike_id":"72e1ff24-6af7-4c0e-a0b5-18d5a81f63fe","system_id":"levelo_inurba_marseille","lat":43.27959,"lon":5.41039,"is_reserved":false,"is_disabled":false,"rental_uris":{"android":"levelo://app?vid=72e1ff24-6af7-4c0e-a0b5-18d5a81f63fe","ios":"levelo://app?vid=72e1ff24-6af7-4c0e-a0b5-18d5a81f63fe"},"vehicle_type_id":"4","last_reported":1769635212,"current_range_meters":6400,"station_id":"ce4bhnp2rcd13ifvqh0g","pricing_plan_id":"cebpf4jnsgd1na2vs0mg"},{"bike_id":"0e67fe98-9108-433b-9434-394fc2106387","system_id":"levelo_inurba_marseille","lat":43.2463,"lon":5.43138,"is_reserved":false,"is_disabled":false,"rental_uris":{"android":"levelo://app?vid=0e67fe98-9108-433b-9434-394fc2106387","ios":"levelo://app?vid=0e67fe98-9108-433b-9434-394fc2106387"},"vehicle_type_id":"4","last_reported":1769635212,"current_range_meters":6400,"station_id":"st_d2m6c4gdas8pm72e190g","pricing_plan_id":"cebpf4jnsgd1na2vs0mg"},{"bike_id":"9c7ec51d-860f-48f1-819f-2ce47c19a6ec","system_id":"levelo_inurba_marseille","lat":43.29978,"lon":5.38495,"is_reserved":false,"is_disabled":true,"rental_uris":{"android":"levelo://app?vid=9c7ec51d-860f-48f1-819f-2ce47c19a6ec","ios":"levelo://app?vid=9c7ec51d-860f-48f1-819f-2ce47c19a6ec"},"vehicle_type_id":"4","last_reported":1769635212,"current_range_meters":6400,"station_id":"ce4bgj92rcd13ifvqbd0","pricing_plan_id":"cebpf4jnsgd1na2vs0mg"},{"bike_id":"f3a64c65-4a5a-4fd3-971b-1b35de978008","system_id":"levelo_inurba_marseille","lat":43.27555,"lon":5.3842,"is_reserved":false,"is_disabled":true,"rental_uris":{"android":"levelo://app?vid=f3a64c65-4a5a-4fd3-971b-1b35de978008","ios":"levelo://app?vid=f3a64c65-4a5a-4fd3-971b-1b35de978008"},"vehicle_type_id":"4","last_reported":1769635212,"current_range_meters":6400,"station_id":"ce4bhh92rcd13ifvqfi0","pricing_plan_id":"cebpf4jnsgd1na2vs0mg"},{"bike_id":"ca12b7cc-8815-40ae-be57-f808e99266b1","system_id":"levelo_inurba_marseille","lat":43.29029,"lon":5.38123,"is_reserved":false,"is_disabled":false,"rental_uris":{"android":"levelo://app?vid=ca12b7cc-8815-40ae-be57-f808e99266b1","ios":"levelo://app?vid=ca12b7cc-8815-40ae-be57-f808e99266b1"},"vehicle_type_id":"4","last_reported":1769635212,"current_range_meters":6400,"station_id":"ce4bh4p2rcd13ifvqe1g","pricing_plan_id":"cebpf4jnsgd1na2vs0mg"},{"bike_id":"f1456dcf-2e61-431a-b78d-ce4624a9cf9a","system_id":"levelo_inurba_marseille","lat":43.27073,"lon":5.4228,"is_reserved":false,"is_disabled":false,"rental_uris":{"android":"levelo://app?vid=f1456dcf-2e61-431a-b78d-ce4624a9cf9a","ios":"levelo://app?vid=f1456dcf-2e61-431a-b78d-ce4624a9cf9a"},"vehicle_type_id":"4","last_reported":1769635212,"current_range_meters":6400,"station_id":"ce4bhk92rcd13ifvqgb0","pricing_plan_id":"cebpf4jnsgd1na2vs0mg"},{"bike_id":"a3120952-f4de-483f-ac39-1358612b53f0","system_id":"levelo_inurba_marseille","lat":43.29264,"lon":5.36852,"is_reserved":false,"is_disabled":false,"rental_uris":{"android":"levelo://app?vid=a3120952-f4de-483f-ac39-1358612b53f0","ios":"levelo://app?vid=a3120952-f4de-483f-ac39-1358612b53f0"},"vehicle_type_id":"4","last_reported":1769635212,"current_range_meters":6400,"station_id":"ce4bhbp2rcd13ifvqesg","pricing_plan_id":"cebpf4jnsgd1na2vs0mg"},{"bike_id":"9183a072-7ef7-40b6-9d57-92fed5e7631a","system_id":"levelo_inurba_marseille","lat":43.30129,"lon":5.43112,"is_reserved":false,"is_disabled":false,"rental_uris":{"android":"levelo://app?vid=9183a072-7ef7-40b6-9d57-92fed5e7631a","ios":"levelo://app?vid=9183a072-7ef7-40b6-9d57-92fed5e7631a"},"vehicle_type_id":"4","last_reported":1769635212,"current_range_meters":6800,"station_id":"st_d3js3co5814s73ftftug","pricing_plan_id":"cebpf4jnsgd1na2vs0mg"},{"bike_id":"5d05d531-ebc5-422e-a94d-fab2e789248e","system_id":"levelo_inurba_marseille","lat":43.25098,"lon":5.39507,"is_reserved":false,"is_disabled":false,"rental_uris":{"android":"levelo://app?vid=5d05d531-ebc5-422e-a94d-fab2e789248e","ios":"levelo://app?vid=5d05d531-ebc5-422e-a94d-fab2e789248e"},"vehicle_type_id":"4","last_reported":1769635212,"current_range_meters":6800,"station_id":"ce4bhm12rcd13ifvqgkg","pricing_plan_id":"cebpf4jnsgd1na2vs0mg"},{"bike_id":"69a8705c-622c-4687-befc-0e95f406c55e","system_id":"levelo_inurba_marseille","lat":43.22568,"lon":5.41625,"is_reserved":false,"is_disabled":false,"rental_uris":{"android":"levelo://app?vid=69a8705c-622c-4687-befc-0e95f406c55e","ios":"levelo://app?vid=69a8705c-622c-4687-befc-0e95f406c55e"},"vehicle_type_id":"4","last_reported":1769635212,"current_range_meters":6800,"station_id":"st_d2o4gvlbi1j2169b742g","pricing_plan_id":"cebpf4jnsgd1na2vs0mg"},{"bike_id":"c7e4813a-c248-4d27-817f-f64ef50a11f2","system_id":"levelo_inurba_marseille","lat":43.25949,"lon":5.40897,"is_reserved":false,"is_disabled":false,"rental_uris":{"android":"levelo://app?vid=c7e4813a-c248-4d27-817f-f64ef50a11f2","ios":"levelo://app?vid=c7e4813a-c248-4d27-817f-f64ef50a11f2"},"vehicle_type_id":"4","last_reported":1769635212,"current_range_meters":6800,"station_id":"ce4bhm92rcd13ifvqglg","pricing_plan_id":"cebpf4jnsgd1na2vs0mg"},{"bike_id":"5e406290-9171-4dad-9429-931275daccc4","system_id":"levelo_inurba_marseille","lat":43.29259,"lon":5.38433,"is_reserved":false,"is_disabled":false,"rental_uris":{"android":"levelo://app?vid=5e406290-9171-4dad-9429-931275daccc4","ios":"levelo://app?vid=5e406290-9171-4dad-9429-931275daccc4"},"vehicle_type_id":"4","last_reported":1769635212,"current_range_meters":6800,"station_id":"ce4bh692rcd13ifvqea0","pricing_plan_id":"cebpf4jnsgd1na2vs0mg"},{"bike_id":"266b0834-654b-47d2-95f5-e9ad274f17f8","system_id":"levelo_inurba_marseille","lat":43.23791,"lon":5.36634,"is_reserved":false,"is_disabled":false,"rental_uris":{"android":"levelo://app?vid=266b0834-654b-47d2-95f5-e9ad274f17f8","ios":"levelo://app?vid=266b0834-654b-47d2-95f5-e9ad274f17f8"},"vehicle_type_id":"4","last_reported":1769635212,"current_range_meters":6800,"station_id":"st_d3nk18o9ro0c73en2l3g","pricing_plan_id":"cebpf4jnsgd1na2vs0mg"},{"bike_id":"8d6c3c35-9339-47a7-89ed-64308b957c9d","system_id":"levelo_inurba_marseille","lat":43.30726,"lon":5.4087,"is_reserved":false,"is_disabled":false,"rental_uris":{"android":"levelo://app?vid=8d6c3c35-9339-47a7-89ed-64308b957c9d","ios":"levelo://app?vid=8d6c3c35-9339-47a7-89ed-64308b957c9d"},"vehicle_type_id":"4","last_reported":1769635212,"current_range_meters":6800,"station_id":"","pricing_plan_id":"cebpf4jnsgd1na2vs0mg"},{"bike_id":"8d5ad576-7df0-4e21-9440-3fe6a62ee683","system_id":"levelo_inurba_marseille","lat":43.29504,"lon":5.39047,"is_reserved":false,"is_disabled":false,"rental_uris":{"android":"levelo://app?vid=8d5ad576-7df0-4e21-9440-3fe6a62ee683","ios":"levelo://app?vid=8d5ad576-7df0-4e21-9440-3fe6a62ee683"},"vehicle_type_id":"4","last_reported":1769635212,"current_range_meters":6800,"station_id":"ce4bh3p2rcd13ifvqdp0","pricing_plan_id":"cebpf4jnsgd1na2vs0mg"},{"bike_id":"78ca3fa5-5325-4fd9-b6b5-1bb6bd866233","system_id":"levelo_inurba_marseille","lat":43.262283,"lon":5.404595,"is_reserved":false,"is_disabled":false,"rental_uris":{"android":"levelo://app?vid=78ca3fa5-5325-4fd9-b6b5-1bb6bd866233","ios":"levelo://app?vid=78ca3fa5-5325-4fd9-b6b5-1bb6bd866233"},"vehicle_type_id":"4","last_reported":1769635212,"current_range_meters":6800,"station_id":"ce4bhmh2rcd13ifvqgmg","pricing_plan_id":"cebpf4jnsgd1na2vs0mg"},{"bike_id":"533b5b73-8760-4747-8484-50525f1bc8d8","system_id":"levelo_inurba_marseille","lat":43.28415,"lon":5.3751,"is_reserved":false,"is_disabled":false,"rental_uris":{"android":"levelo://app?vid=533b5b73-8760-4747-8484-50525f1bc8d8","ios":"levelo://app?vid=533b5b73-8760-4747-8484-50525f1bc8d8"},"vehicle_type_id":"4","last_reported":1769635212,"current_range_meters":6800,"station_id":"ce4bh412rcd13ifvqds0","pricing_plan_id":"cebpf4jnsgd1na2vs0mg"},{"bike_id":"eda9c3ae-7ccd-46bc-ad2e-bc5c85d71baa","system_id":"levelo_inurba_marseille","lat":43.27502,"lon":5.42456,"is_reserved":false,"is_disabled":false,"rental_uris":{"android":"levelo://app?vid=eda9c3ae-7ccd-46bc-ad2e-bc5c85d71baa","ios":"levelo://app?vid=eda9c3ae-7ccd-46bc-ad2e-bc5c85d71baa"},"vehicle_type_id":"4","last_reported":1769635212,"current_range_meters":6800,"station_id":"ce4bhn92rcd13ifvqgrg","pricing_plan_id":"cebpf4jnsgd1na2vs0mg"},{"bike_id":"d3d65487-acdf-432a-820c-98dca5ccce2e","system_id":"levelo_inurba_marseille","lat":43.31284,"lon":5.40168,"is_reserved":false,"is_disabled":false,"rental_uris":{"android":"levelo://app?vid=d3d65487-acdf-432a-820c-98dca5ccce2e","ios":"levelo://app?vid=d3d65487-acdf-432a-820c-98dca5ccce2e"},"vehicle_type_id":"4","last_reported":1769635212,"current_range_meters":6800,"station_id":"ce4bh092rcd13ifvqd30","pricing_plan_id":"cebpf4jnsgd1na2vs0mg"},{"bike_id":"3a560c1d-76d6-45a6-9554-036aa12f4461","system_id":"levelo_inurba_marseille","lat":43.23202,"lon":5.35553,"is_reserved":false,"is_disabled":false,"rental_uris":{"android":"levelo://app?vid=3a560c1d-76d6-45a6-9554-036aa12f4461","ios":"levelo://app?vid=3a560c1d-76d6-45a6-9554-036aa12f4461"},"vehicle_type_id":"4","last_reported":1769635212,"current_range_meters":6800,"station_id":"ce4bhu92rcd13ifvqi70","pricing_plan_id":"cebpf4jnsgd1na2vs0mg"},{"bike_id":"4ae21097-68ff-4a44-bcb7-3e142e11d517","system_id":"levelo_inurba_marseille","lat":43.24145,"lon":5.3635,"is_reserved":false,"is_disabled":false,"rental_uris":{"android":"levelo://app?vid=4ae21097-68ff-4a44-bcb7-3e142e11d517","ios":"levelo://app?vid=4ae21097-68ff-4a44-bcb7-3e142e11d517"},"vehicle_type_id":"4","last_reported":1769635212,"current_range_meters":6800,"station_id":"cpo36qri1sfpv3e86is0","pricing_plan_id":"cebpf4jnsgd1na2vs0mg"},{"bike_id":"8c3521f5-2e5a-4c74-ac5c-cd97b951f803","system_id":"levelo_inurba_marseille","lat":43.24978,"lon":5.40486,"is_reserved":false,"is_disabled":false,"rental_uris":{"android":"levelo://app?vid=8c3521f5-2e5a-4c74-ac5c-cd97b951f803","ios":"levelo://app?vid=8c3521f5-2e5a-4c74-ac5c-cd97b951f803"},"vehicle_type_id":"4","last_reported":1769635212,"current_range_meters":6800,"station_id":"st_d2ngiaodas8pm72gd1h0","pricing_plan_id":"cebpf4jnsgd1na2vs0mg"},{"bike_id":"c9f3a220-219b-4c2b-8c1e-c880db7831c0","system_id":"levelo_inurba_marseille","lat":43.23151,"lon":5.43719,"is_reserved":false,"is_disabled":false,"rental_uris":{"android":"levelo://app?vid=c9f3a220-219b-4c2b-8c1e-c880db7831c0","ios":"levelo://app?vid=c9f3a220-219b-4c2b-8c1e-c880db7831c0"},"vehicle_type_id":"4","last_reported":1769635212,"current_range_meters":6800,"station_id":"ce4bhmp2rcd13ifvqgog","pricing_plan_id":"cebpf4jnsgd1na2vs0mg"},{"bike_id":"261cd935-7883-4391-ba05-0e490ab8522f","system_id":"levelo_inurba_marseille","lat":43.30341,"lon":5.40426,"is_reserved":false,"is_disabled":false,"rental_uris":{"android":"levelo://app?vid=261cd935-7883-4391-ba05-0e490ab8522f","ios":"levelo://app?vid=261cd935-7883-4391-ba05-0e490ab8522f"},"vehicle_type_id":"4","last_reported":1769635212,"current_range_meters":6800,"station_id":"ce4bh012rcd13ifvqd10","pricing_plan_id":"cebpf4jnsgd1na2vs0mg"},{"bike_id":"41c91ad2-73b9-4699-b23d-1b5a65edd284","system_id":"levelo_inurba_marseille","lat":43.33533,"lon":5.37466,"is_reserved":false,"is_disabled":false,"rental_uris":{"android":"levelo://app?vid=41c91ad2-73b9-4699-b23d-1b5a65edd284","ios":"levelo://app?vid=41c91ad2-73b9-4699-b23d-1b5a65edd284"},"vehicle_type_id":"4","last_reported":1769635212,"current_range_meters":6800,"station_id":"","pricing_plan_id":"cebpf4jnsgd1na2vs0mg"},{"bike_id":"da2028bb-a098-41ca-b1f0-e5d6f17b7120","system_id":"levelo_inurba_marseille","lat":43.28873,"lon":5.42528,"is_reserved":false,"is_disabled":false,"rental_uris":{"android":"levelo://app?vid=da2028bb-a098-41ca-b1f0-e5d6f17b7120","ios":"levelo://app?vid=da2028bb-a098-41ca-b1f0-e5d6f17b7120"},"vehicle_type_id":"4","last_reported":1769635212,"current_range_meters":6800,"station_id":"st_d3b462108ojc7389ooeg","pricing_plan_id":"cebpf4jnsgd1na2vs0mg"},{"bike_id":"26528639-7c2e-4048-8c57-d7a0cc3703fd","system_id":"levelo_inurba_marseille","lat":43.29515,"lon":5.39043,"is_reserved":false,"is_disabled":false,"rental_uris":{"android":"levelo://app?vid=26528639-7c2e-4048-8c57-d7a0cc3703fd","ios":"levelo://app?vid=26528639-7c2e-4048-8c57-d7a0cc3703fd"},"vehicle_type_id":"4","last_reported":1769635212,"current_range_meters":6800,"station_id":"ce4bh3p2rcd13ifvqdp0","pricing_plan_id":"cebpf4jnsgd1na2vs0mg"},{"bike_id":"8819f7ff-b9cf-4178-9761-9dd00f9b3f70","system_id":"levelo_inurba_marseille","lat":43.28852,"lon":5.3588,"is_reserved":false,"is_disabled":false,"rental_uris":{"android":"levelo://app?vid=8819f7ff-b9cf-4178-9761-9dd00f9b3f70","ios":"levelo://app?vid=8819f7ff-b9cf-4178-9761-9dd00f9b3f70"},"vehicle_type_id":"4","last_reported":1769635212,"current_range_meters":6800,"station_id":"ce4bhb12rcd13ifvqem0","pricing_plan_id":"cebpf4jnsgd1na2vs0mg"},{"bike_id":"f166ac2c-4212-415c-8576-e49a9ce1b1ef","system_id":"levelo_inurba_marseille","lat":43.305287,"lon":5.365468,"is_reserved":false,"is_disabled":false,"rental_uris":{"android":"levelo://app?vid=f166ac2c-4212-415c-8576-e49a9ce1b1ef","ios":"levelo://app?vid=f166ac2c-4212-415c-8576-e49a9ce1b1ef"},"vehicle_type_id":"4","last_reported":1769635212,"current_range_meters":7200,"station_id":"ce4bgs12rcd13ifvqcag","pricing_plan_id":"cebpf4jnsgd1na2vs0mg"},{"bike_id":"99bdf38b-a1d9-4a24-ada4-9cb96b99c699","system_id":"levelo_inurba_marseille","lat":43.24175,"lon":5.39718,"is_reserved":false,"is_disabled":false,"rental_uris":{"android":"levelo://app?vid=99bdf38b-a1d9-4a24-ada4-9cb96b99c699","ios":"levelo://app?vid=99bdf38b-a1d9-4a24-ada4-9cb96b99c699"},"vehicle_type_id":"4","last_reported":1769635212,"current_range_meters":7200,"station_id":"ce4bhn12rcd13ifvqgpg","pricing_plan_id":"cebpf4jnsgd1na2vs0mg"},{"bike_id":"b45c8d2c-8d88-4cef-8b61-a19c2da1c61e","system_id":"levelo_inurba_marseille","lat":43.33551,"lon":5.37495,"is_reserved":false,"is_disabled":false,"rental_uris":{"android":"levelo://app?vid=b45c8d2c-8d88-4cef-8b61-a19c2da1c61e","ios":"levelo://app?vid=b45c8d2c-8d88-4cef-8b61-a19c2da1c61e"},"vehicle_type_id":"4","last_reported":1769635212,"current_range_meters":7200,"station_id":"st_d46tts09ee8s73dlu43g","pricing_plan_id":"cebpf4jnsgd1na2vs0mg"},{"bike_id":"cd900bc6-a41d-4400-b631-afbebafd4b7d","system_id":"levelo_inurba_marseille","lat":43.282633,"lon":5.350583,"is_reserved":false,"is_disabled":false,"rental_uris":{"android":"levelo://app?vid=cd900bc6-a41d-4400-b631-afbebafd4b7d","ios":"levelo://app?vid=cd900bc6-a41d-4400-b631-afbebafd4b7d"},"vehicle_type_id":"4","last_reported":1769635212,"current_range_meters":7200,"station_id":"ce4bhbp2rcd13ifvqerg","pricing_plan_id":"cebpf4jnsgd1na2vs0mg"},{"bike_id":"24dcd320-5c94-4733-84a5-fedd766ecdd0","system_id":"levelo_inurba_marseille","lat":43.28684,"lon":5.3868,"is_reserved":false,"is_disabled":false,"rental_uris":{"android":"levelo://app?vid=24dcd320-5c94-4733-84a5-fedd766ecdd0","ios":"levelo://app?vid=24dcd320-5c94-4733-84a5-fedd766ecdd0"},"vehicle_type_id":"4","last_reported":1769635212,"current_range_meters":7200,"station_id":"ce4bh492rcd13ifvqdug","pricing_plan_id":"cebpf4jnsgd1na2vs0mg"},{"bike_id":"3445ae8b-9f37-454e-b84d-8d10230a7566","system_id":"levelo_inurba_marseille","lat":43.30098,"lon":5.39117,"is_reserved":false,"is_disabled":false,"rental_uris":{"android":"levelo://app?vid=3445ae8b-9f37-454e-b84d-8d10230a7566","ios":"levelo://app?vid=3445ae8b-9f37-454e-b84d-8d10230a7566"},"vehicle_type_id":"4","last_reported":1769635212,"current_range_meters":7200,"station_id":"ce4bh192rcd13ifvqdb0","pricing_plan_id":"cebpf4jnsgd1na2vs0mg"},{"bike_id":"96ddcdc4-3d11-47dc-91b3-e1897ae67898","system_id":"levelo_inurba_marseille","lat":43.29554,"lon":5.42288,"is_reserved":false,"is_disabled":false,"rental_uris":{"android":"levelo://app?vid=96ddcdc4-3d11-47dc-91b3-e1897ae67898","ios":"levelo://app?vid=96ddcdc4-3d11-47dc-91b3-e1897ae67898"},"vehicle_type_id":"4","last_reported":1769635212,"current_range_meters":7200,"station_id":"ce4bhph2rcd13ifvqhdg","pricing_plan_id":"cebpf4jnsgd1na2vs0mg"},{"bike_id":"dcc20a74-9ba4-4119-a5f5-ce0a76ef7ac9","system_id":"levelo_inurba_marseille","lat":43.22557,"lon":5.41636,"is_reserved":false,"is_disabled":false,"rental_uris":{"android":"levelo://app?vid=dcc20a74-9ba4-4119-a5f5-ce0a76ef7ac9","ios":"levelo://app?vid=dcc20a74-9ba4-4119-a5f5-ce0a76ef7ac9"},"vehicle_type_id":"4","last_reported":1769635212,"current_range_meters":7200,"station_id":"st_d2o4gvlbi1j2169b742g","pricing_plan_id":"cebpf4jnsgd1na2vs0mg"},{"bike_id":"2e5c3c69-7a7a-42fd-91e3-6de858e953fc","system_id":"levelo_inurba_marseille","lat":43.29603,"lon":5.37722,"is_reserved":false,"is_disabled":false,"rental_uris":{"android":"levelo://app?vid=2e5c3c69-7a7a-42fd-91e3-6de858e953fc","ios":"levelo://app?vid=2e5c3c69-7a7a-42fd-91e3-6de858e953fc"},"vehicle_type_id":"4","last_reported":1769635212,"current_range_meters":7200,"station_id":"ce4bgi92rcd13ifvqb90","pricing_plan_id":"cebpf4jnsgd1na2vs0mg"},{"bike_id":"9a68662f-fa29-4f6b-aa5e-58c12eef156a","system_id":"levelo_inurba_marseille","lat":43.28468,"lon":5.35891,"is_reserved":false,"is_disabled":false,"rental_uris":{"android":"levelo://app?vid=9a68662f-fa29-4f6b-aa5e-58c12eef156a","ios":"levelo://app?vid=9a68662f-fa29-4f6b-aa5e-58c12eef156a"},"vehicle_type_id":"4","last_reported":1769635212,"current_range_meters":7200,"station_id":"ce4bhah2rcd13ifvqei0","pricing_plan_id":"cebpf4jnsgd1na2vs0mg"},{"bike_id":"1ffbda22-e3ce-449b-8cf2-1a8499f4ffd7","system_id":"levelo_inurba_marseille","lat":43.26959,"lon":5.38638,"is_reserved":false,"is_disabled":true,"rental_uris":{"android":"levelo://app?vid=1ffbda22-e3ce-449b-8cf2-1a8499f4ffd7","ios":"levelo://app?vid=1ffbda22-e3ce-449b-8cf2-1a8499f4ffd7"},"vehicle_type_id":"4","last_reported":1769635212,"current_range_meters":7200,"station_id":"ce4bhh92rcd13ifvqfh0","pricing_plan_id":"cebpf4jnsgd1na2vs0mg"},{"bike_id":"b96775b7-8954-4f94-990f-968813344c58","system_id":"levelo_inurba_marseille","lat":43.31284,"lon":5.37796,"is_reserved":false,"is_disabled":false,"rental_uris":{"android":"levelo://app?vid=b96775b7-8954-4f94-990f-968813344c58","ios":"levelo://app?vid=b96775b7-8954-4f94-990f-968813344c58"},"vehicle_type_id":"4","last_reported":1769635212,"current_range_meters":7200,"station_id":"","pricing_plan_id":"cebpf4jnsgd1na2vs0mg"},{"bike_id":"9328d8d0-a319-4fb2-9d4a-db2606a87040","system_id":"levelo_inurba_marseille","lat":43.2413,"lon":5.36232,"is_reserved":false,"is_disabled":false,"rental_uris":{"android":"levelo://app?vid=9328d8d0-a319-4fb2-9d4a-db2606a87040","ios":"levelo://app?vid=9328d8d0-a319-4fb2-9d4a-db2606a87040"},"vehicle_type_id":"4","last_reported":1769635212,"current_range_meters":7200,"station_id":"cpo36qri1sfpv3e86is0","pricing_plan_id":"cebpf4jnsgd1na2vs0mg"},{"bike_id":"d769baa1-4fa6-4525-a59f-277881027267","system_id":"levelo_inurba_marseille","lat":43.308959,"lon":5.396599,"is_reserved":false,"is_disabled":false,"rental_uris":{"android":"levelo://app?vid=d769baa1-4fa6-4525-a59f-277881027267","ios":"levelo://app?vid=d769baa1-4fa6-4525-a59f-277881027267"},"vehicle_type_id":"4","last_reported":1769635212,"current_range_meters":7200,"station_id":"ce4bh012rcd13ifvqcv0","pricing_plan_id":"cebpf4jnsgd1na2vs0mg"},{"bike_id":"65ed14cf-b2b7-4c34-911d-d7fd240c136d","system_id":"levelo_inurba_marseille","lat":43.29193,"lon":5.38629,"is_reserved":false,"is_disabled":false,"rental_uris":{"android":"levelo://app?vid=65ed14cf-b2b7-4c34-911d-d7fd240c136d","ios":"levelo://app?vid=65ed14cf-b2b7-4c34-911d-d7fd240c136d"},"vehicle_type_id":"4","last_reported":1769635212,"current_range_meters":7200,"station_id":"","pricing_plan_id":"cebpf4jnsgd1na2vs0mg"},{"bike_id":"9e85f69d-091f-4b29-86a6-ef3b54792a1f","system_id":"levelo_inurba_marseille","lat":43.24077,"lon":5.37772,"is_reserved":false,"is_disabled":false,"rental_uris":{"android":"levelo://app?vid=9e85f69d-091f-4b29-86a6-ef3b54792a1f","ios":"levelo://app?vid=9e85f69d-091f-4b29-86a6-ef3b54792a1f"},"vehicle_type_id":"4","last_reported":1769635212,"current_range_meters":7200,"station_id":"ce4bhnp2rcd13ifvqgvg","pricing_plan_id":"cebpf4jnsgd1na2vs0mg"},{"bike_id":"816f05b1-e4c7-4154-aeb4-ef3c8e139b0b","system_id":"levelo_inurba_marseille","lat":43.32486,"lon":5.38276,"is_reserved":false,"is_disabled":false,"rental_uris":{"android":"levelo://app?vid=816f05b1-e4c7-4154-aeb4-ef3c8e139b0b","ios":"levelo://app?vid=816f05b1-e4c7-4154-aeb4-ef3c8e139b0b"},"vehicle_type_id":"4","last_reported":1769635212,"current_range_meters":7200,"station_id":"st_d4asgbiv49dc73anf9m0","pricing_plan_id":"cebpf4jnsgd1na2vs0mg"},{"bike_id":"eae72288-1b63-4615-90d3-036b0e9fe89c","system_id":"levelo_inurba_marseille","lat":43.24549,"lon":5.39529,"is_reserved":false,"is_disabled":false,"rental_uris":{"android":"levelo://app?vid=eae72288-1b63-4615-90d3-036b0e9fe89c","ios":"levelo://app?vid=eae72288-1b63-4615-90d3-036b0e9fe89c"},"vehicle_type_id":"4","last_reported":1769635212,"current_range_meters":7200,"station_id":"ce4bhlp2rcd13ifvqgjg","pricing_plan_id":"cebpf4jnsgd1na2vs0mg"},{"bike_id":"adcf69d8-1927-438e-b914-5f915ba575b2","system_id":"levelo_inurba_marseille","lat":43.25586,"lon":5.38204,"is_reserved":false,"is_disabled":false,"rental_uris":{"android":"levelo://app?vid=adcf69d8-1927-438e-b914-5f915ba575b2","ios":"levelo://app?vid=adcf69d8-1927-438e-b914-5f915ba575b2"},"vehicle_type_id":"4","last_reported":1769635212,"current_range_meters":7200,"station_id":"ce4bhih2rcd13ifvqfs0","pricing_plan_id":"cebpf4jnsgd1na2vs0mg"},{"bike_id":"cbd0dc7e-ee60-46d8-b2f7-e467d399d92c","system_id":"levelo_inurba_marseille","lat":43.2954,"lon":5.39065,"is_reserved":false,"is_disabled":false,"rental_uris":{"android":"levelo://app?vid=cbd0dc7e-ee60-46d8-b2f7-e467d399d92c","ios":"levelo://app?vid=cbd0dc7e-ee60-46d8-b2f7-e467d399d92c"},"vehicle_type_id":"4","last_reported":1769635212,"current_range_meters":7200,"station_id":"ce4bh3p2rcd13ifvqdp0","pricing_plan_id":"cebpf4jnsgd1na2vs0mg"},{"bike_id":"79009d73-0523-4c6d-91de-5993a965a866","system_id":"levelo_inurba_marseille","lat":43.259443,"lon":5.408961,"is_reserved":false,"is_disabled":false,"rental_uris":{"android":"levelo://app?vid=79009d73-0523-4c6d-91de-5993a965a866","ios":"levelo://app?vid=79009d73-0523-4c6d-91de-5993a965a866"},"vehicle_type_id":"4","last_reported":1769635212,"current_range_meters":7200,"station_id":"ce4bhm92rcd13ifvqglg","pricing_plan_id":"cebpf4jnsgd1na2vs0mg"},{"bike_id":"bc230eaa-6d54-4e2d-8428-bb3463d83558","system_id":"levelo_inurba_marseille","lat":43.27345,"lon":5.39117,"is_reserved":false,"is_disabled":true,"rental_uris":{"android":"levelo://app?vid=bc230eaa-6d54-4e2d-8428-bb3463d83558","ios":"levelo://app?vid=bc230eaa-6d54-4e2d-8428-bb3463d83558"},"vehicle_type_id":"4","last_reported":1769635212,"current_range_meters":8000,"station_id":"","pricing_plan_id":"cebpf4jnsgd1na2vs0mg"},{"bike_id":"80b39af1-2c58-45ab-b4de-d5db4025af96","system_id":"levelo_inurba_marseille","lat":43.24806,"lon":5.37457,"is_reserved":false,"is_disabled":false,"rental_uris":{"android":"levelo://app?vid=80b39af1-2c58-45ab-b4de-d5db4025af96","ios":"levelo://app?vid=80b39af1-2c58-45ab-b4de-d5db4025af96"},"vehicle_type_id":"4","last_reported":1769635212,"current_range_meters":8000,"station_id":"ce4bhgh2rcd13ifvqfb0","pricing_plan_id":"cebpf4jnsgd1na2vs0mg"},{"bike_id":"3e6599b3-80f5-4cb4-a947-9865a5671465","system_id":"levelo_inurba_marseille","lat":43.27624,"lon":5.3611,"is_reserved":false,"is_disabled":false,"rental_uris":{"android":"levelo://app?vid=3e6599b3-80f5-4cb4-a947-9865a5671465","ios":"levelo://app?vid=3e6599b3-80f5-4cb4-a947-9865a5671465"},"vehicle_type_id":"4","last_reported":1769635212,"current_range_meters":8000,"station_id":"ce4bgj92rcd13ifvqbe0","pricing_plan_id":"cebpf4jnsgd1na2vs0mg"},{"bike_id":"63310716-deb4-4f88-9b11-0500b1b8cedc","system_id":"levelo_inurba_marseille","lat":43.28114,"lon":5.37867,"is_reserved":false,"is_disabled":false,"rental_uris":{"android":"levelo://app?vid=63310716-deb4-4f88-9b11-0500b1b8cedc","ios":"levelo://app?vid=63310716-deb4-4f88-9b11-0500b1b8cedc"},"vehicle_type_id":"4","last_reported":1769635212,"current_range_meters":8000,"station_id":"ce4bha12rcd13ifvqee0","pricing_plan_id":"cebpf4jnsgd1na2vs0mg"},{"bike_id":"0393f1bf-344f-45c8-9042-27b39d04c542","system_id":"levelo_inurba_marseille","lat":43.28996,"lon":5.37839,"is_reserved":false,"is_disabled":false,"rental_uris":{"android":"levelo://app?vid=0393f1bf-344f-45c8-9042-27b39d04c542","ios":"levelo://app?vid=0393f1bf-344f-45c8-9042-27b39d04c542"},"vehicle_type_id":"4","last_reported":1769635212,"current_range_meters":8000,"station_id":"ce4bh9p2rcd13ifvqed0","pricing_plan_id":"cebpf4jnsgd1na2vs0mg"},{"bike_id":"882d39e7-961c-4939-b7ad-7e3e84bd14cd","system_id":"levelo_inurba_marseille","lat":43.28844,"lon":5.35868,"is_reserved":false,"is_disabled":false,"rental_uris":{"android":"levelo://app?vid=882d39e7-961c-4939-b7ad-7e3e84bd14cd","ios":"levelo://app?vid=882d39e7-961c-4939-b7ad-7e3e84bd14cd"},"vehicle_type_id":"4","last_reported":1769635212,"current_range_meters":8000,"station_id":"ce4bhb12rcd13ifvqem0","pricing_plan_id":"cebpf4jnsgd1na2vs0mg"},{"bike_id":"541aab47-c46a-45ce-9946-ea87420fea14","system_id":"levelo_inurba_marseille","lat":43.23191,"lon":5.3997,"is_reserved":false,"is_disabled":false,"rental_uris":{"android":"levelo://app?vid=541aab47-c46a-45ce-9946-ea87420fea14","ios":"levelo://app?vid=541aab47-c46a-45ce-9946-ea87420fea14"},"vehicle_type_id":"4","last_reported":1769635212,"current_range_meters":8000,"station_id":"ce4bhn12rcd13ifvqgqg","pricing_plan_id":"cebpf4jnsgd1na2vs0mg"},{"bike_id":"da00b0f2-4739-42d5-b407-19023959a455","system_id":"levelo_inurba_marseille","lat":43.28228,"lon":5.39064,"is_reserved":false,"is_disabled":false,"rental_uris":{"android":"levelo://app?vid=da00b0f2-4739-42d5-b407-19023959a455","ios":"levelo://app?vid=da00b0f2-4739-42d5-b407-19023959a455"},"vehicle_type_id":"4","last_reported":1769635212,"current_range_meters":8000,"station_id":"ce4bhn92rcd13ifvqgsg","pricing_plan_id":"cebpf4jnsgd1na2vs0mg"},{"bike_id":"a7475751-9adc-4169-a3c7-0b8ce5894805","system_id":"levelo_inurba_marseille","lat":43.297939,"lon":5.393437,"is_reserved":false,"is_disabled":false,"rental_uris":{"android":"levelo://app?vid=a7475751-9adc-4169-a3c7-0b8ce5894805","ios":"levelo://app?vid=a7475751-9adc-4169-a3c7-0b8ce5894805"},"vehicle_type_id":"4","last_reported":1769635212,"current_range_meters":8000,"station_id":"chh1huq6cuj3fo74tm60","pricing_plan_id":"cebpf4jnsgd1na2vs0mg"},{"bike_id":"53ac99a0-cae8-4b26-b5b6-c54aa9e62072","system_id":"levelo_inurba_marseille","lat":43.29022,"lon":5.38658,"is_reserved":false,"is_disabled":false,"rental_uris":{"android":"levelo://app?vid=53ac99a0-cae8-4b26-b5b6-c54aa9e62072","ios":"levelo://app?vid=53ac99a0-cae8-4b26-b5b6-c54aa9e62072"},"vehicle_type_id":"4","last_reported":1769635212,"current_range_meters":8000,"station_id":"ce4bh4p2rcd13ifvqe0g","pricing_plan_id":"cebpf4jnsgd1na2vs0mg"},{"bike_id":"b6f755f6-7aa1-4bdc-8011-a4894e3050aa","system_id":"levelo_inurba_marseille","lat":43.29522,"lon":5.39009,"is_reserved":false,"is_disabled":false,"rental_uris":{"android":"levelo://app?vid=b6f755f6-7aa1-4bdc-8011-a4894e3050aa","ios":"levelo://app?vid=b6f755f6-7aa1-4bdc-8011-a4894e3050aa"},"vehicle_type_id":"4","last_reported":1769635212,"current_range_meters":8000,"station_id":"ce4bh3p2rcd13ifvqdp0","pricing_plan_id":"cebpf4jnsgd1na2vs0mg"},{"bike_id":"c4076466-b98c-480e-aae5-fdc692e2e504","system_id":"levelo_inurba_marseille","lat":43.28349,"lon":5.38109,"is_reserved":false,"is_disabled":false,"rental_uris":{"android":"levelo://app?vid=c4076466-b98c-480e-aae5-fdc692e2e504","ios":"levelo://app?vid=c4076466-b98c-480e-aae5-fdc692e2e504"},"vehicle_type_id":"4","last_reported":1769635212,"current_range_meters":8000,"station_id":"ce4bh412rcd13ifvqdr0","pricing_plan_id":"cebpf4jnsgd1na2vs0mg"},{"bike_id":"ec92a3d7-0aaf-40cf-9513-2fb7d35cc0c4","system_id":"levelo_inurba_marseille","lat":43.2308,"lon":5.35503,"is_reserved":false,"is_disabled":false,"rental_uris":{"android":"levelo://app?vid=ec92a3d7-0aaf-40cf-9513-2fb7d35cc0c4","ios":"levelo://app?vid=ec92a3d7-0aaf-40cf-9513-2fb7d35cc0c4"},"vehicle_type_id":"4","last_reported":1769635212,"current_range_meters":8000,"station_id":"cpo3342slgdg3j2ifvpg","pricing_plan_id":"cebpf4jnsgd1na2vs0mg"},{"bike_id":"1c11bd72-caa8-46a8-b547-c4a8e7c23dcc","system_id":"levelo_inurba_marseille","lat":43.2657,"lon":5.4032,"is_reserved":false,"is_disabled":false,"rental_uris":{"android":"levelo://app?vid=1c11bd72-caa8-46a8-b547-c4a8e7c23dcc","ios":"levelo://app?vid=1c11bd72-caa8-46a8-b547-c4a8e7c23dcc"},"vehicle_type_id":"4","last_reported":1769635212,"current_range_meters":8000,"station_id":"ce4bhmp2rcd13ifvqgng","pricing_plan_id":"cebpf4jnsgd1na2vs0mg"},{"bike_id":"465c0a07-9b2c-463d-a28f-fb29e821c731","system_id":"levelo_inurba_marseille","lat":43.30317,"lon":5.38654,"is_reserved":false,"is_disabled":false,"rental_uris":{"android":"levelo://app?vid=465c0a07-9b2c-463d-a28f-fb29e821c731","ios":"levelo://app?vid=465c0a07-9b2c-463d-a28f-fb29e821c731"},"vehicle_type_id":"4","last_reported":1769635212,"current_range_meters":8000,"station_id":"","pricing_plan_id":"cebpf4jnsgd1na2vs0mg"},{"bike_id":"b453d1a7-0c5a-49b0-9462-d66d05743f6f","system_id":"levelo_inurba_marseille","lat":43.29616,"lon":5.3771,"is_reserved":false,"is_disabled":false,"rental_uris":{"android":"levelo://app?vid=b453d1a7-0c5a-49b0-9462-d66d05743f6f","ios":"levelo://app?vid=b453d1a7-0c5a-49b0-9462-d66d05743f6f"},"vehicle_type_id":"4","last_reported":1769635212,"current_range_meters":8000,"station_id":"ce4bgi92rcd13ifvqb90","pricing_plan_id":"cebpf4jnsgd1na2vs0mg"},{"bike_id":"40ba71d9-8bf7-4ba4-bd45-44f5a2866a53","system_id":"levelo_inurba_marseille","lat":43.24566,"lon":5.39541,"is_reserved":false,"is_disabled":false,"rental_uris":{"android":"levelo://app?vid=40ba71d9-8bf7-4ba4-bd45-44f5a2866a53","ios":"levelo://app?vid=40ba71d9-8bf7-4ba4-bd45-44f5a2866a53"},"vehicle_type_id":"4","last_reported":1769635212,"current_range_meters":8000,"station_id":"ce4bhlp2rcd13ifvqgjg","pricing_plan_id":"cebpf4jnsgd1na2vs0mg"},{"bike_id":"3eec611c-d8cb-4b54-9748-ae62ab9ddb70","system_id":"levelo_inurba_marseille","lat":43.22944,"lon":5.3538,"is_reserved":false,"is_disabled":false,"rental_uris":{"android":"levelo://app?vid=3eec611c-d8cb-4b54-9748-ae62ab9ddb70","ios":"levelo://app?vid=3eec611c-d8cb-4b54-9748-ae62ab9ddb70"},"vehicle_type_id":"4","last_reported":1769635212,"current_range_meters":8000,"station_id":"cpo3532slgdg3j2ikp40","pricing_plan_id":"cebpf4jnsgd1na2vs0mg"},{"bike_id":"c98b11d0-0520-418d-bfc6-d6149e6ffac9","system_id":"levelo_inurba_marseille","lat":43.28492,"lon":5.48397,"is_reserved":false,"is_disabled":false,"rental_uris":{"android":"levelo://app?vid=c98b11d0-0520-418d-bfc6-d6149e6ffac9","ios":"levelo://app?vid=c98b11d0-0520-418d-bfc6-d6149e6ffac9"},"vehicle_type_id":"4","last_reported":1769635212,"current_range_meters":8000,"station_id":"st_d3svhcjqgbts73a3dn0g","pricing_plan_id":"cebpf4jnsgd1na2vs0mg"},{"bike_id":"2e936028-6590-46a0-9b5e-06d90c69606e","system_id":"levelo_inurba_marseille","lat":43.29538,"lon":5.38552,"is_reserved":false,"is_disabled":false,"rental_uris":{"android":"levelo://app?vid=2e936028-6590-46a0-9b5e-06d90c69606e","ios":"levelo://app?vid=2e936028-6590-46a0-9b5e-06d90c69606e"},"vehicle_type_id":"4","last_reported":1769635212,"current_range_meters":8000,"station_id":"ce4bgih2rcd13ifvqba0","pricing_plan_id":"cebpf4jnsgd1na2vs0mg"},{"bike_id":"2263c488-fc4f-43f1-8e9e-935a23fa6e8a","system_id":"levelo_inurba_marseille","lat":43.29008,"lon":5.35618,"is_reserved":false,"is_disabled":false,"rental_uris":{"android":"levelo://app?vid=2263c488-fc4f-43f1-8e9e-935a23fa6e8a","ios":"levelo://app?vid=2263c488-fc4f-43f1-8e9e-935a23fa6e8a"},"vehicle_type_id":"4","last_reported":1769635212,"current_range_meters":8000,"station_id":"ce4bhb92rcd13ifvqen0","pricing_plan_id":"cebpf4jnsgd1na2vs0mg"},{"bike_id":"04d5c008-e1cd-4fba-ac06-2ede2333c42d","system_id":"levelo_inurba_marseille","lat":43.2927,"lon":5.38447,"is_reserved":false,"is_disabled":false,"rental_uris":{"android":"levelo://app?vid=04d5c008-e1cd-4fba-ac06-2ede2333c42d","ios":"levelo://app?vid=04d5c008-e1cd-4fba-ac06-2ede2333c42d"},"vehicle_type_id":"4","last_reported":1769635212,"current_range_meters":8400,"station_id":"ce4bh692rcd13ifvqea0","pricing_plan_id":"cebpf4jnsgd1na2vs0mg"},{"bike_id":"ff6b7c54-9109-40bd-a633-45f090808baa","system_id":"levelo_inurba_marseille","lat":43.22544,"lon":5.34831,"is_reserved":false,"is_disabled":false,"rental_uris":{"android":"levelo://app?vid=ff6b7c54-9109-40bd-a633-45f090808baa","ios":"levelo://app?vid=ff6b7c54-9109-40bd-a633-45f090808baa"},"vehicle_type_id":"4","last_reported":1769635212,"current_range_meters":8400,"station_id":"","pricing_plan_id":"cebpf4jnsgd1na2vs0mg"},{"bike_id":"9806da0f-d7e9-4daf-99fc-e3fd22a4da76","system_id":"levelo_inurba_marseille","lat":43.25941,"lon":5.409,"is_reserved":false,"is_disabled":false,"rental_uris":{"android":"levelo://app?vid=9806da0f-d7e9-4daf-99fc-e3fd22a4da76","ios":"levelo://app?vid=9806da0f-d7e9-4daf-99fc-e3fd22a4da76"},"vehicle_type_id":"4","last_reported":1769635212,"current_range_meters":8400,"station_id":"ce4bhm92rcd13ifvqglg","pricing_plan_id":"cebpf4jnsgd1na2vs0mg"},{"bike_id":"f87b1a73-be1c-4c10-8a01-71e3f08b5009","system_id":"levelo_inurba_marseille","lat":43.291656,"lon":5.371493,"is_reserved":false,"is_disabled":false,"rental_uris":{"android":"levelo://app?vid=f87b1a73-be1c-4c10-8a01-71e3f08b5009","ios":"levelo://app?vid=f87b1a73-be1c-4c10-8a01-71e3f08b5009"},"vehicle_type_id":"4","last_reported":1769635212,"current_range_meters":8400,"station_id":"ce4bha92rcd13ifvqeh0","pricing_plan_id":"cebpf4jnsgd1na2vs0mg"},{"bike_id":"fcf2b631-4307-4403-bc88-44f754049ef7","system_id":"levelo_inurba_marseille","lat":43.27917,"lon":5.39578,"is_reserved":false,"is_disabled":false,"rental_uris":{"android":"levelo://app?vid=fcf2b631-4307-4403-bc88-44f754049ef7","ios":"levelo://app?vid=fcf2b631-4307-4403-bc88-44f754049ef7"},"vehicle_type_id":"4","last_reported":1769635212,"current_range_meters":8400,"station_id":"ce4bhf92rcd13ifvqf40","pricing_plan_id":"cebpf4jnsgd1na2vs0mg"},{"bike_id":"b429b966-0050-4ea1-b7b9-c7d25fe61968","system_id":"levelo_inurba_marseille","lat":43.31366,"lon":5.38487,"is_reserved":false,"is_disabled":false,"rental_uris":{"android":"levelo://app?vid=b429b966-0050-4ea1-b7b9-c7d25fe61968","ios":"levelo://app?vid=b429b966-0050-4ea1-b7b9-c7d25fe61968"},"vehicle_type_id":"4","last_reported":1769635212,"current_range_meters":8400,"station_id":"ce4bgt92rcd13ifvqcf0","pricing_plan_id":"cebpf4jnsgd1na2vs0mg"},{"bike_id":"a1b9123c-988e-41cc-a919-83715ef62f9a","system_id":"levelo_inurba_marseille","lat":43.29514,"lon":5.39041,"is_reserved":false,"is_disabled":false,"rental_uris":{"android":"levelo://app?vid=a1b9123c-988e-41cc-a919-83715ef62f9a","ios":"levelo://app?vid=a1b9123c-988e-41cc-a919-83715ef62f9a"},"vehicle_type_id":"4","last_reported":1769635212,"current_range_meters":8400,"station_id":"ce4bh3p2rcd13ifvqdp0","pricing_plan_id":"cebpf4jnsgd1na2vs0mg"},{"bike_id":"802f6e05-7249-407a-aac4-32d2041628b8","system_id":"levelo_inurba_marseille","lat":43.23059,"lon":5.3549,"is_reserved":false,"is_disabled":false,"rental_uris":{"android":"levelo://app?vid=802f6e05-7249-407a-aac4-32d2041628b8","ios":"levelo://app?vid=802f6e05-7249-407a-aac4-32d2041628b8"},"vehicle_type_id":"4","last_reported":1769635212,"current_range_meters":8400,"station_id":"cpo3342slgdg3j2ifvpg","pricing_plan_id":"cebpf4jnsgd1na2vs0mg"},{"bike_id":"d6347785-7f4b-4520-b64a-bf5bb0e98944","system_id":"levelo_inurba_marseille","lat":43.25008,"lon":5.38912,"is_reserved":false,"is_disabled":false,"rental_uris":{"android":"levelo://app?vid=d6347785-7f4b-4520-b64a-bf5bb0e98944","ios":"levelo://app?vid=d6347785-7f4b-4520-b64a-bf5bb0e98944"},"vehicle_type_id":"4","last_reported":1769635212,"current_range_meters":8400,"station_id":"ce4bhgp2rcd13ifvqfd0","pricing_plan_id":"cebpf4jnsgd1na2vs0mg"},{"bike_id":"0af74aa0-19dc-4932-bb7c-d43ef9091c9e","system_id":"levelo_inurba_marseille","lat":43.301377,"lon":5.387754,"is_reserved":false,"is_disabled":false,"rental_uris":{"android":"levelo://app?vid=0af74aa0-19dc-4932-bb7c-d43ef9091c9e","ios":"levelo://app?vid=0af74aa0-19dc-4932-bb7c-d43ef9091c9e"},"vehicle_type_id":"4","last_reported":1769635212,"current_range_meters":8400,"station_id":"ce4bghh2rcd13ifvqb60","pricing_plan_id":"cebpf4jnsgd1na2vs0mg"},{"bike_id":"8c50cc1b-6957-4db2-9b96-76d9d37bac03","system_id":"levelo_inurba_marseille","lat":43.22569,"lon":5.41621,"is_reserved":false,"is_disabled":false,"rental_uris":{"android":"levelo://app?vid=8c50cc1b-6957-4db2-9b96-76d9d37bac03","ios":"levelo://app?vid=8c50cc1b-6957-4db2-9b96-76d9d37bac03"},"vehicle_type_id":"4","last_reported":1769635212,"current_range_meters":8400,"station_id":"st_d2o4gvlbi1j2169b742g","pricing_plan_id":"cebpf4jnsgd1na2vs0mg"},{"bike_id":"30c87174-a4e4-4243-8066-dafa4125a71d","system_id":"levelo_inurba_marseille","lat":43.27926,"lon":5.39577,"is_reserved":false,"is_disabled":false,"rental_uris":{"android":"levelo://app?vid=30c87174-a4e4-4243-8066-dafa4125a71d","ios":"levelo://app?vid=30c87174-a4e4-4243-8066-dafa4125a71d"},"vehicle_type_id":"4","last_reported":1769635212,"current_range_meters":8400,"station_id":"ce4bhf92rcd13ifvqf40","pricing_plan_id":"cebpf4jnsgd1na2vs0mg"},{"bike_id":"ae2bd00b-86f2-42b9-8e4e-3fa74e019d82","system_id":"levelo_inurba_marseille","lat":43.23195,"lon":5.39982,"is_reserved":false,"is_disabled":false,"rental_uris":{"android":"levelo://app?vid=ae2bd00b-86f2-42b9-8e4e-3fa74e019d82","ios":"levelo://app?vid=ae2bd00b-86f2-42b9-8e4e-3fa74e019d82"},"vehicle_type_id":"4","last_reported":1769635212,"current_range_meters":8400,"station_id":"ce4bhn12rcd13ifvqgqg","pricing_plan_id":"cebpf4jnsgd1na2vs0mg"},{"bike_id":"ba94ad88-2d86-4f15-a70c-04c6ad4ea30f","system_id":"levelo_inurba_marseille","lat":43.33171,"lon":5.37709,"is_reserved":false,"is_disabled":false,"rental_uris":{"android":"levelo://app?vid=ba94ad88-2d86-4f15-a70c-04c6ad4ea30f","ios":"levelo://app?vid=ba94ad88-2d86-4f15-a70c-04c6ad4ea30f"},"vehicle_type_id":"4","last_reported":1769635212,"current_range_meters":8400,"station_id":"st_d46cu089ee8s73dldbu0","pricing_plan_id":"cebpf4jnsgd1na2vs0mg"},{"bike_id":"7c8a0da9-fb1e-4ac7-b15a-3ad7d59f3efa","system_id":"levelo_inurba_marseille","lat":43.28892,"lon":5.35859,"is_reserved":false,"is_disabled":false,"rental_uris":{"android":"levelo://app?vid=7c8a0da9-fb1e-4ac7-b15a-3ad7d59f3efa","ios":"levelo://app?vid=7c8a0da9-fb1e-4ac7-b15a-3ad7d59f3efa"},"vehicle_type_id":"4","last_reported":1769635212,"current_range_meters":8400,"station_id":"ce4bhb12rcd13ifvqem0","pricing_plan_id":"cebpf4jnsgd1na2vs0mg"},{"bike_id":"cef89498-fbf9-4ad5-afa6-46a5eea10249","system_id":"levelo_inurba_marseille","lat":43.27337,"lon":5.40997,"is_reserved":false,"is_disabled":false,"rental_uris":{"android":"levelo://app?vid=cef89498-fbf9-4ad5-afa6-46a5eea10249","ios":"levelo://app?vid=cef89498-fbf9-4ad5-afa6-46a5eea10249"},"vehicle_type_id":"4","last_reported":1769635212,"current_range_meters":8400,"station_id":"","pricing_plan_id":"cebpf4jnsgd1na2vs0mg"},{"bike_id":"132f504b-b70f-4f5e-895b-9bef822e91c5","system_id":"levelo_inurba_marseille","lat":43.295663,"lon":5.399607,"is_reserved":false,"is_disabled":true,"rental_uris":{"android":"levelo://app?vid=132f504b-b70f-4f5e-895b-9bef822e91c5","ios":"levelo://app?vid=132f504b-b70f-4f5e-895b-9bef822e91c5"},"vehicle_type_id":"4","last_reported":1769635212,"current_range_meters":8800,"station_id":"ce4bh312rcd13ifvqdj0","pricing_plan_id":"cebpf4jnsgd1na2vs0mg"},{"bike_id":"29e658f4-2359-46f1-90c1-df0499696a70","system_id":"levelo_inurba_marseille","lat":43.30123,"lon":5.43118,"is_reserved":false,"is_disabled":false,"rental_uris":{"android":"levelo://app?vid=29e658f4-2359-46f1-90c1-df0499696a70","ios":"levelo://app?vid=29e658f4-2359-46f1-90c1-df0499696a70"},"vehicle_type_id":"4","last_reported":1769635212,"current_range_meters":8800,"station_id":"st_d3js3co5814s73ftftug","pricing_plan_id":"cebpf4jnsgd1na2vs0mg"},{"bike_id":"e2723203-29e5-4f94-8c86-ff4e63054a3f","system_id":"levelo_inurba_marseille","lat":43.29574,"lon":5.39072,"is_reserved":false,"is_disabled":false,"rental_uris":{"android":"levelo://app?vid=e2723203-29e5-4f94-8c86-ff4e63054a3f","ios":"levelo://app?vid=e2723203-29e5-4f94-8c86-ff4e63054a3f"},"vehicle_type_id":"4","last_reported":1769635212,"current_range_meters":8800,"station_id":"","pricing_plan_id":"cebpf4jnsgd1na2vs0mg"},{"bike_id":"f9f433f8-c18c-4a42-bb0c-796736b3decc","system_id":"levelo_inurba_marseille","lat":43.23781,"lon":5.36632,"is_reserved":false,"is_disabled":false,"rental_uris":{"android":"levelo://app?vid=f9f433f8-c18c-4a42-bb0c-796736b3decc","ios":"levelo://app?vid=f9f433f8-c18c-4a42-bb0c-796736b3decc"},"vehicle_type_id":"4","last_reported":1769635212,"current_range_meters":8800,"station_id":"st_d3nk18o9ro0c73en2l3g","pricing_plan_id":"cebpf4jnsgd1na2vs0mg"},{"bike_id":"9e576907-c144-459e-9c20-f94541e395d1","system_id":"levelo_inurba_marseille","lat":43.31077,"lon":5.38353,"is_reserved":false,"is_disabled":false,"rental_uris":{"android":"levelo://app?vid=9e576907-c144-459e-9c20-f94541e395d1","ios":"levelo://app?vid=9e576907-c144-459e-9c20-f94541e395d1"},"vehicle_type_id":"4","last_reported":1769635212,"current_range_meters":8800,"station_id":"ce4bgv92rcd13ifvqcr0","pricing_plan_id":"cebpf4jnsgd1na2vs0mg"},{"bike_id":"140a1607-b362-4cce-ac2c-e3e4c57ed615","system_id":"levelo_inurba_marseille","lat":43.28362,"lon":5.38618,"is_reserved":false,"is_disabled":false,"rental_uris":{"android":"levelo://app?vid=140a1607-b362-4cce-ac2c-e3e4c57ed615","ios":"levelo://app?vid=140a1607-b362-4cce-ac2c-e3e4c57ed615"},"vehicle_type_id":"4","last_reported":1769635212,"current_range_meters":8800,"station_id":"ce4bh492rcd13ifvqdvg","pricing_plan_id":"cebpf4jnsgd1na2vs0mg"},{"bike_id":"ff53f9d5-5f7e-430d-99ce-acc6122108c3","system_id":"levelo_inurba_marseille","lat":43.248092,"lon":5.374602,"is_reserved":false,"is_disabled":false,"rental_uris":{"android":"levelo://app?vid=ff53f9d5-5f7e-430d-99ce-acc6122108c3","ios":"levelo://app?vid=ff53f9d5-5f7e-430d-99ce-acc6122108c3"},"vehicle_type_id":"4","last_reported":1769635212,"current_range_meters":8800,"station_id":"ce4bhgh2rcd13ifvqfb0","pricing_plan_id":"cebpf4jnsgd1na2vs0mg"},{"bike_id":"0f0e3ad5-adf0-49dd-bac7-a2c7ac77eeaf","system_id":"levelo_inurba_marseille","lat":43.26239,"lon":5.40395,"is_reserved":false,"is_disabled":false,"rental_uris":{"android":"levelo://app?vid=0f0e3ad5-adf0-49dd-bac7-a2c7ac77eeaf","ios":"levelo://app?vid=0f0e3ad5-adf0-49dd-bac7-a2c7ac77eeaf"},"vehicle_type_id":"4","last_reported":1769635212,"current_range_meters":8800,"station_id":"ce4bhmh2rcd13ifvqgmg","pricing_plan_id":"cebpf4jnsgd1na2vs0mg"},{"bike_id":"b6217fe5-f0d9-4cfe-b6f9-f3273664531a","system_id":"levelo_inurba_marseille","lat":43.318839,"lon":5.407356,"is_reserved":false,"is_disabled":false,"rental_uris":{"android":"levelo://app?vid=b6217fe5-f0d9-4cfe-b6f9-f3273664531a","ios":"levelo://app?vid=b6217fe5-f0d9-4cfe-b6f9-f3273664531a"},"vehicle_type_id":"4","last_reported":1769635212,"current_range_meters":8800,"station_id":"ce4bhq12rcd13ifvqhig","pricing_plan_id":"cebpf4jnsgd1na2vs0mg"},{"bike_id":"be7a4d7e-1984-4b23-8b92-0f9bbe591f55","system_id":"levelo_inurba_marseille","lat":43.28865,"lon":5.42535,"is_reserved":false,"is_disabled":false,"rental_uris":{"android":"levelo://app?vid=be7a4d7e-1984-4b23-8b92-0f9bbe591f55","ios":"levelo://app?vid=be7a4d7e-1984-4b23-8b92-0f9bbe591f55"},"vehicle_type_id":"4","last_reported":1769635212,"current_range_meters":8800,"station_id":"st_d3b462108ojc7389ooeg","pricing_plan_id":"cebpf4jnsgd1na2vs0mg"},{"bike_id":"9c143376-0522-4d00-a116-66d871cdb46d","system_id":"levelo_inurba_marseille","lat":43.25591,"lon":5.38239,"is_reserved":false,"is_disabled":false,"rental_uris":{"android":"levelo://app?vid=9c143376-0522-4d00-a116-66d871cdb46d","ios":"levelo://app?vid=9c143376-0522-4d00-a116-66d871cdb46d"},"vehicle_type_id":"4","last_reported":1769635212,"current_range_meters":8800,"station_id":"ce4bhih2rcd13ifvqfs0","pricing_plan_id":"cebpf4jnsgd1na2vs0mg"},{"bike_id":"0491bed2-eff8-42d6-9460-8bfe4a2ab6cf","system_id":"levelo_inurba_marseille","lat":43.27932,"lon":5.3958,"is_reserved":false,"is_disabled":false,"rental_uris":{"android":"levelo://app?vid=0491bed2-eff8-42d6-9460-8bfe4a2ab6cf","ios":"levelo://app?vid=0491bed2-eff8-42d6-9460-8bfe4a2ab6cf"},"vehicle_type_id":"4","last_reported":1769635212,"current_range_meters":8800,"station_id":"ce4bhf92rcd13ifvqf40","pricing_plan_id":"cebpf4jnsgd1na2vs0mg"},{"bike_id":"85b1b1e1-c458-4711-86a6-2ddb2584b733","system_id":"levelo_inurba_marseille","lat":43.335441,"lon":5.374639,"is_reserved":false,"is_disabled":false,"rental_uris":{"android":"levelo://app?vid=85b1b1e1-c458-4711-86a6-2ddb2584b733","ios":"levelo://app?vid=85b1b1e1-c458-4711-86a6-2ddb2584b733"},"vehicle_type_id":"4","last_reported":1769635212,"current_range_meters":8800,"station_id":"st_d46tts09ee8s73dlu43g","pricing_plan_id":"cebpf4jnsgd1na2vs0mg"},{"bike_id":"3d405854-a3e9-4cc4-bcac-5ce2eff49e57","system_id":"levelo_inurba_marseille","lat":43.23187,"lon":5.3998,"is_reserved":false,"is_disabled":false,"rental_uris":{"android":"levelo://app?vid=3d405854-a3e9-4cc4-bcac-5ce2eff49e57","ios":"levelo://app?vid=3d405854-a3e9-4cc4-bcac-5ce2eff49e57"},"vehicle_type_id":"4","last_reported":1769635212,"current_range_meters":8800,"station_id":"ce4bhn12rcd13ifvqgqg","pricing_plan_id":"cebpf4jnsgd1na2vs0mg"},{"bike_id":"737d6c6b-6c92-47dd-ac1a-61d8ace38398","system_id":"levelo_inurba_marseille","lat":43.29689,"lon":5.38719,"is_reserved":false,"is_disabled":false,"rental_uris":{"android":"levelo://app?vid=737d6c6b-6c92-47dd-ac1a-61d8ace38398","ios":"levelo://app?vid=737d6c6b-6c92-47dd-ac1a-61d8ace38398"},"vehicle_type_id":"4","last_reported":1769635212,"current_range_meters":8800,"station_id":"","pricing_plan_id":"cebpf4jnsgd1na2vs0mg"},{"bike_id":"62a57c33-0182-433a-bba5-2200a0f23c0e","system_id":"levelo_inurba_marseille","lat":43.302116,"lon":5.394666,"is_reserved":false,"is_disabled":false,"rental_uris":{"android":"levelo://app?vid=62a57c33-0182-433a-bba5-2200a0f23c0e","ios":"levelo://app?vid=62a57c33-0182-433a-bba5-2200a0f23c0e"},"vehicle_type_id":"4","last_reported":1769635212,"current_range_meters":8800,"station_id":"ce4bh0p2rcd13ifvqd70","pricing_plan_id":"cebpf4jnsgd1na2vs0mg"},{"bike_id":"dfaab8b0-1895-43ce-ae77-7df80e8c4e09","system_id":"levelo_inurba_marseille","lat":43.28428,"lon":5.37528,"is_reserved":false,"is_disabled":false,"rental_uris":{"android":"levelo://app?vid=dfaab8b0-1895-43ce-ae77-7df80e8c4e09","ios":"levelo://app?vid=dfaab8b0-1895-43ce-ae77-7df80e8c4e09"},"vehicle_type_id":"4","last_reported":1769635212,"current_range_meters":8800,"station_id":"ce4bh412rcd13ifvqds0","pricing_plan_id":"cebpf4jnsgd1na2vs0mg"},{"bike_id":"2091fd8b-82ef-4338-9ed3-42b40b6b35f0","system_id":"levelo_inurba_marseille","lat":43.30361,"lon":5.38027,"is_reserved":false,"is_disabled":false,"rental_uris":{"android":"levelo://app?vid=2091fd8b-82ef-4338-9ed3-42b40b6b35f0","ios":"levelo://app?vid=2091fd8b-82ef-4338-9ed3-42b40b6b35f0"},"vehicle_type_id":"4","last_reported":1769635212,"current_range_meters":8800,"station_id":"","pricing_plan_id":"cebpf4jnsgd1na2vs0mg"},{"bike_id":"78232e9c-1717-4c45-a9f5-b384ba925e93","system_id":"levelo_inurba_marseille","lat":43.25337,"lon":5.42177,"is_reserved":false,"is_disabled":false,"rental_uris":{"android":"levelo://app?vid=78232e9c-1717-4c45-a9f5-b384ba925e93","ios":"levelo://app?vid=78232e9c-1717-4c45-a9f5-b384ba925e93"},"vehicle_type_id":"4","last_reported":1769635212,"current_range_meters":8800,"station_id":"st_d2m65c5bi1j21697t3ng","pricing_plan_id":"cebpf4jnsgd1na2vs0mg"},{"bike_id":"c12ae0a8-7003-41e3-a920-6c5866346082","system_id":"levelo_inurba_marseille","lat":43.27999,"lon":5.40015,"is_reserved":false,"is_disabled":false,"rental_uris":{"android":"levelo://app?vid=c12ae0a8-7003-41e3-a920-6c5866346082","ios":"levelo://app?vid=c12ae0a8-7003-41e3-a920-6c5866346082"},"vehicle_type_id":"4","last_reported":1769635212,"current_range_meters":8800,"station_id":"ce4bho92rcd13ifvqh4g","pricing_plan_id":"cebpf4jnsgd1na2vs0mg"},{"bike_id":"c101aa9b-d3c4-4618-bef3-0e41586fba72","system_id":"levelo_inurba_marseille","lat":43.30912,"lon":5.39715,"is_reserved":false,"is_disabled":false,"rental_uris":{"android":"levelo://app?vid=c101aa9b-d3c4-4618-bef3-0e41586fba72","ios":"levelo://app?vid=c101aa9b-d3c4-4618-bef3-0e41586fba72"},"vehicle_type_id":"4","last_reported":1769635212,"current_range_meters":8800,"station_id":"ce4bh012rcd13ifvqcv0","pricing_plan_id":"cebpf4jnsgd1na2vs0mg"},{"bike_id":"de9f3d40-ab0b-4815-9ff8-6a221add92bf","system_id":"levelo_inurba_marseille","lat":43.33161,"lon":5.37694,"is_reserved":false,"is_disabled":false,"rental_uris":{"android":"levelo://app?vid=de9f3d40-ab0b-4815-9ff8-6a221add92bf","ios":"levelo://app?vid=de9f3d40-ab0b-4815-9ff8-6a221add92bf"},"vehicle_type_id":"4","last_reported":1769635212,"current_range_meters":8800,"station_id":"st_d46cu089ee8s73dldbu0","pricing_plan_id":"cebpf4jnsgd1na2vs0mg"},{"bike_id":"702e94ad-11e4-456c-a2b2-dd7ecdc6970e","system_id":"levelo_inurba_marseille","lat":43.28673,"lon":5.3636,"is_reserved":false,"is_disabled":false,"rental_uris":{"android":"levelo://app?vid=702e94ad-11e4-456c-a2b2-dd7ecdc6970e","ios":"levelo://app?vid=702e94ad-11e4-456c-a2b2-dd7ecdc6970e"},"vehicle_type_id":"4","last_reported":1769635212,"current_range_meters":8800,"station_id":"ce4bhah2rcd13ifvqej0","pricing_plan_id":"cebpf4jnsgd1na2vs0mg"},{"bike_id":"bbf12486-e043-443d-8c79-9a273772c204","system_id":"levelo_inurba_marseille","lat":43.23193,"lon":5.39981,"is_reserved":false,"is_disabled":false,"rental_uris":{"android":"levelo://app?vid=bbf12486-e043-443d-8c79-9a273772c204","ios":"levelo://app?vid=bbf12486-e043-443d-8c79-9a273772c204"},"vehicle_type_id":"4","last_reported":1769635212,"current_range_meters":9200,"station_id":"ce4bhn12rcd13ifvqgqg","pricing_plan_id":"cebpf4jnsgd1na2vs0mg"},{"bike_id":"efeafcfb-fc66-4b08-a741-f189e972e88a","system_id":"levelo_inurba_marseille","lat":43.29595,"lon":5.37495,"is_reserved":false,"is_disabled":false,"rental_uris":{"android":"levelo://app?vid=efeafcfb-fc66-4b08-a741-f189e972e88a","ios":"levelo://app?vid=efeafcfb-fc66-4b08-a741-f189e972e88a"},"vehicle_type_id":"4","last_reported":1769635212,"current_range_meters":9200,"station_id":"ce4bgh92rcd13ifvqb50","pricing_plan_id":"cebpf4jnsgd1na2vs0mg"},{"bike_id":"60ebce89-9b49-41d8-b1d5-1fdb022bac99","system_id":"levelo_inurba_marseille","lat":43.33665,"lon":5.37368,"is_reserved":false,"is_disabled":false,"rental_uris":{"android":"levelo://app?vid=60ebce89-9b49-41d8-b1d5-1fdb022bac99","ios":"levelo://app?vid=60ebce89-9b49-41d8-b1d5-1fdb022bac99"},"vehicle_type_id":"4","last_reported":1769635212,"current_range_meters":9200,"station_id":"","pricing_plan_id":"cebpf4jnsgd1na2vs0mg"},{"bike_id":"eb005a7f-028e-4a53-9903-3973986a905e","system_id":"levelo_inurba_marseille","lat":43.31679,"lon":5.37746,"is_reserved":false,"is_disabled":false,"rental_uris":{"android":"levelo://app?vid=eb005a7f-028e-4a53-9903-3973986a905e","ios":"levelo://app?vid=eb005a7f-028e-4a53-9903-3973986a905e"},"vehicle_type_id":"4","last_reported":1769635212,"current_range_meters":9200,"station_id":"ce4bgth2rcd13ifvqch0","pricing_plan_id":"cebpf4jnsgd1na2vs0mg"},{"bike_id":"49240dba-9adf-49d7-95a1-45579491cf97","system_id":"levelo_inurba_marseille","lat":43.28452,"lon":5.39182,"is_reserved":false,"is_disabled":true,"rental_uris":{"android":"levelo://app?vid=49240dba-9adf-49d7-95a1-45579491cf97","ios":"levelo://app?vid=49240dba-9adf-49d7-95a1-45579491cf97"},"vehicle_type_id":"4","last_reported":1769635212,"current_range_meters":9200,"station_id":"ce4bhoh2rcd13ifvqh5g","pricing_plan_id":"cebpf4jnsgd1na2vs0mg"},{"bike_id":"5ca7df86-652f-4ef4-a210-1e784774b230","system_id":"levelo_inurba_marseille","lat":43.31159,"lon":5.40119,"is_reserved":false,"is_disabled":false,"rental_uris":{"android":"levelo://app?vid=5ca7df86-652f-4ef4-a210-1e784774b230","ios":"levelo://app?vid=5ca7df86-652f-4ef4-a210-1e784774b230"},"vehicle_type_id":"4","last_reported":1769635212,"current_range_meters":9200,"station_id":"","pricing_plan_id":"cebpf4jnsgd1na2vs0mg"},{"bike_id":"bb6db0b0-a7e3-42a8-992e-e2e55dc89d52","system_id":"levelo_inurba_marseille","lat":43.33166,"lon":5.37693,"is_reserved":false,"is_disabled":false,"rental_uris":{"android":"levelo://app?vid=bb6db0b0-a7e3-42a8-992e-e2e55dc89d52","ios":"levelo://app?vid=bb6db0b0-a7e3-42a8-992e-e2e55dc89d52"},"vehicle_type_id":"4","last_reported":1769635212,"current_range_meters":9200,"station_id":"st_d46cu089ee8s73dldbu0","pricing_plan_id":"cebpf4jnsgd1na2vs0mg"},{"bike_id":"cfe3a6dd-a211-4abb-80dc-8311ecf0e5e7","system_id":"levelo_inurba_marseille","lat":43.23145,"lon":5.43716,"is_reserved":false,"is_disabled":false,"rental_uris":{"android":"levelo://app?vid=cfe3a6dd-a211-4abb-80dc-8311ecf0e5e7","ios":"levelo://app?vid=cfe3a6dd-a211-4abb-80dc-8311ecf0e5e7"},"vehicle_type_id":"4","last_reported":1769635212,"current_range_meters":9200,"station_id":"ce4bhmp2rcd13ifvqgog","pricing_plan_id":"cebpf4jnsgd1na2vs0mg"},{"bike_id":"e9747c1f-e9a2-476c-aedc-420cfcf7c272","system_id":"levelo_inurba_marseille","lat":43.2637,"lon":5.40165,"is_reserved":false,"is_disabled":false,"rental_uris":{"android":"levelo://app?vid=e9747c1f-e9a2-476c-aedc-420cfcf7c272","ios":"levelo://app?vid=e9747c1f-e9a2-476c-aedc-420cfcf7c272"},"vehicle_type_id":"4","last_reported":1769635212,"current_range_meters":9200,"station_id":"","pricing_plan_id":"cebpf4jnsgd1na2vs0mg"},{"bike_id":"92ac9ca0-f0b4-4afa-9cdd-b121e9de80a9","system_id":"levelo_inurba_marseille","lat":43.2621,"lon":5.37459,"is_reserved":false,"is_disabled":false,"rental_uris":{"android":"levelo://app?vid=92ac9ca0-f0b4-4afa-9cdd-b121e9de80a9","ios":"levelo://app?vid=92ac9ca0-f0b4-4afa-9cdd-b121e9de80a9"},"vehicle_type_id":"4","last_reported":1769635212,"current_range_meters":9200,"station_id":"ce4bhgp2rcd13ifvqfc0","pricing_plan_id":"cebpf4jnsgd1na2vs0mg"},{"bike_id":"65eb5cb0-a6f7-4de3-a9be-a5e0a4386045","system_id":"levelo_inurba_marseille","lat":43.33161,"lon":5.37676,"is_reserved":false,"is_disabled":false,"rental_uris":{"android":"levelo://app?vid=65eb5cb0-a6f7-4de3-a9be-a5e0a4386045","ios":"levelo://app?vid=65eb5cb0-a6f7-4de3-a9be-a5e0a4386045"},"vehicle_type_id":"4","last_reported":1769635212,"current_range_meters":9200,"station_id":"st_d46cu089ee8s73dldbu0","pricing_plan_id":"cebpf4jnsgd1na2vs0mg"},{"bike_id":"57e8bfd1-74a5-4db1-a337-4e23a5d75fe5","system_id":"levelo_inurba_marseille","lat":43.30141,"lon":5.37426,"is_reserved":false,"is_disabled":false,"rental_uris":{"android":"levelo://app?vid=57e8bfd1-74a5-4db1-a337-4e23a5d75fe5","ios":"levelo://app?vid=57e8bfd1-74a5-4db1-a337-4e23a5d75fe5"},"vehicle_type_id":"4","last_reported":1769635212,"current_range_meters":9200,"station_id":"ce4bgs92rcd13ifvqcc0","pricing_plan_id":"cebpf4jnsgd1na2vs0mg"},{"bike_id":"2f194b07-8e93-49a5-8909-5539e3b50f63","system_id":"levelo_inurba_marseille","lat":43.31374,"lon":5.38493,"is_reserved":false,"is_disabled":false,"rental_uris":{"android":"levelo://app?vid=2f194b07-8e93-49a5-8909-5539e3b50f63","ios":"levelo://app?vid=2f194b07-8e93-49a5-8909-5539e3b50f63"},"vehicle_type_id":"4","last_reported":1769635212,"current_range_meters":9200,"station_id":"ce4bgt92rcd13ifvqcf0","pricing_plan_id":"cebpf4jnsgd1na2vs0mg"},{"bike_id":"e6253678-846f-4727-94ff-291485141698","system_id":"levelo_inurba_marseille","lat":43.23815,"lon":5.36649,"is_reserved":false,"is_disabled":false,"rental_uris":{"android":"levelo://app?vid=e6253678-846f-4727-94ff-291485141698","ios":"levelo://app?vid=e6253678-846f-4727-94ff-291485141698"},"vehicle_type_id":"4","last_reported":1769635212,"current_range_meters":9200,"station_id":"st_d3nk18o9ro0c73en2l3g","pricing_plan_id":"cebpf4jnsgd1na2vs0mg"},{"bike_id":"a1adbbcc-56be-41a6-a560-f4a5e4282b51","system_id":"levelo_inurba_marseille","lat":43.28437,"lon":5.35017,"is_reserved":false,"is_disabled":false,"rental_uris":{"android":"levelo://app?vid=a1adbbcc-56be-41a6-a560-f4a5e4282b51","ios":"levelo://app?vid=a1adbbcc-56be-41a6-a560-f4a5e4282b51"},"vehicle_type_id":"4","last_reported":1769635212,"current_range_meters":9200,"station_id":"ce4bhbh2rcd13ifvqepg","pricing_plan_id":"cebpf4jnsgd1na2vs0mg"},{"bike_id":"e236f0a6-2e87-48ed-94ce-e49f696f4842","system_id":"levelo_inurba_marseille","lat":43.26627,"lon":5.37509,"is_reserved":false,"is_disabled":false,"rental_uris":{"android":"levelo://app?vid=e236f0a6-2e87-48ed-94ce-e49f696f4842","ios":"levelo://app?vid=e236f0a6-2e87-48ed-94ce-e49f696f4842"},"vehicle_type_id":"4","last_reported":1769635212,"current_range_meters":9200,"station_id":"","pricing_plan_id":"cebpf4jnsgd1na2vs0mg"},{"bike_id":"b160d3e8-6013-4e1d-a5e2-a6cbcdd77ebd","system_id":"levelo_inurba_marseille","lat":43.3012,"lon":5.37352,"is_reserved":false,"is_disabled":false,"rental_uris":{"android":"levelo://app?vid=b160d3e8-6013-4e1d-a5e2-a6cbcdd77ebd","ios":"levelo://app?vid=b160d3e8-6013-4e1d-a5e2-a6cbcdd77ebd"},"vehicle_type_id":"4","last_reported":1769635212,"current_range_meters":9200,"station_id":"","pricing_plan_id":"cebpf4jnsgd1na2vs0mg"},{"bike_id":"6af9cd74-ddd7-47d6-bf29-44fef51dc5ba","system_id":"levelo_inurba_marseille","lat":43.24653,"lon":5.38126,"is_reserved":false,"is_disabled":false,"rental_uris":{"android":"levelo://app?vid=6af9cd74-ddd7-47d6-bf29-44fef51dc5ba","ios":"levelo://app?vid=6af9cd74-ddd7-47d6-bf29-44fef51dc5ba"},"vehicle_type_id":"4","last_reported":1769635212,"current_range_meters":9200,"station_id":"ce4bhih2rcd13ifvqfr0","pricing_plan_id":"cebpf4jnsgd1na2vs0mg"},{"bike_id":"c0696abc-372a-454c-bbf6-807b3165d2b0","system_id":"levelo_inurba_marseille","lat":43.23962,"lon":5.36637,"is_reserved":false,"is_disabled":false,"rental_uris":{"android":"levelo://app?vid=c0696abc-372a-454c-bbf6-807b3165d2b0","ios":"levelo://app?vid=c0696abc-372a-454c-bbf6-807b3165d2b0"},"vehicle_type_id":"4","last_reported":1769635212,"current_range_meters":9200,"station_id":"ce4bhi12rcd13ifvqfp0","pricing_plan_id":"cebpf4jnsgd1na2vs0mg"},{"bike_id":"8e6737c9-7994-4a53-850b-f98e209c3e8d","system_id":"levelo_inurba_marseille","lat":43.28932,"lon":5.36395,"is_reserved":false,"is_disabled":false,"rental_uris":{"android":"levelo://app?vid=8e6737c9-7994-4a53-850b-f98e209c3e8d","ios":"levelo://app?vid=8e6737c9-7994-4a53-850b-f98e209c3e8d"},"vehicle_type_id":"4","last_reported":1769635212,"current_range_meters":9200,"station_id":"ce4bhc92rcd13ifvqetg","pricing_plan_id":"cebpf4jnsgd1na2vs0mg"},{"bike_id":"e2e2f78e-6957-4421-a1e4-54c092604843","system_id":"levelo_inurba_marseille","lat":43.26214,"lon":5.40423,"is_reserved":false,"is_disabled":false,"rental_uris":{"android":"levelo://app?vid=e2e2f78e-6957-4421-a1e4-54c092604843","ios":"levelo://app?vid=e2e2f78e-6957-4421-a1e4-54c092604843"},"vehicle_type_id":"4","last_reported":1769635212,"current_range_meters":9200,"station_id":"ce4bhmh2rcd13ifvqgmg","pricing_plan_id":"cebpf4jnsgd1na2vs0mg"},{"bike_id":"a58dc732-5bf5-4207-8eae-ec0e6318e474","system_id":"levelo_inurba_marseille","lat":43.28475,"lon":5.38426,"is_reserved":false,"is_disabled":false,"rental_uris":{"android":"levelo://app?vid=a58dc732-5bf5-4207-8eae-ec0e6318e474","ios":"levelo://app?vid=a58dc732-5bf5-4207-8eae-ec0e6318e474"},"vehicle_type_id":"4","last_reported":1769635212,"current_range_meters":9200,"station_id":"ce4bh512rcd13ifvqe3g","pricing_plan_id":"cebpf4jnsgd1na2vs0mg"},{"bike_id":"ce0d3d0a-5dbd-4056-b2d2-15f5a7d4dfa5","system_id":"levelo_inurba_marseille","lat":43.28881,"lon":5.35871,"is_reserved":false,"is_disabled":false,"rental_uris":{"android":"levelo://app?vid=ce0d3d0a-5dbd-4056-b2d2-15f5a7d4dfa5","ios":"levelo://app?vid=ce0d3d0a-5dbd-4056-b2d2-15f5a7d4dfa5"},"vehicle_type_id":"4","last_reported":1769635212,"current_range_meters":9200,"station_id":"ce4bhb12rcd13ifvqem0","pricing_plan_id":"cebpf4jnsgd1na2vs0mg"},{"bike_id":"98ed341d-47b5-4b82-bf69-aea2421933bc","system_id":"levelo_inurba_marseille","lat":43.28478,"lon":5.38543,"is_reserved":false,"is_disabled":false,"rental_uris":{"android":"levelo://app?vid=98ed341d-47b5-4b82-bf69-aea2421933bc","ios":"levelo://app?vid=98ed341d-47b5-4b82-bf69-aea2421933bc"},"vehicle_type_id":"4","last_reported":1769635212,"current_range_meters":9200,"station_id":"ce4bh8p2rcd13ifvqeb0","pricing_plan_id":"cebpf4jnsgd1na2vs0mg"},{"bike_id":"65acf627-cf1b-4d50-950d-139ba4fe7e7b","system_id":"levelo_inurba_marseille","lat":43.28155,"lon":5.42647,"is_reserved":false,"is_disabled":false,"rental_uris":{"android":"levelo://app?vid=65acf627-cf1b-4d50-950d-139ba4fe7e7b","ios":"levelo://app?vid=65acf627-cf1b-4d50-950d-139ba4fe7e7b"},"vehicle_type_id":"4","last_reported":1769635212,"current_range_meters":9200,"station_id":"ce4bhnh2rcd13ifvqgug","pricing_plan_id":"cebpf4jnsgd1na2vs0mg"},{"bike_id":"fdaeb231-54b3-441e-932e-1158a2ac5bfd","system_id":"levelo_inurba_marseille","lat":43.30315,"lon":5.36908,"is_reserved":false,"is_disabled":false,"rental_uris":{"android":"levelo://app?vid=fdaeb231-54b3-441e-932e-1158a2ac5bfd","ios":"levelo://app?vid=fdaeb231-54b3-441e-932e-1158a2ac5bfd"},"vehicle_type_id":"4","last_reported":1769635212,"current_range_meters":9200,"station_id":"ce4bgqh2rcd13ifvqc5g","pricing_plan_id":"cebpf4jnsgd1na2vs0mg"},{"bike_id":"0d283245-8d0d-43c2-b55f-0d7e9546e41a","system_id":"levelo_inurba_marseille","lat":43.29192,"lon":5.35814,"is_reserved":false,"is_disabled":false,"rental_uris":{"android":"levelo://app?vid=0d283245-8d0d-43c2-b55f-0d7e9546e41a","ios":"levelo://app?vid=0d283245-8d0d-43c2-b55f-0d7e9546e41a"},"vehicle_type_id":"4","last_reported":1769635212,"current_range_meters":9200,"station_id":"ce4bhb12rcd13ifvqel0","pricing_plan_id":"cebpf4jnsgd1na2vs0mg"},{"bike_id":"9b87a7c0-d21e-4c7f-be9f-555ccd2d3a4f","system_id":"levelo_inurba_marseille","lat":43.32102,"lon":5.36774,"is_reserved":false,"is_disabled":false,"rental_uris":{"android":"levelo://app?vid=9b87a7c0-d21e-4c7f-be9f-555ccd2d3a4f","ios":"levelo://app?vid=9b87a7c0-d21e-4c7f-be9f-555ccd2d3a4f"},"vehicle_type_id":"4","last_reported":1769635212,"current_range_meters":9200,"station_id":"ce4bhrh2rcd13ifvqhug","pricing_plan_id":"cebpf4jnsgd1na2vs0mg"},{"bike_id":"51e33b43-0b63-43c6-8dbf-365699605da8","system_id":"levelo_inurba_marseille","lat":43.27001,"lon":5.39837,"is_reserved":false,"is_disabled":false,"rental_uris":{"android":"levelo://app?vid=51e33b43-0b63-43c6-8dbf-365699605da8","ios":"levelo://app?vid=51e33b43-0b63-43c6-8dbf-365699605da8"},"vehicle_type_id":"4","last_reported":1769635212,"current_range_meters":9200,"station_id":"","pricing_plan_id":"cebpf4jnsgd1na2vs0mg"},{"bike_id":"1bfe2930-bdb0-4422-9fe9-421cffed6f81","system_id":"levelo_inurba_marseille","lat":43.2594,"lon":5.40917,"is_reserved":false,"is_disabled":false,"rental_uris":{"android":"levelo://app?vid=1bfe2930-bdb0-4422-9fe9-421cffed6f81","ios":"levelo://app?vid=1bfe2930-bdb0-4422-9fe9-421cffed6f81"},"vehicle_type_id":"4","last_reported":1769635212,"current_range_meters":9200,"station_id":"ce4bhm92rcd13ifvqglg","pricing_plan_id":"cebpf4jnsgd1na2vs0mg"},{"bike_id":"00e5f91e-28e3-4d18-9405-1b18fbd1b1a5","system_id":"levelo_inurba_marseille","lat":43.24815,"lon":5.37462,"is_reserved":false,"is_disabled":false,"rental_uris":{"android":"levelo://app?vid=00e5f91e-28e3-4d18-9405-1b18fbd1b1a5","ios":"levelo://app?vid=00e5f91e-28e3-4d18-9405-1b18fbd1b1a5"},"vehicle_type_id":"4","last_reported":1769635212,"current_range_meters":9200,"station_id":"ce4bhgh2rcd13ifvqfb0","pricing_plan_id":"cebpf4jnsgd1na2vs0mg"},{"bike_id":"02230a46-7071-45a4-a394-21ae4807fff8","system_id":"levelo_inurba_marseille","lat":43.2583,"lon":5.39366,"is_reserved":false,"is_disabled":false,"rental_uris":{"android":"levelo://app?vid=02230a46-7071-45a4-a394-21ae4807fff8","ios":"levelo://app?vid=02230a46-7071-45a4-a394-21ae4807fff8"},"vehicle_type_id":"4","last_reported":1769635212,"current_range_meters":9200,"station_id":"","pricing_plan_id":"cebpf4jnsgd1na2vs0mg"},{"bike_id":"2ca3f582-eeaf-4cb8-acab-d157676d2c6d","system_id":"levelo_inurba_marseille","lat":43.30405,"lon":5.411826,"is_reserved":false,"is_disabled":false,"rental_uris":{"android":"levelo://app?vid=2ca3f582-eeaf-4cb8-acab-d157676d2c6d","ios":"levelo://app?vid=2ca3f582-eeaf-4cb8-acab-d157676d2c6d"},"vehicle_type_id":"4","last_reported":1769635212,"current_range_meters":9200,"station_id":"","pricing_plan_id":"cebpf4jnsgd1na2vs0mg"},{"bike_id":"ae271546-2414-45b9-8ca1-cf52daa669c2","system_id":"levelo_inurba_marseille","lat":43.25362,"lon":5.42144,"is_reserved":false,"is_disabled":false,"rental_uris":{"android":"levelo://app?vid=ae271546-2414-45b9-8ca1-cf52daa669c2","ios":"levelo://app?vid=ae271546-2414-45b9-8ca1-cf52daa669c2"},"vehicle_type_id":"4","last_reported":1769635212,"current_range_meters":9200,"station_id":"st_d2m65c5bi1j21697t3ng","pricing_plan_id":"cebpf4jnsgd1na2vs0mg"},{"bike_id":"4bd6cb39-f26e-431f-9c48-bc9838a79167","system_id":"levelo_inurba_marseille","lat":43.29821,"lon":5.44077,"is_reserved":false,"is_disabled":false,"rental_uris":{"android":"levelo://app?vid=4bd6cb39-f26e-431f-9c48-bc9838a79167","ios":"levelo://app?vid=4bd6cb39-f26e-431f-9c48-bc9838a79167"},"vehicle_type_id":"4","last_reported":1769635212,"current_range_meters":9200,"station_id":"st_d3jp68qikq2c7381ktn0","pricing_plan_id":"cebpf4jnsgd1na2vs0mg"},