{"last_updated":1746007879,"ttl":60,"version":"2.2","data":{"bikes":[{"bike_id":"f01b9fba-816f-4700-9724-6e4f6cdeb78d","system_id":"levelo_inurba_marseille","lat":43.31324,"lon":5.39698,"is_reserved":false,"is_disabled":false,"rental_uris":{"android":"levelo://app?vid=f01b9fba-816f-4700-9724-6e4f6cdeb78d","ios":"levelo://app?vid=f01b9fba-816f-4700-9724-6e4f6cdeb78d"},"vehicle_type_id":"4","last_reported":1746007879,"current_range_meters":2800,"station_id":"ce4bgvp2rcd13ifvqcu0","pricing_plan_id":"cebpf4jnsgd1na2vs0mg"},{"bike_id":"e0265468-299b-472b-b647-c07eeb75cf01","system_id":"levelo_inurba_marseille","lat":43.326586,"lon":5.409978,"is_reserved":false,"is_disabled":false,"rental_uris":{"android":"levelo://app?vid=e0265468-299b-472b-b647-c07eeb75cf01","ios":"levelo://app?vid=e0265468-299b-472b-b647-c07eeb75cf01"},"vehicle_type_id":"4","last_reported":1746007879,"current_range_meters":3200,"station_id":"ce4bhpp2rcd13ifvqhgg","pricing_plan_id":"cebpf4jnsgd1na2vs0mg"},{"bike_id":"231564ed-c2d5-4771-9409-71d58e3ad9e3","system_id":"levelo_inurba_marseille","lat":43.21189,"lon":5.35066,"is_reserved":false,"is_disabled":false,"rental_uris":{"android":"levelo://app?vid=231564ed-c2d5-4771-9409-71d58e3ad9e3","ios":"levelo://app?vid=231564ed-c2d5-4771-9409-71d58e3ad9e3"},"vehicle_type_id":"4","last_reported":1746007879,"current_range_meters":2800,"station_id":"st_cvj6sg6p6f1abm77japg","pricing_plan_id":"cebpf4jnsgd1na2vs0mg"},{"bike_id":"386bae23-9935-4964-9e0f-37df8644c44b","system_id":"levelo_inurba_marseille","lat":43.23206,"lon":5.3994,"is_reserved":false,"is_disabled":false,"rental_uris":{"android":"levelo://app?vid=386bae23-9935-4964-9e0f-37df8644c44b","ios":"levelo://app?vid=386bae23-9935-4964-9e0f-37df8644c44b"},"vehicle_type_id":"4","last_reported":1746007879,"current_range_meters":2800,"station_id":"ce4bhn12rcd13ifvqgqg","pricing_plan_id":"cebpf4jnsgd1na2vs0mg"},{"bike_id":"84a50f1c-ec4c-470f-b011-0195c32679cf","system_id":"levelo_inurba_marseille","lat":43.30457,"lon":5.37897,"is_reserved":false,"is_disabled":false,"rental_uris":{"android":"levelo://app?vid=84a50f1c-ec4c-470f-b011-0195c32679cf","ios":"levelo://app?vid=84a50f1c-ec4c-470f-b011-0195c32679cf"},"vehicle_type_id":"4","last_reported":1746007879,"current_range_meters":2800,"station_id":"ce4bgup2rcd13ifvqcn0","pricing_plan_id":"cebpf4jnsgd1na2vs0mg"},{"bike_id":"aa59e8df-8a99-47ae-9982-92d8098176ba","system_id":"levelo_inurba_marseille","lat":43.26214,"lon":5.37436,"is_reserved":false,"is_disabled":false,"rental_uris":{"android":"levelo://app?vid=aa59e8df-8a99-47ae-9982-92d8098176ba","ios":"levelo://app?vid=aa59e8df-8a99-47ae-9982-92d8098176ba"},"vehicle_type_id":"4","last_reported":1746007879,"current_range_meters":3600,"station_id":"ce4bhgp2rcd13ifvqfc0","pricing_plan_id":"cebpf4jnsgd1na2vs0mg"},{"bike_id":"071d6ca8-19f3-4b5b-bd92-6e896cc73b24","system_id":"levelo_inurba_marseille","lat":43.27997,"lon":5.40009,"is_reserved":false,"is_disabled":false,"rental_uris":{"android":"levelo://app?vid=071d6ca8-19f3-4b5b-bd92-6e896cc73b24","ios":"levelo://app?vid=071d6ca8-19f3-4b5b-bd92-6e896cc73b24"},"vehicle_type_id":"4","last_reported":1746007879,"current_range_meters":3600,"station_id":"ce4bho92rcd13ifvqh4g","pricing_plan_id":"cebpf4jnsgd1na2vs0mg"},{"bike_id":"587d1de9-e42e-4df5-ab55-265fb8d1ba8a","system_id":"levelo_inurba_marseille","lat":43.28424,"lon":5.34991,"is_reserved":false,"is_disabled":false,"rental_uris":{"android":"levelo://app?vid=587d1de9-e42e-4df5-ab55-265fb8d1ba8a","ios":"levelo://app?vid=587d1de9-e42e-4df5-ab55-265fb8d1ba8a"},"vehicle_type_id":"4","last_reported":1746007879,"current_range_meters":4000,"station_id":"ce4bhbh2rcd13ifvqepg","pricing_plan_id":"cebpf4jnsgd1na2vs0mg"},{"bike_id":"e5b4b90d-e268-4de2-98f4-f6d0513f8801","system_id":"levelo_inurba_marseille","lat":43.26549,"lon":5.42225,"is_reserved":false,"is_disabled":false,"rental_uris":{"android":"levelo://app?vid=e5b4b90d-e268-4de2-98f4-f6d0513f8801","ios":"levelo://app?vid=e5b4b90d-e268-4de2-98f4-f6d0513f8801"},"vehicle_type_id":"4","last_reported":1746007879,"current_range_meters":4000,"station_id":"","pricing_plan_id":"cebpf4jnsgd1na2vs0mg"},{"bike_id":"eeedf767-e67a-44ba-9162-0bc81783b668","system_id":"levelo_inurba_marseille","lat":43.23197,"lon":5.35548,"is_reserved":false,"is_disabled":false,"rental_uris":{"android":"levelo://app?vid=eeedf767-e67a-44ba-9162-0bc81783b668","ios":"levelo://app?vid=eeedf767-e67a-44ba-9162-0bc81783b668"},"vehicle_type_id":"4","last_reported":1746007879,"current_range_meters":4400,"station_id":"ce4bhu92rcd13ifvqi70","pricing_plan_id":"cebpf4jnsgd1na2vs0mg"},{"bike_id":"f1e3c12a-02a3-4893-b9e1-1aacd74f3f49","system_id":"levelo_inurba_marseille","lat":43.32096,"lon":5.36778,"is_reserved":false,"is_disabled":false,"rental_uris":{"android":"levelo://app?vid=f1e3c12a-02a3-4893-b9e1-1aacd74f3f49","ios":"levelo://app?vid=f1e3c12a-02a3-4893-b9e1-1aacd74f3f49"},"vehicle_type_id":"4","last_reported":1746007879,"current_range_meters":4800,"station_id":"ce4bhrh2rcd13ifvqhug","pricing_plan_id":"cebpf4jnsgd1na2vs0mg"},{"bike_id":"ef83d5e3-07eb-498f-919c-dd6aed7afc4d","system_id":"levelo_inurba_marseille","lat":43.24179,"lon":5.39729,"is_reserved":false,"is_disabled":false,"rental_uris":{"android":"levelo://app?vid=ef83d5e3-07eb-498f-919c-dd6aed7afc4d","ios":"levelo://app?vid=ef83d5e3-07eb-498f-919c-dd6aed7afc4d"},"vehicle_type_id":"4","last_reported":1746007879,"current_range_meters":4800,"station_id":"ce4bhn12rcd13ifvqgpg","pricing_plan_id":"cebpf4jnsgd1na2vs0mg"},{"bike_id":"b6f07bbf-03b0-4906-91f2-97617dca3c4a","system_id":"levelo_inurba_marseille","lat":43.23961,"lon":5.36616,"is_reserved":false,"is_disabled":false,"rental_uris":{"android":"levelo://app?vid=b6f07bbf-03b0-4906-91f2-97617dca3c4a","ios":"levelo://app?vid=b6f07bbf-03b0-4906-91f2-97617dca3c4a"},"vehicle_type_id":"4","last_reported":1746007879,"current_range_meters":4400,"station_id":"ce4bhi12rcd13ifvqfp0","pricing_plan_id":"cebpf4jnsgd1na2vs0mg"},{"bike_id":"15d9d360-77c3-453b-a2af-e65d58cb2e7c","system_id":"levelo_inurba_marseille","lat":43.21753,"lon":5.34599,"is_reserved":false,"is_disabled":false,"rental_uris":{"android":"levelo://app?vid=15d9d360-77c3-453b-a2af-e65d58cb2e7c","ios":"levelo://app?vid=15d9d360-77c3-453b-a2af-e65d58cb2e7c"},"vehicle_type_id":"4","last_reported":1746007879,"current_range_meters":5600,"station_id":"st_cvj6r9ubvosntc0bgbag","pricing_plan_id":"cebpf4jnsgd1na2vs0mg"},{"bike_id":"6f38b2ef-8c68-4c77-9fb6-fb95536bec70","system_id":"levelo_inurba_marseille","lat":43.26227,"lon":5.40444,"is_reserved":false,"is_disabled":false,"rental_uris":{"android":"levelo://app?vid=6f38b2ef-8c68-4c77-9fb6-fb95536bec70","ios":"levelo://app?vid=6f38b2ef-8c68-4c77-9fb6-fb95536bec70"},"vehicle_type_id":"4","last_reported":1746007879,"current_range_meters":5600,"station_id":"ce4bhmh2rcd13ifvqgmg","pricing_plan_id":"cebpf4jnsgd1na2vs0mg"},{"bike_id":"efd16932-09c4-420f-8e3e-4cb7939bad67","system_id":"levelo_inurba_marseille","lat":43.29007,"lon":5.35612,"is_reserved":false,"is_disabled":false,"rental_uris":{"android":"levelo://app?vid=efd16932-09c4-420f-8e3e-4cb7939bad67","ios":"levelo://app?vid=efd16932-09c4-420f-8e3e-4cb7939bad67"},"vehicle_type_id":"4","last_reported":1746007879,"current_range_meters":5600,"station_id":"ce4bhb92rcd13ifvqen0","pricing_plan_id":"cebpf4jnsgd1na2vs0mg"},{"bike_id":"672a6a9b-16c0-4898-8964-08b2766bfb0e","system_id":"levelo_inurba_marseille","lat":43.25102,"lon":5.3948,"is_reserved":false,"is_disabled":false,"rental_uris":{"android":"levelo://app?vid=672a6a9b-16c0-4898-8964-08b2766bfb0e","ios":"levelo://app?vid=672a6a9b-16c0-4898-8964-08b2766bfb0e"},"vehicle_type_id":"4","last_reported":1746007879,"current_range_meters":5600,"station_id":"ce4bhm12rcd13ifvqgkg","pricing_plan_id":"cebpf4jnsgd1na2vs0mg"},{"bike_id":"8e779821-5b1f-45f3-b40f-6a0e653c7333","system_id":"levelo_inurba_marseille","lat":43.33773,"lon":5.37461,"is_reserved":false,"is_disabled":false,"rental_uris":{"android":"levelo://app?vid=8e779821-5b1f-45f3-b40f-6a0e653c7333","ios":"levelo://app?vid=8e779821-5b1f-45f3-b40f-6a0e653c7333"},"vehicle_type_id":"4","last_reported":1746007879,"current_range_meters":5600,"station_id":"","pricing_plan_id":"cebpf4jnsgd1na2vs0mg"},{"bike_id":"2c1b33dc-6037-49cc-a203-b73517cb14ac","system_id":"levelo_inurba_marseille","lat":43.2865,"lon":5.45477,"is_reserved":false,"is_disabled":false,"rental_uris":{"android":"levelo://app?vid=2c1b33dc-6037-49cc-a203-b73517cb14ac","ios":"levelo://app?vid=2c1b33dc-6037-49cc-a203-b73517cb14ac"},"vehicle_type_id":"4","last_reported":1746007879,"current_range_meters":6000,"station_id":"","pricing_plan_id":"cebpf4jnsgd1na2vs0mg"},{"bike_id":"2df62b6c-88b9-4679-9129-7ae7dbacbd8b","system_id":"levelo_inurba_marseille","lat":43.21759,"lon":5.34593,"is_reserved":false,"is_disabled":false,"rental_uris":{"android":"levelo://app?vid=2df62b6c-88b9-4679-9129-7ae7dbacbd8b","ios":"levelo://app?vid=2df62b6c-88b9-4679-9129-7ae7dbacbd8b"},"vehicle_type_id":"4","last_reported":1746007879,"current_range_meters":6000,"station_id":"st_cvj6r9ubvosntc0bgbag","pricing_plan_id":"cebpf4jnsgd1na2vs0mg"},{"bike_id":"884e2906-d30a-4482-89af-67c2277d4a1e","system_id":"levelo_inurba_marseille","lat":43.25,"lon":5.38923,"is_reserved":false,"is_disabled":false,"rental_uris":{"android":"levelo://app?vid=884e2906-d30a-4482-89af-67c2277d4a1e","ios":"levelo://app?vid=884e2906-d30a-4482-89af-67c2277d4a1e"},"vehicle_type_id":"4","last_reported":1746007879,"current_range_meters":6000,"station_id":"ce4bhgp2rcd13ifvqfd0","pricing_plan_id":"cebpf4jnsgd1na2vs0mg"},{"bike_id":"8d1bbdaa-d699-483b-a28a-8744f208e5f3","system_id":"levelo_inurba_marseille","lat":43.30901,"lon":5.36833,"is_reserved":false,"is_disabled":false,"rental_uris":{"android":"levelo://app?vid=8d1bbdaa-d699-483b-a28a-8744f208e5f3","ios":"levelo://app?vid=8d1bbdaa-d699-483b-a28a-8744f208e5f3"},"vehicle_type_id":"4","last_reported":1746007879,"current_range_meters":6400,"station_id":"ce4bgn92rcd13ifvqbvg","pricing_plan_id":"cebpf4jnsgd1na2vs0mg"},{"bike_id":"7497e739-0c50-4aa1-9f39-dfb008e37b83","system_id":"levelo_inurba_marseille","lat":43.30955,"lon":5.37137,"is_reserved":false,"is_disabled":false,"rental_uris":{"android":"levelo://app?vid=7497e739-0c50-4aa1-9f39-dfb008e37b83","ios":"levelo://app?vid=7497e739-0c50-4aa1-9f39-dfb008e37b83"},"vehicle_type_id":"4","last_reported":1746007879,"current_range_meters":6400,"station_id":"","pricing_plan_id":"cebpf4jnsgd1na2vs0mg"},{"bike_id":"5a1610a5-2728-4fc9-91ba-82f66daa3100","system_id":"levelo_inurba_marseille","lat":43.26234,"lon":5.40451,"is_reserved":false,"is_disabled":false,"rental_uris":{"android":"levelo://app?vid=5a1610a5-2728-4fc9-91ba-82f66daa3100","ios":"levelo://app?vid=5a1610a5-2728-4fc9-91ba-82f66daa3100"},"vehicle_type_id":"4","last_reported":1746007879,"current_range_meters":6800,"station_id":"ce4bhmh2rcd13ifvqgmg","pricing_plan_id":"cebpf4jnsgd1na2vs0mg"},{"bike_id":"89e9553b-359a-4286-8dbe-b7ac879dcc90","system_id":"levelo_inurba_marseille","lat":43.32471,"lon":5.36588,"is_reserved":false,"is_disabled":false,"rental_uris":{"android":"levelo://app?vid=89e9553b-359a-4286-8dbe-b7ac879dcc90","ios":"levelo://app?vid=89e9553b-359a-4286-8dbe-b7ac879dcc90"},"vehicle_type_id":"4","last_reported":1746007879,"current_range_meters":6800,"station_id":"ce4bhs12rcd13ifvqhvg","pricing_plan_id":"cebpf4jnsgd1na2vs0mg"},{"bike_id":"2ec29614-b48a-411f-981d-f56bd8b6a896","system_id":"levelo_inurba_marseille","lat":43.277436,"lon":5.39725,"is_reserved":false,"is_disabled":false,"rental_uris":{"android":"levelo://app?vid=2ec29614-b48a-411f-981d-f56bd8b6a896","ios":"levelo://app?vid=2ec29614-b48a-411f-981d-f56bd8b6a896"},"vehicle_type_id":"4","last_reported":1746007879,"current_range_meters":7200,"station_id":"ce4bho92rcd13ifvqh4g","pricing_plan_id":"cebpf4jnsgd1na2vs0mg"},{"bike_id":"7a4f09f2-b541-4893-8dfc-c5dd5e01f1c9","system_id":"levelo_inurba_marseille","lat":43.25114,"lon":5.40323,"is_reserved":false,"is_disabled":false,"rental_uris":{"android":"levelo://app?vid=7a4f09f2-b541-4893-8dfc-c5dd5e01f1c9","ios":"levelo://app?vid=7a4f09f2-b541-4893-8dfc-c5dd5e01f1c9"},"vehicle_type_id":"4","last_reported":1746007879,"current_range_meters":6800,"station_id":"ce4bhlh2rcd13ifvqgig","pricing_plan_id":"cebpf4jnsgd1na2vs0mg"},{"bike_id":"38b0a9f0-c61d-4c7c-b673-e675344dea51","system_id":"levelo_inurba_marseille","lat":43.33594,"lon":5.4102,"is_reserved":false,"is_disabled":false,"rental_uris":{"android":"levelo://app?vid=38b0a9f0-c61d-4c7c-b673-e675344dea51","ios":"levelo://app?vid=38b0a9f0-c61d-4c7c-b673-e675344dea51"},"vehicle_type_id":"4","last_reported":1746007879,"current_range_meters":7200,"station_id":"ce4bhqh2rcd13ifvqhmg","pricing_plan_id":"cebpf4jnsgd1na2vs0mg"},{"bike_id":"715f7c9a-ba82-476e-a819-2bdde5a2a04a","system_id":"levelo_inurba_marseille","lat":43.33613,"lon":5.41041,"is_reserved":false,"is_disabled":false,"rental_uris":{"android":"levelo://app?vid=715f7c9a-ba82-476e-a819-2bdde5a2a04a","ios":"levelo://app?vid=715f7c9a-ba82-476e-a819-2bdde5a2a04a"},"vehicle_type_id":"4","last_reported":1746007879,"current_range_meters":8000,"station_id":"ce4bhqh2rcd13ifvqhmg","pricing_plan_id":"cebpf4jnsgd1na2vs0mg"},{"bike_id":"7eab4cb0-2fb1-4bd6-8a5b-8fc0131ab374","system_id":"levelo_inurba_marseille","lat":43.284157,"lon":5.34987,"is_reserved":false,"is_disabled":false,"rental_uris":{"android":"levelo://app?vid=7eab4cb0-2fb1-4bd6-8a5b-8fc0131ab374","ios":"levelo://app?vid=7eab4cb0-2fb1-4bd6-8a5b-8fc0131ab374"},"vehicle_type_id":"4","last_reported":1746007879,"current_range_meters":8000,"station_id":"","pricing_plan_id":"cebpf4jnsgd1na2vs0mg"},{"bike_id":"027103bc-0186-421b-b07a-9af541913d80","system_id":"levelo_inurba_marseille","lat":43.28661,"lon":5.36348,"is_reserved":false,"is_disabled":false,"rental_uris":{"android":"levelo://app?vid=027103bc-0186-421b-b07a-9af541913d80","ios":"levelo://app?vid=027103bc-0186-421b-b07a-9af541913d80"},"vehicle_type_id":"4","last_reported":1746007879,"current_range_meters":7200,"station_id":"ce4bhah2rcd13ifvqej0","pricing_plan_id":"cebpf4jnsgd1na2vs0mg"},{"bike_id":"e031dbac-4a59-4f46-8671-96af762d314a","system_id":"levelo_inurba_marseille","lat":43.28947,"lon":5.36636,"is_reserved":false,"is_disabled":false,"rental_uris":{"android":"levelo://app?vid=e031dbac-4a59-4f46-8671-96af762d314a","ios":"levelo://app?vid=e031dbac-4a59-4f46-8671-96af762d314a"},"vehicle_type_id":"4","last_reported":1746007879,"current_range_meters":8000,"station_id":"ce4bhap2rcd13ifvqek0","pricing_plan_id":"cebpf4jnsgd1na2vs0mg"},{"bike_id":"1862fb6f-61c4-4c09-a828-864ab246ea11","system_id":"levelo_inurba_marseille","lat":43.23535,"lon":5.40324,"is_reserved":false,"is_disabled":false,"rental_uris":{"android":"levelo://app?vid=1862fb6f-61c4-4c09-a828-864ab246ea11","ios":"levelo://app?vid=1862fb6f-61c4-4c09-a828-864ab246ea11"},"vehicle_type_id":"4","last_reported":1746007879,"current_range_meters":8000,"station_id":"","pricing_plan_id":"cebpf4jnsgd1na2vs0mg"},{"bike_id":"ec2235e9-4990-4128-8f0f-918cf3420f32","system_id":"levelo_inurba_marseille","lat":43.23149,"lon":5.43726,"is_reserved":false,"is_disabled":false,"rental_uris":{"android":"levelo://app?vid=ec2235e9-4990-4128-8f0f-918cf3420f32","ios":"levelo://app?vid=ec2235e9-4990-4128-8f0f-918cf3420f32"},"vehicle_type_id":"4","last_reported":1746007879,"current_range_meters":8400,"station_id":"ce4bhmp2rcd13ifvqgog","pricing_plan_id":"cebpf4jnsgd1na2vs0mg"},{"bike_id":"fc80a5ee-6176-41e2-8e2d-2e02e401fedb","system_id":"levelo_inurba_marseille","lat":43.28458,"lon":5.35891,"is_reserved":false,"is_disabled":false,"rental_uris":{"android":"levelo://app?vid=fc80a5ee-6176-41e2-8e2d-2e02e401fedb","ios":"levelo://app?vid=fc80a5ee-6176-41e2-8e2d-2e02e401fedb"},"vehicle_type_id":"4","last_reported":1746007879,"current_range_meters":8400,"station_id":"ce4bhah2rcd13ifvqei0","pricing_plan_id":"cebpf4jnsgd1na2vs0mg"},{"bike_id":"c7d4ca92-020f-4c6f-815a-ddc6fdf77b1f","system_id":"levelo_inurba_marseille","lat":43.2348,"lon":5.38028,"is_reserved":false,"is_disabled":false,"rental_uris":{"android":"levelo://app?vid=c7d4ca92-020f-4c6f-815a-ddc6fdf77b1f","ios":"levelo://app?vid=c7d4ca92-020f-4c6f-815a-ddc6fdf77b1f"},"vehicle_type_id":"4","last_reported":1746007879,"current_range_meters":8400,"station_id":"","pricing_plan_id":"cebpf4jnsgd1na2vs0mg"},{"bike_id":"316f5dd2-3b44-47be-b890-660aee0e4c77","system_id":"levelo_inurba_marseille","lat":43.29963,"lon":5.38494,"is_reserved":false,"is_disabled":false,"rental_uris":{"android":"levelo://app?vid=316f5dd2-3b44-47be-b890-660aee0e4c77","ios":"levelo://app?vid=316f5dd2-3b44-47be-b890-660aee0e4c77"},"vehicle_type_id":"4","last_reported":1746007879,"current_range_meters":8400,"station_id":"ce4bgj92rcd13ifvqbd0","pricing_plan_id":"cebpf4jnsgd1na2vs0mg"},{"bike_id":"bd1dd49d-01c4-49ad-8ddc-144c7b7b4744","system_id":"levelo_inurba_marseille","lat":43.3247,"lon":5.36593,"is_reserved":false,"is_disabled":false,"rental_uris":{"android":"levelo://app?vid=bd1dd49d-01c4-49ad-8ddc-144c7b7b4744","ios":"levelo://app?vid=bd1dd49d-01c4-49ad-8ddc-144c7b7b4744"},"vehicle_type_id":"4","last_reported":1746007879,"current_range_meters":8400,"station_id":"ce4bhs12rcd13ifvqhvg","pricing_plan_id":"cebpf4jnsgd1na2vs0mg"},{"bike_id":"91c533d0-e52e-4d85-bf53-16e672a56984","system_id":"levelo_inurba_marseille","lat":43.30889,"lon":5.371827,"is_reserved":false,"is_disabled":true,"rental_uris":{"android":"levelo://app?vid=91c533d0-e52e-4d85-bf53-16e672a56984","ios":"levelo://app?vid=91c533d0-e52e-4d85-bf53-16e672a56984"},"vehicle_type_id":"4","last_reported":1746007879,"current_range_meters":8800,"station_id":"ce4bguh2rcd13ifvqckg","pricing_plan_id":"cebpf4jnsgd1na2vs0mg"},{"bike_id":"f7d434d6-c94a-44aa-85df-690d8ef2922e","system_id":"levelo_inurba_marseille","lat":43.324868,"lon":5.365712,"is_reserved":false,"is_disabled":false,"rental_uris":{"android":"levelo://app?vid=f7d434d6-c94a-44aa-85df-690d8ef2922e","ios":"levelo://app?vid=f7d434d6-c94a-44aa-85df-690d8ef2922e"},"vehicle_type_id":"4","last_reported":1746007879,"current_range_meters":8800,"station_id":"ce4bhs12rcd13ifvqhvg","pricing_plan_id":"cebpf4jnsgd1na2vs0mg"},{"bike_id":"89eab37f-a9ed-45c4-b830-f2255730261a","system_id":"levelo_inurba_marseille","lat":43.26215,"lon":5.3744,"is_reserved":false,"is_disabled":false,"rental_uris":{"android":"levelo://app?vid=89eab37f-a9ed-45c4-b830-f2255730261a","ios":"levelo://app?vid=89eab37f-a9ed-45c4-b830-f2255730261a"},"vehicle_type_id":"4","last_reported":1746007879,"current_range_meters":8800,"station_id":"ce4bhgp2rcd13ifvqfc0","pricing_plan_id":"cebpf4jnsgd1na2vs0mg"},{"bike_id":"fccf5617-bc5a-4bdf-84db-e17aa9f64749","system_id":"levelo_inurba_marseille","lat":43.23182,"lon":5.39981,"is_reserved":false,"is_disabled":false,"rental_uris":{"android":"levelo://app?vid=fccf5617-bc5a-4bdf-84db-e17aa9f64749","ios":"levelo://app?vid=fccf5617-bc5a-4bdf-84db-e17aa9f64749"},"vehicle_type_id":"4","last_reported":1746007879,"current_range_meters":8400,"station_id":"ce4bhn12rcd13ifvqgqg","pricing_plan_id":"cebpf4jnsgd1na2vs0mg"},{"bike_id":"39f4de50-baa7-4ac4-926f-42c1af572ea5","system_id":"levelo_inurba_marseille","lat":43.269086,"lon":5.403098,"is_reserved":false,"is_disabled":false,"rental_uris":{"android":"levelo://app?vid=39f4de50-baa7-4ac4-926f-42c1af572ea5","ios":"levelo://app?vid=39f4de50-baa7-4ac4-926f-42c1af572ea5"},"vehicle_type_id":"4","last_reported":1746007879,"current_range_meters":8800,"station_id":"ce4bhk92rcd13ifvqgc0","pricing_plan_id":"cebpf4jnsgd1na2vs0mg"},{"bike_id":"6461f39d-bb67-478e-8f03-c75ed0f387e0","system_id":"levelo_inurba_marseille","lat":43.266865,"lon":5.382691,"is_reserved":false,"is_disabled":false,"rental_uris":{"android":"levelo://app?vid=6461f39d-bb67-478e-8f03-c75ed0f387e0","ios":"levelo://app?vid=6461f39d-bb67-478e-8f03-c75ed0f387e0"},"vehicle_type_id":"4","last_reported":1746007879,"current_range_meters":9200,"station_id":"ce4bhg92rcd13ifvqf90","pricing_plan_id":"cebpf4jnsgd1na2vs0mg"},{"bike_id":"63d677dd-43a2-4f8a-86ae-1f86b907f8df","system_id":"levelo_inurba_marseille","lat":43.28358,"lon":5.38652,"is_reserved":false,"is_disabled":true,"rental_uris":{"android":"levelo://app?vid=63d677dd-43a2-4f8a-86ae-1f86b907f8df","ios":"levelo://app?vid=63d677dd-43a2-4f8a-86ae-1f86b907f8df"},"vehicle_type_id":"4","last_reported":1746007879,"current_range_meters":9200,"station_id":"ce4bh492rcd13ifvqdvg","pricing_plan_id":"cebpf4jnsgd1na2vs0mg"},{"bike_id":"876a36bd-14cd-45de-ad40-930bcb0f44ca","system_id":"levelo_inurba_marseille","lat":43.217427,"lon":5.346037,"is_reserved":false,"is_disabled":false,"rental_uris":{"android":"levelo://app?vid=876a36bd-14cd-45de-ad40-930bcb0f44ca","ios":"levelo://app?vid=876a36bd-14cd-45de-ad40-930bcb0f44ca"},"vehicle_type_id":"4","last_reported":1746007879,"current_range_meters":9200,"station_id":"st_cvj6r9ubvosntc0bgbag","pricing_plan_id":"cebpf4jnsgd1na2vs0mg"},{"bike_id":"24280d4b-bbd3-48b3-85dc-e59f38fb6e02","system_id":"levelo_inurba_marseille","lat":43.28266,"lon":5.3505,"is_reserved":false,"is_disabled":false,"rental_uris":{"android":"levelo://app?vid=24280d4b-bbd3-48b3-85dc-e59f38fb6e02","ios":"levelo://app?vid=24280d4b-bbd3-48b3-85dc-e59f38fb6e02"},"vehicle_type_id":"4","last_reported":1746007879,"current_range_meters":9200,"station_id":"ce4bhbp2rcd13ifvqerg","pricing_plan_id":"cebpf4jnsgd1na2vs0mg"},{"bike_id":"489415b8-9254-45c1-b00c-e7554d56755c","system_id":"levelo_inurba_marseille","lat":43.245178,"lon":5.412102,"is_reserved":false,"is_disabled":false,"rental_uris":{"android":"levelo://app?vid=489415b8-9254-45c1-b00c-e7554d56755c","ios":"levelo://app?vid=489415b8-9254-45c1-b00c-e7554d56755c"},"vehicle_type_id":"4","last_reported":1746007879,"current_range_meters":9600,"station_id":"","pricing_plan_id":"cebpf4jnsgd1na2vs0mg"},{"bike_id":"e97d9b64-f061-43b1-8a2a-702f4e067ae1","system_id":"levelo_inurba_marseille","lat":43.29003,"lon":5.35612,"is_reserved":false,"is_disabled":false,"rental_uris":{"android":"levelo://app?vid=e97d9b64-f061-43b1-8a2a-702f4e067ae1","ios":"levelo://app?vid=e97d9b64-f061-43b1-8a2a-702f4e067ae1"},"vehicle_type_id":"4","last_reported":1746007879,"current_range_meters":9600,"station_id":"ce4bhb92rcd13ifvqen0","pricing_plan_id":"cebpf4jnsgd1na2vs0mg"},{"bike_id":"312629db-7553-4f57-8655-a25196d01b88","system_id":"levelo_inurba_marseille","lat":43.3037,"lon":5.42488,"is_reserved":false,"is_disabled":false,"rental_uris":{"android":"levelo://app?vid=312629db-7553-4f57-8655-a25196d01b88","ios":"levelo://app?vid=312629db-7553-4f57-8655-a25196d01b88"},"vehicle_type_id":"4","last_reported":1746007879,"current_range_meters":9600,"station_id":"ce4bhoh2rcd13ifvqh6g","pricing_plan_id":"cebpf4jnsgd1na2vs0mg"},{"bike_id":"f5c9e254-60b8-4db0-a08d-3560436a0634","system_id":"levelo_inurba_marseille","lat":43.23058,"lon":5.35485,"is_reserved":false,"is_disabled":false,"rental_uris":{"android":"levelo://app?vid=f5c9e254-60b8-4db0-a08d-3560436a0634","ios":"levelo://app?vid=f5c9e254-60b8-4db0-a08d-3560436a0634"},"vehicle_type_id":"4","last_reported":1746007879,"current_range_meters":9600,"station_id":"cpo3342slgdg3j2ifvpg","pricing_plan_id":"cebpf4jnsgd1na2vs0mg"},{"bike_id":"2f7d1165-445a-4f88-b5df-6be22ab0673b","system_id":"levelo_inurba_marseille","lat":43.26066,"lon":5.39396,"is_reserved":false,"is_disabled":false,"rental_uris":{"android":"levelo://app?vid=2f7d1165-445a-4f88-b5df-6be22ab0673b","ios":"levelo://app?vid=2f7d1165-445a-4f88-b5df-6be22ab0673b"},"vehicle_type_id":"4","last_reported":1746007879,"current_range_meters":9600,"station_id":"ce4bhh92rcd13ifvqfj0","pricing_plan_id":"cebpf4jnsgd1na2vs0mg"},{"bike_id":"e2902587-386b-4039-9bd9-b12f418ef69d","system_id":"levelo_inurba_marseille","lat":43.25494,"lon":5.37648,"is_reserved":false,"is_disabled":false,"rental_uris":{"android":"levelo://app?vid=e2902587-386b-4039-9bd9-b12f418ef69d","ios":"levelo://app?vid=e2902587-386b-4039-9bd9-b12f418ef69d"},"vehicle_type_id":"4","last_reported":1746007879,"current_range_meters":9600,"station_id":"ce4bhh12rcd13ifvqff0","pricing_plan_id":"cebpf4jnsgd1na2vs0mg"},{"bike_id":"ddf42e2f-5ba3-456f-b6b9-71a4fb220f7c","system_id":"levelo_inurba_marseille","lat":43.217554,"lon":5.34605,"is_reserved":false,"is_disabled":false,"rental_uris":{"android":"levelo://app?vid=ddf42e2f-5ba3-456f-b6b9-71a4fb220f7c","ios":"levelo://app?vid=ddf42e2f-5ba3-456f-b6b9-71a4fb220f7c"},"vehicle_type_id":"4","last_reported":1746007879,"current_range_meters":10000,"station_id":"st_cvj6r9ubvosntc0bgbag","pricing_plan_id":"cebpf4jnsgd1na2vs0mg"},{"bike_id":"dc82108c-9525-48bf-8a2c-9aab4803c159","system_id":"levelo_inurba_marseille","lat":43.30547,"lon":5.36593,"is_reserved":false,"is_disabled":false,"rental_uris":{"android":"levelo://app?vid=dc82108c-9525-48bf-8a2c-9aab4803c159","ios":"levelo://app?vid=dc82108c-9525-48bf-8a2c-9aab4803c159"},"vehicle_type_id":"4","last_reported":1746007879,"current_range_meters":10000,"station_id":"ce4bgs12rcd13ifvqcag","pricing_plan_id":"cebpf4jnsgd1na2vs0mg"},{"bike_id":"1b4cbc1d-a4f3-4f6c-98d1-60c40b27c3d0","system_id":"levelo_inurba_marseille","lat":43.29855,"lon":5.36239,"is_reserved":false,"is_disabled":false,"rental_uris":{"android":"levelo://app?vid=1b4cbc1d-a4f3-4f6c-98d1-60c40b27c3d0","ios":"levelo://app?vid=1b4cbc1d-a4f3-4f6c-98d1-60c40b27c3d0"},"vehicle_type_id":"4","last_reported":1746007879,"current_range_meters":10000,"station_id":"ce4bgpp2rcd13ifvqc3g","pricing_plan_id":"cebpf4jnsgd1na2vs0mg"},{"bike_id":"07edfd45-c3fa-4b57-b865-cf1bf9963264","system_id":"levelo_inurba_marseille","lat":43.2339,"lon":5.36406,"is_reserved":false,"is_disabled":false,"rental_uris":{"android":"levelo://app?vid=07edfd45-c3fa-4b57-b865-cf1bf9963264","ios":"levelo://app?vid=07edfd45-c3fa-4b57-b865-cf1bf9963264"},"vehicle_type_id":"4","last_reported":1746007879,"current_range_meters":10000,"station_id":"","pricing_plan_id":"cebpf4jnsgd1na2vs0mg"},{"bike_id":"138dd43a-6054-42b6-96b2-d6add3ad58f8","system_id":"levelo_inurba_marseille","lat":43.28566,"lon":5.39485,"is_reserved":false,"is_disabled":false,"rental_uris":{"android":"levelo://app?vid=138dd43a-6054-42b6-96b2-d6add3ad58f8","ios":"levelo://app?vid=138dd43a-6054-42b6-96b2-d6add3ad58f8"},"vehicle_type_id":"4","last_reported":1746007879,"current_range_meters":10000,"station_id":"ce4bh292rcd13ifvqdg0","pricing_plan_id":"cebpf4jnsgd1na2vs0mg"},{"bike_id":"3a9bd96a-1d84-454e-b55b-a4ef583e3749","system_id":"levelo_inurba_marseille","lat":43.26687,"lon":5.38259,"is_reserved":false,"is_disabled":false,"rental_uris":{"android":"levelo://app?vid=3a9bd96a-1d84-454e-b55b-a4ef583e3749","ios":"levelo://app?vid=3a9bd96a-1d84-454e-b55b-a4ef583e3749"},"vehicle_type_id":"4","last_reported":1746007879,"current_range_meters":10000,"station_id":"ce4bhg92rcd13ifvqf90","pricing_plan_id":"cebpf4jnsgd1na2vs0mg"},{"bike_id":"db7bb269-a1a6-4fbc-8f74-cbd29fc2931b","system_id":"levelo_inurba_marseille","lat":43.2315,"lon":5.43714,"is_reserved":false,"is_disabled":false,"rental_uris":{"android":"levelo://app?vid=db7bb269-a1a6-4fbc-8f74-cbd29fc2931b","ios":"levelo://app?vid=db7bb269-a1a6-4fbc-8f74-cbd29fc2931b"},"vehicle_type_id":"4","last_reported":1746007879,"current_range_meters":10800,"station_id":"ce4bhmp2rcd13ifvqgog","pricing_plan_id":"cebpf4jnsgd1na2vs0mg"},{"bike_id":"88b0b6f4-0e35-42ec-8997-e5a00e3a6add","system_id":"levelo_inurba_marseille","lat":43.31268,"lon":5.40177,"is_reserved":false,"is_disabled":false,"rental_uris":{"android":"levelo://app?vid=88b0b6f4-0e35-42ec-8997-e5a00e3a6add","ios":"levelo://app?vid=88b0b6f4-0e35-42ec-8997-e5a00e3a6add"},"vehicle_type_id":"4","last_reported":1746007879,"current_range_meters":10800,"station_id":"ce4bh092rcd13ifvqd30","pricing_plan_id":"cebpf4jnsgd1na2vs0mg"},{"bike_id":"1f0434db-0ec0-4ac6-a593-74ce77d1d6d2","system_id":"levelo_inurba_marseille","lat":43.2315,"lon":5.43717,"is_reserved":false,"is_disabled":false,"rental_uris":{"android":"levelo://app?vid=1f0434db-0ec0-4ac6-a593-74ce77d1d6d2","ios":"levelo://app?vid=1f0434db-0ec0-4ac6-a593-74ce77d1d6d2"},"vehicle_type_id":"4","last_reported":1746007879,"current_range_meters":11200,"station_id":"ce4bhmp2rcd13ifvqgog","pricing_plan_id":"cebpf4jnsgd1na2vs0mg"},{"bike_id":"ac80e985-cfdf-4940-bf6d-bf2ebe2c2fd0","system_id":"levelo_inurba_marseille","lat":43.32124,"lon":5.36745,"is_reserved":false,"is_disabled":false,"rental_uris":{"android":"levelo://app?vid=ac80e985-cfdf-4940-bf6d-bf2ebe2c2fd0","ios":"levelo://app?vid=ac80e985-cfdf-4940-bf6d-bf2ebe2c2fd0"},"vehicle_type_id":"4","last_reported":1746007879,"current_range_meters":11200,"station_id":"ce4bhrh2rcd13ifvqhug","pricing_plan_id":"cebpf4jnsgd1na2vs0mg"},{"bike_id":"dcb0b990-89f9-495c-a9c1-10b17ae39667","system_id":"levelo_inurba_marseille","lat":43.23461,"lon":5.38043,"is_reserved":false,"is_disabled":false,"rental_uris":{"android":"levelo://app?vid=dcb0b990-89f9-495c-a9c1-10b17ae39667","ios":"levelo://app?vid=dcb0b990-89f9-495c-a9c1-10b17ae39667"},"vehicle_type_id":"4","last_reported":1746007879,"current_range_meters":11200,"station_id":"","pricing_plan_id":"cebpf4jnsgd1na2vs0mg"},{"bike_id":"f9d5357e-c88e-4fa9-8875-7fc2e3cfddd9","system_id":"levelo_inurba_marseille","lat":43.24662,"lon":5.3816,"is_reserved":false,"is_disabled":false,"rental_uris":{"android":"levelo://app?vid=f9d5357e-c88e-4fa9-8875-7fc2e3cfddd9","ios":"levelo://app?vid=f9d5357e-c88e-4fa9-8875-7fc2e3cfddd9"},"vehicle_type_id":"4","last_reported":1746007879,"current_range_meters":8000,"station_id":"ce4bhih2rcd13ifvqfr0","pricing_plan_id":"cebpf4jnsgd1na2vs0mg"},{"bike_id":"20e55f6b-97df-4450-a344-6088e41e8a6c","system_id":"levelo_inurba_marseille","lat":43.25484,"lon":5.37657,"is_reserved":false,"is_disabled":true,"rental_uris":{"android":"levelo://app?vid=20e55f6b-97df-4450-a344-6088e41e8a6c","ios":"levelo://app?vid=20e55f6b-97df-4450-a344-6088e41e8a6c"},"vehicle_type_id":"4","last_reported":1746007879,"current_range_meters":11200,"station_id":"ce4bhh12rcd13ifvqff0","pricing_plan_id":"cebpf4jnsgd1na2vs0mg"},{"bike_id":"d8c1922d-927b-4259-90a6-7a0eeb093549","system_id":"levelo_inurba_marseille","lat":43.30305,"lon":5.36885,"is_reserved":false,"is_disabled":false,"rental_uris":{"android":"levelo://app?vid=d8c1922d-927b-4259-90a6-7a0eeb093549","ios":"levelo://app?vid=d8c1922d-927b-4259-90a6-7a0eeb093549"},"vehicle_type_id":"4","last_reported":1746007879,"current_range_meters":11600,"station_id":"ce4bgqh2rcd13ifvqc5g","pricing_plan_id":"cebpf4jnsgd1na2vs0mg"},{"bike_id":"7ecbd2ab-6bbc-48e9-8c0d-e85af966493b","system_id":"levelo_inurba_marseille","lat":43.30551,"lon":5.36702,"is_reserved":false,"is_disabled":false,"rental_uris":{"android":"levelo://app?vid=7ecbd2ab-6bbc-48e9-8c0d-e85af966493b","ios":"levelo://app?vid=7ecbd2ab-6bbc-48e9-8c0d-e85af966493b"},"vehicle_type_id":"4","last_reported":1746007879,"current_range_meters":11600,"station_id":"ce4bgrp2rcd13ifvqc9g","pricing_plan_id":"cebpf4jnsgd1na2vs0mg"},{"bike_id":"d13cb05a-1f4d-47eb-abcc-8d669390e4ac","system_id":"levelo_inurba_marseille","lat":43.30318,"lon":5.36891,"is_reserved":false,"is_disabled":false,"rental_uris":{"android":"levelo://app?vid=d13cb05a-1f4d-47eb-abcc-8d669390e4ac","ios":"levelo://app?vid=d13cb05a-1f4d-47eb-abcc-8d669390e4ac"},"vehicle_type_id":"4","last_reported":1746007879,"current_range_meters":11600,"station_id":"ce4bgqh2rcd13ifvqc5g","pricing_plan_id":"cebpf4jnsgd1na2vs0mg"},{"bike_id":"6c31a182-f628-481e-ad9a-d00c89637ddc","system_id":"levelo_inurba_marseille","lat":43.24995,"lon":5.3893,"is_reserved":false,"is_disabled":false,"rental_uris":{"android":"levelo://app?vid=6c31a182-f628-481e-ad9a-d00c89637ddc","ios":"levelo://app?vid=6c31a182-f628-481e-ad9a-d00c89637ddc"},"vehicle_type_id":"4","last_reported":1746007879,"current_range_meters":12000,"station_id":"ce4bhgp2rcd13ifvqfd0","pricing_plan_id":"cebpf4jnsgd1na2vs0mg"},{"bike_id":"dfac82c1-8788-431f-9e43-2fd18839552e","system_id":"levelo_inurba_marseille","lat":43.26676,"lon":5.38289,"is_reserved":false,"is_disabled":true,"rental_uris":{"android":"levelo://app?vid=dfac82c1-8788-431f-9e43-2fd18839552e","ios":"levelo://app?vid=dfac82c1-8788-431f-9e43-2fd18839552e"},"vehicle_type_id":"4","last_reported":1746007879,"current_range_meters":12400,"station_id":"ce4bhg92rcd13ifvqf90","pricing_plan_id":"cebpf4jnsgd1na2vs0mg"},{"bike_id":"19acb097-7cf6-4f58-a387-a1a11f89a37e","system_id":"levelo_inurba_marseille","lat":43.23158,"lon":5.43701,"is_reserved":false,"is_disabled":false,"rental_uris":{"android":"levelo://app?vid=19acb097-7cf6-4f58-a387-a1a11f89a37e","ios":"levelo://app?vid=19acb097-7cf6-4f58-a387-a1a11f89a37e"},"vehicle_type_id":"4","last_reported":1746007879,"current_range_meters":12000,"station_id":"ce4bhmp2rcd13ifvqgog","pricing_plan_id":"cebpf4jnsgd1na2vs0mg"},{"bike_id":"6d226f7b-4b82-47c8-99c7-edaca84b272b","system_id":"levelo_inurba_marseille","lat":43.30908,"lon":5.3685,"is_reserved":false,"is_disabled":false,"rental_uris":{"android":"levelo://app?vid=6d226f7b-4b82-47c8-99c7-edaca84b272b","ios":"levelo://app?vid=6d226f7b-4b82-47c8-99c7-edaca84b272b"},"vehicle_type_id":"4","last_reported":1746007879,"current_range_meters":12800,"station_id":"ce4bgn92rcd13ifvqbvg","pricing_plan_id":"cebpf4jnsgd1na2vs0mg"},{"bike_id":"849063f7-4ebc-4305-9d63-61df395abe91","system_id":"levelo_inurba_marseille","lat":43.30554,"lon":5.36698,"is_reserved":false,"is_disabled":false,"rental_uris":{"android":"levelo://app?vid=849063f7-4ebc-4305-9d63-61df395abe91","ios":"levelo://app?vid=849063f7-4ebc-4305-9d63-61df395abe91"},"vehicle_type_id":"4","last_reported":1746007879,"current_range_meters":13600,"station_id":"ce4bgrp2rcd13ifvqc9g","pricing_plan_id":"cebpf4jnsgd1na2vs0mg"},{"bike_id":"e7f40ba9-78ec-4aad-8a26-4e17ad160ccf","system_id":"levelo_inurba_marseille","lat":43.30903,"lon":5.36843,"is_reserved":false,"is_disabled":false,"rental_uris":{"android":"levelo://app?vid=e7f40ba9-78ec-4aad-8a26-4e17ad160ccf","ios":"levelo://app?vid=e7f40ba9-78ec-4aad-8a26-4e17ad160ccf"},"vehicle_type_id":"4","last_reported":1746007879,"current_range_meters":12800,"station_id":"ce4bgn92rcd13ifvqbvg","pricing_plan_id":"cebpf4jnsgd1na2vs0mg"},{"bike_id":"e5e92a64-e709-4b1a-a9b1-cbffe85789ca","system_id":"levelo_inurba_marseille","lat":43.25542,"lon":5.38139,"is_reserved":false,"is_disabled":false,"rental_uris":{"android":"levelo://app?vid=e5e92a64-e709-4b1a-a9b1-cbffe85789ca","ios":"levelo://app?vid=e5e92a64-e709-4b1a-a9b1-cbffe85789ca"},"vehicle_type_id":"4","last_reported":1746007879,"current_range_meters":12800,"station_id":"","pricing_plan_id":"cebpf4jnsgd1na2vs0mg"},{"bike_id":"d52801fb-9f6c-451f-8a4f-c4ac0505f8e9","system_id":"levelo_inurba_marseille","lat":43.272093,"lon":5.390821,"is_reserved":false,"is_disabled":false,"rental_uris":{"android":"levelo://app?vid=d52801fb-9f6c-451f-8a4f-c4ac0505f8e9","ios":"levelo://app?vid=d52801fb-9f6c-451f-8a4f-c4ac0505f8e9"},"vehicle_type_id":"4","last_reported":1746007879,"current_range_meters":13600,"station_id":"","pricing_plan_id":"cebpf4jnsgd1na2vs0mg"},{"bike_id":"1967a044-cad7-49f2-9be5-61228107e201","system_id":"levelo_inurba_marseille","lat":43.27917,"lon":5.39575,"is_reserved":false,"is_disabled":false,"rental_uris":{"android":"levelo://app?vid=1967a044-cad7-49f2-9be5-61228107e201","ios":"levelo://app?vid=1967a044-cad7-49f2-9be5-61228107e201"},"vehicle_type_id":"4","last_reported":1746007879,"current_range_meters":13600,"station_id":"ce4bhf92rcd13ifvqf40","pricing_plan_id":"cebpf4jnsgd1na2vs0mg"},{"bike_id":"1f675daf-e2a2-4afe-8393-80cf2c3b8b30","system_id":"levelo_inurba_marseille","lat":43.25916,"lon":5.40894,"is_reserved":false,"is_disabled":false,"rental_uris":{"android":"levelo://app?vid=1f675daf-e2a2-4afe-8393-80cf2c3b8b30","ios":"levelo://app?vid=1f675daf-e2a2-4afe-8393-80cf2c3b8b30"},"vehicle_type_id":"4","last_reported":1746007879,"current_range_meters":13600,"station_id":"ce4bhm92rcd13ifvqglg","pricing_plan_id":"cebpf4jnsgd1na2vs0mg"},{"bike_id":"561a0a5e-632f-453a-845a-f027837c490b","system_id":"levelo_inurba_marseille","lat":43.27372,"lon":5.36254,"is_reserved":false,"is_disabled":false,"rental_uris":{"android":"levelo://app?vid=561a0a5e-632f-453a-845a-f027837c490b","ios":"levelo://app?vid=561a0a5e-632f-453a-845a-f027837c490b"},"vehicle_type_id":"4","last_reported":1746007879,"current_range_meters":13600,"station_id":"ce4bhbh2rcd13ifvqeo0","pricing_plan_id":"cebpf4jnsgd1na2vs0mg"},{"bike_id":"1ec295d3-ad10-4906-82af-c2b51c243122","system_id":"levelo_inurba_marseille","lat":43.32483,"lon":5.36591,"is_reserved":false,"is_disabled":false,"rental_uris":{"android":"levelo://app?vid=1ec295d3-ad10-4906-82af-c2b51c243122","ios":"levelo://app?vid=1ec295d3-ad10-4906-82af-c2b51c243122"},"vehicle_type_id":"4","last_reported":1746007879,"current_range_meters":14000,"station_id":"ce4bhs12rcd13ifvqhvg","pricing_plan_id":"cebpf4jnsgd1na2vs0mg"},{"bike_id":"063bb67c-1d81-4a57-a4e1-7f44ebe258c8","system_id":"levelo_inurba_marseille","lat":43.29623,"lon":5.37169,"is_reserved":false,"is_disabled":false,"rental_uris":{"android":"levelo://app?vid=063bb67c-1d81-4a57-a4e1-7f44ebe258c8","ios":"levelo://app?vid=063bb67c-1d81-4a57-a4e1-7f44ebe258c8"},"vehicle_type_id":"4","last_reported":1746007879,"current_range_meters":14000,"station_id":"ce4bgnh2rcd13ifvqc0g","pricing_plan_id":"cebpf4jnsgd1na2vs0mg"},{"bike_id":"24670ca0-5003-47dc-97cb-a9d3eb92b206","system_id":"levelo_inurba_marseille","lat":43.30296,"lon":5.39219,"is_reserved":false,"is_disabled":false,"rental_uris":{"android":"levelo://app?vid=24670ca0-5003-47dc-97cb-a9d3eb92b206","ios":"levelo://app?vid=24670ca0-5003-47dc-97cb-a9d3eb92b206"},"vehicle_type_id":"4","last_reported":1746007879,"current_range_meters":13600,"station_id":"ce4bgkh2rcd13ifvqbk0","pricing_plan_id":"cebpf4jnsgd1na2vs0mg"},{"bike_id":"56973c62-c000-4091-9194-64142ba8c234","system_id":"levelo_inurba_marseille","lat":43.30545,"lon":5.36545,"is_reserved":false,"is_disabled":false,"rental_uris":{"android":"levelo://app?vid=56973c62-c000-4091-9194-64142ba8c234","ios":"levelo://app?vid=56973c62-c000-4091-9194-64142ba8c234"},"vehicle_type_id":"4","last_reported":1746007879,"current_range_meters":14000,"station_id":"ce4bgs12rcd13ifvqcag","pricing_plan_id":"cebpf4jnsgd1na2vs0mg"},{"bike_id":"fca9dc8b-9c20-4eab-83ff-17d0ce9a6922","system_id":"levelo_inurba_marseille","lat":43.260046,"lon":5.417499,"is_reserved":false,"is_disabled":false,"rental_uris":{"android":"levelo://app?vid=fca9dc8b-9c20-4eab-83ff-17d0ce9a6922","ios":"levelo://app?vid=fca9dc8b-9c20-4eab-83ff-17d0ce9a6922"},"vehicle_type_id":"4","last_reported":1746007879,"current_range_meters":14400,"station_id":"","pricing_plan_id":"cebpf4jnsgd1na2vs0mg"},{"bike_id":"d88f1c89-45c5-49a2-9923-ca805a5fb6a9","system_id":"levelo_inurba_marseille","lat":43.30534,"lon":5.36553,"is_reserved":false,"is_disabled":false,"rental_uris":{"android":"levelo://app?vid=d88f1c89-45c5-49a2-9923-ca805a5fb6a9","ios":"levelo://app?vid=d88f1c89-45c5-49a2-9923-ca805a5fb6a9"},"vehicle_type_id":"4","last_reported":1746007879,"current_range_meters":14400,"station_id":"ce4bgs12rcd13ifvqcag","pricing_plan_id":"cebpf4jnsgd1na2vs0mg"},{"bike_id":"a3ce50fa-ccb2-4870-abaf-217471d1b164","system_id":"levelo_inurba_marseille","lat":43.29304,"lon":5.37445,"is_reserved":false,"is_disabled":true,"rental_uris":{"android":"levelo://app?vid=a3ce50fa-ccb2-4870-abaf-217471d1b164","ios":"levelo://app?vid=a3ce50fa-ccb2-4870-abaf-217471d1b164"},"vehicle_type_id":"4","last_reported":1746007879,"current_range_meters":14400,"station_id":"ce4bgi12rcd13ifvqb70","pricing_plan_id":"cebpf4jnsgd1na2vs0mg"},{"bike_id":"975c2c85-84c1-406f-9664-223b777a5bab","system_id":"levelo_inurba_marseille","lat":43.24659,"lon":5.38161,"is_reserved":false,"is_disabled":false,"rental_uris":{"android":"levelo://app?vid=975c2c85-84c1-406f-9664-223b777a5bab","ios":"levelo://app?vid=975c2c85-84c1-406f-9664-223b777a5bab"},"vehicle_type_id":"4","last_reported":1746007879,"current_range_meters":14400,"station_id":"ce4bhih2rcd13ifvqfr0","pricing_plan_id":"cebpf4jnsgd1na2vs0mg"},{"bike_id":"2cbe2fab-72a1-4bcd-8c44-98069ca26f60","system_id":"levelo_inurba_marseille","lat":43.309048,"lon":5.368492,"is_reserved":false,"is_disabled":false,"rental_uris":{"android":"levelo://app?vid=2cbe2fab-72a1-4bcd-8c44-98069ca26f60","ios":"levelo://app?vid=2cbe2fab-72a1-4bcd-8c44-98069ca26f60"},"vehicle_type_id":"4","last_reported":1746007879,"current_range_meters":14400,"station_id":"ce4bgn92rcd13ifvqbvg","pricing_plan_id":"cebpf4jnsgd1na2vs0mg"},{"bike_id":"4fda502e-8180-4eb2-97e5-6521d9824005","system_id":"levelo_inurba_marseille","lat":43.30508,"lon":5.38074,"is_reserved":false,"is_disabled":false,"rental_uris":{"android":"levelo://app?vid=4fda502e-8180-4eb2-97e5-6521d9824005","ios":"levelo://app?vid=4fda502e-8180-4eb2-97e5-6521d9824005"},"vehicle_type_id":"4","last_reported":1746007879,"current_range_meters":14800,"station_id":"","pricing_plan_id":"cebpf4jnsgd1na2vs0mg"},{"bike_id":"c1cbc237-cfab-474a-aa26-81a87506105a","system_id":"levelo_inurba_marseille","lat":43.21765,"lon":5.34597,"is_reserved":false,"is_disabled":false,"rental_uris":{"android":"levelo://app?vid=c1cbc237-cfab-474a-aa26-81a87506105a","ios":"levelo://app?vid=c1cbc237-cfab-474a-aa26-81a87506105a"},"vehicle_type_id":"4","last_reported":1746007879,"current_range_meters":14800,"station_id":"st_cvj6r9ubvosntc0bgbag","pricing_plan_id":"cebpf4jnsgd1na2vs0mg"},{"bike_id":"4aa59764-f634-4fc6-9a0d-99d72be43058","system_id":"levelo_inurba_marseille","lat":43.30636,"lon":5.40091,"is_reserved":false,"is_disabled":false,"rental_uris":{"android":"levelo://app?vid=4aa59764-f634-4fc6-9a0d-99d72be43058","ios":"levelo://app?vid=4aa59764-f634-4fc6-9a0d-99d72be43058"},"vehicle_type_id":"4","last_reported":1746007879,"current_range_meters":14800,"station_id":"ce4bh112rcd13ifvqda0","pricing_plan_id":"cebpf4jnsgd1na2vs0mg"},{"bike_id":"63ffea2d-5bec-4284-b7cd-2f13adf4713c","system_id":"levelo_inurba_marseille","lat":43.26213,"lon":5.37439,"is_reserved":false,"is_disabled":false,"rental_uris":{"android":"levelo://app?vid=63ffea2d-5bec-4284-b7cd-2f13adf4713c","ios":"levelo://app?vid=63ffea2d-5bec-4284-b7cd-2f13adf4713c"},"vehicle_type_id":"4","last_reported":1746007879,"current_range_meters":15200,"station_id":"ce4bhgp2rcd13ifvqfc0","pricing_plan_id":"cebpf4jnsgd1na2vs0mg"},{"bike_id":"5c12217c-8c3d-441e-8537-7986429d82b3","system_id":"levelo_inurba_marseille","lat":43.27174,"lon":5.40992,"is_reserved":false,"is_disabled":false,"rental_uris":{"android":"levelo://app?vid=5c12217c-8c3d-441e-8537-7986429d82b3","ios":"levelo://app?vid=5c12217c-8c3d-441e-8537-7986429d82b3"},"vehicle_type_id":"4","last_reported":1746007879,"current_range_meters":16000,"station_id":"ce4bhl12rcd13ifvqgf0","pricing_plan_id":"cebpf4jnsgd1na2vs0mg"},{"bike_id":"c8ceb8e9-785b-4de9-9930-3fbc66d30b00","system_id":"levelo_inurba_marseille","lat":43.217504,"lon":5.345966,"is_reserved":false,"is_disabled":true,"rental_uris":{"android":"levelo://app?vid=c8ceb8e9-785b-4de9-9930-3fbc66d30b00","ios":"levelo://app?vid=c8ceb8e9-785b-4de9-9930-3fbc66d30b00"},"vehicle_type_id":"4","last_reported":1746007879,"current_range_meters":16000,"station_id":"st_cvj6r9ubvosntc0bgbag","pricing_plan_id":"cebpf4jnsgd1na2vs0mg"},{"bike_id":"258fdb78-ac6b-4b07-89b7-8eaddeb52494","system_id":"levelo_inurba_marseille","lat":43.28354,"lon":5.38098,"is_reserved":false,"is_disabled":false,"rental_uris":{"android":"levelo://app?vid=258fdb78-ac6b-4b07-89b7-8eaddeb52494","ios":"levelo://app?vid=258fdb78-ac6b-4b07-89b7-8eaddeb52494"},"vehicle_type_id":"4","last_reported":1746007879,"current_range_meters":15200,"station_id":"ce4bh412rcd13ifvqdr0","pricing_plan_id":"cebpf4jnsgd1na2vs0mg"},{"bike_id":"d29e6a81-a68a-4a47-af77-f84e3c6634f4","system_id":"levelo_inurba_marseille","lat":43.29914,"lon":5.37461,"is_reserved":false,"is_disabled":false,"rental_uris":{"android":"levelo://app?vid=d29e6a81-a68a-4a47-af77-f84e3c6634f4","ios":"levelo://app?vid=d29e6a81-a68a-4a47-af77-f84e3c6634f4"},"vehicle_type_id":"4","last_reported":1746007879,"current_range_meters":15200,"station_id":"ce4bgjh2rcd13ifvqbg0","pricing_plan_id":"cebpf4jnsgd1na2vs0mg"},{"bike_id":"ab58ef01-9b59-4bb4-b47e-06cba4b8445e","system_id":"levelo_inurba_marseille","lat":43.292205,"lon":5.360488,"is_reserved":false,"is_disabled":false,"rental_uris":{"android":"levelo://app?vid=ab58ef01-9b59-4bb4-b47e-06cba4b8445e","ios":"levelo://app?vid=ab58ef01-9b59-4bb4-b47e-06cba4b8445e"},"vehicle_type_id":"4","last_reported":1746007879,"current_range_meters":16400,"station_id":"ce4bhbh2rcd13ifvqeqg","pricing_plan_id":"cebpf4jnsgd1na2vs0mg"},{"bike_id":"86c2979e-8cf6-48ed-bdb1-835ff11e3adc","system_id":"levelo_inurba_marseille","lat":43.2541,"lon":5.41842,"is_reserved":false,"is_disabled":false,"rental_uris":{"android":"levelo://app?vid=86c2979e-8cf6-48ed-bdb1-835ff11e3adc","ios":"levelo://app?vid=86c2979e-8cf6-48ed-bdb1-835ff11e3adc"},"vehicle_type_id":"4","last_reported":1746007879,"current_range_meters":16400,"station_id":"","pricing_plan_id":"cebpf4jnsgd1na2vs0mg"},{"bike_id":"947c2912-5c20-465a-a1b8-3a7c4ef26cd9","system_id":"levelo_inurba_marseille","lat":43.2465,"lon":5.3889,"is_reserved":false,"is_disabled":false,"rental_uris":{"android":"levelo://app?vid=947c2912-5c20-465a-a1b8-3a7c4ef26cd9","ios":"levelo://app?vid=947c2912-5c20-465a-a1b8-3a7c4ef26cd9"},"vehicle_type_id":"4","last_reported":1746007879,"current_range_meters":16400,"station_id":"ce4bhg12rcd13ifvqf60","pricing_plan_id":"cebpf4jnsgd1na2vs0mg"},{"bike_id":"f4932ddd-cca2-41b2-ad98-31ed97801ebe","system_id":"levelo_inurba_marseille","lat":43.2843,"lon":5.39191,"is_reserved":false,"is_disabled":false,"rental_uris":{"android":"levelo://app?vid=f4932ddd-cca2-41b2-ad98-31ed97801ebe","ios":"levelo://app?vid=f4932ddd-cca2-41b2-ad98-31ed97801ebe"},"vehicle_type_id":"4","last_reported":1746007879,"current_range_meters":16800,"station_id":"ce4bhoh2rcd13ifvqh5g","pricing_plan_id":"cebpf4jnsgd1na2vs0mg"},{"bike_id":"ab448c66-0c24-4ffe-8187-660121762169","system_id":"levelo_inurba_marseille","lat":43.25492,"lon":5.37648,"is_reserved":false,"is_disabled":false,"rental_uris":{"android":"levelo://app?vid=ab448c66-0c24-4ffe-8187-660121762169","ios":"levelo://app?vid=ab448c66-0c24-4ffe-8187-660121762169"},"vehicle_type_id":"4","last_reported":1746007879,"current_range_meters":16400,"station_id":"ce4bhh12rcd13ifvqff0","pricing_plan_id":"cebpf4jnsgd1na2vs0mg"},{"bike_id":"e8e3cfe9-e7e0-42e4-888e-2d9c3af04bac","system_id":"levelo_inurba_marseille","lat":43.27569,"lon":5.38426,"is_reserved":false,"is_disabled":false,"rental_uris":{"android":"levelo://app?vid=e8e3cfe9-e7e0-42e4-888e-2d9c3af04bac","ios":"levelo://app?vid=e8e3cfe9-e7e0-42e4-888e-2d9c3af04bac"},"vehicle_type_id":"4","last_reported":1746007879,"current_range_meters":16400,"station_id":"ce4bhh92rcd13ifvqfi0","pricing_plan_id":"cebpf4jnsgd1na2vs0mg"},{"bike_id":"cb30690c-05f4-4798-a6d2-868c44297059","system_id":"levelo_inurba_marseille","lat":43.295146,"lon":5.374432,"is_reserved":false,"is_disabled":false,"rental_uris":{"android":"levelo://app?vid=cb30690c-05f4-4798-a6d2-868c44297059","ios":"levelo://app?vid=cb30690c-05f4-4798-a6d2-868c44297059"},"vehicle_type_id":"4","last_reported":1746007879,"current_range_meters":17200,"station_id":"","pricing_plan_id":"cebpf4jnsgd1na2vs0mg"},{"bike_id":"526f71b5-5ddd-4e53-8f5a-4c575cbd5e92","system_id":"levelo_inurba_marseille","lat":43.30556,"lon":5.36522,"is_reserved":false,"is_disabled":false,"rental_uris":{"android":"levelo://app?vid=526f71b5-5ddd-4e53-8f5a-4c575cbd5e92","ios":"levelo://app?vid=526f71b5-5ddd-4e53-8f5a-4c575cbd5e92"},"vehicle_type_id":"4","last_reported":1746007879,"current_range_meters":17200,"station_id":"ce4bgs12rcd13ifvqcag","pricing_plan_id":"cebpf4jnsgd1na2vs0mg"},{"bike_id":"7be2feec-5e24-4e7e-b1e3-d0ca7d605bb5","system_id":"levelo_inurba_marseille","lat":43.27581,"lon":5.38424,"is_reserved":false,"is_disabled":false,"rental_uris":{"android":"levelo://app?vid=7be2feec-5e24-4e7e-b1e3-d0ca7d605bb5","ios":"levelo://app?vid=7be2feec-5e24-4e7e-b1e3-d0ca7d605bb5"},"vehicle_type_id":"4","last_reported":1746007879,"current_range_meters":17200,"station_id":"ce4bhh92rcd13ifvqfi0","pricing_plan_id":"cebpf4jnsgd1na2vs0mg"},{"bike_id":"7940bc1b-eaa7-4f49-a435-46dc9391f6a1","system_id":"levelo_inurba_marseille","lat":43.21205,"lon":5.35068,"is_reserved":false,"is_disabled":false,"rental_uris":{"android":"levelo://app?vid=7940bc1b-eaa7-4f49-a435-46dc9391f6a1","ios":"levelo://app?vid=7940bc1b-eaa7-4f49-a435-46dc9391f6a1"},"vehicle_type_id":"4","last_reported":1746007879,"current_range_meters":17200,"station_id":"st_cvj6sg6p6f1abm77japg","pricing_plan_id":"cebpf4jnsgd1na2vs0mg"},{"bike_id":"fab0db57-9c72-4c2a-91c9-7dd09e773f61","system_id":"levelo_inurba_marseille","lat":43.28941,"lon":5.39629,"is_reserved":false,"is_disabled":false,"rental_uris":{"android":"levelo://app?vid=fab0db57-9c72-4c2a-91c9-7dd09e773f61","ios":"levelo://app?vid=fab0db57-9c72-4c2a-91c9-7dd09e773f61"},"vehicle_type_id":"4","last_reported":1746007879,"current_range_meters":16800,"station_id":"ce4bh3h2rcd13ifvqdn0","pricing_plan_id":"cebpf4jnsgd1na2vs0mg"},{"bike_id":"e856709b-c322-4d32-970b-f865cf23ee78","system_id":"levelo_inurba_marseille","lat":43.2317,"lon":5.43697,"is_reserved":false,"is_disabled":false,"rental_uris":{"android":"levelo://app?vid=e856709b-c322-4d32-970b-f865cf23ee78","ios":"levelo://app?vid=e856709b-c322-4d32-970b-f865cf23ee78"},"vehicle_type_id":"4","last_reported":1746007879,"current_range_meters":16800,"station_id":"ce4bhmp2rcd13ifvqgog","pricing_plan_id":"cebpf4jnsgd1na2vs0mg"},{"bike_id":"53493dfa-2e8d-49fc-a446-0d5cbdcecb7f","system_id":"levelo_inurba_marseille","lat":43.30191,"lon":5.36612,"is_reserved":false,"is_disabled":true,"rental_uris":{"android":"levelo://app?vid=53493dfa-2e8d-49fc-a446-0d5cbdcecb7f","ios":"levelo://app?vid=53493dfa-2e8d-49fc-a446-0d5cbdcecb7f"},"vehicle_type_id":"4","last_reported":1746007879,"current_range_meters":17200,"station_id":"ce4bgrh2rcd13ifvqc8g","pricing_plan_id":"cebpf4jnsgd1na2vs0mg"},{"bike_id":"330ae0d8-2228-407b-80de-905ccac38fed","system_id":"levelo_inurba_marseille","lat":43.31582,"lon":5.37141,"is_reserved":false,"is_disabled":false,"rental_uris":{"android":"levelo://app?vid=330ae0d8-2228-407b-80de-905ccac38fed","ios":"levelo://app?vid=330ae0d8-2228-407b-80de-905ccac38fed"},"vehicle_type_id":"4","last_reported":1746007879,"current_range_meters":17600,"station_id":"ce4bgt12rcd13ifvqcd0","pricing_plan_id":"cebpf4jnsgd1na2vs0mg"},{"bike_id":"dc0f4ab9-c4b9-4616-bf36-5f4c14e2ea12","system_id":"levelo_inurba_marseille","lat":43.23152,"lon":5.43714,"is_reserved":false,"is_disabled":false,"rental_uris":{"android":"levelo://app?vid=dc0f4ab9-c4b9-4616-bf36-5f4c14e2ea12","ios":"levelo://app?vid=dc0f4ab9-c4b9-4616-bf36-5f4c14e2ea12"},"vehicle_type_id":"4","last_reported":1746007879,"current_range_meters":17200,"station_id":"ce4bhmp2rcd13ifvqgog","pricing_plan_id":"cebpf4jnsgd1na2vs0mg"},{"bike_id":"f30f6f4c-378c-461f-b191-ae6d7f6fd0eb","system_id":"levelo_inurba_marseille","lat":43.23188,"lon":5.39979,"is_reserved":false,"is_disabled":false,"rental_uris":{"android":"levelo://app?vid=f30f6f4c-378c-461f-b191-ae6d7f6fd0eb","ios":"levelo://app?vid=f30f6f4c-378c-461f-b191-ae6d7f6fd0eb"},"vehicle_type_id":"4","last_reported":1746007879,"current_range_meters":18000,"station_id":"ce4bhn12rcd13ifvqgqg","pricing_plan_id":"cebpf4jnsgd1na2vs0mg"},{"bike_id":"34b484ab-c0f1-4e55-b51a-e2bafdafb63e","system_id":"levelo_inurba_marseille","lat":43.23063,"lon":5.35493,"is_reserved":false,"is_disabled":false,"rental_uris":{"android":"levelo://app?vid=34b484ab-c0f1-4e55-b51a-e2bafdafb63e","ios":"levelo://app?vid=34b484ab-c0f1-4e55-b51a-e2bafdafb63e"},"vehicle_type_id":"4","last_reported":1746007879,"current_range_meters":17600,"station_id":"cpo3342slgdg3j2ifvpg","pricing_plan_id":"cebpf4jnsgd1na2vs0mg"},{"bike_id":"8819ed6f-fe85-47e0-be92-72d0bfd4628c","system_id":"levelo_inurba_marseille","lat":43.30091,"lon":5.39077,"is_reserved":false,"is_disabled":false,"rental_uris":{"android":"levelo://app?vid=8819ed6f-fe85-47e0-be92-72d0bfd4628c","ios":"levelo://app?vid=8819ed6f-fe85-47e0-be92-72d0bfd4628c"},"vehicle_type_id":"4","last_reported":1746007879,"current_range_meters":17600,"station_id":"ce4bh192rcd13ifvqdb0","pricing_plan_id":"cebpf4jnsgd1na2vs0mg"},{"bike_id":"6f22906b-94c9-4d7b-9ebc-9fe65ec0611d","system_id":"levelo_inurba_marseille","lat":43.321167,"lon":5.367782,"is_reserved":false,"is_disabled":false,"rental_uris":{"android":"levelo://app?vid=6f22906b-94c9-4d7b-9ebc-9fe65ec0611d","ios":"levelo://app?vid=6f22906b-94c9-4d7b-9ebc-9fe65ec0611d"},"vehicle_type_id":"4","last_reported":1746007879,"current_range_meters":18000,"station_id":"ce4bhrh2rcd13ifvqhug","pricing_plan_id":"cebpf4jnsgd1na2vs0mg"},{"bike_id":"1197ea5e-c1b7-4a74-88b7-06654a658162","system_id":"levelo_inurba_marseille","lat":43.28422,"lon":5.37522,"is_reserved":false,"is_disabled":true,"rental_uris":{"android":"levelo://app?vid=1197ea5e-c1b7-4a74-88b7-06654a658162","ios":"levelo://app?vid=1197ea5e-c1b7-4a74-88b7-06654a658162"},"vehicle_type_id":"4","last_reported":1746007879,"current_range_meters":18000,"station_id":"ce4bh412rcd13ifvqds0","pricing_plan_id":"cebpf4jnsgd1na2vs0mg"},{"bike_id":"6044dd1a-88b2-4997-a9f7-f55faba9dc9e","system_id":"levelo_inurba_marseille","lat":43.25926,"lon":5.40904,"is_reserved":false,"is_disabled":false,"rental_uris":{"android":"levelo://app?vid=6044dd1a-88b2-4997-a9f7-f55faba9dc9e","ios":"levelo://app?vid=6044dd1a-88b2-4997-a9f7-f55faba9dc9e"},"vehicle_type_id":"4","last_reported":1746007879,"current_range_meters":18000,"station_id":"ce4bhm92rcd13ifvqglg","pricing_plan_id":"cebpf4jnsgd1na2vs0mg"},{"bike_id":"4a8fed40-48a5-4593-91ea-cd6f17c7fd49","system_id":"levelo_inurba_marseille","lat":43.27053,"lon":5.40263,"is_reserved":false,"is_disabled":false,"rental_uris":{"android":"levelo://app?vid=4a8fed40-48a5-4593-91ea-cd6f17c7fd49","ios":"levelo://app?vid=4a8fed40-48a5-4593-91ea-cd6f17c7fd49"},"vehicle_type_id":"4","last_reported":1746007879,"current_range_meters":18000,"station_id":"ce4bhk92rcd13ifvqgc0","pricing_plan_id":"cebpf4jnsgd1na2vs0mg"},{"bike_id":"5c1e70a2-6969-45a8-bc92-c7e0d9f242b8","system_id":"levelo_inurba_marseille","lat":43.29008,"lon":5.35604,"is_reserved":false,"is_disabled":false,"rental_uris":{"android":"levelo://app?vid=5c1e70a2-6969-45a8-bc92-c7e0d9f242b8","ios":"levelo://app?vid=5c1e70a2-6969-45a8-bc92-c7e0d9f242b8"},"vehicle_type_id":"4","last_reported":1746007879,"current_range_meters":18000,"station_id":"ce4bhb92rcd13ifvqen0","pricing_plan_id":"cebpf4jnsgd1na2vs0mg"},{"bike_id":"dc1ed819-5907-4497-8368-8b16a59e64ca","system_id":"levelo_inurba_marseille","lat":43.31484,"lon":5.37306,"is_reserved":false,"is_disabled":false,"rental_uris":{"android":"levelo://app?vid=dc1ed819-5907-4497-8368-8b16a59e64ca","ios":"levelo://app?vid=dc1ed819-5907-4497-8368-8b16a59e64ca"},"vehicle_type_id":"4","last_reported":1746007879,"current_range_meters":18000,"station_id":"ce4bgt12rcd13ifvqcd0","pricing_plan_id":"cebpf4jnsgd1na2vs0mg"},{"bike_id":"b9be6535-3f09-4b9e-bcdb-e6bdecf5d06c","system_id":"levelo_inurba_marseille","lat":43.28151,"lon":5.42652,"is_reserved":false,"is_disabled":false,"rental_uris":{"android":"levelo://app?vid=b9be6535-3f09-4b9e-bcdb-e6bdecf5d06c","ios":"levelo://app?vid=b9be6535-3f09-4b9e-bcdb-e6bdecf5d06c"},"vehicle_type_id":"4","last_reported":1746007879,"current_range_meters":18000,"station_id":"ce4bhnh2rcd13ifvqgug","pricing_plan_id":"cebpf4jnsgd1na2vs0mg"},{"bike_id":"bf9dcd53-f450-40fe-8296-3b96d009f0c9","system_id":"levelo_inurba_marseille","lat":43.28404,"lon":5.349834,"is_reserved":false,"is_disabled":false,"rental_uris":{"android":"levelo://app?vid=bf9dcd53-f450-40fe-8296-3b96d009f0c9","ios":"levelo://app?vid=bf9dcd53-f450-40fe-8296-3b96d009f0c9"},"vehicle_type_id":"4","last_reported":1746007879,"current_range_meters":18800,"station_id":"","pricing_plan_id":"cebpf4jnsgd1na2vs0mg"},{"bike_id":"f4b73246-afac-4a27-884b-4e385d8fcdf4","system_id":"levelo_inurba_marseille","lat":43.25928,"lon":5.40908,"is_reserved":false,"is_disabled":false,"rental_uris":{"android":"levelo://app?vid=f4b73246-afac-4a27-884b-4e385d8fcdf4","ios":"levelo://app?vid=f4b73246-afac-4a27-884b-4e385d8fcdf4"},"vehicle_type_id":"4","last_reported":1746007879,"current_range_meters":18800,"station_id":"ce4bhm92rcd13ifvqglg","pricing_plan_id":"cebpf4jnsgd1na2vs0mg"},{"bike_id":"351a10a2-c0d7-448b-acc4-bc96e28dd10d","system_id":"levelo_inurba_marseille","lat":43.30882,"lon":5.36837,"is_reserved":false,"is_disabled":false,"rental_uris":{"android":"levelo://app?vid=351a10a2-c0d7-448b-acc4-bc96e28dd10d","ios":"levelo://app?vid=351a10a2-c0d7-448b-acc4-bc96e28dd10d"},"vehicle_type_id":"4","last_reported":1746007879,"current_range_meters":18800,"station_id":"ce4bgn92rcd13ifvqbvg","pricing_plan_id":"cebpf4jnsgd1na2vs0mg"},{"bike_id":"6d073f79-559a-4cfb-a73f-86f1c3851a40","system_id":"levelo_inurba_marseille","lat":43.29041,"lon":5.39958,"is_reserved":false,"is_disabled":false,"rental_uris":{"android":"levelo://app?vid=6d073f79-559a-4cfb-a73f-86f1c3851a40","ios":"levelo://app?vid=6d073f79-559a-4cfb-a73f-86f1c3851a40"},"vehicle_type_id":"4","last_reported":1746007879,"current_range_meters":18800,"station_id":"ce4bh392rcd13ifvqdm0","pricing_plan_id":"cebpf4jnsgd1na2vs0mg"},{"bike_id":"3ed5c2c4-e9d1-406a-8758-470ad1a743a6","system_id":"levelo_inurba_marseille","lat":43.30916,"lon":5.36844,"is_reserved":false,"is_disabled":false,"rental_uris":{"android":"levelo://app?vid=3ed5c2c4-e9d1-406a-8758-470ad1a743a6","ios":"levelo://app?vid=3ed5c2c4-e9d1-406a-8758-470ad1a743a6"},"vehicle_type_id":"4","last_reported":1746007879,"current_range_meters":18800,"station_id":"ce4bgn92rcd13ifvqbvg","pricing_plan_id":"cebpf4jnsgd1na2vs0mg"},{"bike_id":"88b0e47a-d43f-44bb-bd7e-80d8fc6d69de","system_id":"levelo_inurba_marseille","lat":43.28135,"lon":5.40136,"is_reserved":false,"is_disabled":false,"rental_uris":{"android":"levelo://app?vid=88b0e47a-d43f-44bb-bd7e-80d8fc6d69de","ios":"levelo://app?vid=88b0e47a-d43f-44bb-bd7e-80d8fc6d69de"},"vehicle_type_id":"4","last_reported":1746007879,"current_range_meters":19200,"station_id":"","pricing_plan_id":"cebpf4jnsgd1na2vs0mg"},{"bike_id":"e2c80642-735d-4de4-80df-d16f26aec9d5","system_id":"levelo_inurba_marseille","lat":43.24685,"lon":5.38146,"is_reserved":false,"is_disabled":false,"rental_uris":{"android":"levelo://app?vid=e2c80642-735d-4de4-80df-d16f26aec9d5","ios":"levelo://app?vid=e2c80642-735d-4de4-80df-d16f26aec9d5"},"vehicle_type_id":"4","last_reported":1746007879,"current_range_meters":19200,"station_id":"ce4bhih2rcd13ifvqfr0","pricing_plan_id":"cebpf4jnsgd1na2vs0mg"},{"bike_id":"95d13d6e-694f-465b-a34e-c43275b93788","system_id":"levelo_inurba_marseille","lat":43.29058,"lon":5.35913,"is_reserved":false,"is_disabled":false,"rental_uris":{"android":"levelo://app?vid=95d13d6e-694f-465b-a34e-c43275b93788","ios":"levelo://app?vid=95d13d6e-694f-465b-a34e-c43275b93788"},"vehicle_type_id":"4","last_reported":1746007879,"current_range_meters":19200,"station_id":"ce4bha92rcd13ifvqeg0","pricing_plan_id":"cebpf4jnsgd1na2vs0mg"},{"bike_id":"c5eb7279-1912-4ceb-8388-c6f3d6a5db54","system_id":"levelo_inurba_marseille","lat":43.255013,"lon":5.376337,"is_reserved":false,"is_disabled":false,"rental_uris":{"android":"levelo://app?vid=c5eb7279-1912-4ceb-8388-c6f3d6a5db54","ios":"levelo://app?vid=c5eb7279-1912-4ceb-8388-c6f3d6a5db54"},"vehicle_type_id":"4","last_reported":1746007879,"current_range_meters":18800,"station_id":"ce4bhh12rcd13ifvqff0","pricing_plan_id":"cebpf4jnsgd1na2vs0mg"},{"bike_id":"b526bd8f-c13d-445f-8e41-65de912470de","system_id":"levelo_inurba_marseille","lat":43.33732,"lon":5.39181,"is_reserved":false,"is_disabled":false,"rental_uris":{"android":"levelo://app?vid=b526bd8f-c13d-445f-8e41-65de912470de","ios":"levelo://app?vid=b526bd8f-c13d-445f-8e41-65de912470de"},"vehicle_type_id":"4","last_reported":1746007879,"current_range_meters":19200,"station_id":"ce4bhr92rcd13ifvqhsg","pricing_plan_id":"cebpf4jnsgd1na2vs0mg"},{"bike_id":"b58385b2-d1b2-4ecc-af75-eb7cf4772905","system_id":"levelo_inurba_marseille","lat":43.23076,"lon":5.35479,"is_reserved":false,"is_disabled":false,"rental_uris":{"android":"levelo://app?vid=b58385b2-d1b2-4ecc-af75-eb7cf4772905","ios":"levelo://app?vid=b58385b2-d1b2-4ecc-af75-eb7cf4772905"},"vehicle_type_id":"4","last_reported":1746007879,"current_range_meters":19200,"station_id":"cpo3342slgdg3j2ifvpg","pricing_plan_id":"cebpf4jnsgd1na2vs0mg"},{"bike_id":"0a5b25fa-2a04-452e-981a-fe8129fc3ad5","system_id":"levelo_inurba_marseille","lat":43.24997,"lon":5.38924,"is_reserved":false,"is_disabled":false,"rental_uris":{"android":"levelo://app?vid=0a5b25fa-2a04-452e-981a-fe8129fc3ad5","ios":"levelo://app?vid=0a5b25fa-2a04-452e-981a-fe8129fc3ad5"},"vehicle_type_id":"4","last_reported":1746007879,"current_range_meters":19200,"station_id":"ce4bhgp2rcd13ifvqfd0","pricing_plan_id":"cebpf4jnsgd1na2vs0mg"},{"bike_id":"a5013037-55ac-41d5-b9e4-24917180945c","system_id":"levelo_inurba_marseille","lat":43.33591,"lon":5.41009,"is_reserved":false,"is_disabled":false,"rental_uris":{"android":"levelo://app?vid=a5013037-55ac-41d5-b9e4-24917180945c","ios":"levelo://app?vid=a5013037-55ac-41d5-b9e4-24917180945c"},"vehicle_type_id":"4","last_reported":1746007879,"current_range_meters":19200,"station_id":"ce4bhqh2rcd13ifvqhmg","pricing_plan_id":"cebpf4jnsgd1na2vs0mg"},{"bike_id":"b6c15373-755b-4963-8761-7f957cb7aeeb","system_id":"levelo_inurba_marseille","lat":43.23965,"lon":5.36631,"is_reserved":false,"is_disabled":false,"rental_uris":{"android":"levelo://app?vid=b6c15373-755b-4963-8761-7f957cb7aeeb","ios":"levelo://app?vid=b6c15373-755b-4963-8761-7f957cb7aeeb"},"vehicle_type_id":"4","last_reported":1746007879,"current_range_meters":19600,"station_id":"ce4bhi12rcd13ifvqfp0","pricing_plan_id":"cebpf4jnsgd1na2vs0mg"},{"bike_id":"209aa2ea-683c-4b2e-8346-ef7063af4394","system_id":"levelo_inurba_marseille","lat":43.28107,"lon":5.37836,"is_reserved":false,"is_disabled":false,"rental_uris":{"android":"levelo://app?vid=209aa2ea-683c-4b2e-8346-ef7063af4394","ios":"levelo://app?vid=209aa2ea-683c-4b2e-8346-ef7063af4394"},"vehicle_type_id":"4","last_reported":1746007879,"current_range_meters":20000,"station_id":"ce4bha12rcd13ifvqee0","pricing_plan_id":"cebpf4jnsgd1na2vs0mg"},{"bike_id":"dd761f0b-a343-4069-8ed4-8566f51a6c87","system_id":"levelo_inurba_marseille","lat":43.267792,"lon":5.383597,"is_reserved":false,"is_disabled":true,"rental_uris":{"android":"levelo://app?vid=dd761f0b-a343-4069-8ed4-8566f51a6c87","ios":"levelo://app?vid=dd761f0b-a343-4069-8ed4-8566f51a6c87"},"vehicle_type_id":"4","last_reported":1746007879,"current_range_meters":20000,"station_id":"","pricing_plan_id":"cebpf4jnsgd1na2vs0mg"},{"bike_id":"f8d41507-2856-4a34-b4cb-e91b8a42f361","system_id":"levelo_inurba_marseille","lat":43.3054,"lon":5.36698,"is_reserved":false,"is_disabled":false,"rental_uris":{"android":"levelo://app?vid=f8d41507-2856-4a34-b4cb-e91b8a42f361","ios":"levelo://app?vid=f8d41507-2856-4a34-b4cb-e91b8a42f361"},"vehicle_type_id":"4","last_reported":1746007879,"current_range_meters":20000,"station_id":"ce4bgrp2rcd13ifvqc9g","pricing_plan_id":"cebpf4jnsgd1na2vs0mg"},{"bike_id":"67f6dada-f510-4b43-b7e3-336b7b5ead90","system_id":"levelo_inurba_marseille","lat":43.29575,"lon":5.37515,"is_reserved":false,"is_disabled":false,"rental_uris":{"android":"levelo://app?vid=67f6dada-f510-4b43-b7e3-336b7b5ead90","ios":"levelo://app?vid=67f6dada-f510-4b43-b7e3-336b7b5ead90"},"vehicle_type_id":"4","last_reported":1746007879,"current_range_meters":20000,"station_id":"ce4bgh92rcd13ifvqb50","pricing_plan_id":"cebpf4jnsgd1na2vs0mg"},{"bike_id":"fb8f5ab3-6254-4648-8532-b536beecb0cc","system_id":"levelo_inurba_marseille","lat":43.30877,"lon":5.36874,"is_reserved":false,"is_disabled":false,"rental_uris":{"android":"levelo://app?vid=fb8f5ab3-6254-4648-8532-b536beecb0cc","ios":"levelo://app?vid=fb8f5ab3-6254-4648-8532-b536beecb0cc"},"vehicle_type_id":"4","last_reported":1746007879,"current_range_meters":20000,"station_id":"ce4bgn92rcd13ifvqbvg","pricing_plan_id":"cebpf4jnsgd1na2vs0mg"},{"bike_id":"82d04439-d5eb-48c3-bf91-bf4d065dd10d","system_id":"levelo_inurba_marseille","lat":43.29607,"lon":5.37198,"is_reserved":false,"is_disabled":false,"rental_uris":{"android":"levelo://app?vid=82d04439-d5eb-48c3-bf91-bf4d065dd10d","ios":"levelo://app?vid=82d04439-d5eb-48c3-bf91-bf4d065dd10d"},"vehicle_type_id":"4","last_reported":1746007879,"current_range_meters":19600,"station_id":"ce4bgnh2rcd13ifvqc0g","pricing_plan_id":"cebpf4jnsgd1na2vs0mg"},{"bike_id":"be06ed16-ba61-4b86-89f6-734688611d73","system_id":"levelo_inurba_marseille","lat":43.26065,"lon":5.39392,"is_reserved":false,"is_disabled":false,"rental_uris":{"android":"levelo://app?vid=be06ed16-ba61-4b86-89f6-734688611d73","ios":"levelo://app?vid=be06ed16-ba61-4b86-89f6-734688611d73"},"vehicle_type_id":"4","last_reported":1746007879,"current_range_meters":20000,"station_id":"ce4bhh92rcd13ifvqfj0","pricing_plan_id":"cebpf4jnsgd1na2vs0mg"},{"bike_id":"cc72cace-c85b-480b-b8ff-980710dfe869","system_id":"levelo_inurba_marseille","lat":43.284,"lon":5.34979,"is_reserved":false,"is_disabled":false,"rental_uris":{"android":"levelo://app?vid=cc72cace-c85b-480b-b8ff-980710dfe869","ios":"levelo://app?vid=cc72cace-c85b-480b-b8ff-980710dfe869"},"vehicle_type_id":"4","last_reported":1746007879,"current_range_meters":20000,"station_id":"ce4bhbh2rcd13ifvqepg","pricing_plan_id":"cebpf4jnsgd1na2vs0mg"},{"bike_id":"6b014de0-1d20-4694-a92f-6ae438be1750","system_id":"levelo_inurba_marseille","lat":43.336014,"lon":5.410235,"is_reserved":false,"is_disabled":false,"rental_uris":{"android":"levelo://app?vid=6b014de0-1d20-4694-a92f-6ae438be1750","ios":"levelo://app?vid=6b014de0-1d20-4694-a92f-6ae438be1750"},"vehicle_type_id":"4","last_reported":1746007879,"current_range_meters":20000,"station_id":"ce4bhqh2rcd13ifvqhmg","pricing_plan_id":"cebpf4jnsgd1na2vs0mg"},{"bike_id":"278a114f-8bae-41cb-84b3-940273dd012d","system_id":"levelo_inurba_marseille","lat":43.23196,"lon":5.39975,"is_reserved":false,"is_disabled":false,"rental_uris":{"android":"levelo://app?vid=278a114f-8bae-41cb-84b3-940273dd012d","ios":"levelo://app?vid=278a114f-8bae-41cb-84b3-940273dd012d"},"vehicle_type_id":"4","last_reported":1746007879,"current_range_meters":20000,"station_id":"ce4bhn12rcd13ifvqgqg","pricing_plan_id":"cebpf4jnsgd1na2vs0mg"},{"bike_id":"2d90d92c-e010-4034-9c8a-92ec848e2a6f","system_id":"levelo_inurba_marseille","lat":43.30329,"lon":5.36905,"is_reserved":false,"is_disabled":false,"rental_uris":{"android":"levelo://app?vid=2d90d92c-e010-4034-9c8a-92ec848e2a6f","ios":"levelo://app?vid=2d90d92c-e010-4034-9c8a-92ec848e2a6f"},"vehicle_type_id":"4","last_reported":1746007879,"current_range_meters":20400,"station_id":"ce4bgqh2rcd13ifvqc5g","pricing_plan_id":"cebpf4jnsgd1na2vs0mg"},{"bike_id":"8cf3f66e-8242-4c29-8303-09d0ce2a3016","system_id":"levelo_inurba_marseille","lat":43.30175,"lon":5.36624,"is_reserved":false,"is_disabled":false,"rental_uris":{"android":"levelo://app?vid=8cf3f66e-8242-4c29-8303-09d0ce2a3016","ios":"levelo://app?vid=8cf3f66e-8242-4c29-8303-09d0ce2a3016"},"vehicle_type_id":"4","last_reported":1746007879,"current_range_meters":20000,"station_id":"ce4bgrh2rcd13ifvqc8g","pricing_plan_id":"cebpf4jnsgd1na2vs0mg"},{"bike_id":"3a1c6b65-5f0e-4cf0-b640-52fefa98b0b8","system_id":"levelo_inurba_marseille","lat":43.32042,"lon":5.41591,"is_reserved":false,"is_disabled":false,"rental_uris":{"android":"levelo://app?vid=3a1c6b65-5f0e-4cf0-b640-52fefa98b0b8","ios":"levelo://app?vid=3a1c6b65-5f0e-4cf0-b640-52fefa98b0b8"},"vehicle_type_id":"4","last_reported":1746007879,"current_range_meters":20400,"station_id":"ce4bhq92rcd13ifvqhkg","pricing_plan_id":"cebpf4jnsgd1na2vs0mg"},{"bike_id":"d5046189-0fb2-40d3-9ca2-25c5936499aa","system_id":"levelo_inurba_marseille","lat":43.28258,"lon":5.3506,"is_reserved":false,"is_disabled":false,"rental_uris":{"android":"levelo://app?vid=d5046189-0fb2-40d3-9ca2-25c5936499aa","ios":"levelo://app?vid=d5046189-0fb2-40d3-9ca2-25c5936499aa"},"vehicle_type_id":"4","last_reported":1746007879,"current_range_meters":20400,"station_id":"","pricing_plan_id":"cebpf4jnsgd1na2vs0mg"},{"bike_id":"b1035a8e-c3ea-4d3a-b7c6-874e0265cbe4","system_id":"levelo_inurba_marseille","lat":43.262051,"lon":5.379185,"is_reserved":false,"is_disabled":false,"rental_uris":{"android":"levelo://app?vid=b1035a8e-c3ea-4d3a-b7c6-874e0265cbe4","ios":"levelo://app?vid=b1035a8e-c3ea-4d3a-b7c6-874e0265cbe4"},"vehicle_type_id":"4","last_reported":1746007879,"current_range_meters":20800,"station_id":"ce4bhjp2rcd13ifvqg90","pricing_plan_id":"cebpf4jnsgd1na2vs0mg"},{"bike_id":"5b8df32b-6bd3-46c5-92f6-95932c59353e","system_id":"levelo_inurba_marseille","lat":43.32539,"lon":5.41435,"is_reserved":false,"is_disabled":false,"rental_uris":{"android":"levelo://app?vid=5b8df32b-6bd3-46c5-92f6-95932c59353e","ios":"levelo://app?vid=5b8df32b-6bd3-46c5-92f6-95932c59353e"},"vehicle_type_id":"4","last_reported":1746007879,"current_range_meters":22000,"station_id":"ce4bhq12rcd13ifvqhhg","pricing_plan_id":"cebpf4jnsgd1na2vs0mg"},{"bike_id":"78bd6b36-168d-41d2-bcce-932b973e2e8d","system_id":"levelo_inurba_marseille","lat":43.28116,"lon":5.37802,"is_reserved":false,"is_disabled":false,"rental_uris":{"android":"levelo://app?vid=78bd6b36-168d-41d2-bcce-932b973e2e8d","ios":"levelo://app?vid=78bd6b36-168d-41d2-bcce-932b973e2e8d"},"vehicle_type_id":"4","last_reported":1746007879,"current_range_meters":22000,"station_id":"ce4bha12rcd13ifvqee0","pricing_plan_id":"cebpf4jnsgd1na2vs0mg"},{"bike_id":"cdcb50a2-3beb-4586-94ea-c6962ac3cbe5","system_id":"levelo_inurba_marseille","lat":43.24171,"lon":5.39697,"is_reserved":false,"is_disabled":false,"rental_uris":{"android":"levelo://app?vid=cdcb50a2-3beb-4586-94ea-c6962ac3cbe5","ios":"levelo://app?vid=cdcb50a2-3beb-4586-94ea-c6962ac3cbe5"},"vehicle_type_id":"4","last_reported":1746007879,"current_range_meters":22000,"station_id":"ce4bhn12rcd13ifvqgpg","pricing_plan_id":"cebpf4jnsgd1na2vs0mg"},{"bike_id":"7e3fa23a-82e1-4380-a6a6-76598f97094c","system_id":"levelo_inurba_marseille","lat":43.32117,"lon":5.36763,"is_reserved":false,"is_disabled":false,"rental_uris":{"android":"levelo://app?vid=7e3fa23a-82e1-4380-a6a6-76598f97094c","ios":"levelo://app?vid=7e3fa23a-82e1-4380-a6a6-76598f97094c"},"vehicle_type_id":"4","last_reported":1746007879,"current_range_meters":22000,"station_id":"ce4bhrh2rcd13ifvqhug","pricing_plan_id":"cebpf4jnsgd1na2vs0mg"},{"bike_id":"48fe0a61-16d8-4c4d-8014-6583682528ed","system_id":"levelo_inurba_marseille","lat":43.21756,"lon":5.34605,"is_reserved":false,"is_disabled":true,"rental_uris":{"android":"levelo://app?vid=48fe0a61-16d8-4c4d-8014-6583682528ed","ios":"levelo://app?vid=48fe0a61-16d8-4c4d-8014-6583682528ed"},"vehicle_type_id":"4","last_reported":1746007879,"current_range_meters":22000,"station_id":"","pricing_plan_id":"cebpf4jnsgd1na2vs0mg"},{"bike_id":"cda1aa22-ba71-4322-a4e8-2a56029a1de1","system_id":"levelo_inurba_marseille","lat":43.29007,"lon":5.35614,"is_reserved":false,"is_disabled":false,"rental_uris":{"android":"levelo://app?vid=cda1aa22-ba71-4322-a4e8-2a56029a1de1","ios":"levelo://app?vid=cda1aa22-ba71-4322-a4e8-2a56029a1de1"},"vehicle_type_id":"4","last_reported":1746007879,"current_range_meters":22400,"station_id":"ce4bhb92rcd13ifvqen0","pricing_plan_id":"cebpf4jnsgd1na2vs0mg"},{"bike_id":"cde443bb-9a98-4dfc-a82f-cbb08d6f149e","system_id":"levelo_inurba_marseille","lat":43.2418,"lon":5.39709,"is_reserved":false,"is_disabled":false,"rental_uris":{"android":"levelo://app?vid=cde443bb-9a98-4dfc-a82f-cbb08d6f149e","ios":"levelo://app?vid=cde443bb-9a98-4dfc-a82f-cbb08d6f149e"},"vehicle_type_id":"4","last_reported":1746007879,"current_range_meters":22400,"station_id":"ce4bhn12rcd13ifvqgpg","pricing_plan_id":"cebpf4jnsgd1na2vs0mg"},{"bike_id":"fd72eeb7-3571-4d6b-bcac-3cff247b708e","system_id":"levelo_inurba_marseille","lat":43.29916,"lon":5.38143,"is_reserved":false,"is_disabled":false,"rental_uris":{"android":"levelo://app?vid=fd72eeb7-3571-4d6b-bcac-3cff247b708e","ios":"levelo://app?vid=fd72eeb7-3571-4d6b-bcac-3cff247b708e"},"vehicle_type_id":"4","last_reported":1746007879,"current_range_meters":22400,"station_id":"ce4bgj12rcd13ifvqbc0","pricing_plan_id":"cebpf4jnsgd1na2vs0mg"},{"bike_id":"d7ee6037-2b6c-4d9a-b419-67c436c25813","system_id":"levelo_inurba_marseille","lat":43.26803,"lon":5.40259,"is_reserved":false,"is_disabled":false,"rental_uris":{"android":"levelo://app?vid=d7ee6037-2b6c-4d9a-b419-67c436c25813","ios":"levelo://app?vid=d7ee6037-2b6c-4d9a-b419-67c436c25813"},"vehicle_type_id":"4","last_reported":1746007879,"current_range_meters":22800,"station_id":"ce501612rcd8frsf0b60","pricing_plan_id":"cebpf4jnsgd1na2vs0mg"},{"bike_id":"9a6d1a0d-0520-4c44-b0a9-74ddbe754418","system_id":"levelo_inurba_marseille","lat":43.25707,"lon":5.41079,"is_reserved":false,"is_disabled":false,"rental_uris":{"android":"levelo://app?vid=9a6d1a0d-0520-4c44-b0a9-74ddbe754418","ios":"levelo://app?vid=9a6d1a0d-0520-4c44-b0a9-74ddbe754418"},"vehicle_type_id":"4","last_reported":1746007879,"current_range_meters":22800,"station_id":"ce4bhkp2rcd13ifvqgd0","pricing_plan_id":"cebpf4jnsgd1na2vs0mg"},{"bike_id":"54c311b2-c100-4923-b435-bd110b92a460","system_id":"levelo_inurba_marseille","lat":43.292536,"lon":5.38323,"is_reserved":false,"is_disabled":false,"rental_uris":{"android":"levelo://app?vid=54c311b2-c100-4923-b435-bd110b92a460","ios":"levelo://app?vid=54c311b2-c100-4923-b435-bd110b92a460"},"vehicle_type_id":"4","last_reported":1746007879,"current_range_meters":22800,"station_id":"ce4bh692rcd13ifvqea0","pricing_plan_id":"cebpf4jnsgd1na2vs0mg"},{"bike_id":"06a8f51c-b305-4c74-b3e3-3b426a37ccee","system_id":"levelo_inurba_marseille","lat":43.29565,"lon":5.39581,"is_reserved":false,"is_disabled":false,"rental_uris":{"android":"levelo://app?vid=06a8f51c-b305-4c74-b3e3-3b426a37ccee","ios":"levelo://app?vid=06a8f51c-b305-4c74-b3e3-3b426a37ccee"},"vehicle_type_id":"4","last_reported":1746007879,"current_range_meters":22800,"station_id":"","pricing_plan_id":"cebpf4jnsgd1na2vs0mg"},{"bike_id":"2746aa77-72e9-41c0-813e-98e482bde9b3","system_id":"levelo_inurba_marseille","lat":43.29267,"lon":5.36838,"is_reserved":false,"is_disabled":false,"rental_uris":{"android":"levelo://app?vid=2746aa77-72e9-41c0-813e-98e482bde9b3","ios":"levelo://app?vid=2746aa77-72e9-41c0-813e-98e482bde9b3"},"vehicle_type_id":"4","last_reported":1746007879,"current_range_meters":22800,"station_id":"ce4bhbp2rcd13ifvqesg","pricing_plan_id":"cebpf4jnsgd1na2vs0mg"},{"bike_id":"47633e98-74fa-40a1-8a68-d2228e1b9232","system_id":"levelo_inurba_marseille","lat":43.29976,"lon":5.3717,"is_reserved":false,"is_disabled":false,"rental_uris":{"android":"levelo://app?vid=47633e98-74fa-40a1-8a68-d2228e1b9232","ios":"levelo://app?vid=47633e98-74fa-40a1-8a68-d2228e1b9232"},"vehicle_type_id":"4","last_reported":1746007879,"current_range_meters":22800,"station_id":"ce4bgr92rcd13ifvqc7g","pricing_plan_id":"cebpf4jnsgd1na2vs0mg"},{"bike_id":"6b53d5ad-3236-4567-a51d-adfd8754d7c4","system_id":"levelo_inurba_marseille","lat":43.25119,"lon":5.40311,"is_reserved":false,"is_disabled":false,"rental_uris":{"android":"levelo://app?vid=6b53d5ad-3236-4567-a51d-adfd8754d7c4","ios":"levelo://app?vid=6b53d5ad-3236-4567-a51d-adfd8754d7c4"},"vehicle_type_id":"4","last_reported":1746007879,"current_range_meters":22400,"station_id":"ce4bhlh2rcd13ifvqgig","pricing_plan_id":"cebpf4jnsgd1na2vs0mg"},{"bike_id":"eebe3d29-082a-4846-af93-100aa6fd91ba","system_id":"levelo_inurba_marseille","lat":43.285612,"lon":5.400619,"is_reserved":false,"is_disabled":false,"rental_uris":{"android":"levelo://app?vid=eebe3d29-082a-4846-af93-100aa6fd91ba","ios":"levelo://app?vid=eebe3d29-082a-4846-af93-100aa6fd91ba"},"vehicle_type_id":"4","last_reported":1746007879,"current_range_meters":22800,"station_id":"","pricing_plan_id":"cebpf4jnsgd1na2vs0mg"},{"bike_id":"6c162b32-382c-41d0-8513-457343a89371","system_id":"levelo_inurba_marseille","lat":43.293225,"lon":5.371144,"is_reserved":false,"is_disabled":false,"rental_uris":{"android":"levelo://app?vid=6c162b32-382c-41d0-8513-457343a89371","ios":"levelo://app?vid=6c162b32-382c-41d0-8513-457343a89371"},"vehicle_type_id":"4","last_reported":1746007879,"current_range_meters":22800,"station_id":"ce4bhbp2rcd13ifvqesg","pricing_plan_id":"cebpf4jnsgd1na2vs0mg"},{"bike_id":"0f9d8c77-b530-41ef-b7bf-e0cc3b40b91e","system_id":"levelo_inurba_marseille","lat":43.309104,"lon":5.368476,"is_reserved":false,"is_disabled":false,"rental_uris":{"android":"levelo://app?vid=0f9d8c77-b530-41ef-b7bf-e0cc3b40b91e","ios":"levelo://app?vid=0f9d8c77-b530-41ef-b7bf-e0cc3b40b91e"},"vehicle_type_id":"4","last_reported":1746007879,"current_range_meters":22800,"station_id":"ce4bgn92rcd13ifvqbvg","pricing_plan_id":"cebpf4jnsgd1na2vs0mg"},{"bike_id":"213c67aa-3d58-4db7-be65-06448c186e16","system_id":"levelo_inurba_marseille","lat":43.31353,"lon":5.3671,"is_reserved":false,"is_disabled":false,"rental_uris":{"android":"levelo://app?vid=213c67aa-3d58-4db7-be65-06448c186e16","ios":"levelo://app?vid=213c67aa-3d58-4db7-be65-06448c186e16"},"vehicle_type_id":"4","last_reported":1746007879,"current_range_meters":23200,"station_id":"ce4bgr92rcd13ifvqc6g","pricing_plan_id":"cebpf4jnsgd1na2vs0mg"},{"bike_id":"f1d6f623-dc7e-452d-93e8-bcb8756ed483","system_id":"levelo_inurba_marseille","lat":43.30622,"lon":5.3645,"is_reserved":false,"is_disabled":false,"rental_uris":{"android":"levelo://app?vid=f1d6f623-dc7e-452d-93e8-bcb8756ed483","ios":"levelo://app?vid=f1d6f623-dc7e-452d-93e8-bcb8756ed483"},"vehicle_type_id":"4","last_reported":1746007879,"current_range_meters":23200,"station_id":"","pricing_plan_id":"cebpf4jnsgd1na2vs0mg"},{"bike_id":"a4868d82-a137-4f94-abee-a14e93cf5e59","system_id":"levelo_inurba_marseille","lat":43.262,"lon":5.37923,"is_reserved":false,"is_disabled":false,"rental_uris":{"android":"levelo://app?vid=a4868d82-a137-4f94-abee-a14e93cf5e59","ios":"levelo://app?vid=a4868d82-a137-4f94-abee-a14e93cf5e59"},"vehicle_type_id":"4","last_reported":1746007879,"current_range_meters":23200,"station_id":"ce4bhjp2rcd13ifvqg90","pricing_plan_id":"cebpf4jnsgd1na2vs0mg"},{"bike_id":"8c99e473-816a-4da2-a507-eb8524b9f1ed","system_id":"levelo_inurba_marseille","lat":43.30903,"lon":5.36841,"is_reserved":false,"is_disabled":false,"rental_uris":{"android":"levelo://app?vid=8c99e473-816a-4da2-a507-eb8524b9f1ed","ios":"levelo://app?vid=8c99e473-816a-4da2-a507-eb8524b9f1ed"},"vehicle_type_id":"4","last_reported":1746007879,"current_range_meters":23200,"station_id":"ce4bgn92rcd13ifvqbvg","pricing_plan_id":"cebpf4jnsgd1na2vs0mg"},{"bike_id":"e2f878e6-2a07-46ad-9271-c0c2215faf97","system_id":"levelo_inurba_marseille","lat":43.26191,"lon":5.37445,"is_reserved":false,"is_disabled":false,"rental_uris":{"android":"levelo://app?vid=e2f878e6-2a07-46ad-9271-c0c2215faf97","ios":"levelo://app?vid=e2f878e6-2a07-46ad-9271-c0c2215faf97"},"vehicle_type_id":"4","last_reported":1746007879,"current_range_meters":24000,"station_id":"ce4bhgp2rcd13ifvqfc0","pricing_plan_id":"cebpf4jnsgd1na2vs0mg"},{"bike_id":"0c9ed2fc-fd06-4c36-a53b-988db87a737b","system_id":"levelo_inurba_marseille","lat":43.2594,"lon":5.40903,"is_reserved":false,"is_disabled":false,"rental_uris":{"android":"levelo://app?vid=0c9ed2fc-fd06-4c36-a53b-988db87a737b","ios":"levelo://app?vid=0c9ed2fc-fd06-4c36-a53b-988db87a737b"},"vehicle_type_id":"4","last_reported":1746007879,"current_range_meters":24000,"station_id":"ce4bhm92rcd13ifvqglg","pricing_plan_id":"cebpf4jnsgd1na2vs0mg"},{"bike_id":"ebbaa32d-09b7-401a-9e34-8bb7aa38b8cd","system_id":"levelo_inurba_marseille","lat":43.26057,"lon":5.39395,"is_reserved":false,"is_disabled":false,"rental_uris":{"android":"levelo://app?vid=ebbaa32d-09b7-401a-9e34-8bb7aa38b8cd","ios":"levelo://app?vid=ebbaa32d-09b7-401a-9e34-8bb7aa38b8cd"},"vehicle_type_id":"4","last_reported":1746007879,"current_range_meters":24000,"station_id":"ce4bhh92rcd13ifvqfj0","pricing_plan_id":"cebpf4jnsgd1na2vs0mg"},{"bike_id":"8918510d-adef-4348-a657-b8d319950526","system_id":"levelo_inurba_marseille","lat":43.24998,"lon":5.38949,"is_reserved":false,"is_disabled":false,"rental_uris":{"android":"levelo://app?vid=8918510d-adef-4348-a657-b8d319950526","ios":"levelo://app?vid=8918510d-adef-4348-a657-b8d319950526"},"vehicle_type_id":"4","last_reported":1746007879,"current_range_meters":24000,"station_id":"ce4bhgp2rcd13ifvqfd0","pricing_plan_id":"cebpf4jnsgd1na2vs0mg"},{"bike_id":"3aeb961f-88b6-47fd-986a-c7b2a855fefd","system_id":"levelo_inurba_marseille","lat":43.2307,"lon":5.35479,"is_reserved":false,"is_disabled":false,"rental_uris":{"android":"levelo://app?vid=3aeb961f-88b6-47fd-986a-c7b2a855fefd","ios":"levelo://app?vid=3aeb961f-88b6-47fd-986a-c7b2a855fefd"},"vehicle_type_id":"4","last_reported":1746007879,"current_range_meters":24000,"station_id":"cpo3342slgdg3j2ifvpg","pricing_plan_id":"cebpf4jnsgd1na2vs0mg"},{"bike_id":"205b2423-0463-4dc0-bc7c-9a674794c6f2","system_id":"levelo_inurba_marseille","lat":43.28149,"lon":5.42638,"is_reserved":false,"is_disabled":false,"rental_uris":{"android":"levelo://app?vid=205b2423-0463-4dc0-bc7c-9a674794c6f2","ios":"levelo://app?vid=205b2423-0463-4dc0-bc7c-9a674794c6f2"},"vehicle_type_id":"4","last_reported":1746007879,"current_range_meters":24000,"station_id":"ce4bhnh2rcd13ifvqgug","pricing_plan_id":"cebpf4jnsgd1na2vs0mg"},{"bike_id":"480126cf-a0b0-4781-b654-ff4b2a358c73","system_id":"levelo_inurba_marseille","lat":43.28419,"lon":5.3499,"is_reserved":false,"is_disabled":false,"rental_uris":{"android":"levelo://app?vid=480126cf-a0b0-4781-b654-ff4b2a358c73","ios":"levelo://app?vid=480126cf-a0b0-4781-b654-ff4b2a358c73"},"vehicle_type_id":"4","last_reported":1746007879,"current_range_meters":24000,"station_id":"ce4bhbh2rcd13ifvqepg","pricing_plan_id":"cebpf4jnsgd1na2vs0mg"},{"bike_id":"62d29488-f86b-4bab-8c38-0a516d55782c","system_id":"levelo_inurba_marseille","lat":43.2987,"lon":5.38918,"is_reserved":false,"is_disabled":true,"rental_uris":{"android":"levelo://app?vid=62d29488-f86b-4bab-8c38-0a516d55782c","ios":"levelo://app?vid=62d29488-f86b-4bab-8c38-0a516d55782c"},"vehicle_type_id":"4","last_reported":1746007879,"current_range_meters":24000,"station_id":"ce4bh392rcd13ifvqdl0","pricing_plan_id":"cebpf4jnsgd1na2vs0mg"},{"bike_id":"bed9f676-8fd2-46c6-8997-f61a2ab68616","system_id":"levelo_inurba_marseille","lat":43.29534,"lon":5.39024,"is_reserved":false,"is_disabled":false,"rental_uris":{"android":"levelo://app?vid=bed9f676-8fd2-46c6-8997-f61a2ab68616","ios":"levelo://app?vid=bed9f676-8fd2-46c6-8997-f61a2ab68616"},"vehicle_type_id":"4","last_reported":1746007879,"current_range_meters":24000,"station_id":"ce4bh3p2rcd13ifvqdp0","pricing_plan_id":"cebpf4jnsgd1na2vs0mg"},{"bike_id":"b0d0ff7e-fb74-4f4d-a383-b3a7e57681f3","system_id":"levelo_inurba_marseille","lat":43.31594,"lon":5.37151,"is_reserved":false,"is_disabled":true,"rental_uris":{"android":"levelo://app?vid=b0d0ff7e-fb74-4f4d-a383-b3a7e57681f3","ios":"levelo://app?vid=b0d0ff7e-fb74-4f4d-a383-b3a7e57681f3"},"vehicle_type_id":"4","last_reported":1746007879,"current_range_meters":24000,"station_id":"","pricing_plan_id":"cebpf4jnsgd1na2vs0mg"},{"bike_id":"ba22070c-a568-41bd-a200-85d767ba113a","system_id":"levelo_inurba_marseille","lat":43.299225,"lon":5.395451,"is_reserved":false,"is_disabled":false,"rental_uris":{"android":"levelo://app?vid=ba22070c-a568-41bd-a200-85d767ba113a","ios":"levelo://app?vid=ba22070c-a568-41bd-a200-85d767ba113a"},"vehicle_type_id":"4","last_reported":1746007879,"current_range_meters":24000,"station_id":"chh1huq6cuj3fo74tm60","pricing_plan_id":"cebpf4jnsgd1na2vs0mg"},{"bike_id":"431bdc0b-5d3e-4879-9733-8eaca70740a6","system_id":"levelo_inurba_marseille","lat":43.312114,"lon":5.379412,"is_reserved":false,"is_disabled":false,"rental_uris":{"android":"levelo://app?vid=431bdc0b-5d3e-4879-9733-8eaca70740a6","ios":"levelo://app?vid=431bdc0b-5d3e-4879-9733-8eaca70740a6"},"vehicle_type_id":"4","last_reported":1746007879,"current_range_meters":24000,"station_id":"ce4bhsp2rcd13ifvqi50","pricing_plan_id":"cebpf4jnsgd1na2vs0mg"},{"bike_id":"557de524-7984-4c6d-9e2f-79d38b21d155","system_id":"levelo_inurba_marseille","lat":43.26209,"lon":5.37444,"is_reserved":false,"is_disabled":false,"rental_uris":{"android":"levelo://app?vid=557de524-7984-4c6d-9e2f-79d38b21d155","ios":"levelo://app?vid=557de524-7984-4c6d-9e2f-79d38b21d155"},"vehicle_type_id":"4","last_reported":1746007879,"current_range_meters":24000,"station_id":"ce4bhgp2rcd13ifvqfc0","pricing_plan_id":"cebpf4jnsgd1na2vs0mg"},{"bike_id":"42b50581-d9ee-41ef-9490-79479d042721","system_id":"levelo_inurba_marseille","lat":43.3054,"lon":5.36512,"is_reserved":false,"is_disabled":false,"rental_uris":{"android":"levelo://app?vid=42b50581-d9ee-41ef-9490-79479d042721","ios":"levelo://app?vid=42b50581-d9ee-41ef-9490-79479d042721"},"vehicle_type_id":"4","last_reported":1746007879,"current_range_meters":24000,"station_id":"ce4bgs12rcd13ifvqcag","pricing_plan_id":"cebpf4jnsgd1na2vs0mg"},{"bike_id":"33716483-8b16-4b33-9d29-fdebd2b04381","system_id":"levelo_inurba_marseille","lat":43.32481,"lon":5.36568,"is_reserved":false,"is_disabled":false,"rental_uris":{"android":"levelo://app?vid=33716483-8b16-4b33-9d29-fdebd2b04381","ios":"levelo://app?vid=33716483-8b16-4b33-9d29-fdebd2b04381"},"vehicle_type_id":"4","last_reported":1746007879,"current_range_meters":24000,"station_id":"ce4bhs12rcd13ifvqhvg","pricing_plan_id":"cebpf4jnsgd1na2vs0mg"},{"bike_id":"c695bac2-0581-4a6a-b9c9-eb8e0d8673ed","system_id":"levelo_inurba_marseille","lat":43.33749,"lon":5.39153,"is_reserved":false,"is_disabled":false,"rental_uris":{"android":"levelo://app?vid=c695bac2-0581-4a6a-b9c9-eb8e0d8673ed","ios":"levelo://app?vid=c695bac2-0581-4a6a-b9c9-eb8e0d8673ed"},"vehicle_type_id":"4","last_reported":1746007879,"current_range_meters":24400,"station_id":"ce4bhr92rcd13ifvqhsg","pricing_plan_id":"cebpf4jnsgd1na2vs0mg"},{"bike_id":"d8a3cc1d-7866-4f0c-b523-294900b62a58","system_id":"levelo_inurba_marseille","lat":43.28098,"lon":5.37828,"is_reserved":false,"is_disabled":false,"rental_uris":{"android":"levelo://app?vid=d8a3cc1d-7866-4f0c-b523-294900b62a58","ios":"levelo://app?vid=d8a3cc1d-7866-4f0c-b523-294900b62a58"},"vehicle_type_id":"4","last_reported":1746007879,"current_range_meters":24400,"station_id":"ce4bha12rcd13ifvqee0","pricing_plan_id":"cebpf4jnsgd1na2vs0mg"},{"bike_id":"b94cf06f-2766-4146-91f6-f8807712900a","system_id":"levelo_inurba_marseille","lat":43.30907,"lon":5.36841,"is_reserved":false,"is_disabled":false,"rental_uris":{"android":"levelo://app?vid=b94cf06f-2766-4146-91f6-f8807712900a","ios":"levelo://app?vid=b94cf06f-2766-4146-91f6-f8807712900a"},"vehicle_type_id":"4","last_reported":1746007879,"current_range_meters":24400,"station_id":"ce4bgn92rcd13ifvqbvg","pricing_plan_id":"cebpf4jnsgd1na2vs0mg"},{"bike_id":"89b67906-6b66-49bb-93bc-e482e15720c8","system_id":"levelo_inurba_marseille","lat":43.29922,"lon":5.3748,"is_reserved":false,"is_disabled":false,"rental_uris":{"android":"levelo://app?vid=89b67906-6b66-49bb-93bc-e482e15720c8","ios":"levelo://app?vid=89b67906-6b66-49bb-93bc-e482e15720c8"},"vehicle_type_id":"4","last_reported":1746007879,"current_range_meters":24400,"station_id":"ce4bgjh2rcd13ifvqbg0","pricing_plan_id":"cebpf4jnsgd1na2vs0mg"},{"bike_id":"d2ccff07-bf14-4856-b840-e978200b4b9d","system_id":"levelo_inurba_marseille","lat":43.303817,"lon":5.424839,"is_reserved":false,"is_disabled":false,"rental_uris":{"android":"levelo://app?vid=d2ccff07-bf14-4856-b840-e978200b4b9d","ios":"levelo://app?vid=d2ccff07-bf14-4856-b840-e978200b4b9d"},"vehicle_type_id":"4","last_reported":1746007879,"current_range_meters":24400,"station_id":"ce4bghh2rcd13ifvqb60","pricing_plan_id":"cebpf4jnsgd1na2vs0mg"},{"bike_id":"ff4370d3-5dd8-4b9b-bbf5-04163b2823ce","system_id":"levelo_inurba_marseille","lat":43.25004,"lon":5.38928,"is_reserved":false,"is_disabled":false,"rental_uris":{"android":"levelo://app?vid=ff4370d3-5dd8-4b9b-bbf5-04163b2823ce","ios":"levelo://app?vid=ff4370d3-5dd8-4b9b-bbf5-04163b2823ce"},"vehicle_type_id":"4","last_reported":1746007879,"current_range_meters":24000,"station_id":"ce4bhgp2rcd13ifvqfd0","pricing_plan_id":"cebpf4jnsgd1na2vs0mg"},{"bike_id":"5d1f1b5d-dc0e-460e-a977-db8c0168b9d6","system_id":"levelo_inurba_marseille","lat":43.23154,"lon":5.43703,"is_reserved":false,"is_disabled":false,"rental_uris":{"android":"levelo://app?vid=5d1f1b5d-dc0e-460e-a977-db8c0168b9d6","ios":"levelo://app?vid=5d1f1b5d-dc0e-460e-a977-db8c0168b9d6"},"vehicle_type_id":"4","last_reported":1746007879,"current_range_meters":24400,"station_id":"ce4bhmp2rcd13ifvqgog","pricing_plan_id":"cebpf4jnsgd1na2vs0mg"},{"bike_id":"e583b4ef-8989-46d2-85b9-7e104a194422","system_id":"levelo_inurba_marseille","lat":43.30549,"lon":5.36694,"is_reserved":false,"is_disabled":false,"rental_uris":{"android":"levelo://app?vid=e583b4ef-8989-46d2-85b9-7e104a194422","ios":"levelo://app?vid=e583b4ef-8989-46d2-85b9-7e104a194422"},"vehicle_type_id":"4","last_reported":1746007879,"current_range_meters":24800,"station_id":"ce4bgrp2rcd13ifvqc9g","pricing_plan_id":"cebpf4jnsgd1na2vs0mg"},{"bike_id":"d9d529a7-5cf2-4682-a112-53c98bc740dd","system_id":"levelo_inurba_marseille","lat":43.29005,"lon":5.35608,"is_reserved":false,"is_disabled":false,"rental_uris":{"android":"levelo://app?vid=d9d529a7-5cf2-4682-a112-53c98bc740dd","ios":"levelo://app?vid=d9d529a7-5cf2-4682-a112-53c98bc740dd"},"vehicle_type_id":"4","last_reported":1746007879,"current_range_meters":24800,"station_id":"ce4bhb92rcd13ifvqen0","pricing_plan_id":"cebpf4jnsgd1na2vs0mg"},{"bike_id":"a9f97785-705a-4b01-bd2a-7256bdd21e6c","system_id":"levelo_inurba_marseille","lat":43.29872,"lon":5.38909,"is_reserved":false,"is_disabled":true,"rental_uris":{"android":"levelo://app?vid=a9f97785-705a-4b01-bd2a-7256bdd21e6c","ios":"levelo://app?vid=a9f97785-705a-4b01-bd2a-7256bdd21e6c"},"vehicle_type_id":"4","last_reported":1746007879,"current_range_meters":24800,"station_id":"ce4bh392rcd13ifvqdl0","pricing_plan_id":"cebpf4jnsgd1na2vs0mg"},{"bike_id":"43820379-53f3-4eab-9d63-04c37e5df5c5","system_id":"levelo_inurba_marseille","lat":43.22937,"lon":5.35379,"is_reserved":false,"is_disabled":false,"rental_uris":{"android":"levelo://app?vid=43820379-53f3-4eab-9d63-04c37e5df5c5","ios":"levelo://app?vid=43820379-53f3-4eab-9d63-04c37e5df5c5"},"vehicle_type_id":"4","last_reported":1746007879,"current_range_meters":24800,"station_id":"cpo3532slgdg3j2ikp40","pricing_plan_id":"cebpf4jnsgd1na2vs0mg"},{"bike_id":"9f52f180-7d9b-4c48-825b-51225c503aab","system_id":"levelo_inurba_marseille","lat":43.2347,"lon":5.38048,"is_reserved":false,"is_disabled":false,"rental_uris":{"android":"levelo://app?vid=9f52f180-7d9b-4c48-825b-51225c503aab","ios":"levelo://app?vid=9f52f180-7d9b-4c48-825b-51225c503aab"},"vehicle_type_id":"4","last_reported":1746007879,"current_range_meters":24800,"station_id":"","pricing_plan_id":"cebpf4jnsgd1na2vs0mg"},{"bike_id":"e4c827cd-d846-4f3d-852d-70c7ae41c297","system_id":"levelo_inurba_marseille","lat":43.314797,"lon":5.372885,"is_reserved":false,"is_disabled":false,"rental_uris":{"android":"levelo://app?vid=e4c827cd-d846-4f3d-852d-70c7ae41c297","ios":"levelo://app?vid=e4c827cd-d846-4f3d-852d-70c7ae41c297"},"vehicle_type_id":"4","last_reported":1746007879,"current_range_meters":24800,"station_id":"ce4bgt12rcd13ifvqcd0","pricing_plan_id":"cebpf4jnsgd1na2vs0mg"},{"bike_id":"398289f0-faae-42bf-ab78-50b199c34832","system_id":"levelo_inurba_marseille","lat":43.30888,"lon":5.36847,"is_reserved":false,"is_disabled":false,"rental_uris":{"android":"levelo://app?vid=398289f0-faae-42bf-ab78-50b199c34832","ios":"levelo://app?vid=398289f0-faae-42bf-ab78-50b199c34832"},"vehicle_type_id":"4","last_reported":1746007879,"current_range_meters":25200,"station_id":"ce4bgn92rcd13ifvqbvg","pricing_plan_id":"cebpf4jnsgd1na2vs0mg"},{"bike_id":"4a31c4cc-821a-415b-a480-cfc00adaad20","system_id":"levelo_inurba_marseille","lat":43.29265,"lon":5.368455,"is_reserved":false,"is_disabled":true,"rental_uris":{"android":"levelo://app?vid=4a31c4cc-821a-415b-a480-cfc00adaad20","ios":"levelo://app?vid=4a31c4cc-821a-415b-a480-cfc00adaad20"},"vehicle_type_id":"4","last_reported":1746007879,"current_range_meters":25200,"station_id":"ce4bhbp2rcd13ifvqesg","pricing_plan_id":"cebpf4jnsgd1na2vs0mg"},{"bike_id":"df6a9c2b-9a01-44a9-a7cb-27861c0d62ae","system_id":"levelo_inurba_marseille","lat":43.30123,"lon":5.39874,"is_reserved":false,"is_disabled":true,"rental_uris":{"android":"levelo://app?vid=df6a9c2b-9a01-44a9-a7cb-27861c0d62ae","ios":"levelo://app?vid=df6a9c2b-9a01-44a9-a7cb-27861c0d62ae"},"vehicle_type_id":"4","last_reported":1746007879,"current_range_meters":25200,"station_id":"ce4bh0h2rcd13ifvqd40","pricing_plan_id":"cebpf4jnsgd1na2vs0mg"},{"bike_id":"d7b25056-172e-4634-9a40-a03a5fd3d998","system_id":"levelo_inurba_marseille","lat":43.2593,"lon":5.40894,"is_reserved":false,"is_disabled":false,"rental_uris":{"android":"levelo://app?vid=d7b25056-172e-4634-9a40-a03a5fd3d998","ios":"levelo://app?vid=d7b25056-172e-4634-9a40-a03a5fd3d998"},"vehicle_type_id":"4","last_reported":1746007879,"current_range_meters":25200,"station_id":"ce4bhm92rcd13ifvqglg","pricing_plan_id":"cebpf4jnsgd1na2vs0mg"},{"bike_id":"502300df-8eae-4304-a4c6-7f677fa0e083","system_id":"levelo_inurba_marseille","lat":43.29854,"lon":5.36245,"is_reserved":false,"is_disabled":false,"rental_uris":{"android":"levelo://app?vid=502300df-8eae-4304-a4c6-7f677fa0e083","ios":"levelo://app?vid=502300df-8eae-4304-a4c6-7f677fa0e083"},"vehicle_type_id":"4","last_reported":1746007879,"current_range_meters":25200,"station_id":"ce4bgpp2rcd13ifvqc3g","pricing_plan_id":"cebpf4jnsgd1na2vs0mg"},{"bike_id":"1f99ae3d-d123-40c9-8478-2ab96463f1ac","system_id":"levelo_inurba_marseille","lat":43.30435,"lon":5.38889,"is_reserved":false,"is_disabled":false,"rental_uris":{"android":"levelo://app?vid=1f99ae3d-d123-40c9-8478-2ab96463f1ac","ios":"levelo://app?vid=1f99ae3d-d123-40c9-8478-2ab96463f1ac"},"vehicle_type_id":"4","last_reported":1746007879,"current_range_meters":25200,"station_id":"ce4bgk12rcd13ifvqbi0","pricing_plan_id":"cebpf4jnsgd1na2vs0mg"},{"bike_id":"655def3a-905c-4c5c-8392-a79ea78f0249","system_id":"levelo_inurba_marseille","lat":43.30319,"lon":5.36901,"is_reserved":false,"is_disabled":false,"rental_uris":{"android":"levelo://app?vid=655def3a-905c-4c5c-8392-a79ea78f0249","ios":"levelo://app?vid=655def3a-905c-4c5c-8392-a79ea78f0249"},"vehicle_type_id":"4","last_reported":1746007879,"current_range_meters":25600,"station_id":"ce4bgqh2rcd13ifvqc5g","pricing_plan_id":"cebpf4jnsgd1na2vs0mg"},{"bike_id":"a143ac9f-a051-4d36-9147-e51d836461a2","system_id":"levelo_inurba_marseille","lat":43.28938,"lon":5.36406,"is_reserved":false,"is_disabled":false,"rental_uris":{"android":"levelo://app?vid=a143ac9f-a051-4d36-9147-e51d836461a2","ios":"levelo://app?vid=a143ac9f-a051-4d36-9147-e51d836461a2"},"vehicle_type_id":"4","last_reported":1746007879,"current_range_meters":25200,"station_id":"ce4bhc92rcd13ifvqetg","pricing_plan_id":"cebpf4jnsgd1na2vs0mg"},{"bike_id":"eb10483c-4564-4487-af79-629a2965e735","system_id":"levelo_inurba_marseille","lat":43.21718,"lon":5.34634,"is_reserved":false,"is_disabled":false,"rental_uris":{"android":"levelo://app?vid=eb10483c-4564-4487-af79-629a2965e735","ios":"levelo://app?vid=eb10483c-4564-4487-af79-629a2965e735"},"vehicle_type_id":"4","last_reported":1746007879,"current_range_meters":25600,"station_id":"st_cvj6r9ubvosntc0bgbag","pricing_plan_id":"cebpf4jnsgd1na2vs0mg"},{"bike_id":"1beb5353-bc76-4960-a62b-2dd9876df773","system_id":"levelo_inurba_marseille","lat":43.21748,"lon":5.34599,"is_reserved":false,"is_disabled":false,"rental_uris":{"android":"levelo://app?vid=1beb5353-bc76-4960-a62b-2dd9876df773","ios":"levelo://app?vid=1beb5353-bc76-4960-a62b-2dd9876df773"},"vehicle_type_id":"4","last_reported":1746007879,"current_range_meters":25600,"station_id":"st_cvj6r9ubvosntc0bgbag","pricing_plan_id":"cebpf4jnsgd1na2vs0mg"},{"bike_id":"a0f4bd78-f5c4-42c9-acdf-e7276b835249","system_id":"levelo_inurba_marseille","lat":43.31817,"lon":5.37879,"is_reserved":false,"is_disabled":false,"rental_uris":{"android":"levelo://app?vid=a0f4bd78-f5c4-42c9-acdf-e7276b835249","ios":"levelo://app?vid=a0f4bd78-f5c4-42c9-acdf-e7276b835249"},"vehicle_type_id":"4","last_reported":1746007879,"current_range_meters":26800,"station_id":"","pricing_plan_id":"cebpf4jnsgd1na2vs0mg"},{"bike_id":"98b8dd24-4cb9-49d5-a7f3-76e50431be9d","system_id":"levelo_inurba_marseille","lat":43.2826,"lon":5.35062,"is_reserved":false,"is_disabled":false,"rental_uris":{"android":"levelo://app?vid=98b8dd24-4cb9-49d5-a7f3-76e50431be9d","ios":"levelo://app?vid=98b8dd24-4cb9-49d5-a7f3-76e50431be9d"},"vehicle_type_id":"4","last_reported":1746007879,"current_range_meters":25600,"station_id":"ce4bhbp2rcd13ifvqerg","pricing_plan_id":"cebpf4jnsgd1na2vs0mg"},{"bike_id":"da3f9534-614c-4439-992d-5ff31aa309c9","system_id":"levelo_inurba_marseille","lat":43.30536,"lon":5.36533,"is_reserved":false,"is_disabled":false,"rental_uris":{"android":"levelo://app?vid=da3f9534-614c-4439-992d-5ff31aa309c9","ios":"levelo://app?vid=da3f9534-614c-4439-992d-5ff31aa309c9"},"vehicle_type_id":"4","last_reported":1746007879,"current_range_meters":26000,"station_id":"ce4bgs12rcd13ifvqcag","pricing_plan_id":"cebpf4jnsgd1na2vs0mg"},{"bike_id":"bc807f40-988d-44ca-9bd4-776e32a3f4d0","system_id":"levelo_inurba_marseille","lat":43.29055,"lon":5.35906,"is_reserved":false,"is_disabled":false,"rental_uris":{"android":"levelo://app?vid=bc807f40-988d-44ca-9bd4-776e32a3f4d0","ios":"levelo://app?vid=bc807f40-988d-44ca-9bd4-776e32a3f4d0"},"vehicle_type_id":"4","last_reported":1746007879,"current_range_meters":26800,"station_id":"ce4bha92rcd13ifvqeg0","pricing_plan_id":"cebpf4jnsgd1na2vs0mg"},{"bike_id":"b3d7cca2-7d35-4030-8d40-4a8257616573","system_id":"levelo_inurba_marseille","lat":43.22541,"lon":5.34739,"is_reserved":false,"is_disabled":false,"rental_uris":{"android":"levelo://app?vid=b3d7cca2-7d35-4030-8d40-4a8257616573","ios":"levelo://app?vid=b3d7cca2-7d35-4030-8d40-4a8257616573"},"vehicle_type_id":"4","last_reported":1746007879,"current_range_meters":26800,"station_id":"","pricing_plan_id":"cebpf4jnsgd1na2vs0mg"},{"bike_id":"992538c8-4c0c-4cf5-ace0-596673d856ad","system_id":"levelo_inurba_marseille","lat":43.28951,"lon":5.3662,"is_reserved":false,"is_disabled":true,"rental_uris":{"android":"levelo://app?vid=992538c8-4c0c-4cf5-ace0-596673d856ad","ios":"levelo://app?vid=992538c8-4c0c-4cf5-ace0-596673d856ad"},"vehicle_type_id":"4","last_reported":1746007879,"current_range_meters":26800,"station_id":"ce4bhap2rcd13ifvqek0","pricing_plan_id":"cebpf4jnsgd1na2vs0mg"},{"bike_id":"4c6f3cbc-7f9a-411b-8fea-fa81f48ff8de","system_id":"levelo_inurba_marseille","lat":43.3235,"lon":5.36729,"is_reserved":false,"is_disabled":false,"rental_uris":{"android":"levelo://app?vid=4c6f3cbc-7f9a-411b-8fea-fa81f48ff8de","ios":"levelo://app?vid=4c6f3cbc-7f9a-411b-8fea-fa81f48ff8de"},"vehicle_type_id":"4","last_reported":1746007879,"current_range_meters":26800,"station_id":"ce4bhsh2rcd13ifvqi2g","pricing_plan_id":"cebpf4jnsgd1na2vs0mg"},{"bike_id":"aab6fa4d-6ae8-406d-ae1f-1c25994fe591","system_id":"levelo_inurba_marseille","lat":43.24997,"lon":5.38933,"is_reserved":false,"is_disabled":false,"rental_uris":{"android":"levelo://app?vid=aab6fa4d-6ae8-406d-ae1f-1c25994fe591","ios":"levelo://app?vid=aab6fa4d-6ae8-406d-ae1f-1c25994fe591"},"vehicle_type_id":"4","last_reported":1746007879,"current_range_meters":26800,"station_id":"ce4bhgp2rcd13ifvqfd0","pricing_plan_id":"cebpf4jnsgd1na2vs0mg"},{"bike_id":"bb5c4535-0338-443d-a655-c28507f6b075","system_id":"levelo_inurba_marseille","lat":43.32484,"lon":5.36558,"is_reserved":false,"is_disabled":false,"rental_uris":{"android":"levelo://app?vid=bb5c4535-0338-443d-a655-c28507f6b075","ios":"levelo://app?vid=bb5c4535-0338-443d-a655-c28507f6b075"},