{"last_updated":1761398166,"ttl":60,"version":"2.2","data":{"bikes":[{"bike_id":"d9c3b110-1081-4532-ac90-d223789eee57","system_id":"levelo_inurba_marseille","lat":43.28271,"lon":5.35062,"is_reserved":false,"is_disabled":false,"rental_uris":{"android":"levelo://app?vid=d9c3b110-1081-4532-ac90-d223789eee57","ios":"levelo://app?vid=d9c3b110-1081-4532-ac90-d223789eee57"},"vehicle_type_id":"4","last_reported":1761398166,"current_range_meters":2800,"station_id":"ce4bhbp2rcd13ifvqerg","pricing_plan_id":"cebpf4jnsgd1na2vs0mg"},{"bike_id":"aad0383e-6766-4d4f-9db8-af01e79009d1","system_id":"levelo_inurba_marseille","lat":43.2962,"lon":5.37157,"is_reserved":false,"is_disabled":false,"rental_uris":{"android":"levelo://app?vid=aad0383e-6766-4d4f-9db8-af01e79009d1","ios":"levelo://app?vid=aad0383e-6766-4d4f-9db8-af01e79009d1"},"vehicle_type_id":"4","last_reported":1761398166,"current_range_meters":3600,"station_id":"ce4bgnh2rcd13ifvqc0g","pricing_plan_id":"cebpf4jnsgd1na2vs0mg"},{"bike_id":"836fdf48-4606-42b4-a427-0e542cd76e16","system_id":"levelo_inurba_marseille","lat":43.30569,"lon":5.36526,"is_reserved":false,"is_disabled":false,"rental_uris":{"android":"levelo://app?vid=836fdf48-4606-42b4-a427-0e542cd76e16","ios":"levelo://app?vid=836fdf48-4606-42b4-a427-0e542cd76e16"},"vehicle_type_id":"4","last_reported":1761398166,"current_range_meters":4000,"station_id":"ce4bgs12rcd13ifvqcag","pricing_plan_id":"cebpf4jnsgd1na2vs0mg"},{"bike_id":"e65405f1-7ebd-4a8f-87c0-9daa18e5b319","system_id":"levelo_inurba_marseille","lat":43.261939,"lon":5.374479,"is_reserved":false,"is_disabled":false,"rental_uris":{"android":"levelo://app?vid=e65405f1-7ebd-4a8f-87c0-9daa18e5b319","ios":"levelo://app?vid=e65405f1-7ebd-4a8f-87c0-9daa18e5b319"},"vehicle_type_id":"4","last_reported":1761398166,"current_range_meters":4400,"station_id":"","pricing_plan_id":"cebpf4jnsgd1na2vs0mg"},{"bike_id":"25f6e774-b75a-44a1-96d0-0c8c8d1491e2","system_id":"levelo_inurba_marseille","lat":43.241692,"lon":5.363977,"is_reserved":false,"is_disabled":false,"rental_uris":{"android":"levelo://app?vid=25f6e774-b75a-44a1-96d0-0c8c8d1491e2","ios":"levelo://app?vid=25f6e774-b75a-44a1-96d0-0c8c8d1491e2"},"vehicle_type_id":"4","last_reported":1761398166,"current_range_meters":4400,"station_id":"ce4bhhp2rcd13ifvqfm0","pricing_plan_id":"cebpf4jnsgd1na2vs0mg"},{"bike_id":"7546f470-e2c9-46ad-b638-733b3092a9dc","system_id":"levelo_inurba_marseille","lat":43.22537,"lon":5.34844,"is_reserved":false,"is_disabled":false,"rental_uris":{"android":"levelo://app?vid=7546f470-e2c9-46ad-b638-733b3092a9dc","ios":"levelo://app?vid=7546f470-e2c9-46ad-b638-733b3092a9dc"},"vehicle_type_id":"4","last_reported":1761398166,"current_range_meters":4400,"station_id":"","pricing_plan_id":"cebpf4jnsgd1na2vs0mg"},{"bike_id":"06a85dc3-7a31-4902-931b-57bc9c5bc393","system_id":"levelo_inurba_marseille","lat":43.26226,"lon":5.40453,"is_reserved":false,"is_disabled":false,"rental_uris":{"android":"levelo://app?vid=06a85dc3-7a31-4902-931b-57bc9c5bc393","ios":"levelo://app?vid=06a85dc3-7a31-4902-931b-57bc9c5bc393"},"vehicle_type_id":"4","last_reported":1761398166,"current_range_meters":4800,"station_id":"ce4bhmh2rcd13ifvqgmg","pricing_plan_id":"cebpf4jnsgd1na2vs0mg"},{"bike_id":"0d76cd3e-e1fe-4078-9bc5-5b79d5ee85b0","system_id":"levelo_inurba_marseille","lat":43.301284,"lon":5.398679,"is_reserved":false,"is_disabled":false,"rental_uris":{"android":"levelo://app?vid=0d76cd3e-e1fe-4078-9bc5-5b79d5ee85b0","ios":"levelo://app?vid=0d76cd3e-e1fe-4078-9bc5-5b79d5ee85b0"},"vehicle_type_id":"4","last_reported":1761398166,"current_range_meters":4800,"station_id":"ce4bh0h2rcd13ifvqd40","pricing_plan_id":"cebpf4jnsgd1na2vs0mg"},{"bike_id":"7b1a758c-830b-4cbd-96fe-70122c1dd0c4","system_id":"levelo_inurba_marseille","lat":43.306395,"lon":5.365647,"is_reserved":false,"is_disabled":false,"rental_uris":{"android":"levelo://app?vid=7b1a758c-830b-4cbd-96fe-70122c1dd0c4","ios":"levelo://app?vid=7b1a758c-830b-4cbd-96fe-70122c1dd0c4"},"vehicle_type_id":"4","last_reported":1761398166,"current_range_meters":4800,"station_id":"","pricing_plan_id":"cebpf4jnsgd1na2vs0mg"},{"bike_id":"5fab3a58-f431-436e-835e-9d738b48f781","system_id":"levelo_inurba_marseille","lat":43.21727,"lon":5.34617,"is_reserved":false,"is_disabled":false,"rental_uris":{"android":"levelo://app?vid=5fab3a58-f431-436e-835e-9d738b48f781","ios":"levelo://app?vid=5fab3a58-f431-436e-835e-9d738b48f781"},"vehicle_type_id":"4","last_reported":1761398166,"current_range_meters":4800,"station_id":"st_cvj6r9ubvosntc0bgbag","pricing_plan_id":"cebpf4jnsgd1na2vs0mg"},{"bike_id":"e7e0ee45-4d7d-4b9e-bf21-0426b757bfcd","system_id":"levelo_inurba_marseille","lat":43.28612,"lon":5.351009,"is_reserved":false,"is_disabled":false,"rental_uris":{"android":"levelo://app?vid=e7e0ee45-4d7d-4b9e-bf21-0426b757bfcd","ios":"levelo://app?vid=e7e0ee45-4d7d-4b9e-bf21-0426b757bfcd"},"vehicle_type_id":"4","last_reported":1761398166,"current_range_meters":5600,"station_id":"ce4bhch2rcd13ifvqeug","pricing_plan_id":"cebpf4jnsgd1na2vs0mg"},{"bike_id":"ef9b0e50-9376-47fd-b30a-093fd52e4c8a","system_id":"levelo_inurba_marseille","lat":43.301127,"lon":5.387932,"is_reserved":false,"is_disabled":false,"rental_uris":{"android":"levelo://app?vid=ef9b0e50-9376-47fd-b30a-093fd52e4c8a","ios":"levelo://app?vid=ef9b0e50-9376-47fd-b30a-093fd52e4c8a"},"vehicle_type_id":"4","last_reported":1761398166,"current_range_meters":5600,"station_id":"ce4bghh2rcd13ifvqb60","pricing_plan_id":"cebpf4jnsgd1na2vs0mg"},{"bike_id":"249fff82-3cd3-43c9-91ae-c51fff688415","system_id":"levelo_inurba_marseille","lat":43.217458,"lon":5.346021,"is_reserved":false,"is_disabled":false,"rental_uris":{"android":"levelo://app?vid=249fff82-3cd3-43c9-91ae-c51fff688415","ios":"levelo://app?vid=249fff82-3cd3-43c9-91ae-c51fff688415"},"vehicle_type_id":"4","last_reported":1761398166,"current_range_meters":5600,"station_id":"st_cvj6r9ubvosntc0bgbag","pricing_plan_id":"cebpf4jnsgd1na2vs0mg"},{"bike_id":"323bf2de-3bb4-4b4c-b330-b19ea807dbf5","system_id":"levelo_inurba_marseille","lat":43.32994,"lon":5.42954,"is_reserved":false,"is_disabled":false,"rental_uris":{"android":"levelo://app?vid=323bf2de-3bb4-4b4c-b330-b19ea807dbf5","ios":"levelo://app?vid=323bf2de-3bb4-4b4c-b330-b19ea807dbf5"},"vehicle_type_id":"4","last_reported":1761398166,"current_range_meters":5600,"station_id":"","pricing_plan_id":"cebpf4jnsgd1na2vs0mg"},{"bike_id":"17bd9fff-f8a7-45af-8120-cab272292f42","system_id":"levelo_inurba_marseille","lat":43.28476,"lon":5.48409,"is_reserved":false,"is_disabled":false,"rental_uris":{"android":"levelo://app?vid=17bd9fff-f8a7-45af-8120-cab272292f42","ios":"levelo://app?vid=17bd9fff-f8a7-45af-8120-cab272292f42"},"vehicle_type_id":"4","last_reported":1761398166,"current_range_meters":5600,"station_id":"st_d3svhcjqgbts73a3dn0g","pricing_plan_id":"cebpf4jnsgd1na2vs0mg"},{"bike_id":"b2dc8b28-f5c8-4dce-9f69-37e454a38cb9","system_id":"levelo_inurba_marseille","lat":43.21745,"lon":5.3461,"is_reserved":false,"is_disabled":false,"rental_uris":{"android":"levelo://app?vid=b2dc8b28-f5c8-4dce-9f69-37e454a38cb9","ios":"levelo://app?vid=b2dc8b28-f5c8-4dce-9f69-37e454a38cb9"},"vehicle_type_id":"4","last_reported":1761398166,"current_range_meters":6000,"station_id":"st_cvj6r9ubvosntc0bgbag","pricing_plan_id":"cebpf4jnsgd1na2vs0mg"},{"bike_id":"1d7c22b4-2f71-48bc-90e3-fa978e0e053f","system_id":"levelo_inurba_marseille","lat":43.30776,"lon":5.38222,"is_reserved":false,"is_disabled":false,"rental_uris":{"android":"levelo://app?vid=1d7c22b4-2f71-48bc-90e3-fa978e0e053f","ios":"levelo://app?vid=1d7c22b4-2f71-48bc-90e3-fa978e0e053f"},"vehicle_type_id":"4","last_reported":1761398166,"current_range_meters":6000,"station_id":"","pricing_plan_id":"cebpf4jnsgd1na2vs0mg"},{"bike_id":"06fa1151-da98-43a0-9ac4-ee2e7a83d422","system_id":"levelo_inurba_marseille","lat":43.29801,"lon":5.3809,"is_reserved":false,"is_disabled":false,"rental_uris":{"android":"levelo://app?vid=06fa1151-da98-43a0-9ac4-ee2e7a83d422","ios":"levelo://app?vid=06fa1151-da98-43a0-9ac4-ee2e7a83d422"},"vehicle_type_id":"4","last_reported":1761398166,"current_range_meters":6000,"station_id":"ce4bgip2rcd13ifvqbb0","pricing_plan_id":"cebpf4jnsgd1na2vs0mg"},{"bike_id":"2598e7f9-0861-4532-a1bb-d98a039bc3c8","system_id":"levelo_inurba_marseille","lat":43.287017,"lon":5.373718,"is_reserved":false,"is_disabled":false,"rental_uris":{"android":"levelo://app?vid=2598e7f9-0861-4532-a1bb-d98a039bc3c8","ios":"levelo://app?vid=2598e7f9-0861-4532-a1bb-d98a039bc3c8"},"vehicle_type_id":"4","last_reported":1761398166,"current_range_meters":6000,"station_id":"ce4bh3p2rcd13ifvqdq0","pricing_plan_id":"cebpf4jnsgd1na2vs0mg"},{"bike_id":"7ca67f57-0c02-43d1-ad57-8493ba8a5ab0","system_id":"levelo_inurba_marseille","lat":43.31756,"lon":5.3902,"is_reserved":false,"is_disabled":false,"rental_uris":{"android":"levelo://app?vid=7ca67f57-0c02-43d1-ad57-8493ba8a5ab0","ios":"levelo://app?vid=7ca67f57-0c02-43d1-ad57-8493ba8a5ab0"},"vehicle_type_id":"4","last_reported":1761398166,"current_range_meters":6000,"station_id":"ce4bhqp2rcd13ifvqhng","pricing_plan_id":"cebpf4jnsgd1na2vs0mg"},{"bike_id":"a5f0cf9d-e21c-47a1-ad1e-bf0e80b8bf52","system_id":"levelo_inurba_marseille","lat":43.21737,"lon":5.34606,"is_reserved":false,"is_disabled":false,"rental_uris":{"android":"levelo://app?vid=a5f0cf9d-e21c-47a1-ad1e-bf0e80b8bf52","ios":"levelo://app?vid=a5f0cf9d-e21c-47a1-ad1e-bf0e80b8bf52"},"vehicle_type_id":"4","last_reported":1761398166,"current_range_meters":6000,"station_id":"st_cvj6r9ubvosntc0bgbag","pricing_plan_id":"cebpf4jnsgd1na2vs0mg"},{"bike_id":"3c7ce920-4ffc-4c10-b467-bb71a6a8d004","system_id":"levelo_inurba_marseille","lat":43.29847,"lon":5.36296,"is_reserved":false,"is_disabled":false,"rental_uris":{"android":"levelo://app?vid=3c7ce920-4ffc-4c10-b467-bb71a6a8d004","ios":"levelo://app?vid=3c7ce920-4ffc-4c10-b467-bb71a6a8d004"},"vehicle_type_id":"4","last_reported":1761398166,"current_range_meters":6400,"station_id":"ce4bgpp2rcd13ifvqc3g","pricing_plan_id":"cebpf4jnsgd1na2vs0mg"},{"bike_id":"bf52d227-e2e6-4e46-bfde-44cbb96d7d45","system_id":"levelo_inurba_marseille","lat":43.21178,"lon":5.35057,"is_reserved":false,"is_disabled":false,"rental_uris":{"android":"levelo://app?vid=bf52d227-e2e6-4e46-bfde-44cbb96d7d45","ios":"levelo://app?vid=bf52d227-e2e6-4e46-bfde-44cbb96d7d45"},"vehicle_type_id":"4","last_reported":1761398166,"current_range_meters":6400,"station_id":"st_cvj6sg6p6f1abm77japg","pricing_plan_id":"cebpf4jnsgd1na2vs0mg"},{"bike_id":"00fd3c6a-780c-49dc-9993-d4de69c9b57a","system_id":"levelo_inurba_marseille","lat":43.310738,"lon":5.37455,"is_reserved":false,"is_disabled":false,"rental_uris":{"android":"levelo://app?vid=00fd3c6a-780c-49dc-9993-d4de69c9b57a","ios":"levelo://app?vid=00fd3c6a-780c-49dc-9993-d4de69c9b57a"},"vehicle_type_id":"4","last_reported":1761398166,"current_range_meters":6400,"station_id":"","pricing_plan_id":"cebpf4jnsgd1na2vs0mg"},{"bike_id":"8bcacd78-80de-4026-af75-b37ebe3030fe","system_id":"levelo_inurba_marseille","lat":43.334756,"lon":5.404255,"is_reserved":false,"is_disabled":false,"rental_uris":{"android":"levelo://app?vid=8bcacd78-80de-4026-af75-b37ebe3030fe","ios":"levelo://app?vid=8bcacd78-80de-4026-af75-b37ebe3030fe"},"vehicle_type_id":"4","last_reported":1761398166,"current_range_meters":6400,"station_id":"","pricing_plan_id":"cebpf4jnsgd1na2vs0mg"},{"bike_id":"1b7120eb-a807-49b3-a575-ea5fd76afff2","system_id":"levelo_inurba_marseille","lat":43.29521,"lon":5.39039,"is_reserved":false,"is_disabled":false,"rental_uris":{"android":"levelo://app?vid=1b7120eb-a807-49b3-a575-ea5fd76afff2","ios":"levelo://app?vid=1b7120eb-a807-49b3-a575-ea5fd76afff2"},"vehicle_type_id":"4","last_reported":1761398166,"current_range_meters":6400,"station_id":"ce4bh3p2rcd13ifvqdp0","pricing_plan_id":"cebpf4jnsgd1na2vs0mg"},{"bike_id":"b9764ed2-f91a-421e-b54e-d7527bd8af22","system_id":"levelo_inurba_marseille","lat":43.29811,"lon":5.36588,"is_reserved":false,"is_disabled":false,"rental_uris":{"android":"levelo://app?vid=b9764ed2-f91a-421e-b54e-d7527bd8af22","ios":"levelo://app?vid=b9764ed2-f91a-421e-b54e-d7527bd8af22"},"vehicle_type_id":"4","last_reported":1761398166,"current_range_meters":6800,"station_id":"","pricing_plan_id":"cebpf4jnsgd1na2vs0mg"},{"bike_id":"0e1d11c9-83d3-4ac3-8c3a-5248dda0815f","system_id":"levelo_inurba_marseille","lat":43.30465,"lon":5.37929,"is_reserved":false,"is_disabled":false,"rental_uris":{"android":"levelo://app?vid=0e1d11c9-83d3-4ac3-8c3a-5248dda0815f","ios":"levelo://app?vid=0e1d11c9-83d3-4ac3-8c3a-5248dda0815f"},"vehicle_type_id":"4","last_reported":1761398166,"current_range_meters":6800,"station_id":"ce4bgup2rcd13ifvqcn0","pricing_plan_id":"cebpf4jnsgd1na2vs0mg"},{"bike_id":"cb14a91a-e5a7-4fa2-9c1d-b1acec3d3362","system_id":"levelo_inurba_marseille","lat":43.337444,"lon":5.374475,"is_reserved":false,"is_disabled":false,"rental_uris":{"android":"levelo://app?vid=cb14a91a-e5a7-4fa2-9c1d-b1acec3d3362","ios":"levelo://app?vid=cb14a91a-e5a7-4fa2-9c1d-b1acec3d3362"},"vehicle_type_id":"4","last_reported":1761398166,"current_range_meters":6800,"station_id":"","pricing_plan_id":"cebpf4jnsgd1na2vs0mg"},{"bike_id":"b9efc170-ddea-4b5d-8597-120c72bc41d4","system_id":"levelo_inurba_marseille","lat":43.25579,"lon":5.38234,"is_reserved":false,"is_disabled":false,"rental_uris":{"android":"levelo://app?vid=b9efc170-ddea-4b5d-8597-120c72bc41d4","ios":"levelo://app?vid=b9efc170-ddea-4b5d-8597-120c72bc41d4"},"vehicle_type_id":"4","last_reported":1761398166,"current_range_meters":7200,"station_id":"ce4bhih2rcd13ifvqfs0","pricing_plan_id":"cebpf4jnsgd1na2vs0mg"},{"bike_id":"9881c788-42a8-46f5-8ccc-580a73583155","system_id":"levelo_inurba_marseille","lat":43.320844,"lon":5.409179,"is_reserved":false,"is_disabled":false,"rental_uris":{"android":"levelo://app?vid=9881c788-42a8-46f5-8ccc-580a73583155","ios":"levelo://app?vid=9881c788-42a8-46f5-8ccc-580a73583155"},"vehicle_type_id":"4","last_reported":1761398166,"current_range_meters":7200,"station_id":"","pricing_plan_id":"cebpf4jnsgd1na2vs0mg"},{"bike_id":"e2d647f4-1104-4719-af3b-84aadd2c10de","system_id":"levelo_inurba_marseille","lat":43.29273,"lon":5.3684,"is_reserved":false,"is_disabled":false,"rental_uris":{"android":"levelo://app?vid=e2d647f4-1104-4719-af3b-84aadd2c10de","ios":"levelo://app?vid=e2d647f4-1104-4719-af3b-84aadd2c10de"},"vehicle_type_id":"4","last_reported":1761398166,"current_range_meters":8000,"station_id":"ce4bhbp2rcd13ifvqesg","pricing_plan_id":"cebpf4jnsgd1na2vs0mg"},{"bike_id":"2842f5fd-7b05-4b47-909c-5ee54d7d3bc5","system_id":"levelo_inurba_marseille","lat":43.32444,"lon":5.4278,"is_reserved":false,"is_disabled":false,"rental_uris":{"android":"levelo://app?vid=2842f5fd-7b05-4b47-909c-5ee54d7d3bc5","ios":"levelo://app?vid=2842f5fd-7b05-4b47-909c-5ee54d7d3bc5"},"vehicle_type_id":"4","last_reported":1761398166,"current_range_meters":8000,"station_id":"","pricing_plan_id":"cebpf4jnsgd1na2vs0mg"},{"bike_id":"9854d133-2818-42fb-9cf6-7935644898da","system_id":"levelo_inurba_marseille","lat":43.242256,"lon":5.380345,"is_reserved":false,"is_disabled":false,"rental_uris":{"android":"levelo://app?vid=9854d133-2818-42fb-9cf6-7935644898da","ios":"levelo://app?vid=9854d133-2818-42fb-9cf6-7935644898da"},"vehicle_type_id":"4","last_reported":1761398166,"current_range_meters":8000,"station_id":"ce4bhnp2rcd13ifvqgvg","pricing_plan_id":"cebpf4jnsgd1na2vs0mg"},{"bike_id":"52b8d3b2-a470-422d-bd2b-e1c4cf518509","system_id":"levelo_inurba_marseille","lat":43.26477,"lon":5.39559,"is_reserved":false,"is_disabled":true,"rental_uris":{"android":"levelo://app?vid=52b8d3b2-a470-422d-bd2b-e1c4cf518509","ios":"levelo://app?vid=52b8d3b2-a470-422d-bd2b-e1c4cf518509"},"vehicle_type_id":"4","last_reported":1761398166,"current_range_meters":8400,"station_id":"ce4bhi12rcd13ifvqfq0","pricing_plan_id":"cebpf4jnsgd1na2vs0mg"},{"bike_id":"8d00c638-e32d-4a5b-991c-d2222b012f26","system_id":"levelo_inurba_marseille","lat":43.28418,"lon":5.34973,"is_reserved":false,"is_disabled":false,"rental_uris":{"android":"levelo://app?vid=8d00c638-e32d-4a5b-991c-d2222b012f26","ios":"levelo://app?vid=8d00c638-e32d-4a5b-991c-d2222b012f26"},"vehicle_type_id":"4","last_reported":1761398166,"current_range_meters":8800,"station_id":"ce4bhbh2rcd13ifvqepg","pricing_plan_id":"cebpf4jnsgd1na2vs0mg"},{"bike_id":"fe04cd1c-3428-473a-b190-c99c40262afc","system_id":"levelo_inurba_marseille","lat":43.254901,"lon":5.37648,"is_reserved":false,"is_disabled":false,"rental_uris":{"android":"levelo://app?vid=fe04cd1c-3428-473a-b190-c99c40262afc","ios":"levelo://app?vid=fe04cd1c-3428-473a-b190-c99c40262afc"},"vehicle_type_id":"4","last_reported":1761398166,"current_range_meters":8800,"station_id":"ce4bhh12rcd13ifvqff0","pricing_plan_id":"cebpf4jnsgd1na2vs0mg"},{"bike_id":"32ce9492-4637-4d6e-a292-cd351db28377","system_id":"levelo_inurba_marseille","lat":43.330261,"lon":5.390411,"is_reserved":false,"is_disabled":false,"rental_uris":{"android":"levelo://app?vid=32ce9492-4637-4d6e-a292-cd351db28377","ios":"levelo://app?vid=32ce9492-4637-4d6e-a292-cd351db28377"},"vehicle_type_id":"4","last_reported":1761398166,"current_range_meters":8800,"station_id":"","pricing_plan_id":"cebpf4jnsgd1na2vs0mg"},{"bike_id":"368ed981-0d59-4479-ba2e-4a499531ebe6","system_id":"levelo_inurba_marseille","lat":43.295737,"lon":5.37522,"is_reserved":false,"is_disabled":false,"rental_uris":{"android":"levelo://app?vid=368ed981-0d59-4479-ba2e-4a499531ebe6","ios":"levelo://app?vid=368ed981-0d59-4479-ba2e-4a499531ebe6"},"vehicle_type_id":"4","last_reported":1761398166,"current_range_meters":8800,"station_id":"ce4bgh92rcd13ifvqb50","pricing_plan_id":"cebpf4jnsgd1na2vs0mg"},{"bike_id":"5a9ad3d6-9cae-4728-9f40-ff8723a3349d","system_id":"levelo_inurba_marseille","lat":43.24646,"lon":5.38887,"is_reserved":false,"is_disabled":false,"rental_uris":{"android":"levelo://app?vid=5a9ad3d6-9cae-4728-9f40-ff8723a3349d","ios":"levelo://app?vid=5a9ad3d6-9cae-4728-9f40-ff8723a3349d"},"vehicle_type_id":"4","last_reported":1761398166,"current_range_meters":8800,"station_id":"ce4bhg12rcd13ifvqf60","pricing_plan_id":"cebpf4jnsgd1na2vs0mg"},{"bike_id":"dd45b6cf-2369-4e35-b10c-30addecb878b","system_id":"levelo_inurba_marseille","lat":43.2952,"lon":5.3941,"is_reserved":false,"is_disabled":false,"rental_uris":{"android":"levelo://app?vid=dd45b6cf-2369-4e35-b10c-30addecb878b","ios":"levelo://app?vid=dd45b6cf-2369-4e35-b10c-30addecb878b"},"vehicle_type_id":"4","last_reported":1761398166,"current_range_meters":8800,"station_id":"ce4bh292rcd13ifvqdf0","pricing_plan_id":"cebpf4jnsgd1na2vs0mg"},{"bike_id":"e35e1247-2ec0-4206-a360-6aaa534a130f","system_id":"levelo_inurba_marseille","lat":43.28479,"lon":5.48428,"is_reserved":false,"is_disabled":false,"rental_uris":{"android":"levelo://app?vid=e35e1247-2ec0-4206-a360-6aaa534a130f","ios":"levelo://app?vid=e35e1247-2ec0-4206-a360-6aaa534a130f"},"vehicle_type_id":"4","last_reported":1761398166,"current_range_meters":8800,"station_id":"st_d3svhcjqgbts73a3dn0g","pricing_plan_id":"cebpf4jnsgd1na2vs0mg"},{"bike_id":"48f55e23-0f8d-4217-bb7b-b55dd2255037","system_id":"levelo_inurba_marseille","lat":43.21739,"lon":5.34609,"is_reserved":false,"is_disabled":false,"rental_uris":{"android":"levelo://app?vid=48f55e23-0f8d-4217-bb7b-b55dd2255037","ios":"levelo://app?vid=48f55e23-0f8d-4217-bb7b-b55dd2255037"},"vehicle_type_id":"4","last_reported":1761398166,"current_range_meters":8800,"station_id":"st_cvj6r9ubvosntc0bgbag","pricing_plan_id":"cebpf4jnsgd1na2vs0mg"},{"bike_id":"5f9debc0-c360-4a2e-b517-592e9a0c2818","system_id":"levelo_inurba_marseille","lat":43.329459,"lon":5.427872,"is_reserved":false,"is_disabled":false,"rental_uris":{"android":"levelo://app?vid=5f9debc0-c360-4a2e-b517-592e9a0c2818","ios":"levelo://app?vid=5f9debc0-c360-4a2e-b517-592e9a0c2818"},"vehicle_type_id":"4","last_reported":1761398166,"current_range_meters":9200,"station_id":"","pricing_plan_id":"cebpf4jnsgd1na2vs0mg"},{"bike_id":"fa5c0561-d90f-46ce-87ae-9f11b247b481","system_id":"levelo_inurba_marseille","lat":43.29844,"lon":5.36271,"is_reserved":false,"is_disabled":false,"rental_uris":{"android":"levelo://app?vid=fa5c0561-d90f-46ce-87ae-9f11b247b481","ios":"levelo://app?vid=fa5c0561-d90f-46ce-87ae-9f11b247b481"},"vehicle_type_id":"4","last_reported":1761398166,"current_range_meters":9200,"station_id":"ce4bgpp2rcd13ifvqc3g","pricing_plan_id":"cebpf4jnsgd1na2vs0mg"},{"bike_id":"4a0f2c10-3c90-4eff-a71e-3c15bcb7ef71","system_id":"levelo_inurba_marseille","lat":43.286125,"lon":5.350957,"is_reserved":false,"is_disabled":false,"rental_uris":{"android":"levelo://app?vid=4a0f2c10-3c90-4eff-a71e-3c15bcb7ef71","ios":"levelo://app?vid=4a0f2c10-3c90-4eff-a71e-3c15bcb7ef71"},"vehicle_type_id":"4","last_reported":1761398166,"current_range_meters":9600,"station_id":"ce4bhch2rcd13ifvqeug","pricing_plan_id":"cebpf4jnsgd1na2vs0mg"},{"bike_id":"d139e4d1-809b-4494-b276-91c936738637","system_id":"levelo_inurba_marseille","lat":43.21735,"lon":5.3459,"is_reserved":false,"is_disabled":false,"rental_uris":{"android":"levelo://app?vid=d139e4d1-809b-4494-b276-91c936738637","ios":"levelo://app?vid=d139e4d1-809b-4494-b276-91c936738637"},"vehicle_type_id":"4","last_reported":1761398166,"current_range_meters":9600,"station_id":"st_cvj6r9ubvosntc0bgbag","pricing_plan_id":"cebpf4jnsgd1na2vs0mg"},{"bike_id":"cd0ccb34-0359-4707-9a3e-5be19c4c0993","system_id":"levelo_inurba_marseille","lat":43.29004,"lon":5.356087,"is_reserved":false,"is_disabled":false,"rental_uris":{"android":"levelo://app?vid=cd0ccb34-0359-4707-9a3e-5be19c4c0993","ios":"levelo://app?vid=cd0ccb34-0359-4707-9a3e-5be19c4c0993"},"vehicle_type_id":"4","last_reported":1761398166,"current_range_meters":9600,"station_id":"ce4bhb92rcd13ifvqen0","pricing_plan_id":"cebpf4jnsgd1na2vs0mg"},{"bike_id":"e79e4f2c-3782-45e5-9872-f55a0401b3fa","system_id":"levelo_inurba_marseille","lat":43.29785,"lon":5.38107,"is_reserved":false,"is_disabled":false,"rental_uris":{"android":"levelo://app?vid=e79e4f2c-3782-45e5-9872-f55a0401b3fa","ios":"levelo://app?vid=e79e4f2c-3782-45e5-9872-f55a0401b3fa"},"vehicle_type_id":"4","last_reported":1761398166,"current_range_meters":9600,"station_id":"ce4bgip2rcd13ifvqbb0","pricing_plan_id":"cebpf4jnsgd1na2vs0mg"},{"bike_id":"3dd862df-f5f9-4bae-b2db-b50b84a281d1","system_id":"levelo_inurba_marseille","lat":43.21746,"lon":5.34619,"is_reserved":false,"is_disabled":false,"rental_uris":{"android":"levelo://app?vid=3dd862df-f5f9-4bae-b2db-b50b84a281d1","ios":"levelo://app?vid=3dd862df-f5f9-4bae-b2db-b50b84a281d1"},"vehicle_type_id":"4","last_reported":1761398166,"current_range_meters":9600,"station_id":"st_cvj6r9ubvosntc0bgbag","pricing_plan_id":"cebpf4jnsgd1na2vs0mg"},{"bike_id":"5d26b91b-940f-4b18-ac8f-68cc12b67567","system_id":"levelo_inurba_marseille","lat":43.2959,"lon":5.37717,"is_reserved":false,"is_disabled":false,"rental_uris":{"android":"levelo://app?vid=5d26b91b-940f-4b18-ac8f-68cc12b67567","ios":"levelo://app?vid=5d26b91b-940f-4b18-ac8f-68cc12b67567"},"vehicle_type_id":"4","last_reported":1761398166,"current_range_meters":10000,"station_id":"ce4bgi92rcd13ifvqb90","pricing_plan_id":"cebpf4jnsgd1na2vs0mg"},{"bike_id":"1aea99e3-391b-4761-9e33-b899e7eefb76","system_id":"levelo_inurba_marseille","lat":43.29943,"lon":5.41321,"is_reserved":false,"is_disabled":false,"rental_uris":{"android":"levelo://app?vid=1aea99e3-391b-4761-9e33-b899e7eefb76","ios":"levelo://app?vid=1aea99e3-391b-4761-9e33-b899e7eefb76"},"vehicle_type_id":"4","last_reported":1761398166,"current_range_meters":10000,"station_id":"ce4bhp12rcd13ifvqh9g","pricing_plan_id":"cebpf4jnsgd1na2vs0mg"},{"bike_id":"dfcb153e-4bc2-4665-a188-877cd146dc2b","system_id":"levelo_inurba_marseille","lat":43.231799,"lon":5.399849,"is_reserved":false,"is_disabled":false,"rental_uris":{"android":"levelo://app?vid=dfcb153e-4bc2-4665-a188-877cd146dc2b","ios":"levelo://app?vid=dfcb153e-4bc2-4665-a188-877cd146dc2b"},"vehicle_type_id":"4","last_reported":1761398166,"current_range_meters":10000,"station_id":"ce4bhn12rcd13ifvqgqg","pricing_plan_id":"cebpf4jnsgd1na2vs0mg"},{"bike_id":"6398fd05-47e5-41f8-95bf-116d17d1d757","system_id":"levelo_inurba_marseille","lat":43.292603,"lon":5.384447,"is_reserved":false,"is_disabled":false,"rental_uris":{"android":"levelo://app?vid=6398fd05-47e5-41f8-95bf-116d17d1d757","ios":"levelo://app?vid=6398fd05-47e5-41f8-95bf-116d17d1d757"},"vehicle_type_id":"4","last_reported":1761398166,"current_range_meters":10000,"station_id":"","pricing_plan_id":"cebpf4jnsgd1na2vs0mg"},{"bike_id":"7ae607b8-f836-4784-b156-e29ffc7ef245","system_id":"levelo_inurba_marseille","lat":43.23054,"lon":5.35493,"is_reserved":false,"is_disabled":false,"rental_uris":{"android":"levelo://app?vid=7ae607b8-f836-4784-b156-e29ffc7ef245","ios":"levelo://app?vid=7ae607b8-f836-4784-b156-e29ffc7ef245"},"vehicle_type_id":"4","last_reported":1761398166,"current_range_meters":10000,"station_id":"cpo3342slgdg3j2ifvpg","pricing_plan_id":"cebpf4jnsgd1na2vs0mg"},{"bike_id":"02ff3e57-34d3-4b28-beda-566f01c52ded","system_id":"levelo_inurba_marseille","lat":43.29087,"lon":5.37182,"is_reserved":false,"is_disabled":false,"rental_uris":{"android":"levelo://app?vid=02ff3e57-34d3-4b28-beda-566f01c52ded","ios":"levelo://app?vid=02ff3e57-34d3-4b28-beda-566f01c52ded"},"vehicle_type_id":"4","last_reported":1761398166,"current_range_meters":10000,"station_id":"ce4bh5p2rcd13ifvqe4g","pricing_plan_id":"cebpf4jnsgd1na2vs0mg"},{"bike_id":"4f5c5045-2f2c-4ab7-ad8b-eeba1d52fe66","system_id":"levelo_inurba_marseille","lat":43.29946,"lon":5.37438,"is_reserved":false,"is_disabled":false,"rental_uris":{"android":"levelo://app?vid=4f5c5045-2f2c-4ab7-ad8b-eeba1d52fe66","ios":"levelo://app?vid=4f5c5045-2f2c-4ab7-ad8b-eeba1d52fe66"},"vehicle_type_id":"4","last_reported":1761398166,"current_range_meters":10000,"station_id":"ce4bgjh2rcd13ifvqbg0","pricing_plan_id":"cebpf4jnsgd1na2vs0mg"},{"bike_id":"e94f57f2-601c-4cad-a187-6e953770aa25","system_id":"levelo_inurba_marseille","lat":43.31224,"lon":5.37848,"is_reserved":false,"is_disabled":false,"rental_uris":{"android":"levelo://app?vid=e94f57f2-601c-4cad-a187-6e953770aa25","ios":"levelo://app?vid=e94f57f2-601c-4cad-a187-6e953770aa25"},"vehicle_type_id":"4","last_reported":1761398166,"current_range_meters":10000,"station_id":"","pricing_plan_id":"cebpf4jnsgd1na2vs0mg"},{"bike_id":"759f5e3b-5846-46c5-b998-a50a45427247","system_id":"levelo_inurba_marseille","lat":43.29266,"lon":5.3844,"is_reserved":false,"is_disabled":false,"rental_uris":{"android":"levelo://app?vid=759f5e3b-5846-46c5-b998-a50a45427247","ios":"levelo://app?vid=759f5e3b-5846-46c5-b998-a50a45427247"},"vehicle_type_id":"4","last_reported":1761398166,"current_range_meters":10000,"station_id":"ce4bh692rcd13ifvqea0","pricing_plan_id":"cebpf4jnsgd1na2vs0mg"},{"bike_id":"0f530c1f-b5ff-4128-a3d9-8db8f37c4407","system_id":"levelo_inurba_marseille","lat":43.27975,"lon":5.38741,"is_reserved":false,"is_disabled":false,"rental_uris":{"android":"levelo://app?vid=0f530c1f-b5ff-4128-a3d9-8db8f37c4407","ios":"levelo://app?vid=0f530c1f-b5ff-4128-a3d9-8db8f37c4407"},"vehicle_type_id":"4","last_reported":1761398166,"current_range_meters":10000,"station_id":"ce4bhg12rcd13ifvqf80","pricing_plan_id":"cebpf4jnsgd1na2vs0mg"},{"bike_id":"69599b97-b573-4868-ae16-9bda40c9248f","system_id":"levelo_inurba_marseille","lat":43.21202,"lon":5.35063,"is_reserved":false,"is_disabled":false,"rental_uris":{"android":"levelo://app?vid=69599b97-b573-4868-ae16-9bda40c9248f","ios":"levelo://app?vid=69599b97-b573-4868-ae16-9bda40c9248f"},"vehicle_type_id":"4","last_reported":1761398166,"current_range_meters":10800,"station_id":"st_cvj6sg6p6f1abm77japg","pricing_plan_id":"cebpf4jnsgd1na2vs0mg"},{"bike_id":"61a84806-f053-4824-85f1-63bf9bd2027a","system_id":"levelo_inurba_marseille","lat":43.27382,"lon":5.36244,"is_reserved":false,"is_disabled":false,"rental_uris":{"android":"levelo://app?vid=61a84806-f053-4824-85f1-63bf9bd2027a","ios":"levelo://app?vid=61a84806-f053-4824-85f1-63bf9bd2027a"},"vehicle_type_id":"4","last_reported":1761398166,"current_range_meters":10800,"station_id":"ce4bhbh2rcd13ifvqeo0","pricing_plan_id":"cebpf4jnsgd1na2vs0mg"},{"bike_id":"2fa8e57b-e400-4898-83bc-c9dd4c795689","system_id":"levelo_inurba_marseille","lat":43.22929,"lon":5.35379,"is_reserved":false,"is_disabled":false,"rental_uris":{"android":"levelo://app?vid=2fa8e57b-e400-4898-83bc-c9dd4c795689","ios":"levelo://app?vid=2fa8e57b-e400-4898-83bc-c9dd4c795689"},"vehicle_type_id":"4","last_reported":1761398166,"current_range_meters":10800,"station_id":"cpo3532slgdg3j2ikp40","pricing_plan_id":"cebpf4jnsgd1na2vs0mg"},{"bike_id":"60464d6a-dce4-46d8-a3b5-32045f287f45","system_id":"levelo_inurba_marseille","lat":43.286695,"lon":5.363469,"is_reserved":false,"is_disabled":false,"rental_uris":{"android":"levelo://app?vid=60464d6a-dce4-46d8-a3b5-32045f287f45","ios":"levelo://app?vid=60464d6a-dce4-46d8-a3b5-32045f287f45"},"vehicle_type_id":"4","last_reported":1761398166,"current_range_meters":10800,"station_id":"ce4bhah2rcd13ifvqej0","pricing_plan_id":"cebpf4jnsgd1na2vs0mg"},{"bike_id":"b62556da-d4b8-44e8-b732-f39f4931080a","system_id":"levelo_inurba_marseille","lat":43.211934,"lon":5.350728,"is_reserved":false,"is_disabled":false,"rental_uris":{"android":"levelo://app?vid=b62556da-d4b8-44e8-b732-f39f4931080a","ios":"levelo://app?vid=b62556da-d4b8-44e8-b732-f39f4931080a"},"vehicle_type_id":"4","last_reported":1761398166,"current_range_meters":10800,"station_id":"","pricing_plan_id":"cebpf4jnsgd1na2vs0mg"},{"bike_id":"55ef718f-2678-4d74-b7a2-251b09394b1a","system_id":"levelo_inurba_marseille","lat":43.231519,"lon":5.355286,"is_reserved":false,"is_disabled":false,"rental_uris":{"android":"levelo://app?vid=55ef718f-2678-4d74-b7a2-251b09394b1a","ios":"levelo://app?vid=55ef718f-2678-4d74-b7a2-251b09394b1a"},"vehicle_type_id":"4","last_reported":1761398166,"current_range_meters":10800,"station_id":"ce4bhu92rcd13ifvqi70","pricing_plan_id":"cebpf4jnsgd1na2vs0mg"},{"bike_id":"9e79c2c7-3c7b-4d69-98c9-55ce28c83e08","system_id":"levelo_inurba_marseille","lat":43.278327,"lon":5.392039,"is_reserved":false,"is_disabled":false,"rental_uris":{"android":"levelo://app?vid=9e79c2c7-3c7b-4d69-98c9-55ce28c83e08","ios":"levelo://app?vid=9e79c2c7-3c7b-4d69-98c9-55ce28c83e08"},"vehicle_type_id":"4","last_reported":1761398166,"current_range_meters":10800,"station_id":"ce4bhjp2rcd13ifvqga0","pricing_plan_id":"cebpf4jnsgd1na2vs0mg"},{"bike_id":"9347abd8-385e-4049-b916-b2a3a4999431","system_id":"levelo_inurba_marseille","lat":43.307864,"lon":5.376409,"is_reserved":false,"is_disabled":false,"rental_uris":{"android":"levelo://app?vid=9347abd8-385e-4049-b916-b2a3a4999431","ios":"levelo://app?vid=9347abd8-385e-4049-b916-b2a3a4999431"},"vehicle_type_id":"4","last_reported":1761398166,"current_range_meters":10800,"station_id":"ce4bgv92rcd13ifvqcq0","pricing_plan_id":"cebpf4jnsgd1na2vs0mg"},{"bike_id":"0269b716-d5fc-44a7-9841-18d19d326102","system_id":"levelo_inurba_marseille","lat":43.269318,"lon":5.402555,"is_reserved":false,"is_disabled":false,"rental_uris":{"android":"levelo://app?vid=0269b716-d5fc-44a7-9841-18d19d326102","ios":"levelo://app?vid=0269b716-d5fc-44a7-9841-18d19d326102"},"vehicle_type_id":"4","last_reported":1761398166,"current_range_meters":11200,"station_id":"cjm6bp8fraef2m0cb0m0","pricing_plan_id":"cebpf4jnsgd1na2vs0mg"},{"bike_id":"75ca35d3-86f0-45ac-b44b-1b22b815c7cd","system_id":"levelo_inurba_marseille","lat":43.23046,"lon":5.35502,"is_reserved":false,"is_disabled":false,"rental_uris":{"android":"levelo://app?vid=75ca35d3-86f0-45ac-b44b-1b22b815c7cd","ios":"levelo://app?vid=75ca35d3-86f0-45ac-b44b-1b22b815c7cd"},"vehicle_type_id":"4","last_reported":1761398166,"current_range_meters":11200,"station_id":"cpo3342slgdg3j2ifvpg","pricing_plan_id":"cebpf4jnsgd1na2vs0mg"},{"bike_id":"e1f0e3ad-d27c-44d2-b751-a62567eb6927","system_id":"levelo_inurba_marseille","lat":43.2119,"lon":5.35072,"is_reserved":false,"is_disabled":false,"rental_uris":{"android":"levelo://app?vid=e1f0e3ad-d27c-44d2-b751-a62567eb6927","ios":"levelo://app?vid=e1f0e3ad-d27c-44d2-b751-a62567eb6927"},"vehicle_type_id":"4","last_reported":1761398166,"current_range_meters":11200,"station_id":"st_cvj6sg6p6f1abm77japg","pricing_plan_id":"cebpf4jnsgd1na2vs0mg"},{"bike_id":"47577cb7-1f24-4951-9306-b2f216078ff1","system_id":"levelo_inurba_marseille","lat":43.26206,"lon":5.37925,"is_reserved":false,"is_disabled":false,"rental_uris":{"android":"levelo://app?vid=47577cb7-1f24-4951-9306-b2f216078ff1","ios":"levelo://app?vid=47577cb7-1f24-4951-9306-b2f216078ff1"},"vehicle_type_id":"4","last_reported":1761398166,"current_range_meters":11200,"station_id":"ce4bhjp2rcd13ifvqg90","pricing_plan_id":"cebpf4jnsgd1na2vs0mg"},{"bike_id":"d0d97312-c0ce-4e35-b465-0113c6bd0b31","system_id":"levelo_inurba_marseille","lat":43.23967,"lon":5.366268,"is_reserved":false,"is_disabled":false,"rental_uris":{"android":"levelo://app?vid=d0d97312-c0ce-4e35-b465-0113c6bd0b31","ios":"levelo://app?vid=d0d97312-c0ce-4e35-b465-0113c6bd0b31"},"vehicle_type_id":"4","last_reported":1761398166,"current_range_meters":11200,"station_id":"","pricing_plan_id":"cebpf4jnsgd1na2vs0mg"},{"bike_id":"0f5e4a7f-442f-4f67-82bf-de5f99a87124","system_id":"levelo_inurba_marseille","lat":43.302923,"lon":5.392272,"is_reserved":false,"is_disabled":false,"rental_uris":{"android":"levelo://app?vid=0f5e4a7f-442f-4f67-82bf-de5f99a87124","ios":"levelo://app?vid=0f5e4a7f-442f-4f67-82bf-de5f99a87124"},"vehicle_type_id":"4","last_reported":1761398166,"current_range_meters":11600,"station_id":"ce4bgkh2rcd13ifvqbk0","pricing_plan_id":"cebpf4jnsgd1na2vs0mg"},{"bike_id":"5ec56ab5-917d-4b97-89bb-1fe543acf06f","system_id":"levelo_inurba_marseille","lat":43.29967,"lon":5.37163,"is_reserved":false,"is_disabled":false,"rental_uris":{"android":"levelo://app?vid=5ec56ab5-917d-4b97-89bb-1fe543acf06f","ios":"levelo://app?vid=5ec56ab5-917d-4b97-89bb-1fe543acf06f"},"vehicle_type_id":"4","last_reported":1761398166,"current_range_meters":11600,"station_id":"ce4bgr92rcd13ifvqc7g","pricing_plan_id":"cebpf4jnsgd1na2vs0mg"},{"bike_id":"c70a5567-5460-4c31-a070-7544e706941c","system_id":"levelo_inurba_marseille","lat":43.22558,"lon":5.41646,"is_reserved":false,"is_disabled":false,"rental_uris":{"android":"levelo://app?vid=c70a5567-5460-4c31-a070-7544e706941c","ios":"levelo://app?vid=c70a5567-5460-4c31-a070-7544e706941c"},"vehicle_type_id":"4","last_reported":1761398166,"current_range_meters":11600,"station_id":"st_d2o4gvlbi1j2169b742g","pricing_plan_id":"cebpf4jnsgd1na2vs0mg"},{"bike_id":"420b6971-47e2-4c67-8bd0-faa4f00e5ca7","system_id":"levelo_inurba_marseille","lat":43.299649,"lon":5.41319,"is_reserved":false,"is_disabled":false,"rental_uris":{"android":"levelo://app?vid=420b6971-47e2-4c67-8bd0-faa4f00e5ca7","ios":"levelo://app?vid=420b6971-47e2-4c67-8bd0-faa4f00e5ca7"},"vehicle_type_id":"4","last_reported":1761398166,"current_range_meters":12000,"station_id":"","pricing_plan_id":"cebpf4jnsgd1na2vs0mg"},{"bike_id":"72595d14-8f84-4de5-a9ab-f8151c131960","system_id":"levelo_inurba_marseille","lat":43.22915,"lon":5.35377,"is_reserved":false,"is_disabled":false,"rental_uris":{"android":"levelo://app?vid=72595d14-8f84-4de5-a9ab-f8151c131960","ios":"levelo://app?vid=72595d14-8f84-4de5-a9ab-f8151c131960"},"vehicle_type_id":"4","last_reported":1761398166,"current_range_meters":12000,"station_id":"cpo3532slgdg3j2ikp40","pricing_plan_id":"cebpf4jnsgd1na2vs0mg"},{"bike_id":"7b086008-94fa-409e-b878-5deebd3bfaed","system_id":"levelo_inurba_marseille","lat":43.28931,"lon":5.36653,"is_reserved":false,"is_disabled":false,"rental_uris":{"android":"levelo://app?vid=7b086008-94fa-409e-b878-5deebd3bfaed","ios":"levelo://app?vid=7b086008-94fa-409e-b878-5deebd3bfaed"},"vehicle_type_id":"4","last_reported":1761398166,"current_range_meters":12000,"station_id":"ce4bhap2rcd13ifvqek0","pricing_plan_id":"cebpf4jnsgd1na2vs0mg"},{"bike_id":"ffacf27c-4410-4828-a3dc-1df39fbf50df","system_id":"levelo_inurba_marseille","lat":43.289337,"lon":5.36637,"is_reserved":false,"is_disabled":false,"rental_uris":{"android":"levelo://app?vid=ffacf27c-4410-4828-a3dc-1df39fbf50df","ios":"levelo://app?vid=ffacf27c-4410-4828-a3dc-1df39fbf50df"},"vehicle_type_id":"4","last_reported":1761398166,"current_range_meters":12000,"station_id":"ce4bhap2rcd13ifvqek0","pricing_plan_id":"cebpf4jnsgd1na2vs0mg"},{"bike_id":"4f6d245d-0277-4f24-8760-3d192a819e3d","system_id":"levelo_inurba_marseille","lat":43.27188,"lon":5.40996,"is_reserved":false,"is_disabled":false,"rental_uris":{"android":"levelo://app?vid=4f6d245d-0277-4f24-8760-3d192a819e3d","ios":"levelo://app?vid=4f6d245d-0277-4f24-8760-3d192a819e3d"},"vehicle_type_id":"4","last_reported":1761398166,"current_range_meters":12000,"station_id":"ce4bhl12rcd13ifvqgf0","pricing_plan_id":"cebpf4jnsgd1na2vs0mg"},{"bike_id":"fa063608-29c2-42ab-95b5-2fc82231eea9","system_id":"levelo_inurba_marseille","lat":43.211831,"lon":5.350732,"is_reserved":false,"is_disabled":true,"rental_uris":{"android":"levelo://app?vid=fa063608-29c2-42ab-95b5-2fc82231eea9","ios":"levelo://app?vid=fa063608-29c2-42ab-95b5-2fc82231eea9"},"vehicle_type_id":"4","last_reported":1761398166,"current_range_meters":12000,"station_id":"st_cvj6sg6p6f1abm77japg","pricing_plan_id":"cebpf4jnsgd1na2vs0mg"},{"bike_id":"a953225c-2871-472b-ae37-779e4cb51ef8","system_id":"levelo_inurba_marseille","lat":43.21741,"lon":5.34612,"is_reserved":false,"is_disabled":false,"rental_uris":{"android":"levelo://app?vid=a953225c-2871-472b-ae37-779e4cb51ef8","ios":"levelo://app?vid=a953225c-2871-472b-ae37-779e4cb51ef8"},"vehicle_type_id":"4","last_reported":1761398166,"current_range_meters":12000,"station_id":"st_cvj6r9ubvosntc0bgbag","pricing_plan_id":"cebpf4jnsgd1na2vs0mg"},{"bike_id":"9d964ec4-c537-4f1d-b21c-451d3f46b1bf","system_id":"levelo_inurba_marseille","lat":43.29904,"lon":5.37813,"is_reserved":false,"is_disabled":false,"rental_uris":{"android":"levelo://app?vid=9d964ec4-c537-4f1d-b21c-451d3f46b1bf","ios":"levelo://app?vid=9d964ec4-c537-4f1d-b21c-451d3f46b1bf"},"vehicle_type_id":"4","last_reported":1761398166,"current_range_meters":12000,"station_id":"","pricing_plan_id":"cebpf4jnsgd1na2vs0mg"},{"bike_id":"5b2dac66-9c39-4a82-9950-f85524bca441","system_id":"levelo_inurba_marseille","lat":43.30321,"lon":5.40434,"is_reserved":false,"is_disabled":false,"rental_uris":{"android":"levelo://app?vid=5b2dac66-9c39-4a82-9950-f85524bca441","ios":"levelo://app?vid=5b2dac66-9c39-4a82-9950-f85524bca441"},"vehicle_type_id":"4","last_reported":1761398166,"current_range_meters":12000,"station_id":"ce4bh012rcd13ifvqd10","pricing_plan_id":"cebpf4jnsgd1na2vs0mg"},{"bike_id":"36f6cdca-552f-439a-8720-2ce7fbad2722","system_id":"levelo_inurba_marseille","lat":43.21182,"lon":5.35086,"is_reserved":false,"is_disabled":false,"rental_uris":{"android":"levelo://app?vid=36f6cdca-552f-439a-8720-2ce7fbad2722","ios":"levelo://app?vid=36f6cdca-552f-439a-8720-2ce7fbad2722"},"vehicle_type_id":"4","last_reported":1761398166,"current_range_meters":12400,"station_id":"st_cvj6sg6p6f1abm77japg","pricing_plan_id":"cebpf4jnsgd1na2vs0mg"},{"bike_id":"8be6a47c-9542-4fed-8109-f6d91a0f2b3f","system_id":"levelo_inurba_marseille","lat":43.29174,"lon":5.37161,"is_reserved":false,"is_disabled":false,"rental_uris":{"android":"levelo://app?vid=8be6a47c-9542-4fed-8109-f6d91a0f2b3f","ios":"levelo://app?vid=8be6a47c-9542-4fed-8109-f6d91a0f2b3f"},"vehicle_type_id":"4","last_reported":1761398166,"current_range_meters":12400,"station_id":"ce4bha92rcd13ifvqeh0","pricing_plan_id":"cebpf4jnsgd1na2vs0mg"},{"bike_id":"22310e80-2be2-4aa9-94d3-fa11dafe96ef","system_id":"levelo_inurba_marseille","lat":43.27965,"lon":5.38738,"is_reserved":false,"is_disabled":false,"rental_uris":{"android":"levelo://app?vid=22310e80-2be2-4aa9-94d3-fa11dafe96ef","ios":"levelo://app?vid=22310e80-2be2-4aa9-94d3-fa11dafe96ef"},"vehicle_type_id":"4","last_reported":1761398166,"current_range_meters":12800,"station_id":"ce4bhg12rcd13ifvqf80","pricing_plan_id":"cebpf4jnsgd1na2vs0mg"},{"bike_id":"f7db7657-9cb4-427c-93ab-3d33c4093170","system_id":"levelo_inurba_marseille","lat":43.30167,"lon":5.36609,"is_reserved":false,"is_disabled":false,"rental_uris":{"android":"levelo://app?vid=f7db7657-9cb4-427c-93ab-3d33c4093170","ios":"levelo://app?vid=f7db7657-9cb4-427c-93ab-3d33c4093170"},"vehicle_type_id":"4","last_reported":1761398166,"current_range_meters":12800,"station_id":"ce4bgrh2rcd13ifvqc8g","pricing_plan_id":"cebpf4jnsgd1na2vs0mg"},{"bike_id":"b9576062-df6d-4982-a756-657655663f64","system_id":"levelo_inurba_marseille","lat":43.299243,"lon":5.374714,"is_reserved":false,"is_disabled":false,"rental_uris":{"android":"levelo://app?vid=b9576062-df6d-4982-a756-657655663f64","ios":"levelo://app?vid=b9576062-df6d-4982-a756-657655663f64"},"vehicle_type_id":"4","last_reported":1761398166,"current_range_meters":12800,"station_id":"ce4bgjh2rcd13ifvqbg0","pricing_plan_id":"cebpf4jnsgd1na2vs0mg"},{"bike_id":"c1ec6389-49d8-45a2-bcc8-528b10f21d8f","system_id":"levelo_inurba_marseille","lat":43.28429,"lon":5.34996,"is_reserved":false,"is_disabled":false,"rental_uris":{"android":"levelo://app?vid=c1ec6389-49d8-45a2-bcc8-528b10f21d8f","ios":"levelo://app?vid=c1ec6389-49d8-45a2-bcc8-528b10f21d8f"},"vehicle_type_id":"4","last_reported":1761398166,"current_range_meters":12800,"station_id":"ce4bhbh2rcd13ifvqepg","pricing_plan_id":"cebpf4jnsgd1na2vs0mg"},{"bike_id":"1737550c-735c-4579-ae5d-dc36fe123929","system_id":"levelo_inurba_marseille","lat":43.28621,"lon":5.35091,"is_reserved":false,"is_disabled":false,"rental_uris":{"android":"levelo://app?vid=1737550c-735c-4579-ae5d-dc36fe123929","ios":"levelo://app?vid=1737550c-735c-4579-ae5d-dc36fe123929"},"vehicle_type_id":"4","last_reported":1761398166,"current_range_meters":13600,"station_id":"ce4bhch2rcd13ifvqeug","pricing_plan_id":"cebpf4jnsgd1na2vs0mg"},{"bike_id":"43117888-69d1-4bc6-a73a-697554e4a08e","system_id":"levelo_inurba_marseille","lat":43.25257,"lon":5.37812,"is_reserved":false,"is_disabled":false,"rental_uris":{"android":"levelo://app?vid=43117888-69d1-4bc6-a73a-697554e4a08e","ios":"levelo://app?vid=43117888-69d1-4bc6-a73a-697554e4a08e"},"vehicle_type_id":"4","last_reported":1761398166,"current_range_meters":13600,"station_id":"","pricing_plan_id":"cebpf4jnsgd1na2vs0mg"},{"bike_id":"5743ab27-5dc0-4cc4-b60b-f531610ac672","system_id":"levelo_inurba_marseille","lat":43.27322,"lon":5.3909,"is_reserved":false,"is_disabled":false,"rental_uris":{"android":"levelo://app?vid=5743ab27-5dc0-4cc4-b60b-f531610ac672","ios":"levelo://app?vid=5743ab27-5dc0-4cc4-b60b-f531610ac672"},"vehicle_type_id":"4","last_reported":1761398166,"current_range_meters":13600,"station_id":"ce4bhgp2rcd13ifvqfe0","pricing_plan_id":"cebpf4jnsgd1na2vs0mg"},{"bike_id":"bdb8e760-aada-4331-b72b-c54ef49bfa82","system_id":"levelo_inurba_marseille","lat":43.21726,"lon":5.34616,"is_reserved":false,"is_disabled":false,"rental_uris":{"android":"levelo://app?vid=bdb8e760-aada-4331-b72b-c54ef49bfa82","ios":"levelo://app?vid=bdb8e760-aada-4331-b72b-c54ef49bfa82"},"vehicle_type_id":"4","last_reported":1761398166,"current_range_meters":13600,"station_id":"st_cvj6r9ubvosntc0bgbag","pricing_plan_id":"cebpf4jnsgd1na2vs0mg"},{"bike_id":"59e0e55d-ae93-4c8a-989c-120e6e17d539","system_id":"levelo_inurba_marseille","lat":43.232084,"lon":5.355757,"is_reserved":false,"is_disabled":false,"rental_uris":{"android":"levelo://app?vid=59e0e55d-ae93-4c8a-989c-120e6e17d539","ios":"levelo://app?vid=59e0e55d-ae93-4c8a-989c-120e6e17d539"},"vehicle_type_id":"4","last_reported":1761398166,"current_range_meters":14000,"station_id":"","pricing_plan_id":"cebpf4jnsgd1na2vs0mg"},{"bike_id":"3310615f-aea1-494c-b320-aea612b2bbb0","system_id":"levelo_inurba_marseille","lat":43.24168,"lon":5.36397,"is_reserved":false,"is_disabled":false,"rental_uris":{"android":"levelo://app?vid=3310615f-aea1-494c-b320-aea612b2bbb0","ios":"levelo://app?vid=3310615f-aea1-494c-b320-aea612b2bbb0"},"vehicle_type_id":"4","last_reported":1761398166,"current_range_meters":14000,"station_id":"cpo36qri1sfpv3e86is0","pricing_plan_id":"cebpf4jnsgd1na2vs0mg"},{"bike_id":"8e92164c-deff-4fbd-9f4e-43ff81933572","system_id":"levelo_inurba_marseille","lat":43.29822,"lon":5.42022,"is_reserved":false,"is_disabled":false,"rental_uris":{"android":"levelo://app?vid=8e92164c-deff-4fbd-9f4e-43ff81933572","ios":"levelo://app?vid=8e92164c-deff-4fbd-9f4e-43ff81933572"},"vehicle_type_id":"4","last_reported":1761398166,"current_range_meters":14000,"station_id":"","pricing_plan_id":"cebpf4jnsgd1na2vs0mg"},{"bike_id":"3dd5840e-452f-4cdc-8e22-6d6a992991bd","system_id":"levelo_inurba_marseille","lat":43.303169,"lon":5.403045,"is_reserved":false,"is_disabled":false,"rental_uris":{"android":"levelo://app?vid=3dd5840e-452f-4cdc-8e22-6d6a992991bd","ios":"levelo://app?vid=3dd5840e-452f-4cdc-8e22-6d6a992991bd"},"vehicle_type_id":"4","last_reported":1761398166,"current_range_meters":14000,"station_id":"ce4bh012rcd13ifvqd10","pricing_plan_id":"cebpf4jnsgd1na2vs0mg"},{"bike_id":"f1fd0c54-e78e-4b6a-afe5-10f512f0cfba","system_id":"levelo_inurba_marseille","lat":43.27423,"lon":5.39429,"is_reserved":false,"is_disabled":false,"rental_uris":{"android":"levelo://app?vid=f1fd0c54-e78e-4b6a-afe5-10f512f0cfba","ios":"levelo://app?vid=f1fd0c54-e78e-4b6a-afe5-10f512f0cfba"},"vehicle_type_id":"4","last_reported":1761398166,"current_range_meters":14000,"station_id":"ce4bhdp2rcd13ifvqf20","pricing_plan_id":"cebpf4jnsgd1na2vs0mg"},{"bike_id":"1b52722f-4633-44e4-a824-ac285a93ba1e","system_id":"levelo_inurba_marseille","lat":43.27214,"lon":5.39176,"is_reserved":false,"is_disabled":false,"rental_uris":{"android":"levelo://app?vid=1b52722f-4633-44e4-a824-ac285a93ba1e","ios":"levelo://app?vid=1b52722f-4633-44e4-a824-ac285a93ba1e"},"vehicle_type_id":"4","last_reported":1761398166,"current_range_meters":14400,"station_id":"ce4bhhp2rcd13ifvqfm0","pricing_plan_id":"cebpf4jnsgd1na2vs0mg"},{"bike_id":"5dd7b59e-49e3-4339-a9d2-399fd79e8208","system_id":"levelo_inurba_marseille","lat":43.21739,"lon":5.34609,"is_reserved":false,"is_disabled":false,"rental_uris":{"android":"levelo://app?vid=5dd7b59e-49e3-4339-a9d2-399fd79e8208","ios":"levelo://app?vid=5dd7b59e-49e3-4339-a9d2-399fd79e8208"},"vehicle_type_id":"4","last_reported":1761398166,"current_range_meters":14400,"station_id":"st_cvj6r9ubvosntc0bgbag","pricing_plan_id":"cebpf4jnsgd1na2vs0mg"},{"bike_id":"9fa34d90-15fe-41c0-89ab-ffda3dbbb4f3","system_id":"levelo_inurba_marseille","lat":43.211909,"lon":5.350693,"is_reserved":false,"is_disabled":false,"rental_uris":{"android":"levelo://app?vid=9fa34d90-15fe-41c0-89ab-ffda3dbbb4f3","ios":"levelo://app?vid=9fa34d90-15fe-41c0-89ab-ffda3dbbb4f3"},"vehicle_type_id":"4","last_reported":1761398166,"current_range_meters":14400,"station_id":"ce4bhbh2rcd13ifvqepg","pricing_plan_id":"cebpf4jnsgd1na2vs0mg"},{"bike_id":"6a322503-c328-4f09-908a-a859c60f5299","system_id":"levelo_inurba_marseille","lat":43.292675,"lon":5.3685,"is_reserved":false,"is_disabled":false,"rental_uris":{"android":"levelo://app?vid=6a322503-c328-4f09-908a-a859c60f5299","ios":"levelo://app?vid=6a322503-c328-4f09-908a-a859c60f5299"},"vehicle_type_id":"4","last_reported":1761398166,"current_range_meters":14400,"station_id":"","pricing_plan_id":"cebpf4jnsgd1na2vs0mg"},{"bike_id":"ef5fd7cf-4a47-48ab-bea5-e343174df9a6","system_id":"levelo_inurba_marseille","lat":43.28369,"lon":5.38642,"is_reserved":false,"is_disabled":false,"rental_uris":{"android":"levelo://app?vid=ef5fd7cf-4a47-48ab-bea5-e343174df9a6","ios":"levelo://app?vid=ef5fd7cf-4a47-48ab-bea5-e343174df9a6"},"vehicle_type_id":"4","last_reported":1761398166,"current_range_meters":14400,"station_id":"ce4bh492rcd13ifvqdvg","pricing_plan_id":"cebpf4jnsgd1na2vs0mg"},{"bike_id":"01551ae5-f32c-4ffd-b0df-e87c0effa6cb","system_id":"levelo_inurba_marseille","lat":43.24802,"lon":5.37453,"is_reserved":false,"is_disabled":false,"rental_uris":{"android":"levelo://app?vid=01551ae5-f32c-4ffd-b0df-e87c0effa6cb","ios":"levelo://app?vid=01551ae5-f32c-4ffd-b0df-e87c0effa6cb"},"vehicle_type_id":"4","last_reported":1761398166,"current_range_meters":14400,"station_id":"ce4bhgh2rcd13ifvqfb0","pricing_plan_id":"cebpf4jnsgd1na2vs0mg"},{"bike_id":"fc89677d-6cb8-4218-af2a-c67ff40a28ce","system_id":"levelo_inurba_marseille","lat":43.28411,"lon":5.34992,"is_reserved":false,"is_disabled":false,"rental_uris":{"android":"levelo://app?vid=fc89677d-6cb8-4218-af2a-c67ff40a28ce","ios":"levelo://app?vid=fc89677d-6cb8-4218-af2a-c67ff40a28ce"},"vehicle_type_id":"4","last_reported":1761398166,"current_range_meters":14400,"station_id":"ce4bhbh2rcd13ifvqepg","pricing_plan_id":"cebpf4jnsgd1na2vs0mg"},{"bike_id":"76f93d09-72c3-4935-8f20-3a444a5f785f","system_id":"levelo_inurba_marseille","lat":43.29033,"lon":5.3864,"is_reserved":false,"is_disabled":false,"rental_uris":{"android":"levelo://app?vid=76f93d09-72c3-4935-8f20-3a444a5f785f","ios":"levelo://app?vid=76f93d09-72c3-4935-8f20-3a444a5f785f"},"vehicle_type_id":"4","last_reported":1761398166,"current_range_meters":14400,"station_id":"ce4bh4p2rcd13ifvqe0g","pricing_plan_id":"cebpf4jnsgd1na2vs0mg"},{"bike_id":"dab36927-4328-48fa-bffb-145a737de07e","system_id":"levelo_inurba_marseille","lat":43.30757,"lon":5.43505,"is_reserved":false,"is_disabled":true,"rental_uris":{"android":"levelo://app?vid=dab36927-4328-48fa-bffb-145a737de07e","ios":"levelo://app?vid=dab36927-4328-48fa-bffb-145a737de07e"},"vehicle_type_id":"4","last_reported":1761398166,"current_range_meters":14800,"station_id":"","pricing_plan_id":"cebpf4jnsgd1na2vs0mg"},{"bike_id":"8c35a7e4-8378-4fdf-b42f-02e88b6199ca","system_id":"levelo_inurba_marseille","lat":43.32127,"lon":5.36753,"is_reserved":false,"is_disabled":false,"rental_uris":{"android":"levelo://app?vid=8c35a7e4-8378-4fdf-b42f-02e88b6199ca","ios":"levelo://app?vid=8c35a7e4-8378-4fdf-b42f-02e88b6199ca"},"vehicle_type_id":"4","last_reported":1761398166,"current_range_meters":14800,"station_id":"ce4bhrh2rcd13ifvqhug","pricing_plan_id":"cebpf4jnsgd1na2vs0mg"},{"bike_id":"2b07dbd5-8741-4147-a30f-d7c2c85a4db8","system_id":"levelo_inurba_marseille","lat":43.237842,"lon":5.366216,"is_reserved":false,"is_disabled":false,"rental_uris":{"android":"levelo://app?vid=2b07dbd5-8741-4147-a30f-d7c2c85a4db8","ios":"levelo://app?vid=2b07dbd5-8741-4147-a30f-d7c2c85a4db8"},"vehicle_type_id":"4","last_reported":1761398166,"current_range_meters":15200,"station_id":"st_d3nk18o9ro0c73en2l3g","pricing_plan_id":"cebpf4jnsgd1na2vs0mg"},{"bike_id":"8e1001bf-14bf-4add-9e80-532070c873ea","system_id":"levelo_inurba_marseille","lat":43.25581,"lon":5.38249,"is_reserved":false,"is_disabled":false,"rental_uris":{"android":"levelo://app?vid=8e1001bf-14bf-4add-9e80-532070c873ea","ios":"levelo://app?vid=8e1001bf-14bf-4add-9e80-532070c873ea"},"vehicle_type_id":"4","last_reported":1761398166,"current_range_meters":15200,"station_id":"ce4bhih2rcd13ifvqfs0","pricing_plan_id":"cebpf4jnsgd1na2vs0mg"},{"bike_id":"14047674-2d62-4bc0-90f6-3332087f2dbc","system_id":"levelo_inurba_marseille","lat":43.27566,"lon":5.38424,"is_reserved":false,"is_disabled":false,"rental_uris":{"android":"levelo://app?vid=14047674-2d62-4bc0-90f6-3332087f2dbc","ios":"levelo://app?vid=14047674-2d62-4bc0-90f6-3332087f2dbc"},"vehicle_type_id":"4","last_reported":1761398166,"current_range_meters":15200,"station_id":"ce4bhh92rcd13ifvqfi0","pricing_plan_id":"cebpf4jnsgd1na2vs0mg"},{"bike_id":"1bab0008-fda4-43ca-b92c-4f7c02cbdf7a","system_id":"levelo_inurba_marseille","lat":43.29896,"lon":5.43669,"is_reserved":false,"is_disabled":false,"rental_uris":{"android":"levelo://app?vid=1bab0008-fda4-43ca-b92c-4f7c02cbdf7a","ios":"levelo://app?vid=1bab0008-fda4-43ca-b92c-4f7c02cbdf7a"},"vehicle_type_id":"4","last_reported":1761398166,"current_range_meters":15200,"station_id":"ce4bhpp2rcd13ifvqhfg","pricing_plan_id":"cebpf4jnsgd1na2vs0mg"},{"bike_id":"84c46d3f-272a-4cd4-9d5a-802b902d719d","system_id":"levelo_inurba_marseille","lat":43.23962,"lon":5.36629,"is_reserved":false,"is_disabled":false,"rental_uris":{"android":"levelo://app?vid=84c46d3f-272a-4cd4-9d5a-802b902d719d","ios":"levelo://app?vid=84c46d3f-272a-4cd4-9d5a-802b902d719d"},"vehicle_type_id":"4","last_reported":1761398166,"current_range_meters":15200,"station_id":"ce4bhi12rcd13ifvqfp0","pricing_plan_id":"cebpf4jnsgd1na2vs0mg"},{"bike_id":"17f2043e-9cf4-48a9-8f9c-5640a818ee14","system_id":"levelo_inurba_marseille","lat":43.26582,"lon":5.3901,"is_reserved":false,"is_disabled":false,"rental_uris":{"android":"levelo://app?vid=17f2043e-9cf4-48a9-8f9c-5640a818ee14","ios":"levelo://app?vid=17f2043e-9cf4-48a9-8f9c-5640a818ee14"},"vehicle_type_id":"4","last_reported":1761398166,"current_range_meters":15200,"station_id":"ce4bhe12rcd13ifvqf30","pricing_plan_id":"cebpf4jnsgd1na2vs0mg"},{"bike_id":"6535a897-cfb3-4b0b-973c-47c645c17be2","system_id":"levelo_inurba_marseille","lat":43.23185,"lon":5.39994,"is_reserved":false,"is_disabled":false,"rental_uris":{"android":"levelo://app?vid=6535a897-cfb3-4b0b-973c-47c645c17be2","ios":"levelo://app?vid=6535a897-cfb3-4b0b-973c-47c645c17be2"},"vehicle_type_id":"4","last_reported":1761398166,"current_range_meters":15200,"station_id":"ce4bhn12rcd13ifvqgqg","pricing_plan_id":"cebpf4jnsgd1na2vs0mg"},{"bike_id":"e37834d8-76dc-4f52-a8e2-80cc754eaa1f","system_id":"levelo_inurba_marseille","lat":43.28274,"lon":5.35074,"is_reserved":false,"is_disabled":false,"rental_uris":{"android":"levelo://app?vid=e37834d8-76dc-4f52-a8e2-80cc754eaa1f","ios":"levelo://app?vid=e37834d8-76dc-4f52-a8e2-80cc754eaa1f"},"vehicle_type_id":"4","last_reported":1761398166,"current_range_meters":16000,"station_id":"ce4bhbp2rcd13ifvqerg","pricing_plan_id":"cebpf4jnsgd1na2vs0mg"},{"bike_id":"a3259590-f3eb-4688-8b42-4bbfef069116","system_id":"levelo_inurba_marseille","lat":43.217428,"lon":5.346106,"is_reserved":false,"is_disabled":false,"rental_uris":{"android":"levelo://app?vid=a3259590-f3eb-4688-8b42-4bbfef069116","ios":"levelo://app?vid=a3259590-f3eb-4688-8b42-4bbfef069116"},"vehicle_type_id":"4","last_reported":1761398166,"current_range_meters":16000,"station_id":"","pricing_plan_id":"cebpf4jnsgd1na2vs0mg"},{"bike_id":"7dbaf404-f9c5-4c6e-a3cb-10df92e588f5","system_id":"levelo_inurba_marseille","lat":43.21199,"lon":5.35063,"is_reserved":false,"is_disabled":false,"rental_uris":{"android":"levelo://app?vid=7dbaf404-f9c5-4c6e-a3cb-10df92e588f5","ios":"levelo://app?vid=7dbaf404-f9c5-4c6e-a3cb-10df92e588f5"},"vehicle_type_id":"4","last_reported":1761398166,"current_range_meters":16000,"station_id":"st_cvj6sg6p6f1abm77japg","pricing_plan_id":"cebpf4jnsgd1na2vs0mg"},{"bike_id":"446b3e8c-2ecc-4726-8d03-d4adb9541d59","system_id":"levelo_inurba_marseille","lat":43.21728,"lon":5.34621,"is_reserved":false,"is_disabled":false,"rental_uris":{"android":"levelo://app?vid=446b3e8c-2ecc-4726-8d03-d4adb9541d59","ios":"levelo://app?vid=446b3e8c-2ecc-4726-8d03-d4adb9541d59"},"vehicle_type_id":"4","last_reported":1761398166,"current_range_meters":16000,"station_id":"st_cvj6r9ubvosntc0bgbag","pricing_plan_id":"cebpf4jnsgd1na2vs0mg"},{"bike_id":"4e7a3a2a-d050-47c7-bc4a-b406389877c5","system_id":"levelo_inurba_marseille","lat":43.246275,"lon":5.431513,"is_reserved":false,"is_disabled":false,"rental_uris":{"android":"levelo://app?vid=4e7a3a2a-d050-47c7-bc4a-b406389877c5","ios":"levelo://app?vid=4e7a3a2a-d050-47c7-bc4a-b406389877c5"},"vehicle_type_id":"4","last_reported":1761398166,"current_range_meters":16400,"station_id":"st_d2m6c4gdas8pm72e190g","pricing_plan_id":"cebpf4jnsgd1na2vs0mg"},{"bike_id":"51f6b392-8d0d-41b5-9bf6-76a949608beb","system_id":"levelo_inurba_marseille","lat":43.2534,"lon":5.42175,"is_reserved":false,"is_disabled":false,"rental_uris":{"android":"levelo://app?vid=51f6b392-8d0d-41b5-9bf6-76a949608beb","ios":"levelo://app?vid=51f6b392-8d0d-41b5-9bf6-76a949608beb"},"vehicle_type_id":"4","last_reported":1761398166,"current_range_meters":16400,"station_id":"st_d2m65c5bi1j21697t3ng","pricing_plan_id":"cebpf4jnsgd1na2vs0mg"},{"bike_id":"609056b7-31e0-4e22-8f5a-2042e113cd4e","system_id":"levelo_inurba_marseille","lat":43.26482,"lon":5.39549,"is_reserved":false,"is_disabled":true,"rental_uris":{"android":"levelo://app?vid=609056b7-31e0-4e22-8f5a-2042e113cd4e","ios":"levelo://app?vid=609056b7-31e0-4e22-8f5a-2042e113cd4e"},"vehicle_type_id":"4","last_reported":1761398166,"current_range_meters":16400,"station_id":"ce4bhi12rcd13ifvqfq0","pricing_plan_id":"cebpf4jnsgd1na2vs0mg"},{"bike_id":"9f7602e4-6675-4ee2-97a5-9291c3ff170b","system_id":"levelo_inurba_marseille","lat":43.29535,"lon":5.38552,"is_reserved":false,"is_disabled":false,"rental_uris":{"android":"levelo://app?vid=9f7602e4-6675-4ee2-97a5-9291c3ff170b","ios":"levelo://app?vid=9f7602e4-6675-4ee2-97a5-9291c3ff170b"},"vehicle_type_id":"4","last_reported":1761398166,"current_range_meters":16400,"station_id":"ce4bgih2rcd13ifvqba0","pricing_plan_id":"cebpf4jnsgd1na2vs0mg"},{"bike_id":"d599cb6e-fa9f-4cf2-836a-8982e8153bc5","system_id":"levelo_inurba_marseille","lat":43.24655,"lon":5.38147,"is_reserved":false,"is_disabled":false,"rental_uris":{"android":"levelo://app?vid=d599cb6e-fa9f-4cf2-836a-8982e8153bc5","ios":"levelo://app?vid=d599cb6e-fa9f-4cf2-836a-8982e8153bc5"},"vehicle_type_id":"4","last_reported":1761398166,"current_range_meters":16400,"station_id":"ce4bhih2rcd13ifvqfr0","pricing_plan_id":"cebpf4jnsgd1na2vs0mg"},{"bike_id":"ec5e8532-4f30-4bed-a12e-445a2cbe95e0","system_id":"levelo_inurba_marseille","lat":43.29829,"lon":5.36286,"is_reserved":false,"is_disabled":false,"rental_uris":{"android":"levelo://app?vid=ec5e8532-4f30-4bed-a12e-445a2cbe95e0","ios":"levelo://app?vid=ec5e8532-4f30-4bed-a12e-445a2cbe95e0"},"vehicle_type_id":"4","last_reported":1761398166,"current_range_meters":16400,"station_id":"ce4bgpp2rcd13ifvqc3g","pricing_plan_id":"cebpf4jnsgd1na2vs0mg"},{"bike_id":"d3145067-3ca0-4e72-b01a-ef78c0959aad","system_id":"levelo_inurba_marseille","lat":43.30245,"lon":5.40072,"is_reserved":false,"is_disabled":true,"rental_uris":{"android":"levelo://app?vid=d3145067-3ca0-4e72-b01a-ef78c0959aad","ios":"levelo://app?vid=d3145067-3ca0-4e72-b01a-ef78c0959aad"},"vehicle_type_id":"4","last_reported":1761398166,"current_range_meters":16400,"station_id":"ce4bgvh2rcd13ifvqcs0","pricing_plan_id":"cebpf4jnsgd1na2vs0mg"},{"bike_id":"62afb220-efd8-4079-a48c-c0177694363d","system_id":"levelo_inurba_marseille","lat":43.28153,"lon":5.42646,"is_reserved":false,"is_disabled":false,"rental_uris":{"android":"levelo://app?vid=62afb220-efd8-4079-a48c-c0177694363d","ios":"levelo://app?vid=62afb220-efd8-4079-a48c-c0177694363d"},"vehicle_type_id":"4","last_reported":1761398166,"current_range_meters":16800,"station_id":"ce4bhnh2rcd13ifvqgug","pricing_plan_id":"cebpf4jnsgd1na2vs0mg"},{"bike_id":"40fed290-3dea-4c73-bf2e-af05de8161fd","system_id":"levelo_inurba_marseille","lat":43.32111,"lon":5.36746,"is_reserved":false,"is_disabled":false,"rental_uris":{"android":"levelo://app?vid=40fed290-3dea-4c73-bf2e-af05de8161fd","ios":"levelo://app?vid=40fed290-3dea-4c73-bf2e-af05de8161fd"},"vehicle_type_id":"4","last_reported":1761398166,"current_range_meters":16800,"station_id":"ce4bhrh2rcd13ifvqhug","pricing_plan_id":"cebpf4jnsgd1na2vs0mg"},{"bike_id":"79acc5ae-1f2e-4766-8068-80d5e38bc62b","system_id":"levelo_inurba_marseille","lat":43.23046,"lon":5.35506,"is_reserved":false,"is_disabled":false,"rental_uris":{"android":"levelo://app?vid=79acc5ae-1f2e-4766-8068-80d5e38bc62b","ios":"levelo://app?vid=79acc5ae-1f2e-4766-8068-80d5e38bc62b"},"vehicle_type_id":"4","last_reported":1761398166,"current_range_meters":16800,"station_id":"cpo3342slgdg3j2ifvpg","pricing_plan_id":"cebpf4jnsgd1na2vs0mg"},{"bike_id":"af9e12e7-38b8-459b-8665-a09998ee41f3","system_id":"levelo_inurba_marseille","lat":43.24649,"lon":5.38893,"is_reserved":false,"is_disabled":false,"rental_uris":{"android":"levelo://app?vid=af9e12e7-38b8-459b-8665-a09998ee41f3","ios":"levelo://app?vid=af9e12e7-38b8-459b-8665-a09998ee41f3"},"vehicle_type_id":"4","last_reported":1761398166,"current_range_meters":17200,"station_id":"ce4bhg12rcd13ifvqf60","pricing_plan_id":"cebpf4jnsgd1na2vs0mg"},{"bike_id":"a6f0ed19-8042-4fbc-83cb-73ce2f11e459","system_id":"levelo_inurba_marseille","lat":43.32077,"lon":5.36783,"is_reserved":false,"is_disabled":false,"rental_uris":{"android":"levelo://app?vid=a6f0ed19-8042-4fbc-83cb-73ce2f11e459","ios":"levelo://app?vid=a6f0ed19-8042-4fbc-83cb-73ce2f11e459"},"vehicle_type_id":"4","last_reported":1761398166,"current_range_meters":17200,"station_id":"ce4bhrh2rcd13ifvqhug","pricing_plan_id":"cebpf4jnsgd1na2vs0mg"},{"bike_id":"7ffa6b7f-030c-4147-9b3b-d5942785b435","system_id":"levelo_inurba_marseille","lat":43.2927,"lon":5.37443,"is_reserved":false,"is_disabled":false,"rental_uris":{"android":"levelo://app?vid=7ffa6b7f-030c-4147-9b3b-d5942785b435","ios":"levelo://app?vid=7ffa6b7f-030c-4147-9b3b-d5942785b435"},"vehicle_type_id":"4","last_reported":1761398166,"current_range_meters":17200,"station_id":"ce4bgi12rcd13ifvqb70","pricing_plan_id":"cebpf4jnsgd1na2vs0mg"},{"bike_id":"b0c89232-e695-4b28-aa57-7a60700a97a3","system_id":"levelo_inurba_marseille","lat":43.2481,"lon":5.3746,"is_reserved":false,"is_disabled":false,"rental_uris":{"android":"levelo://app?vid=b0c89232-e695-4b28-aa57-7a60700a97a3","ios":"levelo://app?vid=b0c89232-e695-4b28-aa57-7a60700a97a3"},"vehicle_type_id":"4","last_reported":1761398166,"current_range_meters":17200,"station_id":"ce4bhgh2rcd13ifvqfb0","pricing_plan_id":"cebpf4jnsgd1na2vs0mg"},{"bike_id":"de4c9d67-aa03-439a-a821-c7b9a613d790","system_id":"levelo_inurba_marseille","lat":43.21186,"lon":5.35059,"is_reserved":false,"is_disabled":false,"rental_uris":{"android":"levelo://app?vid=de4c9d67-aa03-439a-a821-c7b9a613d790","ios":"levelo://app?vid=de4c9d67-aa03-439a-a821-c7b9a613d790"},"vehicle_type_id":"4","last_reported":1761398166,"current_range_meters":17200,"station_id":"st_cvj6sg6p6f1abm77japg","pricing_plan_id":"cebpf4jnsgd1na2vs0mg"},{"bike_id":"4af49ae3-cc8c-4247-93ba-824bdbd5f42a","system_id":"levelo_inurba_marseille","lat":43.23147,"lon":5.43714,"is_reserved":false,"is_disabled":false,"rental_uris":{"android":"levelo://app?vid=4af49ae3-cc8c-4247-93ba-824bdbd5f42a","ios":"levelo://app?vid=4af49ae3-cc8c-4247-93ba-824bdbd5f42a"},"vehicle_type_id":"4","last_reported":1761398166,"current_range_meters":17200,"station_id":"ce4bhmp2rcd13ifvqgog","pricing_plan_id":"cebpf4jnsgd1na2vs0mg"},{"bike_id":"c0b81f28-bbba-4247-a74b-c55a34b31846","system_id":"levelo_inurba_marseille","lat":43.33258,"lon":5.41086,"is_reserved":false,"is_disabled":false,"rental_uris":{"android":"levelo://app?vid=c0b81f28-bbba-4247-a74b-c55a34b31846","ios":"levelo://app?vid=c0b81f28-bbba-4247-a74b-c55a34b31846"},"vehicle_type_id":"4","last_reported":1761398166,"current_range_meters":17600,"station_id":"","pricing_plan_id":"cebpf4jnsgd1na2vs0mg"},{"bike_id":"29b38a45-3e07-40c1-b8b1-5f85b487711f","system_id":"levelo_inurba_marseille","lat":43.312415,"lon":5.40399,"is_reserved":false,"is_disabled":false,"rental_uris":{"android":"levelo://app?vid=29b38a45-3e07-40c1-b8b1-5f85b487711f","ios":"levelo://app?vid=29b38a45-3e07-40c1-b8b1-5f85b487711f"},"vehicle_type_id":"4","last_reported":1761398166,"current_range_meters":17600,"station_id":"","pricing_plan_id":"cebpf4jnsgd1na2vs0mg"},{"bike_id":"4a42f22c-445b-4ce6-b132-d065e0b8ed33","system_id":"levelo_inurba_marseille","lat":43.311295,"lon":5.386874,"is_reserved":false,"is_disabled":false,"rental_uris":{"android":"levelo://app?vid=4a42f22c-445b-4ce6-b132-d065e0b8ed33","ios":"levelo://app?vid=4a42f22c-445b-4ce6-b132-d065e0b8ed33"},"vehicle_type_id":"4","last_reported":1761398166,"current_range_meters":17600,"station_id":"ce4bgv12rcd13ifvqcp0","pricing_plan_id":"cebpf4jnsgd1na2vs0mg"},{"bike_id":"74546168-aafc-4fc6-824e-fd7787db6ac1","system_id":"levelo_inurba_marseille","lat":43.22921,"lon":5.35374,"is_reserved":false,"is_disabled":false,"rental_uris":{"android":"levelo://app?vid=74546168-aafc-4fc6-824e-fd7787db6ac1","ios":"levelo://app?vid=74546168-aafc-4fc6-824e-fd7787db6ac1"},"vehicle_type_id":"4","last_reported":1761398166,"current_range_meters":17600,"station_id":"cpo3532slgdg3j2ikp40","pricing_plan_id":"cebpf4jnsgd1na2vs0mg"},{"bike_id":"0709183c-7ab6-4f8e-b9cb-64ddb2606b7f","system_id":"levelo_inurba_marseille","lat":43.27058,"lon":5.40262,"is_reserved":false,"is_disabled":false,"rental_uris":{"android":"levelo://app?vid=0709183c-7ab6-4f8e-b9cb-64ddb2606b7f","ios":"levelo://app?vid=0709183c-7ab6-4f8e-b9cb-64ddb2606b7f"},"vehicle_type_id":"4","last_reported":1761398166,"current_range_meters":17600,"station_id":"ce4bhk92rcd13ifvqgc0","pricing_plan_id":"cebpf4jnsgd1na2vs0mg"},{"bike_id":"582dfa3f-e2f9-4b57-9fe3-9f6490817e4a","system_id":"levelo_inurba_marseille","lat":43.2983,"lon":5.36282,"is_reserved":false,"is_disabled":false,"rental_uris":{"android":"levelo://app?vid=582dfa3f-e2f9-4b57-9fe3-9f6490817e4a","ios":"levelo://app?vid=582dfa3f-e2f9-4b57-9fe3-9f6490817e4a"},"vehicle_type_id":"4","last_reported":1761398166,"current_range_meters":17600,"station_id":"ce4bgpp2rcd13ifvqc3g","pricing_plan_id":"cebpf4jnsgd1na2vs0mg"},{"bike_id":"6062a3f2-f21e-4185-a1e8-00a9ac7fe6bb","system_id":"levelo_inurba_marseille","lat":43.29637,"lon":5.40596,"is_reserved":false,"is_disabled":false,"rental_uris":{"android":"levelo://app?vid=6062a3f2-f21e-4185-a1e8-00a9ac7fe6bb","ios":"levelo://app?vid=6062a3f2-f21e-4185-a1e8-00a9ac7fe6bb"},"vehicle_type_id":"4","last_reported":1761398166,"current_range_meters":17600,"station_id":"ce4bh0h2rcd13ifvqd60","pricing_plan_id":"cebpf4jnsgd1na2vs0mg"},{"bike_id":"b47ef30d-4230-43d2-b013-0841bd2116c9","system_id":"levelo_inurba_marseille","lat":43.23775,"lon":5.36635,"is_reserved":false,"is_disabled":false,"rental_uris":{"android":"levelo://app?vid=b47ef30d-4230-43d2-b013-0841bd2116c9","ios":"levelo://app?vid=b47ef30d-4230-43d2-b013-0841bd2116c9"},"vehicle_type_id":"4","last_reported":1761398166,"current_range_meters":17600,"station_id":"st_d3nk18o9ro0c73en2l3g","pricing_plan_id":"cebpf4jnsgd1na2vs0mg"},{"bike_id":"e4746a2d-9cd3-46c8-bf0e-3a10fdb16ced","system_id":"levelo_inurba_marseille","lat":43.32365,"lon":5.36771,"is_reserved":false,"is_disabled":false,"rental_uris":{"android":"levelo://app?vid=e4746a2d-9cd3-46c8-bf0e-3a10fdb16ced","ios":"levelo://app?vid=e4746a2d-9cd3-46c8-bf0e-3a10fdb16ced"},"vehicle_type_id":"4","last_reported":1761398166,"current_range_meters":17600,"station_id":"ce4bhsh2rcd13ifvqi2g","pricing_plan_id":"cebpf4jnsgd1na2vs0mg"},{"bike_id":"e0be5de7-28ef-42a3-aada-aa9c424d697a","system_id":"levelo_inurba_marseille","lat":43.27375,"lon":5.36255,"is_reserved":false,"is_disabled":false,"rental_uris":{"android":"levelo://app?vid=e0be5de7-28ef-42a3-aada-aa9c424d697a","ios":"levelo://app?vid=e0be5de7-28ef-42a3-aada-aa9c424d697a"},"vehicle_type_id":"4","last_reported":1761398166,"current_range_meters":17600,"station_id":"ce4bhbh2rcd13ifvqeo0","pricing_plan_id":"cebpf4jnsgd1na2vs0mg"},{"bike_id":"fc74c03f-6810-4b94-8149-477bae3888a5","system_id":"levelo_inurba_marseille","lat":43.29814,"lon":5.44065,"is_reserved":false,"is_disabled":false,"rental_uris":{"android":"levelo://app?vid=fc74c03f-6810-4b94-8149-477bae3888a5","ios":"levelo://app?vid=fc74c03f-6810-4b94-8149-477bae3888a5"},"vehicle_type_id":"4","last_reported":1761398166,"current_range_meters":18000,"station_id":"st_d3jp68qikq2c7381ktn0","pricing_plan_id":"cebpf4jnsgd1na2vs0mg"},{"bike_id":"0c2f84c9-4a13-4c7d-8126-22110d9755b1","system_id":"levelo_inurba_marseille","lat":43.21169,"lon":5.35075,"is_reserved":false,"is_disabled":false,"rental_uris":{"android":"levelo://app?vid=0c2f84c9-4a13-4c7d-8126-22110d9755b1","ios":"levelo://app?vid=0c2f84c9-4a13-4c7d-8126-22110d9755b1"},"vehicle_type_id":"4","last_reported":1761398166,"current_range_meters":18000,"station_id":"st_cvj6sg6p6f1abm77japg","pricing_plan_id":"cebpf4jnsgd1na2vs0mg"},{"bike_id":"7fb3971e-84b0-4ac6-82fb-b4ca6cdec2ab","system_id":"levelo_inurba_marseille","lat":43.294864,"lon":5.433078,"is_reserved":false,"is_disabled":false,"rental_uris":{"android":"levelo://app?vid=7fb3971e-84b0-4ac6-82fb-b4ca6cdec2ab","ios":"levelo://app?vid=7fb3971e-84b0-4ac6-82fb-b4ca6cdec2ab"},"vehicle_type_id":"4","last_reported":1761398166,"current_range_meters":18000,"station_id":"st_d3j5ugp08ojc73fj9d10","pricing_plan_id":"cebpf4jnsgd1na2vs0mg"},{"bike_id":"40fc96a0-f1e3-41fd-90dd-9e0246f45827","system_id":"levelo_inurba_marseille","lat":43.23051,"lon":5.35493,"is_reserved":false,"is_disabled":false,"rental_uris":{"android":"levelo://app?vid=40fc96a0-f1e3-41fd-90dd-9e0246f45827","ios":"levelo://app?vid=40fc96a0-f1e3-41fd-90dd-9e0246f45827"},"vehicle_type_id":"4","last_reported":1761398166,"current_range_meters":18000,"station_id":"cpo3342slgdg3j2ifvpg","pricing_plan_id":"cebpf4jnsgd1na2vs0mg"},{"bike_id":"f72a00f1-1fed-4f6c-b4b5-8473dfdb4606","system_id":"levelo_inurba_marseille","lat":43.29681,"lon":5.40376,"is_reserved":false,"is_disabled":false,"rental_uris":{"android":"levelo://app?vid=f72a00f1-1fed-4f6c-b4b5-8473dfdb4606","ios":"levelo://app?vid=f72a00f1-1fed-4f6c-b4b5-8473dfdb4606"},"vehicle_type_id":"4","last_reported":1761398166,"current_range_meters":18000,"station_id":"","pricing_plan_id":"cebpf4jnsgd1na2vs0mg"},{"bike_id":"4009721b-6095-41da-9c10-2f680566649d","system_id":"levelo_inurba_marseille","lat":43.245473,"lon":5.395181,"is_reserved":false,"is_disabled":false,"rental_uris":{"android":"levelo://app?vid=4009721b-6095-41da-9c10-2f680566649d","ios":"levelo://app?vid=4009721b-6095-41da-9c10-2f680566649d"},"vehicle_type_id":"4","last_reported":1761398166,"current_range_meters":18000,"station_id":"ce4bhgp2rcd13ifvqfd0","pricing_plan_id":"cebpf4jnsgd1na2vs0mg"},{"bike_id":"38a064e1-0c23-4c21-963f-8d817112a18f","system_id":"levelo_inurba_marseille","lat":43.28388,"lon":5.39904,"is_reserved":false,"is_disabled":false,"rental_uris":{"android":"levelo://app?vid=38a064e1-0c23-4c21-963f-8d817112a18f","ios":"levelo://app?vid=38a064e1-0c23-4c21-963f-8d817112a18f"},"vehicle_type_id":"4","last_reported":1761398166,"current_range_meters":18000,"station_id":"","pricing_plan_id":"cebpf4jnsgd1na2vs0mg"},{"bike_id":"2c7010b4-491f-4efd-88b8-b7d39cd54a62","system_id":"levelo_inurba_marseille","lat":43.30537,"lon":5.36548,"is_reserved":false,"is_disabled":false,"rental_uris":{"android":"levelo://app?vid=2c7010b4-491f-4efd-88b8-b7d39cd54a62","ios":"levelo://app?vid=2c7010b4-491f-4efd-88b8-b7d39cd54a62"},"vehicle_type_id":"4","last_reported":1761398166,"current_range_meters":18000,"station_id":"ce4bgs12rcd13ifvqcag","pricing_plan_id":"cebpf4jnsgd1na2vs0mg"},{"bike_id":"75147ba9-a7a5-464b-90cc-936be042ecbc","system_id":"levelo_inurba_marseille","lat":43.305532,"lon":5.367291,"is_reserved":false,"is_disabled":false,"rental_uris":{"android":"levelo://app?vid=75147ba9-a7a5-464b-90cc-936be042ecbc","ios":"levelo://app?vid=75147ba9-a7a5-464b-90cc-936be042ecbc"},"vehicle_type_id":"4","last_reported":1761398166,"current_range_meters":18800,"station_id":"ce4bgrp2rcd13ifvqc9g","pricing_plan_id":"cebpf4jnsgd1na2vs0mg"},{"bike_id":"1d190005-b55f-4200-b76c-487b5cdcd765","system_id":"levelo_inurba_marseille","lat":43.24071,"lon":5.37755,"is_reserved":false,"is_disabled":false,"rental_uris":{"android":"levelo://app?vid=1d190005-b55f-4200-b76c-487b5cdcd765","ios":"levelo://app?vid=1d190005-b55f-4200-b76c-487b5cdcd765"},"vehicle_type_id":"4","last_reported":1761398166,"current_range_meters":18800,"station_id":"ce4bhnp2rcd13ifvqgvg","pricing_plan_id":"cebpf4jnsgd1na2vs0mg"},{"bike_id":"c8788239-aca3-4177-82ce-4fdd3d694f53","system_id":"levelo_inurba_marseille","lat":43.30952,"lon":5.39024,"is_reserved":false,"is_disabled":false,"rental_uris":{"android":"levelo://app?vid=c8788239-aca3-4177-82ce-4fdd3d694f53","ios":"levelo://app?vid=c8788239-aca3-4177-82ce-4fdd3d694f53"},"vehicle_type_id":"4","last_reported":1761398166,"current_range_meters":18800,"station_id":"ce4bgup2rcd13ifvqco0","pricing_plan_id":"cebpf4jnsgd1na2vs0mg"},{"bike_id":"afb83197-b3f4-4e57-a68a-ee2022b4e968","system_id":"levelo_inurba_marseille","lat":43.27967,"lon":5.3875,"is_reserved":false,"is_disabled":false,"rental_uris":{"android":"levelo://app?vid=afb83197-b3f4-4e57-a68a-ee2022b4e968","ios":"levelo://app?vid=afb83197-b3f4-4e57-a68a-ee2022b4e968"},"vehicle_type_id":"4","last_reported":1761398166,"current_range_meters":18800,"station_id":"ce4bhg12rcd13ifvqf80","pricing_plan_id":"cebpf4jnsgd1na2vs0mg"},{"bike_id":"3da36b46-32f0-4723-8f3b-8cba39a84287","system_id":"levelo_inurba_marseille","lat":43.243949,"lon":5.370518,"is_reserved":false,"is_disabled":false,"rental_uris":{"android":"levelo://app?vid=3da36b46-32f0-4723-8f3b-8cba39a84287","ios":"levelo://app?vid=3da36b46-32f0-4723-8f3b-8cba39a84287"},"vehicle_type_id":"4","last_reported":1761398166,"current_range_meters":18800,"station_id":"ce4bhhh2rcd13ifvqfk0","pricing_plan_id":"cebpf4jnsgd1na2vs0mg"},{"bike_id":"e5bd73c9-d2fd-429b-a719-e50033314cf7","system_id":"levelo_inurba_marseille","lat":43.235301,"lon":5.412773,"is_reserved":false,"is_disabled":false,"rental_uris":{"android":"levelo://app?vid=e5bd73c9-d2fd-429b-a719-e50033314cf7","ios":"levelo://app?vid=e5bd73c9-d2fd-429b-a719-e50033314cf7"},"vehicle_type_id":"4","last_reported":1761398166,"current_range_meters":18800,"station_id":"ce4bh192rcd13ifvqdb0","pricing_plan_id":"cebpf4jnsgd1na2vs0mg"},{"bike_id":"924c497b-3d4b-407f-b960-f7336e7b46d0","system_id":"levelo_inurba_marseille","lat":43.225662,"lon":5.416218,"is_reserved":false,"is_disabled":false,"rental_uris":{"android":"levelo://app?vid=924c497b-3d4b-407f-b960-f7336e7b46d0","ios":"levelo://app?vid=924c497b-3d4b-407f-b960-f7336e7b46d0"},"vehicle_type_id":"4","last_reported":1761398166,"current_range_meters":18800,"station_id":"ce4bh192rcd13ifvqdb0","pricing_plan_id":"cebpf4jnsgd1na2vs0mg"},{"bike_id":"e4ccce50-4824-4895-aa8c-033835526f23","system_id":"levelo_inurba_marseille","lat":43.31879,"lon":5.39981,"is_reserved":false,"is_disabled":false,"rental_uris":{"android":"levelo://app?vid=e4ccce50-4824-4895-aa8c-033835526f23","ios":"levelo://app?vid=e4ccce50-4824-4895-aa8c-033835526f23"},"vehicle_type_id":"4","last_reported":1761398166,"current_range_meters":18800,"station_id":"","pricing_plan_id":"cebpf4jnsgd1na2vs0mg"},{"bike_id":"e75ae714-0852-4f44-be50-e3fc4f827f30","system_id":"levelo_inurba_marseille","lat":43.3113,"lon":5.37787,"is_reserved":false,"is_disabled":false,"rental_uris":{"android":"levelo://app?vid=e75ae714-0852-4f44-be50-e3fc4f827f30","ios":"levelo://app?vid=e75ae714-0852-4f44-be50-e3fc4f827f30"},"vehicle_type_id":"4","last_reported":1761398166,"current_range_meters":19200,"station_id":"ce4bgt92rcd13ifvqcg0","pricing_plan_id":"cebpf4jnsgd1na2vs0mg"},{"bike_id":"a3ba5929-0353-4113-b70c-d2daca4db2ad","system_id":"levelo_inurba_marseille","lat":43.21195,"lon":5.3506,"is_reserved":false,"is_disabled":false,"rental_uris":{"android":"levelo://app?vid=a3ba5929-0353-4113-b70c-d2daca4db2ad","ios":"levelo://app?vid=a3ba5929-0353-4113-b70c-d2daca4db2ad"},"vehicle_type_id":"4","last_reported":1761398166,"current_range_meters":19200,"station_id":"st_cvj6sg6p6f1abm77japg","pricing_plan_id":"cebpf4jnsgd1na2vs0mg"},{"bike_id":"d4f6cd6f-2e03-4d52-87e2-774301b94d7f","system_id":"levelo_inurba_marseille","lat":43.2119,"lon":5.35092,"is_reserved":false,"is_disabled":false,"rental_uris":{"android":"levelo://app?vid=d4f6cd6f-2e03-4d52-87e2-774301b94d7f","ios":"levelo://app?vid=d4f6cd6f-2e03-4d52-87e2-774301b94d7f"},"vehicle_type_id":"4","last_reported":1761398166,"current_range_meters":19200,"station_id":"st_cvj6sg6p6f1abm77japg","pricing_plan_id":"cebpf4jnsgd1na2vs0mg"},{"bike_id":"4e124a52-28ec-4797-be0b-985506897b45","system_id":"levelo_inurba_marseille","lat":43.21737,"lon":5.34608,"is_reserved":false,"is_disabled":false,"rental_uris":{"android":"levelo://app?vid=4e124a52-28ec-4797-be0b-985506897b45","ios":"levelo://app?vid=4e124a52-28ec-4797-be0b-985506897b45"},"vehicle_type_id":"4","last_reported":1761398166,"current_range_meters":19200,"station_id":"st_cvj6r9ubvosntc0bgbag","pricing_plan_id":"cebpf4jnsgd1na2vs0mg"},{"bike_id":"c8eeb109-8800-49d2-bf69-9ffad2903195","system_id":"levelo_inurba_marseille","lat":43.250841,"lon":5.395241,"is_reserved":false,"is_disabled":false,"rental_uris":{"android":"levelo://app?vid=c8eeb109-8800-49d2-bf69-9ffad2903195","ios":"levelo://app?vid=c8eeb109-8800-49d2-bf69-9ffad2903195"},"vehicle_type_id":"4","last_reported":1761398166,"current_range_meters":19200,"station_id":"ce4bhm12rcd13ifvqgkg","pricing_plan_id":"cebpf4jnsgd1na2vs0mg"},{"bike_id":"de5cece4-6186-4ccb-b70e-a25e8bd3fc86","system_id":"levelo_inurba_marseille","lat":43.337444,"lon":5.374475,"is_reserved":false,"is_disabled":false,"rental_uris":{"android":"levelo://app?vid=de5cece4-6186-4ccb-b70e-a25e8bd3fc86","ios":"levelo://app?vid=de5cece4-6186-4ccb-b70e-a25e8bd3fc86"},"vehicle_type_id":"4","last_reported":1761398166,"current_range_meters":19200,"station_id":"","pricing_plan_id":"cebpf4jnsgd1na2vs0mg"},{"bike_id":"8847af5d-c1ad-4d8d-a5c1-273c3b41c105","system_id":"levelo_inurba_marseille","lat":43.322475,"lon":5.419646,"is_reserved":false,"is_disabled":false,"rental_uris":{"android":"levelo://app?vid=8847af5d-c1ad-4d8d-a5c1-273c3b41c105","ios":"levelo://app?vid=8847af5d-c1ad-4d8d-a5c1-273c3b41c105"},"vehicle_type_id":"4","last_reported":1761398166,"current_range_meters":19600,"station_id":"","pricing_plan_id":"cebpf4jnsgd1na2vs0mg"},{"bike_id":"67f8857f-0853-46d2-b9ef-96c5ce2639bc","system_id":"levelo_inurba_marseille","lat":43.23051,"lon":5.35491,"is_reserved":false,"is_disabled":false,"rental_uris":{"android":"levelo://app?vid=67f8857f-0853-46d2-b9ef-96c5ce2639bc","ios":"levelo://app?vid=67f8857f-0853-46d2-b9ef-96c5ce2639bc"},"vehicle_type_id":"4","last_reported":1761398166,"current_range_meters":19600,"station_id":"cpo3342slgdg3j2ifvpg","pricing_plan_id":"cebpf4jnsgd1na2vs0mg"},{"bike_id":"d5dfaebc-363f-4601-b26a-6e9c4f1c2b4b","system_id":"levelo_inurba_marseille","lat":43.21198,"lon":5.35078,"is_reserved":false,"is_disabled":false,"rental_uris":{"android":"levelo://app?vid=d5dfaebc-363f-4601-b26a-6e9c4f1c2b4b","ios":"levelo://app?vid=d5dfaebc-363f-4601-b26a-6e9c4f1c2b4b"},"vehicle_type_id":"4","last_reported":1761398166,"current_range_meters":19600,"station_id":"st_cvj6sg6p6f1abm77japg","pricing_plan_id":"cebpf4jnsgd1na2vs0mg"},{"bike_id":"fbce59c9-c3d2-4204-b52e-cb92f934ce85","system_id":"levelo_inurba_marseille","lat":43.24662,"lon":5.38166,"is_reserved":false,"is_disabled":false,"rental_uris":{"android":"levelo://app?vid=fbce59c9-c3d2-4204-b52e-cb92f934ce85","ios":"levelo://app?vid=fbce59c9-c3d2-4204-b52e-cb92f934ce85"},"vehicle_type_id":"4","last_reported":1761398166,"current_range_meters":19600,"station_id":"ce4bhih2rcd13ifvqfr0","pricing_plan_id":"cebpf4jnsgd1na2vs0mg"},{"bike_id":"e490b555-bf8e-409a-b24f-a0ad248e6706","system_id":"levelo_inurba_marseille","lat":43.31719,"lon":5.42396,"is_reserved":false,"is_disabled":false,"rental_uris":{"android":"levelo://app?vid=e490b555-bf8e-409a-b24f-a0ad248e6706","ios":"levelo://app?vid=e490b555-bf8e-409a-b24f-a0ad248e6706"},"vehicle_type_id":"4","last_reported":1761398166,"current_range_meters":19600,"station_id":"ce4bhp92rcd13ifvqhbg","pricing_plan_id":"cebpf4jnsgd1na2vs0mg"},{"bike_id":"8c181fa6-d6a4-4b4b-b101-565f482d11cd","system_id":"levelo_inurba_marseille","lat":43.30328,"lon":5.40435,"is_reserved":false,"is_disabled":false,"rental_uris":{"android":"levelo://app?vid=8c181fa6-d6a4-4b4b-b101-565f482d11cd","ios":"levelo://app?vid=8c181fa6-d6a4-4b4b-b101-565f482d11cd"},"vehicle_type_id":"4","last_reported":1761398166,"current_range_meters":20000,"station_id":"ce4bh012rcd13ifvqd10","pricing_plan_id":"cebpf4jnsgd1na2vs0mg"},{"bike_id":"ad9764bf-916f-4cce-818b-31edce991bd7","system_id":"levelo_inurba_marseille","lat":43.29532,"lon":5.38542,"is_reserved":false,"is_disabled":false,"rental_uris":{"android":"levelo://app?vid=ad9764bf-916f-4cce-818b-31edce991bd7","ios":"levelo://app?vid=ad9764bf-916f-4cce-818b-31edce991bd7"},"vehicle_type_id":"4","last_reported":1761398166,"current_range_meters":20000,"station_id":"ce4bgih2rcd13ifvqba0","pricing_plan_id":"cebpf4jnsgd1na2vs0mg"},{"bike_id":"54d84c69-8748-4a3e-8e3f-fb9330043778","system_id":"levelo_inurba_marseille","lat":43.28669,"lon":5.3866,"is_reserved":false,"is_disabled":false,"rental_uris":{"android":"levelo://app?vid=54d84c69-8748-4a3e-8e3f-fb9330043778","ios":"levelo://app?vid=54d84c69-8748-4a3e-8e3f-fb9330043778"},"vehicle_type_id":"4","last_reported":1761398166,"current_range_meters":20000,"station_id":"ce4bh492rcd13ifvqdug","pricing_plan_id":"cebpf4jnsgd1na2vs0mg"},{"bike_id":"48843ae7-b95a-4203-8ab6-ada0676f329e","system_id":"levelo_inurba_marseille","lat":43.28614,"lon":5.35101,"is_reserved":false,"is_disabled":false,"rental_uris":{"android":"levelo://app?vid=48843ae7-b95a-4203-8ab6-ada0676f329e","ios":"levelo://app?vid=48843ae7-b95a-4203-8ab6-ada0676f329e"},"vehicle_type_id":"4","last_reported":1761398166,"current_range_meters":20000,"station_id":"ce4bhch2rcd13ifvqeug","pricing_plan_id":"cebpf4jnsgd1na2vs0mg"},{"bike_id":"317107fa-306d-4b8d-9380-a16cd06486ce","system_id":"levelo_inurba_marseille","lat":43.284589,"lon":5.358947,"is_reserved":false,"is_disabled":true,"rental_uris":{"android":"levelo://app?vid=317107fa-306d-4b8d-9380-a16cd06486ce","ios":"levelo://app?vid=317107fa-306d-4b8d-9380-a16cd06486ce"},"vehicle_type_id":"4","last_reported":1761398166,"current_range_meters":20000,"station_id":"ce4bhah2rcd13ifvqei0","pricing_plan_id":"cebpf4jnsgd1na2vs0mg"},{"bike_id":"852f7905-1ceb-452d-ac62-c0aef4408049","system_id":"levelo_inurba_marseille","lat":43.24174,"lon":5.39723,"is_reserved":false,"is_disabled":false,"rental_uris":{"android":"levelo://app?vid=852f7905-1ceb-452d-ac62-c0aef4408049","ios":"levelo://app?vid=852f7905-1ceb-452d-ac62-c0aef4408049"},"vehicle_type_id":"4","last_reported":1761398166,"current_range_meters":20000,"station_id":"ce4bhn12rcd13ifvqgpg","pricing_plan_id":"cebpf4jnsgd1na2vs0mg"},{"bike_id":"c9c21d7f-491d-4605-a042-46f5bbb9ac2d","system_id":"levelo_inurba_marseille","lat":43.2558,"lon":5.38246,"is_reserved":false,"is_disabled":false,"rental_uris":{"android":"levelo://app?vid=c9c21d7f-491d-4605-a042-46f5bbb9ac2d","ios":"levelo://app?vid=c9c21d7f-491d-4605-a042-46f5bbb9ac2d"},"vehicle_type_id":"4","last_reported":1761398166,"current_range_meters":20000,"station_id":"ce4bhih2rcd13ifvqfs0","pricing_plan_id":"cebpf4jnsgd1na2vs0mg"},{"bike_id":"64b75b4a-3497-4861-8cc2-90dd62cd9f5e","system_id":"levelo_inurba_marseille","lat":43.29472,"lon":5.43315,"is_reserved":false,"is_disabled":false,"rental_uris":{"android":"levelo://app?vid=64b75b4a-3497-4861-8cc2-90dd62cd9f5e","ios":"levelo://app?vid=64b75b4a-3497-4861-8cc2-90dd62cd9f5e"},"vehicle_type_id":"4","last_reported":1761398166,"current_range_meters":20000,"station_id":"st_d3j5ugp08ojc73fj9d10","pricing_plan_id":"cebpf4jnsgd1na2vs0mg"},{"bike_id":"32f7e733-2cec-4446-84cf-6cf3d35e3e96","system_id":"levelo_inurba_marseille","lat":43.30918,"lon":5.40142,"is_reserved":false,"is_disabled":false,"rental_uris":{"android":"levelo://app?vid=32f7e733-2cec-4446-84cf-6cf3d35e3e96","ios":"levelo://app?vid=32f7e733-2cec-4446-84cf-6cf3d35e3e96"},"vehicle_type_id":"4","last_reported":1761398166,"current_range_meters":20000,"station_id":"ce4bgvp2rcd13ifvqct0","pricing_plan_id":"cebpf4jnsgd1na2vs0mg"},{"bike_id":"660dfcd5-ce84-42b7-8ce3-b4d9c8a0f1a1","system_id":"levelo_inurba_marseille","lat":43.30539,"lon":5.36551,"is_reserved":false,"is_disabled":false,"rental_uris":{"android":"levelo://app?vid=660dfcd5-ce84-42b7-8ce3-b4d9c8a0f1a1","ios":"levelo://app?vid=660dfcd5-ce84-42b7-8ce3-b4d9c8a0f1a1"},"vehicle_type_id":"4","last_reported":1761398166,"current_range_meters":20000,"station_id":"ce4bgs12rcd13ifvqcag","pricing_plan_id":"cebpf4jnsgd1na2vs0mg"},{"bike_id":"c124d4a0-9e47-48ec-ad7a-ea36eb6e5d35","system_id":"levelo_inurba_marseille","lat":43.243838,"lon":5.370488,"is_reserved":false,"is_disabled":false,"rental_uris":{"android":"levelo://app?vid=c124d4a0-9e47-48ec-ad7a-ea36eb6e5d35","ios":"levelo://app?vid=c124d4a0-9e47-48ec-ad7a-ea36eb6e5d35"},"vehicle_type_id":"4","last_reported":1761398166,"current_range_meters":20000,"station_id":"ce4bhhh2rcd13ifvqfk0","pricing_plan_id":"cebpf4jnsgd1na2vs0mg"},{"bike_id":"d9c578cc-9d42-46fa-89d2-04f8b63d110f","system_id":"levelo_inurba_marseille","lat":43.271765,"lon":5.409944,"is_reserved":false,"is_disabled":false,"rental_uris":{"android":"levelo://app?vid=d9c578cc-9d42-46fa-89d2-04f8b63d110f","ios":"levelo://app?vid=d9c578cc-9d42-46fa-89d2-04f8b63d110f"},"vehicle_type_id":"4","last_reported":1761398166,"current_range_meters":20400,"station_id":"ce4bhl12rcd13ifvqgf0","pricing_plan_id":"cebpf4jnsgd1na2vs0mg"},{"bike_id":"5c254468-8ac2-4dd0-b776-4672b2bb8cc3","system_id":"levelo_inurba_marseille","lat":43.28416,"lon":5.34995,"is_reserved":false,"is_disabled":false,"rental_uris":{"android":"levelo://app?vid=5c254468-8ac2-4dd0-b776-4672b2bb8cc3","ios":"levelo://app?vid=5c254468-8ac2-4dd0-b776-4672b2bb8cc3"},"vehicle_type_id":"4","last_reported":1761398166,"current_range_meters":20400,"station_id":"ce4bhbh2rcd13ifvqepg","pricing_plan_id":"cebpf4jnsgd1na2vs0mg"},{"bike_id":"1eac0aa7-2b82-4118-bb70-4582cf563475","system_id":"levelo_inurba_marseille","lat":43.284905,"lon":5.483994,"is_reserved":false,"is_disabled":false,"rental_uris":{"android":"levelo://app?vid=1eac0aa7-2b82-4118-bb70-4582cf563475","ios":"levelo://app?vid=1eac0aa7-2b82-4118-bb70-4582cf563475"},"vehicle_type_id":"4","last_reported":1761398166,"current_range_meters":20400,"station_id":"st_d3svhcjqgbts73a3dn0g","pricing_plan_id":"cebpf4jnsgd1na2vs0mg"},{"bike_id":"da5ec092-2438-4dd2-a625-8fc0f3baf6af","system_id":"levelo_inurba_marseille","lat":43.32111,"lon":5.36766,"is_reserved":false,"is_disabled":false,"rental_uris":{"android":"levelo://app?vid=da5ec092-2438-4dd2-a625-8fc0f3baf6af","ios":"levelo://app?vid=da5ec092-2438-4dd2-a625-8fc0f3baf6af"},"vehicle_type_id":"4","last_reported":1761398166,"current_range_meters":20400,"station_id":"ce4bhrh2rcd13ifvqhug","pricing_plan_id":"cebpf4jnsgd1na2vs0mg"},{"bike_id":"60bb3893-4efe-4a54-a6e5-608f7cdbe977","system_id":"levelo_inurba_marseille","lat":43.21201,"lon":5.35056,"is_reserved":false,"is_disabled":false,"rental_uris":{"android":"levelo://app?vid=60bb3893-4efe-4a54-a6e5-608f7cdbe977","ios":"levelo://app?vid=60bb3893-4efe-4a54-a6e5-608f7cdbe977"},"vehicle_type_id":"4","last_reported":1761398166,"current_range_meters":20400,"station_id":"st_cvj6sg6p6f1abm77japg","pricing_plan_id":"cebpf4jnsgd1na2vs0mg"},{"bike_id":"d53cf87a-2938-4a80-ad73-ce20f2098032","system_id":"levelo_inurba_marseille","lat":43.21188,"lon":5.35076,"is_reserved":false,"is_disabled":false,"rental_uris":{"android":"levelo://app?vid=d53cf87a-2938-4a80-ad73-ce20f2098032","ios":"levelo://app?vid=d53cf87a-2938-4a80-ad73-ce20f2098032"},"vehicle_type_id":"4","last_reported":1761398166,"current_range_meters":20400,"station_id":"st_cvj6sg6p6f1abm77japg","pricing_plan_id":"cebpf4jnsgd1na2vs0mg"},{"bike_id":"dd3593f3-34f2-4c15-858f-db5ec7d9c165","system_id":"levelo_inurba_marseille","lat":43.27324,"lon":5.39075,"is_reserved":false,"is_disabled":false,"rental_uris":{"android":"levelo://app?vid=dd3593f3-34f2-4c15-858f-db5ec7d9c165","ios":"levelo://app?vid=dd3593f3-34f2-4c15-858f-db5ec7d9c165"},"vehicle_type_id":"4","last_reported":1761398166,"current_range_meters":20400,"station_id":"ce4bhgp2rcd13ifvqfe0","pricing_plan_id":"cebpf4jnsgd1na2vs0mg"},{"bike_id":"59e90fd9-8866-4ae9-a6f2-a970932bfd6c","system_id":"levelo_inurba_marseille","lat":43.23947,"lon":5.36632,"is_reserved":false,"is_disabled":false,"rental_uris":{"android":"levelo://app?vid=59e90fd9-8866-4ae9-a6f2-a970932bfd6c","ios":"levelo://app?vid=59e90fd9-8866-4ae9-a6f2-a970932bfd6c"},"vehicle_type_id":"4","last_reported":1761398166,"current_range_meters":20800,"station_id":"ce4bhi12rcd13ifvqfp0","pricing_plan_id":"cebpf4jnsgd1na2vs0mg"},{"bike_id":"947353af-a67f-4cd5-b889-d7991137ba29","system_id":"levelo_inurba_marseille","lat":43.262251,"lon":5.374371,"is_reserved":false,"is_disabled":false,"rental_uris":{"android":"levelo://app?vid=947353af-a67f-4cd5-b889-d7991137ba29","ios":"levelo://app?vid=947353af-a67f-4cd5-b889-d7991137ba29"},"vehicle_type_id":"4","last_reported":1761398166,"current_range_meters":20800,"station_id":"ce4bhi12rcd13ifvqfo0","pricing_plan_id":"cebpf4jnsgd1na2vs0mg"},{"bike_id":"4ed491c1-63ee-40ec-b54d-180e5049075e","system_id":"levelo_inurba_marseille","lat":43.2848,"lon":5.38428,"is_reserved":false,"is_disabled":false,"rental_uris":{"android":"levelo://app?vid=4ed491c1-63ee-40ec-b54d-180e5049075e","ios":"levelo://app?vid=4ed491c1-63ee-40ec-b54d-180e5049075e"},"vehicle_type_id":"4","last_reported":1761398166,"current_range_meters":20800,"station_id":"ce4bh512rcd13ifvqe3g","pricing_plan_id":"cebpf4jnsgd1na2vs0mg"},{"bike_id":"b8a4a02e-6249-4a19-a23e-3832ace660d9","system_id":"levelo_inurba_marseille","lat":43.30911,"lon":5.36844,"is_reserved":false,"is_disabled":false,"rental_uris":{"android":"levelo://app?vid=b8a4a02e-6249-4a19-a23e-3832ace660d9","ios":"levelo://app?vid=b8a4a02e-6249-4a19-a23e-3832ace660d9"},"vehicle_type_id":"4","last_reported":1761398166,"current_range_meters":20800,"station_id":"ce4bgn92rcd13ifvqbvg","pricing_plan_id":"cebpf4jnsgd1na2vs0mg"},{"bike_id":"d9ffd4fd-02ad-404f-b60b-50240b1bd02f","system_id":"levelo_inurba_marseille","lat":43.30121,"lon":5.43114,"is_reserved":false,"is_disabled":false,"rental_uris":{"android":"levelo://app?vid=d9ffd4fd-02ad-404f-b60b-50240b1bd02f","ios":"levelo://app?vid=d9ffd4fd-02ad-404f-b60b-50240b1bd02f"},"vehicle_type_id":"4","last_reported":1761398166,"current_range_meters":20800,"station_id":"st_d3js3co5814s73ftftug","pricing_plan_id":"cebpf4jnsgd1na2vs0mg"},{"bike_id":"7d2533fc-496a-4f17-aabc-aa0780277482","system_id":"levelo_inurba_marseille","lat":43.30523,"lon":5.36556,"is_reserved":false,"is_disabled":false,"rental_uris":{"android":"levelo://app?vid=7d2533fc-496a-4f17-aabc-aa0780277482","ios":"levelo://app?vid=7d2533fc-496a-4f17-aabc-aa0780277482"},"vehicle_type_id":"4","last_reported":1761398166,"current_range_meters":20800,"station_id":"ce4bgs12rcd13ifvqcag","pricing_plan_id":"cebpf4jnsgd1na2vs0mg"},{"bike_id":"228908ed-dad5-43dc-968b-c61cfcd72083","system_id":"levelo_inurba_marseille","lat":43.29971,"lon":5.41297,"is_reserved":false,"is_disabled":false,"rental_uris":{"android":"levelo://app?vid=228908ed-dad5-43dc-968b-c61cfcd72083","ios":"levelo://app?vid=228908ed-dad5-43dc-968b-c61cfcd72083"},"vehicle_type_id":"4","last_reported":1761398166,"current_range_meters":20800,"station_id":"ce4bhp12rcd13ifvqh9g","pricing_plan_id":"cebpf4jnsgd1na2vs0mg"},{"bike_id":"f47c010d-4bdb-432c-aadf-afdc9a40a728","system_id":"levelo_inurba_marseille","lat":43.30248,"lon":5.37435,"is_reserved":false,"is_disabled":false,"rental_uris":{"android":"levelo://app?vid=f47c010d-4bdb-432c-aadf-afdc9a40a728","ios":"levelo://app?vid=f47c010d-4bdb-432c-aadf-afdc9a40a728"},"vehicle_type_id":"4","last_reported":1761398166,"current_range_meters":21600,"station_id":"ce4bgv92rcd13ifvqcr0","pricing_plan_id":"cebpf4jnsgd1na2vs0mg"},{"bike_id":"c0933fe0-6db6-476b-885c-74cbe466e506","system_id":"levelo_inurba_marseille","lat":43.27369,"lon":5.36258,"is_reserved":false,"is_disabled":false,"rental_uris":{"android":"levelo://app?vid=c0933fe0-6db6-476b-885c-74cbe466e506","ios":"levelo://app?vid=c0933fe0-6db6-476b-885c-74cbe466e506"},"vehicle_type_id":"4","last_reported":1761398166,"current_range_meters":21600,"station_id":"ce4bhbh2rcd13ifvqeo0","pricing_plan_id":"cebpf4jnsgd1na2vs0mg"},{"bike_id":"f4b99bb8-d2c4-4451-9bbb-958f4cfe391e","system_id":"levelo_inurba_marseille","lat":43.26197,"lon":5.37936,"is_reserved":false,"is_disabled":false,"rental_uris":{"android":"levelo://app?vid=f4b99bb8-d2c4-4451-9bbb-958f4cfe391e","ios":"levelo://app?vid=f4b99bb8-d2c4-4451-9bbb-958f4cfe391e"},"vehicle_type_id":"4","last_reported":1761398166,"current_range_meters":21600,"station_id":"ce4bhjp2rcd13ifvqg90","pricing_plan_id":"cebpf4jnsgd1na2vs0mg"},{"bike_id":"ad166e8d-320f-47c2-bfd9-9e014a946d21","system_id":"levelo_inurba_marseille","lat":43.27813,"lon":5.40715,"is_reserved":false,"is_disabled":true,"rental_uris":{"android":"levelo://app?vid=ad166e8d-320f-47c2-bfd9-9e014a946d21","ios":"levelo://app?vid=ad166e8d-320f-47c2-bfd9-9e014a946d21"},"vehicle_type_id":"4","last_reported":1761398166,"current_range_meters":21600,"station_id":"ce4bhnh2rcd13ifvqgtg","pricing_plan_id":"cebpf4jnsgd1na2vs0mg"},{"bike_id":"0a74b868-5a0b-4b89-a706-67b597401dec","system_id":"levelo_inurba_marseille","lat":43.23202,"lon":5.35549,"is_reserved":false,"is_disabled":false,"rental_uris":{"android":"levelo://app?vid=0a74b868-5a0b-4b89-a706-67b597401dec","ios":"levelo://app?vid=0a74b868-5a0b-4b89-a706-67b597401dec"},"vehicle_type_id":"4","last_reported":1761398166,"current_range_meters":22000,"station_id":"ce4bhu92rcd13ifvqi70","pricing_plan_id":"cebpf4jnsgd1na2vs0mg"},{"bike_id":"da689ec1-1ba8-41ec-84eb-6e6388cb944b","system_id":"levelo_inurba_marseille","lat":43.26197,"lon":5.3745,"is_reserved":false,"is_disabled":false,"rental_uris":{"android":"levelo://app?vid=da689ec1-1ba8-41ec-84eb-6e6388cb944b","ios":"levelo://app?vid=da689ec1-1ba8-41ec-84eb-6e6388cb944b"},"vehicle_type_id":"4","last_reported":1761398166,"current_range_meters":22000,"station_id":"ce4bhgp2rcd13ifvqfc0","pricing_plan_id":"cebpf4jnsgd1na2vs0mg"},{"bike_id":"a344e97f-862b-4cb4-a73f-af01f2cf0212","system_id":"levelo_inurba_marseille","lat":43.30464,"lon":5.37905,"is_reserved":false,"is_disabled":false,"rental_uris":{"android":"levelo://app?vid=a344e97f-862b-4cb4-a73f-af01f2cf0212","ios":"levelo://app?vid=a344e97f-862b-4cb4-a73f-af01f2cf0212"},"vehicle_type_id":"4","last_reported":1761398166,"current_range_meters":22000,"station_id":"ce4bgup2rcd13ifvqcn0","pricing_plan_id":"cebpf4jnsgd1na2vs0mg"},{"bike_id":"2b459673-d2ce-4fda-8de4-b7005456dbdc","system_id":"levelo_inurba_marseille","lat":43.283883,"lon":5.383937,"is_reserved":false,"is_disabled":false,"rental_uris":{"android":"levelo://app?vid=2b459673-d2ce-4fda-8de4-b7005456dbdc","ios":"levelo://app?vid=2b459673-d2ce-4fda-8de4-b7005456dbdc"},"vehicle_type_id":"4","last_reported":1761398166,"current_range_meters":22000,"station_id":"ce4bh492rcd13ifvqdvg","pricing_plan_id":"cebpf4jnsgd1na2vs0mg"},{"bike_id":"67274d0d-6663-434c-9e6d-96ad156b9b6b","system_id":"levelo_inurba_marseille","lat":43.30281,"lon":5.37713,"is_reserved":false,"is_disabled":false,"rental_uris":{"android":"levelo://app?vid=67274d0d-6663-434c-9e6d-96ad156b9b6b","ios":"levelo://app?vid=67274d0d-6663-434c-9e6d-96ad156b9b6b"},"vehicle_type_id":"4","last_reported":1761398166,"current_range_meters":22000,"station_id":"ce4bguh2rcd13ifvqcj0","pricing_plan_id":"cebpf4jnsgd1na2vs0mg"},{"bike_id":"5ac543fc-e247-4826-b648-a198dc351a78","system_id":"levelo_inurba_marseille","lat":43.21751,"lon":5.34605,"is_reserved":false,"is_disabled":false,"rental_uris":{"android":"levelo://app?vid=5ac543fc-e247-4826-b648-a198dc351a78","ios":"levelo://app?vid=5ac543fc-e247-4826-b648-a198dc351a78"},"vehicle_type_id":"4","last_reported":1761398166,"current_range_meters":22000,"station_id":"st_cvj6r9ubvosntc0bgbag","pricing_plan_id":"cebpf4jnsgd1na2vs0mg"},{"bike_id":"efd28271-e19d-479b-87ff-09f4975f2367","system_id":"levelo_inurba_marseille","lat":43.290365,"lon":5.375604,"is_reserved":false,"is_disabled":false,"rental_uris":{"android":"levelo://app?vid=efd28271-e19d-479b-87ff-09f4975f2367","ios":"levelo://app?vid=efd28271-e19d-479b-87ff-09f4975f2367"},"vehicle_type_id":"4","last_reported":1761398166,"current_range_meters":22000,"station_id":"ce4bh692rcd13ifvqe90","pricing_plan_id":"cebpf4jnsgd1na2vs0mg"},{"bike_id":"3c999d93-43ac-422a-a32e-188523994b73","system_id":"levelo_inurba_marseille","lat":43.28629,"lon":5.35087,"is_reserved":false,"is_disabled":false,"rental_uris":{"android":"levelo://app?vid=3c999d93-43ac-422a-a32e-188523994b73","ios":"levelo://app?vid=3c999d93-43ac-422a-a32e-188523994b73"},"vehicle_type_id":"4","last_reported":1761398166,"current_range_meters":22400,"station_id":"ce4bhch2rcd13ifvqeug","pricing_plan_id":"cebpf4jnsgd1na2vs0mg"},{"bike_id":"b223c2ec-c618-485b-b65c-09069add52e9","system_id":"levelo_inurba_marseille","lat":43.2481,"lon":5.3746,"is_reserved":false,"is_disabled":false,"rental_uris":{"android":"levelo://app?vid=b223c2ec-c618-485b-b65c-09069add52e9","ios":"levelo://app?vid=b223c2ec-c618-485b-b65c-09069add52e9"},"vehicle_type_id":"4","last_reported":1761398166,"current_range_meters":22400,"station_id":"ce4bhgh2rcd13ifvqfb0","pricing_plan_id":"cebpf4jnsgd1na2vs0mg"},{"bike_id":"01e75bdc-7074-42b1-b37d-871eb20e8fd6","system_id":"levelo_inurba_marseille","lat":43.30261,"lon":5.40085,"is_reserved":false,"is_disabled":false,"rental_uris":{"android":"levelo://app?vid=01e75bdc-7074-42b1-b37d-871eb20e8fd6","ios":"levelo://app?vid=01e75bdc-7074-42b1-b37d-871eb20e8fd6"},"vehicle_type_id":"4","last_reported":1761398166,"current_range_meters":22400,"station_id":"ce4bgvh2rcd13ifvqcs0","pricing_plan_id":"cebpf4jnsgd1na2vs0mg"},{"bike_id":"c36c7bd4-0930-4855-b7be-bfb88fb5bd0b","system_id":"levelo_inurba_marseille","lat":43.26808,"lon":5.40275,"is_reserved":false,"is_disabled":false,"rental_uris":{"android":"levelo://app?vid=c36c7bd4-0930-4855-b7be-bfb88fb5bd0b","ios":"levelo://app?vid=c36c7bd4-0930-4855-b7be-bfb88fb5bd0b"},"vehicle_type_id":"4","last_reported":1761398166,"current_range_meters":22400,"station_id":"ce501612rcd8frsf0b60","pricing_plan_id":"cebpf4jnsgd1na2vs0mg"},{"bike_id":"dd49c643-708e-4930-9902-c0a947f622bd","system_id":"levelo_inurba_marseille","lat":43.23047,"lon":5.35502,"is_reserved":false,"is_disabled":false,"rental_uris":{"android":"levelo://app?vid=dd49c643-708e-4930-9902-c0a947f622bd","ios":"levelo://app?vid=dd49c643-708e-4930-9902-c0a947f622bd"},"vehicle_type_id":"4","last_reported":1761398166,"current_range_meters":22400,"station_id":"cpo3342slgdg3j2ifvpg","pricing_plan_id":"cebpf4jnsgd1na2vs0mg"},{"bike_id":"f5baf3c4-0f39-4bcf-9115-dd2e909c6d03","system_id":"levelo_inurba_marseille","lat":43.29194,"lon":5.35801,"is_reserved":false,"is_disabled":false,"rental_uris":{"android":"levelo://app?vid=f5baf3c4-0f39-4bcf-9115-dd2e909c6d03","ios":"levelo://app?vid=f5baf3c4-0f39-4bcf-9115-dd2e909c6d03"},"vehicle_type_id":"4","last_reported":1761398166,"current_range_meters":22400,"station_id":"ce4bhb12rcd13ifvqel0","pricing_plan_id":"cebpf4jnsgd1na2vs0mg"},{"bike_id":"c8ead2a6-9685-46b6-b02c-9e1e3d0f5b8b","system_id":"levelo_inurba_marseille","lat":43.28039,"lon":5.36945,"is_reserved":false,"is_disabled":false,"rental_uris":{"android":"levelo://app?vid=c8ead2a6-9685-46b6-b02c-9e1e3d0f5b8b","ios":"levelo://app?vid=c8ead2a6-9685-46b6-b02c-9e1e3d0f5b8b"},"vehicle_type_id":"4","last_reported":1761398166,"current_range_meters":22400,"station_id":"ce4bha12rcd13ifvqef0","pricing_plan_id":"cebpf4jnsgd1na2vs0mg"},{"bike_id":"dfd72633-754f-44cd-a6e0-728fcb35cfac","system_id":"levelo_inurba_marseille","lat":43.29529,"lon":5.3751,"is_reserved":false,"is_disabled":false,"rental_uris":{"android":"levelo://app?vid=dfd72633-754f-44cd-a6e0-728fcb35cfac","ios":"levelo://app?vid=dfd72633-754f-44cd-a6e0-728fcb35cfac"},"vehicle_type_id":"4","last_reported":1761398166,"current_range_meters":22400,"station_id":"ce4bgkp2rcd13ifvqbmg","pricing_plan_id":"cebpf4jnsgd1na2vs0mg"},{"bike_id":"2e6da764-1f91-432f-b947-84f7e90d93d5","system_id":"levelo_inurba_marseille","lat":43.311748,"lon":5.387148,"is_reserved":false,"is_disabled":false,"rental_uris":{"android":"levelo://app?vid=2e6da764-1f91-432f-b947-84f7e90d93d5","ios":"levelo://app?vid=2e6da764-1f91-432f-b947-84f7e90d93d5"},"vehicle_type_id":"4","last_reported":1761398166,"current_range_meters":22400,"station_id":"ce4bgv12rcd13ifvqcp0","pricing_plan_id":"cebpf4jnsgd1na2vs0mg"},{"bike_id":"ce15d64c-7bd4-4017-a01a-0dc353c2995b","system_id":"levelo_inurba_marseille","lat":43.28138,"lon":5.3502,"is_reserved":false,"is_disabled":false,"rental_uris":{"android":"levelo://app?vid=ce15d64c-7bd4-4017-a01a-0dc353c2995b","ios":"levelo://app?vid=ce15d64c-7bd4-4017-a01a-0dc353c2995b"},