{"last_updated":1757876772,"ttl":60,"version":"2.2","data":{"bikes":[{"bike_id":"f6819f0a-4c1e-4029-af20-6942dd119639","system_id":"levelo_inurba_marseille","lat":43.29963,"lon":5.38495,"is_reserved":false,"is_disabled":true,"rental_uris":{"android":"levelo://app?vid=f6819f0a-4c1e-4029-af20-6942dd119639","ios":"levelo://app?vid=f6819f0a-4c1e-4029-af20-6942dd119639"},"vehicle_type_id":"4","last_reported":1757876772,"current_range_meters":2800,"station_id":"ce4bgj92rcd13ifvqbd0","pricing_plan_id":"cebpf4jnsgd1na2vs0mg"},{"bike_id":"791333de-57ae-4086-b0e0-728eff29de77","system_id":"levelo_inurba_marseille","lat":43.27815,"lon":5.40712,"is_reserved":false,"is_disabled":false,"rental_uris":{"android":"levelo://app?vid=791333de-57ae-4086-b0e0-728eff29de77","ios":"levelo://app?vid=791333de-57ae-4086-b0e0-728eff29de77"},"vehicle_type_id":"4","last_reported":1757876772,"current_range_meters":2800,"station_id":"ce4bhnh2rcd13ifvqgtg","pricing_plan_id":"cebpf4jnsgd1na2vs0mg"},{"bike_id":"5ad52d14-5726-4f20-b334-35bee484a434","system_id":"levelo_inurba_marseille","lat":43.2827,"lon":5.3506,"is_reserved":false,"is_disabled":false,"rental_uris":{"android":"levelo://app?vid=5ad52d14-5726-4f20-b334-35bee484a434","ios":"levelo://app?vid=5ad52d14-5726-4f20-b334-35bee484a434"},"vehicle_type_id":"4","last_reported":1757876772,"current_range_meters":2800,"station_id":"ce4bhbp2rcd13ifvqerg","pricing_plan_id":"cebpf4jnsgd1na2vs0mg"},{"bike_id":"c9c0541f-07e6-4cf6-be9b-52abd2889852","system_id":"levelo_inurba_marseille","lat":43.29529,"lon":5.39401,"is_reserved":false,"is_disabled":false,"rental_uris":{"android":"levelo://app?vid=c9c0541f-07e6-4cf6-be9b-52abd2889852","ios":"levelo://app?vid=c9c0541f-07e6-4cf6-be9b-52abd2889852"},"vehicle_type_id":"4","last_reported":1757876772,"current_range_meters":2800,"station_id":"ce4bh292rcd13ifvqdf0","pricing_plan_id":"cebpf4jnsgd1na2vs0mg"},{"bike_id":"01841f95-0303-4efd-ac96-76afb3d0c567","system_id":"levelo_inurba_marseille","lat":43.24391,"lon":5.37061,"is_reserved":false,"is_disabled":false,"rental_uris":{"android":"levelo://app?vid=01841f95-0303-4efd-ac96-76afb3d0c567","ios":"levelo://app?vid=01841f95-0303-4efd-ac96-76afb3d0c567"},"vehicle_type_id":"4","last_reported":1757876772,"current_range_meters":2800,"station_id":"ce4bhhh2rcd13ifvqfk0","pricing_plan_id":"cebpf4jnsgd1na2vs0mg"},{"bike_id":"29939e1d-7683-455b-aa01-8621cf17f4fa","system_id":"levelo_inurba_marseille","lat":43.24956,"lon":5.40519,"is_reserved":false,"is_disabled":true,"rental_uris":{"android":"levelo://app?vid=29939e1d-7683-455b-aa01-8621cf17f4fa","ios":"levelo://app?vid=29939e1d-7683-455b-aa01-8621cf17f4fa"},"vehicle_type_id":"4","last_reported":1757876772,"current_range_meters":2800,"station_id":"st_d2ngiaodas8pm72gd1h0","pricing_plan_id":"cebpf4jnsgd1na2vs0mg"},{"bike_id":"3bd595b7-af3b-43b1-8697-1bcb2a61af6f","system_id":"levelo_inurba_marseille","lat":43.2801,"lon":5.39986,"is_reserved":false,"is_disabled":true,"rental_uris":{"android":"levelo://app?vid=3bd595b7-af3b-43b1-8697-1bcb2a61af6f","ios":"levelo://app?vid=3bd595b7-af3b-43b1-8697-1bcb2a61af6f"},"vehicle_type_id":"4","last_reported":1757876772,"current_range_meters":3200,"station_id":"ce4bho92rcd13ifvqh4g","pricing_plan_id":"cebpf4jnsgd1na2vs0mg"},{"bike_id":"feda5e19-2027-450d-aa03-3e0c987650f5","system_id":"levelo_inurba_marseille","lat":43.27746,"lon":5.38856,"is_reserved":false,"is_disabled":false,"rental_uris":{"android":"levelo://app?vid=feda5e19-2027-450d-aa03-3e0c987650f5","ios":"levelo://app?vid=feda5e19-2027-450d-aa03-3e0c987650f5"},"vehicle_type_id":"4","last_reported":1757876772,"current_range_meters":3200,"station_id":"","pricing_plan_id":"cebpf4jnsgd1na2vs0mg"},{"bike_id":"a3977072-5f91-4a68-b0d6-dc3cb909a337","system_id":"levelo_inurba_marseille","lat":43.33776,"lon":5.37477,"is_reserved":false,"is_disabled":false,"rental_uris":{"android":"levelo://app?vid=a3977072-5f91-4a68-b0d6-dc3cb909a337","ios":"levelo://app?vid=a3977072-5f91-4a68-b0d6-dc3cb909a337"},"vehicle_type_id":"4","last_reported":1757876772,"current_range_meters":3600,"station_id":"","pricing_plan_id":"cebpf4jnsgd1na2vs0mg"},{"bike_id":"eb6196d7-b3a3-4828-8619-ebebc136e29a","system_id":"levelo_inurba_marseille","lat":43.28285,"lon":5.35081,"is_reserved":false,"is_disabled":false,"rental_uris":{"android":"levelo://app?vid=eb6196d7-b3a3-4828-8619-ebebc136e29a","ios":"levelo://app?vid=eb6196d7-b3a3-4828-8619-ebebc136e29a"},"vehicle_type_id":"4","last_reported":1757876772,"current_range_meters":3600,"station_id":"ce4bhbp2rcd13ifvqerg","pricing_plan_id":"cebpf4jnsgd1na2vs0mg"},{"bike_id":"ded65af7-dc47-4ec3-848f-32cdedab004d","system_id":"levelo_inurba_marseille","lat":43.322654,"lon":5.41247,"is_reserved":false,"is_disabled":false,"rental_uris":{"android":"levelo://app?vid=ded65af7-dc47-4ec3-848f-32cdedab004d","ios":"levelo://app?vid=ded65af7-dc47-4ec3-848f-32cdedab004d"},"vehicle_type_id":"4","last_reported":1757876772,"current_range_meters":3600,"station_id":"","pricing_plan_id":"cebpf4jnsgd1na2vs0mg"},{"bike_id":"972b4c5f-3a00-4bb2-9116-b81f2cecc9f2","system_id":"levelo_inurba_marseille","lat":43.33764,"lon":5.37483,"is_reserved":false,"is_disabled":false,"rental_uris":{"android":"levelo://app?vid=972b4c5f-3a00-4bb2-9116-b81f2cecc9f2","ios":"levelo://app?vid=972b4c5f-3a00-4bb2-9116-b81f2cecc9f2"},"vehicle_type_id":"4","last_reported":1757876772,"current_range_meters":3600,"station_id":"","pricing_plan_id":"cebpf4jnsgd1na2vs0mg"},{"bike_id":"8337cea4-f5e4-4695-9f53-fd47b9a8f3dd","system_id":"levelo_inurba_marseille","lat":43.29441,"lon":5.3976,"is_reserved":false,"is_disabled":false,"rental_uris":{"android":"levelo://app?vid=8337cea4-f5e4-4695-9f53-fd47b9a8f3dd","ios":"levelo://app?vid=8337cea4-f5e4-4695-9f53-fd47b9a8f3dd"},"vehicle_type_id":"4","last_reported":1757876772,"current_range_meters":3600,"station_id":"ce4bh3h2rcd13ifvqdo0","pricing_plan_id":"cebpf4jnsgd1na2vs0mg"},{"bike_id":"065f1c95-b6fa-43d1-8496-9a41c3cf7cd0","system_id":"levelo_inurba_marseille","lat":43.28426,"lon":5.37525,"is_reserved":false,"is_disabled":false,"rental_uris":{"android":"levelo://app?vid=065f1c95-b6fa-43d1-8496-9a41c3cf7cd0","ios":"levelo://app?vid=065f1c95-b6fa-43d1-8496-9a41c3cf7cd0"},"vehicle_type_id":"4","last_reported":1757876772,"current_range_meters":4000,"station_id":"ce4bh412rcd13ifvqds0","pricing_plan_id":"cebpf4jnsgd1na2vs0mg"},{"bike_id":"01155686-d9fc-4726-ad1c-924a24291f56","system_id":"levelo_inurba_marseille","lat":43.284128,"lon":5.37502,"is_reserved":false,"is_disabled":false,"rental_uris":{"android":"levelo://app?vid=01155686-d9fc-4726-ad1c-924a24291f56","ios":"levelo://app?vid=01155686-d9fc-4726-ad1c-924a24291f56"},"vehicle_type_id":"4","last_reported":1757876772,"current_range_meters":4000,"station_id":"ce4bh3p2rcd13ifvqdq0","pricing_plan_id":"cebpf4jnsgd1na2vs0mg"},{"bike_id":"8246abdf-3458-433a-851f-de71a65da7bb","system_id":"levelo_inurba_marseille","lat":43.319951,"lon":5.381533,"is_reserved":false,"is_disabled":false,"rental_uris":{"android":"levelo://app?vid=8246abdf-3458-433a-851f-de71a65da7bb","ios":"levelo://app?vid=8246abdf-3458-433a-851f-de71a65da7bb"},"vehicle_type_id":"4","last_reported":1757876772,"current_range_meters":4000,"station_id":"ce4bhr12rcd13ifvqhpg","pricing_plan_id":"cebpf4jnsgd1na2vs0mg"},{"bike_id":"a9ca7b4e-a606-4d10-b553-5a1c8eb4741a","system_id":"levelo_inurba_marseille","lat":43.29604,"lon":5.38106,"is_reserved":false,"is_disabled":false,"rental_uris":{"android":"levelo://app?vid=a9ca7b4e-a606-4d10-b553-5a1c8eb4741a","ios":"levelo://app?vid=a9ca7b4e-a606-4d10-b553-5a1c8eb4741a"},"vehicle_type_id":"4","last_reported":1757876772,"current_range_meters":4000,"station_id":"ce4bgl12rcd13ifvqbo0","pricing_plan_id":"cebpf4jnsgd1na2vs0mg"},{"bike_id":"74f7e9b1-a3ed-4486-a31b-2bcc580f832f","system_id":"levelo_inurba_marseille","lat":43.31764,"lon":5.39014,"is_reserved":false,"is_disabled":false,"rental_uris":{"android":"levelo://app?vid=74f7e9b1-a3ed-4486-a31b-2bcc580f832f","ios":"levelo://app?vid=74f7e9b1-a3ed-4486-a31b-2bcc580f832f"},"vehicle_type_id":"4","last_reported":1757876772,"current_range_meters":4400,"station_id":"ce4bhqp2rcd13ifvqhng","pricing_plan_id":"cebpf4jnsgd1na2vs0mg"},{"bike_id":"2ba71f6b-f8d0-4c16-ae53-d226acb00c48","system_id":"levelo_inurba_marseille","lat":43.258163,"lon":5.39432,"is_reserved":false,"is_disabled":false,"rental_uris":{"android":"levelo://app?vid=2ba71f6b-f8d0-4c16-ae53-d226acb00c48","ios":"levelo://app?vid=2ba71f6b-f8d0-4c16-ae53-d226acb00c48"},"vehicle_type_id":"4","last_reported":1757876772,"current_range_meters":4400,"station_id":"ce4bhip2rcd13ifvqft0","pricing_plan_id":"cebpf4jnsgd1na2vs0mg"},{"bike_id":"e03bd15c-c472-4f08-bc2f-c1b8a57b70fb","system_id":"levelo_inurba_marseille","lat":43.32985,"lon":5.3919,"is_reserved":false,"is_disabled":false,"rental_uris":{"android":"levelo://app?vid=e03bd15c-c472-4f08-bc2f-c1b8a57b70fb","ios":"levelo://app?vid=e03bd15c-c472-4f08-bc2f-c1b8a57b70fb"},"vehicle_type_id":"4","last_reported":1757876772,"current_range_meters":4400,"station_id":"","pricing_plan_id":"cebpf4jnsgd1na2vs0mg"},{"bike_id":"64fd3338-9664-4eab-9d69-526a809f8c3c","system_id":"levelo_inurba_marseille","lat":43.33807,"lon":5.36701,"is_reserved":false,"is_disabled":false,"rental_uris":{"android":"levelo://app?vid=64fd3338-9664-4eab-9d69-526a809f8c3c","ios":"levelo://app?vid=64fd3338-9664-4eab-9d69-526a809f8c3c"},"vehicle_type_id":"4","last_reported":1757876772,"current_range_meters":4400,"station_id":"","pricing_plan_id":"cebpf4jnsgd1na2vs0mg"},{"bike_id":"17594996-e307-4ceb-a307-c89bb2e113e9","system_id":"levelo_inurba_marseille","lat":43.29576,"lon":5.39969,"is_reserved":false,"is_disabled":false,"rental_uris":{"android":"levelo://app?vid=17594996-e307-4ceb-a307-c89bb2e113e9","ios":"levelo://app?vid=17594996-e307-4ceb-a307-c89bb2e113e9"},"vehicle_type_id":"4","last_reported":1757876772,"current_range_meters":4000,"station_id":"ce4bh312rcd13ifvqdj0","pricing_plan_id":"cebpf4jnsgd1na2vs0mg"},{"bike_id":"ac630a74-bbc8-4e9e-9b99-3a968484a89d","system_id":"levelo_inurba_marseille","lat":43.28415,"lon":5.37518,"is_reserved":false,"is_disabled":false,"rental_uris":{"android":"levelo://app?vid=ac630a74-bbc8-4e9e-9b99-3a968484a89d","ios":"levelo://app?vid=ac630a74-bbc8-4e9e-9b99-3a968484a89d"},"vehicle_type_id":"4","last_reported":1757876772,"current_range_meters":4400,"station_id":"ce4bh412rcd13ifvqds0","pricing_plan_id":"cebpf4jnsgd1na2vs0mg"},{"bike_id":"783be7ab-d464-4d8a-b33e-b61aae6afb2f","system_id":"levelo_inurba_marseille","lat":43.29713,"lon":5.36617,"is_reserved":false,"is_disabled":false,"rental_uris":{"android":"levelo://app?vid=783be7ab-d464-4d8a-b33e-b61aae6afb2f","ios":"levelo://app?vid=783be7ab-d464-4d8a-b33e-b61aae6afb2f"},"vehicle_type_id":"4","last_reported":1757876772,"current_range_meters":4400,"station_id":"ce4bgn12rcd13ifvqbt0","pricing_plan_id":"cebpf4jnsgd1na2vs0mg"},{"bike_id":"775af279-8ac9-4585-9121-809be9b13265","system_id":"levelo_inurba_marseille","lat":43.337775,"lon":5.374412,"is_reserved":false,"is_disabled":false,"rental_uris":{"android":"levelo://app?vid=775af279-8ac9-4585-9121-809be9b13265","ios":"levelo://app?vid=775af279-8ac9-4585-9121-809be9b13265"},"vehicle_type_id":"4","last_reported":1757876772,"current_range_meters":4800,"station_id":"","pricing_plan_id":"cebpf4jnsgd1na2vs0mg"},{"bike_id":"37991dc5-0d07-479b-b593-6a258e4cd54d","system_id":"levelo_inurba_marseille","lat":43.31332,"lon":5.39709,"is_reserved":false,"is_disabled":false,"rental_uris":{"android":"levelo://app?vid=37991dc5-0d07-479b-b593-6a258e4cd54d","ios":"levelo://app?vid=37991dc5-0d07-479b-b593-6a258e4cd54d"},"vehicle_type_id":"4","last_reported":1757876772,"current_range_meters":4800,"station_id":"ce4bgvp2rcd13ifvqcu0","pricing_plan_id":"cebpf4jnsgd1na2vs0mg"},{"bike_id":"8b4892eb-65cf-4f5c-8516-9daca5c76530","system_id":"levelo_inurba_marseille","lat":43.31492,"lon":5.37308,"is_reserved":false,"is_disabled":false,"rental_uris":{"android":"levelo://app?vid=8b4892eb-65cf-4f5c-8516-9daca5c76530","ios":"levelo://app?vid=8b4892eb-65cf-4f5c-8516-9daca5c76530"},"vehicle_type_id":"4","last_reported":1757876772,"current_range_meters":5600,"station_id":"ce4bgt12rcd13ifvqcd0","pricing_plan_id":"cebpf4jnsgd1na2vs0mg"},{"bike_id":"69e7e8ac-177e-4d93-8560-c3cbb948e0a3","system_id":"levelo_inurba_marseille","lat":43.28462,"lon":5.35893,"is_reserved":false,"is_disabled":false,"rental_uris":{"android":"levelo://app?vid=69e7e8ac-177e-4d93-8560-c3cbb948e0a3","ios":"levelo://app?vid=69e7e8ac-177e-4d93-8560-c3cbb948e0a3"},"vehicle_type_id":"4","last_reported":1757876772,"current_range_meters":5600,"station_id":"ce4bhah2rcd13ifvqei0","pricing_plan_id":"cebpf4jnsgd1na2vs0mg"},{"bike_id":"502a2c30-4a67-4f6d-b741-d2734f446027","system_id":"levelo_inurba_marseille","lat":43.29966,"lon":5.38497,"is_reserved":false,"is_disabled":false,"rental_uris":{"android":"levelo://app?vid=502a2c30-4a67-4f6d-b741-d2734f446027","ios":"levelo://app?vid=502a2c30-4a67-4f6d-b741-d2734f446027"},"vehicle_type_id":"4","last_reported":1757876772,"current_range_meters":5600,"station_id":"ce4bgj92rcd13ifvqbd0","pricing_plan_id":"cebpf4jnsgd1na2vs0mg"},{"bike_id":"d3fd236f-5afc-4e1c-af55-a14801a59766","system_id":"levelo_inurba_marseille","lat":43.26227,"lon":5.40452,"is_reserved":false,"is_disabled":false,"rental_uris":{"android":"levelo://app?vid=d3fd236f-5afc-4e1c-af55-a14801a59766","ios":"levelo://app?vid=d3fd236f-5afc-4e1c-af55-a14801a59766"},"vehicle_type_id":"4","last_reported":1757876772,"current_range_meters":6000,"station_id":"ce4bhmh2rcd13ifvqgmg","pricing_plan_id":"cebpf4jnsgd1na2vs0mg"},{"bike_id":"0eac0c05-dbf1-4c0b-af6d-53c5df91e290","system_id":"levelo_inurba_marseille","lat":43.29683,"lon":5.37121,"is_reserved":false,"is_disabled":false,"rental_uris":{"android":"levelo://app?vid=0eac0c05-dbf1-4c0b-af6d-53c5df91e290","ios":"levelo://app?vid=0eac0c05-dbf1-4c0b-af6d-53c5df91e290"},"vehicle_type_id":"4","last_reported":1757876772,"current_range_meters":6000,"station_id":"","pricing_plan_id":"cebpf4jnsgd1na2vs0mg"},{"bike_id":"235c67f5-0bcf-40ba-b5be-c9022a5d846b","system_id":"levelo_inurba_marseille","lat":43.3043,"lon":5.38883,"is_reserved":false,"is_disabled":false,"rental_uris":{"android":"levelo://app?vid=235c67f5-0bcf-40ba-b5be-c9022a5d846b","ios":"levelo://app?vid=235c67f5-0bcf-40ba-b5be-c9022a5d846b"},"vehicle_type_id":"4","last_reported":1757876772,"current_range_meters":6000,"station_id":"ce4bgk12rcd13ifvqbi0","pricing_plan_id":"cebpf4jnsgd1na2vs0mg"},{"bike_id":"b43495c4-2096-40d9-b249-5144717ad98c","system_id":"levelo_inurba_marseille","lat":43.28709,"lon":5.37395,"is_reserved":false,"is_disabled":false,"rental_uris":{"android":"levelo://app?vid=b43495c4-2096-40d9-b249-5144717ad98c","ios":"levelo://app?vid=b43495c4-2096-40d9-b249-5144717ad98c"},"vehicle_type_id":"4","last_reported":1757876772,"current_range_meters":6000,"station_id":"ce4bh3p2rcd13ifvqdq0","pricing_plan_id":"cebpf4jnsgd1na2vs0mg"},{"bike_id":"ae2200e0-55fa-4d16-87bf-72ca65d67371","system_id":"levelo_inurba_marseille","lat":43.283779,"lon":5.384678,"is_reserved":false,"is_disabled":false,"rental_uris":{"android":"levelo://app?vid=ae2200e0-55fa-4d16-87bf-72ca65d67371","ios":"levelo://app?vid=ae2200e0-55fa-4d16-87bf-72ca65d67371"},"vehicle_type_id":"4","last_reported":1757876772,"current_range_meters":6000,"station_id":"","pricing_plan_id":"cebpf4jnsgd1na2vs0mg"},{"bike_id":"eaaacc53-2e20-4d94-a39c-7469229878f8","system_id":"levelo_inurba_marseille","lat":43.29268,"lon":5.37633,"is_reserved":false,"is_disabled":false,"rental_uris":{"android":"levelo://app?vid=eaaacc53-2e20-4d94-a39c-7469229878f8","ios":"levelo://app?vid=eaaacc53-2e20-4d94-a39c-7469229878f8"},"vehicle_type_id":"4","last_reported":1757876772,"current_range_meters":6000,"station_id":"ce4bgi12rcd13ifvqb80","pricing_plan_id":"cebpf4jnsgd1na2vs0mg"},{"bike_id":"e1d2e4b0-dcc3-4ec6-8f60-71a0707cd0fe","system_id":"levelo_inurba_marseille","lat":43.21746,"lon":5.34606,"is_reserved":false,"is_disabled":true,"rental_uris":{"android":"levelo://app?vid=e1d2e4b0-dcc3-4ec6-8f60-71a0707cd0fe","ios":"levelo://app?vid=e1d2e4b0-dcc3-4ec6-8f60-71a0707cd0fe"},"vehicle_type_id":"4","last_reported":1757876772,"current_range_meters":6000,"station_id":"st_cvj6r9ubvosntc0bgbag","pricing_plan_id":"cebpf4jnsgd1na2vs0mg"},{"bike_id":"c5f0b278-b73e-4b00-b4d0-451293d08570","system_id":"levelo_inurba_marseille","lat":43.29538,"lon":5.38551,"is_reserved":false,"is_disabled":false,"rental_uris":{"android":"levelo://app?vid=c5f0b278-b73e-4b00-b4d0-451293d08570","ios":"levelo://app?vid=c5f0b278-b73e-4b00-b4d0-451293d08570"},"vehicle_type_id":"4","last_reported":1757876772,"current_range_meters":6400,"station_id":"ce4bgih2rcd13ifvqba0","pricing_plan_id":"cebpf4jnsgd1na2vs0mg"},{"bike_id":"61b9ca63-58d9-4a34-ab51-c1e222bf0cb8","system_id":"levelo_inurba_marseille","lat":43.29438,"lon":5.39746,"is_reserved":false,"is_disabled":false,"rental_uris":{"android":"levelo://app?vid=61b9ca63-58d9-4a34-ab51-c1e222bf0cb8","ios":"levelo://app?vid=61b9ca63-58d9-4a34-ab51-c1e222bf0cb8"},"vehicle_type_id":"4","last_reported":1757876772,"current_range_meters":6400,"station_id":"ce4bh3h2rcd13ifvqdo0","pricing_plan_id":"cebpf4jnsgd1na2vs0mg"},{"bike_id":"94f81f39-3c51-4c7c-9f88-5224c18d3bd6","system_id":"levelo_inurba_marseille","lat":43.31888,"lon":5.407405,"is_reserved":false,"is_disabled":false,"rental_uris":{"android":"levelo://app?vid=94f81f39-3c51-4c7c-9f88-5224c18d3bd6","ios":"levelo://app?vid=94f81f39-3c51-4c7c-9f88-5224c18d3bd6"},"vehicle_type_id":"4","last_reported":1757876772,"current_range_meters":6400,"station_id":"ce4bhq12rcd13ifvqhig","pricing_plan_id":"cebpf4jnsgd1na2vs0mg"},{"bike_id":"52f7214f-3667-4c40-8950-751e4a3e14cb","system_id":"levelo_inurba_marseille","lat":43.29578,"lon":5.375254,"is_reserved":false,"is_disabled":false,"rental_uris":{"android":"levelo://app?vid=52f7214f-3667-4c40-8950-751e4a3e14cb","ios":"levelo://app?vid=52f7214f-3667-4c40-8950-751e4a3e14cb"},"vehicle_type_id":"4","last_reported":1757876772,"current_range_meters":6400,"station_id":"","pricing_plan_id":"cebpf4jnsgd1na2vs0mg"},{"bike_id":"4826cbd9-df74-4636-ae1c-69ee49e74125","system_id":"levelo_inurba_marseille","lat":43.29085,"lon":5.401,"is_reserved":false,"is_disabled":false,"rental_uris":{"android":"levelo://app?vid=4826cbd9-df74-4636-ae1c-69ee49e74125","ios":"levelo://app?vid=4826cbd9-df74-4636-ae1c-69ee49e74125"},"vehicle_type_id":"4","last_reported":1757876772,"current_range_meters":6400,"station_id":"ce4bh392rcd13ifvqdm0","pricing_plan_id":"cebpf4jnsgd1na2vs0mg"},{"bike_id":"a24c4696-920b-4645-847f-87e0b46915a6","system_id":"levelo_inurba_marseille","lat":43.32432,"lon":5.42514,"is_reserved":false,"is_disabled":false,"rental_uris":{"android":"levelo://app?vid=a24c4696-920b-4645-847f-87e0b46915a6","ios":"levelo://app?vid=a24c4696-920b-4645-847f-87e0b46915a6"},"vehicle_type_id":"4","last_reported":1757876772,"current_range_meters":6800,"station_id":"","pricing_plan_id":"cebpf4jnsgd1na2vs0mg"},{"bike_id":"963e6d85-80fd-4383-9731-2a852cd4832a","system_id":"levelo_inurba_marseille","lat":43.29025,"lon":5.381249,"is_reserved":false,"is_disabled":false,"rental_uris":{"android":"levelo://app?vid=963e6d85-80fd-4383-9731-2a852cd4832a","ios":"levelo://app?vid=963e6d85-80fd-4383-9731-2a852cd4832a"},"vehicle_type_id":"4","last_reported":1757876772,"current_range_meters":6800,"station_id":"ce4bh4p2rcd13ifvqe1g","pricing_plan_id":"cebpf4jnsgd1na2vs0mg"},{"bike_id":"0d0da5b5-971d-4dc1-850b-ba128cb99207","system_id":"levelo_inurba_marseille","lat":43.28088,"lon":5.39649,"is_reserved":false,"is_disabled":true,"rental_uris":{"android":"levelo://app?vid=0d0da5b5-971d-4dc1-850b-ba128cb99207","ios":"levelo://app?vid=0d0da5b5-971d-4dc1-850b-ba128cb99207"},"vehicle_type_id":"4","last_reported":1757876772,"current_range_meters":6800,"station_id":"ce4bho12rcd13ifvqh2g","pricing_plan_id":"cebpf4jnsgd1na2vs0mg"},{"bike_id":"8e933bdd-8386-4746-b908-440987fc38d7","system_id":"levelo_inurba_marseille","lat":43.29609,"lon":5.38093,"is_reserved":false,"is_disabled":false,"rental_uris":{"android":"levelo://app?vid=8e933bdd-8386-4746-b908-440987fc38d7","ios":"levelo://app?vid=8e933bdd-8386-4746-b908-440987fc38d7"},"vehicle_type_id":"4","last_reported":1757876772,"current_range_meters":6800,"station_id":"ce4bgl12rcd13ifvqbo0","pricing_plan_id":"cebpf4jnsgd1na2vs0mg"},{"bike_id":"829a3456-027a-42b8-a720-e1f689452a1c","system_id":"levelo_inurba_marseille","lat":43.25871,"lon":5.39896,"is_reserved":false,"is_disabled":false,"rental_uris":{"android":"levelo://app?vid=829a3456-027a-42b8-a720-e1f689452a1c","ios":"levelo://app?vid=829a3456-027a-42b8-a720-e1f689452a1c"},"vehicle_type_id":"4","last_reported":1757876772,"current_range_meters":6800,"station_id":"ce4bhl92rcd13ifvqghg","pricing_plan_id":"cebpf4jnsgd1na2vs0mg"},{"bike_id":"4167e874-b448-4512-a341-3ee6f2d01332","system_id":"levelo_inurba_marseille","lat":43.309254,"lon":5.401459,"is_reserved":false,"is_disabled":false,"rental_uris":{"android":"levelo://app?vid=4167e874-b448-4512-a341-3ee6f2d01332","ios":"levelo://app?vid=4167e874-b448-4512-a341-3ee6f2d01332"},"vehicle_type_id":"4","last_reported":1757876772,"current_range_meters":7200,"station_id":"ce4bgvp2rcd13ifvqct0","pricing_plan_id":"cebpf4jnsgd1na2vs0mg"},{"bike_id":"cbd6e891-6ea4-484c-b167-fec7ec71ecdc","system_id":"levelo_inurba_marseille","lat":43.27223,"lon":5.40968,"is_reserved":false,"is_disabled":false,"rental_uris":{"android":"levelo://app?vid=cbd6e891-6ea4-484c-b167-fec7ec71ecdc","ios":"levelo://app?vid=cbd6e891-6ea4-484c-b167-fec7ec71ecdc"},"vehicle_type_id":"4","last_reported":1757876772,"current_range_meters":7200,"station_id":"ce4bhl12rcd13ifvqgf0","pricing_plan_id":"cebpf4jnsgd1na2vs0mg"},{"bike_id":"f146c234-70b7-4b15-8dd6-95a1ff411280","system_id":"levelo_inurba_marseille","lat":43.30887,"lon":5.39653,"is_reserved":false,"is_disabled":false,"rental_uris":{"android":"levelo://app?vid=f146c234-70b7-4b15-8dd6-95a1ff411280","ios":"levelo://app?vid=f146c234-70b7-4b15-8dd6-95a1ff411280"},"vehicle_type_id":"4","last_reported":1757876772,"current_range_meters":7200,"station_id":"ce4bh012rcd13ifvqcv0","pricing_plan_id":"cebpf4jnsgd1na2vs0mg"},{"bike_id":"9a45254c-c77a-469d-8fa3-a3fa05a580ba","system_id":"levelo_inurba_marseille","lat":43.27218,"lon":5.38579,"is_reserved":false,"is_disabled":false,"rental_uris":{"android":"levelo://app?vid=9a45254c-c77a-469d-8fa3-a3fa05a580ba","ios":"levelo://app?vid=9a45254c-c77a-469d-8fa3-a3fa05a580ba"},"vehicle_type_id":"4","last_reported":1757876772,"current_range_meters":7200,"station_id":"","pricing_plan_id":"cebpf4jnsgd1na2vs0mg"},{"bike_id":"463345a6-2d4f-4448-8488-9cab1efda713","system_id":"levelo_inurba_marseille","lat":43.25434,"lon":5.40155,"is_reserved":false,"is_disabled":false,"rental_uris":{"android":"levelo://app?vid=463345a6-2d4f-4448-8488-9cab1efda713","ios":"levelo://app?vid=463345a6-2d4f-4448-8488-9cab1efda713"},"vehicle_type_id":"4","last_reported":1757876772,"current_range_meters":7200,"station_id":"","pricing_plan_id":"cebpf4jnsgd1na2vs0mg"},{"bike_id":"4891d751-b66c-4a3d-89d5-78926b795844","system_id":"levelo_inurba_marseille","lat":43.30255,"lon":5.44827,"is_reserved":false,"is_disabled":false,"rental_uris":{"android":"levelo://app?vid=4891d751-b66c-4a3d-89d5-78926b795844","ios":"levelo://app?vid=4891d751-b66c-4a3d-89d5-78926b795844"},"vehicle_type_id":"4","last_reported":1757876772,"current_range_meters":8000,"station_id":"","pricing_plan_id":"cebpf4jnsgd1na2vs0mg"},{"bike_id":"26fb7b99-6c61-42a9-86e0-57eb665302d2","system_id":"levelo_inurba_marseille","lat":43.3117,"lon":5.37755,"is_reserved":false,"is_disabled":false,"rental_uris":{"android":"levelo://app?vid=26fb7b99-6c61-42a9-86e0-57eb665302d2","ios":"levelo://app?vid=26fb7b99-6c61-42a9-86e0-57eb665302d2"},"vehicle_type_id":"4","last_reported":1757876772,"current_range_meters":8000,"station_id":"","pricing_plan_id":"cebpf4jnsgd1na2vs0mg"},{"bike_id":"84be000e-b186-4e60-8aaa-b7a0f42a7175","system_id":"levelo_inurba_marseille","lat":43.337616,"lon":5.374353,"is_reserved":false,"is_disabled":false,"rental_uris":{"android":"levelo://app?vid=84be000e-b186-4e60-8aaa-b7a0f42a7175","ios":"levelo://app?vid=84be000e-b186-4e60-8aaa-b7a0f42a7175"},"vehicle_type_id":"4","last_reported":1757876772,"current_range_meters":8000,"station_id":"","pricing_plan_id":"cebpf4jnsgd1na2vs0mg"},{"bike_id":"c675a074-2c28-407f-91ec-e776fd90bf09","system_id":"levelo_inurba_marseille","lat":43.290013,"lon":5.356119,"is_reserved":false,"is_disabled":false,"rental_uris":{"android":"levelo://app?vid=c675a074-2c28-407f-91ec-e776fd90bf09","ios":"levelo://app?vid=c675a074-2c28-407f-91ec-e776fd90bf09"},"vehicle_type_id":"4","last_reported":1757876772,"current_range_meters":8000,"station_id":"ce4bhb92rcd13ifvqen0","pricing_plan_id":"cebpf4jnsgd1na2vs0mg"},{"bike_id":"78f84639-56f9-4c15-8768-49ed5cee722d","system_id":"levelo_inurba_marseille","lat":43.260182,"lon":5.375535,"is_reserved":false,"is_disabled":true,"rental_uris":{"android":"levelo://app?vid=78f84639-56f9-4c15-8768-49ed5cee722d","ios":"levelo://app?vid=78f84639-56f9-4c15-8768-49ed5cee722d"},"vehicle_type_id":"4","last_reported":1757876772,"current_range_meters":8000,"station_id":"ce4bhgh2rcd13ifvqfa0","pricing_plan_id":"cebpf4jnsgd1na2vs0mg"},{"bike_id":"cf4f2820-ea7c-45b3-b190-6cf3b7bed735","system_id":"levelo_inurba_marseille","lat":43.30875,"lon":5.39651,"is_reserved":false,"is_disabled":false,"rental_uris":{"android":"levelo://app?vid=cf4f2820-ea7c-45b3-b190-6cf3b7bed735","ios":"levelo://app?vid=cf4f2820-ea7c-45b3-b190-6cf3b7bed735"},"vehicle_type_id":"4","last_reported":1757876772,"current_range_meters":8000,"station_id":"ce4bh012rcd13ifvqcv0","pricing_plan_id":"cebpf4jnsgd1na2vs0mg"},{"bike_id":"60e7d973-6ba2-471d-bb31-9cac258e3bd9","system_id":"levelo_inurba_marseille","lat":43.27926,"lon":5.39586,"is_reserved":false,"is_disabled":false,"rental_uris":{"android":"levelo://app?vid=60e7d973-6ba2-471d-bb31-9cac258e3bd9","ios":"levelo://app?vid=60e7d973-6ba2-471d-bb31-9cac258e3bd9"},"vehicle_type_id":"4","last_reported":1757876772,"current_range_meters":8000,"station_id":"ce4bhf92rcd13ifvqf40","pricing_plan_id":"cebpf4jnsgd1na2vs0mg"},{"bike_id":"b707963e-25dc-4657-8fc6-d29923baa39a","system_id":"levelo_inurba_marseille","lat":43.25865,"lon":5.39908,"is_reserved":false,"is_disabled":false,"rental_uris":{"android":"levelo://app?vid=b707963e-25dc-4657-8fc6-d29923baa39a","ios":"levelo://app?vid=b707963e-25dc-4657-8fc6-d29923baa39a"},"vehicle_type_id":"4","last_reported":1757876772,"current_range_meters":8000,"station_id":"ce4bhl92rcd13ifvqghg","pricing_plan_id":"cebpf4jnsgd1na2vs0mg"},{"bike_id":"c58ae876-bc89-4440-b5c3-d0cf4fa7047d","system_id":"levelo_inurba_marseille","lat":43.29515,"lon":5.39043,"is_reserved":false,"is_disabled":false,"rental_uris":{"android":"levelo://app?vid=c58ae876-bc89-4440-b5c3-d0cf4fa7047d","ios":"levelo://app?vid=c58ae876-bc89-4440-b5c3-d0cf4fa7047d"},"vehicle_type_id":"4","last_reported":1757876772,"current_range_meters":8000,"station_id":"ce4bh3p2rcd13ifvqdp0","pricing_plan_id":"cebpf4jnsgd1na2vs0mg"},{"bike_id":"d224ab29-3000-4bbf-8c7a-2737b8f93d8e","system_id":"levelo_inurba_marseille","lat":43.24804,"lon":5.37437,"is_reserved":false,"is_disabled":true,"rental_uris":{"android":"levelo://app?vid=d224ab29-3000-4bbf-8c7a-2737b8f93d8e","ios":"levelo://app?vid=d224ab29-3000-4bbf-8c7a-2737b8f93d8e"},"vehicle_type_id":"4","last_reported":1757876772,"current_range_meters":8000,"station_id":"ce4bhgh2rcd13ifvqfb0","pricing_plan_id":"cebpf4jnsgd1na2vs0mg"},{"bike_id":"799abdac-8495-45a0-8bb6-09e6179469d5","system_id":"levelo_inurba_marseille","lat":43.25507,"lon":5.37652,"is_reserved":false,"is_disabled":true,"rental_uris":{"android":"levelo://app?vid=799abdac-8495-45a0-8bb6-09e6179469d5","ios":"levelo://app?vid=799abdac-8495-45a0-8bb6-09e6179469d5"},"vehicle_type_id":"4","last_reported":1757876772,"current_range_meters":8400,"station_id":"ce4bhh12rcd13ifvqff0","pricing_plan_id":"cebpf4jnsgd1na2vs0mg"},{"bike_id":"e040dc75-d981-4fe2-969a-1848163c8fe0","system_id":"levelo_inurba_marseille","lat":43.29175,"lon":5.37147,"is_reserved":false,"is_disabled":false,"rental_uris":{"android":"levelo://app?vid=e040dc75-d981-4fe2-969a-1848163c8fe0","ios":"levelo://app?vid=e040dc75-d981-4fe2-969a-1848163c8fe0"},"vehicle_type_id":"4","last_reported":1757876772,"current_range_meters":8400,"station_id":"ce4bha92rcd13ifvqeh0","pricing_plan_id":"cebpf4jnsgd1na2vs0mg"},{"bike_id":"38193a70-2ce0-4df3-8e83-dbda80bb6624","system_id":"levelo_inurba_marseille","lat":43.30133,"lon":5.39867,"is_reserved":false,"is_disabled":false,"rental_uris":{"android":"levelo://app?vid=38193a70-2ce0-4df3-8e83-dbda80bb6624","ios":"levelo://app?vid=38193a70-2ce0-4df3-8e83-dbda80bb6624"},"vehicle_type_id":"4","last_reported":1757876772,"current_range_meters":8400,"station_id":"","pricing_plan_id":"cebpf4jnsgd1na2vs0mg"},{"bike_id":"7c9c15cb-71fc-4ae9-a920-bca9ac795d6e","system_id":"levelo_inurba_marseille","lat":43.29909,"lon":5.38152,"is_reserved":false,"is_disabled":false,"rental_uris":{"android":"levelo://app?vid=7c9c15cb-71fc-4ae9-a920-bca9ac795d6e","ios":"levelo://app?vid=7c9c15cb-71fc-4ae9-a920-bca9ac795d6e"},"vehicle_type_id":"4","last_reported":1757876772,"current_range_meters":8000,"station_id":"ce4bgj12rcd13ifvqbc0","pricing_plan_id":"cebpf4jnsgd1na2vs0mg"},{"bike_id":"c059e0b6-d93b-4f95-b7ef-3ad516be3d14","system_id":"levelo_inurba_marseille","lat":43.30783,"lon":5.37654,"is_reserved":false,"is_disabled":false,"rental_uris":{"android":"levelo://app?vid=c059e0b6-d93b-4f95-b7ef-3ad516be3d14","ios":"levelo://app?vid=c059e0b6-d93b-4f95-b7ef-3ad516be3d14"},"vehicle_type_id":"4","last_reported":1757876772,"current_range_meters":8400,"station_id":"ce4bgv92rcd13ifvqcq0","pricing_plan_id":"cebpf4jnsgd1na2vs0mg"},{"bike_id":"d5c98035-fc72-4062-a3ec-13203f68e8ed","system_id":"levelo_inurba_marseille","lat":43.28876,"lon":5.42505,"is_reserved":false,"is_disabled":false,"rental_uris":{"android":"levelo://app?vid=d5c98035-fc72-4062-a3ec-13203f68e8ed","ios":"levelo://app?vid=d5c98035-fc72-4062-a3ec-13203f68e8ed"},"vehicle_type_id":"4","last_reported":1757876772,"current_range_meters":8400,"station_id":"","pricing_plan_id":"cebpf4jnsgd1na2vs0mg"},{"bike_id":"02dbb44c-70e3-4a7a-b86e-6159cc35ba47","system_id":"levelo_inurba_marseille","lat":43.29587,"lon":5.38689,"is_reserved":false,"is_disabled":false,"rental_uris":{"android":"levelo://app?vid=02dbb44c-70e3-4a7a-b86e-6159cc35ba47","ios":"levelo://app?vid=02dbb44c-70e3-4a7a-b86e-6159cc35ba47"},"vehicle_type_id":"4","last_reported":1757876772,"current_range_meters":8400,"station_id":"ce4bgih2rcd13ifvqba0","pricing_plan_id":"cebpf4jnsgd1na2vs0mg"},{"bike_id":"312d1202-5943-43b9-a805-a645ad324f51","system_id":"levelo_inurba_marseille","lat":43.292637,"lon":5.401493,"is_reserved":false,"is_disabled":true,"rental_uris":{"android":"levelo://app?vid=312d1202-5943-43b9-a805-a645ad324f51","ios":"levelo://app?vid=312d1202-5943-43b9-a805-a645ad324f51"},"vehicle_type_id":"4","last_reported":1757876772,"current_range_meters":8800,"station_id":"ce4bh312rcd13ifvqdk0","pricing_plan_id":"cebpf4jnsgd1na2vs0mg"},{"bike_id":"6515536f-56de-4109-b7a1-24c742aed225","system_id":"levelo_inurba_marseille","lat":43.31997,"lon":5.37234,"is_reserved":false,"is_disabled":true,"rental_uris":{"android":"levelo://app?vid=6515536f-56de-4109-b7a1-24c742aed225","ios":"levelo://app?vid=6515536f-56de-4109-b7a1-24c742aed225"},"vehicle_type_id":"4","last_reported":1757876772,"current_range_meters":8800,"station_id":"","pricing_plan_id":"cebpf4jnsgd1na2vs0mg"},{"bike_id":"55d59e02-f5a5-4e1a-9360-556e842fa2a4","system_id":"levelo_inurba_marseille","lat":43.33764,"lon":5.37496,"is_reserved":false,"is_disabled":false,"rental_uris":{"android":"levelo://app?vid=55d59e02-f5a5-4e1a-9360-556e842fa2a4","ios":"levelo://app?vid=55d59e02-f5a5-4e1a-9360-556e842fa2a4"},"vehicle_type_id":"4","last_reported":1757876772,"current_range_meters":8800,"station_id":"","pricing_plan_id":"cebpf4jnsgd1na2vs0mg"},{"bike_id":"182289c1-d8ed-492c-a287-70c8f4e5e1b2","system_id":"levelo_inurba_marseille","lat":43.32402,"lon":5.38931,"is_reserved":false,"is_disabled":false,"rental_uris":{"android":"levelo://app?vid=182289c1-d8ed-492c-a287-70c8f4e5e1b2","ios":"levelo://app?vid=182289c1-d8ed-492c-a287-70c8f4e5e1b2"},"vehicle_type_id":"4","last_reported":1757876772,"current_range_meters":8800,"station_id":"","pricing_plan_id":"cebpf4jnsgd1na2vs0mg"},{"bike_id":"d5fe8587-d577-4927-9f03-bf5f1fa338f3","system_id":"levelo_inurba_marseille","lat":43.325712,"lon":5.375984,"is_reserved":false,"is_disabled":false,"rental_uris":{"android":"levelo://app?vid=d5fe8587-d577-4927-9f03-bf5f1fa338f3","ios":"levelo://app?vid=d5fe8587-d577-4927-9f03-bf5f1fa338f3"},"vehicle_type_id":"4","last_reported":1757876772,"current_range_meters":8800,"station_id":"","pricing_plan_id":"cebpf4jnsgd1na2vs0mg"},{"bike_id":"af0bc583-7fec-4eb9-b138-5b9818ee6ff1","system_id":"levelo_inurba_marseille","lat":43.28229,"lon":5.39076,"is_reserved":false,"is_disabled":false,"rental_uris":{"android":"levelo://app?vid=af0bc583-7fec-4eb9-b138-5b9818ee6ff1","ios":"levelo://app?vid=af0bc583-7fec-4eb9-b138-5b9818ee6ff1"},"vehicle_type_id":"4","last_reported":1757876772,"current_range_meters":8800,"station_id":"ce4bhn92rcd13ifvqgsg","pricing_plan_id":"cebpf4jnsgd1na2vs0mg"},{"bike_id":"406f6607-363d-4cf0-95ae-26829ed0307c","system_id":"levelo_inurba_marseille","lat":43.26211,"lon":5.4045,"is_reserved":false,"is_disabled":true,"rental_uris":{"android":"levelo://app?vid=406f6607-363d-4cf0-95ae-26829ed0307c","ios":"levelo://app?vid=406f6607-363d-4cf0-95ae-26829ed0307c"},"vehicle_type_id":"4","last_reported":1757876772,"current_range_meters":8800,"station_id":"ce4bhmh2rcd13ifvqgmg","pricing_plan_id":"cebpf4jnsgd1na2vs0mg"},{"bike_id":"974e0192-4f9e-4803-b6bc-e5f6e12940e1","system_id":"levelo_inurba_marseille","lat":43.31636,"lon":5.38976,"is_reserved":false,"is_disabled":false,"rental_uris":{"android":"levelo://app?vid=974e0192-4f9e-4803-b6bc-e5f6e12940e1","ios":"levelo://app?vid=974e0192-4f9e-4803-b6bc-e5f6e12940e1"},"vehicle_type_id":"4","last_reported":1757876772,"current_range_meters":9200,"station_id":"","pricing_plan_id":"cebpf4jnsgd1na2vs0mg"},{"bike_id":"af855c88-100f-429f-ba0c-3dad51b30928","system_id":"levelo_inurba_marseille","lat":43.21171,"lon":5.35035,"is_reserved":false,"is_disabled":true,"rental_uris":{"android":"levelo://app?vid=af855c88-100f-429f-ba0c-3dad51b30928","ios":"levelo://app?vid=af855c88-100f-429f-ba0c-3dad51b30928"},"vehicle_type_id":"4","last_reported":1757876772,"current_range_meters":9200,"station_id":"st_cvj6sg6p6f1abm77japg","pricing_plan_id":"cebpf4jnsgd1na2vs0mg"},{"bike_id":"f85a8c4d-f9d0-4136-9b57-8bfb28db950c","system_id":"levelo_inurba_marseille","lat":43.29863,"lon":5.37665,"is_reserved":false,"is_disabled":false,"rental_uris":{"android":"levelo://app?vid=f85a8c4d-f9d0-4136-9b57-8bfb28db950c","ios":"levelo://app?vid=f85a8c4d-f9d0-4136-9b57-8bfb28db950c"},"vehicle_type_id":"4","last_reported":1757876772,"current_range_meters":9200,"station_id":"","pricing_plan_id":"cebpf4jnsgd1na2vs0mg"},{"bike_id":"cbb8864b-0bc9-4dec-ac4b-2597c9ab81bf","system_id":"levelo_inurba_marseille","lat":43.29262,"lon":5.40898,"is_reserved":false,"is_disabled":false,"rental_uris":{"android":"levelo://app?vid=cbb8864b-0bc9-4dec-ac4b-2597c9ab81bf","ios":"levelo://app?vid=cbb8864b-0bc9-4dec-ac4b-2597c9ab81bf"},"vehicle_type_id":"4","last_reported":1757876772,"current_range_meters":9200,"station_id":"ce4bh192rcd13ifvqdc0","pricing_plan_id":"cebpf4jnsgd1na2vs0mg"},{"bike_id":"a8a09358-2290-4c7f-93c8-1eb2c329bf6a","system_id":"levelo_inurba_marseille","lat":43.28694,"lon":5.39986,"is_reserved":false,"is_disabled":false,"rental_uris":{"android":"levelo://app?vid=a8a09358-2290-4c7f-93c8-1eb2c329bf6a","ios":"levelo://app?vid=a8a09358-2290-4c7f-93c8-1eb2c329bf6a"},"vehicle_type_id":"4","last_reported":1757876772,"current_range_meters":9200,"station_id":"ce4bho92rcd13ifvqh3g","pricing_plan_id":"cebpf4jnsgd1na2vs0mg"},{"bike_id":"d9c11a94-d122-4240-b95b-24fdee8810ac","system_id":"levelo_inurba_marseille","lat":43.28263,"lon":5.39918,"is_reserved":false,"is_disabled":false,"rental_uris":{"android":"levelo://app?vid=d9c11a94-d122-4240-b95b-24fdee8810ac","ios":"levelo://app?vid=d9c11a94-d122-4240-b95b-24fdee8810ac"},"vehicle_type_id":"4","last_reported":1757876772,"current_range_meters":9200,"station_id":"","pricing_plan_id":"cebpf4jnsgd1na2vs0mg"},{"bike_id":"71baa5b7-765e-4c6a-b73e-74b1851adca6","system_id":"levelo_inurba_marseille","lat":43.29378,"lon":5.37838,"is_reserved":false,"is_disabled":false,"rental_uris":{"android":"levelo://app?vid=71baa5b7-765e-4c6a-b73e-74b1851adca6","ios":"levelo://app?vid=71baa5b7-765e-4c6a-b73e-74b1851adca6"},"vehicle_type_id":"4","last_reported":1757876772,"current_range_meters":9200,"station_id":"ce4bgjh2rcd13ifvqbf0","pricing_plan_id":"cebpf4jnsgd1na2vs0mg"},{"bike_id":"f07d1a34-6972-4c1d-8ed8-100dd0fc1e78","system_id":"levelo_inurba_marseille","lat":43.32985,"lon":5.39052,"is_reserved":false,"is_disabled":false,"rental_uris":{"android":"levelo://app?vid=f07d1a34-6972-4c1d-8ed8-100dd0fc1e78","ios":"levelo://app?vid=f07d1a34-6972-4c1d-8ed8-100dd0fc1e78"},"vehicle_type_id":"4","last_reported":1757876772,"current_range_meters":9200,"station_id":"ce4bhr92rcd13ifvqhrg","pricing_plan_id":"cebpf4jnsgd1na2vs0mg"},{"bike_id":"3c9128d0-01dc-40f4-8808-bb4c325aa570","system_id":"levelo_inurba_marseille","lat":43.30139,"lon":5.39869,"is_reserved":false,"is_disabled":false,"rental_uris":{"android":"levelo://app?vid=3c9128d0-01dc-40f4-8808-bb4c325aa570","ios":"levelo://app?vid=3c9128d0-01dc-40f4-8808-bb4c325aa570"},"vehicle_type_id":"4","last_reported":1757876772,"current_range_meters":9200,"station_id":"ce4bh0h2rcd13ifvqd40","pricing_plan_id":"cebpf4jnsgd1na2vs0mg"},{"bike_id":"31f4578e-18c6-48fb-9fec-123fce0578f9","system_id":"levelo_inurba_marseille","lat":43.337857,"lon":5.374284,"is_reserved":false,"is_disabled":false,"rental_uris":{"android":"levelo://app?vid=31f4578e-18c6-48fb-9fec-123fce0578f9","ios":"levelo://app?vid=31f4578e-18c6-48fb-9fec-123fce0578f9"},"vehicle_type_id":"4","last_reported":1757876772,"current_range_meters":9200,"station_id":"","pricing_plan_id":"cebpf4jnsgd1na2vs0mg"},{"bike_id":"893f7e5a-7c9e-4ab2-be69-29f588fd54c0","system_id":"levelo_inurba_marseille","lat":43.29174,"lon":5.37147,"is_reserved":false,"is_disabled":false,"rental_uris":{"android":"levelo://app?vid=893f7e5a-7c9e-4ab2-be69-29f588fd54c0","ios":"levelo://app?vid=893f7e5a-7c9e-4ab2-be69-29f588fd54c0"},"vehicle_type_id":"4","last_reported":1757876772,"current_range_meters":9600,"station_id":"ce4bha92rcd13ifvqeh0","pricing_plan_id":"cebpf4jnsgd1na2vs0mg"},{"bike_id":"76db0bf4-a7d2-4d09-b32b-1314dd72567b","system_id":"levelo_inurba_marseille","lat":43.29038,"lon":5.37569,"is_reserved":false,"is_disabled":false,"rental_uris":{"android":"levelo://app?vid=76db0bf4-a7d2-4d09-b32b-1314dd72567b","ios":"levelo://app?vid=76db0bf4-a7d2-4d09-b32b-1314dd72567b"},"vehicle_type_id":"4","last_reported":1757876772,"current_range_meters":9600,"station_id":"ce4bh692rcd13ifvqe90","pricing_plan_id":"cebpf4jnsgd1na2vs0mg"},{"bike_id":"58e4d2c3-ca5a-414f-acc3-c631f749869c","system_id":"levelo_inurba_marseille","lat":43.313546,"lon":5.38518,"is_reserved":false,"is_disabled":true,"rental_uris":{"android":"levelo://app?vid=58e4d2c3-ca5a-414f-acc3-c631f749869c","ios":"levelo://app?vid=58e4d2c3-ca5a-414f-acc3-c631f749869c"},"vehicle_type_id":"4","last_reported":1757876772,"current_range_meters":9600,"station_id":"ce4bgt92rcd13ifvqcf0","pricing_plan_id":"cebpf4jnsgd1na2vs0mg"},{"bike_id":"cd104b68-7370-4e88-ba9c-1edeee0f6c77","system_id":"levelo_inurba_marseille","lat":43.25201,"lon":5.425,"is_reserved":false,"is_disabled":true,"rental_uris":{"android":"levelo://app?vid=cd104b68-7370-4e88-ba9c-1edeee0f6c77","ios":"levelo://app?vid=cd104b68-7370-4e88-ba9c-1edeee0f6c77"},"vehicle_type_id":"4","last_reported":1757876772,"current_range_meters":9600,"station_id":"","pricing_plan_id":"cebpf4jnsgd1na2vs0mg"},{"bike_id":"ee42c31a-b74b-4b2d-917a-cd50dc10c6ce","system_id":"levelo_inurba_marseille","lat":43.32954,"lon":5.39312,"is_reserved":false,"is_disabled":false,"rental_uris":{"android":"levelo://app?vid=ee42c31a-b74b-4b2d-917a-cd50dc10c6ce","ios":"levelo://app?vid=ee42c31a-b74b-4b2d-917a-cd50dc10c6ce"},"vehicle_type_id":"4","last_reported":1757876772,"current_range_meters":9600,"station_id":"","pricing_plan_id":"cebpf4jnsgd1na2vs0mg"},{"bike_id":"6dc9bd4c-0a31-4df5-bdb2-b10071d86820","system_id":"levelo_inurba_marseille","lat":43.292678,"lon":5.392817,"is_reserved":false,"is_disabled":false,"rental_uris":{"android":"levelo://app?vid=6dc9bd4c-0a31-4df5-bdb2-b10071d86820","ios":"levelo://app?vid=6dc9bd4c-0a31-4df5-bdb2-b10071d86820"},"vehicle_type_id":"4","last_reported":1757876772,"current_range_meters":9600,"station_id":"ce4bh192rcd13ifvqdd0","pricing_plan_id":"cebpf4jnsgd1na2vs0mg"},{"bike_id":"c5cba6d7-e282-4417-a818-5fc0802dcb08","system_id":"levelo_inurba_marseille","lat":43.33761,"lon":5.3745,"is_reserved":false,"is_disabled":false,"rental_uris":{"android":"levelo://app?vid=c5cba6d7-e282-4417-a818-5fc0802dcb08","ios":"levelo://app?vid=c5cba6d7-e282-4417-a818-5fc0802dcb08"},"vehicle_type_id":"4","last_reported":1757876772,"current_range_meters":9600,"station_id":"","pricing_plan_id":"cebpf4jnsgd1na2vs0mg"},{"bike_id":"9e302c7a-49eb-4ca4-8111-cb914242caf1","system_id":"levelo_inurba_marseille","lat":43.29048,"lon":5.39958,"is_reserved":false,"is_disabled":false,"rental_uris":{"android":"levelo://app?vid=9e302c7a-49eb-4ca4-8111-cb914242caf1","ios":"levelo://app?vid=9e302c7a-49eb-4ca4-8111-cb914242caf1"},"vehicle_type_id":"4","last_reported":1757876772,"current_range_meters":9200,"station_id":"ce4bh392rcd13ifvqdm0","pricing_plan_id":"cebpf4jnsgd1na2vs0mg"},{"bike_id":"bbd8b317-6c4d-4b91-9ff0-63888e138e4d","system_id":"levelo_inurba_marseille","lat":43.28102,"lon":5.37847,"is_reserved":false,"is_disabled":false,"rental_uris":{"android":"levelo://app?vid=bbd8b317-6c4d-4b91-9ff0-63888e138e4d","ios":"levelo://app?vid=bbd8b317-6c4d-4b91-9ff0-63888e138e4d"},"vehicle_type_id":"4","last_reported":1757876772,"current_range_meters":9600,"station_id":"ce4bha12rcd13ifvqee0","pricing_plan_id":"cebpf4jnsgd1na2vs0mg"},{"bike_id":"30e85da9-4a4e-420a-bc64-cfe1eeea89eb","system_id":"levelo_inurba_marseille","lat":43.28354,"lon":5.37651,"is_reserved":false,"is_disabled":false,"rental_uris":{"android":"levelo://app?vid=30e85da9-4a4e-420a-bc64-cfe1eeea89eb","ios":"levelo://app?vid=30e85da9-4a4e-420a-bc64-cfe1eeea89eb"},"vehicle_type_id":"4","last_reported":1757876772,"current_range_meters":9600,"station_id":"","pricing_plan_id":"cebpf4jnsgd1na2vs0mg"},{"bike_id":"54756892-40fc-40da-862a-36f475f86070","system_id":"levelo_inurba_marseille","lat":43.29689,"lon":5.37139,"is_reserved":false,"is_disabled":false,"rental_uris":{"android":"levelo://app?vid=54756892-40fc-40da-862a-36f475f86070","ios":"levelo://app?vid=54756892-40fc-40da-862a-36f475f86070"},"vehicle_type_id":"4","last_reported":1757876772,"current_range_meters":9600,"station_id":"","pricing_plan_id":"cebpf4jnsgd1na2vs0mg"},{"bike_id":"f89d71e3-2fdb-4e87-85ff-28900a3c5b04","system_id":"levelo_inurba_marseille","lat":43.28702,"lon":5.3999,"is_reserved":false,"is_disabled":false,"rental_uris":{"android":"levelo://app?vid=f89d71e3-2fdb-4e87-85ff-28900a3c5b04","ios":"levelo://app?vid=f89d71e3-2fdb-4e87-85ff-28900a3c5b04"},"vehicle_type_id":"4","last_reported":1757876772,"current_range_meters":10000,"station_id":"ce4bho92rcd13ifvqh3g","pricing_plan_id":"cebpf4jnsgd1na2vs0mg"},{"bike_id":"a3e2ef8f-a94b-43a9-9ca6-ca89e6e0ff26","system_id":"levelo_inurba_marseille","lat":43.28416,"lon":5.37535,"is_reserved":false,"is_disabled":false,"rental_uris":{"android":"levelo://app?vid=a3e2ef8f-a94b-43a9-9ca6-ca89e6e0ff26","ios":"levelo://app?vid=a3e2ef8f-a94b-43a9-9ca6-ca89e6e0ff26"},"vehicle_type_id":"4","last_reported":1757876772,"current_range_meters":10000,"station_id":"ce4bh412rcd13ifvqds0","pricing_plan_id":"cebpf4jnsgd1na2vs0mg"},{"bike_id":"b5e3cd4d-2dd7-4015-ae05-e5fd4b1c81e8","system_id":"levelo_inurba_marseille","lat":43.28694,"lon":5.37404,"is_reserved":false,"is_disabled":false,"rental_uris":{"android":"levelo://app?vid=b5e3cd4d-2dd7-4015-ae05-e5fd4b1c81e8","ios":"levelo://app?vid=b5e3cd4d-2dd7-4015-ae05-e5fd4b1c81e8"},"vehicle_type_id":"4","last_reported":1757876772,"current_range_meters":10000,"station_id":"ce4bh3p2rcd13ifvqdq0","pricing_plan_id":"cebpf4jnsgd1na2vs0mg"},{"bike_id":"b404b7fa-20c8-47a8-8c3f-d0cb57ebe4a8","system_id":"levelo_inurba_marseille","lat":43.3118,"lon":5.38723,"is_reserved":false,"is_disabled":false,"rental_uris":{"android":"levelo://app?vid=b404b7fa-20c8-47a8-8c3f-d0cb57ebe4a8","ios":"levelo://app?vid=b404b7fa-20c8-47a8-8c3f-d0cb57ebe4a8"},"vehicle_type_id":"4","last_reported":1757876772,"current_range_meters":10000,"station_id":"ce4bgv12rcd13ifvqcp0","pricing_plan_id":"cebpf4jnsgd1na2vs0mg"},{"bike_id":"fef4f0a8-5cf7-4872-a9fc-871ccba2faf2","system_id":"levelo_inurba_marseille","lat":43.3042,"lon":5.38876,"is_reserved":false,"is_disabled":false,"rental_uris":{"android":"levelo://app?vid=fef4f0a8-5cf7-4872-a9fc-871ccba2faf2","ios":"levelo://app?vid=fef4f0a8-5cf7-4872-a9fc-871ccba2faf2"},"vehicle_type_id":"4","last_reported":1757876772,"current_range_meters":10000,"station_id":"ce4bgk12rcd13ifvqbi0","pricing_plan_id":"cebpf4jnsgd1na2vs0mg"},{"bike_id":"92328f20-9c61-4621-aefd-c280af7d31a0","system_id":"levelo_inurba_marseille","lat":43.288667,"lon":5.425227,"is_reserved":false,"is_disabled":false,"rental_uris":{"android":"levelo://app?vid=92328f20-9c61-4621-aefd-c280af7d31a0","ios":"levelo://app?vid=92328f20-9c61-4621-aefd-c280af7d31a0"},"vehicle_type_id":"4","last_reported":1757876772,"current_range_meters":10000,"station_id":"","pricing_plan_id":"cebpf4jnsgd1na2vs0mg"},{"bike_id":"d4ca603c-6a07-4539-986c-4994ade7235b","system_id":"levelo_inurba_marseille","lat":43.29514,"lon":5.37499,"is_reserved":false,"is_disabled":false,"rental_uris":{"android":"levelo://app?vid=d4ca603c-6a07-4539-986c-4994ade7235b","ios":"levelo://app?vid=d4ca603c-6a07-4539-986c-4994ade7235b"},"vehicle_type_id":"4","last_reported":1757876772,"current_range_meters":10800,"station_id":"ce4bgkp2rcd13ifvqbmg","pricing_plan_id":"cebpf4jnsgd1na2vs0mg"},{"bike_id":"416a5366-b97a-45f7-a1e6-cdd8fe846b86","system_id":"levelo_inurba_marseille","lat":43.32361,"lon":5.38888,"is_reserved":false,"is_disabled":false,"rental_uris":{"android":"levelo://app?vid=416a5366-b97a-45f7-a1e6-cdd8fe846b86","ios":"levelo://app?vid=416a5366-b97a-45f7-a1e6-cdd8fe846b86"},"vehicle_type_id":"4","last_reported":1757876772,"current_range_meters":10800,"station_id":"ce4bhqp2rcd13ifvqhog","pricing_plan_id":"cebpf4jnsgd1na2vs0mg"},{"bike_id":"5c1e55d9-decd-426f-89d8-b98a558f3809","system_id":"levelo_inurba_marseille","lat":43.316988,"lon":5.404734,"is_reserved":false,"is_disabled":true,"rental_uris":{"android":"levelo://app?vid=5c1e55d9-decd-426f-89d8-b98a558f3809","ios":"levelo://app?vid=5c1e55d9-decd-426f-89d8-b98a558f3809"},"vehicle_type_id":"4","last_reported":1757876772,"current_range_meters":10800,"station_id":"ce4bh012rcd13ifvqd00","pricing_plan_id":"cebpf4jnsgd1na2vs0mg"},{"bike_id":"cf461187-e4c1-408c-a6e3-ba059b50b97e","system_id":"levelo_inurba_marseille","lat":43.29328,"lon":5.37443,"is_reserved":false,"is_disabled":false,"rental_uris":{"android":"levelo://app?vid=cf461187-e4c1-408c-a6e3-ba059b50b97e","ios":"levelo://app?vid=cf461187-e4c1-408c-a6e3-ba059b50b97e"},"vehicle_type_id":"4","last_reported":1757876772,"current_range_meters":12000,"station_id":"ce4bgi12rcd13ifvqb70","pricing_plan_id":"cebpf4jnsgd1na2vs0mg"},{"bike_id":"f482e5c3-c661-4da4-b268-356c2ab5760b","system_id":"levelo_inurba_marseille","lat":43.26609,"lon":5.39016,"is_reserved":false,"is_disabled":false,"rental_uris":{"android":"levelo://app?vid=f482e5c3-c661-4da4-b268-356c2ab5760b","ios":"levelo://app?vid=f482e5c3-c661-4da4-b268-356c2ab5760b"},"vehicle_type_id":"4","last_reported":1757876772,"current_range_meters":10800,"station_id":"ce4bhe12rcd13ifvqf30","pricing_plan_id":"cebpf4jnsgd1na2vs0mg"},{"bike_id":"96dcfce9-8263-409b-8205-b4bbdac3cbf4","system_id":"levelo_inurba_marseille","lat":43.29257,"lon":5.40916,"is_reserved":false,"is_disabled":false,"rental_uris":{"android":"levelo://app?vid=96dcfce9-8263-409b-8205-b4bbdac3cbf4","ios":"levelo://app?vid=96dcfce9-8263-409b-8205-b4bbdac3cbf4"},"vehicle_type_id":"4","last_reported":1757876772,"current_range_meters":10800,"station_id":"ce4bh192rcd13ifvqdc0","pricing_plan_id":"cebpf4jnsgd1na2vs0mg"},{"bike_id":"12c00a2a-9f62-40b1-9810-15cf698c6b2e","system_id":"levelo_inurba_marseille","lat":43.2992,"lon":5.37465,"is_reserved":false,"is_disabled":false,"rental_uris":{"android":"levelo://app?vid=12c00a2a-9f62-40b1-9810-15cf698c6b2e","ios":"levelo://app?vid=12c00a2a-9f62-40b1-9810-15cf698c6b2e"},"vehicle_type_id":"4","last_reported":1757876772,"current_range_meters":10800,"station_id":"ce4bgjh2rcd13ifvqbg0","pricing_plan_id":"cebpf4jnsgd1na2vs0mg"},{"bike_id":"3bc338fd-b3c5-4caa-b6e6-3c70a52689ba","system_id":"levelo_inurba_marseille","lat":43.31656,"lon":5.38946,"is_reserved":false,"is_disabled":false,"rental_uris":{"android":"levelo://app?vid=3bc338fd-b3c5-4caa-b6e6-3c70a52689ba","ios":"levelo://app?vid=3bc338fd-b3c5-4caa-b6e6-3c70a52689ba"},"vehicle_type_id":"4","last_reported":1757876772,"current_range_meters":10800,"station_id":"","pricing_plan_id":"cebpf4jnsgd1na2vs0mg"},{"bike_id":"2d543492-1633-4a20-bc1b-8fbfb2800423","system_id":"levelo_inurba_marseille","lat":43.27802,"lon":5.40526,"is_reserved":false,"is_disabled":false,"rental_uris":{"android":"levelo://app?vid=2d543492-1633-4a20-bc1b-8fbfb2800423","ios":"levelo://app?vid=2d543492-1633-4a20-bc1b-8fbfb2800423"},"vehicle_type_id":"4","last_reported":1757876772,"current_range_meters":10800,"station_id":"ce4bhnh2rcd13ifvqgtg","pricing_plan_id":"cebpf4jnsgd1na2vs0mg"},{"bike_id":"3ea095f9-3ba8-46ae-881a-be8043cb9d15","system_id":"levelo_inurba_marseille","lat":43.31081,"lon":5.42435,"is_reserved":false,"is_disabled":false,"rental_uris":{"android":"levelo://app?vid=3ea095f9-3ba8-46ae-881a-be8043cb9d15","ios":"levelo://app?vid=3ea095f9-3ba8-46ae-881a-be8043cb9d15"},"vehicle_type_id":"4","last_reported":1757876772,"current_range_meters":10800,"station_id":"ce4bhp92rcd13ifvqhag","pricing_plan_id":"cebpf4jnsgd1na2vs0mg"},{"bike_id":"040ad306-0957-4e42-89d3-62bb42de3af6","system_id":"levelo_inurba_marseille","lat":43.29925,"lon":5.37477,"is_reserved":false,"is_disabled":false,"rental_uris":{"android":"levelo://app?vid=040ad306-0957-4e42-89d3-62bb42de3af6","ios":"levelo://app?vid=040ad306-0957-4e42-89d3-62bb42de3af6"},"vehicle_type_id":"4","last_reported":1757876772,"current_range_meters":10800,"station_id":"ce4bgjh2rcd13ifvqbg0","pricing_plan_id":"cebpf4jnsgd1na2vs0mg"},{"bike_id":"d0a1739a-c22f-4203-9f71-a089f4b367e4","system_id":"levelo_inurba_marseille","lat":43.31988,"lon":5.38159,"is_reserved":false,"is_disabled":true,"rental_uris":{"android":"levelo://app?vid=d0a1739a-c22f-4203-9f71-a089f4b367e4","ios":"levelo://app?vid=d0a1739a-c22f-4203-9f71-a089f4b367e4"},"vehicle_type_id":"4","last_reported":1757876772,"current_range_meters":11200,"station_id":"ce4bhr12rcd13ifvqhpg","pricing_plan_id":"cebpf4jnsgd1na2vs0mg"},{"bike_id":"6eb1d464-8a64-4d06-8a8d-7bc649f64278","system_id":"levelo_inurba_marseille","lat":43.28708,"lon":5.39988,"is_reserved":false,"is_disabled":false,"rental_uris":{"android":"levelo://app?vid=6eb1d464-8a64-4d06-8a8d-7bc649f64278","ios":"levelo://app?vid=6eb1d464-8a64-4d06-8a8d-7bc649f64278"},"vehicle_type_id":"4","last_reported":1757876772,"current_range_meters":11200,"station_id":"ce4bho92rcd13ifvqh3g","pricing_plan_id":"cebpf4jnsgd1na2vs0mg"},{"bike_id":"00116d8e-b6b8-4878-a446-acc27e6cecc1","system_id":"levelo_inurba_marseille","lat":43.31724,"lon":5.42395,"is_reserved":false,"is_disabled":false,"rental_uris":{"android":"levelo://app?vid=00116d8e-b6b8-4878-a446-acc27e6cecc1","ios":"levelo://app?vid=00116d8e-b6b8-4878-a446-acc27e6cecc1"},"vehicle_type_id":"4","last_reported":1757876772,"current_range_meters":11200,"station_id":"ce4bhp92rcd13ifvqhbg","pricing_plan_id":"cebpf4jnsgd1na2vs0mg"},{"bike_id":"5a12dc40-f296-4604-b352-19ed42a724bc","system_id":"levelo_inurba_marseille","lat":43.28728,"lon":5.37937,"is_reserved":false,"is_disabled":false,"rental_uris":{"android":"levelo://app?vid=5a12dc40-f296-4604-b352-19ed42a724bc","ios":"levelo://app?vid=5a12dc40-f296-4604-b352-19ed42a724bc"},"vehicle_type_id":"4","last_reported":1757876772,"current_range_meters":11200,"station_id":"ce4bh9p2rcd13ifvqec0","pricing_plan_id":"cebpf4jnsgd1na2vs0mg"},{"bike_id":"90b99ccf-2b3c-4d75-9e45-7dd3a550aac1","system_id":"levelo_inurba_marseille","lat":43.23569,"lon":5.39891,"is_reserved":false,"is_disabled":false,"rental_uris":{"android":"levelo://app?vid=90b99ccf-2b3c-4d75-9e45-7dd3a550aac1","ios":"levelo://app?vid=90b99ccf-2b3c-4d75-9e45-7dd3a550aac1"},"vehicle_type_id":"4","last_reported":1757876772,"current_range_meters":11200,"station_id":"","pricing_plan_id":"cebpf4jnsgd1na2vs0mg"},{"bike_id":"ba5ec91e-17a3-49a5-b2ec-7f19e0ddb3fd","system_id":"levelo_inurba_marseille","lat":43.31502,"lon":5.37303,"is_reserved":false,"is_disabled":true,"rental_uris":{"android":"levelo://app?vid=ba5ec91e-17a3-49a5-b2ec-7f19e0ddb3fd","ios":"levelo://app?vid=ba5ec91e-17a3-49a5-b2ec-7f19e0ddb3fd"},"vehicle_type_id":"4","last_reported":1757876772,"current_range_meters":11200,"station_id":"ce4bgt12rcd13ifvqcd0","pricing_plan_id":"cebpf4jnsgd1na2vs0mg"},{"bike_id":"c21a88fd-5079-481c-ae70-34f50a0b28d7","system_id":"levelo_inurba_marseille","lat":43.30556,"lon":5.38435,"is_reserved":false,"is_disabled":false,"rental_uris":{"android":"levelo://app?vid=c21a88fd-5079-481c-ae70-34f50a0b28d7","ios":"levelo://app?vid=c21a88fd-5079-481c-ae70-34f50a0b28d7"},"vehicle_type_id":"4","last_reported":1757876772,"current_range_meters":11200,"station_id":"ce4bgg92rcd13ifvqb30","pricing_plan_id":"cebpf4jnsgd1na2vs0mg"},{"bike_id":"9a36039b-0614-4f8a-9fb9-6601bf189afe","system_id":"levelo_inurba_marseille","lat":43.30297,"lon":5.39229,"is_reserved":false,"is_disabled":false,"rental_uris":{"android":"levelo://app?vid=9a36039b-0614-4f8a-9fb9-6601bf189afe","ios":"levelo://app?vid=9a36039b-0614-4f8a-9fb9-6601bf189afe"},"vehicle_type_id":"4","last_reported":1757876772,"current_range_meters":11200,"station_id":"ce4bgkh2rcd13ifvqbk0","pricing_plan_id":"cebpf4jnsgd1na2vs0mg"},{"bike_id":"67d6447e-2627-4eeb-8c49-278e1adbc740","system_id":"levelo_inurba_marseille","lat":43.29273,"lon":5.40112,"is_reserved":false,"is_disabled":false,"rental_uris":{"android":"levelo://app?vid=67d6447e-2627-4eeb-8c49-278e1adbc740","ios":"levelo://app?vid=67d6447e-2627-4eeb-8c49-278e1adbc740"},"vehicle_type_id":"4","last_reported":1757876772,"current_range_meters":11600,"station_id":"ce4bh312rcd13ifvqdk0","pricing_plan_id":"cebpf4jnsgd1na2vs0mg"},{"bike_id":"e1817914-f703-452c-9aa2-b46a4dc6e7f0","system_id":"levelo_inurba_marseille","lat":43.29867,"lon":5.39737,"is_reserved":false,"is_disabled":false,"rental_uris":{"android":"levelo://app?vid=e1817914-f703-452c-9aa2-b46a4dc6e7f0","ios":"levelo://app?vid=e1817914-f703-452c-9aa2-b46a4dc6e7f0"},"vehicle_type_id":"4","last_reported":1757876772,"current_range_meters":11600,"station_id":"ce4bh0h2rcd13ifvqd50","pricing_plan_id":"cebpf4jnsgd1na2vs0mg"},{"bike_id":"8e3a9e83-812e-4b5d-8c7b-5119699e81be","system_id":"levelo_inurba_marseille","lat":43.31573,"lon":5.40585,"is_reserved":false,"is_disabled":false,"rental_uris":{"android":"levelo://app?vid=8e3a9e83-812e-4b5d-8c7b-5119699e81be","ios":"levelo://app?vid=8e3a9e83-812e-4b5d-8c7b-5119699e81be"},"vehicle_type_id":"4","last_reported":1757876772,"current_range_meters":11600,"station_id":"","pricing_plan_id":"cebpf4jnsgd1na2vs0mg"},{"bike_id":"b7dcc8e0-3c4d-43c6-b52d-b9be14b0a639","system_id":"levelo_inurba_marseille","lat":43.29095,"lon":5.38154,"is_reserved":false,"is_disabled":false,"rental_uris":{"android":"levelo://app?vid=b7dcc8e0-3c4d-43c6-b52d-b9be14b0a639","ios":"levelo://app?vid=b7dcc8e0-3c4d-43c6-b52d-b9be14b0a639"},"vehicle_type_id":"4","last_reported":1757876772,"current_range_meters":11600,"station_id":"ce4bh512rcd13ifvqe2g","pricing_plan_id":"cebpf4jnsgd1na2vs0mg"},{"bike_id":"8bd9e12b-6034-4f9f-b612-6113ba90c84f","system_id":"levelo_inurba_marseille","lat":43.30918,"lon":5.39534,"is_reserved":false,"is_disabled":false,"rental_uris":{"android":"levelo://app?vid=8bd9e12b-6034-4f9f-b612-6113ba90c84f","ios":"levelo://app?vid=8bd9e12b-6034-4f9f-b612-6113ba90c84f"},"vehicle_type_id":"4","last_reported":1757876772,"current_range_meters":11600,"station_id":"ce4bh012rcd13ifvqcv0","pricing_plan_id":"cebpf4jnsgd1na2vs0mg"},{"bike_id":"deba709c-fd12-4231-a979-71a054c8494d","system_id":"levelo_inurba_marseille","lat":43.2841,"lon":5.37511,"is_reserved":false,"is_disabled":false,"rental_uris":{"android":"levelo://app?vid=deba709c-fd12-4231-a979-71a054c8494d","ios":"levelo://app?vid=deba709c-fd12-4231-a979-71a054c8494d"},"vehicle_type_id":"4","last_reported":1757876772,"current_range_meters":11600,"station_id":"ce4bh412rcd13ifvqds0","pricing_plan_id":"cebpf4jnsgd1na2vs0mg"},{"bike_id":"f0f91981-97a4-4847-ba72-080bc75ab7b1","system_id":"levelo_inurba_marseille","lat":43.253301,"lon":5.421695,"is_reserved":false,"is_disabled":true,"rental_uris":{"android":"levelo://app?vid=f0f91981-97a4-4847-ba72-080bc75ab7b1","ios":"levelo://app?vid=f0f91981-97a4-4847-ba72-080bc75ab7b1"},"vehicle_type_id":"4","last_reported":1757876772,"current_range_meters":11600,"station_id":"st_d2m65c5bi1j21697t3ng","pricing_plan_id":"cebpf4jnsgd1na2vs0mg"},{"bike_id":"582285b2-ae40-4d3e-95af-f95513b979ec","system_id":"levelo_inurba_marseille","lat":43.29536,"lon":5.38543,"is_reserved":false,"is_disabled":false,"rental_uris":{"android":"levelo://app?vid=582285b2-ae40-4d3e-95af-f95513b979ec","ios":"levelo://app?vid=582285b2-ae40-4d3e-95af-f95513b979ec"},"vehicle_type_id":"4","last_reported":1757876772,"current_range_meters":11600,"station_id":"ce4bgih2rcd13ifvqba0","pricing_plan_id":"cebpf4jnsgd1na2vs0mg"},{"bike_id":"bcbd8e73-099e-4fe9-936f-1722757fe752","system_id":"levelo_inurba_marseille","lat":43.3187,"lon":5.37481,"is_reserved":false,"is_disabled":false,"rental_uris":{"android":"levelo://app?vid=bcbd8e73-099e-4fe9-936f-1722757fe752","ios":"levelo://app?vid=bcbd8e73-099e-4fe9-936f-1722757fe752"},"vehicle_type_id":"4","last_reported":1757876772,"current_range_meters":12000,"station_id":"","pricing_plan_id":"cebpf4jnsgd1na2vs0mg"},{"bike_id":"486575e4-561c-44c2-aee6-ae1577d678e7","system_id":"levelo_inurba_marseille","lat":43.25868,"lon":5.39902,"is_reserved":false,"is_disabled":false,"rental_uris":{"android":"levelo://app?vid=486575e4-561c-44c2-aee6-ae1577d678e7","ios":"levelo://app?vid=486575e4-561c-44c2-aee6-ae1577d678e7"},"vehicle_type_id":"4","last_reported":1757876772,"current_range_meters":12000,"station_id":"ce4bhl92rcd13ifvqghg","pricing_plan_id":"cebpf4jnsgd1na2vs0mg"},{"bike_id":"8ab60a89-bd14-40d7-b359-020ea126cfef","system_id":"levelo_inurba_marseille","lat":43.323571,"lon":5.367491,"is_reserved":false,"is_disabled":false,"rental_uris":{"android":"levelo://app?vid=8ab60a89-bd14-40d7-b359-020ea126cfef","ios":"levelo://app?vid=8ab60a89-bd14-40d7-b359-020ea126cfef"},"vehicle_type_id":"4","last_reported":1757876772,"current_range_meters":12000,"station_id":"ce4bhsh2rcd13ifvqi2g","pricing_plan_id":"cebpf4jnsgd1na2vs0mg"},{"bike_id":"77b7289b-dd73-44ea-a10f-65a8b03de89f","system_id":"levelo_inurba_marseille","lat":43.28698,"lon":5.37398,"is_reserved":false,"is_disabled":false,"rental_uris":{"android":"levelo://app?vid=77b7289b-dd73-44ea-a10f-65a8b03de89f","ios":"levelo://app?vid=77b7289b-dd73-44ea-a10f-65a8b03de89f"},"vehicle_type_id":"4","last_reported":1757876772,"current_range_meters":12000,"station_id":"ce4bh3p2rcd13ifvqdq0","pricing_plan_id":"cebpf4jnsgd1na2vs0mg"},{"bike_id":"daf6eb47-c310-4e4f-8488-f49a0ba00399","system_id":"levelo_inurba_marseille","lat":43.30093,"lon":5.36419,"is_reserved":false,"is_disabled":false,"rental_uris":{"android":"levelo://app?vid=daf6eb47-c310-4e4f-8488-f49a0ba00399","ios":"levelo://app?vid=daf6eb47-c310-4e4f-8488-f49a0ba00399"},"vehicle_type_id":"4","last_reported":1757876772,"current_range_meters":12400,"station_id":"","pricing_plan_id":"cebpf4jnsgd1na2vs0mg"},{"bike_id":"ca369377-5757-4bd8-81d1-f2b5d121fc14","system_id":"levelo_inurba_marseille","lat":43.27197,"lon":5.40986,"is_reserved":false,"is_disabled":false,"rental_uris":{"android":"levelo://app?vid=ca369377-5757-4bd8-81d1-f2b5d121fc14","ios":"levelo://app?vid=ca369377-5757-4bd8-81d1-f2b5d121fc14"},"vehicle_type_id":"4","last_reported":1757876772,"current_range_meters":12400,"station_id":"ce4bhl12rcd13ifvqgf0","pricing_plan_id":"cebpf4jnsgd1na2vs0mg"},{"bike_id":"1841602a-e8fe-4406-b07a-73ae7e7c9699","system_id":"levelo_inurba_marseille","lat":43.29092,"lon":5.38121,"is_reserved":false,"is_disabled":false,"rental_uris":{"android":"levelo://app?vid=1841602a-e8fe-4406-b07a-73ae7e7c9699","ios":"levelo://app?vid=1841602a-e8fe-4406-b07a-73ae7e7c9699"},"vehicle_type_id":"4","last_reported":1757876772,"current_range_meters":12000,"station_id":"ce4bh512rcd13ifvqe2g","pricing_plan_id":"cebpf4jnsgd1na2vs0mg"},{"bike_id":"85db8ab9-6b24-4c23-8762-109e948df9cd","system_id":"levelo_inurba_marseille","lat":43.30594,"lon":5.40504,"is_reserved":false,"is_disabled":false,"rental_uris":{"android":"levelo://app?vid=85db8ab9-6b24-4c23-8762-109e948df9cd","ios":"levelo://app?vid=85db8ab9-6b24-4c23-8762-109e948df9cd"},"vehicle_type_id":"4","last_reported":1757876772,"current_range_meters":12400,"station_id":"","pricing_plan_id":"cebpf4jnsgd1na2vs0mg"},{"bike_id":"b27aec61-2b96-4707-bde6-1d443762f6ae","system_id":"levelo_inurba_marseille","lat":43.28693,"lon":5.37388,"is_reserved":false,"is_disabled":false,"rental_uris":{"android":"levelo://app?vid=b27aec61-2b96-4707-bde6-1d443762f6ae","ios":"levelo://app?vid=b27aec61-2b96-4707-bde6-1d443762f6ae"},"vehicle_type_id":"4","last_reported":1757876772,"current_range_meters":12400,"station_id":"ce4bh3p2rcd13ifvqdq0","pricing_plan_id":"cebpf4jnsgd1na2vs0mg"},{"bike_id":"bc2d82c2-bd27-4c0a-8518-a024c754a072","system_id":"levelo_inurba_marseille","lat":43.29526,"lon":5.38533,"is_reserved":false,"is_disabled":false,"rental_uris":{"android":"levelo://app?vid=bc2d82c2-bd27-4c0a-8518-a024c754a072","ios":"levelo://app?vid=bc2d82c2-bd27-4c0a-8518-a024c754a072"},"vehicle_type_id":"4","last_reported":1757876772,"current_range_meters":12400,"station_id":"ce4bgih2rcd13ifvqba0","pricing_plan_id":"cebpf4jnsgd1na2vs0mg"},{"bike_id":"fbd0328c-4ce4-4080-b126-d2d47d815fa6","system_id":"levelo_inurba_marseille","lat":43.21754,"lon":5.34593,"is_reserved":false,"is_disabled":true,"rental_uris":{"android":"levelo://app?vid=fbd0328c-4ce4-4080-b126-d2d47d815fa6","ios":"levelo://app?vid=fbd0328c-4ce4-4080-b126-d2d47d815fa6"},"vehicle_type_id":"4","last_reported":1757876772,"current_range_meters":12400,"station_id":"st_cvj6r9ubvosntc0bgbag","pricing_plan_id":"cebpf4jnsgd1na2vs0mg"},{"bike_id":"de24ce5e-c9de-4cfc-a66a-83ecb9cfee6c","system_id":"levelo_inurba_marseille","lat":43.25942,"lon":5.40905,"is_reserved":false,"is_disabled":false,"rental_uris":{"android":"levelo://app?vid=de24ce5e-c9de-4cfc-a66a-83ecb9cfee6c","ios":"levelo://app?vid=de24ce5e-c9de-4cfc-a66a-83ecb9cfee6c"},"vehicle_type_id":"4","last_reported":1757876772,"current_range_meters":12400,"station_id":"ce4bhm92rcd13ifvqglg","pricing_plan_id":"cebpf4jnsgd1na2vs0mg"},{"bike_id":"ea490aa5-9b75-4daa-85af-8ef2bd3e1c6b","system_id":"levelo_inurba_marseille","lat":43.25868,"lon":5.39901,"is_reserved":false,"is_disabled":false,"rental_uris":{"android":"levelo://app?vid=ea490aa5-9b75-4daa-85af-8ef2bd3e1c6b","ios":"levelo://app?vid=ea490aa5-9b75-4daa-85af-8ef2bd3e1c6b"},"vehicle_type_id":"4","last_reported":1757876772,"current_range_meters":12800,"station_id":"ce4bhl92rcd13ifvqghg","pricing_plan_id":"cebpf4jnsgd1na2vs0mg"},{"bike_id":"c3d20290-ce98-42d8-ac03-e0fab18fce11","system_id":"levelo_inurba_marseille","lat":43.29529,"lon":5.39049,"is_reserved":false,"is_disabled":false,"rental_uris":{"android":"levelo://app?vid=c3d20290-ce98-42d8-ac03-e0fab18fce11","ios":"levelo://app?vid=c3d20290-ce98-42d8-ac03-e0fab18fce11"},"vehicle_type_id":"4","last_reported":1757876772,"current_range_meters":12800,"station_id":"ce4bh3p2rcd13ifvqdp0","pricing_plan_id":"cebpf4jnsgd1na2vs0mg"},{"bike_id":"1b52574b-d721-4027-8150-740e079862d9","system_id":"levelo_inurba_marseille","lat":43.29437,"lon":5.39754,"is_reserved":false,"is_disabled":false,"rental_uris":{"android":"levelo://app?vid=1b52574b-d721-4027-8150-740e079862d9","ios":"levelo://app?vid=1b52574b-d721-4027-8150-740e079862d9"},"vehicle_type_id":"4","last_reported":1757876772,"current_range_meters":12800,"station_id":"ce4bh3h2rcd13ifvqdo0","pricing_plan_id":"cebpf4jnsgd1na2vs0mg"},{"bike_id":"53e261c9-8d2a-4316-ba8f-ee6d9e6b7616","system_id":"levelo_inurba_marseille","lat":43.286058,"lon":5.350981,"is_reserved":false,"is_disabled":true,"rental_uris":{"android":"levelo://app?vid=53e261c9-8d2a-4316-ba8f-ee6d9e6b7616","ios":"levelo://app?vid=53e261c9-8d2a-4316-ba8f-ee6d9e6b7616"},"vehicle_type_id":"4","last_reported":1757876772,"current_range_meters":12800,"station_id":"ce4bhch2rcd13ifvqeug","pricing_plan_id":"cebpf4jnsgd1na2vs0mg"},{"bike_id":"3959d8ad-72d2-4460-89f2-f941673fbc80","system_id":"levelo_inurba_marseille","lat":43.308727,"lon":5.396563,"is_reserved":false,"is_disabled":false,"rental_uris":{"android":"levelo://app?vid=3959d8ad-72d2-4460-89f2-f941673fbc80","ios":"levelo://app?vid=3959d8ad-72d2-4460-89f2-f941673fbc80"},"vehicle_type_id":"4","last_reported":1757876772,"current_range_meters":13600,"station_id":"ce4bh012rcd13ifvqcv0","pricing_plan_id":"cebpf4jnsgd1na2vs0mg"},{"bike_id":"867a06c4-c507-468c-a42b-66dfa736196d","system_id":"levelo_inurba_marseille","lat":43.28423,"lon":5.34992,"is_reserved":false,"is_disabled":true,"rental_uris":{"android":"levelo://app?vid=867a06c4-c507-468c-a42b-66dfa736196d","ios":"levelo://app?vid=867a06c4-c507-468c-a42b-66dfa736196d"},"vehicle_type_id":"4","last_reported":1757876772,"current_range_meters":13600,"station_id":"ce4bhbh2rcd13ifvqepg","pricing_plan_id":"cebpf4jnsgd1na2vs0mg"},{"bike_id":"7c48decd-622e-426a-96e8-3c58227e80b8","system_id":"levelo_inurba_marseille","lat":43.292546,"lon":5.384408,"is_reserved":false,"is_disabled":false,"rental_uris":{"android":"levelo://app?vid=7c48decd-622e-426a-96e8-3c58227e80b8","ios":"levelo://app?vid=7c48decd-622e-426a-96e8-3c58227e80b8"},"vehicle_type_id":"4","last_reported":1757876772,"current_range_meters":13600,"station_id":"","pricing_plan_id":"cebpf4jnsgd1na2vs0mg"},{"bike_id":"d9c4202c-de13-4428-8c40-40d90faf1618","system_id":"levelo_inurba_marseille","lat":43.31356,"lon":5.3707,"is_reserved":false,"is_disabled":false,"rental_uris":{"android":"levelo://app?vid=d9c4202c-de13-4428-8c40-40d90faf1618","ios":"levelo://app?vid=d9c4202c-de13-4428-8c40-40d90faf1618"},"vehicle_type_id":"4","last_reported":1757876772,"current_range_meters":13600,"station_id":"","pricing_plan_id":"cebpf4jnsgd1na2vs0mg"},{"bike_id":"e8930cfa-2c36-4dbf-ab3e-6afdedf38824","system_id":"levelo_inurba_marseille","lat":43.22568,"lon":5.41631,"is_reserved":false,"is_disabled":false,"rental_uris":{"android":"levelo://app?vid=e8930cfa-2c36-4dbf-ab3e-6afdedf38824","ios":"levelo://app?vid=e8930cfa-2c36-4dbf-ab3e-6afdedf38824"},"vehicle_type_id":"4","last_reported":1757876772,"current_range_meters":13600,"station_id":"st_d2o4gvlbi1j2169b742g","pricing_plan_id":"cebpf4jnsgd1na2vs0mg"},{"bike_id":"4d6e6605-7f16-44fa-a19a-c138ee7cb360","system_id":"levelo_inurba_marseille","lat":43.33799,"lon":5.37446,"is_reserved":false,"is_disabled":false,"rental_uris":{"android":"levelo://app?vid=4d6e6605-7f16-44fa-a19a-c138ee7cb360","ios":"levelo://app?vid=4d6e6605-7f16-44fa-a19a-c138ee7cb360"},"vehicle_type_id":"4","last_reported":1757876772,"current_range_meters":13600,"station_id":"","pricing_plan_id":"cebpf4jnsgd1na2vs0mg"},{"bike_id":"e06d2e94-3ae2-4b4b-9d7e-05d3f806365a","system_id":"levelo_inurba_marseille","lat":43.25825,"lon":5.394348,"is_reserved":false,"is_disabled":false,"rental_uris":{"android":"levelo://app?vid=e06d2e94-3ae2-4b4b-9d7e-05d3f806365a","ios":"levelo://app?vid=e06d2e94-3ae2-4b4b-9d7e-05d3f806365a"},"vehicle_type_id":"4","last_reported":1757876772,"current_range_meters":13600,"station_id":"ce4bhip2rcd13ifvqft0","pricing_plan_id":"cebpf4jnsgd1na2vs0mg"},{"bike_id":"beabf360-1f00-470a-82d1-85e66e8327d3","system_id":"levelo_inurba_marseille","lat":43.30595,"lon":5.39362,"is_reserved":false,"is_disabled":false,"rental_uris":{"android":"levelo://app?vid=beabf360-1f00-470a-82d1-85e66e8327d3","ios":"levelo://app?vid=beabf360-1f00-470a-82d1-85e66e8327d3"},"vehicle_type_id":"4","last_reported":1757876772,"current_range_meters":13600,"station_id":"ce4bh0p2rcd13ifvqd80","pricing_plan_id":"cebpf4jnsgd1na2vs0mg"},{"bike_id":"7d7b03c9-f46f-4377-b089-b2019aae399f","system_id":"levelo_inurba_marseille","lat":43.23189,"lon":5.39977,"is_reserved":false,"is_disabled":true,"rental_uris":{"android":"levelo://app?vid=7d7b03c9-f46f-4377-b089-b2019aae399f","ios":"levelo://app?vid=7d7b03c9-f46f-4377-b089-b2019aae399f"},"vehicle_type_id":"4","last_reported":1757876772,"current_range_meters":13600,"station_id":"ce4bhn12rcd13ifvqgqg","pricing_plan_id":"cebpf4jnsgd1na2vs0mg"},{"bike_id":"3b6cfeb9-9c15-476a-8374-d3046781538c","system_id":"levelo_inurba_marseille","lat":43.279761,"lon":5.387481,"is_reserved":false,"is_disabled":false,"rental_uris":{"android":"levelo://app?vid=3b6cfeb9-9c15-476a-8374-d3046781538c","ios":"levelo://app?vid=3b6cfeb9-9c15-476a-8374-d3046781538c"},"vehicle_type_id":"4","last_reported":1757876772,"current_range_meters":13600,"station_id":"ce4bhg12rcd13ifvqf80","pricing_plan_id":"cebpf4jnsgd1na2vs0mg"},{"bike_id":"686398fc-5335-4482-b538-4be4d4408987","system_id":"levelo_inurba_marseille","lat":43.284628,"lon":5.358855,"is_reserved":false,"is_disabled":false,"rental_uris":{"android":"levelo://app?vid=686398fc-5335-4482-b538-4be4d4408987","ios":"levelo://app?vid=686398fc-5335-4482-b538-4be4d4408987"},"vehicle_type_id":"4","last_reported":1757876772,"current_range_meters":14000,"station_id":"ce4bhah2rcd13ifvqei0","pricing_plan_id":"cebpf4jnsgd1na2vs0mg"},{"bike_id":"a23e3f16-4cd9-46b4-aa30-7bafa962cefa","system_id":"levelo_inurba_marseille","lat":43.3154,"lon":5.38025,"is_reserved":false,"is_disabled":false,"rental_uris":{"android":"levelo://app?vid=a23e3f16-4cd9-46b4-aa30-7bafa962cefa","ios":"levelo://app?vid=a23e3f16-4cd9-46b4-aa30-7bafa962cefa"},"vehicle_type_id":"4","last_reported":1757876772,"current_range_meters":13600,"station_id":"ce4bhsp2rcd13ifvqi50","pricing_plan_id":"cebpf4jnsgd1na2vs0mg"},{"bike_id":"a0065ad5-85b6-4971-9573-2f13e8e2e057","system_id":"levelo_inurba_marseille","lat":43.29917,"lon":5.37464,"is_reserved":false,"is_disabled":false,"rental_uris":{"android":"levelo://app?vid=a0065ad5-85b6-4971-9573-2f13e8e2e057","ios":"levelo://app?vid=a0065ad5-85b6-4971-9573-2f13e8e2e057"},"vehicle_type_id":"4","last_reported":1757876772,"current_range_meters":14000,"station_id":"ce4bgjh2rcd13ifvqbg0","pricing_plan_id":"cebpf4jnsgd1na2vs0mg"},{"bike_id":"57f1884c-ca5c-4997-a74a-9dbc608b5d36","system_id":"levelo_inurba_marseille","lat":43.31234,"lon":5.36847,"is_reserved":false,"is_disabled":false,"rental_uris":{"android":"levelo://app?vid=57f1884c-ca5c-4997-a74a-9dbc608b5d36","ios":"levelo://app?vid=57f1884c-ca5c-4997-a74a-9dbc608b5d36"},"vehicle_type_id":"4","last_reported":1757876772,"current_range_meters":14000,"station_id":"ce4bgl92rcd13ifvqbq0","pricing_plan_id":"cebpf4jnsgd1na2vs0mg"},{"bike_id":"f75319f4-d3a6-440f-9c89-5af7f4acd041","system_id":"levelo_inurba_marseille","lat":43.22547,"lon":5.41645,"is_reserved":false,"is_disabled":false,"rental_uris":{"android":"levelo://app?vid=f75319f4-d3a6-440f-9c89-5af7f4acd041","ios":"levelo://app?vid=f75319f4-d3a6-440f-9c89-5af7f4acd041"},"vehicle_type_id":"4","last_reported":1757876772,"current_range_meters":14400,"station_id":"st_d2o4gvlbi1j2169b742g","pricing_plan_id":"cebpf4jnsgd1na2vs0mg"},{"bike_id":"319a870a-15ff-4a5d-90ce-1278355c75c3","system_id":"levelo_inurba_marseille","lat":43.28086,"lon":5.39667,"is_reserved":false,"is_disabled":false,"rental_uris":{"android":"levelo://app?vid=319a870a-15ff-4a5d-90ce-1278355c75c3","ios":"levelo://app?vid=319a870a-15ff-4a5d-90ce-1278355c75c3"},"vehicle_type_id":"4","last_reported":1757876772,"current_range_meters":14400,"station_id":"ce4bho12rcd13ifvqh2g","pricing_plan_id":"cebpf4jnsgd1na2vs0mg"},{"bike_id":"5b2ab8b1-dfa8-41d8-a41d-3f56699028b9","system_id":"levelo_inurba_marseille","lat":43.277932,"lon":5.40746,"is_reserved":false,"is_disabled":false,"rental_uris":{"android":"levelo://app?vid=5b2ab8b1-dfa8-41d8-a41d-3f56699028b9","ios":"levelo://app?vid=5b2ab8b1-dfa8-41d8-a41d-3f56699028b9"},"vehicle_type_id":"4","last_reported":1757876772,"current_range_meters":14400,"station_id":"ce4bhnh2rcd13ifvqgtg","pricing_plan_id":"cebpf4jnsgd1na2vs0mg"},{"bike_id":"f57245bb-ec07-45a1-bfcb-432e5ec88da0","system_id":"levelo_inurba_marseille","lat":43.250045,"lon":5.389143,"is_reserved":false,"is_disabled":false,"rental_uris":{"android":"levelo://app?vid=f57245bb-ec07-45a1-bfcb-432e5ec88da0","ios":"levelo://app?vid=f57245bb-ec07-45a1-bfcb-432e5ec88da0"},"vehicle_type_id":"4","last_reported":1757876772,"current_range_meters":14400,"station_id":"ce4bhgp2rcd13ifvqfd0","pricing_plan_id":"cebpf4jnsgd1na2vs0mg"},{"bike_id":"21439e61-ffaa-41db-9522-0d96c9d9e2e3","system_id":"levelo_inurba_marseille","lat":43.2842,"lon":5.37519,"is_reserved":false,"is_disabled":false,"rental_uris":{"android":"levelo://app?vid=21439e61-ffaa-41db-9522-0d96c9d9e2e3","ios":"levelo://app?vid=21439e61-ffaa-41db-9522-0d96c9d9e2e3"},"vehicle_type_id":"4","last_reported":1757876772,"current_range_meters":14400,"station_id":"ce4bh412rcd13ifvqds0","pricing_plan_id":"cebpf4jnsgd1na2vs0mg"},{"bike_id":"746f8f66-7f46-4e2a-8f64-942936320bf9","system_id":"levelo_inurba_marseille","lat":43.23942,"lon":5.36629,"is_reserved":false,"is_disabled":true,"rental_uris":{"android":"levelo://app?vid=746f8f66-7f46-4e2a-8f64-942936320bf9","ios":"levelo://app?vid=746f8f66-7f46-4e2a-8f64-942936320bf9"},"vehicle_type_id":"4","last_reported":1757876772,"current_range_meters":14400,"station_id":"ce4bhi12rcd13ifvqfp0","pricing_plan_id":"cebpf4jnsgd1na2vs0mg"},{"bike_id":"5b8f0e11-5292-48b7-afc4-c7fd8ea5cc58","system_id":"levelo_inurba_marseille","lat":43.29304,"lon":5.37468,"is_reserved":false,"is_disabled":false,"rental_uris":{"android":"levelo://app?vid=5b8f0e11-5292-48b7-afc4-c7fd8ea5cc58","ios":"levelo://app?vid=5b8f0e11-5292-48b7-afc4-c7fd8ea5cc58"},"vehicle_type_id":"4","last_reported":1757876772,"current_range_meters":14800,"station_id":"ce4bgi12rcd13ifvqb70","pricing_plan_id":"cebpf4jnsgd1na2vs0mg"},{"bike_id":"b002a392-08fa-4b2e-b212-3e002cd96c5d","system_id":"levelo_inurba_marseille","lat":43.239748,"lon":5.366156,"is_reserved":false,"is_disabled":false,"rental_uris":{"android":"levelo://app?vid=b002a392-08fa-4b2e-b212-3e002cd96c5d","ios":"levelo://app?vid=b002a392-08fa-4b2e-b212-3e002cd96c5d"},"vehicle_type_id":"4","last_reported":1757876772,"current_range_meters":14800,"station_id":"ce4bhi12rcd13ifvqfp0","pricing_plan_id":"cebpf4jnsgd1na2vs0mg"},{"bike_id":"b2fba456-5a3b-40c6-8765-ad84661db187","system_id":"levelo_inurba_marseille","lat":43.257205,"lon":5.411136,"is_reserved":false,"is_disabled":true,"rental_uris":{"android":"levelo://app?vid=b2fba456-5a3b-40c6-8765-ad84661db187","ios":"levelo://app?vid=b2fba456-5a3b-40c6-8765-ad84661db187"},"vehicle_type_id":"4","last_reported":1757876772,"current_range_meters":14800,"station_id":"ce4bhkp2rcd13ifvqgd0","pricing_plan_id":"cebpf4jnsgd1na2vs0mg"},{"bike_id":"7c1f1d0c-fe61-4aed-9952-04f35ab1400d","system_id":"levelo_inurba_marseille","lat":43.29251,"lon":5.38461,"is_reserved":false,"is_disabled":false,"rental_uris":{"android":"levelo://app?vid=7c1f1d0c-fe61-4aed-9952-04f35ab1400d","ios":"levelo://app?vid=7c1f1d0c-fe61-4aed-9952-04f35ab1400d"},"vehicle_type_id":"4","last_reported":1757876772,"current_range_meters":14800,"station_id":"ce4bh692rcd13ifvqea0","pricing_plan_id":"cebpf4jnsgd1na2vs0mg"},{"bike_id":"58d8cd95-917c-438e-864b-c167ff63eb01","system_id":"levelo_inurba_marseille","lat":43.28703,"lon":5.37395,"is_reserved":false,"is_disabled":false,"rental_uris":{"android":"levelo://app?vid=58d8cd95-917c-438e-864b-c167ff63eb01","ios":"levelo://app?vid=58d8cd95-917c-438e-864b-c167ff63eb01"},"vehicle_type_id":"4","last_reported":1757876772,"current_range_meters":14800,"station_id":"ce4bh3p2rcd13ifvqdq0","pricing_plan_id":"cebpf4jnsgd1na2vs0mg"},{"bike_id":"3a0f2b7b-4146-4258-8f62-852408495a6f","system_id":"levelo_inurba_marseille","lat":43.30799,"lon":5.38163,"is_reserved":false,"is_disabled":false,"rental_uris":{"android":"levelo://app?vid=3a0f2b7b-4146-4258-8f62-852408495a6f","ios":"levelo://app?vid=3a0f2b7b-4146-4258-8f62-852408495a6f"},"vehicle_type_id":"4","last_reported":1757876772,"current_range_meters":14400,"station_id":"ce4bgt12rcd13ifvqce0","pricing_plan_id":"cebpf4jnsgd1na2vs0mg"},{"bike_id":"f2716c8e-a615-422e-8355-a217d6b8fc45","system_id":"levelo_inurba_marseille","lat":43.299745,"lon":5.371875,"is_reserved":false,"is_disabled":false,"rental_uris":{"android":"levelo://app?vid=f2716c8e-a615-422e-8355-a217d6b8fc45","ios":"levelo://app?vid=f2716c8e-a615-422e-8355-a217d6b8fc45"},"vehicle_type_id":"4","last_reported":1757876772,"current_range_meters":15200,"station_id":"ce4bgr92rcd13ifvqc7g","pricing_plan_id":"cebpf4jnsgd1na2vs0mg"},{"bike_id":"e7a329bd-ed66-4ac7-aaba-63f2810ddd86","system_id":"levelo_inurba_marseille","lat":43.31859,"lon":5.37206,"is_reserved":false,"is_disabled":false,"rental_uris":{"android":"levelo://app?vid=e7a329bd-ed66-4ac7-aaba-63f2810ddd86","ios":"levelo://app?vid=e7a329bd-ed66-4ac7-aaba-63f2810ddd86"},"vehicle_type_id":"4","last_reported":1757876772,"current_range_meters":15200,"station_id":"","pricing_plan_id":"cebpf4jnsgd1na2vs0mg"},{"bike_id":"1ccad51c-804b-4ef2-acca-588c0717d73f","system_id":"levelo_inurba_marseille","lat":43.30143,"lon":5.38766,"is_reserved":false,"is_disabled":false,"rental_uris":{"android":"levelo://app?vid=1ccad51c-804b-4ef2-acca-588c0717d73f","ios":"levelo://app?vid=1ccad51c-804b-4ef2-acca-588c0717d73f"},"vehicle_type_id":"4","last_reported":1757876772,"current_range_meters":15200,"station_id":"ce4bghh2rcd13ifvqb60","pricing_plan_id":"cebpf4jnsgd1na2vs0mg"},{"bike_id":"37f187f1-e7b5-4d7f-b6f8-90a8aa395574","system_id":"levelo_inurba_marseille","lat":43.24069,"lon":5.37766,"is_reserved":false,"is_disabled":false,"rental_uris":{"android":"levelo://app?vid=37f187f1-e7b5-4d7f-b6f8-90a8aa395574","ios":"levelo://app?vid=37f187f1-e7b5-4d7f-b6f8-90a8aa395574"},"vehicle_type_id":"4","last_reported":1757876772,"current_range_meters":15200,"station_id":"ce4bhnp2rcd13ifvqgvg","pricing_plan_id":"cebpf4jnsgd1na2vs0mg"},{"bike_id":"aed94804-5250-41d7-949a-c0183f18f35b","system_id":"levelo_inurba_marseille","lat":43.28412,"lon":5.37522,"is_reserved":false,"is_disabled":false,"rental_uris":{"android":"levelo://app?vid=aed94804-5250-41d7-949a-c0183f18f35b","ios":"levelo://app?vid=aed94804-5250-41d7-949a-c0183f18f35b"},"vehicle_type_id":"4","last_reported":1757876772,"current_range_meters":15200,"station_id":"ce4bh412rcd13ifvqds0","pricing_plan_id":"cebpf4jnsgd1na2vs0mg"},{"bike_id":"753cac42-95e7-4905-9e07-e2edfddfe3aa","system_id":"levelo_inurba_marseille","lat":43.31509,"lon":5.37309,"is_reserved":false,"is_disabled":false,"rental_uris":{"android":"levelo://app?vid=753cac42-95e7-4905-9e07-e2edfddfe3aa","ios":"levelo://app?vid=753cac42-95e7-4905-9e07-e2edfddfe3aa"},"vehicle_type_id":"4","last_reported":1757876772,"current_range_meters":15200,"station_id":"ce4bgt12rcd13ifvqcd0","pricing_plan_id":"cebpf4jnsgd1na2vs0mg"},{"bike_id":"3fe444ee-ee08-420b-ad9e-7f03855712c3","system_id":"levelo_inurba_marseille","lat":43.28406,"lon":5.37522,"is_reserved":false,"is_disabled":false,"rental_uris":{"android":"levelo://app?vid=3fe444ee-ee08-420b-ad9e-7f03855712c3","ios":"levelo://app?vid=3fe444ee-ee08-420b-ad9e-7f03855712c3"},"vehicle_type_id":"4","last_reported":1757876772,"current_range_meters":15200,"station_id":"ce4bh412rcd13ifvqds0","pricing_plan_id":"cebpf4jnsgd1na2vs0mg"},{"bike_id":"3443a5d9-dd42-4e4c-b4b8-bdf728ea2712","system_id":"levelo_inurba_marseille","lat":43.27906,"lon":5.38004,"is_reserved":false,"is_disabled":false,"rental_uris":{"android":"levelo://app?vid=3443a5d9-dd42-4e4c-b4b8-bdf728ea2712","ios":"levelo://app?vid=3443a5d9-dd42-4e4c-b4b8-bdf728ea2712"},"vehicle_type_id":"4","last_reported":1757876772,"current_range_meters":16000,"station_id":"ce4bhf92rcd13ifvqf50","pricing_plan_id":"cebpf4jnsgd1na2vs0mg"},{"bike_id":"d921256a-22bb-46cb-aca5-4791c03130fc","system_id":"levelo_inurba_marseille","lat":43.30544,"lon":5.38437,"is_reserved":false,"is_disabled":false,"rental_uris":{"android":"levelo://app?vid=d921256a-22bb-46cb-aca5-4791c03130fc","ios":"levelo://app?vid=d921256a-22bb-46cb-aca5-4791c03130fc"},"vehicle_type_id":"4","last_reported":1757876772,"current_range_meters":16000,"station_id":"ce4bgg92rcd13ifvqb30","pricing_plan_id":"cebpf4jnsgd1na2vs0mg"},{"bike_id":"950a5f0c-6122-4d8d-a42b-4763023d14f2","system_id":"levelo_inurba_marseille","lat":43.25484,"lon":5.37654,"is_reserved":false,"is_disabled":true,"rental_uris":{"android":"levelo://app?vid=950a5f0c-6122-4d8d-a42b-4763023d14f2","ios":"levelo://app?vid=950a5f0c-6122-4d8d-a42b-4763023d14f2"},"vehicle_type_id":"4","last_reported":1757876772,"current_range_meters":16000,"station_id":"ce4bhh12rcd13ifvqff0","pricing_plan_id":"cebpf4jnsgd1na2vs0mg"},{"bike_id":"e05eea5e-3ede-4b75-8a49-e9854c3d159d","system_id":"levelo_inurba_marseille","lat":43.286,"lon":5.35123,"is_reserved":false,"is_disabled":true,"rental_uris":{"android":"levelo://app?vid=e05eea5e-3ede-4b75-8a49-e9854c3d159d","ios":"levelo://app?vid=e05eea5e-3ede-4b75-8a49-e9854c3d159d"},"vehicle_type_id":"4","last_reported":1757876772,"current_range_meters":16000,"station_id":"ce4bhch2rcd13ifvqeug","pricing_plan_id":"cebpf4jnsgd1na2vs0mg"},{"bike_id":"15c12f1b-150c-43be-9134-ac05fb9a1bef","system_id":"levelo_inurba_marseille","lat":43.2907,"lon":5.37166,"is_reserved":false,"is_disabled":true,"rental_uris":{"android":"levelo://app?vid=15c12f1b-150c-43be-9134-ac05fb9a1bef","ios":"levelo://app?vid=15c12f1b-150c-43be-9134-ac05fb9a1bef"},"vehicle_type_id":"4","last_reported":1757876772,"current_range_meters":16000,"station_id":"ce4bh5p2rcd13ifvqe4g","pricing_plan_id":"cebpf4jnsgd1na2vs0mg"},{"bike_id":"046ba709-b940-4fa3-9690-1d81db536e4b","system_id":"levelo_inurba_marseille","lat":43.22558,"lon":5.41635,"is_reserved":false,"is_disabled":false,"rental_uris":{"android":"levelo://app?vid=046ba709-b940-4fa3-9690-1d81db536e4b","ios":"levelo://app?vid=046ba709-b940-4fa3-9690-1d81db536e4b"},"vehicle_type_id":"4","last_reported":1757876772,"current_range_meters":16000,"station_id":"st_d2o4gvlbi1j2169b742g","pricing_plan_id":"cebpf4jnsgd1na2vs0mg"},{"bike_id":"5775ff7b-6d4c-4da8-bae9-93fe065408c4","system_id":"levelo_inurba_marseille","lat":43.31325,"lon":5.39689,"is_reserved":false,"is_disabled":false,"rental_uris":{"android":"levelo://app?vid=5775ff7b-6d4c-4da8-bae9-93fe065408c4","ios":"levelo://app?vid=5775ff7b-6d4c-4da8-bae9-93fe065408c4"},"vehicle_type_id":"4","last_reported":1757876772,"current_range_meters":16000,"station_id":"ce4bgvp2rcd13ifvqcu0","pricing_plan_id":"cebpf4jnsgd1na2vs0mg"},{"bike_id":"060cb2f3-817a-4a6f-be61-86bf0144b685","system_id":"levelo_inurba_marseille","lat":43.30799,"lon":5.38164,"is_reserved":false,"is_disabled":false,"rental_uris":{"android":"levelo://app?vid=060cb2f3-817a-4a6f-be61-86bf0144b685","ios":"levelo://app?vid=060cb2f3-817a-4a6f-be61-86bf0144b685"},"vehicle_type_id":"4","last_reported":1757876772,"current_range_meters":16000,"station_id":"ce4bgt12rcd13ifvqce0","pricing_plan_id":"cebpf4jnsgd1na2vs0mg"},{"bike_id":"17cf7600-54e7-49a5-b356-40ba76abec3a","system_id":"levelo_inurba_marseille","lat":43.29366,"lon":5.37862,"is_reserved":false,"is_disabled":false,"rental_uris":{"android":"levelo://app?vid=17cf7600-54e7-49a5-b356-40ba76abec3a","ios":"levelo://app?vid=17cf7600-54e7-49a5-b356-40ba76abec3a"},"vehicle_type_id":"4","last_reported":1757876772,"current_range_meters":16000,"station_id":"ce4bgjh2rcd13ifvqbf0","pricing_plan_id":"cebpf4jnsgd1na2vs0mg"},{"bike_id":"8f0a411a-c074-4adb-9740-d0fd8eaced28","system_id":"levelo_inurba_marseille","lat":43.27828,"lon":5.40722,"is_reserved":false,"is_disabled":false,"rental_uris":{"android":"levelo://app?vid=8f0a411a-c074-4adb-9740-d0fd8eaced28","ios":"levelo://app?vid=8f0a411a-c074-4adb-9740-d0fd8eaced28"},"vehicle_type_id":"4","last_reported":1757876772,"current_range_meters":16400,"station_id":"ce4bhnh2rcd13ifvqgtg","pricing_plan_id":"cebpf4jnsgd1na2vs0mg"},{"bike_id":"f7160a75-80b2-46dd-b0b5-86ce3ad72837","system_id":"levelo_inurba_marseille","lat":43.308,"lon":5.38164,"is_reserved":false,"is_disabled":false,"rental_uris":{"android":"levelo://app?vid=f7160a75-80b2-46dd-b0b5-86ce3ad72837","ios":"levelo://app?vid=f7160a75-80b2-46dd-b0b5-86ce3ad72837"},"vehicle_type_id":"4","last_reported":1757876772,"current_range_meters":16400,"station_id":"ce4bgt12rcd13ifvqce0","pricing_plan_id":"cebpf4jnsgd1na2vs0mg"},{"bike_id":"322c1f5a-85db-4ef6-bcd4-1b5c417c8ee0","system_id":"levelo_inurba_marseille","lat":43.3377,"lon":5.37488,"is_reserved":false,"is_disabled":false,"rental_uris":{"android":"levelo://app?vid=322c1f5a-85db-4ef6-bcd4-1b5c417c8ee0","ios":"levelo://app?vid=322c1f5a-85db-4ef6-bcd4-1b5c417c8ee0"},"vehicle_type_id":"4","last_reported":1757876772,"current_range_meters":16400,"station_id":"","pricing_plan_id":"cebpf4jnsgd1na2vs0mg"},{"bike_id":"95251c11-6699-4aa0-8909-a444151e2dc9","system_id":"levelo_inurba_marseille","lat":43.24073,"lon":5.37764,"is_reserved":false,"is_disabled":false,"rental_uris":{"android":"levelo://app?vid=95251c11-6699-4aa0-8909-a444151e2dc9","ios":"levelo://app?vid=95251c11-6699-4aa0-8909-a444151e2dc9"},"vehicle_type_id":"4","last_reported":1757876772,"current_range_meters":16400,"station_id":"ce4bhnp2rcd13ifvqgvg","pricing_plan_id":"cebpf4jnsgd1na2vs0mg"},{"bike_id":"f268f86e-19f4-4d8a-88dd-839cf11d87c7","system_id":"levelo_inurba_marseille","lat":43.27494,"lon":5.42451,"is_reserved":false,"is_disabled":false,"rental_uris":{"android":"levelo://app?vid=f268f86e-19f4-4d8a-88dd-839cf11d87c7","ios":"levelo://app?vid=f268f86e-19f4-4d8a-88dd-839cf11d87c7"},"vehicle_type_id":"4","last_reported":1757876772,"current_range_meters":16400,"station_id":"ce4bhn92rcd13ifvqgrg","pricing_plan_id":"cebpf4jnsgd1na2vs0mg"},{"bike_id":"8f04fe6a-b496-4a33-88d0-7a57c81f211d","system_id":"levelo_inurba_marseille","lat":43.24357,"lon":5.37034,"is_reserved":false,"is_disabled":true,"rental_uris":{"android":"levelo://app?vid=8f04fe6a-b496-4a33-88d0-7a57c81f211d","ios":"levelo://app?vid=8f04fe6a-b496-4a33-88d0-7a57c81f211d"},"vehicle_type_id":"4","last_reported":1757876772,"current_range_meters":16400,"station_id":"ce4bhhh2rcd13ifvqfk0","pricing_plan_id":"cebpf4jnsgd1na2vs0mg"},{"bike_id":"55a19d84-53c9-4641-8a6f-3d14a3dcc9b2","system_id":"levelo_inurba_marseille","lat":43.29521,"lon":5.39037,"is_reserved":false,"is_disabled":false,"rental_uris":{"android":"levelo://app?vid=55a19d84-53c9-4641-8a6f-3d14a3dcc9b2","ios":"levelo://app?vid=55a19d84-53c9-4641-8a6f-3d14a3dcc9b2"},"vehicle_type_id":"4","last_reported":1757876772,"current_range_meters":16400,"station_id":"ce4bh3p2rcd13ifvqdp0","pricing_plan_id":"cebpf4jnsgd1na2vs0mg"},{"bike_id":"79b58960-208e-4b49-9d65-8bb1ffb5b6a2","system_id":"levelo_inurba_marseille","lat":43.309122,"lon":5.396182,"is_reserved":false,"is_disabled":false,"rental_uris":{"android":"levelo://app?vid=79b58960-208e-4b49-9d65-8bb1ffb5b6a2","ios":"levelo://app?vid=79b58960-208e-4b49-9d65-8bb1ffb5b6a2"},"vehicle_type_id":"4","last_reported":1757876772,"current_range_meters":16400,"station_id":"ce4bh012rcd13ifvqcv0","pricing_plan_id":"cebpf4jnsgd1na2vs0mg"},{"bike_id":"795543a3-4d40-47a2-ba91-0c0d7988d4cf","system_id":"levelo_inurba_marseille","lat":43.27378,"lon":5.36261,"is_reserved":false,"is_disabled":true,"rental_uris":{"android":"levelo://app?vid=795543a3-4d40-47a2-ba91-0c0d7988d4cf","ios":"levelo://app?vid=795543a3-4d40-47a2-ba91-0c0d7988d4cf"},"vehicle_type_id":"4","last_reported":1757876772,"current_range_meters":16800,"station_id":"ce4bhbh2rcd13ifvqeo0","pricing_plan_id":"cebpf4jnsgd1na2vs0mg"},{"bike_id":"e3856068-4cbe-460b-a7aa-8f2fa9134a92","system_id":"levelo_inurba_marseille","lat":43.29177,"lon":5.37144,"is_reserved":false,"is_disabled":false,"rental_uris":{"android":"levelo://app?vid=e3856068-4cbe-460b-a7aa-8f2fa9134a92","ios":"levelo://app?vid=e3856068-4cbe-460b-a7aa-8f2fa9134a92"},"vehicle_type_id":"4","last_reported":1757876772,"current_range_meters":16800,"station_id":"ce4bha92rcd13ifvqeh0","pricing_plan_id":"cebpf4jnsgd1na2vs0mg"},{"bike_id":"0c6fe877-1024-4901-84e8-0fbaefe45584","system_id":"levelo_inurba_marseille","lat":43.33405,"lon":5.4006,"is_reserved":false,"is_disabled":false,"rental_uris":{"android":"levelo://app?vid=0c6fe877-1024-4901-84e8-0fbaefe45584","ios":"levelo://app?vid=0c6fe877-1024-4901-84e8-0fbaefe45584"},"vehicle_type_id":"4","last_reported":1757876772,"current_range_meters":16800,"station_id":"","pricing_plan_id":"cebpf4jnsgd1na2vs0mg"},{"bike_id":"ba9b4eaf-b023-40a8-930b-7c4183d1dc7c","system_id":"levelo_inurba_marseille","lat":43.306,"lon":5.37237,"is_reserved":false,"is_disabled":false,"rental_uris":{"android":"levelo://app?vid=ba9b4eaf-b023-40a8-930b-7c4183d1dc7c","ios":"levelo://app?vid=ba9b4eaf-b023-40a8-930b-7c4183d1dc7c"},"vehicle_type_id":"4","last_reported":1757876772,"current_range_meters":15200,"station_id":"ce4bgqh2rcd13ifvqc4g","pricing_plan_id":"cebpf4jnsgd1na2vs0mg"},{"bike_id":"ebc28d3f-48e0-4c19-84dd-0c3a04a1ca62","system_id":"levelo_inurba_marseille","lat":43.25854,"lon":5.39917,"is_reserved":false,"is_disabled":true,"rental_uris":{"android":"levelo://app?vid=ebc28d3f-48e0-4c19-84dd-0c3a04a1ca62","ios":"levelo://app?vid=ebc28d3f-48e0-4c19-84dd-0c3a04a1ca62"},"vehicle_type_id":"4","last_reported":1757876772,"current_range_meters":16800,"station_id":"ce4bhl92rcd13ifvqghg","pricing_plan_id":"cebpf4jnsgd1na2vs0mg"},{"bike_id":"c9f82b86-7ced-43c5-8bc4-fa83f1b9c33c","system_id":"levelo_inurba_marseille","lat":43.24674,"lon":5.38151,"is_reserved":false,"is_disabled":false,"rental_uris":{"android":"levelo://app?vid=c9f82b86-7ced-43c5-8bc4-fa83f1b9c33c","ios":"levelo://app?vid=c9f82b86-7ced-43c5-8bc4-fa83f1b9c33c"},"vehicle_type_id":"4","last_reported":1757876772,"current_range_meters":16800,"station_id":"ce4bhih2rcd13ifvqfr0","pricing_plan_id":"cebpf4jnsgd1na2vs0mg"},{"bike_id":"ad63778a-4fbe-4846-9db4-c91f5d909fa2","system_id":"levelo_inurba_marseille","lat":43.24945,"lon":5.40537,"is_reserved":false,"is_disabled":false,"rental_uris":{"android":"levelo://app?vid=ad63778a-4fbe-4846-9db4-c91f5d909fa2","ios":"levelo://app?vid=ad63778a-4fbe-4846-9db4-c91f5d909fa2"},"vehicle_type_id":"4","last_reported":1757876772,"current_range_meters":16800,"station_id":"st_d2ngiaodas8pm72gd1h0","pricing_plan_id":"cebpf4jnsgd1na2vs0mg"},{"bike_id":"35939cb7-a84c-45d8-bbf1-a92242803d38","system_id":"levelo_inurba_marseille","lat":43.28702,"lon":5.37398,"is_reserved":false,"is_disabled":false,"rental_uris":{"android":"levelo://app?vid=35939cb7-a84c-45d8-bbf1-a92242803d38","ios":"levelo://app?vid=35939cb7-a84c-45d8-bbf1-a92242803d38"},"vehicle_type_id":"4","last_reported":1757876772,"current_range_meters":16800,"station_id":"ce4bh3p2rcd13ifvqdq0","pricing_plan_id":"cebpf4jnsgd1na2vs0mg"},{"bike_id":"60df5be0-868d-496d-a7cc-2e097de1a47a","system_id":"levelo_inurba_marseille","lat":43.22558,"lon":5.41642,"is_reserved":false,"is_disabled":false,"rental_uris":{"android":"levelo://app?vid=60df5be0-868d-496d-a7cc-2e097de1a47a","ios":"levelo://app?vid=60df5be0-868d-496d-a7cc-2e097de1a47a"},"vehicle_type_id":"4","last_reported":1757876772,"current_range_meters":16800,"station_id":"st_d2o4gvlbi1j2169b742g","pricing_plan_id":"cebpf4jnsgd1na2vs0mg"},{"bike_id":"92b53a89-a7ca-4494-ba61-d02a1f6f7d40","system_id":"levelo_inurba_marseille","lat":43.29862,"lon":5.39751,"is_reserved":false,"is_disabled":false,"rental_uris":{"android":"levelo://app?vid=92b53a89-a7ca-4494-ba61-d02a1f6f7d40","ios":"levelo://app?vid=92b53a89-a7ca-4494-ba61-d02a1f6f7d40"},"vehicle_type_id":"4","last_reported":1757876772,"current_range_meters":16800,"station_id":"ce4bh0h2rcd13ifvqd50","pricing_plan_id":"cebpf4jnsgd1na2vs0mg"},{"bike_id":"61242a27-0db1-42cc-9fb5-dd86bf5c6a93","system_id":"levelo_inurba_marseille","lat":43.246438,"lon":5.388954,"is_reserved":false,"is_disabled":false,"rental_uris":{"android":"levelo://app?vid=61242a27-0db1-42cc-9fb5-dd86bf5c6a93","ios":"levelo://app?vid=61242a27-0db1-42cc-9fb5-dd86bf5c6a93"},"vehicle_type_id":"4","last_reported":1757876772,"current_range_meters":16800,"station_id":"ce4bhg12rcd13ifvqf60","pricing_plan_id":"cebpf4jnsgd1na2vs0mg"},{"bike_id":"98c1a434-d7d4-4ae7-bb04-0ded001d318d","system_id":"levelo_inurba_marseille","lat":43.31113,"lon":5.3777,"is_reserved":false,"is_disabled":false,"rental_uris":{"android":"levelo://app?vid=98c1a434-d7d4-4ae7-bb04-0ded001d318d","ios":"levelo://app?vid=98c1a434-d7d4-4ae7-bb04-0ded001d318d"},"vehicle_type_id":"4","last_reported":1757876772,"current_range_meters":16800,"station_id":"ce4bgt92rcd13ifvqcg0","pricing_plan_id":"cebpf4jnsgd1na2vs0mg"},{"bike_id":"06203865-7959-4142-8bfb-c62d1f4255bb","system_id":"levelo_inurba_marseille","lat":43.28715,"lon":5.39975,"is_reserved":false,"is_disabled":false,"rental_uris":{"android":"levelo://app?vid=06203865-7959-4142-8bfb-c62d1f4255bb","ios":"levelo://app?vid=06203865-7959-4142-8bfb-c62d1f4255bb"},"vehicle_type_id":"4","last_reported":1757876772,"current_range_meters":17200,"station_id":"ce4bho92rcd13ifvqh3g","pricing_plan_id":"cebpf4jnsgd1na2vs0mg"},{"bike_id":"71c23734-ae35-46ed-904c-7ed4b4e548f8","system_id":"levelo_inurba_marseille","lat":43.30547,"lon":5.38424,"is_reserved":false,"is_disabled":false,"rental_uris":{"android":"levelo://app?vid=71c23734-ae35-46ed-904c-7ed4b4e548f8","ios":"levelo://app?vid=71c23734-ae35-46ed-904c-7ed4b4e548f8"},"vehicle_type_id":"4","last_reported":1757876772,"current_range_meters":16800,"station_id":"ce4bgg92rcd13ifvqb30","pricing_plan_id":"cebpf4jnsgd1na2vs0mg"},{"bike_id":"5eda334d-1e2a-46b6-a35b-d9b030823a6a","system_id":"levelo_inurba_marseille","lat":43.29524,"lon":5.37494,"is_reserved":false,"is_disabled":false,"rental_uris":{"android":"levelo://app?vid=5eda334d-1e2a-46b6-a35b-d9b030823a6a","ios":"levelo://app?vid=5eda334d-1e2a-46b6-a35b-d9b030823a6a"},"vehicle_type_id":"4","last_reported":1757876772,"current_range_meters":17200,"station_id":"ce4bgkp2rcd13ifvqbmg","pricing_plan_id":"cebpf4jnsgd1na2vs0mg"},{"bike_id":"a572358d-aa76-4fdc-ba67-3e0a6051865d","system_id":"levelo_inurba_marseille","lat":43.31493,"lon":5.3731,"is_reserved":false,"is_disabled":false,"rental_uris":{"android":"levelo://app?vid=a572358d-aa76-4fdc-ba67-3e0a6051865d","ios":"levelo://app?vid=a572358d-aa76-4fdc-ba67-3e0a6051865d"},"vehicle_type_id":"4","last_reported":1757876772,"current_range_meters":17200,"station_id":"ce4bgt12rcd13ifvqcd0","pricing_plan_id":"cebpf4jnsgd1na2vs0mg"},{"bike_id":"980172e9-cc7b-468d-bb26-4f101a63f35d","system_id":"levelo_inurba_marseille","lat":43.29572,"lon":5.39972,"is_reserved":false,"is_disabled":false,"rental_uris":{"android":"levelo://app?vid=980172e9-cc7b-468d-bb26-4f101a63f35d","ios":"levelo://app?vid=980172e9-cc7b-468d-bb26-4f101a63f35d"},"vehicle_type_id":"4","last_reported":1757876772,"current_range_meters":16800,"station_id":"ce4bh312rcd13ifvqdj0","pricing_plan_id":"cebpf4jnsgd1na2vs0mg"},{"bike_id":"e73470b2-f46f-4f87-989f-53f8372e4317","system_id":"levelo_inurba_marseille","lat":43.33345,"lon":5.39811,"is_reserved":false,"is_disabled":false,"rental_uris":{"android":"levelo://app?vid=e73470b2-f46f-4f87-989f-53f8372e4317","ios":"levelo://app?vid=e73470b2-f46f-4f87-989f-53f8372e4317"},"vehicle_type_id":"4","last_reported":1757876772,"current_range_meters":17200,"station_id":"","pricing_plan_id":"cebpf4jnsgd1na2vs0mg"},{"bike_id":"6454a72a-ee26-45f2-ade2-a75772f72661","system_id":"levelo_inurba_marseille","lat":43.31232,"lon":5.36866,"is_reserved":false,"is_disabled":false,"rental_uris":{"android":"levelo://app?vid=6454a72a-ee26-45f2-ade2-a75772f72661","ios":"levelo://app?vid=6454a72a-ee26-45f2-ade2-a75772f72661"},"vehicle_type_id":"4","last_reported":1757876772,"current_range_meters":17200,"station_id":"ce4bgl92rcd13ifvqbq0","pricing_plan_id":"cebpf4jnsgd1na2vs0mg"},{"bike_id":"d27a3574-c668-415b-ad3b-c0a1e10e6cf4","system_id":"levelo_inurba_marseille","lat":43.337444,"lon":5.374475,"is_reserved":false,"is_disabled":false,"rental_uris":{"android":"levelo://app?vid=d27a3574-c668-415b-ad3b-c0a1e10e6cf4","ios":"levelo://app?vid=d27a3574-c668-415b-ad3b-c0a1e10e6cf4"},"vehicle_type_id":"4","last_reported":1757876772,"current_range_meters":17200,"station_id":"","pricing_plan_id":"cebpf4jnsgd1na2vs0mg"},{"bike_id":"3137af61-56d0-45d5-96aa-49a4a0bc14c1","system_id":"levelo_inurba_marseille","lat":43.32346,"lon":5.38917,"is_reserved":false,"is_disabled":false,"rental_uris":{"android":"levelo://app?vid=3137af61-56d0-45d5-96aa-49a4a0bc14c1","ios":"levelo://app?vid=3137af61-56d0-45d5-96aa-49a4a0bc14c1"},"vehicle_type_id":"4","last_reported":1757876772,"current_range_meters":17600,"station_id":"ce4bhqp2rcd13ifvqhog","pricing_plan_id":"cebpf4jnsgd1na2vs0mg"},{"bike_id":"a2037d5d-efdc-4084-bc10-efef38a713df","system_id":"levelo_inurba_marseille","lat":43.29581,"lon":5.36752,"is_reserved":false,"is_disabled":true,"rental_uris":{"android":"levelo://app?vid=a2037d5d-efdc-4084-bc10-efef38a713df","ios":"levelo://app?vid=a2037d5d-efdc-4084-bc10-efef38a713df"},"vehicle_type_id":"4","last_reported":1757876772,"current_range_meters":17600,"station_id":"ce4bgph2rcd13ifvqc2g","pricing_plan_id":"cebpf4jnsgd1na2vs0mg"},{"bike_id":"5b5379f2-6b26-4741-a1b0-feb22b61a585","system_id":"levelo_inurba_marseille","lat":43.2119,"lon":5.35073,"is_reserved":false,"is_disabled":true,"rental_uris":{"android":"levelo://app?vid=5b5379f2-6b26-4741-a1b0-feb22b61a585","ios":"levelo://app?vid=5b5379f2-6b26-4741-a1b0-feb22b61a585"},"vehicle_type_id":"4","last_reported":1757876772,"current_range_meters":17600,"station_id":"st_cvj6sg6p6f1abm77japg","pricing_plan_id":"cebpf4jnsgd1na2vs0mg"},{"bike_id":"a155e67d-bec0-4326-ae57-c035ef5e1c81","system_id":"levelo_inurba_marseille","lat":43.298916,"lon":5.436749,"is_reserved":false,"is_disabled":false,"rental_uris":{"android":"levelo://app?vid=a155e67d-bec0-4326-ae57-c035ef5e1c81","ios":"levelo://app?vid=a155e67d-bec0-4326-ae57-c035ef5e1c81"},"vehicle_type_id":"4","last_reported":1757876772,"current_range_meters":17600,"station_id":"ce4bhpp2rcd13ifvqhfg","pricing_plan_id":"cebpf4jnsgd1na2vs0mg"},{"bike_id":"1f21dc2e-bcb1-4be9-9de8-d7deb121d9c0","system_id":"levelo_inurba_marseille","lat":43.23194,"lon":5.39982,"is_reserved":false,"is_disabled":false,"rental_uris":{"android":"levelo://app?vid=1f21dc2e-bcb1-4be9-9de8-d7deb121d9c0","ios":"levelo://app?vid=1f21dc2e-bcb1-4be9-9de8-d7deb121d9c0"},"vehicle_type_id":"4","last_reported":1757876772,"current_range_meters":17600,"station_id":"ce4bhn12rcd13ifvqgqg","pricing_plan_id":"cebpf4jnsgd1na2vs0mg"},{"bike_id":"40b55efd-aded-4e03-9c1e-bdee34360ba8","system_id":"levelo_inurba_marseille","lat":43.29686,"lon":5.37293,"is_reserved":false,"is_disabled":false,"rental_uris":{"android":"levelo://app?vid=40b55efd-aded-4e03-9c1e-bdee34360ba8","ios":"levelo://app?vid=40b55efd-aded-4e03-9c1e-bdee34360ba8"},