{"last_updated":1742220607,"ttl":60,"version":"2.2","data":{"bikes":[{"bike_id":"1c1544f2-b2d2-4048-9069-3273d4bb4df1","system_id":"levelo_inurba_marseille","lat":43.25933,"lon":5.40909,"is_reserved":false,"is_disabled":false,"rental_uris":{"android":"levelo://app?vid=1c1544f2-b2d2-4048-9069-3273d4bb4df1","ios":"levelo://app?vid=1c1544f2-b2d2-4048-9069-3273d4bb4df1"},"vehicle_type_id":"4","last_reported":1742220607,"current_range_meters":2800,"station_id":"ce4bhm92rcd13ifvqglg","pricing_plan_id":"cebpf4jnsgd1na2vs0mg"},{"bike_id":"e66b6b08-bfbb-488f-a26c-3a27bf950bee","system_id":"levelo_inurba_marseille","lat":43.29007,"lon":5.35613,"is_reserved":false,"is_disabled":false,"rental_uris":{"android":"levelo://app?vid=e66b6b08-bfbb-488f-a26c-3a27bf950bee","ios":"levelo://app?vid=e66b6b08-bfbb-488f-a26c-3a27bf950bee"},"vehicle_type_id":"4","last_reported":1742220607,"current_range_meters":2800,"station_id":"ce4bhb92rcd13ifvqen0","pricing_plan_id":"cebpf4jnsgd1na2vs0mg"},{"bike_id":"992594b2-1129-40ab-9b5d-fdd5eac5d05f","system_id":"levelo_inurba_marseille","lat":43.31689,"lon":5.37592,"is_reserved":false,"is_disabled":false,"rental_uris":{"android":"levelo://app?vid=992594b2-1129-40ab-9b5d-fdd5eac5d05f","ios":"levelo://app?vid=992594b2-1129-40ab-9b5d-fdd5eac5d05f"},"vehicle_type_id":"4","last_reported":1742220607,"current_range_meters":2800,"station_id":"","pricing_plan_id":"cebpf4jnsgd1na2vs0mg"},{"bike_id":"d8c4eeb1-7702-42d9-a2cf-4055ac17f159","system_id":"levelo_inurba_marseille","lat":43.27845,"lon":5.39195,"is_reserved":false,"is_disabled":true,"rental_uris":{"android":"levelo://app?vid=d8c4eeb1-7702-42d9-a2cf-4055ac17f159","ios":"levelo://app?vid=d8c4eeb1-7702-42d9-a2cf-4055ac17f159"},"vehicle_type_id":"4","last_reported":1742220607,"current_range_meters":3200,"station_id":"ce4bhjp2rcd13ifvqga0","pricing_plan_id":"cebpf4jnsgd1na2vs0mg"},{"bike_id":"5a6ae10a-0e46-4222-b8bf-7aa450f862e3","system_id":"levelo_inurba_marseille","lat":43.286183,"lon":5.351086,"is_reserved":false,"is_disabled":false,"rental_uris":{"android":"levelo://app?vid=5a6ae10a-0e46-4222-b8bf-7aa450f862e3","ios":"levelo://app?vid=5a6ae10a-0e46-4222-b8bf-7aa450f862e3"},"vehicle_type_id":"4","last_reported":1742220607,"current_range_meters":3600,"station_id":"ce4bgup2rcd13ifvqco0","pricing_plan_id":"cebpf4jnsgd1na2vs0mg"},{"bike_id":"2588dd17-49fa-4378-a5d4-772b19bd8e6a","system_id":"levelo_inurba_marseille","lat":43.23152,"lon":5.43716,"is_reserved":false,"is_disabled":false,"rental_uris":{"android":"levelo://app?vid=2588dd17-49fa-4378-a5d4-772b19bd8e6a","ios":"levelo://app?vid=2588dd17-49fa-4378-a5d4-772b19bd8e6a"},"vehicle_type_id":"4","last_reported":1742220607,"current_range_meters":3600,"station_id":"ce4bhmp2rcd13ifvqgog","pricing_plan_id":"cebpf4jnsgd1na2vs0mg"},{"bike_id":"e861d49f-d931-4550-ba8a-c92d596f3560","system_id":"levelo_inurba_marseille","lat":43.29031,"lon":5.37803,"is_reserved":false,"is_disabled":true,"rental_uris":{"android":"levelo://app?vid=e861d49f-d931-4550-ba8a-c92d596f3560","ios":"levelo://app?vid=e861d49f-d931-4550-ba8a-c92d596f3560"},"vehicle_type_id":"4","last_reported":1742220607,"current_range_meters":3600,"station_id":"","pricing_plan_id":"cebpf4jnsgd1na2vs0mg"},{"bike_id":"56067116-2e10-4d24-be8b-5d5e126272ed","system_id":"levelo_inurba_marseille","lat":43.28713,"lon":5.37919,"is_reserved":false,"is_disabled":false,"rental_uris":{"android":"levelo://app?vid=56067116-2e10-4d24-be8b-5d5e126272ed","ios":"levelo://app?vid=56067116-2e10-4d24-be8b-5d5e126272ed"},"vehicle_type_id":"4","last_reported":1742220607,"current_range_meters":3600,"station_id":"ce4bh9p2rcd13ifvqec0","pricing_plan_id":"cebpf4jnsgd1na2vs0mg"},{"bike_id":"5792861d-dab6-4341-9ff4-3bcefd7205fe","system_id":"levelo_inurba_marseille","lat":43.29627,"lon":5.40614,"is_reserved":false,"is_disabled":false,"rental_uris":{"android":"levelo://app?vid=5792861d-dab6-4341-9ff4-3bcefd7205fe","ios":"levelo://app?vid=5792861d-dab6-4341-9ff4-3bcefd7205fe"},"vehicle_type_id":"4","last_reported":1742220607,"current_range_meters":3600,"station_id":"ce4bh0h2rcd13ifvqd60","pricing_plan_id":"cebpf4jnsgd1na2vs0mg"},{"bike_id":"052f99be-f07b-4ab9-8bec-4e531eb6a9e8","system_id":"levelo_inurba_marseille","lat":43.28618,"lon":5.35104,"is_reserved":false,"is_disabled":false,"rental_uris":{"android":"levelo://app?vid=052f99be-f07b-4ab9-8bec-4e531eb6a9e8","ios":"levelo://app?vid=052f99be-f07b-4ab9-8bec-4e531eb6a9e8"},"vehicle_type_id":"4","last_reported":1742220607,"current_range_meters":4000,"station_id":"ce4bhch2rcd13ifvqeug","pricing_plan_id":"cebpf4jnsgd1na2vs0mg"},{"bike_id":"75eca607-f4fe-4195-b2a5-9ee078b9149d","system_id":"levelo_inurba_marseille","lat":43.29555,"lon":5.42294,"is_reserved":false,"is_disabled":false,"rental_uris":{"android":"levelo://app?vid=75eca607-f4fe-4195-b2a5-9ee078b9149d","ios":"levelo://app?vid=75eca607-f4fe-4195-b2a5-9ee078b9149d"},"vehicle_type_id":"4","last_reported":1742220607,"current_range_meters":4400,"station_id":"ce4bhph2rcd13ifvqhdg","pricing_plan_id":"cebpf4jnsgd1na2vs0mg"},{"bike_id":"75539dc2-5174-4857-b04e-f8801903f023","system_id":"levelo_inurba_marseille","lat":43.30144,"lon":5.38068,"is_reserved":false,"is_disabled":false,"rental_uris":{"android":"levelo://app?vid=75539dc2-5174-4857-b04e-f8801903f023","ios":"levelo://app?vid=75539dc2-5174-4857-b04e-f8801903f023"},"vehicle_type_id":"4","last_reported":1742220607,"current_range_meters":4400,"station_id":"ce4bgjp2rcd13ifvqbh0","pricing_plan_id":"cebpf4jnsgd1na2vs0mg"},{"bike_id":"e33497be-14d3-4e13-b3cd-b8d621070490","system_id":"levelo_inurba_marseille","lat":43.27397,"lon":5.42042,"is_reserved":false,"is_disabled":false,"rental_uris":{"android":"levelo://app?vid=e33497be-14d3-4e13-b3cd-b8d621070490","ios":"levelo://app?vid=e33497be-14d3-4e13-b3cd-b8d621070490"},"vehicle_type_id":"4","last_reported":1742220607,"current_range_meters":4400,"station_id":"","pricing_plan_id":"cebpf4jnsgd1na2vs0mg"},{"bike_id":"80b81d56-700c-44d5-ba66-ace637f16077","system_id":"levelo_inurba_marseille","lat":43.23965,"lon":5.36632,"is_reserved":false,"is_disabled":false,"rental_uris":{"android":"levelo://app?vid=80b81d56-700c-44d5-ba66-ace637f16077","ios":"levelo://app?vid=80b81d56-700c-44d5-ba66-ace637f16077"},"vehicle_type_id":"4","last_reported":1742220607,"current_range_meters":4800,"station_id":"ce4bhi12rcd13ifvqfp0","pricing_plan_id":"cebpf4jnsgd1na2vs0mg"},{"bike_id":"dd118b9f-4854-4c7b-9819-bde200858bd1","system_id":"levelo_inurba_marseille","lat":43.23209,"lon":5.39974,"is_reserved":false,"is_disabled":false,"rental_uris":{"android":"levelo://app?vid=dd118b9f-4854-4c7b-9819-bde200858bd1","ios":"levelo://app?vid=dd118b9f-4854-4c7b-9819-bde200858bd1"},"vehicle_type_id":"4","last_reported":1742220607,"current_range_meters":4800,"station_id":"ce4bhn12rcd13ifvqgqg","pricing_plan_id":"cebpf4jnsgd1na2vs0mg"},{"bike_id":"76f822d5-be56-4bfb-bc4b-02443a6e266d","system_id":"levelo_inurba_marseille","lat":43.27178,"lon":5.40985,"is_reserved":false,"is_disabled":false,"rental_uris":{"android":"levelo://app?vid=76f822d5-be56-4bfb-bc4b-02443a6e266d","ios":"levelo://app?vid=76f822d5-be56-4bfb-bc4b-02443a6e266d"},"vehicle_type_id":"4","last_reported":1742220607,"current_range_meters":4800,"station_id":"ce4bhl12rcd13ifvqgf0","pricing_plan_id":"cebpf4jnsgd1na2vs0mg"},{"bike_id":"67e45879-f63f-477c-99d3-a1cf8df0b3ef","system_id":"levelo_inurba_marseille","lat":43.26214,"lon":5.3744,"is_reserved":false,"is_disabled":false,"rental_uris":{"android":"levelo://app?vid=67e45879-f63f-477c-99d3-a1cf8df0b3ef","ios":"levelo://app?vid=67e45879-f63f-477c-99d3-a1cf8df0b3ef"},"vehicle_type_id":"4","last_reported":1742220607,"current_range_meters":4800,"station_id":"ce4bhgp2rcd13ifvqfc0","pricing_plan_id":"cebpf4jnsgd1na2vs0mg"},{"bike_id":"c872a9ae-53c5-47d3-878e-dc7d469c0919","system_id":"levelo_inurba_marseille","lat":43.31362,"lon":5.36722,"is_reserved":false,"is_disabled":false,"rental_uris":{"android":"levelo://app?vid=c872a9ae-53c5-47d3-878e-dc7d469c0919","ios":"levelo://app?vid=c872a9ae-53c5-47d3-878e-dc7d469c0919"},"vehicle_type_id":"4","last_reported":1742220607,"current_range_meters":4800,"station_id":"ce4bgr92rcd13ifvqc6g","pricing_plan_id":"cebpf4jnsgd1na2vs0mg"},{"bike_id":"e0511ca9-2203-4d4d-87a3-85244be99416","system_id":"levelo_inurba_marseille","lat":43.31396,"lon":5.36934,"is_reserved":false,"is_disabled":false,"rental_uris":{"android":"levelo://app?vid=e0511ca9-2203-4d4d-87a3-85244be99416","ios":"levelo://app?vid=e0511ca9-2203-4d4d-87a3-85244be99416"},"vehicle_type_id":"4","last_reported":1742220607,"current_range_meters":4800,"station_id":"","pricing_plan_id":"cebpf4jnsgd1na2vs0mg"},{"bike_id":"4d27fc31-38c0-4e8f-8755-a0997e119c09","system_id":"levelo_inurba_marseille","lat":43.25001,"lon":5.38938,"is_reserved":false,"is_disabled":false,"rental_uris":{"android":"levelo://app?vid=4d27fc31-38c0-4e8f-8755-a0997e119c09","ios":"levelo://app?vid=4d27fc31-38c0-4e8f-8755-a0997e119c09"},"vehicle_type_id":"4","last_reported":1742220607,"current_range_meters":4800,"station_id":"ce4bhgp2rcd13ifvqfd0","pricing_plan_id":"cebpf4jnsgd1na2vs0mg"},{"bike_id":"8ba87235-a34b-48f5-9938-70fca1d983e1","system_id":"levelo_inurba_marseille","lat":43.23193,"lon":5.35557,"is_reserved":false,"is_disabled":false,"rental_uris":{"android":"levelo://app?vid=8ba87235-a34b-48f5-9938-70fca1d983e1","ios":"levelo://app?vid=8ba87235-a34b-48f5-9938-70fca1d983e1"},"vehicle_type_id":"4","last_reported":1742220607,"current_range_meters":4800,"station_id":"ce4bhu92rcd13ifvqi70","pricing_plan_id":"cebpf4jnsgd1na2vs0mg"},{"bike_id":"5dd520c1-333b-4ea6-8e32-0733666fb650","system_id":"levelo_inurba_marseille","lat":43.29716,"lon":5.36609,"is_reserved":false,"is_disabled":false,"rental_uris":{"android":"levelo://app?vid=5dd520c1-333b-4ea6-8e32-0733666fb650","ios":"levelo://app?vid=5dd520c1-333b-4ea6-8e32-0733666fb650"},"vehicle_type_id":"4","last_reported":1742220607,"current_range_meters":4800,"station_id":"ce4bgn12rcd13ifvqbt0","pricing_plan_id":"cebpf4jnsgd1na2vs0mg"},{"bike_id":"da4af89f-b57e-4338-a2dc-1fb2e55820b1","system_id":"levelo_inurba_marseille","lat":43.23064,"lon":5.35491,"is_reserved":false,"is_disabled":false,"rental_uris":{"android":"levelo://app?vid=da4af89f-b57e-4338-a2dc-1fb2e55820b1","ios":"levelo://app?vid=da4af89f-b57e-4338-a2dc-1fb2e55820b1"},"vehicle_type_id":"4","last_reported":1742220607,"current_range_meters":5600,"station_id":"cpo3342slgdg3j2ifvpg","pricing_plan_id":"cebpf4jnsgd1na2vs0mg"},{"bike_id":"5be9a1f5-43e5-44fe-8fe5-fcea0272093f","system_id":"levelo_inurba_marseille","lat":43.24186,"lon":5.39725,"is_reserved":false,"is_disabled":false,"rental_uris":{"android":"levelo://app?vid=5be9a1f5-43e5-44fe-8fe5-fcea0272093f","ios":"levelo://app?vid=5be9a1f5-43e5-44fe-8fe5-fcea0272093f"},"vehicle_type_id":"4","last_reported":1742220607,"current_range_meters":5600,"station_id":"ce4bhn12rcd13ifvqgpg","pricing_plan_id":"cebpf4jnsgd1na2vs0mg"},{"bike_id":"20e0a5b3-595b-4a82-b23f-00884f840406","system_id":"levelo_inurba_marseille","lat":43.23147,"lon":5.43702,"is_reserved":false,"is_disabled":false,"rental_uris":{"android":"levelo://app?vid=20e0a5b3-595b-4a82-b23f-00884f840406","ios":"levelo://app?vid=20e0a5b3-595b-4a82-b23f-00884f840406"},"vehicle_type_id":"4","last_reported":1742220607,"current_range_meters":5600,"station_id":"ce4bhmp2rcd13ifvqgog","pricing_plan_id":"cebpf4jnsgd1na2vs0mg"},{"bike_id":"474319a7-aff8-4a76-9d11-11be0fb2e07a","system_id":"levelo_inurba_marseille","lat":43.32289,"lon":5.38271,"is_reserved":false,"is_disabled":false,"rental_uris":{"android":"levelo://app?vid=474319a7-aff8-4a76-9d11-11be0fb2e07a","ios":"levelo://app?vid=474319a7-aff8-4a76-9d11-11be0fb2e07a"},"vehicle_type_id":"4","last_reported":1742220607,"current_range_meters":6000,"station_id":"ce4bhr12rcd13ifvqhqg","pricing_plan_id":"cebpf4jnsgd1na2vs0mg"},{"bike_id":"b2dde6db-9cdf-4a47-8df4-a09a115dd967","system_id":"levelo_inurba_marseille","lat":43.23155,"lon":5.43716,"is_reserved":false,"is_disabled":false,"rental_uris":{"android":"levelo://app?vid=b2dde6db-9cdf-4a47-8df4-a09a115dd967","ios":"levelo://app?vid=b2dde6db-9cdf-4a47-8df4-a09a115dd967"},"vehicle_type_id":"4","last_reported":1742220607,"current_range_meters":6000,"station_id":"ce4bhmp2rcd13ifvqgog","pricing_plan_id":"cebpf4jnsgd1na2vs0mg"},{"bike_id":"fa6da42a-886b-4dd9-a800-5f6f6ccd91a6","system_id":"levelo_inurba_marseille","lat":43.28342,"lon":5.38098,"is_reserved":false,"is_disabled":false,"rental_uris":{"android":"levelo://app?vid=fa6da42a-886b-4dd9-a800-5f6f6ccd91a6","ios":"levelo://app?vid=fa6da42a-886b-4dd9-a800-5f6f6ccd91a6"},"vehicle_type_id":"4","last_reported":1742220607,"current_range_meters":6000,"station_id":"ce4bh412rcd13ifvqdr0","pricing_plan_id":"cebpf4jnsgd1na2vs0mg"},{"bike_id":"5d3dbd3a-1365-40c0-af69-8ba2c314a313","system_id":"levelo_inurba_marseille","lat":43.29903,"lon":5.43663,"is_reserved":false,"is_disabled":false,"rental_uris":{"android":"levelo://app?vid=5d3dbd3a-1365-40c0-af69-8ba2c314a313","ios":"levelo://app?vid=5d3dbd3a-1365-40c0-af69-8ba2c314a313"},"vehicle_type_id":"4","last_reported":1742220607,"current_range_meters":6000,"station_id":"ce4bhpp2rcd13ifvqhfg","pricing_plan_id":"cebpf4jnsgd1na2vs0mg"},{"bike_id":"3f44aaf3-c3c5-4262-be70-b6d2d34dc61b","system_id":"levelo_inurba_marseille","lat":43.29579,"lon":5.37494,"is_reserved":false,"is_disabled":false,"rental_uris":{"android":"levelo://app?vid=3f44aaf3-c3c5-4262-be70-b6d2d34dc61b","ios":"levelo://app?vid=3f44aaf3-c3c5-4262-be70-b6d2d34dc61b"},"vehicle_type_id":"4","last_reported":1742220607,"current_range_meters":6000,"station_id":"ce4bgh92rcd13ifvqb50","pricing_plan_id":"cebpf4jnsgd1na2vs0mg"},{"bike_id":"6ae6f76c-6a01-4d75-9d3f-dfa610803a78","system_id":"levelo_inurba_marseille","lat":43.23065,"lon":5.35445,"is_reserved":false,"is_disabled":false,"rental_uris":{"android":"levelo://app?vid=6ae6f76c-6a01-4d75-9d3f-dfa610803a78","ios":"levelo://app?vid=6ae6f76c-6a01-4d75-9d3f-dfa610803a78"},"vehicle_type_id":"4","last_reported":1742220607,"current_range_meters":6000,"station_id":"cpo3342slgdg3j2ifvpg","pricing_plan_id":"cebpf4jnsgd1na2vs0mg"},{"bike_id":"7f072423-96a6-475b-9c39-40fa85ebf966","system_id":"levelo_inurba_marseille","lat":43.26197,"lon":5.37935,"is_reserved":false,"is_disabled":false,"rental_uris":{"android":"levelo://app?vid=7f072423-96a6-475b-9c39-40fa85ebf966","ios":"levelo://app?vid=7f072423-96a6-475b-9c39-40fa85ebf966"},"vehicle_type_id":"4","last_reported":1742220607,"current_range_meters":6000,"station_id":"ce4bhjp2rcd13ifvqg90","pricing_plan_id":"cebpf4jnsgd1na2vs0mg"},{"bike_id":"436163ae-329e-4516-a54b-ab951f1eae33","system_id":"levelo_inurba_marseille","lat":43.25586,"lon":5.38243,"is_reserved":false,"is_disabled":false,"rental_uris":{"android":"levelo://app?vid=436163ae-329e-4516-a54b-ab951f1eae33","ios":"levelo://app?vid=436163ae-329e-4516-a54b-ab951f1eae33"},"vehicle_type_id":"4","last_reported":1742220607,"current_range_meters":6000,"station_id":"ce4bhih2rcd13ifvqfs0","pricing_plan_id":"cebpf4jnsgd1na2vs0mg"},{"bike_id":"5f0680d4-d6b6-4b0b-9812-761486c229a7","system_id":"levelo_inurba_marseille","lat":43.22933,"lon":5.35377,"is_reserved":false,"is_disabled":false,"rental_uris":{"android":"levelo://app?vid=5f0680d4-d6b6-4b0b-9812-761486c229a7","ios":"levelo://app?vid=5f0680d4-d6b6-4b0b-9812-761486c229a7"},"vehicle_type_id":"4","last_reported":1742220607,"current_range_meters":6000,"station_id":"cpo3532slgdg3j2ikp40","pricing_plan_id":"cebpf4jnsgd1na2vs0mg"},{"bike_id":"d87d01b0-53bb-405d-a34e-24df13294a43","system_id":"levelo_inurba_marseille","lat":43.29197,"lon":5.39314,"is_reserved":false,"is_disabled":true,"rental_uris":{"android":"levelo://app?vid=d87d01b0-53bb-405d-a34e-24df13294a43","ios":"levelo://app?vid=d87d01b0-53bb-405d-a34e-24df13294a43"},"vehicle_type_id":"4","last_reported":1742220607,"current_range_meters":6000,"station_id":"ce4bh192rcd13ifvqdd0","pricing_plan_id":"cebpf4jnsgd1na2vs0mg"},{"bike_id":"ba7140f2-47ba-460f-a095-cbff5367f2ee","system_id":"levelo_inurba_marseille","lat":43.29199,"lon":5.35808,"is_reserved":false,"is_disabled":false,"rental_uris":{"android":"levelo://app?vid=ba7140f2-47ba-460f-a095-cbff5367f2ee","ios":"levelo://app?vid=ba7140f2-47ba-460f-a095-cbff5367f2ee"},"vehicle_type_id":"4","last_reported":1742220607,"current_range_meters":6000,"station_id":"ce4bhb12rcd13ifvqel0","pricing_plan_id":"cebpf4jnsgd1na2vs0mg"},{"bike_id":"8052a8af-2aec-476a-b95b-82fa8d29251f","system_id":"levelo_inurba_marseille","lat":43.29842,"lon":5.36269,"is_reserved":false,"is_disabled":false,"rental_uris":{"android":"levelo://app?vid=8052a8af-2aec-476a-b95b-82fa8d29251f","ios":"levelo://app?vid=8052a8af-2aec-476a-b95b-82fa8d29251f"},"vehicle_type_id":"4","last_reported":1742220607,"current_range_meters":6400,"station_id":"ce4bgpp2rcd13ifvqc3g","pricing_plan_id":"cebpf4jnsgd1na2vs0mg"},{"bike_id":"ad611920-9c6c-4343-811a-613204b58de8","system_id":"levelo_inurba_marseille","lat":43.26495,"lon":5.39561,"is_reserved":false,"is_disabled":false,"rental_uris":{"android":"levelo://app?vid=ad611920-9c6c-4343-811a-613204b58de8","ios":"levelo://app?vid=ad611920-9c6c-4343-811a-613204b58de8"},"vehicle_type_id":"4","last_reported":1742220607,"current_range_meters":6000,"station_id":"ce4bhi12rcd13ifvqfq0","pricing_plan_id":"cebpf4jnsgd1na2vs0mg"},{"bike_id":"c6417bd9-8de2-420a-b779-adb6c99e948c","system_id":"levelo_inurba_marseille","lat":43.28628,"lon":5.35097,"is_reserved":false,"is_disabled":false,"rental_uris":{"android":"levelo://app?vid=c6417bd9-8de2-420a-b779-adb6c99e948c","ios":"levelo://app?vid=c6417bd9-8de2-420a-b779-adb6c99e948c"},"vehicle_type_id":"4","last_reported":1742220607,"current_range_meters":6000,"station_id":"ce4bhch2rcd13ifvqeug","pricing_plan_id":"cebpf4jnsgd1na2vs0mg"},{"bike_id":"f762fd6f-ca69-45f6-995f-65c0e25825a3","system_id":"levelo_inurba_marseille","lat":43.32538,"lon":5.41459,"is_reserved":false,"is_disabled":true,"rental_uris":{"android":"levelo://app?vid=f762fd6f-ca69-45f6-995f-65c0e25825a3","ios":"levelo://app?vid=f762fd6f-ca69-45f6-995f-65c0e25825a3"},"vehicle_type_id":"4","last_reported":1742220607,"current_range_meters":6400,"station_id":"ce4bhq12rcd13ifvqhhg","pricing_plan_id":"cebpf4jnsgd1na2vs0mg"},{"bike_id":"b854be7c-07ba-4a26-be57-c817230fecfa","system_id":"levelo_inurba_marseille","lat":43.26059,"lon":5.39398,"is_reserved":false,"is_disabled":false,"rental_uris":{"android":"levelo://app?vid=b854be7c-07ba-4a26-be57-c817230fecfa","ios":"levelo://app?vid=b854be7c-07ba-4a26-be57-c817230fecfa"},"vehicle_type_id":"4","last_reported":1742220607,"current_range_meters":6400,"station_id":"ce4bhh92rcd13ifvqfj0","pricing_plan_id":"cebpf4jnsgd1na2vs0mg"},{"bike_id":"2e0249ac-9c10-4b51-92cf-1732e023fddf","system_id":"levelo_inurba_marseille","lat":43.321,"lon":5.36789,"is_reserved":false,"is_disabled":false,"rental_uris":{"android":"levelo://app?vid=2e0249ac-9c10-4b51-92cf-1732e023fddf","ios":"levelo://app?vid=2e0249ac-9c10-4b51-92cf-1732e023fddf"},"vehicle_type_id":"4","last_reported":1742220607,"current_range_meters":6400,"station_id":"ce4bhrh2rcd13ifvqhug","pricing_plan_id":"cebpf4jnsgd1na2vs0mg"},{"bike_id":"5d33ee2e-ab8c-4d48-b2e3-8df7c0b816e1","system_id":"levelo_inurba_marseille","lat":43.23062,"lon":5.35493,"is_reserved":false,"is_disabled":false,"rental_uris":{"android":"levelo://app?vid=5d33ee2e-ab8c-4d48-b2e3-8df7c0b816e1","ios":"levelo://app?vid=5d33ee2e-ab8c-4d48-b2e3-8df7c0b816e1"},"vehicle_type_id":"4","last_reported":1742220607,"current_range_meters":6400,"station_id":"cpo3342slgdg3j2ifvpg","pricing_plan_id":"cebpf4jnsgd1na2vs0mg"},{"bike_id":"2c897759-a57a-4e44-ad77-2a9cda24660c","system_id":"levelo_inurba_marseille","lat":43.24064,"lon":5.37699,"is_reserved":false,"is_disabled":false,"rental_uris":{"android":"levelo://app?vid=2c897759-a57a-4e44-ad77-2a9cda24660c","ios":"levelo://app?vid=2c897759-a57a-4e44-ad77-2a9cda24660c"},"vehicle_type_id":"4","last_reported":1742220607,"current_range_meters":6400,"station_id":"","pricing_plan_id":"cebpf4jnsgd1na2vs0mg"},{"bike_id":"04e5e5b7-50fc-4eb1-90d6-364e3b03b2d6","system_id":"levelo_inurba_marseille","lat":43.2408,"lon":5.37748,"is_reserved":false,"is_disabled":true,"rental_uris":{"android":"levelo://app?vid=04e5e5b7-50fc-4eb1-90d6-364e3b03b2d6","ios":"levelo://app?vid=04e5e5b7-50fc-4eb1-90d6-364e3b03b2d6"},"vehicle_type_id":"4","last_reported":1742220607,"current_range_meters":6400,"station_id":"ce4bhnp2rcd13ifvqgvg","pricing_plan_id":"cebpf4jnsgd1na2vs0mg"},{"bike_id":"debd594f-77c2-45ff-a153-66e2ab4b7910","system_id":"levelo_inurba_marseille","lat":43.30135,"lon":5.39863,"is_reserved":false,"is_disabled":false,"rental_uris":{"android":"levelo://app?vid=debd594f-77c2-45ff-a153-66e2ab4b7910","ios":"levelo://app?vid=debd594f-77c2-45ff-a153-66e2ab4b7910"},"vehicle_type_id":"4","last_reported":1742220607,"current_range_meters":6400,"station_id":"ce4bh0h2rcd13ifvqd40","pricing_plan_id":"cebpf4jnsgd1na2vs0mg"},{"bike_id":"c4ec09b2-6d7f-446a-8363-18b996e380b7","system_id":"levelo_inurba_marseille","lat":43.23155,"lon":5.43704,"is_reserved":false,"is_disabled":false,"rental_uris":{"android":"levelo://app?vid=c4ec09b2-6d7f-446a-8363-18b996e380b7","ios":"levelo://app?vid=c4ec09b2-6d7f-446a-8363-18b996e380b7"},"vehicle_type_id":"4","last_reported":1742220607,"current_range_meters":6400,"station_id":"ce4bhmp2rcd13ifvqgog","pricing_plan_id":"cebpf4jnsgd1na2vs0mg"},{"bike_id":"f3eb6a65-a610-4e3f-9466-127bf5275334","system_id":"levelo_inurba_marseille","lat":43.23147,"lon":5.43718,"is_reserved":false,"is_disabled":false,"rental_uris":{"android":"levelo://app?vid=f3eb6a65-a610-4e3f-9466-127bf5275334","ios":"levelo://app?vid=f3eb6a65-a610-4e3f-9466-127bf5275334"},"vehicle_type_id":"4","last_reported":1742220607,"current_range_meters":6800,"station_id":"ce4bhmp2rcd13ifvqgog","pricing_plan_id":"cebpf4jnsgd1na2vs0mg"},{"bike_id":"5a14338c-3bd8-41df-b649-06e806759699","system_id":"levelo_inurba_marseille","lat":43.23964,"lon":5.3663,"is_reserved":false,"is_disabled":false,"rental_uris":{"android":"levelo://app?vid=5a14338c-3bd8-41df-b649-06e806759699","ios":"levelo://app?vid=5a14338c-3bd8-41df-b649-06e806759699"},"vehicle_type_id":"4","last_reported":1742220607,"current_range_meters":6800,"station_id":"ce4bhi12rcd13ifvqfp0","pricing_plan_id":"cebpf4jnsgd1na2vs0mg"},{"bike_id":"99eccf4b-670d-459c-ad4c-4f18d8b78088","system_id":"levelo_inurba_marseille","lat":43.28277,"lon":5.35053,"is_reserved":false,"is_disabled":false,"rental_uris":{"android":"levelo://app?vid=99eccf4b-670d-459c-ad4c-4f18d8b78088","ios":"levelo://app?vid=99eccf4b-670d-459c-ad4c-4f18d8b78088"},"vehicle_type_id":"4","last_reported":1742220607,"current_range_meters":6800,"station_id":"ce4bhbp2rcd13ifvqerg","pricing_plan_id":"cebpf4jnsgd1na2vs0mg"},{"bike_id":"bee057f3-5200-405c-8f52-2291db9970c2","system_id":"levelo_inurba_marseille","lat":43.257207,"lon":5.411237,"is_reserved":false,"is_disabled":false,"rental_uris":{"android":"levelo://app?vid=bee057f3-5200-405c-8f52-2291db9970c2","ios":"levelo://app?vid=bee057f3-5200-405c-8f52-2291db9970c2"},"vehicle_type_id":"4","last_reported":1742220607,"current_range_meters":6800,"station_id":"ce4bhkp2rcd13ifvqgd0","pricing_plan_id":"cebpf4jnsgd1na2vs0mg"},{"bike_id":"b6d520f3-d2b4-4ce1-9377-d372a1b38591","system_id":"levelo_inurba_marseille","lat":43.27217,"lon":5.39195,"is_reserved":false,"is_disabled":false,"rental_uris":{"android":"levelo://app?vid=b6d520f3-d2b4-4ce1-9377-d372a1b38591","ios":"levelo://app?vid=b6d520f3-d2b4-4ce1-9377-d372a1b38591"},"vehicle_type_id":"4","last_reported":1742220607,"current_range_meters":6800,"station_id":"ce4bhhp2rcd13ifvqfm0","pricing_plan_id":"cebpf4jnsgd1na2vs0mg"},{"bike_id":"9ac31914-6ff5-4c95-9268-e8040c244383","system_id":"levelo_inurba_marseille","lat":43.33599,"lon":5.40993,"is_reserved":false,"is_disabled":false,"rental_uris":{"android":"levelo://app?vid=9ac31914-6ff5-4c95-9268-e8040c244383","ios":"levelo://app?vid=9ac31914-6ff5-4c95-9268-e8040c244383"},"vehicle_type_id":"4","last_reported":1742220607,"current_range_meters":6800,"station_id":"ce4bhqh2rcd13ifvqhmg","pricing_plan_id":"cebpf4jnsgd1na2vs0mg"},{"bike_id":"e8abda8e-f91d-4997-a00a-19030cb9f77f","system_id":"levelo_inurba_marseille","lat":43.2419,"lon":5.39737,"is_reserved":false,"is_disabled":false,"rental_uris":{"android":"levelo://app?vid=e8abda8e-f91d-4997-a00a-19030cb9f77f","ios":"levelo://app?vid=e8abda8e-f91d-4997-a00a-19030cb9f77f"},"vehicle_type_id":"4","last_reported":1742220607,"current_range_meters":6800,"station_id":"ce4bhn12rcd13ifvqgpg","pricing_plan_id":"cebpf4jnsgd1na2vs0mg"},{"bike_id":"c6676698-7026-410e-8100-88640ee593b2","system_id":"levelo_inurba_marseille","lat":43.27197,"lon":5.41003,"is_reserved":false,"is_disabled":true,"rental_uris":{"android":"levelo://app?vid=c6676698-7026-410e-8100-88640ee593b2","ios":"levelo://app?vid=c6676698-7026-410e-8100-88640ee593b2"},"vehicle_type_id":"4","last_reported":1742220607,"current_range_meters":6800,"station_id":"ce4bhl12rcd13ifvqgf0","pricing_plan_id":"cebpf4jnsgd1na2vs0mg"},{"bike_id":"1e30ec68-8074-40f6-8949-74f66bcbb666","system_id":"levelo_inurba_marseille","lat":43.31233,"lon":5.36846,"is_reserved":false,"is_disabled":false,"rental_uris":{"android":"levelo://app?vid=1e30ec68-8074-40f6-8949-74f66bcbb666","ios":"levelo://app?vid=1e30ec68-8074-40f6-8949-74f66bcbb666"},"vehicle_type_id":"4","last_reported":1742220607,"current_range_meters":6800,"station_id":"ce4bgl92rcd13ifvqbq0","pricing_plan_id":"cebpf4jnsgd1na2vs0mg"},{"bike_id":"574c6264-9ead-4067-9d53-ef9ca0765d8a","system_id":"levelo_inurba_marseille","lat":43.2594,"lon":5.40888,"is_reserved":false,"is_disabled":false,"rental_uris":{"android":"levelo://app?vid=574c6264-9ead-4067-9d53-ef9ca0765d8a","ios":"levelo://app?vid=574c6264-9ead-4067-9d53-ef9ca0765d8a"},"vehicle_type_id":"4","last_reported":1742220607,"current_range_meters":6800,"station_id":"ce4bhm92rcd13ifvqglg","pricing_plan_id":"cebpf4jnsgd1na2vs0mg"},{"bike_id":"f31da457-6e9b-4ad6-be1d-5ffba7cbc733","system_id":"levelo_inurba_marseille","lat":43.25003,"lon":5.38906,"is_reserved":false,"is_disabled":false,"rental_uris":{"android":"levelo://app?vid=f31da457-6e9b-4ad6-be1d-5ffba7cbc733","ios":"levelo://app?vid=f31da457-6e9b-4ad6-be1d-5ffba7cbc733"},"vehicle_type_id":"4","last_reported":1742220607,"current_range_meters":6800,"station_id":"ce4bhgp2rcd13ifvqfd0","pricing_plan_id":"cebpf4jnsgd1na2vs0mg"},{"bike_id":"a9056739-2708-4842-a118-d8149d860ee6","system_id":"levelo_inurba_marseille","lat":43.27927,"lon":5.39583,"is_reserved":false,"is_disabled":false,"rental_uris":{"android":"levelo://app?vid=a9056739-2708-4842-a118-d8149d860ee6","ios":"levelo://app?vid=a9056739-2708-4842-a118-d8149d860ee6"},"vehicle_type_id":"4","last_reported":1742220607,"current_range_meters":6800,"station_id":"ce4bhf92rcd13ifvqf40","pricing_plan_id":"cebpf4jnsgd1na2vs0mg"},{"bike_id":"69c3c7b6-a901-4a3e-8604-5afb1583db45","system_id":"levelo_inurba_marseille","lat":43.27839,"lon":5.39215,"is_reserved":false,"is_disabled":false,"rental_uris":{"android":"levelo://app?vid=69c3c7b6-a901-4a3e-8604-5afb1583db45","ios":"levelo://app?vid=69c3c7b6-a901-4a3e-8604-5afb1583db45"},"vehicle_type_id":"4","last_reported":1742220607,"current_range_meters":6800,"station_id":"ce4bhjp2rcd13ifvqga0","pricing_plan_id":"cebpf4jnsgd1na2vs0mg"},{"bike_id":"1f2ca29d-df46-4c07-80be-ce982efa349b","system_id":"levelo_inurba_marseille","lat":43.23086,"lon":5.35478,"is_reserved":false,"is_disabled":false,"rental_uris":{"android":"levelo://app?vid=1f2ca29d-df46-4c07-80be-ce982efa349b","ios":"levelo://app?vid=1f2ca29d-df46-4c07-80be-ce982efa349b"},"vehicle_type_id":"4","last_reported":1742220607,"current_range_meters":6800,"station_id":"cpo3342slgdg3j2ifvpg","pricing_plan_id":"cebpf4jnsgd1na2vs0mg"},{"bike_id":"cc15e210-f7bf-4599-93be-6ee01d8146d0","system_id":"levelo_inurba_marseille","lat":43.23149,"lon":5.43713,"is_reserved":false,"is_disabled":false,"rental_uris":{"android":"levelo://app?vid=cc15e210-f7bf-4599-93be-6ee01d8146d0","ios":"levelo://app?vid=cc15e210-f7bf-4599-93be-6ee01d8146d0"},"vehicle_type_id":"4","last_reported":1742220607,"current_range_meters":7200,"station_id":"ce4bhmp2rcd13ifvqgog","pricing_plan_id":"cebpf4jnsgd1na2vs0mg"},{"bike_id":"d62841a2-6dc2-4a3c-a2b1-52e5b3d95014","system_id":"levelo_inurba_marseille","lat":43.26572,"lon":5.38997,"is_reserved":false,"is_disabled":false,"rental_uris":{"android":"levelo://app?vid=d62841a2-6dc2-4a3c-a2b1-52e5b3d95014","ios":"levelo://app?vid=d62841a2-6dc2-4a3c-a2b1-52e5b3d95014"},"vehicle_type_id":"4","last_reported":1742220607,"current_range_meters":7200,"station_id":"ce4bhe12rcd13ifvqf30","pricing_plan_id":"cebpf4jnsgd1na2vs0mg"},{"bike_id":"14cd229a-e82f-4d5d-bc54-5bd7b491925a","system_id":"levelo_inurba_marseille","lat":43.2319,"lon":5.39977,"is_reserved":false,"is_disabled":false,"rental_uris":{"android":"levelo://app?vid=14cd229a-e82f-4d5d-bc54-5bd7b491925a","ios":"levelo://app?vid=14cd229a-e82f-4d5d-bc54-5bd7b491925a"},"vehicle_type_id":"4","last_reported":1742220607,"current_range_meters":7200,"station_id":"ce4bhn12rcd13ifvqgqg","pricing_plan_id":"cebpf4jnsgd1na2vs0mg"},{"bike_id":"980eca13-a1a5-44ae-a286-83869918f5a6","system_id":"levelo_inurba_marseille","lat":43.27327,"lon":5.3908,"is_reserved":false,"is_disabled":false,"rental_uris":{"android":"levelo://app?vid=980eca13-a1a5-44ae-a286-83869918f5a6","ios":"levelo://app?vid=980eca13-a1a5-44ae-a286-83869918f5a6"},"vehicle_type_id":"4","last_reported":1742220607,"current_range_meters":7200,"station_id":"ce4bhgp2rcd13ifvqfe0","pricing_plan_id":"cebpf4jnsgd1na2vs0mg"},{"bike_id":"b216cadd-985e-4afe-9079-e59b8876573e","system_id":"levelo_inurba_marseille","lat":43.290916,"lon":5.381223,"is_reserved":false,"is_disabled":false,"rental_uris":{"android":"levelo://app?vid=b216cadd-985e-4afe-9079-e59b8876573e","ios":"levelo://app?vid=b216cadd-985e-4afe-9079-e59b8876573e"},"vehicle_type_id":"4","last_reported":1742220607,"current_range_meters":7200,"station_id":"ce4bh512rcd13ifvqe2g","pricing_plan_id":"cebpf4jnsgd1na2vs0mg"},{"bike_id":"f5a6fc1f-e900-4ff9-b709-8340148b8a82","system_id":"levelo_inurba_marseille","lat":43.25503,"lon":5.37652,"is_reserved":false,"is_disabled":false,"rental_uris":{"android":"levelo://app?vid=f5a6fc1f-e900-4ff9-b709-8340148b8a82","ios":"levelo://app?vid=f5a6fc1f-e900-4ff9-b709-8340148b8a82"},"vehicle_type_id":"4","last_reported":1742220607,"current_range_meters":7200,"station_id":"ce4bhh12rcd13ifvqff0","pricing_plan_id":"cebpf4jnsgd1na2vs0mg"},{"bike_id":"7278c745-6f38-4cf1-9fe5-22bfd473bc2d","system_id":"levelo_inurba_marseille","lat":43.31348,"lon":5.36727,"is_reserved":false,"is_disabled":false,"rental_uris":{"android":"levelo://app?vid=7278c745-6f38-4cf1-9fe5-22bfd473bc2d","ios":"levelo://app?vid=7278c745-6f38-4cf1-9fe5-22bfd473bc2d"},"vehicle_type_id":"4","last_reported":1742220607,"current_range_meters":7200,"station_id":"ce4bgr92rcd13ifvqc6g","pricing_plan_id":"cebpf4jnsgd1na2vs0mg"},{"bike_id":"7a2a856a-591c-425f-b3d4-2f090643ef3e","system_id":"levelo_inurba_marseille","lat":43.31275,"lon":5.40167,"is_reserved":false,"is_disabled":true,"rental_uris":{"android":"levelo://app?vid=7a2a856a-591c-425f-b3d4-2f090643ef3e","ios":"levelo://app?vid=7a2a856a-591c-425f-b3d4-2f090643ef3e"},"vehicle_type_id":"4","last_reported":1742220607,"current_range_meters":7200,"station_id":"ce4bh092rcd13ifvqd30","pricing_plan_id":"cebpf4jnsgd1na2vs0mg"},{"bike_id":"b29a0463-5e75-49d5-8955-7693d791a747","system_id":"levelo_inurba_marseille","lat":43.27621,"lon":5.36102,"is_reserved":false,"is_disabled":false,"rental_uris":{"android":"levelo://app?vid=b29a0463-5e75-49d5-8955-7693d791a747","ios":"levelo://app?vid=b29a0463-5e75-49d5-8955-7693d791a747"},"vehicle_type_id":"4","last_reported":1742220607,"current_range_meters":7200,"station_id":"ce4bgj92rcd13ifvqbe0","pricing_plan_id":"cebpf4jnsgd1na2vs0mg"},{"bike_id":"87c4d448-8318-462e-8d87-c74ebaf1ec9c","system_id":"levelo_inurba_marseille","lat":43.28486,"lon":5.38427,"is_reserved":false,"is_disabled":false,"rental_uris":{"android":"levelo://app?vid=87c4d448-8318-462e-8d87-c74ebaf1ec9c","ios":"levelo://app?vid=87c4d448-8318-462e-8d87-c74ebaf1ec9c"},"vehicle_type_id":"4","last_reported":1742220607,"current_range_meters":8000,"station_id":"ce4bh512rcd13ifvqe3g","pricing_plan_id":"cebpf4jnsgd1na2vs0mg"},{"bike_id":"abd48a52-c8cc-4abb-a801-8dce64155a4a","system_id":"levelo_inurba_marseille","lat":43.24994,"lon":5.38937,"is_reserved":false,"is_disabled":false,"rental_uris":{"android":"levelo://app?vid=abd48a52-c8cc-4abb-a801-8dce64155a4a","ios":"levelo://app?vid=abd48a52-c8cc-4abb-a801-8dce64155a4a"},"vehicle_type_id":"4","last_reported":1742220607,"current_range_meters":8000,"station_id":"ce4bhgp2rcd13ifvqfd0","pricing_plan_id":"cebpf4jnsgd1na2vs0mg"},{"bike_id":"e39f083d-4542-4f7b-9173-1e8fe9e09597","system_id":"levelo_inurba_marseille","lat":43.27512,"lon":5.42469,"is_reserved":false,"is_disabled":true,"rental_uris":{"android":"levelo://app?vid=e39f083d-4542-4f7b-9173-1e8fe9e09597","ios":"levelo://app?vid=e39f083d-4542-4f7b-9173-1e8fe9e09597"},"vehicle_type_id":"4","last_reported":1742220607,"current_range_meters":8000,"station_id":"ce4bhn92rcd13ifvqgrg","pricing_plan_id":"cebpf4jnsgd1na2vs0mg"},{"bike_id":"8328075f-d508-4d51-8cda-eb51cdd3db9d","system_id":"levelo_inurba_marseille","lat":43.32131,"lon":5.36776,"is_reserved":false,"is_disabled":false,"rental_uris":{"android":"levelo://app?vid=8328075f-d508-4d51-8cda-eb51cdd3db9d","ios":"levelo://app?vid=8328075f-d508-4d51-8cda-eb51cdd3db9d"},"vehicle_type_id":"4","last_reported":1742220607,"current_range_meters":8000,"station_id":"ce4bhrh2rcd13ifvqhug","pricing_plan_id":"cebpf4jnsgd1na2vs0mg"},{"bike_id":"75cfe02c-1975-4f9d-9c31-1cd3c679e856","system_id":"levelo_inurba_marseille","lat":43.29375,"lon":5.37851,"is_reserved":false,"is_disabled":false,"rental_uris":{"android":"levelo://app?vid=75cfe02c-1975-4f9d-9c31-1cd3c679e856","ios":"levelo://app?vid=75cfe02c-1975-4f9d-9c31-1cd3c679e856"},"vehicle_type_id":"4","last_reported":1742220607,"current_range_meters":8000,"station_id":"ce4bgjh2rcd13ifvqbf0","pricing_plan_id":"cebpf4jnsgd1na2vs0mg"},{"bike_id":"8abf5c72-692f-4fd9-8537-22fe861d9366","system_id":"levelo_inurba_marseille","lat":43.32301,"lon":5.36655,"is_reserved":false,"is_disabled":false,"rental_uris":{"android":"levelo://app?vid=8abf5c72-692f-4fd9-8537-22fe861d9366","ios":"levelo://app?vid=8abf5c72-692f-4fd9-8537-22fe861d9366"},"vehicle_type_id":"4","last_reported":1742220607,"current_range_meters":8000,"station_id":"","pricing_plan_id":"cebpf4jnsgd1na2vs0mg"},{"bike_id":"28cd485d-7b67-4a3d-b0db-5885c982a401","system_id":"levelo_inurba_marseille","lat":43.27211,"lon":5.39195,"is_reserved":false,"is_disabled":false,"rental_uris":{"android":"levelo://app?vid=28cd485d-7b67-4a3d-b0db-5885c982a401","ios":"levelo://app?vid=28cd485d-7b67-4a3d-b0db-5885c982a401"},"vehicle_type_id":"4","last_reported":1742220607,"current_range_meters":8000,"station_id":"ce4bhhp2rcd13ifvqfm0","pricing_plan_id":"cebpf4jnsgd1na2vs0mg"},{"bike_id":"9b352348-78d1-4c6b-932c-07a80ca503ca","system_id":"levelo_inurba_marseille","lat":43.246562,"lon":5.381719,"is_reserved":false,"is_disabled":false,"rental_uris":{"android":"levelo://app?vid=9b352348-78d1-4c6b-932c-07a80ca503ca","ios":"levelo://app?vid=9b352348-78d1-4c6b-932c-07a80ca503ca"},"vehicle_type_id":"4","last_reported":1742220607,"current_range_meters":8000,"station_id":"ce4bhnp2rcd13ifvqgvg","pricing_plan_id":"cebpf4jnsgd1na2vs0mg"},{"bike_id":"854983dd-4940-4021-9fc0-ad53ee25a135","system_id":"levelo_inurba_marseille","lat":43.29197,"lon":5.35806,"is_reserved":false,"is_disabled":false,"rental_uris":{"android":"levelo://app?vid=854983dd-4940-4021-9fc0-ad53ee25a135","ios":"levelo://app?vid=854983dd-4940-4021-9fc0-ad53ee25a135"},"vehicle_type_id":"4","last_reported":1742220607,"current_range_meters":8000,"station_id":"ce4bhb12rcd13ifvqel0","pricing_plan_id":"cebpf4jnsgd1na2vs0mg"},{"bike_id":"74620aff-b1f0-4b60-8841-bc8a0a2edc3e","system_id":"levelo_inurba_marseille","lat":43.23199,"lon":5.35551,"is_reserved":false,"is_disabled":false,"rental_uris":{"android":"levelo://app?vid=74620aff-b1f0-4b60-8841-bc8a0a2edc3e","ios":"levelo://app?vid=74620aff-b1f0-4b60-8841-bc8a0a2edc3e"},"vehicle_type_id":"4","last_reported":1742220607,"current_range_meters":8400,"station_id":"ce4bhu92rcd13ifvqi70","pricing_plan_id":"cebpf4jnsgd1na2vs0mg"},{"bike_id":"21794262-8da4-490a-953b-4fa755e02469","system_id":"levelo_inurba_marseille","lat":43.29027,"lon":5.39971,"is_reserved":false,"is_disabled":true,"rental_uris":{"android":"levelo://app?vid=21794262-8da4-490a-953b-4fa755e02469","ios":"levelo://app?vid=21794262-8da4-490a-953b-4fa755e02469"},"vehicle_type_id":"4","last_reported":1742220607,"current_range_meters":8400,"station_id":"ce4bh392rcd13ifvqdm0","pricing_plan_id":"cebpf4jnsgd1na2vs0mg"},{"bike_id":"b06b1727-338c-453c-98e4-9eaeb6bb495e","system_id":"levelo_inurba_marseille","lat":43.27912,"lon":5.37997,"is_reserved":false,"is_disabled":false,"rental_uris":{"android":"levelo://app?vid=b06b1727-338c-453c-98e4-9eaeb6bb495e","ios":"levelo://app?vid=b06b1727-338c-453c-98e4-9eaeb6bb495e"},"vehicle_type_id":"4","last_reported":1742220607,"current_range_meters":8400,"station_id":"ce4bhf92rcd13ifvqf50","pricing_plan_id":"cebpf4jnsgd1na2vs0mg"},{"bike_id":"8d542ee4-838b-4699-8232-94c9bd1cf6b1","system_id":"levelo_inurba_marseille","lat":43.23158,"lon":5.43705,"is_reserved":false,"is_disabled":false,"rental_uris":{"android":"levelo://app?vid=8d542ee4-838b-4699-8232-94c9bd1cf6b1","ios":"levelo://app?vid=8d542ee4-838b-4699-8232-94c9bd1cf6b1"},"vehicle_type_id":"4","last_reported":1742220607,"current_range_meters":8400,"station_id":"ce4bhmp2rcd13ifvqgog","pricing_plan_id":"cebpf4jnsgd1na2vs0mg"},{"bike_id":"ef9b20c2-24a5-462d-8f71-a0b89cbc915f","system_id":"levelo_inurba_marseille","lat":43.26023,"lon":5.41748,"is_reserved":false,"is_disabled":false,"rental_uris":{"android":"levelo://app?vid=ef9b20c2-24a5-462d-8f71-a0b89cbc915f","ios":"levelo://app?vid=ef9b20c2-24a5-462d-8f71-a0b89cbc915f"},"vehicle_type_id":"4","last_reported":1742220607,"current_range_meters":8400,"station_id":"","pricing_plan_id":"cebpf4jnsgd1na2vs0mg"},{"bike_id":"ddb3fece-6176-4ea5-bd33-ae2e1d3a7073","system_id":"levelo_inurba_marseille","lat":43.28268,"lon":5.35074,"is_reserved":false,"is_disabled":false,"rental_uris":{"android":"levelo://app?vid=ddb3fece-6176-4ea5-bd33-ae2e1d3a7073","ios":"levelo://app?vid=ddb3fece-6176-4ea5-bd33-ae2e1d3a7073"},"vehicle_type_id":"4","last_reported":1742220607,"current_range_meters":8400,"station_id":"ce4bhbp2rcd13ifvqerg","pricing_plan_id":"cebpf4jnsgd1na2vs0mg"},{"bike_id":"2fe6b5d4-c6f7-40d2-9a0b-4798d57f392b","system_id":"levelo_inurba_marseille","lat":43.23064,"lon":5.35495,"is_reserved":false,"is_disabled":false,"rental_uris":{"android":"levelo://app?vid=2fe6b5d4-c6f7-40d2-9a0b-4798d57f392b","ios":"levelo://app?vid=2fe6b5d4-c6f7-40d2-9a0b-4798d57f392b"},"vehicle_type_id":"4","last_reported":1742220607,"current_range_meters":8400,"station_id":"cpo3342slgdg3j2ifvpg","pricing_plan_id":"cebpf4jnsgd1na2vs0mg"},{"bike_id":"510bdaa7-edb7-4be0-ae3c-c55ef6ac4762","system_id":"levelo_inurba_marseille","lat":43.22961,"lon":5.35406,"is_reserved":false,"is_disabled":false,"rental_uris":{"android":"levelo://app?vid=510bdaa7-edb7-4be0-ae3c-c55ef6ac4762","ios":"levelo://app?vid=510bdaa7-edb7-4be0-ae3c-c55ef6ac4762"},"vehicle_type_id":"4","last_reported":1742220607,"current_range_meters":8400,"station_id":"cpo3532slgdg3j2ikp40","pricing_plan_id":"cebpf4jnsgd1na2vs0mg"},{"bike_id":"021238b5-2b9d-46d2-b80c-a5e816fdc135","system_id":"levelo_inurba_marseille","lat":43.29527,"lon":5.42485,"is_reserved":false,"is_disabled":false,"rental_uris":{"android":"levelo://app?vid=021238b5-2b9d-46d2-b80c-a5e816fdc135","ios":"levelo://app?vid=021238b5-2b9d-46d2-b80c-a5e816fdc135"},"vehicle_type_id":"4","last_reported":1742220607,"current_range_meters":8400,"station_id":"","pricing_plan_id":"cebpf4jnsgd1na2vs0mg"},{"bike_id":"a561f3af-dc1c-4af4-b9a4-ead55b35e495","system_id":"levelo_inurba_marseille","lat":43.23196,"lon":5.35558,"is_reserved":false,"is_disabled":false,"rental_uris":{"android":"levelo://app?vid=a561f3af-dc1c-4af4-b9a4-ead55b35e495","ios":"levelo://app?vid=a561f3af-dc1c-4af4-b9a4-ead55b35e495"},"vehicle_type_id":"4","last_reported":1742220607,"current_range_meters":8400,"station_id":"ce4bhu92rcd13ifvqi70","pricing_plan_id":"cebpf4jnsgd1na2vs0mg"},{"bike_id":"2b2762ee-24f9-4f7c-968a-b8bd48fa65f1","system_id":"levelo_inurba_marseille","lat":43.29046,"lon":5.35905,"is_reserved":false,"is_disabled":false,"rental_uris":{"android":"levelo://app?vid=2b2762ee-24f9-4f7c-968a-b8bd48fa65f1","ios":"levelo://app?vid=2b2762ee-24f9-4f7c-968a-b8bd48fa65f1"},"vehicle_type_id":"4","last_reported":1742220607,"current_range_meters":8400,"station_id":"ce4bha92rcd13ifvqeg0","pricing_plan_id":"cebpf4jnsgd1na2vs0mg"},{"bike_id":"5ae3389f-4861-401c-8ef6-b6dce59ed540","system_id":"levelo_inurba_marseille","lat":43.32106,"lon":5.36776,"is_reserved":false,"is_disabled":false,"rental_uris":{"android":"levelo://app?vid=5ae3389f-4861-401c-8ef6-b6dce59ed540","ios":"levelo://app?vid=5ae3389f-4861-401c-8ef6-b6dce59ed540"},"vehicle_type_id":"4","last_reported":1742220607,"current_range_meters":8400,"station_id":"ce4bhrh2rcd13ifvqhug","pricing_plan_id":"cebpf4jnsgd1na2vs0mg"},{"bike_id":"4a82e9fa-897e-4db9-9848-eca7bdecdfdc","system_id":"levelo_inurba_marseille","lat":43.27909,"lon":5.38212,"is_reserved":false,"is_disabled":false,"rental_uris":{"android":"levelo://app?vid=4a82e9fa-897e-4db9-9848-eca7bdecdfdc","ios":"levelo://app?vid=4a82e9fa-897e-4db9-9848-eca7bdecdfdc"},"vehicle_type_id":"4","last_reported":1742220607,"current_range_meters":8400,"station_id":"","pricing_plan_id":"cebpf4jnsgd1na2vs0mg"},{"bike_id":"b1caf000-cb2b-4aa7-9447-b41fe156b415","system_id":"levelo_inurba_marseille","lat":43.25942,"lon":5.40913,"is_reserved":false,"is_disabled":false,"rental_uris":{"android":"levelo://app?vid=b1caf000-cb2b-4aa7-9447-b41fe156b415","ios":"levelo://app?vid=b1caf000-cb2b-4aa7-9447-b41fe156b415"},"vehicle_type_id":"4","last_reported":1742220607,"current_range_meters":8400,"station_id":"ce4bhm92rcd13ifvqglg","pricing_plan_id":"cebpf4jnsgd1na2vs0mg"},{"bike_id":"1dff7612-342b-4529-a56d-87a5695c60ab","system_id":"levelo_inurba_marseille","lat":43.27051,"lon":5.40266,"is_reserved":false,"is_disabled":false,"rental_uris":{"android":"levelo://app?vid=1dff7612-342b-4529-a56d-87a5695c60ab","ios":"levelo://app?vid=1dff7612-342b-4529-a56d-87a5695c60ab"},"vehicle_type_id":"4","last_reported":1742220607,"current_range_meters":8400,"station_id":"ce4bhk92rcd13ifvqgc0","pricing_plan_id":"cebpf4jnsgd1na2vs0mg"},{"bike_id":"4ffdacba-034c-421f-8d42-ca57612cd8c0","system_id":"levelo_inurba_marseille","lat":43.32358,"lon":5.36745,"is_reserved":false,"is_disabled":false,"rental_uris":{"android":"levelo://app?vid=4ffdacba-034c-421f-8d42-ca57612cd8c0","ios":"levelo://app?vid=4ffdacba-034c-421f-8d42-ca57612cd8c0"},"vehicle_type_id":"4","last_reported":1742220607,"current_range_meters":8400,"station_id":"ce4bhsh2rcd13ifvqi2g","pricing_plan_id":"cebpf4jnsgd1na2vs0mg"},{"bike_id":"0a018086-283c-4259-a1ff-a9304b066761","system_id":"levelo_inurba_marseille","lat":43.25018,"lon":5.38914,"is_reserved":false,"is_disabled":false,"rental_uris":{"android":"levelo://app?vid=0a018086-283c-4259-a1ff-a9304b066761","ios":"levelo://app?vid=0a018086-283c-4259-a1ff-a9304b066761"},"vehicle_type_id":"4","last_reported":1742220607,"current_range_meters":8400,"station_id":"ce4bhgp2rcd13ifvqfd0","pricing_plan_id":"cebpf4jnsgd1na2vs0mg"},{"bike_id":"9dcb622a-e621-4cef-b659-02a845217b91","system_id":"levelo_inurba_marseille","lat":43.32368,"lon":5.3889,"is_reserved":false,"is_disabled":false,"rental_uris":{"android":"levelo://app?vid=9dcb622a-e621-4cef-b659-02a845217b91","ios":"levelo://app?vid=9dcb622a-e621-4cef-b659-02a845217b91"},"vehicle_type_id":"4","last_reported":1742220607,"current_range_meters":8800,"station_id":"ce4bhqp2rcd13ifvqhog","pricing_plan_id":"cebpf4jnsgd1na2vs0mg"},{"bike_id":"21ea14e4-e712-4c55-80e9-78ee64e17fba","system_id":"levelo_inurba_marseille","lat":43.23157,"lon":5.43717,"is_reserved":false,"is_disabled":false,"rental_uris":{"android":"levelo://app?vid=21ea14e4-e712-4c55-80e9-78ee64e17fba","ios":"levelo://app?vid=21ea14e4-e712-4c55-80e9-78ee64e17fba"},"vehicle_type_id":"4","last_reported":1742220607,"current_range_meters":8800,"station_id":"ce4bhmp2rcd13ifvqgog","pricing_plan_id":"cebpf4jnsgd1na2vs0mg"},{"bike_id":"706f1cef-8e9b-45d5-be65-fab94aa4791b","system_id":"levelo_inurba_marseille","lat":43.2293,"lon":5.35375,"is_reserved":false,"is_disabled":false,"rental_uris":{"android":"levelo://app?vid=706f1cef-8e9b-45d5-be65-fab94aa4791b","ios":"levelo://app?vid=706f1cef-8e9b-45d5-be65-fab94aa4791b"},"vehicle_type_id":"4","last_reported":1742220607,"current_range_meters":8800,"station_id":"cpo3532slgdg3j2ikp40","pricing_plan_id":"cebpf4jnsgd1na2vs0mg"},{"bike_id":"bbbdcaa6-b405-4405-8e78-41d074342c51","system_id":"levelo_inurba_marseille","lat":43.27073,"lon":5.42277,"is_reserved":false,"is_disabled":false,"rental_uris":{"android":"levelo://app?vid=bbbdcaa6-b405-4405-8e78-41d074342c51","ios":"levelo://app?vid=bbbdcaa6-b405-4405-8e78-41d074342c51"},"vehicle_type_id":"4","last_reported":1742220607,"current_range_meters":8800,"station_id":"ce4bhk92rcd13ifvqgb0","pricing_plan_id":"cebpf4jnsgd1na2vs0mg"},{"bike_id":"e6a3a5f9-3e59-4b02-80b2-e28b90fba89e","system_id":"levelo_inurba_marseille","lat":43.24174,"lon":5.36394,"is_reserved":false,"is_disabled":false,"rental_uris":{"android":"levelo://app?vid=e6a3a5f9-3e59-4b02-80b2-e28b90fba89e","ios":"levelo://app?vid=e6a3a5f9-3e59-4b02-80b2-e28b90fba89e"},"vehicle_type_id":"4","last_reported":1742220607,"current_range_meters":8800,"station_id":"cpo36qri1sfpv3e86is0","pricing_plan_id":"cebpf4jnsgd1na2vs0mg"},{"bike_id":"2b7011fc-7dee-42c2-86d6-7293fa23c29b","system_id":"levelo_inurba_marseille","lat":43.286136,"lon":5.35108,"is_reserved":false,"is_disabled":true,"rental_uris":{"android":"levelo://app?vid=2b7011fc-7dee-42c2-86d6-7293fa23c29b","ios":"levelo://app?vid=2b7011fc-7dee-42c2-86d6-7293fa23c29b"},"vehicle_type_id":"4","last_reported":1742220607,"current_range_meters":8800,"station_id":"","pricing_plan_id":"cebpf4jnsgd1na2vs0mg"},{"bike_id":"9ee8265a-0fdc-4849-933f-8351e6c3b1de","system_id":"levelo_inurba_marseille","lat":43.23187,"lon":5.39989,"is_reserved":false,"is_disabled":false,"rental_uris":{"android":"levelo://app?vid=9ee8265a-0fdc-4849-933f-8351e6c3b1de","ios":"levelo://app?vid=9ee8265a-0fdc-4849-933f-8351e6c3b1de"},"vehicle_type_id":"4","last_reported":1742220607,"current_range_meters":8800,"station_id":"ce4bhn12rcd13ifvqgqg","pricing_plan_id":"cebpf4jnsgd1na2vs0mg"},{"bike_id":"0e61515f-adf0-47af-875c-c2df33e52fae","system_id":"levelo_inurba_marseille","lat":43.24379,"lon":5.37029,"is_reserved":false,"is_disabled":false,"rental_uris":{"android":"levelo://app?vid=0e61515f-adf0-47af-875c-c2df33e52fae","ios":"levelo://app?vid=0e61515f-adf0-47af-875c-c2df33e52fae"},"vehicle_type_id":"4","last_reported":1742220607,"current_range_meters":8800,"station_id":"ce4bhhh2rcd13ifvqfk0","pricing_plan_id":"cebpf4jnsgd1na2vs0mg"},{"bike_id":"ce4e440a-8a7e-4873-978a-dab6e5f56641","system_id":"levelo_inurba_marseille","lat":43.28731,"lon":5.37952,"is_reserved":false,"is_disabled":false,"rental_uris":{"android":"levelo://app?vid=ce4e440a-8a7e-4873-978a-dab6e5f56641","ios":"levelo://app?vid=ce4e440a-8a7e-4873-978a-dab6e5f56641"},"vehicle_type_id":"4","last_reported":1742220607,"current_range_meters":8800,"station_id":"ce4bh9p2rcd13ifvqec0","pricing_plan_id":"cebpf4jnsgd1na2vs0mg"},{"bike_id":"aea1cf0e-9cc2-4a5a-87f9-a40fa19131b3","system_id":"levelo_inurba_marseille","lat":43.27902,"lon":5.37991,"is_reserved":false,"is_disabled":false,"rental_uris":{"android":"levelo://app?vid=aea1cf0e-9cc2-4a5a-87f9-a40fa19131b3","ios":"levelo://app?vid=aea1cf0e-9cc2-4a5a-87f9-a40fa19131b3"},"vehicle_type_id":"4","last_reported":1742220607,"current_range_meters":8800,"station_id":"ce4bhf92rcd13ifvqf50","pricing_plan_id":"cebpf4jnsgd1na2vs0mg"},{"bike_id":"9cb8d37a-0686-467a-99dc-8f40e0a1157c","system_id":"levelo_inurba_marseille","lat":43.275419,"lon":5.395977,"is_reserved":false,"is_disabled":false,"rental_uris":{"android":"levelo://app?vid=9cb8d37a-0686-467a-99dc-8f40e0a1157c","ios":"levelo://app?vid=9cb8d37a-0686-467a-99dc-8f40e0a1157c"},"vehicle_type_id":"4","last_reported":1742220607,"current_range_meters":9200,"station_id":"cjm6bp8fraef2m0cb0m0","pricing_plan_id":"cebpf4jnsgd1na2vs0mg"},{"bike_id":"85243c15-2c9b-4159-9d9b-4f8d5cc5647b","system_id":"levelo_inurba_marseille","lat":43.31366,"lon":5.36715,"is_reserved":false,"is_disabled":false,"rental_uris":{"android":"levelo://app?vid=85243c15-2c9b-4159-9d9b-4f8d5cc5647b","ios":"levelo://app?vid=85243c15-2c9b-4159-9d9b-4f8d5cc5647b"},"vehicle_type_id":"4","last_reported":1742220607,"current_range_meters":9200,"station_id":"ce4bgr92rcd13ifvqc6g","pricing_plan_id":"cebpf4jnsgd1na2vs0mg"},{"bike_id":"dd117a7c-a536-40a1-91af-43693b0b8fe5","system_id":"levelo_inurba_marseille","lat":43.25938,"lon":5.40871,"is_reserved":false,"is_disabled":false,"rental_uris":{"android":"levelo://app?vid=dd117a7c-a536-40a1-91af-43693b0b8fe5","ios":"levelo://app?vid=dd117a7c-a536-40a1-91af-43693b0b8fe5"},"vehicle_type_id":"4","last_reported":1742220607,"current_range_meters":9200,"station_id":"ce4bhm92rcd13ifvqglg","pricing_plan_id":"cebpf4jnsgd1na2vs0mg"},{"bike_id":"e0e721b1-c009-4a6b-a340-c83a0d53ecc1","system_id":"levelo_inurba_marseille","lat":43.32352,"lon":5.367585,"is_reserved":false,"is_disabled":false,"rental_uris":{"android":"levelo://app?vid=e0e721b1-c009-4a6b-a340-c83a0d53ecc1","ios":"levelo://app?vid=e0e721b1-c009-4a6b-a340-c83a0d53ecc1"},"vehicle_type_id":"4","last_reported":1742220607,"current_range_meters":9200,"station_id":"ce4bhsh2rcd13ifvqi2g","pricing_plan_id":"cebpf4jnsgd1na2vs0mg"},{"bike_id":"2c80c324-e998-4153-891b-3dea4176fd9b","system_id":"levelo_inurba_marseille","lat":43.32354,"lon":5.42068,"is_reserved":false,"is_disabled":false,"rental_uris":{"android":"levelo://app?vid=2c80c324-e998-4153-891b-3dea4176fd9b","ios":"levelo://app?vid=2c80c324-e998-4153-891b-3dea4176fd9b"},"vehicle_type_id":"4","last_reported":1742220607,"current_range_meters":9200,"station_id":"","pricing_plan_id":"cebpf4jnsgd1na2vs0mg"},{"bike_id":"649a1820-3813-4ab9-ab93-b0221a9c1c04","system_id":"levelo_inurba_marseille","lat":43.27211,"lon":5.39183,"is_reserved":false,"is_disabled":false,"rental_uris":{"android":"levelo://app?vid=649a1820-3813-4ab9-ab93-b0221a9c1c04","ios":"levelo://app?vid=649a1820-3813-4ab9-ab93-b0221a9c1c04"},"vehicle_type_id":"4","last_reported":1742220607,"current_range_meters":9200,"station_id":"ce4bhhp2rcd13ifvqfm0","pricing_plan_id":"cebpf4jnsgd1na2vs0mg"},{"bike_id":"3f3917b2-0edf-47a4-83c9-ca8fcf5cba45","system_id":"levelo_inurba_marseille","lat":43.27622,"lon":5.42452,"is_reserved":false,"is_disabled":false,"rental_uris":{"android":"levelo://app?vid=3f3917b2-0edf-47a4-83c9-ca8fcf5cba45","ios":"levelo://app?vid=3f3917b2-0edf-47a4-83c9-ca8fcf5cba45"},"vehicle_type_id":"4","last_reported":1742220607,"current_range_meters":9200,"station_id":"","pricing_plan_id":"cebpf4jnsgd1na2vs0mg"},{"bike_id":"c532d59e-39e8-43d7-9452-2db466e08640","system_id":"levelo_inurba_marseille","lat":43.23156,"lon":5.43698,"is_reserved":false,"is_disabled":false,"rental_uris":{"android":"levelo://app?vid=c532d59e-39e8-43d7-9452-2db466e08640","ios":"levelo://app?vid=c532d59e-39e8-43d7-9452-2db466e08640"},"vehicle_type_id":"4","last_reported":1742220607,"current_range_meters":9600,"station_id":"ce4bhmp2rcd13ifvqgog","pricing_plan_id":"cebpf4jnsgd1na2vs0mg"},{"bike_id":"50d3fb50-53c2-44e1-bef8-18f5aa8d15f1","system_id":"levelo_inurba_marseille","lat":43.2895,"lon":5.36404,"is_reserved":false,"is_disabled":false,"rental_uris":{"android":"levelo://app?vid=50d3fb50-53c2-44e1-bef8-18f5aa8d15f1","ios":"levelo://app?vid=50d3fb50-53c2-44e1-bef8-18f5aa8d15f1"},"vehicle_type_id":"4","last_reported":1742220607,"current_range_meters":9600,"station_id":"ce4bhc92rcd13ifvqetg","pricing_plan_id":"cebpf4jnsgd1na2vs0mg"},{"bike_id":"73ba6054-b256-49f9-a881-8617a962027d","system_id":"levelo_inurba_marseille","lat":43.2306,"lon":5.35466,"is_reserved":false,"is_disabled":false,"rental_uris":{"android":"levelo://app?vid=73ba6054-b256-49f9-a881-8617a962027d","ios":"levelo://app?vid=73ba6054-b256-49f9-a881-8617a962027d"},"vehicle_type_id":"4","last_reported":1742220607,"current_range_meters":9600,"station_id":"cpo3342slgdg3j2ifvpg","pricing_plan_id":"cebpf4jnsgd1na2vs0mg"},{"bike_id":"71ab1ae7-62b1-4d42-aa0f-dcde40ca280e","system_id":"levelo_inurba_marseille","lat":43.25887,"lon":5.40844,"is_reserved":false,"is_disabled":false,"rental_uris":{"android":"levelo://app?vid=71ab1ae7-62b1-4d42-aa0f-dcde40ca280e","ios":"levelo://app?vid=71ab1ae7-62b1-4d42-aa0f-dcde40ca280e"},"vehicle_type_id":"4","last_reported":1742220607,"current_range_meters":9600,"station_id":"ce4bhm92rcd13ifvqglg","pricing_plan_id":"cebpf4jnsgd1na2vs0mg"},{"bike_id":"68c57267-0826-45b1-820f-19fbd105c8f5","system_id":"levelo_inurba_marseille","lat":43.25494,"lon":5.37657,"is_reserved":false,"is_disabled":false,"rental_uris":{"android":"levelo://app?vid=68c57267-0826-45b1-820f-19fbd105c8f5","ios":"levelo://app?vid=68c57267-0826-45b1-820f-19fbd105c8f5"},"vehicle_type_id":"4","last_reported":1742220607,"current_range_meters":9600,"station_id":"ce4bhh12rcd13ifvqff0","pricing_plan_id":"cebpf4jnsgd1na2vs0mg"},{"bike_id":"62399145-9ad9-4901-bac2-91a881fc5d30","system_id":"levelo_inurba_marseille","lat":43.23161,"lon":5.43705,"is_reserved":false,"is_disabled":false,"rental_uris":{"android":"levelo://app?vid=62399145-9ad9-4901-bac2-91a881fc5d30","ios":"levelo://app?vid=62399145-9ad9-4901-bac2-91a881fc5d30"},"vehicle_type_id":"4","last_reported":1742220607,"current_range_meters":9600,"station_id":"ce4bhmp2rcd13ifvqgog","pricing_plan_id":"cebpf4jnsgd1na2vs0mg"},{"bike_id":"fa5f15ab-8994-45e1-84de-31aa4c8b3ced","system_id":"levelo_inurba_marseille","lat":43.23192,"lon":5.35559,"is_reserved":false,"is_disabled":false,"rental_uris":{"android":"levelo://app?vid=fa5f15ab-8994-45e1-84de-31aa4c8b3ced","ios":"levelo://app?vid=fa5f15ab-8994-45e1-84de-31aa4c8b3ced"},"vehicle_type_id":"4","last_reported":1742220607,"current_range_meters":9600,"station_id":"ce4bhu92rcd13ifvqi70","pricing_plan_id":"cebpf4jnsgd1na2vs0mg"},{"bike_id":"fdd56a3e-db28-485a-ba53-21439e7aa6ca","system_id":"levelo_inurba_marseille","lat":43.23154,"lon":5.4372,"is_reserved":false,"is_disabled":false,"rental_uris":{"android":"levelo://app?vid=fdd56a3e-db28-485a-ba53-21439e7aa6ca","ios":"levelo://app?vid=fdd56a3e-db28-485a-ba53-21439e7aa6ca"},"vehicle_type_id":"4","last_reported":1742220607,"current_range_meters":9600,"station_id":"ce4bhmp2rcd13ifvqgog","pricing_plan_id":"cebpf4jnsgd1na2vs0mg"},{"bike_id":"b54a649d-2707-4569-87ee-d2c230e19409","system_id":"levelo_inurba_marseille","lat":43.27475,"lon":5.40878,"is_reserved":false,"is_disabled":false,"rental_uris":{"android":"levelo://app?vid=b54a649d-2707-4569-87ee-d2c230e19409","ios":"levelo://app?vid=b54a649d-2707-4569-87ee-d2c230e19409"},"vehicle_type_id":"4","last_reported":1742220607,"current_range_meters":9600,"station_id":"","pricing_plan_id":"cebpf4jnsgd1na2vs0mg"},{"bike_id":"1ecb9fc8-c55f-4906-a6b3-3b2b095fb135","system_id":"levelo_inurba_marseille","lat":43.29553,"lon":5.42292,"is_reserved":false,"is_disabled":false,"rental_uris":{"android":"levelo://app?vid=1ecb9fc8-c55f-4906-a6b3-3b2b095fb135","ios":"levelo://app?vid=1ecb9fc8-c55f-4906-a6b3-3b2b095fb135"},"vehicle_type_id":"4","last_reported":1742220607,"current_range_meters":9600,"station_id":"ce4bhph2rcd13ifvqhdg","pricing_plan_id":"cebpf4jnsgd1na2vs0mg"},{"bike_id":"6d51086a-8359-4d5b-93ea-ef70cdaead58","system_id":"levelo_inurba_marseille","lat":43.29376,"lon":5.37848,"is_reserved":false,"is_disabled":false,"rental_uris":{"android":"levelo://app?vid=6d51086a-8359-4d5b-93ea-ef70cdaead58","ios":"levelo://app?vid=6d51086a-8359-4d5b-93ea-ef70cdaead58"},"vehicle_type_id":"4","last_reported":1742220607,"current_range_meters":9600,"station_id":"ce4bgjh2rcd13ifvqbf0","pricing_plan_id":"cebpf4jnsgd1na2vs0mg"},{"bike_id":"e8242d0d-3b15-4ca0-b108-ab68f9d5c098","system_id":"levelo_inurba_marseille","lat":43.28264,"lon":5.35074,"is_reserved":false,"is_disabled":false,"rental_uris":{"android":"levelo://app?vid=e8242d0d-3b15-4ca0-b108-ab68f9d5c098","ios":"levelo://app?vid=e8242d0d-3b15-4ca0-b108-ab68f9d5c098"},"vehicle_type_id":"4","last_reported":1742220607,"current_range_meters":9600,"station_id":"ce4bhbp2rcd13ifvqerg","pricing_plan_id":"cebpf4jnsgd1na2vs0mg"},{"bike_id":"44caefcb-9657-40fe-8f6c-fbda2fbdfc47","system_id":"levelo_inurba_marseille","lat":43.26206,"lon":5.37923,"is_reserved":false,"is_disabled":false,"rental_uris":{"android":"levelo://app?vid=44caefcb-9657-40fe-8f6c-fbda2fbdfc47","ios":"levelo://app?vid=44caefcb-9657-40fe-8f6c-fbda2fbdfc47"},"vehicle_type_id":"4","last_reported":1742220607,"current_range_meters":9600,"station_id":"ce4bhjp2rcd13ifvqg90","pricing_plan_id":"cebpf4jnsgd1na2vs0mg"},{"bike_id":"4d37376e-5944-402f-8fbb-7d0f48a208aa","system_id":"levelo_inurba_marseille","lat":43.3236,"lon":5.36753,"is_reserved":false,"is_disabled":false,"rental_uris":{"android":"levelo://app?vid=4d37376e-5944-402f-8fbb-7d0f48a208aa","ios":"levelo://app?vid=4d37376e-5944-402f-8fbb-7d0f48a208aa"},"vehicle_type_id":"4","last_reported":1742220607,"current_range_meters":9600,"station_id":"ce4bhsh2rcd13ifvqi2g","pricing_plan_id":"cebpf4jnsgd1na2vs0mg"},{"bike_id":"85d87f2d-ca0f-405a-bce8-a1269c2dc06e","system_id":"levelo_inurba_marseille","lat":43.26953,"lon":5.38628,"is_reserved":false,"is_disabled":true,"rental_uris":{"android":"levelo://app?vid=85d87f2d-ca0f-405a-bce8-a1269c2dc06e","ios":"levelo://app?vid=85d87f2d-ca0f-405a-bce8-a1269c2dc06e"},"vehicle_type_id":"4","last_reported":1742220607,"current_range_meters":9600,"station_id":"ce4bhh92rcd13ifvqfh0","pricing_plan_id":"cebpf4jnsgd1na2vs0mg"},{"bike_id":"458ddd71-ef8f-433a-bf1b-982309175df3","system_id":"levelo_inurba_marseille","lat":43.30195,"lon":5.36622,"is_reserved":false,"is_disabled":false,"rental_uris":{"android":"levelo://app?vid=458ddd71-ef8f-433a-bf1b-982309175df3","ios":"levelo://app?vid=458ddd71-ef8f-433a-bf1b-982309175df3"},"vehicle_type_id":"4","last_reported":1742220607,"current_range_meters":10000,"station_id":"ce4bgrh2rcd13ifvqc8g","pricing_plan_id":"cebpf4jnsgd1na2vs0mg"},{"bike_id":"2caf4a9a-0fdc-4be8-99c3-92290684314e","system_id":"levelo_inurba_marseille","lat":43.25001,"lon":5.38947,"is_reserved":false,"is_disabled":false,"rental_uris":{"android":"levelo://app?vid=2caf4a9a-0fdc-4be8-99c3-92290684314e","ios":"levelo://app?vid=2caf4a9a-0fdc-4be8-99c3-92290684314e"},"vehicle_type_id":"4","last_reported":1742220607,"current_range_meters":10000,"station_id":"ce4bhgp2rcd13ifvqfd0","pricing_plan_id":"cebpf4jnsgd1na2vs0mg"},{"bike_id":"6d8e8090-a4c7-4966-a3f4-a833922b9e5a","system_id":"levelo_inurba_marseille","lat":43.23201,"lon":5.35564,"is_reserved":false,"is_disabled":false,"rental_uris":{"android":"levelo://app?vid=6d8e8090-a4c7-4966-a3f4-a833922b9e5a","ios":"levelo://app?vid=6d8e8090-a4c7-4966-a3f4-a833922b9e5a"},"vehicle_type_id":"4","last_reported":1742220607,"current_range_meters":10000,"station_id":"ce4bhu92rcd13ifvqi70","pricing_plan_id":"cebpf4jnsgd1na2vs0mg"},{"bike_id":"d155b6d7-4f04-4869-a663-a1baa5b8f97e","system_id":"levelo_inurba_marseille","lat":43.23187,"lon":5.35559,"is_reserved":false,"is_disabled":false,"rental_uris":{"android":"levelo://app?vid=d155b6d7-4f04-4869-a663-a1baa5b8f97e","ios":"levelo://app?vid=d155b6d7-4f04-4869-a663-a1baa5b8f97e"},"vehicle_type_id":"4","last_reported":1742220607,"current_range_meters":10000,"station_id":"ce4bhu92rcd13ifvqi70","pricing_plan_id":"cebpf4jnsgd1na2vs0mg"},{"bike_id":"e72faea1-e859-44c6-a170-a93b09222aa0","system_id":"levelo_inurba_marseille","lat":43.24387,"lon":5.37072,"is_reserved":false,"is_disabled":false,"rental_uris":{"android":"levelo://app?vid=e72faea1-e859-44c6-a170-a93b09222aa0","ios":"levelo://app?vid=e72faea1-e859-44c6-a170-a93b09222aa0"},"vehicle_type_id":"4","last_reported":1742220607,"current_range_meters":10000,"station_id":"ce4bhhh2rcd13ifvqfk0","pricing_plan_id":"cebpf4jnsgd1na2vs0mg"},{"bike_id":"2cfea23f-97b4-4970-9375-fe39f97bb29e","system_id":"levelo_inurba_marseille","lat":43.26197,"lon":5.37934,"is_reserved":false,"is_disabled":false,"rental_uris":{"android":"levelo://app?vid=2cfea23f-97b4-4970-9375-fe39f97bb29e","ios":"levelo://app?vid=2cfea23f-97b4-4970-9375-fe39f97bb29e"},"vehicle_type_id":"4","last_reported":1742220607,"current_range_meters":10000,"station_id":"ce4bhjp2rcd13ifvqg90","pricing_plan_id":"cebpf4jnsgd1na2vs0mg"},{"bike_id":"f93ea0c4-d4ae-419b-a2b4-6782da5455ad","system_id":"levelo_inurba_marseille","lat":43.28271,"lon":5.35061,"is_reserved":false,"is_disabled":false,"rental_uris":{"android":"levelo://app?vid=f93ea0c4-d4ae-419b-a2b4-6782da5455ad","ios":"levelo://app?vid=f93ea0c4-d4ae-419b-a2b4-6782da5455ad"},"vehicle_type_id":"4","last_reported":1742220607,"current_range_meters":10000,"station_id":"ce4bhbp2rcd13ifvqerg","pricing_plan_id":"cebpf4jnsgd1na2vs0mg"},{"bike_id":"70cae1f3-5abb-4f8b-b484-647e3631bfaa","system_id":"levelo_inurba_marseille","lat":43.28155,"lon":5.42652,"is_reserved":false,"is_disabled":false,"rental_uris":{"android":"levelo://app?vid=70cae1f3-5abb-4f8b-b484-647e3631bfaa","ios":"levelo://app?vid=70cae1f3-5abb-4f8b-b484-647e3631bfaa"},"vehicle_type_id":"4","last_reported":1742220607,"current_range_meters":10000,"station_id":"ce4bhnh2rcd13ifvqgug","pricing_plan_id":"cebpf4jnsgd1na2vs0mg"},{"bike_id":"01704ef1-d72e-4237-b336-b600e39559e9","system_id":"levelo_inurba_marseille","lat":43.29706,"lon":5.36597,"is_reserved":false,"is_disabled":false,"rental_uris":{"android":"levelo://app?vid=01704ef1-d72e-4237-b336-b600e39559e9","ios":"levelo://app?vid=01704ef1-d72e-4237-b336-b600e39559e9"},"vehicle_type_id":"4","last_reported":1742220607,"current_range_meters":10000,"station_id":"ce4bgn12rcd13ifvqbt0","pricing_plan_id":"cebpf4jnsgd1na2vs0mg"},{"bike_id":"e99a08a9-f5db-4e01-a4cb-00ef0ffaad75","system_id":"levelo_inurba_marseille","lat":43.28416,"lon":5.34975,"is_reserved":false,"is_disabled":false,"rental_uris":{"android":"levelo://app?vid=e99a08a9-f5db-4e01-a4cb-00ef0ffaad75","ios":"levelo://app?vid=e99a08a9-f5db-4e01-a4cb-00ef0ffaad75"},"vehicle_type_id":"4","last_reported":1742220607,"current_range_meters":10000,"station_id":"ce4bhbh2rcd13ifvqepg","pricing_plan_id":"cebpf4jnsgd1na2vs0mg"},{"bike_id":"e4018e7f-984a-4a81-8c81-0a0b88277d4f","system_id":"levelo_inurba_marseille","lat":43.27492,"lon":5.42457,"is_reserved":false,"is_disabled":false,"rental_uris":{"android":"levelo://app?vid=e4018e7f-984a-4a81-8c81-0a0b88277d4f","ios":"levelo://app?vid=e4018e7f-984a-4a81-8c81-0a0b88277d4f"},"vehicle_type_id":"4","last_reported":1742220607,"current_range_meters":10000,"station_id":"ce4bhn92rcd13ifvqgrg","pricing_plan_id":"cebpf4jnsgd1na2vs0mg"},{"bike_id":"b1b41327-66f3-4983-ac80-93a6af2a034d","system_id":"levelo_inurba_marseille","lat":43.23062,"lon":5.35495,"is_reserved":false,"is_disabled":false,"rental_uris":{"android":"levelo://app?vid=b1b41327-66f3-4983-ac80-93a6af2a034d","ios":"levelo://app?vid=b1b41327-66f3-4983-ac80-93a6af2a034d"},"vehicle_type_id":"4","last_reported":1742220607,"current_range_meters":10800,"station_id":"cpo3342slgdg3j2ifvpg","pricing_plan_id":"cebpf4jnsgd1na2vs0mg"},{"bike_id":"703447d3-0a6e-4767-a0f7-81222e2c6326","system_id":"levelo_inurba_marseille","lat":43.28158,"lon":5.42652,"is_reserved":false,"is_disabled":false,"rental_uris":{"android":"levelo://app?vid=703447d3-0a6e-4767-a0f7-81222e2c6326","ios":"levelo://app?vid=703447d3-0a6e-4767-a0f7-81222e2c6326"},"vehicle_type_id":"4","last_reported":1742220607,"current_range_meters":10800,"station_id":"ce4bhnh2rcd13ifvqgug","pricing_plan_id":"cebpf4jnsgd1na2vs0mg"},{"bike_id":"d7eda30e-0b17-4e75-a771-115d48ffa128","system_id":"levelo_inurba_marseille","lat":43.32544,"lon":5.41489,"is_reserved":false,"is_disabled":false,"rental_uris":{"android":"levelo://app?vid=d7eda30e-0b17-4e75-a771-115d48ffa128","ios":"levelo://app?vid=d7eda30e-0b17-4e75-a771-115d48ffa128"},"vehicle_type_id":"4","last_reported":1742220607,"current_range_meters":10800,"station_id":"ce4bhq12rcd13ifvqhhg","pricing_plan_id":"cebpf4jnsgd1na2vs0mg"},{"bike_id":"fddb55d4-2f6d-458b-a063-69a98e83f2fb","system_id":"levelo_inurba_marseille","lat":43.24182,"lon":5.39738,"is_reserved":false,"is_disabled":false,"rental_uris":{"android":"levelo://app?vid=fddb55d4-2f6d-458b-a063-69a98e83f2fb","ios":"levelo://app?vid=fddb55d4-2f6d-458b-a063-69a98e83f2fb"},"vehicle_type_id":"4","last_reported":1742220607,"current_range_meters":10800,"station_id":"ce4bhn12rcd13ifvqgpg","pricing_plan_id":"cebpf4jnsgd1na2vs0mg"},{"bike_id":"3d5016d1-6687-4220-aa49-28bbd107ce48","system_id":"levelo_inurba_marseille","lat":43.2592,"lon":5.40903,"is_reserved":false,"is_disabled":false,"rental_uris":{"android":"levelo://app?vid=3d5016d1-6687-4220-aa49-28bbd107ce48","ios":"levelo://app?vid=3d5016d1-6687-4220-aa49-28bbd107ce48"},"vehicle_type_id":"4","last_reported":1742220607,"current_range_meters":10800,"station_id":"ce4bhm92rcd13ifvqglg","pricing_plan_id":"cebpf4jnsgd1na2vs0mg"},{"bike_id":"0d3accb9-853e-4df0-b9d8-4607b8048f46","system_id":"levelo_inurba_marseille","lat":43.24167,"lon":5.36404,"is_reserved":false,"is_disabled":false,"rental_uris":{"android":"levelo://app?vid=0d3accb9-853e-4df0-b9d8-4607b8048f46","ios":"levelo://app?vid=0d3accb9-853e-4df0-b9d8-4607b8048f46"},"vehicle_type_id":"4","last_reported":1742220607,"current_range_meters":10800,"station_id":"cpo36qri1sfpv3e86is0","pricing_plan_id":"cebpf4jnsgd1na2vs0mg"},{"bike_id":"02c58807-498c-4c8a-ab47-f756af62cb95","system_id":"levelo_inurba_marseille","lat":43.31373,"lon":5.36686,"is_reserved":false,"is_disabled":false,"rental_uris":{"android":"levelo://app?vid=02c58807-498c-4c8a-ab47-f756af62cb95","ios":"levelo://app?vid=02c58807-498c-4c8a-ab47-f756af62cb95"},"vehicle_type_id":"4","last_reported":1742220607,"current_range_meters":10800,"station_id":"ce4bgr92rcd13ifvqc6g","pricing_plan_id":"cebpf4jnsgd1na2vs0mg"},{"bike_id":"00620a36-546f-4468-8a2c-399aef8da33b","system_id":"levelo_inurba_marseille","lat":43.28164,"lon":5.42662,"is_reserved":false,"is_disabled":false,"rental_uris":{"android":"levelo://app?vid=00620a36-546f-4468-8a2c-399aef8da33b","ios":"levelo://app?vid=00620a36-546f-4468-8a2c-399aef8da33b"},"vehicle_type_id":"4","last_reported":1742220607,"current_range_meters":10800,"station_id":"ce4bhnh2rcd13ifvqgug","pricing_plan_id":"cebpf4jnsgd1na2vs0mg"},{"bike_id":"aec1e65c-daab-454b-8910-46f19c20e587","system_id":"levelo_inurba_marseille","lat":43.25935,"lon":5.40897,"is_reserved":false,"is_disabled":false,"rental_uris":{"android":"levelo://app?vid=aec1e65c-daab-454b-8910-46f19c20e587","ios":"levelo://app?vid=aec1e65c-daab-454b-8910-46f19c20e587"},"vehicle_type_id":"4","last_reported":1742220607,"current_range_meters":10800,"station_id":"ce4bhm92rcd13ifvqglg","pricing_plan_id":"cebpf4jnsgd1na2vs0mg"},{"bike_id":"6302a215-8ba8-4804-9ad5-db555dba718d","system_id":"levelo_inurba_marseille","lat":43.33607,"lon":5.41014,"is_reserved":false,"is_disabled":false,"rental_uris":{"android":"levelo://app?vid=6302a215-8ba8-4804-9ad5-db555dba718d","ios":"levelo://app?vid=6302a215-8ba8-4804-9ad5-db555dba718d"},"vehicle_type_id":"4","last_reported":1742220607,"current_range_meters":10800,"station_id":"ce4bhqh2rcd13ifvqhmg","pricing_plan_id":"cebpf4jnsgd1na2vs0mg"},{"bike_id":"286da521-aa1d-485a-8adb-321b712ff550","system_id":"levelo_inurba_marseille","lat":43.23159,"lon":5.4373,"is_reserved":false,"is_disabled":false,"rental_uris":{"android":"levelo://app?vid=286da521-aa1d-485a-8adb-321b712ff550","ios":"levelo://app?vid=286da521-aa1d-485a-8adb-321b712ff550"},"vehicle_type_id":"4","last_reported":1742220607,"current_range_meters":10800,"station_id":"ce4bhmp2rcd13ifvqgog","pricing_plan_id":"cebpf4jnsgd1na2vs0mg"},{"bike_id":"6b16a642-1d28-461a-b58f-22d007c19719","system_id":"levelo_inurba_marseille","lat":43.26559,"lon":5.3729,"is_reserved":false,"is_disabled":false,"rental_uris":{"android":"levelo://app?vid=6b16a642-1d28-461a-b58f-22d007c19719","ios":"levelo://app?vid=6b16a642-1d28-461a-b58f-22d007c19719"},"vehicle_type_id":"4","last_reported":1742220607,"current_range_meters":11200,"station_id":"ce4bhg12rcd13ifvqf70","pricing_plan_id":"cebpf4jnsgd1na2vs0mg"},{"bike_id":"50d5a895-aeab-4551-8d24-4548fb8a1c51","system_id":"levelo_inurba_marseille","lat":43.27922,"lon":5.38012,"is_reserved":false,"is_disabled":false,"rental_uris":{"android":"levelo://app?vid=50d5a895-aeab-4551-8d24-4548fb8a1c51","ios":"levelo://app?vid=50d5a895-aeab-4551-8d24-4548fb8a1c51"},"vehicle_type_id":"4","last_reported":1742220607,"current_range_meters":11200,"station_id":"ce4bhf92rcd13ifvqf50","pricing_plan_id":"cebpf4jnsgd1na2vs0mg"},{"bike_id":"5e30c87b-c550-4879-957e-5bf47c2ccd5a","system_id":"levelo_inurba_marseille","lat":43.28932,"lon":5.36645,"is_reserved":false,"is_disabled":false,"rental_uris":{"android":"levelo://app?vid=5e30c87b-c550-4879-957e-5bf47c2ccd5a","ios":"levelo://app?vid=5e30c87b-c550-4879-957e-5bf47c2ccd5a"},"vehicle_type_id":"4","last_reported":1742220607,"current_range_meters":11600,"station_id":"ce4bhap2rcd13ifvqek0","pricing_plan_id":"cebpf4jnsgd1na2vs0mg"},{"bike_id":"f0757393-d472-4511-adfa-218c1b47e56e","system_id":"levelo_inurba_marseille","lat":43.2984,"lon":5.36264,"is_reserved":false,"is_disabled":false,"rental_uris":{"android":"levelo://app?vid=f0757393-d472-4511-adfa-218c1b47e56e","ios":"levelo://app?vid=f0757393-d472-4511-adfa-218c1b47e56e"},"vehicle_type_id":"4","last_reported":1742220607,"current_range_meters":13600,"station_id":"ce4bgpp2rcd13ifvqc3g","pricing_plan_id":"cebpf4jnsgd1na2vs0mg"},{"bike_id":"3cd6e548-64e5-4153-ae01-b2b79b4f5abe","system_id":"levelo_inurba_marseille","lat":43.29878,"lon":5.36337,"is_reserved":false,"is_disabled":false,"rental_uris":{"android":"levelo://app?vid=3cd6e548-64e5-4153-ae01-b2b79b4f5abe","ios":"levelo://app?vid=3cd6e548-64e5-4153-ae01-b2b79b4f5abe"},"vehicle_type_id":"4","last_reported":1742220607,"current_range_meters":11200,"station_id":"","pricing_plan_id":"cebpf4jnsgd1na2vs0mg"},{"bike_id":"28ffdc94-90ac-4512-af10-61fef7c81982","system_id":"levelo_inurba_marseille","lat":43.3012,"lon":5.36394,"is_reserved":false,"is_disabled":false,"rental_uris":{"android":"levelo://app?vid=28ffdc94-90ac-4512-af10-61fef7c81982","ios":"levelo://app?vid=28ffdc94-90ac-4512-af10-61fef7c81982"},"vehicle_type_id":"4","last_reported":1742220607,"current_range_meters":11600,"station_id":"","pricing_plan_id":"cebpf4jnsgd1na2vs0mg"},{"bike_id":"1e6bba5d-5a6b-47c1-964a-fc01f3515e69","system_id":"levelo_inurba_marseille","lat":43.23166,"lon":5.43702,"is_reserved":false,"is_disabled":false,"rental_uris":{"android":"levelo://app?vid=1e6bba5d-5a6b-47c1-964a-fc01f3515e69","ios":"levelo://app?vid=1e6bba5d-5a6b-47c1-964a-fc01f3515e69"},"vehicle_type_id":"4","last_reported":1742220607,"current_range_meters":11200,"station_id":"ce4bhmp2rcd13ifvqgog","pricing_plan_id":"cebpf4jnsgd1na2vs0mg"},{"bike_id":"cb155ed2-94cd-4561-91d1-e32e534c079a","system_id":"levelo_inurba_marseille","lat":43.32496,"lon":5.36598,"is_reserved":false,"is_disabled":false,"rental_uris":{"android":"levelo://app?vid=cb155ed2-94cd-4561-91d1-e32e534c079a","ios":"levelo://app?vid=cb155ed2-94cd-4561-91d1-e32e534c079a"},"vehicle_type_id":"4","last_reported":1742220607,"current_range_meters":11200,"station_id":"ce4bhs12rcd13ifvqhvg","pricing_plan_id":"cebpf4jnsgd1na2vs0mg"},{"bike_id":"fdff2ba3-7461-4cff-b875-77cc2a2df3f9","system_id":"levelo_inurba_marseille","lat":43.24173,"lon":5.3642,"is_reserved":false,"is_disabled":false,"rental_uris":{"android":"levelo://app?vid=fdff2ba3-7461-4cff-b875-77cc2a2df3f9","ios":"levelo://app?vid=fdff2ba3-7461-4cff-b875-77cc2a2df3f9"},"vehicle_type_id":"4","last_reported":1742220607,"current_range_meters":11200,"station_id":"cpo36qri1sfpv3e86is0","pricing_plan_id":"cebpf4jnsgd1na2vs0mg"},{"bike_id":"6f269e2d-5984-437a-a538-7f120c4fc7dd","system_id":"levelo_inurba_marseille","lat":43.23067,"lon":5.35511,"is_reserved":false,"is_disabled":false,"rental_uris":{"android":"levelo://app?vid=6f269e2d-5984-437a-a538-7f120c4fc7dd","ios":"levelo://app?vid=6f269e2d-5984-437a-a538-7f120c4fc7dd"},"vehicle_type_id":"4","last_reported":1742220607,"current_range_meters":11200,"station_id":"cpo3342slgdg3j2ifvpg","pricing_plan_id":"cebpf4jnsgd1na2vs0mg"},{"bike_id":"8fe7e33b-57fc-439c-ba02-015988635c80","system_id":"levelo_inurba_marseille","lat":43.27079,"lon":5.42277,"is_reserved":false,"is_disabled":true,"rental_uris":{"android":"levelo://app?vid=8fe7e33b-57fc-439c-ba02-015988635c80","ios":"levelo://app?vid=8fe7e33b-57fc-439c-ba02-015988635c80"},"vehicle_type_id":"4","last_reported":1742220607,"current_range_meters":11200,"station_id":"ce4bhk92rcd13ifvqgb0","pricing_plan_id":"cebpf4jnsgd1na2vs0mg"},{"bike_id":"099af47d-f949-457b-b9df-a57fdc85cd81","system_id":"levelo_inurba_marseille","lat":43.295373,"lon":5.393271,"is_reserved":false,"is_disabled":false,"rental_uris":{"android":"levelo://app?vid=099af47d-f949-457b-b9df-a57fdc85cd81","ios":"levelo://app?vid=099af47d-f949-457b-b9df-a57fdc85cd81"},"vehicle_type_id":"4","last_reported":1742220607,"current_range_meters":11600,"station_id":"ce4bh3p2rcd13ifvqdp0","pricing_plan_id":"cebpf4jnsgd1na2vs0mg"},{"bike_id":"31c2047c-018f-430a-a34f-bc0371f5214e","system_id":"levelo_inurba_marseille","lat":43.28723,"lon":5.37938,"is_reserved":false,"is_disabled":false,"rental_uris":{"android":"levelo://app?vid=31c2047c-018f-430a-a34f-bc0371f5214e","ios":"levelo://app?vid=31c2047c-018f-430a-a34f-bc0371f5214e"},"vehicle_type_id":"4","last_reported":1742220607,"current_range_meters":11600,"station_id":"ce4bh9p2rcd13ifvqec0","pricing_plan_id":"cebpf4jnsgd1na2vs0mg"},{"bike_id":"be16e40a-5767-44ed-aa75-2a81c0e433d3","system_id":"levelo_inurba_marseille","lat":43.32532,"lon":5.41471,"is_reserved":false,"is_disabled":false,"rental_uris":{"android":"levelo://app?vid=be16e40a-5767-44ed-aa75-2a81c0e433d3","ios":"levelo://app?vid=be16e40a-5767-44ed-aa75-2a81c0e433d3"},"vehicle_type_id":"4","last_reported":1742220607,"current_range_meters":11600,"station_id":"ce4bhq12rcd13ifvqhhg","pricing_plan_id":"cebpf4jnsgd1na2vs0mg"},{"bike_id":"2665cc4b-07ed-4ae6-a66f-2b09983c709d","system_id":"levelo_inurba_marseille","lat":43.33761,"lon":5.37489,"is_reserved":false,"is_disabled":false,"rental_uris":{"android":"levelo://app?vid=2665cc4b-07ed-4ae6-a66f-2b09983c709d","ios":"levelo://app?vid=2665cc4b-07ed-4ae6-a66f-2b09983c709d"},"vehicle_type_id":"4","last_reported":1742220607,"current_range_meters":11600,"station_id":"","pricing_plan_id":"cebpf4jnsgd1na2vs0mg"},{"bike_id":"9684a46e-c35d-415f-b242-b2bd609cc693","system_id":"levelo_inurba_marseille","lat":43.29003,"lon":5.3561,"is_reserved":false,"is_disabled":false,"rental_uris":{"android":"levelo://app?vid=9684a46e-c35d-415f-b242-b2bd609cc693","ios":"levelo://app?vid=9684a46e-c35d-415f-b242-b2bd609cc693"},"vehicle_type_id":"4","last_reported":1742220607,"current_range_meters":11600,"station_id":"ce4bhb92rcd13ifvqen0","pricing_plan_id":"cebpf4jnsgd1na2vs0mg"},{"bike_id":"57ef593f-f618-45ca-8b97-31a47543ae66","system_id":"levelo_inurba_marseille","lat":43.232,"lon":5.35551,"is_reserved":false,"is_disabled":false,"rental_uris":{"android":"levelo://app?vid=57ef593f-f618-45ca-8b97-31a47543ae66","ios":"levelo://app?vid=57ef593f-f618-45ca-8b97-31a47543ae66"},"vehicle_type_id":"4","last_reported":1742220607,"current_range_meters":11600,"station_id":"ce4bhu92rcd13ifvqi70","pricing_plan_id":"cebpf4jnsgd1na2vs0mg"},{"bike_id":"c16ac4e9-9604-44a8-b213-255959ff7c04","system_id":"levelo_inurba_marseille","lat":43.28273,"lon":5.35071,"is_reserved":false,"is_disabled":false,"rental_uris":{"android":"levelo://app?vid=c16ac4e9-9604-44a8-b213-255959ff7c04","ios":"levelo://app?vid=c16ac4e9-9604-44a8-b213-255959ff7c04"},"vehicle_type_id":"4","last_reported":1742220607,"current_range_meters":11600,"station_id":"ce4bhbp2rcd13ifvqerg","pricing_plan_id":"cebpf4jnsgd1na2vs0mg"},{"bike_id":"0e9a9167-2ed3-4e5f-bef9-de029ff38312","system_id":"levelo_inurba_marseille","lat":43.28268,"lon":5.35079,"is_reserved":false,"is_disabled":false,"rental_uris":{"android":"levelo://app?vid=0e9a9167-2ed3-4e5f-bef9-de029ff38312","ios":"levelo://app?vid=0e9a9167-2ed3-4e5f-bef9-de029ff38312"},"vehicle_type_id":"4","last_reported":1742220607,"current_range_meters":11600,"station_id":"ce4bhbp2rcd13ifvqerg","pricing_plan_id":"cebpf4jnsgd1na2vs0mg"},{"bike_id":"7a8a8ccb-b5ee-4bab-9535-af226cc12302","system_id":"levelo_inurba_marseille","lat":43.29072,"lon":5.42357,"is_reserved":false,"is_disabled":false,"rental_uris":{"android":"levelo://app?vid=7a8a8ccb-b5ee-4bab-9535-af226cc12302","ios":"levelo://app?vid=7a8a8ccb-b5ee-4bab-9535-af226cc12302"},"vehicle_type_id":"4","last_reported":1742220607,"current_range_meters":11600,"station_id":"","pricing_plan_id":"cebpf4jnsgd1na2vs0mg"},{"bike_id":"593f0f80-f0f8-4be5-90a3-684a7f8897bf","system_id":"levelo_inurba_marseille","lat":43.25942,"lon":5.40905,"is_reserved":false,"is_disabled":false,"rental_uris":{"android":"levelo://app?vid=593f0f80-f0f8-4be5-90a3-684a7f8897bf","ios":"levelo://app?vid=593f0f80-f0f8-4be5-90a3-684a7f8897bf"},"vehicle_type_id":"4","last_reported":1742220607,"current_range_meters":11600,"station_id":"ce4bhm92rcd13ifvqglg","pricing_plan_id":"cebpf4jnsgd1na2vs0mg"},{"bike_id":"ba17eb78-f062-4f77-b8b0-1a4a31d62a9e","system_id":"levelo_inurba_marseille","lat":43.25729,"lon":5.41116,"is_reserved":false,"is_disabled":true,"rental_uris":{"android":"levelo://app?vid=ba17eb78-f062-4f77-b8b0-1a4a31d62a9e","ios":"levelo://app?vid=ba17eb78-f062-4f77-b8b0-1a4a31d62a9e"},"vehicle_type_id":"4","last_reported":1742220607,"current_range_meters":11600,"station_id":"ce4bhkp2rcd13ifvqgd0","pricing_plan_id":"cebpf4jnsgd1na2vs0mg"},{"bike_id":"1d5c028e-c2ca-48ac-b46c-0f076aa3f1e3","system_id":"levelo_inurba_marseille","lat":43.23967,"lon":5.36635,"is_reserved":false,"is_disabled":false,"rental_uris":{"android":"levelo://app?vid=1d5c028e-c2ca-48ac-b46c-0f076aa3f1e3","ios":"levelo://app?vid=1d5c028e-c2ca-48ac-b46c-0f076aa3f1e3"},"vehicle_type_id":"4","last_reported":1742220607,"current_range_meters":12000,"station_id":"ce4bhi12rcd13ifvqfp0","pricing_plan_id":"cebpf4jnsgd1na2vs0mg"},{"bike_id":"a182fbfe-7264-4c78-8698-cdc9b2c066c2","system_id":"levelo_inurba_marseille","lat":43.29095,"lon":5.38138,"is_reserved":false,"is_disabled":false,"rental_uris":{"android":"levelo://app?vid=a182fbfe-7264-4c78-8698-cdc9b2c066c2","ios":"levelo://app?vid=a182fbfe-7264-4c78-8698-cdc9b2c066c2"},"vehicle_type_id":"4","last_reported":1742220607,"current_range_meters":12000,"station_id":"ce4bh512rcd13ifvqe2g","pricing_plan_id":"cebpf4jnsgd1na2vs0mg"},{"bike_id":"5c07f3ca-a9f9-47ce-89e2-28a4e4e57955","system_id":"levelo_inurba_marseille","lat":43.26578,"lon":5.39038,"is_reserved":false,"is_disabled":false,"rental_uris":{"android":"levelo://app?vid=5c07f3ca-a9f9-47ce-89e2-28a4e4e57955","ios":"levelo://app?vid=5c07f3ca-a9f9-47ce-89e2-28a4e4e57955"},"vehicle_type_id":"4","last_reported":1742220607,"current_range_meters":12000,"station_id":"ce4bhe12rcd13ifvqf30","pricing_plan_id":"cebpf4jnsgd1na2vs0mg"},{"bike_id":"7ba1e3fe-e301-487b-a701-faf19b9271bc","system_id":"levelo_inurba_marseille","lat":43.25927,"lon":5.40906,"is_reserved":false,"is_disabled":false,"rental_uris":{"android":"levelo://app?vid=7ba1e3fe-e301-487b-a701-faf19b9271bc","ios":"levelo://app?vid=7ba1e3fe-e301-487b-a701-faf19b9271bc"},"vehicle_type_id":"4","last_reported":1742220607,"current_range_meters":12000,"station_id":"ce4bhm92rcd13ifvqglg","pricing_plan_id":"cebpf4jnsgd1na2vs0mg"},{"bike_id":"2583411f-817f-4f09-bac8-f2df4e4e1d18","system_id":"levelo_inurba_marseille","lat":43.28267,"lon":5.35065,"is_reserved":false,"is_disabled":false,"rental_uris":{"android":"levelo://app?vid=2583411f-817f-4f09-bac8-f2df4e4e1d18","ios":"levelo://app?vid=2583411f-817f-4f09-bac8-f2df4e4e1d18"},"vehicle_type_id":"4","last_reported":1742220607,"current_range_meters":12000,"station_id":"ce4bhbp2rcd13ifvqerg","pricing_plan_id":"cebpf4jnsgd1na2vs0mg"},{"bike_id":"9641c2ba-2d48-4fa3-a44d-37cb7a609cec","system_id":"levelo_inurba_marseille","lat":43.33027,"lon":5.3905,"is_reserved":false,"is_disabled":false,"rental_uris":{"android":"levelo://app?vid=9641c2ba-2d48-4fa3-a44d-37cb7a609cec","ios":"levelo://app?vid=9641c2ba-2d48-4fa3-a44d-37cb7a609cec"},"vehicle_type_id":"4","last_reported":1742220607,"current_range_meters":11600,"station_id":"ce4bhr92rcd13ifvqhrg","pricing_plan_id":"cebpf4jnsgd1na2vs0mg"},{"bike_id":"8826fe7c-d97b-4817-9555-04b6da7b8307","system_id":"levelo_inurba_marseille","lat":43.25094,"lon":5.39526,"is_reserved":false,"is_disabled":false,"rental_uris":{"android":"levelo://app?vid=8826fe7c-d97b-4817-9555-04b6da7b8307","ios":"levelo://app?vid=8826fe7c-d97b-4817-9555-04b6da7b8307"},"vehicle_type_id":"4","last_reported":1742220607,"current_range_meters":12000,"station_id":"ce4bhm12rcd13ifvqgkg","pricing_plan_id":"cebpf4jnsgd1na2vs0mg"},{"bike_id":"d26a309c-0c38-479d-a3b1-6466685e919d","system_id":"levelo_inurba_marseille","lat":43.29936,"lon":5.36552,"is_reserved":false,"is_disabled":false,"rental_uris":{"android":"levelo://app?vid=d26a309c-0c38-479d-a3b1-6466685e919d","ios":"levelo://app?vid=d26a309c-0c38-479d-a3b1-6466685e919d"},"vehicle_type_id":"4","last_reported":1742220607,"current_range_meters":12000,"station_id":"ce4bgm92rcd13ifvqbr0","pricing_plan_id":"cebpf4jnsgd1na2vs0mg"},{"bike_id":"de836014-b98c-485c-a2d2-e285e161186e","system_id":"levelo_inurba_marseille","lat":43.30207,"lon":5.37415,"is_reserved":false,"is_disabled":false,"rental_uris":{"android":"levelo://app?vid=de836014-b98c-485c-a2d2-e285e161186e","ios":"levelo://app?vid=de836014-b98c-485c-a2d2-e285e161186e"},"vehicle_type_id":"4","last_reported":1742220607,"current_range_meters":12000,"station_id":"","pricing_plan_id":"cebpf4jnsgd1na2vs0mg"},{"bike_id":"bf53558a-323c-40e3-9c37-ac64ba388e1c","system_id":"levelo_inurba_marseille","lat":43.23962,"lon":5.36639,"is_reserved":false,"is_disabled":false,"rental_uris":{"android":"levelo://app?vid=bf53558a-323c-40e3-9c37-ac64ba388e1c","ios":"levelo://app?vid=bf53558a-323c-40e3-9c37-ac64ba388e1c"},"vehicle_type_id":"4","last_reported":1742220607,"current_range_meters":12000,"station_id":"ce4bhi12rcd13ifvqfp0","pricing_plan_id":"cebpf4jnsgd1na2vs0mg"},{"bike_id":"d0ae4d71-6fe1-4bf2-aa35-8d6f43fda438","system_id":"levelo_inurba_marseille","lat":43.28857,"lon":5.35864,"is_reserved":false,"is_disabled":false,"rental_uris":{"android":"levelo://app?vid=d0ae4d71-6fe1-4bf2-aa35-8d6f43fda438","ios":"levelo://app?vid=d0ae4d71-6fe1-4bf2-aa35-8d6f43fda438"},"vehicle_type_id":"4","last_reported":1742220607,"current_range_meters":12000,"station_id":"ce4bhb12rcd13ifvqem0","pricing_plan_id":"cebpf4jnsgd1na2vs0mg"},{"bike_id":"fe2c08eb-fd91-43a9-9198-dd9123d66972","system_id":"levelo_inurba_marseille","lat":43.28949,"lon":5.36636,"is_reserved":false,"is_disabled":false,"rental_uris":{"android":"levelo://app?vid=fe2c08eb-fd91-43a9-9198-dd9123d66972","ios":"levelo://app?vid=fe2c08eb-fd91-43a9-9198-dd9123d66972"},"vehicle_type_id":"4","last_reported":1742220607,"current_range_meters":12400,"station_id":"ce4bhap2rcd13ifvqek0","pricing_plan_id":"cebpf4jnsgd1na2vs0mg"},{"bike_id":"ef387ae4-9c87-4cd0-8124-b4fc4eb0cbb8","system_id":"levelo_inurba_marseille","lat":43.28422,"lon":5.34985,"is_reserved":false,"is_disabled":false,"rental_uris":{"android":"levelo://app?vid=ef387ae4-9c87-4cd0-8124-b4fc4eb0cbb8","ios":"levelo://app?vid=ef387ae4-9c87-4cd0-8124-b4fc4eb0cbb8"},"vehicle_type_id":"4","last_reported":1742220607,"current_range_meters":12400,"station_id":"ce4bhbh2rcd13ifvqepg","pricing_plan_id":"cebpf4jnsgd1na2vs0mg"},{"bike_id":"ee54ac11-db4c-4dd1-9f8e-34ff11e58d2c","system_id":"levelo_inurba_marseille","lat":43.26685,"lon":5.38282,"is_reserved":false,"is_disabled":false,"rental_uris":{"android":"levelo://app?vid=ee54ac11-db4c-4dd1-9f8e-34ff11e58d2c","ios":"levelo://app?vid=ee54ac11-db4c-4dd1-9f8e-34ff11e58d2c"},"vehicle_type_id":"4","last_reported":1742220607,"current_range_meters":12400,"station_id":"ce4bhg92rcd13ifvqf90","pricing_plan_id":"cebpf4jnsgd1na2vs0mg"},{"bike_id":"956a9215-34e7-4b02-b096-2db1be98b2cc","system_id":"levelo_inurba_marseille","lat":43.24548,"lon":5.3952,"is_reserved":false,"is_disabled":false,"rental_uris":{"android":"levelo://app?vid=956a9215-34e7-4b02-b096-2db1be98b2cc","ios":"levelo://app?vid=956a9215-34e7-4b02-b096-2db1be98b2cc"},"vehicle_type_id":"4","last_reported":1742220607,"current_range_meters":12800,"station_id":"ce4bhlp2rcd13ifvqgjg","pricing_plan_id":"cebpf4jnsgd1na2vs0mg"},{"bike_id":"601293b7-e372-4b0d-84d0-3a680cac93b2","system_id":"levelo_inurba_marseille","lat":43.30469,"lon":5.37905,"is_reserved":false,"is_disabled":false,"rental_uris":{"android":"levelo://app?vid=601293b7-e372-4b0d-84d0-3a680cac93b2","ios":"levelo://app?vid=601293b7-e372-4b0d-84d0-3a680cac93b2"},"vehicle_type_id":"4","last_reported":1742220607,"current_range_meters":12800,"station_id":"ce4bgup2rcd13ifvqcn0","pricing_plan_id":"cebpf4jnsgd1na2vs0mg"},{"bike_id":"eb7c2bfe-28aa-4d40-884d-376e9312bfc1","system_id":"levelo_inurba_marseille","lat":43.26205,"lon":5.37933,"is_reserved":false,"is_disabled":false,"rental_uris":{"android":"levelo://app?vid=eb7c2bfe-28aa-4d40-884d-376e9312bfc1","ios":"levelo://app?vid=eb7c2bfe-28aa-4d40-884d-376e9312bfc1"},"vehicle_type_id":"4","last_reported":1742220607,"current_range_meters":12800,"station_id":"ce4bhjp2rcd13ifvqg90","pricing_plan_id":"cebpf4jnsgd1na2vs0mg"},{"bike_id":"4a8f24c0-04db-4944-92c6-e5344e394e5a","system_id":"levelo_inurba_marseille","lat":43.25583,"lon":5.38231,"is_reserved":false,"is_disabled":false,"rental_uris":{"android":"levelo://app?vid=4a8f24c0-04db-4944-92c6-e5344e394e5a","ios":"levelo://app?vid=4a8f24c0-04db-4944-92c6-e5344e394e5a"},"vehicle_type_id":"4","last_reported":1742220607,"current_range_meters":12400,"station_id":"ce4bhih2rcd13ifvqfs0","pricing_plan_id":"cebpf4jnsgd1na2vs0mg"},{"bike_id":"06120ea7-2990-43e5-9eb1-dcd086d95c02","system_id":"levelo_inurba_marseille","lat":43.26556,"lon":5.37288,"is_reserved":false,"is_disabled":false,"rental_uris":{"android":"levelo://app?vid=06120ea7-2990-43e5-9eb1-dcd086d95c02","ios":"levelo://app?vid=06120ea7-2990-43e5-9eb1-dcd086d95c02"},"vehicle_type_id":"4","last_reported":1742220607,"current_range_meters":12800,"station_id":"ce4bhg12rcd13ifvqf70","pricing_plan_id":"cebpf4jnsgd1na2vs0mg"},{"bike_id":"3dcdcc67-3af4-4ae4-9b9a-b721d3f9d144","system_id":"levelo_inurba_marseille","lat":43.29026,"lon":5.38657,"is_reserved":false,"is_disabled":false,"rental_uris":{"android":"levelo://app?vid=3dcdcc67-3af4-4ae4-9b9a-b721d3f9d144","ios":"levelo://app?vid=3dcdcc67-3af4-4ae4-9b9a-b721d3f9d144"},"vehicle_type_id":"4","last_reported":1742220607,"current_range_meters":12800,"station_id":"ce4bh4p2rcd13ifvqe0g","pricing_plan_id":"cebpf4jnsgd1na2vs0mg"},{"bike_id":"66605c12-7747-43fb-bd66-de32f35cdd22","system_id":"levelo_inurba_marseille","lat":43.28615,"lon":5.35113,"is_reserved":false,"is_disabled":false,"rental_uris":{"android":"levelo://app?vid=66605c12-7747-43fb-bd66-de32f35cdd22","ios":"levelo://app?vid=66605c12-7747-43fb-bd66-de32f35cdd22"},"vehicle_type_id":"4","last_reported":1742220607,"current_range_meters":12800,"station_id":"ce4bhch2rcd13ifvqeug","pricing_plan_id":"cebpf4jnsgd1na2vs0mg"},{"bike_id":"42e35520-f310-4cc9-afe0-cc69621e6853","system_id":"levelo_inurba_marseille","lat":43.32366,"lon":5.38894,"is_reserved":false,"is_disabled":false,"rental_uris":{"android":"levelo://app?vid=42e35520-f310-4cc9-afe0-cc69621e6853","ios":"levelo://app?vid=42e35520-f310-4cc9-afe0-cc69621e6853"},"vehicle_type_id":"4","last_reported":1742220607,"current_range_meters":12800,"station_id":"ce4bhqp2rcd13ifvqhog","pricing_plan_id":"cebpf4jnsgd1na2vs0mg"},{"bike_id":"71af31b7-e627-4153-a944-d3fcf5c632f4","system_id":"levelo_inurba_marseille","lat":43.31489,"lon":5.37313,"is_reserved":false,"is_disabled":false,"rental_uris":{"android":"levelo://app?vid=71af31b7-e627-4153-a944-d3fcf5c632f4","ios":"levelo://app?vid=71af31b7-e627-4153-a944-d3fcf5c632f4"},"vehicle_type_id":"4","last_reported":1742220607,"current_range_meters":12800,"station_id":"ce4bgt12rcd13ifvqcd0","pricing_plan_id":"cebpf4jnsgd1na2vs0mg"},{"bike_id":"8fb1dafa-25d4-42fc-9f4f-073e6753e258","system_id":"levelo_inurba_marseille","lat":43.25492,"lon":5.37663,"is_reserved":false,"is_disabled":false,"rental_uris":{"android":"levelo://app?vid=8fb1dafa-25d4-42fc-9f4f-073e6753e258","ios":"levelo://app?vid=8fb1dafa-25d4-42fc-9f4f-073e6753e258"},"vehicle_type_id":"4","last_reported":1742220607,"current_range_meters":13600,"station_id":"ce4bhh12rcd13ifvqff0","pricing_plan_id":"cebpf4jnsgd1na2vs0mg"},{"bike_id":"f51e1d58-7538-45d5-8a00-7fbf5b7a1a53","system_id":"levelo_inurba_marseille","lat":43.26785,"lon":5.39418,"is_reserved":false,"is_disabled":false,"rental_uris":{"android":"levelo://app?vid=f51e1d58-7538-45d5-8a00-7fbf5b7a1a53","ios":"levelo://app?vid=f51e1d58-7538-45d5-8a00-7fbf5b7a1a53"},"vehicle_type_id":"4","last_reported":1742220607,"current_range_meters":13600,"station_id":"ce4bhh12rcd13ifvqfg0","pricing_plan_id":"cebpf4jnsgd1na2vs0mg"},{"bike_id":"b3e1f888-5c2d-4b56-9eff-49a093abce00","system_id":"levelo_inurba_marseille","lat":43.30469,"lon":5.37914,"is_reserved":false,"is_disabled":false,"rental_uris":{"android":"levelo://app?vid=b3e1f888-5c2d-4b56-9eff-49a093abce00","ios":"levelo://app?vid=b3e1f888-5c2d-4b56-9eff-49a093abce00"},"vehicle_type_id":"4","last_reported":1742220607,"current_range_meters":13600,"station_id":"ce4bgup2rcd13ifvqcn0","pricing_plan_id":"cebpf4jnsgd1na2vs0mg"},{"bike_id":"568bb5b9-83ec-4eec-9173-aa96cd93f53f","system_id":"levelo_inurba_marseille","lat":43.27215,"lon":5.39184,"is_reserved":false,"is_disabled":false,"rental_uris":{"android":"levelo://app?vid=568bb5b9-83ec-4eec-9173-aa96cd93f53f","ios":"levelo://app?vid=568bb5b9-83ec-4eec-9173-aa96cd93f53f"},"vehicle_type_id":"4","last_reported":1742220607,"current_range_meters":13600,"station_id":"ce4bhhp2rcd13ifvqfm0","pricing_plan_id":"cebpf4jnsgd1na2vs0mg"},{"bike_id":"1edc64bb-8aeb-4fd6-9973-43962b711332","system_id":"levelo_inurba_marseille","lat":43.28462,"lon":5.35895,"is_reserved":false,"is_disabled":false,"rental_uris":{"android":"levelo://app?vid=1edc64bb-8aeb-4fd6-9973-43962b711332","ios":"levelo://app?vid=1edc64bb-8aeb-4fd6-9973-43962b711332"},"vehicle_type_id":"4","last_reported":1742220607,"current_range_meters":13600,"station_id":"ce4bhah2rcd13ifvqei0","pricing_plan_id":"cebpf4jnsgd1na2vs0mg"},{"bike_id":"09be20b3-ccfa-43d5-8616-036d82fe33a0","system_id":"levelo_inurba_marseille","lat":43.24999,"lon":5.38939,"is_reserved":false,"is_disabled":false,"rental_uris":{"android":"levelo://app?vid=09be20b3-ccfa-43d5-8616-036d82fe33a0","ios":"levelo://app?vid=09be20b3-ccfa-43d5-8616-036d82fe33a0"},"vehicle_type_id":"4","last_reported":1742220607,"current_range_meters":13600,"station_id":"ce4bhgp2rcd13ifvqfd0","pricing_plan_id":"cebpf4jnsgd1na2vs0mg"},{"bike_id":"cb151f2f-c8d4-493c-8040-3bc4d320acac","system_id":"levelo_inurba_marseille","lat":43.30792,"lon":5.38153,"is_reserved":false,"is_disabled":true,"rental_uris":{"android":"levelo://app?vid=cb151f2f-c8d4-493c-8040-3bc4d320acac","ios":"levelo://app?vid=cb151f2f-c8d4-493c-8040-3bc4d320acac"},"vehicle_type_id":"4","last_reported":1742220607,"current_range_meters":14000,"station_id":"ce4bgt12rcd13ifvqce0","pricing_plan_id":"cebpf4jnsgd1na2vs0mg"},{"bike_id":"3af385d1-ed7e-4da2-992d-bbbbe658eef2","system_id":"levelo_inurba_marseille","lat":43.24809,"lon":5.37461,"is_reserved":false,"is_disabled":false,"rental_uris":{"android":"levelo://app?vid=3af385d1-ed7e-4da2-992d-bbbbe658eef2","ios":"levelo://app?vid=3af385d1-ed7e-4da2-992d-bbbbe658eef2"},"vehicle_type_id":"4","last_reported":1742220607,"current_range_meters":13600,"station_id":"ce4bhgh2rcd13ifvqfb0","pricing_plan_id":"cebpf4jnsgd1na2vs0mg"},{"bike_id":"46e9cbe0-4bec-4368-889b-87912b57c2b1","system_id":"levelo_inurba_marseille","lat":43.26027,"lon":5.41752,"is_reserved":false,"is_disabled":false,"rental_uris":{"android":"levelo://app?vid=46e9cbe0-4bec-4368-889b-87912b57c2b1","ios":"levelo://app?vid=46e9cbe0-4bec-4368-889b-87912b57c2b1"},"vehicle_type_id":"4","last_reported":1742220607,"current_range_meters":14000,"station_id":"","pricing_plan_id":"cebpf4jnsgd1na2vs0mg"},{"bike_id":"28122982-c6ac-4bea-b91f-81b8b2e431fa","system_id":"levelo_inurba_marseille","lat":43.26559,"lon":5.37292,"is_reserved":false,"is_disabled":false,"rental_uris":{"android":"levelo://app?vid=28122982-c6ac-4bea-b91f-81b8b2e431fa","ios":"levelo://app?vid=28122982-c6ac-4bea-b91f-81b8b2e431fa"},"vehicle_type_id":"4","last_reported":1742220607,"current_range_meters":14000,"station_id":"ce4bhg12rcd13ifvqf70","pricing_plan_id":"cebpf4jnsgd1na2vs0mg"},{"bike_id":"0c392af2-3b85-4cda-8bc5-5b4df1b4ffa7","system_id":"levelo_inurba_marseille","lat":43.25925,"lon":5.40906,"is_reserved":false,"is_disabled":false,"rental_uris":{"android":"levelo://app?vid=0c392af2-3b85-4cda-8bc5-5b4df1b4ffa7","ios":"levelo://app?vid=0c392af2-3b85-4cda-8bc5-5b4df1b4ffa7"},"vehicle_type_id":"4","last_reported":1742220607,"current_range_meters":14000,"station_id":"ce4bhm92rcd13ifvqglg","pricing_plan_id":"cebpf4jnsgd1na2vs0mg"},{"bike_id":"6f071564-9f0d-447d-8acb-257610cbca27","system_id":"levelo_inurba_marseille","lat":43.23165,"lon":5.43677,"is_reserved":false,"is_disabled":false,"rental_uris":{"android":"levelo://app?vid=6f071564-9f0d-447d-8acb-257610cbca27","ios":"levelo://app?vid=6f071564-9f0d-447d-8acb-257610cbca27"},"vehicle_type_id":"4","last_reported":1742220607,"current_range_meters":14000,"station_id":"ce4bhmp2rcd13ifvqgog","pricing_plan_id":"cebpf4jnsgd1na2vs0mg"},{"bike_id":"b53f170c-3af0-4269-83b6-8b209cc22157","system_id":"levelo_inurba_marseille","lat":43.25925,"lon":5.40912,"is_reserved":false,"is_disabled":false,"rental_uris":{"android":"levelo://app?vid=b53f170c-3af0-4269-83b6-8b209cc22157","ios":"levelo://app?vid=b53f170c-3af0-4269-83b6-8b209cc22157"},"vehicle_type_id":"4","last_reported":1742220607,"current_range_meters":14400,"station_id":"ce4bhm92rcd13ifvqglg","pricing_plan_id":"cebpf4jnsgd1na2vs0mg"},{"bike_id":"62237dfe-a0a6-4392-85b7-2a42b2e7727c","system_id":"levelo_inurba_marseille","lat":43.30543,"lon":5.36539,"is_reserved":false,"is_disabled":false,"rental_uris":{"android":"levelo://app?vid=62237dfe-a0a6-4392-85b7-2a42b2e7727c","ios":"levelo://app?vid=62237dfe-a0a6-4392-85b7-2a42b2e7727c"},"vehicle_type_id":"4","last_reported":1742220607,"current_range_meters":14400,"station_id":"ce4bgs12rcd13ifvqcag","pricing_plan_id":"cebpf4jnsgd1na2vs0mg"},{"bike_id":"e2c667b5-8091-44d7-8f15-92e0e26ae2f0","system_id":"levelo_inurba_marseille","lat":43.29203,"lon":5.39317,"is_reserved":false,"is_disabled":false,"rental_uris":{"android":"levelo://app?vid=e2c667b5-8091-44d7-8f15-92e0e26ae2f0","ios":"levelo://app?vid=e2c667b5-8091-44d7-8f15-92e0e26ae2f0"},"vehicle_type_id":"4","last_reported":1742220607,"current_range_meters":14800,"station_id":"ce4bh192rcd13ifvqdd0","pricing_plan_id":"cebpf4jnsgd1na2vs0mg"},{"bike_id":"f990b4f4-c974-46b4-86e0-5c37abf370ed","system_id":"levelo_inurba_marseille","lat":43.29005,"lon":5.35609,"is_reserved":false,"is_disabled":false,"rental_uris":{"android":"levelo://app?vid=f990b4f4-c974-46b4-86e0-5c37abf370ed","ios":"levelo://app?vid=f990b4f4-c974-46b4-86e0-5c37abf370ed"},"vehicle_type_id":"4","last_reported":1742220607,"current_range_meters":14800,"station_id":"ce4bhb92rcd13ifvqen0","pricing_plan_id":"cebpf4jnsgd1na2vs0mg"},{"bike_id":"af7a461c-7755-49dc-9298-e66638ef5045","system_id":"levelo_inurba_marseille","lat":43.24549,"lon":5.3952,"is_reserved":false,"is_disabled":false,"rental_uris":{"android":"levelo://app?vid=af7a461c-7755-49dc-9298-e66638ef5045","ios":"levelo://app?vid=af7a461c-7755-49dc-9298-e66638ef5045"},"vehicle_type_id":"4","last_reported":1742220607,"current_range_meters":16000,"station_id":"ce4bhlp2rcd13ifvqgjg","pricing_plan_id":"cebpf4jnsgd1na2vs0mg"},{"bike_id":"081b12ae-51a1-40c0-880c-cbd4fa15850a","system_id":"levelo_inurba_marseille","lat":43.26216,"lon":5.3745,"is_reserved":false,"is_disabled":false,"rental_uris":{"android":"levelo://app?vid=081b12ae-51a1-40c0-880c-cbd4fa15850a","ios":"levelo://app?vid=081b12ae-51a1-40c0-880c-cbd4fa15850a"},"vehicle_type_id":"4","last_reported":1742220607,"current_range_meters":14800,"station_id":"ce4bhgp2rcd13ifvqfc0","pricing_plan_id":"cebpf4jnsgd1na2vs0mg"},{"bike_id":"0847824c-80ca-4f87-ab04-9339f7f73107","system_id":"levelo_inurba_marseille","lat":43.28474,"lon":5.38432,"is_reserved":false,"is_disabled":false,"rental_uris":{"android":"levelo://app?vid=0847824c-80ca-4f87-ab04-9339f7f73107","ios":"levelo://app?vid=0847824c-80ca-4f87-ab04-9339f7f73107"},"vehicle_type_id":"4","last_reported":1742220607,"current_range_meters":14800,"station_id":"ce4bh512rcd13ifvqe3g","pricing_plan_id":"cebpf4jnsgd1na2vs0mg"},{"bike_id":"6d72b2ae-e69d-45cf-8485-77eb40fead5b","system_id":"levelo_inurba_marseille","lat":43.28162,"lon":5.42666,"is_reserved":false,"is_disabled":false,"rental_uris":{"android":"levelo://app?vid=6d72b2ae-e69d-45cf-8485-77eb40fead5b","ios":"levelo://app?vid=6d72b2ae-e69d-45cf-8485-77eb40fead5b"},"vehicle_type_id":"4","last_reported":1742220607,"current_range_meters":14800,"station_id":"ce4bhnh2rcd13ifvqgug","pricing_plan_id":"cebpf4jnsgd1na2vs0mg"},{"bike_id":"67d3102b-c6e8-4de1-ad4d-8c59c3584187","system_id":"levelo_inurba_marseille","lat":43.32538,"lon":5.41475,"is_reserved":false,"is_disabled":false,"rental_uris":{"android":"levelo://app?vid=67d3102b-c6e8-4de1-ad4d-8c59c3584187","ios":"levelo://app?vid=67d3102b-c6e8-4de1-ad4d-8c59c3584187"},"vehicle_type_id":"4","last_reported":1742220607,"current_range_meters":14800,"station_id":"ce4bhq12rcd13ifvqhhg","pricing_plan_id":"cebpf4jnsgd1na2vs0mg"},{"bike_id":"39d2df96-c36f-4593-8a68-432fe8c8d072","system_id":"levelo_inurba_marseille","lat":43.29891,"lon":5.43653,"is_reserved":false,"is_disabled":false,"rental_uris":{"android":"levelo://app?vid=39d2df96-c36f-4593-8a68-432fe8c8d072","ios":"levelo://app?vid=39d2df96-c36f-4593-8a68-432fe8c8d072"},"vehicle_type_id":"4","last_reported":1742220607,"current_range_meters":15200,"station_id":"ce4bhpp2rcd13ifvqhfg","pricing_plan_id":"cebpf4jnsgd1na2vs0mg"},{"bike_id":"07eb5154-e428-4fa3-9a16-a63f8d7bfe29","system_id":"levelo_inurba_marseille","lat":43.30886,"lon":5.37191,"is_reserved":false,"is_disabled":false,"rental_uris":{"android":"levelo://app?vid=07eb5154-e428-4fa3-9a16-a63f8d7bfe29","ios":"levelo://app?vid=07eb5154-e428-4fa3-9a16-a63f8d7bfe29"},"vehicle_type_id":"4","last_reported":1742220607,"current_range_meters":15200,"station_id":"ce4bguh2rcd13ifvqckg","pricing_plan_id":"cebpf4jnsgd1na2vs0mg"},{"bike_id":"c25102eb-e6c6-4717-87f0-f604207dc31d","system_id":"levelo_inurba_marseille","lat":43.28265,"lon":5.35074,"is_reserved":false,"is_disabled":false,"rental_uris":{"android":"levelo://app?vid=c25102eb-e6c6-4717-87f0-f604207dc31d","ios":"levelo://app?vid=c25102eb-e6c6-4717-87f0-f604207dc31d"},"vehicle_type_id":"4","last_reported":1742220607,"current_range_meters":15200,"station_id":"ce4bhbp2rcd13ifvqerg","pricing_plan_id":"cebpf4jnsgd1na2vs0mg"},{"bike_id":"522f99cb-f105-4bf1-8b05-dccec75ba908","system_id":"levelo_inurba_marseille","lat":43.302756,"lon":5.37683,"is_reserved":false,"is_disabled":false,"rental_uris":{"android":"levelo://app?vid=522f99cb-f105-4bf1-8b05-dccec75ba908","ios":"levelo://app?vid=522f99cb-f105-4bf1-8b05-dccec75ba908"},