{"last_updated":1740276968,"ttl":60,"version":"2.2","data":{"bikes":[{"bike_id":"f2e5b7dc-4ecb-4a89-afcd-161b852d64a0","system_id":"levelo_inurba_marseille","lat":43.29572,"lon":5.39957,"is_reserved":false,"is_disabled":true,"rental_uris":{"android":"levelo://app?vid=f2e5b7dc-4ecb-4a89-afcd-161b852d64a0","ios":"levelo://app?vid=f2e5b7dc-4ecb-4a89-afcd-161b852d64a0"},"vehicle_type_id":"4","last_reported":1740276969,"current_range_meters":2800,"station_id":"ce4bh312rcd13ifvqdj0","pricing_plan_id":"cebpf4jnsgd1na2vs0mg"},{"bike_id":"7513a470-27ae-4803-984c-3d01857f3acd","system_id":"levelo_inurba_marseille","lat":43.30817,"lon":5.37298,"is_reserved":false,"is_disabled":false,"rental_uris":{"android":"levelo://app?vid=7513a470-27ae-4803-984c-3d01857f3acd","ios":"levelo://app?vid=7513a470-27ae-4803-984c-3d01857f3acd"},"vehicle_type_id":"4","last_reported":1740276969,"current_range_meters":2800,"station_id":"","pricing_plan_id":"cebpf4jnsgd1na2vs0mg"},{"bike_id":"e06a5e51-884b-4021-a6aa-38076e5c4adf","system_id":"levelo_inurba_marseille","lat":43.29261,"lon":5.37622,"is_reserved":false,"is_disabled":true,"rental_uris":{"android":"levelo://app?vid=e06a5e51-884b-4021-a6aa-38076e5c4adf","ios":"levelo://app?vid=e06a5e51-884b-4021-a6aa-38076e5c4adf"},"vehicle_type_id":"4","last_reported":1740276969,"current_range_meters":2800,"station_id":"ce4bgi12rcd13ifvqb80","pricing_plan_id":"cebpf4jnsgd1na2vs0mg"},{"bike_id":"6acd43dc-c210-4b1d-813e-6cc10f99bc5d","system_id":"levelo_inurba_marseille","lat":43.2998,"lon":5.38498,"is_reserved":false,"is_disabled":false,"rental_uris":{"android":"levelo://app?vid=6acd43dc-c210-4b1d-813e-6cc10f99bc5d","ios":"levelo://app?vid=6acd43dc-c210-4b1d-813e-6cc10f99bc5d"},"vehicle_type_id":"4","last_reported":1740276969,"current_range_meters":2800,"station_id":"ce4bgj92rcd13ifvqbd0","pricing_plan_id":"cebpf4jnsgd1na2vs0mg"},{"bike_id":"c88db752-a503-4091-9b54-3394b97545f9","system_id":"levelo_inurba_marseille","lat":43.25507,"lon":5.37652,"is_reserved":false,"is_disabled":false,"rental_uris":{"android":"levelo://app?vid=c88db752-a503-4091-9b54-3394b97545f9","ios":"levelo://app?vid=c88db752-a503-4091-9b54-3394b97545f9"},"vehicle_type_id":"4","last_reported":1740276969,"current_range_meters":3200,"station_id":"ce4bhh12rcd13ifvqff0","pricing_plan_id":"cebpf4jnsgd1na2vs0mg"},{"bike_id":"cb533fa1-27a0-45e8-865a-273bc58d3884","system_id":"levelo_inurba_marseille","lat":43.26568,"lon":5.38995,"is_reserved":false,"is_disabled":true,"rental_uris":{"android":"levelo://app?vid=cb533fa1-27a0-45e8-865a-273bc58d3884","ios":"levelo://app?vid=cb533fa1-27a0-45e8-865a-273bc58d3884"},"vehicle_type_id":"4","last_reported":1740276969,"current_range_meters":3600,"station_id":"ce4bhe12rcd13ifvqf30","pricing_plan_id":"cebpf4jnsgd1na2vs0mg"},{"bike_id":"9efbd46b-03ae-4719-ad26-099118679150","system_id":"levelo_inurba_marseille","lat":43.29278,"lon":5.40122,"is_reserved":false,"is_disabled":false,"rental_uris":{"android":"levelo://app?vid=9efbd46b-03ae-4719-ad26-099118679150","ios":"levelo://app?vid=9efbd46b-03ae-4719-ad26-099118679150"},"vehicle_type_id":"4","last_reported":1740276969,"current_range_meters":4000,"station_id":"ce4bh312rcd13ifvqdk0","pricing_plan_id":"cebpf4jnsgd1na2vs0mg"},{"bike_id":"43594bf6-f3dc-4b5b-9661-ddab55ea24a4","system_id":"levelo_inurba_marseille","lat":43.3087,"lon":5.39616,"is_reserved":false,"is_disabled":false,"rental_uris":{"android":"levelo://app?vid=43594bf6-f3dc-4b5b-9661-ddab55ea24a4","ios":"levelo://app?vid=43594bf6-f3dc-4b5b-9661-ddab55ea24a4"},"vehicle_type_id":"4","last_reported":1740276969,"current_range_meters":4000,"station_id":"ce4bh012rcd13ifvqcv0","pricing_plan_id":"cebpf4jnsgd1na2vs0mg"},{"bike_id":"3a71f37b-bd22-4cdb-afae-0249794860e0","system_id":"levelo_inurba_marseille","lat":43.30146,"lon":5.39845,"is_reserved":false,"is_disabled":false,"rental_uris":{"android":"levelo://app?vid=3a71f37b-bd22-4cdb-afae-0249794860e0","ios":"levelo://app?vid=3a71f37b-bd22-4cdb-afae-0249794860e0"},"vehicle_type_id":"4","last_reported":1740276969,"current_range_meters":4000,"station_id":"ce4bh0h2rcd13ifvqd40","pricing_plan_id":"cebpf4jnsgd1na2vs0mg"},{"bike_id":"5f7bcbfe-7062-434c-8ba2-e296e063a8c4","system_id":"levelo_inurba_marseille","lat":43.24474,"lon":5.38012,"is_reserved":false,"is_disabled":false,"rental_uris":{"android":"levelo://app?vid=5f7bcbfe-7062-434c-8ba2-e296e063a8c4","ios":"levelo://app?vid=5f7bcbfe-7062-434c-8ba2-e296e063a8c4"},"vehicle_type_id":"4","last_reported":1740276969,"current_range_meters":4400,"station_id":"","pricing_plan_id":"cebpf4jnsgd1na2vs0mg"},{"bike_id":"54392dcf-9098-4ade-a5f9-07d42853ec29","system_id":"levelo_inurba_marseille","lat":43.239625,"lon":5.366392,"is_reserved":false,"is_disabled":false,"rental_uris":{"android":"levelo://app?vid=54392dcf-9098-4ade-a5f9-07d42853ec29","ios":"levelo://app?vid=54392dcf-9098-4ade-a5f9-07d42853ec29"},"vehicle_type_id":"4","last_reported":1740276969,"current_range_meters":4400,"station_id":"ce4bhi12rcd13ifvqfp0","pricing_plan_id":"cebpf4jnsgd1na2vs0mg"},{"bike_id":"3ce87a43-6bcd-41b8-ad1a-d4975b8e14de","system_id":"levelo_inurba_marseille","lat":43.29555,"lon":5.42287,"is_reserved":false,"is_disabled":false,"rental_uris":{"android":"levelo://app?vid=3ce87a43-6bcd-41b8-ad1a-d4975b8e14de","ios":"levelo://app?vid=3ce87a43-6bcd-41b8-ad1a-d4975b8e14de"},"vehicle_type_id":"4","last_reported":1740276969,"current_range_meters":4800,"station_id":"ce4bhph2rcd13ifvqhdg","pricing_plan_id":"cebpf4jnsgd1na2vs0mg"},{"bike_id":"e830549e-a3d2-4e74-b9cf-804b79951dc9","system_id":"levelo_inurba_marseille","lat":43.24182,"lon":5.39731,"is_reserved":false,"is_disabled":false,"rental_uris":{"android":"levelo://app?vid=e830549e-a3d2-4e74-b9cf-804b79951dc9","ios":"levelo://app?vid=e830549e-a3d2-4e74-b9cf-804b79951dc9"},"vehicle_type_id":"4","last_reported":1740276969,"current_range_meters":5600,"station_id":"ce4bhn12rcd13ifvqgpg","pricing_plan_id":"cebpf4jnsgd1na2vs0mg"},{"bike_id":"a0447dae-67a2-46ec-b2e4-f8ca0b97acd7","system_id":"levelo_inurba_marseille","lat":43.29638,"lon":5.40578,"is_reserved":false,"is_disabled":false,"rental_uris":{"android":"levelo://app?vid=a0447dae-67a2-46ec-b2e4-f8ca0b97acd7","ios":"levelo://app?vid=a0447dae-67a2-46ec-b2e4-f8ca0b97acd7"},"vehicle_type_id":"4","last_reported":1740276969,"current_range_meters":6000,"station_id":"ce4bh0h2rcd13ifvqd60","pricing_plan_id":"cebpf4jnsgd1na2vs0mg"},{"bike_id":"551296f6-9c25-41a0-8804-ba4f656ebdc2","system_id":"levelo_inurba_marseille","lat":43.23183,"lon":5.39991,"is_reserved":false,"is_disabled":false,"rental_uris":{"android":"levelo://app?vid=551296f6-9c25-41a0-8804-ba4f656ebdc2","ios":"levelo://app?vid=551296f6-9c25-41a0-8804-ba4f656ebdc2"},"vehicle_type_id":"4","last_reported":1740276969,"current_range_meters":6000,"station_id":"ce4bhn12rcd13ifvqgqg","pricing_plan_id":"cebpf4jnsgd1na2vs0mg"},{"bike_id":"241008e9-c8f3-48c9-ba68-53214d34be88","system_id":"levelo_inurba_marseille","lat":43.231855,"lon":5.399907,"is_reserved":false,"is_disabled":false,"rental_uris":{"android":"levelo://app?vid=241008e9-c8f3-48c9-ba68-53214d34be88","ios":"levelo://app?vid=241008e9-c8f3-48c9-ba68-53214d34be88"},"vehicle_type_id":"4","last_reported":1740276969,"current_range_meters":6000,"station_id":"ce4bhn12rcd13ifvqgqg","pricing_plan_id":"cebpf4jnsgd1na2vs0mg"},{"bike_id":"5056e46a-c66c-439d-8595-87ac2b262ecb","system_id":"levelo_inurba_marseille","lat":43.23154,"lon":5.43708,"is_reserved":false,"is_disabled":false,"rental_uris":{"android":"levelo://app?vid=5056e46a-c66c-439d-8595-87ac2b262ecb","ios":"levelo://app?vid=5056e46a-c66c-439d-8595-87ac2b262ecb"},"vehicle_type_id":"4","last_reported":1740276969,"current_range_meters":6000,"station_id":"ce4bhmp2rcd13ifvqgog","pricing_plan_id":"cebpf4jnsgd1na2vs0mg"},{"bike_id":"a7787bdf-f967-4ec4-a4a5-aaabd53b1877","system_id":"levelo_inurba_marseille","lat":43.26189,"lon":5.42075,"is_reserved":false,"is_disabled":false,"rental_uris":{"android":"levelo://app?vid=a7787bdf-f967-4ec4-a4a5-aaabd53b1877","ios":"levelo://app?vid=a7787bdf-f967-4ec4-a4a5-aaabd53b1877"},"vehicle_type_id":"4","last_reported":1740276969,"current_range_meters":6000,"station_id":"","pricing_plan_id":"cebpf4jnsgd1na2vs0mg"},{"bike_id":"e260edc9-94c2-49ca-89b2-378a3b2e09df","system_id":"levelo_inurba_marseille","lat":43.26514,"lon":5.37336,"is_reserved":false,"is_disabled":false,"rental_uris":{"android":"levelo://app?vid=e260edc9-94c2-49ca-89b2-378a3b2e09df","ios":"levelo://app?vid=e260edc9-94c2-49ca-89b2-378a3b2e09df"},"vehicle_type_id":"4","last_reported":1740276969,"current_range_meters":6400,"station_id":"ce4bhg12rcd13ifvqf70","pricing_plan_id":"cebpf4jnsgd1na2vs0mg"},{"bike_id":"c3162490-3949-451a-9874-eb988aee2a7d","system_id":"levelo_inurba_marseille","lat":43.33611,"lon":5.40992,"is_reserved":false,"is_disabled":false,"rental_uris":{"android":"levelo://app?vid=c3162490-3949-451a-9874-eb988aee2a7d","ios":"levelo://app?vid=c3162490-3949-451a-9874-eb988aee2a7d"},"vehicle_type_id":"4","last_reported":1740276969,"current_range_meters":6400,"station_id":"ce4bhqh2rcd13ifvqhmg","pricing_plan_id":"cebpf4jnsgd1na2vs0mg"},{"bike_id":"c3c30985-02be-4a13-90af-d702f6922290","system_id":"levelo_inurba_marseille","lat":43.2396,"lon":5.36632,"is_reserved":false,"is_disabled":false,"rental_uris":{"android":"levelo://app?vid=c3c30985-02be-4a13-90af-d702f6922290","ios":"levelo://app?vid=c3c30985-02be-4a13-90af-d702f6922290"},"vehicle_type_id":"4","last_reported":1740276969,"current_range_meters":6400,"station_id":"ce4bhi12rcd13ifvqfp0","pricing_plan_id":"cebpf4jnsgd1na2vs0mg"},{"bike_id":"91cd9c50-a708-4ca7-8c38-9684716b8855","system_id":"levelo_inurba_marseille","lat":43.33769,"lon":5.37426,"is_reserved":false,"is_disabled":false,"rental_uris":{"android":"levelo://app?vid=91cd9c50-a708-4ca7-8c38-9684716b8855","ios":"levelo://app?vid=91cd9c50-a708-4ca7-8c38-9684716b8855"},"vehicle_type_id":"4","last_reported":1740276969,"current_range_meters":6400,"station_id":"","pricing_plan_id":"cebpf4jnsgd1na2vs0mg"},{"bike_id":"fa83beb1-2405-4db0-9826-c091cb751783","system_id":"levelo_inurba_marseille","lat":43.25106,"lon":5.40331,"is_reserved":false,"is_disabled":true,"rental_uris":{"android":"levelo://app?vid=fa83beb1-2405-4db0-9826-c091cb751783","ios":"levelo://app?vid=fa83beb1-2405-4db0-9826-c091cb751783"},"vehicle_type_id":"4","last_reported":1740276969,"current_range_meters":6400,"station_id":"ce4bhlh2rcd13ifvqgig","pricing_plan_id":"cebpf4jnsgd1na2vs0mg"},{"bike_id":"3c67cc1a-74e7-4eac-a66c-b18cf35850c0","system_id":"levelo_inurba_marseille","lat":43.25865,"lon":5.39899,"is_reserved":false,"is_disabled":false,"rental_uris":{"android":"levelo://app?vid=3c67cc1a-74e7-4eac-a66c-b18cf35850c0","ios":"levelo://app?vid=3c67cc1a-74e7-4eac-a66c-b18cf35850c0"},"vehicle_type_id":"4","last_reported":1740276969,"current_range_meters":6400,"station_id":"ce4bhl92rcd13ifvqghg","pricing_plan_id":"cebpf4jnsgd1na2vs0mg"},{"bike_id":"b451e9e8-6b74-469a-bf29-40374926f13d","system_id":"levelo_inurba_marseille","lat":43.28695,"lon":5.37379,"is_reserved":false,"is_disabled":false,"rental_uris":{"android":"levelo://app?vid=b451e9e8-6b74-469a-bf29-40374926f13d","ios":"levelo://app?vid=b451e9e8-6b74-469a-bf29-40374926f13d"},"vehicle_type_id":"4","last_reported":1740276969,"current_range_meters":6800,"station_id":"ce4bh3p2rcd13ifvqdq0","pricing_plan_id":"cebpf4jnsgd1na2vs0mg"},{"bike_id":"700f5425-d83c-4f39-b716-2e9ae3592d01","system_id":"levelo_inurba_marseille","lat":43.29542,"lon":5.42263,"is_reserved":false,"is_disabled":false,"rental_uris":{"android":"levelo://app?vid=700f5425-d83c-4f39-b716-2e9ae3592d01","ios":"levelo://app?vid=700f5425-d83c-4f39-b716-2e9ae3592d01"},"vehicle_type_id":"4","last_reported":1740276969,"current_range_meters":6800,"station_id":"ce4bhph2rcd13ifvqhdg","pricing_plan_id":"cebpf4jnsgd1na2vs0mg"},{"bike_id":"f126b5c1-ac6b-428c-b324-5fd5bdcc9c61","system_id":"levelo_inurba_marseille","lat":43.28691,"lon":5.3995,"is_reserved":false,"is_disabled":false,"rental_uris":{"android":"levelo://app?vid=f126b5c1-ac6b-428c-b324-5fd5bdcc9c61","ios":"levelo://app?vid=f126b5c1-ac6b-428c-b324-5fd5bdcc9c61"},"vehicle_type_id":"4","last_reported":1740276969,"current_range_meters":6800,"station_id":"ce4bho92rcd13ifvqh3g","pricing_plan_id":"cebpf4jnsgd1na2vs0mg"},{"bike_id":"aa1d7723-b0b3-4df2-ae47-21d0329d4073","system_id":"levelo_inurba_marseille","lat":43.24073,"lon":5.37762,"is_reserved":false,"is_disabled":false,"rental_uris":{"android":"levelo://app?vid=aa1d7723-b0b3-4df2-ae47-21d0329d4073","ios":"levelo://app?vid=aa1d7723-b0b3-4df2-ae47-21d0329d4073"},"vehicle_type_id":"4","last_reported":1740276969,"current_range_meters":6800,"station_id":"ce4bhnp2rcd13ifvqgvg","pricing_plan_id":"cebpf4jnsgd1na2vs0mg"},{"bike_id":"86303d63-4d1b-4024-9402-c1e856b883e9","system_id":"levelo_inurba_marseille","lat":43.30593,"lon":5.39344,"is_reserved":false,"is_disabled":false,"rental_uris":{"android":"levelo://app?vid=86303d63-4d1b-4024-9402-c1e856b883e9","ios":"levelo://app?vid=86303d63-4d1b-4024-9402-c1e856b883e9"},"vehicle_type_id":"4","last_reported":1740276969,"current_range_meters":6800,"station_id":"ce4bh0p2rcd13ifvqd80","pricing_plan_id":"cebpf4jnsgd1na2vs0mg"},{"bike_id":"ab46b189-6bae-4129-a7fd-10b3ccd5a48e","system_id":"levelo_inurba_marseille","lat":43.272011,"lon":5.400066,"is_reserved":false,"is_disabled":false,"rental_uris":{"android":"levelo://app?vid=ab46b189-6bae-4129-a7fd-10b3ccd5a48e","ios":"levelo://app?vid=ab46b189-6bae-4129-a7fd-10b3ccd5a48e"},"vehicle_type_id":"4","last_reported":1740276969,"current_range_meters":6800,"station_id":"","pricing_plan_id":"cebpf4jnsgd1na2vs0mg"},{"bike_id":"91817d94-291a-47c9-91fa-831208abfdc7","system_id":"levelo_inurba_marseille","lat":43.2307,"lon":5.35493,"is_reserved":false,"is_disabled":false,"rental_uris":{"android":"levelo://app?vid=91817d94-291a-47c9-91fa-831208abfdc7","ios":"levelo://app?vid=91817d94-291a-47c9-91fa-831208abfdc7"},"vehicle_type_id":"4","last_reported":1740276969,"current_range_meters":6800,"station_id":"cpo3342slgdg3j2ifvpg","pricing_plan_id":"cebpf4jnsgd1na2vs0mg"},{"bike_id":"df3e86cb-ab3f-42d7-abef-aec5ae629ddf","system_id":"levelo_inurba_marseille","lat":43.25583,"lon":5.38223,"is_reserved":false,"is_disabled":false,"rental_uris":{"android":"levelo://app?vid=df3e86cb-ab3f-42d7-abef-aec5ae629ddf","ios":"levelo://app?vid=df3e86cb-ab3f-42d7-abef-aec5ae629ddf"},"vehicle_type_id":"4","last_reported":1740276969,"current_range_meters":6800,"station_id":"ce4bhih2rcd13ifvqfs0","pricing_plan_id":"cebpf4jnsgd1na2vs0mg"},{"bike_id":"a760c25b-8a2d-434b-8cd7-4ec1f7db14f8","system_id":"levelo_inurba_marseille","lat":43.28602,"lon":5.37061,"is_reserved":false,"is_disabled":false,"rental_uris":{"android":"levelo://app?vid=a760c25b-8a2d-434b-8cd7-4ec1f7db14f8","ios":"levelo://app?vid=a760c25b-8a2d-434b-8cd7-4ec1f7db14f8"},"vehicle_type_id":"4","last_reported":1740276969,"current_range_meters":6800,"station_id":"ce4bht12rcd13ifvqi60","pricing_plan_id":"cebpf4jnsgd1na2vs0mg"},{"bike_id":"f080cb1f-4034-4a4a-a885-e96d071e2498","system_id":"levelo_inurba_marseille","lat":43.26555,"lon":5.37295,"is_reserved":false,"is_disabled":false,"rental_uris":{"android":"levelo://app?vid=f080cb1f-4034-4a4a-a885-e96d071e2498","ios":"levelo://app?vid=f080cb1f-4034-4a4a-a885-e96d071e2498"},"vehicle_type_id":"4","last_reported":1740276969,"current_range_meters":6800,"station_id":"ce4bhg12rcd13ifvqf70","pricing_plan_id":"cebpf4jnsgd1na2vs0mg"},{"bike_id":"6df70355-73df-49e5-bb6c-2ffe1455e6ef","system_id":"levelo_inurba_marseille","lat":43.29267,"lon":5.40103,"is_reserved":false,"is_disabled":false,"rental_uris":{"android":"levelo://app?vid=6df70355-73df-49e5-bb6c-2ffe1455e6ef","ios":"levelo://app?vid=6df70355-73df-49e5-bb6c-2ffe1455e6ef"},"vehicle_type_id":"4","last_reported":1740276969,"current_range_meters":7200,"station_id":"ce4bh312rcd13ifvqdk0","pricing_plan_id":"cebpf4jnsgd1na2vs0mg"},{"bike_id":"c28b88a6-4142-4efa-946c-e35f3eacfbab","system_id":"levelo_inurba_marseille","lat":43.28614,"lon":5.37072,"is_reserved":false,"is_disabled":false,"rental_uris":{"android":"levelo://app?vid=c28b88a6-4142-4efa-946c-e35f3eacfbab","ios":"levelo://app?vid=c28b88a6-4142-4efa-946c-e35f3eacfbab"},"vehicle_type_id":"4","last_reported":1740276969,"current_range_meters":7200,"station_id":"ce4bht12rcd13ifvqi60","pricing_plan_id":"cebpf4jnsgd1na2vs0mg"},{"bike_id":"098ba318-f0ee-4c81-991e-ba2f5a0cbad4","system_id":"levelo_inurba_marseille","lat":43.27616,"lon":5.36116,"is_reserved":false,"is_disabled":false,"rental_uris":{"android":"levelo://app?vid=098ba318-f0ee-4c81-991e-ba2f5a0cbad4","ios":"levelo://app?vid=098ba318-f0ee-4c81-991e-ba2f5a0cbad4"},"vehicle_type_id":"4","last_reported":1740276969,"current_range_meters":7200,"station_id":"ce4bgj92rcd13ifvqbe0","pricing_plan_id":"cebpf4jnsgd1na2vs0mg"},{"bike_id":"c1ac8ae7-25e2-4da8-8454-419cca3d04d4","system_id":"levelo_inurba_marseille","lat":43.29257,"lon":5.40916,"is_reserved":false,"is_disabled":false,"rental_uris":{"android":"levelo://app?vid=c1ac8ae7-25e2-4da8-8454-419cca3d04d4","ios":"levelo://app?vid=c1ac8ae7-25e2-4da8-8454-419cca3d04d4"},"vehicle_type_id":"4","last_reported":1740276969,"current_range_meters":7200,"station_id":"","pricing_plan_id":"cebpf4jnsgd1na2vs0mg"},{"bike_id":"b1bdb101-ec98-466c-ac52-27f119bf539a","system_id":"levelo_inurba_marseille","lat":43.3031,"lon":5.36872,"is_reserved":false,"is_disabled":false,"rental_uris":{"android":"levelo://app?vid=b1bdb101-ec98-466c-ac52-27f119bf539a","ios":"levelo://app?vid=b1bdb101-ec98-466c-ac52-27f119bf539a"},"vehicle_type_id":"4","last_reported":1740276969,"current_range_meters":7200,"station_id":"ce4bgqh2rcd13ifvqc5g","pricing_plan_id":"cebpf4jnsgd1na2vs0mg"},{"bike_id":"87527375-06b2-4a0b-a94e-eff7d91eae1e","system_id":"levelo_inurba_marseille","lat":43.25117,"lon":5.40316,"is_reserved":false,"is_disabled":false,"rental_uris":{"android":"levelo://app?vid=87527375-06b2-4a0b-a94e-eff7d91eae1e","ios":"levelo://app?vid=87527375-06b2-4a0b-a94e-eff7d91eae1e"},"vehicle_type_id":"4","last_reported":1740276969,"current_range_meters":7200,"station_id":"ce4bhlh2rcd13ifvqgig","pricing_plan_id":"cebpf4jnsgd1na2vs0mg"},{"bike_id":"3edf878a-b077-47d4-bf89-8453f040639a","system_id":"levelo_inurba_marseille","lat":43.30653,"lon":5.40072,"is_reserved":false,"is_disabled":false,"rental_uris":{"android":"levelo://app?vid=3edf878a-b077-47d4-bf89-8453f040639a","ios":"levelo://app?vid=3edf878a-b077-47d4-bf89-8453f040639a"},"vehicle_type_id":"4","last_reported":1740276969,"current_range_meters":7200,"station_id":"ce4bh112rcd13ifvqda0","pricing_plan_id":"cebpf4jnsgd1na2vs0mg"},{"bike_id":"22613deb-4e09-4d61-9470-7377805ef5b9","system_id":"levelo_inurba_marseille","lat":43.30904,"lon":5.40179,"is_reserved":false,"is_disabled":false,"rental_uris":{"android":"levelo://app?vid=22613deb-4e09-4d61-9470-7377805ef5b9","ios":"levelo://app?vid=22613deb-4e09-4d61-9470-7377805ef5b9"},"vehicle_type_id":"4","last_reported":1740276969,"current_range_meters":8000,"station_id":"ce4bgvp2rcd13ifvqct0","pricing_plan_id":"cebpf4jnsgd1na2vs0mg"},{"bike_id":"0a54138f-36c8-464c-837e-27f328137bcc","system_id":"levelo_inurba_marseille","lat":43.25092,"lon":5.39514,"is_reserved":false,"is_disabled":false,"rental_uris":{"android":"levelo://app?vid=0a54138f-36c8-464c-837e-27f328137bcc","ios":"levelo://app?vid=0a54138f-36c8-464c-837e-27f328137bcc"},"vehicle_type_id":"4","last_reported":1740276969,"current_range_meters":8000,"station_id":"ce4bhm12rcd13ifvqgkg","pricing_plan_id":"cebpf4jnsgd1na2vs0mg"},{"bike_id":"f32fe46d-1120-4c2c-97c5-cdbf2de4ccec","system_id":"levelo_inurba_marseille","lat":43.259454,"lon":5.408909,"is_reserved":false,"is_disabled":false,"rental_uris":{"android":"levelo://app?vid=f32fe46d-1120-4c2c-97c5-cdbf2de4ccec","ios":"levelo://app?vid=f32fe46d-1120-4c2c-97c5-cdbf2de4ccec"},"vehicle_type_id":"4","last_reported":1740276969,"current_range_meters":8000,"station_id":"ce4bhm92rcd13ifvqglg","pricing_plan_id":"cebpf4jnsgd1na2vs0mg"},{"bike_id":"9116b8ac-629d-459b-b44d-248b2c2649b7","system_id":"levelo_inurba_marseille","lat":43.2795,"lon":5.41041,"is_reserved":false,"is_disabled":true,"rental_uris":{"android":"levelo://app?vid=9116b8ac-629d-459b-b44d-248b2c2649b7","ios":"levelo://app?vid=9116b8ac-629d-459b-b44d-248b2c2649b7"},"vehicle_type_id":"4","last_reported":1740276969,"current_range_meters":8000,"station_id":"ce4bhnp2rcd13ifvqh0g","pricing_plan_id":"cebpf4jnsgd1na2vs0mg"},{"bike_id":"6d48938c-9b80-49b7-89e5-950ba7a6ce63","system_id":"levelo_inurba_marseille","lat":43.25929,"lon":5.40901,"is_reserved":false,"is_disabled":false,"rental_uris":{"android":"levelo://app?vid=6d48938c-9b80-49b7-89e5-950ba7a6ce63","ios":"levelo://app?vid=6d48938c-9b80-49b7-89e5-950ba7a6ce63"},"vehicle_type_id":"4","last_reported":1740276969,"current_range_meters":8000,"station_id":"ce4bhm92rcd13ifvqglg","pricing_plan_id":"cebpf4jnsgd1na2vs0mg"},{"bike_id":"25918f34-e86b-42a6-9b4e-60475435efc1","system_id":"levelo_inurba_marseille","lat":43.31236,"lon":5.36862,"is_reserved":false,"is_disabled":false,"rental_uris":{"android":"levelo://app?vid=25918f34-e86b-42a6-9b4e-60475435efc1","ios":"levelo://app?vid=25918f34-e86b-42a6-9b4e-60475435efc1"},"vehicle_type_id":"4","last_reported":1740276969,"current_range_meters":8000,"station_id":"ce4bgl92rcd13ifvqbq0","pricing_plan_id":"cebpf4jnsgd1na2vs0mg"},{"bike_id":"f01bc604-d3fe-484b-ab17-16d012a9acf2","system_id":"levelo_inurba_marseille","lat":43.27991,"lon":5.41652,"is_reserved":false,"is_disabled":false,"rental_uris":{"android":"levelo://app?vid=f01bc604-d3fe-484b-ab17-16d012a9acf2","ios":"levelo://app?vid=f01bc604-d3fe-484b-ab17-16d012a9acf2"},"vehicle_type_id":"4","last_reported":1740276969,"current_range_meters":8000,"station_id":"ce4bho12rcd13ifvqh1g","pricing_plan_id":"cebpf4jnsgd1na2vs0mg"},{"bike_id":"6c6000dd-d631-4057-b372-f83b5c6fd465","system_id":"levelo_inurba_marseille","lat":43.2658,"lon":5.39025,"is_reserved":false,"is_disabled":false,"rental_uris":{"android":"levelo://app?vid=6c6000dd-d631-4057-b372-f83b5c6fd465","ios":"levelo://app?vid=6c6000dd-d631-4057-b372-f83b5c6fd465"},"vehicle_type_id":"4","last_reported":1740276969,"current_range_meters":8000,"station_id":"ce4bhe12rcd13ifvqf30","pricing_plan_id":"cebpf4jnsgd1na2vs0mg"},{"bike_id":"dd865ce5-df75-405f-92a1-0fc508e41c4c","system_id":"levelo_inurba_marseille","lat":43.24646,"lon":5.38185,"is_reserved":false,"is_disabled":false,"rental_uris":{"android":"levelo://app?vid=dd865ce5-df75-405f-92a1-0fc508e41c4c","ios":"levelo://app?vid=dd865ce5-df75-405f-92a1-0fc508e41c4c"},"vehicle_type_id":"4","last_reported":1740276969,"current_range_meters":8000,"station_id":"ce4bhih2rcd13ifvqfr0","pricing_plan_id":"cebpf4jnsgd1na2vs0mg"},{"bike_id":"a8896e4e-d267-4f58-952d-dba9725f4e05","system_id":"levelo_inurba_marseille","lat":43.2407,"lon":5.37752,"is_reserved":false,"is_disabled":false,"rental_uris":{"android":"levelo://app?vid=a8896e4e-d267-4f58-952d-dba9725f4e05","ios":"levelo://app?vid=a8896e4e-d267-4f58-952d-dba9725f4e05"},"vehicle_type_id":"4","last_reported":1740276969,"current_range_meters":8400,"station_id":"ce4bhnp2rcd13ifvqgvg","pricing_plan_id":"cebpf4jnsgd1na2vs0mg"},{"bike_id":"2ed41e63-2c80-4276-ad34-8378b59c3754","system_id":"levelo_inurba_marseille","lat":43.30935,"lon":5.40141,"is_reserved":false,"is_disabled":false,"rental_uris":{"android":"levelo://app?vid=2ed41e63-2c80-4276-ad34-8378b59c3754","ios":"levelo://app?vid=2ed41e63-2c80-4276-ad34-8378b59c3754"},"vehicle_type_id":"4","last_reported":1740276969,"current_range_meters":8400,"station_id":"ce4bgvp2rcd13ifvqct0","pricing_plan_id":"cebpf4jnsgd1na2vs0mg"},{"bike_id":"d6304c24-34fc-41d9-b5c1-e9bbec4a030a","system_id":"levelo_inurba_marseille","lat":43.25101,"lon":5.40339,"is_reserved":false,"is_disabled":false,"rental_uris":{"android":"levelo://app?vid=d6304c24-34fc-41d9-b5c1-e9bbec4a030a","ios":"levelo://app?vid=d6304c24-34fc-41d9-b5c1-e9bbec4a030a"},"vehicle_type_id":"4","last_reported":1740276969,"current_range_meters":8400,"station_id":"ce4bhlh2rcd13ifvqgig","pricing_plan_id":"cebpf4jnsgd1na2vs0mg"},{"bike_id":"8e6bfea0-d14f-44ca-ab8c-c3bb8964d7f3","system_id":"levelo_inurba_marseille","lat":43.24678,"lon":5.38164,"is_reserved":false,"is_disabled":false,"rental_uris":{"android":"levelo://app?vid=8e6bfea0-d14f-44ca-ab8c-c3bb8964d7f3","ios":"levelo://app?vid=8e6bfea0-d14f-44ca-ab8c-c3bb8964d7f3"},"vehicle_type_id":"4","last_reported":1740276969,"current_range_meters":8400,"station_id":"ce4bhih2rcd13ifvqfr0","pricing_plan_id":"cebpf4jnsgd1na2vs0mg"},{"bike_id":"2e7dd93b-d38e-4cae-9ed0-bea68b87add4","system_id":"levelo_inurba_marseille","lat":43.23946,"lon":5.36659,"is_reserved":false,"is_disabled":false,"rental_uris":{"android":"levelo://app?vid=2e7dd93b-d38e-4cae-9ed0-bea68b87add4","ios":"levelo://app?vid=2e7dd93b-d38e-4cae-9ed0-bea68b87add4"},"vehicle_type_id":"4","last_reported":1740276969,"current_range_meters":8400,"station_id":"ce4bhi12rcd13ifvqfp0","pricing_plan_id":"cebpf4jnsgd1na2vs0mg"},{"bike_id":"c675158f-14ed-4a9f-9475-d8b69f298fd9","system_id":"levelo_inurba_marseille","lat":43.25825,"lon":5.39441,"is_reserved":false,"is_disabled":false,"rental_uris":{"android":"levelo://app?vid=c675158f-14ed-4a9f-9475-d8b69f298fd9","ios":"levelo://app?vid=c675158f-14ed-4a9f-9475-d8b69f298fd9"},"vehicle_type_id":"4","last_reported":1740276969,"current_range_meters":8400,"station_id":"ce4bhip2rcd13ifvqft0","pricing_plan_id":"cebpf4jnsgd1na2vs0mg"},{"bike_id":"2a7165b4-60a1-4418-90cd-83d9915280e2","system_id":"levelo_inurba_marseille","lat":43.28019,"lon":5.40605,"is_reserved":false,"is_disabled":false,"rental_uris":{"android":"levelo://app?vid=2a7165b4-60a1-4418-90cd-83d9915280e2","ios":"levelo://app?vid=2a7165b4-60a1-4418-90cd-83d9915280e2"},"vehicle_type_id":"4","last_reported":1740276969,"current_range_meters":8400,"station_id":"","pricing_plan_id":"cebpf4jnsgd1na2vs0mg"},{"bike_id":"06c7d04b-0c73-473f-9f55-ff858732e591","system_id":"levelo_inurba_marseille","lat":43.2658,"lon":5.39024,"is_reserved":false,"is_disabled":false,"rental_uris":{"android":"levelo://app?vid=06c7d04b-0c73-473f-9f55-ff858732e591","ios":"levelo://app?vid=06c7d04b-0c73-473f-9f55-ff858732e591"},"vehicle_type_id":"4","last_reported":1740276969,"current_range_meters":8400,"station_id":"ce4bhe12rcd13ifvqf30","pricing_plan_id":"cebpf4jnsgd1na2vs0mg"},{"bike_id":"491c9557-847a-40a8-b9dd-c2b0cceec1ce","system_id":"levelo_inurba_marseille","lat":43.29774,"lon":5.37109,"is_reserved":false,"is_disabled":false,"rental_uris":{"android":"levelo://app?vid=491c9557-847a-40a8-b9dd-c2b0cceec1ce","ios":"levelo://app?vid=491c9557-847a-40a8-b9dd-c2b0cceec1ce"},"vehicle_type_id":"4","last_reported":1740276969,"current_range_meters":8400,"station_id":"ce4bgop2rcd13ifvqc1g","pricing_plan_id":"cebpf4jnsgd1na2vs0mg"},{"bike_id":"9f4fdd8e-e9cb-4768-9896-2f4363435504","system_id":"levelo_inurba_marseille","lat":43.286957,"lon":5.373937,"is_reserved":false,"is_disabled":false,"rental_uris":{"android":"levelo://app?vid=9f4fdd8e-e9cb-4768-9896-2f4363435504","ios":"levelo://app?vid=9f4fdd8e-e9cb-4768-9896-2f4363435504"},"vehicle_type_id":"4","last_reported":1740276969,"current_range_meters":8400,"station_id":"ce4bh3p2rcd13ifvqdq0","pricing_plan_id":"cebpf4jnsgd1na2vs0mg"},{"bike_id":"23bc9759-d26d-4f40-b4f4-88a9beb1aae8","system_id":"levelo_inurba_marseille","lat":43.25866,"lon":5.39886,"is_reserved":false,"is_disabled":false,"rental_uris":{"android":"levelo://app?vid=23bc9759-d26d-4f40-b4f4-88a9beb1aae8","ios":"levelo://app?vid=23bc9759-d26d-4f40-b4f4-88a9beb1aae8"},"vehicle_type_id":"4","last_reported":1740276969,"current_range_meters":8400,"station_id":"ce4bhl92rcd13ifvqghg","pricing_plan_id":"cebpf4jnsgd1na2vs0mg"},{"bike_id":"f65e14d9-9d98-4273-878d-64aa1ddbd1a3","system_id":"levelo_inurba_marseille","lat":43.24064,"lon":5.37756,"is_reserved":false,"is_disabled":false,"rental_uris":{"android":"levelo://app?vid=f65e14d9-9d98-4273-878d-64aa1ddbd1a3","ios":"levelo://app?vid=f65e14d9-9d98-4273-878d-64aa1ddbd1a3"},"vehicle_type_id":"4","last_reported":1740276969,"current_range_meters":8400,"station_id":"ce4bhnp2rcd13ifvqgvg","pricing_plan_id":"cebpf4jnsgd1na2vs0mg"},{"bike_id":"b985ad1f-1942-453b-b5eb-7462cafd1e31","system_id":"levelo_inurba_marseille","lat":43.23173,"lon":5.35546,"is_reserved":false,"is_disabled":false,"rental_uris":{"android":"levelo://app?vid=b985ad1f-1942-453b-b5eb-7462cafd1e31","ios":"levelo://app?vid=b985ad1f-1942-453b-b5eb-7462cafd1e31"},"vehicle_type_id":"4","last_reported":1740276969,"current_range_meters":8400,"station_id":"ce4bhu92rcd13ifvqi70","pricing_plan_id":"cebpf4jnsgd1na2vs0mg"},{"bike_id":"78ccc1b5-e05d-4c30-bc5b-473f9d97e2cd","system_id":"levelo_inurba_marseille","lat":43.3012,"lon":5.37809,"is_reserved":false,"is_disabled":false,"rental_uris":{"android":"levelo://app?vid=78ccc1b5-e05d-4c30-bc5b-473f9d97e2cd","ios":"levelo://app?vid=78ccc1b5-e05d-4c30-bc5b-473f9d97e2cd"},"vehicle_type_id":"4","last_reported":1740276969,"current_range_meters":8800,"station_id":"","pricing_plan_id":"cebpf4jnsgd1na2vs0mg"},{"bike_id":"bb9ffa60-bdcd-4c6e-a08c-d2ba136111f9","system_id":"levelo_inurba_marseille","lat":43.28666,"lon":5.36364,"is_reserved":false,"is_disabled":false,"rental_uris":{"android":"levelo://app?vid=bb9ffa60-bdcd-4c6e-a08c-d2ba136111f9","ios":"levelo://app?vid=bb9ffa60-bdcd-4c6e-a08c-d2ba136111f9"},"vehicle_type_id":"4","last_reported":1740276969,"current_range_meters":8800,"station_id":"ce4bhah2rcd13ifvqej0","pricing_plan_id":"cebpf4jnsgd1na2vs0mg"},{"bike_id":"7da45adf-58f5-45bd-aa7e-aa8ab6c11351","system_id":"levelo_inurba_marseille","lat":43.26542,"lon":5.37297,"is_reserved":false,"is_disabled":false,"rental_uris":{"android":"levelo://app?vid=7da45adf-58f5-45bd-aa7e-aa8ab6c11351","ios":"levelo://app?vid=7da45adf-58f5-45bd-aa7e-aa8ab6c11351"},"vehicle_type_id":"4","last_reported":1740276969,"current_range_meters":8800,"station_id":"ce4bhg12rcd13ifvqf70","pricing_plan_id":"cebpf4jnsgd1na2vs0mg"},{"bike_id":"bd0f0fb7-276d-4481-b5d8-ffa82acd63a0","system_id":"levelo_inurba_marseille","lat":43.28449,"lon":5.3589,"is_reserved":false,"is_disabled":false,"rental_uris":{"android":"levelo://app?vid=bd0f0fb7-276d-4481-b5d8-ffa82acd63a0","ios":"levelo://app?vid=bd0f0fb7-276d-4481-b5d8-ffa82acd63a0"},"vehicle_type_id":"4","last_reported":1740276969,"current_range_meters":9200,"station_id":"ce4bhah2rcd13ifvqei0","pricing_plan_id":"cebpf4jnsgd1na2vs0mg"},{"bike_id":"050367b7-8a54-4a5c-8db7-b52ce040e297","system_id":"levelo_inurba_marseille","lat":43.2467,"lon":5.3816,"is_reserved":false,"is_disabled":false,"rental_uris":{"android":"levelo://app?vid=050367b7-8a54-4a5c-8db7-b52ce040e297","ios":"levelo://app?vid=050367b7-8a54-4a5c-8db7-b52ce040e297"},"vehicle_type_id":"4","last_reported":1740276969,"current_range_meters":9200,"station_id":"ce4bhih2rcd13ifvqfr0","pricing_plan_id":"cebpf4jnsgd1na2vs0mg"},{"bike_id":"be5f18c6-d773-4035-9538-497c8eccebd5","system_id":"levelo_inurba_marseille","lat":43.27577,"lon":5.38399,"is_reserved":false,"is_disabled":false,"rental_uris":{"android":"levelo://app?vid=be5f18c6-d773-4035-9538-497c8eccebd5","ios":"levelo://app?vid=be5f18c6-d773-4035-9538-497c8eccebd5"},"vehicle_type_id":"4","last_reported":1740276969,"current_range_meters":9200,"station_id":"ce4bhh92rcd13ifvqfi0","pricing_plan_id":"cebpf4jnsgd1na2vs0mg"},{"bike_id":"f09eba20-0f4a-4914-99c1-c9ee54b93142","system_id":"levelo_inurba_marseille","lat":43.27834,"lon":5.40734,"is_reserved":false,"is_disabled":false,"rental_uris":{"android":"levelo://app?vid=f09eba20-0f4a-4914-99c1-c9ee54b93142","ios":"levelo://app?vid=f09eba20-0f4a-4914-99c1-c9ee54b93142"},"vehicle_type_id":"4","last_reported":1740276969,"current_range_meters":9200,"station_id":"ce4bhnh2rcd13ifvqgtg","pricing_plan_id":"cebpf4jnsgd1na2vs0mg"},{"bike_id":"805e65ea-389c-46f2-bfa7-079429bc7231","system_id":"levelo_inurba_marseille","lat":43.30254,"lon":5.4006,"is_reserved":false,"is_disabled":false,"rental_uris":{"android":"levelo://app?vid=805e65ea-389c-46f2-bfa7-079429bc7231","ios":"levelo://app?vid=805e65ea-389c-46f2-bfa7-079429bc7231"},"vehicle_type_id":"4","last_reported":1740276969,"current_range_meters":9200,"station_id":"ce4bgvh2rcd13ifvqcs0","pricing_plan_id":"cebpf4jnsgd1na2vs0mg"},{"bike_id":"f4c73116-43d3-41d9-88bb-9461dbbb405f","system_id":"levelo_inurba_marseille","lat":43.25428,"lon":5.41586,"is_reserved":false,"is_disabled":false,"rental_uris":{"android":"levelo://app?vid=f4c73116-43d3-41d9-88bb-9461dbbb405f","ios":"levelo://app?vid=f4c73116-43d3-41d9-88bb-9461dbbb405f"},"vehicle_type_id":"4","last_reported":1740276969,"current_range_meters":9200,"station_id":"","pricing_plan_id":"cebpf4jnsgd1na2vs0mg"},{"bike_id":"46bf26b4-5256-4da6-9688-39ebee5a9b96","system_id":"levelo_inurba_marseille","lat":43.28344,"lon":5.38096,"is_reserved":false,"is_disabled":false,"rental_uris":{"android":"levelo://app?vid=46bf26b4-5256-4da6-9688-39ebee5a9b96","ios":"levelo://app?vid=46bf26b4-5256-4da6-9688-39ebee5a9b96"},"vehicle_type_id":"4","last_reported":1740276969,"current_range_meters":9200,"station_id":"ce4bh412rcd13ifvqdr0","pricing_plan_id":"cebpf4jnsgd1na2vs0mg"},{"bike_id":"8b3c9797-cf43-4f20-aab5-4ab18652772b","system_id":"levelo_inurba_marseille","lat":43.28457,"lon":5.35889,"is_reserved":false,"is_disabled":false,"rental_uris":{"android":"levelo://app?vid=8b3c9797-cf43-4f20-aab5-4ab18652772b","ios":"levelo://app?vid=8b3c9797-cf43-4f20-aab5-4ab18652772b"},"vehicle_type_id":"4","last_reported":1740276969,"current_range_meters":9200,"station_id":"ce4bhah2rcd13ifvqei0","pricing_plan_id":"cebpf4jnsgd1na2vs0mg"},{"bike_id":"590c2d4d-a6f8-41f2-86bc-cf779452c419","system_id":"levelo_inurba_marseille","lat":43.2717,"lon":5.41008,"is_reserved":false,"is_disabled":false,"rental_uris":{"android":"levelo://app?vid=590c2d4d-a6f8-41f2-86bc-cf779452c419","ios":"levelo://app?vid=590c2d4d-a6f8-41f2-86bc-cf779452c419"},"vehicle_type_id":"4","last_reported":1740276969,"current_range_meters":9200,"station_id":"ce4bhl12rcd13ifvqgf0","pricing_plan_id":"cebpf4jnsgd1na2vs0mg"},{"bike_id":"c6a1ef00-1084-493b-8248-9658c4452943","system_id":"levelo_inurba_marseille","lat":43.28264,"lon":5.39049,"is_reserved":false,"is_disabled":false,"rental_uris":{"android":"levelo://app?vid=c6a1ef00-1084-493b-8248-9658c4452943","ios":"levelo://app?vid=c6a1ef00-1084-493b-8248-9658c4452943"},"vehicle_type_id":"4","last_reported":1740276969,"current_range_meters":9200,"station_id":"","pricing_plan_id":"cebpf4jnsgd1na2vs0mg"},{"bike_id":"827ec7e5-1ae5-45b8-890e-b6822ea9bc11","system_id":"levelo_inurba_marseille","lat":43.23949,"lon":5.36649,"is_reserved":false,"is_disabled":false,"rental_uris":{"android":"levelo://app?vid=827ec7e5-1ae5-45b8-890e-b6822ea9bc11","ios":"levelo://app?vid=827ec7e5-1ae5-45b8-890e-b6822ea9bc11"},"vehicle_type_id":"4","last_reported":1740276969,"current_range_meters":9200,"station_id":"ce4bhi12rcd13ifvqfp0","pricing_plan_id":"cebpf4jnsgd1na2vs0mg"},{"bike_id":"1a10fd59-4523-44b6-b95d-9c8ecd2de736","system_id":"levelo_inurba_marseille","lat":43.25859,"lon":5.39889,"is_reserved":false,"is_disabled":false,"rental_uris":{"android":"levelo://app?vid=1a10fd59-4523-44b6-b95d-9c8ecd2de736","ios":"levelo://app?vid=1a10fd59-4523-44b6-b95d-9c8ecd2de736"},"vehicle_type_id":"4","last_reported":1740276969,"current_range_meters":9200,"station_id":"ce4bhl92rcd13ifvqghg","pricing_plan_id":"cebpf4jnsgd1na2vs0mg"},{"bike_id":"58bbaf60-deab-4011-a9de-2c00010a5762","system_id":"levelo_inurba_marseille","lat":43.30332,"lon":5.40447,"is_reserved":false,"is_disabled":false,"rental_uris":{"android":"levelo://app?vid=58bbaf60-deab-4011-a9de-2c00010a5762","ios":"levelo://app?vid=58bbaf60-deab-4011-a9de-2c00010a5762"},"vehicle_type_id":"4","last_reported":1740276969,"current_range_meters":9600,"station_id":"ce4bh012rcd13ifvqd10","pricing_plan_id":"cebpf4jnsgd1na2vs0mg"},{"bike_id":"519c0d90-c598-4074-9c80-d5e1565ff705","system_id":"levelo_inurba_marseille","lat":43.23069,"lon":5.35514,"is_reserved":false,"is_disabled":false,"rental_uris":{"android":"levelo://app?vid=519c0d90-c598-4074-9c80-d5e1565ff705","ios":"levelo://app?vid=519c0d90-c598-4074-9c80-d5e1565ff705"},"vehicle_type_id":"4","last_reported":1740276969,"current_range_meters":9600,"station_id":"cpo3342slgdg3j2ifvpg","pricing_plan_id":"cebpf4jnsgd1na2vs0mg"},{"bike_id":"f059cbcc-b7ad-4e49-87a3-054a01f702f4","system_id":"levelo_inurba_marseille","lat":43.30893,"lon":5.39635,"is_reserved":false,"is_disabled":false,"rental_uris":{"android":"levelo://app?vid=f059cbcc-b7ad-4e49-87a3-054a01f702f4","ios":"levelo://app?vid=f059cbcc-b7ad-4e49-87a3-054a01f702f4"},"vehicle_type_id":"4","last_reported":1740276969,"current_range_meters":9600,"station_id":"ce4bh012rcd13ifvqcv0","pricing_plan_id":"cebpf4jnsgd1na2vs0mg"},{"bike_id":"0b35ef10-1d1d-4e8a-949e-c3122c5e3874","system_id":"levelo_inurba_marseille","lat":43.23953,"lon":5.3663,"is_reserved":false,"is_disabled":false,"rental_uris":{"android":"levelo://app?vid=0b35ef10-1d1d-4e8a-949e-c3122c5e3874","ios":"levelo://app?vid=0b35ef10-1d1d-4e8a-949e-c3122c5e3874"},"vehicle_type_id":"4","last_reported":1740276969,"current_range_meters":9600,"station_id":"ce4bhi12rcd13ifvqfp0","pricing_plan_id":"cebpf4jnsgd1na2vs0mg"},{"bike_id":"2cda7e99-d6ab-402a-bfd9-2fc555f34a99","system_id":"levelo_inurba_marseille","lat":43.29554,"lon":5.42265,"is_reserved":false,"is_disabled":false,"rental_uris":{"android":"levelo://app?vid=2cda7e99-d6ab-402a-bfd9-2fc555f34a99","ios":"levelo://app?vid=2cda7e99-d6ab-402a-bfd9-2fc555f34a99"},"vehicle_type_id":"4","last_reported":1740276969,"current_range_meters":9600,"station_id":"ce4bhph2rcd13ifvqhdg","pricing_plan_id":"cebpf4jnsgd1na2vs0mg"},{"bike_id":"d17e9f43-52a6-4c0c-9e57-c49dabb8fed4","system_id":"levelo_inurba_marseille","lat":43.30466,"lon":5.382,"is_reserved":false,"is_disabled":false,"rental_uris":{"android":"levelo://app?vid=d17e9f43-52a6-4c0c-9e57-c49dabb8fed4","ios":"levelo://app?vid=d17e9f43-52a6-4c0c-9e57-c49dabb8fed4"},"vehicle_type_id":"4","last_reported":1740276969,"current_range_meters":9600,"station_id":"","pricing_plan_id":"cebpf4jnsgd1na2vs0mg"},{"bike_id":"d167782e-6c4c-4178-bdbb-5bd05c5ff4ef","system_id":"levelo_inurba_marseille","lat":43.27872,"lon":5.40759,"is_reserved":false,"is_disabled":false,"rental_uris":{"android":"levelo://app?vid=d167782e-6c4c-4178-bdbb-5bd05c5ff4ef","ios":"levelo://app?vid=d167782e-6c4c-4178-bdbb-5bd05c5ff4ef"},"vehicle_type_id":"4","last_reported":1740276969,"current_range_meters":9600,"station_id":"ce4bhnh2rcd13ifvqgtg","pricing_plan_id":"cebpf4jnsgd1na2vs0mg"},{"bike_id":"c76531ac-1214-4592-9c1c-6b2ce2bc0cf8","system_id":"levelo_inurba_marseille","lat":43.23198,"lon":5.35534,"is_reserved":false,"is_disabled":false,"rental_uris":{"android":"levelo://app?vid=c76531ac-1214-4592-9c1c-6b2ce2bc0cf8","ios":"levelo://app?vid=c76531ac-1214-4592-9c1c-6b2ce2bc0cf8"},"vehicle_type_id":"4","last_reported":1740276969,"current_range_meters":9600,"station_id":"ce4bhu92rcd13ifvqi70","pricing_plan_id":"cebpf4jnsgd1na2vs0mg"},{"bike_id":"697316fb-3768-4e97-980b-6f61f76a273d","system_id":"levelo_inurba_marseille","lat":43.30923,"lon":5.40145,"is_reserved":false,"is_disabled":false,"rental_uris":{"android":"levelo://app?vid=697316fb-3768-4e97-980b-6f61f76a273d","ios":"levelo://app?vid=697316fb-3768-4e97-980b-6f61f76a273d"},"vehicle_type_id":"4","last_reported":1740276969,"current_range_meters":9600,"station_id":"ce4bgvp2rcd13ifvqct0","pricing_plan_id":"cebpf4jnsgd1na2vs0mg"},{"bike_id":"2c6fe07a-1775-49e8-bb36-4bb755c649ab","system_id":"levelo_inurba_marseille","lat":43.28726,"lon":5.3608,"is_reserved":false,"is_disabled":false,"rental_uris":{"android":"levelo://app?vid=2c6fe07a-1775-49e8-bb36-4bb755c649ab","ios":"levelo://app?vid=2c6fe07a-1775-49e8-bb36-4bb755c649ab"},"vehicle_type_id":"4","last_reported":1740276969,"current_range_meters":9600,"station_id":"cki0cbj6b192h4jlfktg","pricing_plan_id":"cebpf4jnsgd1na2vs0mg"},{"bike_id":"5fcb0a33-39cc-43ca-ada8-f133ba1cb445","system_id":"levelo_inurba_marseille","lat":43.28082,"lon":5.39647,"is_reserved":false,"is_disabled":false,"rental_uris":{"android":"levelo://app?vid=5fcb0a33-39cc-43ca-ada8-f133ba1cb445","ios":"levelo://app?vid=5fcb0a33-39cc-43ca-ada8-f133ba1cb445"},"vehicle_type_id":"4","last_reported":1740276969,"current_range_meters":10000,"station_id":"ce4bho12rcd13ifvqh2g","pricing_plan_id":"cebpf4jnsgd1na2vs0mg"},{"bike_id":"bb127142-502c-4b61-b74c-d7410317905c","system_id":"levelo_inurba_marseille","lat":43.268,"lon":5.40253,"is_reserved":false,"is_disabled":false,"rental_uris":{"android":"levelo://app?vid=bb127142-502c-4b61-b74c-d7410317905c","ios":"levelo://app?vid=bb127142-502c-4b61-b74c-d7410317905c"},"vehicle_type_id":"4","last_reported":1740276969,"current_range_meters":10000,"station_id":"ce501612rcd8frsf0b60","pricing_plan_id":"cebpf4jnsgd1na2vs0mg"},{"bike_id":"9134b4ec-cb90-4668-8650-961ee5f82b16","system_id":"levelo_inurba_marseille","lat":43.30313,"lon":5.36893,"is_reserved":false,"is_disabled":false,"rental_uris":{"android":"levelo://app?vid=9134b4ec-cb90-4668-8650-961ee5f82b16","ios":"levelo://app?vid=9134b4ec-cb90-4668-8650-961ee5f82b16"},"vehicle_type_id":"4","last_reported":1740276969,"current_range_meters":10000,"station_id":"ce4bgqh2rcd13ifvqc5g","pricing_plan_id":"cebpf4jnsgd1na2vs0mg"},{"bike_id":"9d49efd4-a238-4a72-8787-13c506ac8d9b","system_id":"levelo_inurba_marseille","lat":43.27184,"lon":5.41001,"is_reserved":false,"is_disabled":false,"rental_uris":{"android":"levelo://app?vid=9d49efd4-a238-4a72-8787-13c506ac8d9b","ios":"levelo://app?vid=9d49efd4-a238-4a72-8787-13c506ac8d9b"},"vehicle_type_id":"4","last_reported":1740276969,"current_range_meters":10000,"station_id":"ce4bhl12rcd13ifvqgf0","pricing_plan_id":"cebpf4jnsgd1na2vs0mg"},{"bike_id":"ddb48cd1-bcb3-4cac-8164-1ae412ca1019","system_id":"levelo_inurba_marseille","lat":43.29325,"lon":5.37246,"is_reserved":false,"is_disabled":false,"rental_uris":{"android":"levelo://app?vid=ddb48cd1-bcb3-4cac-8164-1ae412ca1019","ios":"levelo://app?vid=ddb48cd1-bcb3-4cac-8164-1ae412ca1019"},"vehicle_type_id":"4","last_reported":1740276969,"current_range_meters":10000,"station_id":"","pricing_plan_id":"cebpf4jnsgd1na2vs0mg"},{"bike_id":"67a30d2b-3780-4f47-a2fd-3290c6c1c257","system_id":"levelo_inurba_marseille","lat":43.31518,"lon":5.37314,"is_reserved":false,"is_disabled":false,"rental_uris":{"android":"levelo://app?vid=67a30d2b-3780-4f47-a2fd-3290c6c1c257","ios":"levelo://app?vid=67a30d2b-3780-4f47-a2fd-3290c6c1c257"},"vehicle_type_id":"4","last_reported":1740276969,"current_range_meters":10000,"station_id":"ce4bgt12rcd13ifvqcd0","pricing_plan_id":"cebpf4jnsgd1na2vs0mg"},{"bike_id":"60e59ce5-227b-48d2-9ece-ac7889b3914c","system_id":"levelo_inurba_marseille","lat":43.284599,"lon":5.358857,"is_reserved":false,"is_disabled":false,"rental_uris":{"android":"levelo://app?vid=60e59ce5-227b-48d2-9ece-ac7889b3914c","ios":"levelo://app?vid=60e59ce5-227b-48d2-9ece-ac7889b3914c"},"vehicle_type_id":"4","last_reported":1740276969,"current_range_meters":10000,"station_id":"ce4bhah2rcd13ifvqei0","pricing_plan_id":"cebpf4jnsgd1na2vs0mg"},{"bike_id":"65a2b506-9f18-4086-90d7-6bbdf970a117","system_id":"levelo_inurba_marseille","lat":43.2952,"lon":5.38545,"is_reserved":false,"is_disabled":true,"rental_uris":{"android":"levelo://app?vid=65a2b506-9f18-4086-90d7-6bbdf970a117","ios":"levelo://app?vid=65a2b506-9f18-4086-90d7-6bbdf970a117"},"vehicle_type_id":"4","last_reported":1740276969,"current_range_meters":10800,"station_id":"ce4bgih2rcd13ifvqba0","pricing_plan_id":"cebpf4jnsgd1na2vs0mg"},{"bike_id":"5d52fe5a-dfb3-40bb-a0d1-9a7b3f23529e","system_id":"levelo_inurba_marseille","lat":43.26214,"lon":5.40424,"is_reserved":false,"is_disabled":false,"rental_uris":{"android":"levelo://app?vid=5d52fe5a-dfb3-40bb-a0d1-9a7b3f23529e","ios":"levelo://app?vid=5d52fe5a-dfb3-40bb-a0d1-9a7b3f23529e"},"vehicle_type_id":"4","last_reported":1740276969,"current_range_meters":10800,"station_id":"ce4bhmh2rcd13ifvqgmg","pricing_plan_id":"cebpf4jnsgd1na2vs0mg"},{"bike_id":"09486dc5-7654-4904-afc6-3b8a40308aeb","system_id":"levelo_inurba_marseille","lat":43.25425,"lon":5.41584,"is_reserved":false,"is_disabled":false,"rental_uris":{"android":"levelo://app?vid=09486dc5-7654-4904-afc6-3b8a40308aeb","ios":"levelo://app?vid=09486dc5-7654-4904-afc6-3b8a40308aeb"},"vehicle_type_id":"4","last_reported":1740276969,"current_range_meters":10800,"station_id":"","pricing_plan_id":"cebpf4jnsgd1na2vs0mg"},{"bike_id":"580cd37a-010c-47d8-955d-e1bf99f50654","system_id":"levelo_inurba_marseille","lat":43.28384,"lon":5.38639,"is_reserved":false,"is_disabled":false,"rental_uris":{"android":"levelo://app?vid=580cd37a-010c-47d8-955d-e1bf99f50654","ios":"levelo://app?vid=580cd37a-010c-47d8-955d-e1bf99f50654"},"vehicle_type_id":"4","last_reported":1740276969,"current_range_meters":10800,"station_id":"ce4bh492rcd13ifvqdvg","pricing_plan_id":"cebpf4jnsgd1na2vs0mg"},{"bike_id":"26a2d076-f5f2-45a7-98f5-29542790fe7d","system_id":"levelo_inurba_marseille","lat":43.32369,"lon":5.36764,"is_reserved":false,"is_disabled":false,"rental_uris":{"android":"levelo://app?vid=26a2d076-f5f2-45a7-98f5-29542790fe7d","ios":"levelo://app?vid=26a2d076-f5f2-45a7-98f5-29542790fe7d"},"vehicle_type_id":"4","last_reported":1740276969,"current_range_meters":10800,"station_id":"ce4bhsh2rcd13ifvqi2g","pricing_plan_id":"cebpf4jnsgd1na2vs0mg"},{"bike_id":"c6f1d824-f9e9-40b6-a413-6bc7e7531bce","system_id":"levelo_inurba_marseille","lat":43.30886,"lon":5.39641,"is_reserved":false,"is_disabled":false,"rental_uris":{"android":"levelo://app?vid=c6f1d824-f9e9-40b6-a413-6bc7e7531bce","ios":"levelo://app?vid=c6f1d824-f9e9-40b6-a413-6bc7e7531bce"},"vehicle_type_id":"4","last_reported":1740276969,"current_range_meters":10800,"station_id":"ce4bh012rcd13ifvqcv0","pricing_plan_id":"cebpf4jnsgd1na2vs0mg"},{"bike_id":"e2f62125-3a72-42e8-8935-2e0ba3bfe398","system_id":"levelo_inurba_marseille","lat":43.25582,"lon":5.38223,"is_reserved":false,"is_disabled":false,"rental_uris":{"android":"levelo://app?vid=e2f62125-3a72-42e8-8935-2e0ba3bfe398","ios":"levelo://app?vid=e2f62125-3a72-42e8-8935-2e0ba3bfe398"},"vehicle_type_id":"4","last_reported":1740276969,"current_range_meters":11200,"station_id":"ce4bhih2rcd13ifvqfs0","pricing_plan_id":"cebpf4jnsgd1na2vs0mg"},{"bike_id":"1b0d6542-f74d-4dd5-b78b-1cd1115ff80b","system_id":"levelo_inurba_marseille","lat":43.30647,"lon":5.37345,"is_reserved":false,"is_disabled":false,"rental_uris":{"android":"levelo://app?vid=1b0d6542-f74d-4dd5-b78b-1cd1115ff80b","ios":"levelo://app?vid=1b0d6542-f74d-4dd5-b78b-1cd1115ff80b"},"vehicle_type_id":"4","last_reported":1740276969,"current_range_meters":11200,"station_id":"","pricing_plan_id":"cebpf4jnsgd1na2vs0mg"},{"bike_id":"49e1c317-c43a-4e17-be08-ea23dc8d6739","system_id":"levelo_inurba_marseille","lat":43.3017,"lon":5.39576,"is_reserved":false,"is_disabled":true,"rental_uris":{"android":"levelo://app?vid=49e1c317-c43a-4e17-be08-ea23dc8d6739","ios":"levelo://app?vid=49e1c317-c43a-4e17-be08-ea23dc8d6739"},"vehicle_type_id":"4","last_reported":1740276969,"current_range_meters":11200,"station_id":"","pricing_plan_id":"cebpf4jnsgd1na2vs0mg"},{"bike_id":"ad184f0e-d5c6-4a9c-ba11-7ab7f337e022","system_id":"levelo_inurba_marseille","lat":43.25826,"lon":5.39425,"is_reserved":false,"is_disabled":false,"rental_uris":{"android":"levelo://app?vid=ad184f0e-d5c6-4a9c-ba11-7ab7f337e022","ios":"levelo://app?vid=ad184f0e-d5c6-4a9c-ba11-7ab7f337e022"},"vehicle_type_id":"4","last_reported":1740276969,"current_range_meters":11200,"station_id":"ce4bhip2rcd13ifvqft0","pricing_plan_id":"cebpf4jnsgd1na2vs0mg"},{"bike_id":"133d9ed4-ebf9-41c1-a1a6-8e77d42e84b0","system_id":"levelo_inurba_marseille","lat":43.314858,"lon":5.373082,"is_reserved":false,"is_disabled":false,"rental_uris":{"android":"levelo://app?vid=133d9ed4-ebf9-41c1-a1a6-8e77d42e84b0","ios":"levelo://app?vid=133d9ed4-ebf9-41c1-a1a6-8e77d42e84b0"},"vehicle_type_id":"4","last_reported":1740276969,"current_range_meters":11200,"station_id":"ce4bgr92rcd13ifvqc6g","pricing_plan_id":"cebpf4jnsgd1na2vs0mg"},{"bike_id":"5ae8db88-e79e-4f84-8bba-ceff64289b6c","system_id":"levelo_inurba_marseille","lat":43.26951,"lon":5.386268,"is_reserved":false,"is_disabled":false,"rental_uris":{"android":"levelo://app?vid=5ae8db88-e79e-4f84-8bba-ceff64289b6c","ios":"levelo://app?vid=5ae8db88-e79e-4f84-8bba-ceff64289b6c"},"vehicle_type_id":"4","last_reported":1740276969,"current_range_meters":11200,"station_id":"ce4bhhp2rcd13ifvqfm0","pricing_plan_id":"cebpf4jnsgd1na2vs0mg"},{"bike_id":"1f7411cd-9379-4bab-a8bc-411b928d8602","system_id":"levelo_inurba_marseille","lat":43.27495,"lon":5.42463,"is_reserved":false,"is_disabled":false,"rental_uris":{"android":"levelo://app?vid=1f7411cd-9379-4bab-a8bc-411b928d8602","ios":"levelo://app?vid=1f7411cd-9379-4bab-a8bc-411b928d8602"},"vehicle_type_id":"4","last_reported":1740276969,"current_range_meters":11600,"station_id":"ce4bhn92rcd13ifvqgrg","pricing_plan_id":"cebpf4jnsgd1na2vs0mg"},{"bike_id":"d88699b9-7a50-415c-9cdb-a35fdc00ed80","system_id":"levelo_inurba_marseille","lat":43.29934,"lon":5.37193,"is_reserved":false,"is_disabled":false,"rental_uris":{"android":"levelo://app?vid=d88699b9-7a50-415c-9cdb-a35fdc00ed80","ios":"levelo://app?vid=d88699b9-7a50-415c-9cdb-a35fdc00ed80"},"vehicle_type_id":"4","last_reported":1740276969,"current_range_meters":11600,"station_id":"","pricing_plan_id":"cebpf4jnsgd1na2vs0mg"},{"bike_id":"2e6cf355-a9c0-46c3-a1bf-590c7f00230b","system_id":"levelo_inurba_marseille","lat":43.30939,"lon":5.39041,"is_reserved":false,"is_disabled":false,"rental_uris":{"android":"levelo://app?vid=2e6cf355-a9c0-46c3-a1bf-590c7f00230b","ios":"levelo://app?vid=2e6cf355-a9c0-46c3-a1bf-590c7f00230b"},"vehicle_type_id":"4","last_reported":1740276969,"current_range_meters":11600,"station_id":"ce4bgup2rcd13ifvqco0","pricing_plan_id":"cebpf4jnsgd1na2vs0mg"},{"bike_id":"7deb6946-2da2-45fc-aa6c-215c8b8c109b","system_id":"levelo_inurba_marseille","lat":43.30934,"lon":5.40147,"is_reserved":false,"is_disabled":false,"rental_uris":{"android":"levelo://app?vid=7deb6946-2da2-45fc-aa6c-215c8b8c109b","ios":"levelo://app?vid=7deb6946-2da2-45fc-aa6c-215c8b8c109b"},"vehicle_type_id":"4","last_reported":1740276969,"current_range_meters":11600,"station_id":"ce4bgvp2rcd13ifvqct0","pricing_plan_id":"cebpf4jnsgd1na2vs0mg"},{"bike_id":"e786e064-4552-41a1-a037-b0f5f3d3f15f","system_id":"levelo_inurba_marseille","lat":43.31489,"lon":5.3731,"is_reserved":false,"is_disabled":false,"rental_uris":{"android":"levelo://app?vid=e786e064-4552-41a1-a037-b0f5f3d3f15f","ios":"levelo://app?vid=e786e064-4552-41a1-a037-b0f5f3d3f15f"},"vehicle_type_id":"4","last_reported":1740276969,"current_range_meters":11600,"station_id":"ce4bgt12rcd13ifvqcd0","pricing_plan_id":"cebpf4jnsgd1na2vs0mg"},{"bike_id":"b52a7c21-6b06-4366-aed5-34786c44f10f","system_id":"levelo_inurba_marseille","lat":43.2956,"lon":5.42285,"is_reserved":false,"is_disabled":false,"rental_uris":{"android":"levelo://app?vid=b52a7c21-6b06-4366-aed5-34786c44f10f","ios":"levelo://app?vid=b52a7c21-6b06-4366-aed5-34786c44f10f"},"vehicle_type_id":"4","last_reported":1740276969,"current_range_meters":12000,"station_id":"ce4bhph2rcd13ifvqhdg","pricing_plan_id":"cebpf4jnsgd1na2vs0mg"},{"bike_id":"8dc51aab-29d3-43fa-a37e-6c47cc4c2e69","system_id":"levelo_inurba_marseille","lat":43.24149,"lon":5.36421,"is_reserved":false,"is_disabled":false,"rental_uris":{"android":"levelo://app?vid=8dc51aab-29d3-43fa-a37e-6c47cc4c2e69","ios":"levelo://app?vid=8dc51aab-29d3-43fa-a37e-6c47cc4c2e69"},"vehicle_type_id":"4","last_reported":1740276969,"current_range_meters":12000,"station_id":"cpo36qri1sfpv3e86is0","pricing_plan_id":"cebpf4jnsgd1na2vs0mg"},{"bike_id":"0e853235-21f7-4f1b-8713-c7df142dfb62","system_id":"levelo_inurba_marseille","lat":43.28985,"lon":5.362887,"is_reserved":false,"is_disabled":false,"rental_uris":{"android":"levelo://app?vid=0e853235-21f7-4f1b-8713-c7df142dfb62","ios":"levelo://app?vid=0e853235-21f7-4f1b-8713-c7df142dfb62"},"vehicle_type_id":"4","last_reported":1740276969,"current_range_meters":12000,"station_id":"cki0cbj6b192h4jlfktg","pricing_plan_id":"cebpf4jnsgd1na2vs0mg"},{"bike_id":"4177e995-807d-40d8-9b40-d51883f9ac50","system_id":"levelo_inurba_marseille","lat":43.24677,"lon":5.3816,"is_reserved":false,"is_disabled":false,"rental_uris":{"android":"levelo://app?vid=4177e995-807d-40d8-9b40-d51883f9ac50","ios":"levelo://app?vid=4177e995-807d-40d8-9b40-d51883f9ac50"},"vehicle_type_id":"4","last_reported":1740276969,"current_range_meters":12000,"station_id":"ce4bhih2rcd13ifvqfr0","pricing_plan_id":"cebpf4jnsgd1na2vs0mg"},{"bike_id":"3fd2a98c-7939-498c-8625-9658300a849b","system_id":"levelo_inurba_marseille","lat":43.25931,"lon":5.40895,"is_reserved":false,"is_disabled":false,"rental_uris":{"android":"levelo://app?vid=3fd2a98c-7939-498c-8625-9658300a849b","ios":"levelo://app?vid=3fd2a98c-7939-498c-8625-9658300a849b"},"vehicle_type_id":"4","last_reported":1740276969,"current_range_meters":12000,"station_id":"ce4bhm92rcd13ifvqglg","pricing_plan_id":"cebpf4jnsgd1na2vs0mg"},{"bike_id":"c396fa84-c871-4546-85c3-45e8ee86c4ed","system_id":"levelo_inurba_marseille","lat":43.29196,"lon":5.39331,"is_reserved":false,"is_disabled":false,"rental_uris":{"android":"levelo://app?vid=c396fa84-c871-4546-85c3-45e8ee86c4ed","ios":"levelo://app?vid=c396fa84-c871-4546-85c3-45e8ee86c4ed"},"vehicle_type_id":"4","last_reported":1740276969,"current_range_meters":12000,"station_id":"","pricing_plan_id":"cebpf4jnsgd1na2vs0mg"},{"bike_id":"9d0945d2-38eb-410a-a9b2-58bb6a88a0d9","system_id":"levelo_inurba_marseille","lat":43.287,"lon":5.39968,"is_reserved":false,"is_disabled":false,"rental_uris":{"android":"levelo://app?vid=9d0945d2-38eb-410a-a9b2-58bb6a88a0d9","ios":"levelo://app?vid=9d0945d2-38eb-410a-a9b2-58bb6a88a0d9"},"vehicle_type_id":"4","last_reported":1740276969,"current_range_meters":12000,"station_id":"ce4bho92rcd13ifvqh3g","pricing_plan_id":"cebpf4jnsgd1na2vs0mg"},{"bike_id":"b10f09b4-1a59-4280-997f-a1e0adca2fcf","system_id":"levelo_inurba_marseille","lat":43.25875,"lon":5.39889,"is_reserved":false,"is_disabled":false,"rental_uris":{"android":"levelo://app?vid=b10f09b4-1a59-4280-997f-a1e0adca2fcf","ios":"levelo://app?vid=b10f09b4-1a59-4280-997f-a1e0adca2fcf"},"vehicle_type_id":"4","last_reported":1740276969,"current_range_meters":12000,"station_id":"ce4bhl92rcd13ifvqghg","pricing_plan_id":"cebpf4jnsgd1na2vs0mg"},{"bike_id":"6cfc58a9-02b0-4986-9602-a8fc067f1c21","system_id":"levelo_inurba_marseille","lat":43.303419,"lon":5.41882,"is_reserved":false,"is_disabled":false,"rental_uris":{"android":"levelo://app?vid=6cfc58a9-02b0-4986-9602-a8fc067f1c21","ios":"levelo://app?vid=6cfc58a9-02b0-4986-9602-a8fc067f1c21"},"vehicle_type_id":"4","last_reported":1740276969,"current_range_meters":12000,"station_id":"ce4bhop2rcd13ifvqh7g","pricing_plan_id":"cebpf4jnsgd1na2vs0mg"},{"bike_id":"cfe30295-ce41-4a93-95e5-ae124cc84603","system_id":"levelo_inurba_marseille","lat":43.27672,"lon":5.38898,"is_reserved":false,"is_disabled":false,"rental_uris":{"android":"levelo://app?vid=cfe30295-ce41-4a93-95e5-ae124cc84603","ios":"levelo://app?vid=cfe30295-ce41-4a93-95e5-ae124cc84603"},"vehicle_type_id":"4","last_reported":1740276969,"current_range_meters":12400,"station_id":"ce4bhi12rcd13ifvqfo0","pricing_plan_id":"cebpf4jnsgd1na2vs0mg"},{"bike_id":"00512656-56f1-478d-a7b5-5569da3029b1","system_id":"levelo_inurba_marseille","lat":43.23942,"lon":5.36635,"is_reserved":false,"is_disabled":false,"rental_uris":{"android":"levelo://app?vid=00512656-56f1-478d-a7b5-5569da3029b1","ios":"levelo://app?vid=00512656-56f1-478d-a7b5-5569da3029b1"},"vehicle_type_id":"4","last_reported":1740276969,"current_range_meters":12400,"station_id":"ce4bhi12rcd13ifvqfp0","pricing_plan_id":"cebpf4jnsgd1na2vs0mg"},{"bike_id":"8e403f8a-b998-4fb1-bb90-54bf70e024a5","system_id":"levelo_inurba_marseille","lat":43.26933,"lon":5.38921,"is_reserved":false,"is_disabled":false,"rental_uris":{"android":"levelo://app?vid=8e403f8a-b998-4fb1-bb90-54bf70e024a5","ios":"levelo://app?vid=8e403f8a-b998-4fb1-bb90-54bf70e024a5"},"vehicle_type_id":"4","last_reported":1740276969,"current_range_meters":12400,"station_id":"ce4bhhh2rcd13ifvqfl0","pricing_plan_id":"cebpf4jnsgd1na2vs0mg"},{"bike_id":"bf955d35-f5d5-4c7a-acee-2eb7e71c40f9","system_id":"levelo_inurba_marseille","lat":43.2671,"lon":5.38254,"is_reserved":false,"is_disabled":false,"rental_uris":{"android":"levelo://app?vid=bf955d35-f5d5-4c7a-acee-2eb7e71c40f9","ios":"levelo://app?vid=bf955d35-f5d5-4c7a-acee-2eb7e71c40f9"},"vehicle_type_id":"4","last_reported":1740276969,"current_range_meters":12800,"station_id":"ce4bhg92rcd13ifvqf90","pricing_plan_id":"cebpf4jnsgd1na2vs0mg"},{"bike_id":"2043b63c-86fb-4771-99cf-582d1705e048","system_id":"levelo_inurba_marseille","lat":43.26561,"lon":5.37312,"is_reserved":false,"is_disabled":false,"rental_uris":{"android":"levelo://app?vid=2043b63c-86fb-4771-99cf-582d1705e048","ios":"levelo://app?vid=2043b63c-86fb-4771-99cf-582d1705e048"},"vehicle_type_id":"4","last_reported":1740276969,"current_range_meters":12800,"station_id":"ce4bhg12rcd13ifvqf70","pricing_plan_id":"cebpf4jnsgd1na2vs0mg"},{"bike_id":"7edad6f1-bb02-4747-8467-5494540e990b","system_id":"levelo_inurba_marseille","lat":43.25011,"lon":5.38923,"is_reserved":false,"is_disabled":false,"rental_uris":{"android":"levelo://app?vid=7edad6f1-bb02-4747-8467-5494540e990b","ios":"levelo://app?vid=7edad6f1-bb02-4747-8467-5494540e990b"},"vehicle_type_id":"4","last_reported":1740276969,"current_range_meters":12800,"station_id":"ce4bhgp2rcd13ifvqfd0","pricing_plan_id":"cebpf4jnsgd1na2vs0mg"},{"bike_id":"d5785c9b-5e24-4171-ab25-039888b91745","system_id":"levelo_inurba_marseille","lat":43.28096,"lon":5.37864,"is_reserved":false,"is_disabled":false,"rental_uris":{"android":"levelo://app?vid=d5785c9b-5e24-4171-ab25-039888b91745","ios":"levelo://app?vid=d5785c9b-5e24-4171-ab25-039888b91745"},"vehicle_type_id":"4","last_reported":1740276969,"current_range_meters":13600,"station_id":"ce4bha12rcd13ifvqee0","pricing_plan_id":"cebpf4jnsgd1na2vs0mg"},{"bike_id":"095d5026-b6cb-411c-ab71-6c60703e2b2f","system_id":"levelo_inurba_marseille","lat":43.23059,"lon":5.35504,"is_reserved":false,"is_disabled":true,"rental_uris":{"android":"levelo://app?vid=095d5026-b6cb-411c-ab71-6c60703e2b2f","ios":"levelo://app?vid=095d5026-b6cb-411c-ab71-6c60703e2b2f"},"vehicle_type_id":"4","last_reported":1740276969,"current_range_meters":13600,"station_id":"cpo3342slgdg3j2ifvpg","pricing_plan_id":"cebpf4jnsgd1na2vs0mg"},{"bike_id":"7d4b257a-c60d-48e8-85d7-7dc3f985241e","system_id":"levelo_inurba_marseille","lat":43.29648,"lon":5.38531,"is_reserved":false,"is_disabled":false,"rental_uris":{"android":"levelo://app?vid=7d4b257a-c60d-48e8-85d7-7dc3f985241e","ios":"levelo://app?vid=7d4b257a-c60d-48e8-85d7-7dc3f985241e"},"vehicle_type_id":"4","last_reported":1740276969,"current_range_meters":13600,"station_id":"","pricing_plan_id":"cebpf4jnsgd1na2vs0mg"},{"bike_id":"e0c1d965-9bb5-48f6-93c4-81a00c3e7849","system_id":"levelo_inurba_marseille","lat":43.27071,"lon":5.42272,"is_reserved":false,"is_disabled":false,"rental_uris":{"android":"levelo://app?vid=e0c1d965-9bb5-48f6-93c4-81a00c3e7849","ios":"levelo://app?vid=e0c1d965-9bb5-48f6-93c4-81a00c3e7849"},"vehicle_type_id":"4","last_reported":1740276969,"current_range_meters":13600,"station_id":"ce4bhk92rcd13ifvqgb0","pricing_plan_id":"cebpf4jnsgd1na2vs0mg"},{"bike_id":"07e94c33-65a8-4be0-90bf-399fe126c10e","system_id":"levelo_inurba_marseille","lat":43.25038,"lon":5.38961,"is_reserved":false,"is_disabled":false,"rental_uris":{"android":"levelo://app?vid=07e94c33-65a8-4be0-90bf-399fe126c10e","ios":"levelo://app?vid=07e94c33-65a8-4be0-90bf-399fe126c10e"},"vehicle_type_id":"4","last_reported":1740276969,"current_range_meters":13600,"station_id":"","pricing_plan_id":"cebpf4jnsgd1na2vs0mg"},{"bike_id":"4ea21742-9fb8-4878-a279-bb0cd6c38d0e","system_id":"levelo_inurba_marseille","lat":43.27824,"lon":5.407179,"is_reserved":false,"is_disabled":false,"rental_uris":{"android":"levelo://app?vid=4ea21742-9fb8-4878-a279-bb0cd6c38d0e","ios":"levelo://app?vid=4ea21742-9fb8-4878-a279-bb0cd6c38d0e"},"vehicle_type_id":"4","last_reported":1740276969,"current_range_meters":13600,"station_id":"ce4bhnh2rcd13ifvqgtg","pricing_plan_id":"cebpf4jnsgd1na2vs0mg"},{"bike_id":"6e7453d3-b596-416f-a44e-21daef2820ad","system_id":"levelo_inurba_marseille","lat":43.25579,"lon":5.38233,"is_reserved":false,"is_disabled":false,"rental_uris":{"android":"levelo://app?vid=6e7453d3-b596-416f-a44e-21daef2820ad","ios":"levelo://app?vid=6e7453d3-b596-416f-a44e-21daef2820ad"},"vehicle_type_id":"4","last_reported":1740276969,"current_range_meters":14000,"station_id":"ce4bhih2rcd13ifvqfs0","pricing_plan_id":"cebpf4jnsgd1na2vs0mg"},{"bike_id":"fdbcb8e1-2e4e-454d-9bd8-1cbd05122eda","system_id":"levelo_inurba_marseille","lat":43.28455,"lon":5.35889,"is_reserved":false,"is_disabled":false,"rental_uris":{"android":"levelo://app?vid=fdbcb8e1-2e4e-454d-9bd8-1cbd05122eda","ios":"levelo://app?vid=fdbcb8e1-2e4e-454d-9bd8-1cbd05122eda"},"vehicle_type_id":"4","last_reported":1740276969,"current_range_meters":14000,"station_id":"ce4bhah2rcd13ifvqei0","pricing_plan_id":"cebpf4jnsgd1na2vs0mg"},{"bike_id":"86293d1b-93d4-40b3-96d8-d87e56d36b60","system_id":"levelo_inurba_marseille","lat":43.30946,"lon":5.39041,"is_reserved":false,"is_disabled":false,"rental_uris":{"android":"levelo://app?vid=86293d1b-93d4-40b3-96d8-d87e56d36b60","ios":"levelo://app?vid=86293d1b-93d4-40b3-96d8-d87e56d36b60"},"vehicle_type_id":"4","last_reported":1740276969,"current_range_meters":14000,"station_id":"ce4bgup2rcd13ifvqco0","pricing_plan_id":"cebpf4jnsgd1na2vs0mg"},{"bike_id":"f5043b92-9d4a-4bb2-9e78-864d7e12fcea","system_id":"levelo_inurba_marseille","lat":43.28716,"lon":5.37405,"is_reserved":false,"is_disabled":false,"rental_uris":{"android":"levelo://app?vid=f5043b92-9d4a-4bb2-9e78-864d7e12fcea","ios":"levelo://app?vid=f5043b92-9d4a-4bb2-9e78-864d7e12fcea"},"vehicle_type_id":"4","last_reported":1740276969,"current_range_meters":14000,"station_id":"ce4bh3p2rcd13ifvqdq0","pricing_plan_id":"cebpf4jnsgd1na2vs0mg"},{"bike_id":"6cee15f5-f5b0-4f78-80d2-62dd5deb5a0a","system_id":"levelo_inurba_marseille","lat":43.26554,"lon":5.39015,"is_reserved":false,"is_disabled":false,"rental_uris":{"android":"levelo://app?vid=6cee15f5-f5b0-4f78-80d2-62dd5deb5a0a","ios":"levelo://app?vid=6cee15f5-f5b0-4f78-80d2-62dd5deb5a0a"},"vehicle_type_id":"4","last_reported":1740276969,"current_range_meters":14400,"station_id":"ce4bhe12rcd13ifvqf30","pricing_plan_id":"cebpf4jnsgd1na2vs0mg"},{"bike_id":"0960003d-eea6-4d26-a89e-510626acdaa2","system_id":"levelo_inurba_marseille","lat":43.27941,"lon":5.41033,"is_reserved":false,"is_disabled":false,"rental_uris":{"android":"levelo://app?vid=0960003d-eea6-4d26-a89e-510626acdaa2","ios":"levelo://app?vid=0960003d-eea6-4d26-a89e-510626acdaa2"},"vehicle_type_id":"4","last_reported":1740276969,"current_range_meters":14400,"station_id":"ce4bhnp2rcd13ifvqh0g","pricing_plan_id":"cebpf4jnsgd1na2vs0mg"},{"bike_id":"805dafe4-ede9-43e3-9967-acf972eeb82f","system_id":"levelo_inurba_marseille","lat":43.31075,"lon":5.38345,"is_reserved":false,"is_disabled":false,"rental_uris":{"android":"levelo://app?vid=805dafe4-ede9-43e3-9967-acf972eeb82f","ios":"levelo://app?vid=805dafe4-ede9-43e3-9967-acf972eeb82f"},"vehicle_type_id":"4","last_reported":1740276969,"current_range_meters":16000,"station_id":"ce4bgv92rcd13ifvqcr0","pricing_plan_id":"cebpf4jnsgd1na2vs0mg"},{"bike_id":"f9ee3af5-1bd6-4186-a85a-8a08e341ec27","system_id":"levelo_inurba_marseille","lat":43.30307,"lon":5.36865,"is_reserved":false,"is_disabled":false,"rental_uris":{"android":"levelo://app?vid=f9ee3af5-1bd6-4186-a85a-8a08e341ec27","ios":"levelo://app?vid=f9ee3af5-1bd6-4186-a85a-8a08e341ec27"},"vehicle_type_id":"4","last_reported":1740276969,"current_range_meters":14400,"station_id":"ce4bgqh2rcd13ifvqc5g","pricing_plan_id":"cebpf4jnsgd1na2vs0mg"},{"bike_id":"47c58b1f-0f04-4a95-ba73-4d794abee5f2","system_id":"levelo_inurba_marseille","lat":43.30445,"lon":5.38906,"is_reserved":false,"is_disabled":true,"rental_uris":{"android":"levelo://app?vid=47c58b1f-0f04-4a95-ba73-4d794abee5f2","ios":"levelo://app?vid=47c58b1f-0f04-4a95-ba73-4d794abee5f2"},"vehicle_type_id":"4","last_reported":1740276969,"current_range_meters":14800,"station_id":"ce4bgk12rcd13ifvqbi0","pricing_plan_id":"cebpf4jnsgd1na2vs0mg"},{"bike_id":"e636832d-d31d-492b-9bcd-b899a106503d","system_id":"levelo_inurba_marseille","lat":43.24168,"lon":5.36392,"is_reserved":false,"is_disabled":false,"rental_uris":{"android":"levelo://app?vid=e636832d-d31d-492b-9bcd-b899a106503d","ios":"levelo://app?vid=e636832d-d31d-492b-9bcd-b899a106503d"},"vehicle_type_id":"4","last_reported":1740276969,"current_range_meters":14800,"station_id":"cpo36qri1sfpv3e86is0","pricing_plan_id":"cebpf4jnsgd1na2vs0mg"},{"bike_id":"e64ff07f-c2cf-4166-9163-32e5f1609d23","system_id":"levelo_inurba_marseille","lat":43.30649,"lon":5.4007,"is_reserved":false,"is_disabled":false,"rental_uris":{"android":"levelo://app?vid=e64ff07f-c2cf-4166-9163-32e5f1609d23","ios":"levelo://app?vid=e64ff07f-c2cf-4166-9163-32e5f1609d23"},"vehicle_type_id":"4","last_reported":1740276969,"current_range_meters":14800,"station_id":"ce4bh112rcd13ifvqda0","pricing_plan_id":"cebpf4jnsgd1na2vs0mg"},{"bike_id":"33cc0fcb-f6e1-44bc-9328-d3f75a5791c5","system_id":"levelo_inurba_marseille","lat":43.23198,"lon":5.35554,"is_reserved":false,"is_disabled":false,"rental_uris":{"android":"levelo://app?vid=33cc0fcb-f6e1-44bc-9328-d3f75a5791c5","ios":"levelo://app?vid=33cc0fcb-f6e1-44bc-9328-d3f75a5791c5"},"vehicle_type_id":"4","last_reported":1740276969,"current_range_meters":14800,"station_id":"ce4bhu92rcd13ifvqi70","pricing_plan_id":"cebpf4jnsgd1na2vs0mg"},{"bike_id":"36d7f78e-c2d0-41aa-9a20-d5889dfcf953","system_id":"levelo_inurba_marseille","lat":43.30932,"lon":5.40148,"is_reserved":false,"is_disabled":false,"rental_uris":{"android":"levelo://app?vid=36d7f78e-c2d0-41aa-9a20-d5889dfcf953","ios":"levelo://app?vid=36d7f78e-c2d0-41aa-9a20-d5889dfcf953"},"vehicle_type_id":"4","last_reported":1740276969,"current_range_meters":14800,"station_id":"ce4bgvp2rcd13ifvqct0","pricing_plan_id":"cebpf4jnsgd1na2vs0mg"},{"bike_id":"133eda79-8c18-4ed5-8caf-521ff4896829","system_id":"levelo_inurba_marseille","lat":43.28616,"lon":5.37094,"is_reserved":false,"is_disabled":false,"rental_uris":{"android":"levelo://app?vid=133eda79-8c18-4ed5-8caf-521ff4896829","ios":"levelo://app?vid=133eda79-8c18-4ed5-8caf-521ff4896829"},"vehicle_type_id":"4","last_reported":1740276969,"current_range_meters":15200,"station_id":"ce4bht12rcd13ifvqi60","pricing_plan_id":"cebpf4jnsgd1na2vs0mg"},{"bike_id":"80e30e07-59ff-4807-b06b-c6dc1a9e08e2","system_id":"levelo_inurba_marseille","lat":43.33611,"lon":5.41036,"is_reserved":false,"is_disabled":true,"rental_uris":{"android":"levelo://app?vid=80e30e07-59ff-4807-b06b-c6dc1a9e08e2","ios":"levelo://app?vid=80e30e07-59ff-4807-b06b-c6dc1a9e08e2"},"vehicle_type_id":"4","last_reported":1740276969,"current_range_meters":15200,"station_id":"ce4bhqh2rcd13ifvqhmg","pricing_plan_id":"cebpf4jnsgd1na2vs0mg"},{"bike_id":"a33158ce-575c-4c9f-bec4-211f0c880a1a","system_id":"levelo_inurba_marseille","lat":43.29558,"lon":5.42292,"is_reserved":false,"is_disabled":false,"rental_uris":{"android":"levelo://app?vid=a33158ce-575c-4c9f-bec4-211f0c880a1a","ios":"levelo://app?vid=a33158ce-575c-4c9f-bec4-211f0c880a1a"},"vehicle_type_id":"4","last_reported":1740276969,"current_range_meters":15200,"station_id":"ce4bhph2rcd13ifvqhdg","pricing_plan_id":"cebpf4jnsgd1na2vs0mg"},{"bike_id":"1b218dd3-cbf0-4126-858c-bdfc514e6cf8","system_id":"levelo_inurba_marseille","lat":43.30314,"lon":5.36903,"is_reserved":false,"is_disabled":false,"rental_uris":{"android":"levelo://app?vid=1b218dd3-cbf0-4126-858c-bdfc514e6cf8","ios":"levelo://app?vid=1b218dd3-cbf0-4126-858c-bdfc514e6cf8"},"vehicle_type_id":"4","last_reported":1740276969,"current_range_meters":15200,"station_id":"ce4bgqh2rcd13ifvqc5g","pricing_plan_id":"cebpf4jnsgd1na2vs0mg"},{"bike_id":"a695eda3-8555-4ce3-85ff-990506cef133","system_id":"levelo_inurba_marseille","lat":43.28105,"lon":5.37832,"is_reserved":false,"is_disabled":false,"rental_uris":{"android":"levelo://app?vid=a695eda3-8555-4ce3-85ff-990506cef133","ios":"levelo://app?vid=a695eda3-8555-4ce3-85ff-990506cef133"},"vehicle_type_id":"4","last_reported":1740276969,"current_range_meters":16000,"station_id":"ce4bha12rcd13ifvqee0","pricing_plan_id":"cebpf4jnsgd1na2vs0mg"},{"bike_id":"4caf490d-10e5-4073-8dae-a68a285775aa","system_id":"levelo_inurba_marseille","lat":43.24478,"lon":5.36994,"is_reserved":false,"is_disabled":false,"rental_uris":{"android":"levelo://app?vid=4caf490d-10e5-4073-8dae-a68a285775aa","ios":"levelo://app?vid=4caf490d-10e5-4073-8dae-a68a285775aa"},"vehicle_type_id":"4","last_reported":1740276969,"current_range_meters":16000,"station_id":"","pricing_plan_id":"cebpf4jnsgd1na2vs0mg"},{"bike_id":"ab7da9df-c7ed-482b-9961-43b5cca3e34b","system_id":"levelo_inurba_marseille","lat":43.31105,"lon":5.37776,"is_reserved":false,"is_disabled":true,"rental_uris":{"android":"levelo://app?vid=ab7da9df-c7ed-482b-9961-43b5cca3e34b","ios":"levelo://app?vid=ab7da9df-c7ed-482b-9961-43b5cca3e34b"},"vehicle_type_id":"4","last_reported":1740276969,"current_range_meters":16000,"station_id":"ce4bgt92rcd13ifvqcg0","pricing_plan_id":"cebpf4jnsgd1na2vs0mg"},{"bike_id":"f4fe54f8-7e2d-442b-b50c-1d0c64822e08","system_id":"levelo_inurba_marseille","lat":43.28715,"lon":5.38328,"is_reserved":false,"is_disabled":false,"rental_uris":{"android":"levelo://app?vid=f4fe54f8-7e2d-442b-b50c-1d0c64822e08","ios":"levelo://app?vid=f4fe54f8-7e2d-442b-b50c-1d0c64822e08"},"vehicle_type_id":"4","last_reported":1740276969,"current_range_meters":16000,"station_id":"","pricing_plan_id":"cebpf4jnsgd1na2vs0mg"},{"bike_id":"7330758a-b186-4c5c-af68-65980e50c2ac","system_id":"levelo_inurba_marseille","lat":43.28037,"lon":5.3695,"is_reserved":false,"is_disabled":false,"rental_uris":{"android":"levelo://app?vid=7330758a-b186-4c5c-af68-65980e50c2ac","ios":"levelo://app?vid=7330758a-b186-4c5c-af68-65980e50c2ac"},"vehicle_type_id":"4","last_reported":1740276969,"current_range_meters":16000,"station_id":"ce4bha12rcd13ifvqef0","pricing_plan_id":"cebpf4jnsgd1na2vs0mg"},{"bike_id":"a3610751-bbe4-4d3e-a717-1a0eebd2fb2a","system_id":"levelo_inurba_marseille","lat":43.30707,"lon":5.3753,"is_reserved":false,"is_disabled":false,"rental_uris":{"android":"levelo://app?vid=a3610751-bbe4-4d3e-a717-1a0eebd2fb2a","ios":"levelo://app?vid=a3610751-bbe4-4d3e-a717-1a0eebd2fb2a"},"vehicle_type_id":"4","last_reported":1740276969,"current_range_meters":16000,"station_id":"","pricing_plan_id":"cebpf4jnsgd1na2vs0mg"},{"bike_id":"cff5de6c-d1d8-4938-8fd9-71c62e4771ab","system_id":"levelo_inurba_marseille","lat":43.31251,"lon":5.36857,"is_reserved":false,"is_disabled":false,"rental_uris":{"android":"levelo://app?vid=cff5de6c-d1d8-4938-8fd9-71c62e4771ab","ios":"levelo://app?vid=cff5de6c-d1d8-4938-8fd9-71c62e4771ab"},"vehicle_type_id":"4","last_reported":1740276969,"current_range_meters":16000,"station_id":"ce4bgl92rcd13ifvqbq0","pricing_plan_id":"cebpf4jnsgd1na2vs0mg"},{"bike_id":"f9b90b69-3e59-438f-8710-d9c86cdfad09","system_id":"levelo_inurba_marseille","lat":43.31384,"lon":5.36705,"is_reserved":false,"is_disabled":false,"rental_uris":{"android":"levelo://app?vid=f9b90b69-3e59-438f-8710-d9c86cdfad09","ios":"levelo://app?vid=f9b90b69-3e59-438f-8710-d9c86cdfad09"},"vehicle_type_id":"4","last_reported":1740276969,"current_range_meters":16400,"station_id":"","pricing_plan_id":"cebpf4jnsgd1na2vs0mg"},{"bike_id":"0e17628e-77f1-4b2d-9900-e51a8c9f0181","system_id":"levelo_inurba_marseille","lat":43.28889,"lon":5.45009,"is_reserved":false,"is_disabled":false,"rental_uris":{"android":"levelo://app?vid=0e17628e-77f1-4b2d-9900-e51a8c9f0181","ios":"levelo://app?vid=0e17628e-77f1-4b2d-9900-e51a8c9f0181"},"vehicle_type_id":"4","last_reported":1740276969,"current_range_meters":16400,"station_id":"","pricing_plan_id":"cebpf4jnsgd1na2vs0mg"},{"bike_id":"be3828a1-b36a-4668-acc5-bef44c90048a","system_id":"levelo_inurba_marseille","lat":43.29994,"lon":5.37179,"is_reserved":false,"is_disabled":false,"rental_uris":{"android":"levelo://app?vid=be3828a1-b36a-4668-acc5-bef44c90048a","ios":"levelo://app?vid=be3828a1-b36a-4668-acc5-bef44c90048a"},"vehicle_type_id":"4","last_reported":1740276969,"current_range_meters":16400,"station_id":"ce4bgr92rcd13ifvqc7g","pricing_plan_id":"cebpf4jnsgd1na2vs0mg"},{"bike_id":"3a65e98c-6fc0-442b-97a2-ccd814e231ae","system_id":"levelo_inurba_marseille","lat":43.24071,"lon":5.37762,"is_reserved":false,"is_disabled":false,"rental_uris":{"android":"levelo://app?vid=3a65e98c-6fc0-442b-97a2-ccd814e231ae","ios":"levelo://app?vid=3a65e98c-6fc0-442b-97a2-ccd814e231ae"},"vehicle_type_id":"4","last_reported":1740276969,"current_range_meters":16400,"station_id":"ce4bhnp2rcd13ifvqgvg","pricing_plan_id":"cebpf4jnsgd1na2vs0mg"},{"bike_id":"4c675789-023c-4882-97df-93700cd2c977","system_id":"levelo_inurba_marseille","lat":43.24679,"lon":5.38138,"is_reserved":false,"is_disabled":false,"rental_uris":{"android":"levelo://app?vid=4c675789-023c-4882-97df-93700cd2c977","ios":"levelo://app?vid=4c675789-023c-4882-97df-93700cd2c977"},"vehicle_type_id":"4","last_reported":1740276969,"current_range_meters":16400,"station_id":"ce4bhih2rcd13ifvqfr0","pricing_plan_id":"cebpf4jnsgd1na2vs0mg"},{"bike_id":"6e15618d-4d2d-4cdc-9d90-2b87c6806ce4","system_id":"levelo_inurba_marseille","lat":43.27176,"lon":5.40999,"is_reserved":false,"is_disabled":false,"rental_uris":{"android":"levelo://app?vid=6e15618d-4d2d-4cdc-9d90-2b87c6806ce4","ios":"levelo://app?vid=6e15618d-4d2d-4cdc-9d90-2b87c6806ce4"},"vehicle_type_id":"4","last_reported":1740276969,"current_range_meters":16400,"station_id":"ce4bhl12rcd13ifvqgf0","pricing_plan_id":"cebpf4jnsgd1na2vs0mg"},{"bike_id":"855caca9-cd59-4c97-ad51-a64e28ee341f","system_id":"levelo_inurba_marseille","lat":43.30877,"lon":5.3963,"is_reserved":false,"is_disabled":true,"rental_uris":{"android":"levelo://app?vid=855caca9-cd59-4c97-ad51-a64e28ee341f","ios":"levelo://app?vid=855caca9-cd59-4c97-ad51-a64e28ee341f"},"vehicle_type_id":"4","last_reported":1740276969,"current_range_meters":16400,"station_id":"ce4bh012rcd13ifvqcv0","pricing_plan_id":"cebpf4jnsgd1na2vs0mg"},{"bike_id":"4bf95473-2b8f-4dfa-85d3-1f987c13c8a4","system_id":"levelo_inurba_marseille","lat":43.30349,"lon":5.41886,"is_reserved":false,"is_disabled":false,"rental_uris":{"android":"levelo://app?vid=4bf95473-2b8f-4dfa-85d3-1f987c13c8a4","ios":"levelo://app?vid=4bf95473-2b8f-4dfa-85d3-1f987c13c8a4"},"vehicle_type_id":"4","last_reported":1740276969,"current_range_meters":16400,"station_id":"ce4bhop2rcd13ifvqh7g","pricing_plan_id":"cebpf4jnsgd1na2vs0mg"},{"bike_id":"9fdc5228-e835-4793-ad30-e5834cfd975b","system_id":"levelo_inurba_marseille","lat":43.2586,"lon":5.39904,"is_reserved":false,"is_disabled":false,"rental_uris":{"android":"levelo://app?vid=9fdc5228-e835-4793-ad30-e5834cfd975b","ios":"levelo://app?vid=9fdc5228-e835-4793-ad30-e5834cfd975b"},"vehicle_type_id":"4","last_reported":1740276969,"current_range_meters":16400,"station_id":"ce4bhl92rcd13ifvqghg","pricing_plan_id":"cebpf4jnsgd1na2vs0mg"},{"bike_id":"e501be99-a171-4e91-9e5b-ac547e4c06f2","system_id":"levelo_inurba_marseille","lat":43.23193,"lon":5.35549,"is_reserved":false,"is_disabled":false,"rental_uris":{"android":"levelo://app?vid=e501be99-a171-4e91-9e5b-ac547e4c06f2","ios":"levelo://app?vid=e501be99-a171-4e91-9e5b-ac547e4c06f2"},"vehicle_type_id":"4","last_reported":1740276969,"current_range_meters":16400,"station_id":"ce4bhu92rcd13ifvqi70","pricing_plan_id":"cebpf4jnsgd1na2vs0mg"},{"bike_id":"32f327f9-b577-4c3c-a746-3092ee67a262","system_id":"levelo_inurba_marseille","lat":43.29221,"lon":5.36083,"is_reserved":false,"is_disabled":false,"rental_uris":{"android":"levelo://app?vid=32f327f9-b577-4c3c-a746-3092ee67a262","ios":"levelo://app?vid=32f327f9-b577-4c3c-a746-3092ee67a262"},"vehicle_type_id":"4","last_reported":1740276969,"current_range_meters":16800,"station_id":"ce4bhbh2rcd13ifvqeqg","pricing_plan_id":"cebpf4jnsgd1na2vs0mg"},{"bike_id":"94d81672-f077-455d-ad5d-d4332136c2a8","system_id":"levelo_inurba_marseille","lat":43.22893,"lon":5.35409,"is_reserved":false,"is_disabled":false,"rental_uris":{"android":"levelo://app?vid=94d81672-f077-455d-ad5d-d4332136c2a8","ios":"levelo://app?vid=94d81672-f077-455d-ad5d-d4332136c2a8"},"vehicle_type_id":"4","last_reported":1740276969,"current_range_meters":16800,"station_id":"cpo3532slgdg3j2ikp40","pricing_plan_id":"cebpf4jnsgd1na2vs0mg"},{"bike_id":"97ecfce5-1345-4264-9caa-09b38454c8ce","system_id":"levelo_inurba_marseille","lat":43.25713,"lon":5.4109,"is_reserved":false,"is_disabled":false,"rental_uris":{"android":"levelo://app?vid=97ecfce5-1345-4264-9caa-09b38454c8ce","ios":"levelo://app?vid=97ecfce5-1345-4264-9caa-09b38454c8ce"},"vehicle_type_id":"4","last_reported":1740276969,"current_range_meters":16800,"station_id":"ce4bhkp2rcd13ifvqgd0","pricing_plan_id":"cebpf4jnsgd1na2vs0mg"},{"bike_id":"2bdc35be-c87d-4858-a812-b27d436edeb5","system_id":"levelo_inurba_marseille","lat":43.28261,"lon":5.3507,"is_reserved":false,"is_disabled":false,"rental_uris":{"android":"levelo://app?vid=2bdc35be-c87d-4858-a812-b27d436edeb5","ios":"levelo://app?vid=2bdc35be-c87d-4858-a812-b27d436edeb5"},"vehicle_type_id":"4","last_reported":1740276969,"current_range_meters":16800,"station_id":"ce4bhbp2rcd13ifvqerg","pricing_plan_id":"cebpf4jnsgd1na2vs0mg"},{"bike_id":"35f7fe5f-b05d-405c-a155-dda0758733e2","system_id":"levelo_inurba_marseille","lat":43.28166,"lon":5.42625,"is_reserved":false,"is_disabled":true,"rental_uris":{"android":"levelo://app?vid=35f7fe5f-b05d-405c-a155-dda0758733e2","ios":"levelo://app?vid=35f7fe5f-b05d-405c-a155-dda0758733e2"},"vehicle_type_id":"4","last_reported":1740276969,"current_range_meters":16800,"station_id":"ce4bhnh2rcd13ifvqgug","pricing_plan_id":"cebpf4jnsgd1na2vs0mg"},{"bike_id":"24371844-0388-4325-bd72-54e6291e85e8","system_id":"levelo_inurba_marseille","lat":43.27632,"lon":5.36099,"is_reserved":false,"is_disabled":false,"rental_uris":{"android":"levelo://app?vid=24371844-0388-4325-bd72-54e6291e85e8","ios":"levelo://app?vid=24371844-0388-4325-bd72-54e6291e85e8"},"vehicle_type_id":"4","last_reported":1740276969,"current_range_meters":16800,"station_id":"ce4bgj92rcd13ifvqbe0","pricing_plan_id":"cebpf4jnsgd1na2vs0mg"},{"bike_id":"7e68d2dc-c00f-4e58-8247-38224da8b835","system_id":"levelo_inurba_marseille","lat":43.2316,"lon":5.43713,"is_reserved":false,"is_disabled":false,"rental_uris":{"android":"levelo://app?vid=7e68d2dc-c00f-4e58-8247-38224da8b835","ios":"levelo://app?vid=7e68d2dc-c00f-4e58-8247-38224da8b835"},"vehicle_type_id":"4","last_reported":1740276969,"current_range_meters":16800,"station_id":"ce4bhmp2rcd13ifvqgog","pricing_plan_id":"cebpf4jnsgd1na2vs0mg"},{"bike_id":"9faf844a-413f-419f-bdea-64830f7f2bfb","system_id":"levelo_inurba_marseille","lat":43.29907,"lon":5.37834,"is_reserved":false,"is_disabled":false,"rental_uris":{"android":"levelo://app?vid=9faf844a-413f-419f-bdea-64830f7f2bfb","ios":"levelo://app?vid=9faf844a-413f-419f-bdea-64830f7f2bfb"},"vehicle_type_id":"4","last_reported":1740276969,"current_range_meters":17200,"station_id":"","pricing_plan_id":"cebpf4jnsgd1na2vs0mg"},{"bike_id":"d11f8e8f-64ba-4e30-9bb1-e71abe31654c","system_id":"levelo_inurba_marseille","lat":43.30315,"lon":5.36883,"is_reserved":false,"is_disabled":false,"rental_uris":{"android":"levelo://app?vid=d11f8e8f-64ba-4e30-9bb1-e71abe31654c","ios":"levelo://app?vid=d11f8e8f-64ba-4e30-9bb1-e71abe31654c"},"vehicle_type_id":"4","last_reported":1740276969,"current_range_meters":17200,"station_id":"ce4bgqh2rcd13ifvqc5g","pricing_plan_id":"cebpf4jnsgd1na2vs0mg"},{"bike_id":"85b5bbcd-7da2-4232-8e5a-a25680dad453","system_id":"levelo_inurba_marseille","lat":43.23954,"lon":5.36655,"is_reserved":false,"is_disabled":false,"rental_uris":{"android":"levelo://app?vid=85b5bbcd-7da2-4232-8e5a-a25680dad453","ios":"levelo://app?vid=85b5bbcd-7da2-4232-8e5a-a25680dad453"},"vehicle_type_id":"4","last_reported":1740276969,"current_range_meters":17200,"station_id":"ce4bhi12rcd13ifvqfp0","pricing_plan_id":"cebpf4jnsgd1na2vs0mg"},{"bike_id":"fea78874-3733-4df0-874f-aa7d40e872c3","system_id":"levelo_inurba_marseille","lat":43.30941,"lon":5.39029,"is_reserved":false,"is_disabled":false,"rental_uris":{"android":"levelo://app?vid=fea78874-3733-4df0-874f-aa7d40e872c3","ios":"levelo://app?vid=fea78874-3733-4df0-874f-aa7d40e872c3"},"vehicle_type_id":"4","last_reported":1740276969,"current_range_meters":17200,"station_id":"ce4bgup2rcd13ifvqco0","pricing_plan_id":"cebpf4jnsgd1na2vs0mg"},{"bike_id":"faeb2e28-4e2f-4cbb-aea8-2733d5daab0d","system_id":"levelo_inurba_marseille","lat":43.28702,"lon":5.37379,"is_reserved":false,"is_disabled":false,"rental_uris":{"android":"levelo://app?vid=faeb2e28-4e2f-4cbb-aea8-2733d5daab0d","ios":"levelo://app?vid=faeb2e28-4e2f-4cbb-aea8-2733d5daab0d"},"vehicle_type_id":"4","last_reported":1740276969,"current_range_meters":17600,"station_id":"ce4bh3p2rcd13ifvqdq0","pricing_plan_id":"cebpf4jnsgd1na2vs0mg"},{"bike_id":"4fd90cf5-0719-47d5-a493-0ca6596204e5","system_id":"levelo_inurba_marseille","lat":43.27999,"lon":5.41655,"is_reserved":false,"is_disabled":false,"rental_uris":{"android":"levelo://app?vid=4fd90cf5-0719-47d5-a493-0ca6596204e5","ios":"levelo://app?vid=4fd90cf5-0719-47d5-a493-0ca6596204e5"},"vehicle_type_id":"4","last_reported":1740276969,"current_range_meters":17600,"station_id":"ce4bho12rcd13ifvqh1g","pricing_plan_id":"cebpf4jnsgd1na2vs0mg"},{"bike_id":"01bab536-2393-431f-a656-943cc5734af3","system_id":"levelo_inurba_marseille","lat":43.2996,"lon":5.38503,"is_reserved":false,"is_disabled":false,"rental_uris":{"android":"levelo://app?vid=01bab536-2393-431f-a656-943cc5734af3","ios":"levelo://app?vid=01bab536-2393-431f-a656-943cc5734af3"},"vehicle_type_id":"4","last_reported":1740276969,"current_range_meters":17600,"station_id":"ce4bgj92rcd13ifvqbd0","pricing_plan_id":"cebpf4jnsgd1na2vs0mg"},{"bike_id":"a9fa856a-01d3-4bcd-8be8-4d8e5595841c","system_id":"levelo_inurba_marseille","lat":43.25589,"lon":5.38228,"is_reserved":false,"is_disabled":false,"rental_uris":{"android":"levelo://app?vid=a9fa856a-01d3-4bcd-8be8-4d8e5595841c","ios":"levelo://app?vid=a9fa856a-01d3-4bcd-8be8-4d8e5595841c"},"vehicle_type_id":"4","last_reported":1740276969,"current_range_meters":17600,"station_id":"ce4bhih2rcd13ifvqfs0","pricing_plan_id":"cebpf4jnsgd1na2vs0mg"},{"bike_id":"602f142d-3658-4df3-b7f6-84b194ffae3c","system_id":"levelo_inurba_marseille","lat":43.29279,"lon":5.40113,"is_reserved":false,"is_disabled":false,"rental_uris":{"android":"levelo://app?vid=602f142d-3658-4df3-b7f6-84b194ffae3c","ios":"levelo://app?vid=602f142d-3658-4df3-b7f6-84b194ffae3c"},"vehicle_type_id":"4","last_reported":1740276969,"current_range_meters":17600,"station_id":"ce4bh312rcd13ifvqdk0","pricing_plan_id":"cebpf4jnsgd1na2vs0mg"},{"bike_id":"68378a36-e3c6-4e62-a3a7-ae8d81a6086e","system_id":"levelo_inurba_marseille","lat":43.30609,"lon":5.37226,"is_reserved":false,"is_disabled":false,"rental_uris":{"android":"levelo://app?vid=68378a36-e3c6-4e62-a3a7-ae8d81a6086e","ios":"levelo://app?vid=68378a36-e3c6-4e62-a3a7-ae8d81a6086e"},"vehicle_type_id":"4","last_reported":1740276969,"current_range_meters":18000,"station_id":"ce4bgqh2rcd13ifvqc4g","pricing_plan_id":"cebpf4jnsgd1na2vs0mg"},{"bike_id":"61208316-9308-4988-99f7-5ead4f0f4c93","system_id":"levelo_inurba_marseille","lat":43.23195,"lon":5.35546,"is_reserved":false,"is_disabled":false,"rental_uris":{"android":"levelo://app?vid=61208316-9308-4988-99f7-5ead4f0f4c93","ios":"levelo://app?vid=61208316-9308-4988-99f7-5ead4f0f4c93"},"vehicle_type_id":"4","last_reported":1740276969,"current_range_meters":17600,"station_id":"ce4bhu92rcd13ifvqi70","pricing_plan_id":"cebpf4jnsgd1na2vs0mg"},{"bike_id":"e0eaa8ed-822d-43b8-9829-b90003beb400","system_id":"levelo_inurba_marseille","lat":43.24064,"lon":5.37759,"is_reserved":false,"is_disabled":false,"rental_uris":{"android":"levelo://app?vid=e0eaa8ed-822d-43b8-9829-b90003beb400","ios":"levelo://app?vid=e0eaa8ed-822d-43b8-9829-b90003beb400"},"vehicle_type_id":"4","last_reported":1740276969,"current_range_meters":17600,"station_id":"ce4bhnp2rcd13ifvqgvg","pricing_plan_id":"cebpf4jnsgd1na2vs0mg"},{"bike_id":"7540bb76-9c83-4856-b875-c71e42b1428c","system_id":"levelo_inurba_marseille","lat":43.29696,"lon":5.36603,"is_reserved":false,"is_disabled":false,"rental_uris":{"android":"levelo://app?vid=7540bb76-9c83-4856-b875-c71e42b1428c","ios":"levelo://app?vid=7540bb76-9c83-4856-b875-c71e42b1428c"},"vehicle_type_id":"4","last_reported":1740276969,"current_range_meters":17600,"station_id":"ce4bgn12rcd13ifvqbt0","pricing_plan_id":"cebpf4jnsgd1na2vs0mg"},{"bike_id":"391f162b-99de-4179-b8aa-3ffcc41a6126","system_id":"levelo_inurba_marseille","lat":43.27811,"lon":5.40709,"is_reserved":false,"is_disabled":false,"rental_uris":{"android":"levelo://app?vid=391f162b-99de-4179-b8aa-3ffcc41a6126","ios":"levelo://app?vid=391f162b-99de-4179-b8aa-3ffcc41a6126"},"vehicle_type_id":"4","last_reported":1740276969,"current_range_meters":18000,"station_id":"ce4bhnh2rcd13ifvqgtg","pricing_plan_id":"cebpf4jnsgd1na2vs0mg"},{"bike_id":"965f384a-f968-46e4-8c7c-1f5e669b6909","system_id":"levelo_inurba_marseille","lat":43.2509,"lon":5.39504,"is_reserved":false,"is_disabled":false,"rental_uris":{"android":"levelo://app?vid=965f384a-f968-46e4-8c7c-1f5e669b6909","ios":"levelo://app?vid=965f384a-f968-46e4-8c7c-1f5e669b6909"},"vehicle_type_id":"4","last_reported":1740276969,"current_range_meters":18000,"station_id":"ce4bhm12rcd13ifvqgkg","pricing_plan_id":"cebpf4jnsgd1na2vs0mg"},{"bike_id":"e8cfa923-e620-4e13-b5ef-9869f485a1f8","system_id":"levelo_inurba_marseille","lat":43.30939,"lon":5.39022,"is_reserved":false,"is_disabled":false,"rental_uris":{"android":"levelo://app?vid=e8cfa923-e620-4e13-b5ef-9869f485a1f8","ios":"levelo://app?vid=e8cfa923-e620-4e13-b5ef-9869f485a1f8"},"vehicle_type_id":"4","last_reported":1740276969,"current_range_meters":18000,"station_id":"ce4bgup2rcd13ifvqco0","pricing_plan_id":"cebpf4jnsgd1na2vs0mg"},{"bike_id":"0ab8f8c4-7aa8-4128-a2cd-ff233900785f","system_id":"levelo_inurba_marseille","lat":43.30615,"lon":5.37235,"is_reserved":false,"is_disabled":false,"rental_uris":{"android":"levelo://app?vid=0ab8f8c4-7aa8-4128-a2cd-ff233900785f","ios":"levelo://app?vid=0ab8f8c4-7aa8-4128-a2cd-ff233900785f"},"vehicle_type_id":"4","last_reported":1740276969,"current_range_meters":18000,"station_id":"ce4bgqh2rcd13ifvqc4g","pricing_plan_id":"cebpf4jnsgd1na2vs0mg"},{"bike_id":"e672cd00-72b0-400a-8535-9ab04e4611c6","system_id":"levelo_inurba_marseille","lat":43.24393,"lon":5.37074,"is_reserved":false,"is_disabled":false,"rental_uris":{"android":"levelo://app?vid=e672cd00-72b0-400a-8535-9ab04e4611c6","ios":"levelo://app?vid=e672cd00-72b0-400a-8535-9ab04e4611c6"},"vehicle_type_id":"4","last_reported":1740276969,"current_range_meters":18000,"station_id":"ce4bhhh2rcd13ifvqfk0","pricing_plan_id":"cebpf4jnsgd1na2vs0mg"},{"bike_id":"e45ca616-119b-4eca-990b-2198f0690a4c","system_id":"levelo_inurba_marseille","lat":43.28422,"lon":5.37512,"is_reserved":false,"is_disabled":false,"rental_uris":{"android":"levelo://app?vid=e45ca616-119b-4eca-990b-2198f0690a4c","ios":"levelo://app?vid=e45ca616-119b-4eca-990b-2198f0690a4c"},"vehicle_type_id":"4","last_reported":1740276969,"current_range_meters":18000,"station_id":"ce4bh412rcd13ifvqds0","pricing_plan_id":"cebpf4jnsgd1na2vs0mg"},{"bike_id":"363f0669-564f-4e66-9a10-8ae097530bbe","system_id":"levelo_inurba_marseille","lat":43.29572,"lon":5.42274,"is_reserved":false,"is_disabled":false,"rental_uris":{"android":"levelo://app?vid=363f0669-564f-4e66-9a10-8ae097530bbe","ios":"levelo://app?vid=363f0669-564f-4e66-9a10-8ae097530bbe"},"vehicle_type_id":"4","last_reported":1740276969,"current_range_meters":18000,"station_id":"ce4bhph2rcd13ifvqhdg","pricing_plan_id":"cebpf4jnsgd1na2vs0mg"},{"bike_id":"68c1cb49-7da1-4934-a025-4e78e338d091","system_id":"levelo_inurba_marseille","lat":43.337638,"lon":5.374412,"is_reserved":false,"is_disabled":false,"rental_uris":{"android":"levelo://app?vid=68c1cb49-7da1-4934-a025-4e78e338d091","ios":"levelo://app?vid=68c1cb49-7da1-4934-a025-4e78e338d091"},"vehicle_type_id":"4","last_reported":1740276969,"current_range_meters":18000,"station_id":"","pricing_plan_id":"cebpf4jnsgd1na2vs0mg"},{"bike_id":"f18600fd-82fa-4854-ba36-c4968bde95f4","system_id":"levelo_inurba_marseille","lat":43.3089,"lon":5.37202,"is_reserved":false,"is_disabled":false,"rental_uris":{"android":"levelo://app?vid=f18600fd-82fa-4854-ba36-c4968bde95f4","ios":"levelo://app?vid=f18600fd-82fa-4854-ba36-c4968bde95f4"},"vehicle_type_id":"4","last_reported":1740276969,"current_range_meters":18000,"station_id":"ce4bguh2rcd13ifvqckg","pricing_plan_id":"cebpf4jnsgd1na2vs0mg"},{"bike_id":"fc93a0cd-d658-4fe7-9e6a-52a49333f268","system_id":"levelo_inurba_marseille","lat":43.30831,"lon":5.38189,"is_reserved":false,"is_disabled":false,"rental_uris":{"android":"levelo://app?vid=fc93a0cd-d658-4fe7-9e6a-52a49333f268","ios":"levelo://app?vid=fc93a0cd-d658-4fe7-9e6a-52a49333f268"},"vehicle_type_id":"4","last_reported":1740276969,"current_range_meters":18000,"station_id":"ce4bgt12rcd13ifvqce0","pricing_plan_id":"cebpf4jnsgd1na2vs0mg"},{"bike_id":"bce8ff4e-7e32-4ed9-90a6-bb011609363d","system_id":"levelo_inurba_marseille","lat":43.28101,"lon":5.37849,"is_reserved":false,"is_disabled":false,"rental_uris":{"android":"levelo://app?vid=bce8ff4e-7e32-4ed9-90a6-bb011609363d","ios":"levelo://app?vid=bce8ff4e-7e32-4ed9-90a6-bb011609363d"},"vehicle_type_id":"4","last_reported":1740276969,"current_range_meters":18800,"station_id":"ce4bha12rcd13ifvqee0","pricing_plan_id":"cebpf4jnsgd1na2vs0mg"},{"bike_id":"ecec661f-657e-41c9-8e05-3f8f41f64ec8","system_id":"levelo_inurba_marseille","lat":43.29268,"lon":5.37629,"is_reserved":false,"is_disabled":false,"rental_uris":{"android":"levelo://app?vid=ecec661f-657e-41c9-8e05-3f8f41f64ec8","ios":"levelo://app?vid=ecec661f-657e-41c9-8e05-3f8f41f64ec8"},"vehicle_type_id":"4","last_reported":1740276969,"current_range_meters":18800,"station_id":"ce4bgi12rcd13ifvqb80","pricing_plan_id":"cebpf4jnsgd1na2vs0mg"},{"bike_id":"87cc9da7-06da-4613-8268-3488f4c9a9a7","system_id":"levelo_inurba_marseille","lat":43.28705,"lon":5.39986,"is_reserved":false,"is_disabled":false,"rental_uris":{"android":"levelo://app?vid=87cc9da7-06da-4613-8268-3488f4c9a9a7","ios":"levelo://app?vid=87cc9da7-06da-4613-8268-3488f4c9a9a7"},"vehicle_type_id":"4","last_reported":1740276969,"current_range_meters":18800,"station_id":"ce4bho92rcd13ifvqh3g","pricing_plan_id":"cebpf4jnsgd1na2vs0mg"},{"bike_id":"3cbdb434-e438-4607-a634-3ef0fbd311c9","system_id":"levelo_inurba_marseille","lat":43.23154,"lon":5.43711,"is_reserved":false,"is_disabled":false,"rental_uris":{"android":"levelo://app?vid=3cbdb434-e438-4607-a634-3ef0fbd311c9","ios":"levelo://app?vid=3cbdb434-e438-4607-a634-3ef0fbd311c9"},"vehicle_type_id":"4","last_reported":1740276969,"current_range_meters":18800,"station_id":"ce4bhmp2rcd13ifvqgog","pricing_plan_id":"cebpf4jnsgd1na2vs0mg"},{"bike_id":"908bdbe1-5cab-42c5-b66e-c6406da58f97","system_id":"levelo_inurba_marseille","lat":43.30311,"lon":5.36908,"is_reserved":false,"is_disabled":false,"rental_uris":{"android":"levelo://app?vid=908bdbe1-5cab-42c5-b66e-c6406da58f97","ios":"levelo://app?vid=908bdbe1-5cab-42c5-b66e-c6406da58f97"},"vehicle_type_id":"4","last_reported":1740276969,"current_range_meters":18800,"station_id":"ce4bgqh2rcd13ifvqc5g","pricing_plan_id":"cebpf4jnsgd1na2vs0mg"},{"bike_id":"65be3cee-f10a-46cd-aa32-84ffed28a357","system_id":"levelo_inurba_marseille","lat":43.31329,"lon":5.39687,"is_reserved":false,"is_disabled":false,"rental_uris":{"android":"levelo://app?vid=65be3cee-f10a-46cd-aa32-84ffed28a357","ios":"levelo://app?vid=65be3cee-f10a-46cd-aa32-84ffed28a357"},"vehicle_type_id":"4","last_reported":1740276969,"current_range_meters":18800,"station_id":"ce4bgvp2rcd13ifvqcu0","pricing_plan_id":"cebpf4jnsgd1na2vs0mg"},{"bike_id":"93fdfdf1-b786-4b32-bcc1-ecfe37b984d0","system_id":"levelo_inurba_marseille","lat":43.30413,"lon":5.41273,"is_reserved":false,"is_disabled":false,"rental_uris":{"android":"levelo://app?vid=93fdfdf1-b786-4b32-bcc1-ecfe37b984d0","ios":"levelo://app?vid=93fdfdf1-b786-4b32-bcc1-ecfe37b984d0"},"vehicle_type_id":"4","last_reported":1740276969,"current_range_meters":18800,"station_id":"ce4bhop2rcd13ifvqh8g","pricing_plan_id":"cebpf4jnsgd1na2vs0mg"},{"bike_id":"8eca7146-3348-4678-8dbc-70a25d98e581","system_id":"levelo_inurba_marseille","lat":43.28667,"lon":5.36344,"is_reserved":false,"is_disabled":false,"rental_uris":{"android":"levelo://app?vid=8eca7146-3348-4678-8dbc-70a25d98e581","ios":"levelo://app?vid=8eca7146-3348-4678-8dbc-70a25d98e581"},"vehicle_type_id":"4","last_reported":1740276969,"current_range_meters":18800,"station_id":"ce4bhah2rcd13ifvqej0","pricing_plan_id":"cebpf4jnsgd1na2vs0mg"},{"bike_id":"592492f6-aa56-43ac-bc32-ab8897d7e571","system_id":"levelo_inurba_marseille","lat":43.31226,"lon":5.36836,"is_reserved":false,"is_disabled":false,"rental_uris":{"android":"levelo://app?vid=592492f6-aa56-43ac-bc32-ab8897d7e571","ios":"levelo://app?vid=592492f6-aa56-43ac-bc32-ab8897d7e571"},"vehicle_type_id":"4","last_reported":1740276969,"current_range_meters":18800,"station_id":"ce4bgl92rcd13ifvqbq0","pricing_plan_id":"cebpf4jnsgd1na2vs0mg"},{"bike_id":"04d2baed-6020-49da-a94e-5cd3cc1cd370","system_id":"levelo_inurba_marseille","lat":43.25822,"lon":5.39426,"is_reserved":false,"is_disabled":false,"rental_uris":{"android":"levelo://app?vid=04d2baed-6020-49da-a94e-5cd3cc1cd370","ios":"levelo://app?vid=04d2baed-6020-49da-a94e-5cd3cc1cd370"},"vehicle_type_id":"4","last_reported":1740276969,"current_range_meters":18800,"station_id":"ce4bhip2rcd13ifvqft0","pricing_plan_id":"cebpf4jnsgd1na2vs0mg"},{"bike_id":"8e5d8ee8-3ab6-431c-8183-aaf067d6c91b","system_id":"levelo_inurba_marseille","lat":43.24996,"lon":5.38932,"is_reserved":false,"is_disabled":false,"rental_uris":{"android":"levelo://app?vid=8e5d8ee8-3ab6-431c-8183-aaf067d6c91b","ios":"levelo://app?vid=8e5d8ee8-3ab6-431c-8183-aaf067d6c91b"},"vehicle_type_id":"4","last_reported":1740276969,"current_range_meters":18800,"station_id":"ce4bhgp2rcd13ifvqfd0","pricing_plan_id":"cebpf4jnsgd1na2vs0mg"},{"bike_id":"ee82f77f-f9d3-4009-b8ec-39bce07c2f58","system_id":"levelo_inurba_marseille","lat":43.27497,"lon":5.42452,"is_reserved":false,"is_disabled":false,"rental_uris":{"android":"levelo://app?vid=ee82f77f-f9d3-4009-b8ec-39bce07c2f58","ios":"levelo://app?vid=ee82f77f-f9d3-4009-b8ec-39bce07c2f58"},"vehicle_type_id":"4","last_reported":1740276969,"current_range_meters":18800,"station_id":"ce4bhn92rcd13ifvqgrg","pricing_plan_id":"cebpf4jnsgd1na2vs0mg"},{"bike_id":"51c7c09f-82e9-4a4b-a201-54869c0fba8f","system_id":"levelo_inurba_marseille","lat":43.25087,"lon":5.39503,"is_reserved":false,"is_disabled":true,"rental_uris":{"android":"levelo://app?vid=51c7c09f-82e9-4a4b-a201-54869c0fba8f","ios":"levelo://app?vid=51c7c09f-82e9-4a4b-a201-54869c0fba8f"},"vehicle_type_id":"4","last_reported":1740276969,"current_range_meters":19200,"station_id":"ce4bhm12rcd13ifvqgkg","pricing_plan_id":"cebpf4jnsgd1na2vs0mg"},{"bike_id":"87c93845-143c-4613-9a0d-08836448a26d","system_id":"levelo_inurba_marseille","lat":43.23954,"lon":5.3664,"is_reserved":false,"is_disabled":false,"rental_uris":{"android":"levelo://app?vid=87c93845-143c-4613-9a0d-08836448a26d","ios":"levelo://app?vid=87c93845-143c-4613-9a0d-08836448a26d"},"vehicle_type_id":"4","last_reported":1740276969,"current_range_meters":19200,"station_id":"ce4bhi12rcd13ifvqfp0","pricing_plan_id":"cebpf4jnsgd1na2vs0mg"},{"bike_id":"1f724299-518e-43e9-b32e-7282b81b7214","system_id":"levelo_inurba_marseille","lat":43.25927,"lon":5.40883,"is_reserved":false,"is_disabled":false,"rental_uris":{"android":"levelo://app?vid=1f724299-518e-43e9-b32e-7282b81b7214","ios":"levelo://app?vid=1f724299-518e-43e9-b32e-7282b81b7214"},"vehicle_type_id":"4","last_reported":1740276969,"current_range_meters":19200,"station_id":"ce4bhm92rcd13ifvqglg","pricing_plan_id":"cebpf4jnsgd1na2vs0mg"},{"bike_id":"b5dd8a9f-3d15-459a-b125-02be793ceb5d","system_id":"levelo_inurba_marseille","lat":43.24069,"lon":5.37763,"is_reserved":false,"is_disabled":false,"rental_uris":{"android":"levelo://app?vid=b5dd8a9f-3d15-459a-b125-02be793ceb5d","ios":"levelo://app?vid=b5dd8a9f-3d15-459a-b125-02be793ceb5d"},"vehicle_type_id":"4","last_reported":1740276969,"current_range_meters":19200,"station_id":"ce4bhnp2rcd13ifvqgvg","pricing_plan_id":"cebpf4jnsgd1na2vs0mg"},{"bike_id":"dfd73891-7692-4880-af8b-db2b9051ddf4","system_id":"levelo_inurba_marseille","lat":43.3088,"lon":5.39631,"is_reserved":false,"is_disabled":false,"rental_uris":{"android":"levelo://app?vid=dfd73891-7692-4880-af8b-db2b9051ddf4","ios":"levelo://app?vid=dfd73891-7692-4880-af8b-db2b9051ddf4"},"vehicle_type_id":"4","last_reported":1740276969,"current_range_meters":19200,"station_id":"ce4bh012rcd13ifvqcv0","pricing_plan_id":"cebpf4jnsgd1na2vs0mg"},{"bike_id":"eef263fb-57cd-40ba-a946-5c93e49a95f3","system_id":"levelo_inurba_marseille","lat":43.29039,"lon":5.37548,"is_reserved":false,"is_disabled":false,"rental_uris":{"android":"levelo://app?vid=eef263fb-57cd-40ba-a946-5c93e49a95f3","ios":"levelo://app?vid=eef263fb-57cd-40ba-a946-5c93e49a95f3"},"vehicle_type_id":"4","last_reported":1740276969,"current_range_meters":19200,"station_id":"ce4bh692rcd13ifvqe90","pricing_plan_id":"cebpf4jnsgd1na2vs0mg"},{"bike_id":"10ef97ed-34d8-4649-924a-f68e48b166be","system_id":"levelo_inurba_marseille","lat":43.26238,"lon":5.40465,"is_reserved":false,"is_disabled":false,"rental_uris":{"android":"levelo://app?vid=10ef97ed-34d8-4649-924a-f68e48b166be","ios":"levelo://app?vid=10ef97ed-34d8-4649-924a-f68e48b166be"},"vehicle_type_id":"4","last_reported":1740276969,"current_range_meters":19200,"station_id":"ce4bhmh2rcd13ifvqgmg","pricing_plan_id":"cebpf4jnsgd1na2vs0mg"},{"bike_id":"980588cb-aa59-436a-9bc0-01f90b14b9b4","system_id":"levelo_inurba_marseille","lat":43.24159,"lon":5.36398,"is_reserved":false,"is_disabled":false,"rental_uris":{"android":"levelo://app?vid=980588cb-aa59-436a-9bc0-01f90b14b9b4","ios":"levelo://app?vid=980588cb-aa59-436a-9bc0-01f90b14b9b4"},"vehicle_type_id":"4","last_reported":1740276969,"current_range_meters":19600,"station_id":"cpo36qri1sfpv3e86is0","pricing_plan_id":"cebpf4jnsgd1na2vs0mg"},{"bike_id":"92ffc13c-13ce-4d33-8b49-d16e4760e200","system_id":"levelo_inurba_marseille","lat":43.2406,"lon":5.37758,"is_reserved":false,"is_disabled":false,"rental_uris":{"android":"levelo://app?vid=92ffc13c-13ce-4d33-8b49-d16e4760e200","ios":"levelo://app?vid=92ffc13c-13ce-4d33-8b49-d16e4760e200"},"vehicle_type_id":"4","last_reported":1740276969,"current_range_meters":19600,"station_id":"ce4bhnp2rcd13ifvqgvg","pricing_plan_id":"cebpf4jnsgd1na2vs0mg"},{"bike_id":"9d7c969d-ee67-4fd6-9d50-a91ee3e019cb","system_id":"levelo_inurba_marseille","lat":43.23209,"lon":5.39977,"is_reserved":false,"is_disabled":false,"rental_uris":{"android":"levelo://app?vid=9d7c969d-ee67-4fd6-9d50-a91ee3e019cb","ios":"levelo://app?vid=9d7c969d-ee67-4fd6-9d50-a91ee3e019cb"},"vehicle_type_id":"4","last_reported":1740276969,"current_range_meters":19600,"station_id":"ce4bhn12rcd13ifvqgqg","pricing_plan_id":"cebpf4jnsgd1na2vs0mg"},{"bike_id":"c74af51f-e8b0-454b-9ffe-08da9beb30bd","system_id":"levelo_inurba_marseille","lat":43.27918,"lon":5.39573,"is_reserved":false,"is_disabled":false,"rental_uris":{"android":"levelo://app?vid=c74af51f-e8b0-454b-9ffe-08da9beb30bd","ios":"levelo://app?vid=c74af51f-e8b0-454b-9ffe-08da9beb30bd"},"vehicle_type_id":"4","last_reported":1740276969,"current_range_meters":19600,"station_id":"ce4bhf92rcd13ifvqf40","pricing_plan_id":"cebpf4jnsgd1na2vs0mg"},