{"last_updated":1708373234,"ttl":30,"version":"2.2","data":{"bikes":[{"bike_id":"1698ad7f-4a82-4982-a4f7-719328e68ee5","system_id":"levelo_inurba_marseille","lat":43.31341,"lon":5.367098,"is_reserved":false,"is_disabled":false,"rental_uris":{"android":"levelo://app?vid=1698ad7f-4a82-4982-a4f7-719328e68ee5","ios":"levelo://app?vid=1698ad7f-4a82-4982-a4f7-719328e68ee5"},"vehicle_type_id":"4","last_reported":1708373234,"current_range_meters":0,"station_id":"ce4bgr92rcd13ifvqc6g","pricing_plan_id":"cebpf4jnsgd1na2vs0mg"},{"bike_id":"4a2b902a-b543-458d-8937-ff3c829e824f","system_id":"levelo_inurba_marseille","lat":43.312239,"lon":5.368562,"is_reserved":false,"is_disabled":false,"rental_uris":{"android":"levelo://app?vid=4a2b902a-b543-458d-8937-ff3c829e824f","ios":"levelo://app?vid=4a2b902a-b543-458d-8937-ff3c829e824f"},"vehicle_type_id":"4","last_reported":1708373234,"current_range_meters":4400,"station_id":"ce4bgl92rcd13ifvqbq0","pricing_plan_id":"cebpf4jnsgd1na2vs0mg"},{"bike_id":"c8f4694f-39f5-4e17-8c3f-2e8bc92a51a2","system_id":"levelo_inurba_marseille","lat":43.313514,"lon":5.369348,"is_reserved":false,"is_disabled":false,"rental_uris":{"android":"levelo://app?vid=c8f4694f-39f5-4e17-8c3f-2e8bc92a51a2","ios":"levelo://app?vid=c8f4694f-39f5-4e17-8c3f-2e8bc92a51a2"},"vehicle_type_id":"4","last_reported":1708373234,"current_range_meters":0,"station_id":"","pricing_plan_id":"cebpf4jnsgd1na2vs0mg"},{"bike_id":"b4128018-8336-41c3-9f08-59b70b531e37","system_id":"levelo_inurba_marseille","lat":43.314811,"lon":5.373103,"is_reserved":false,"is_disabled":false,"rental_uris":{"android":"levelo://app?vid=b4128018-8336-41c3-9f08-59b70b531e37","ios":"levelo://app?vid=b4128018-8336-41c3-9f08-59b70b531e37"},"vehicle_type_id":"4","last_reported":1708373234,"current_range_meters":12000,"station_id":"ce4bgt12rcd13ifvqcd0","pricing_plan_id":"cebpf4jnsgd1na2vs0mg"},{"bike_id":"432b721a-331e-46d1-ab59-236982e3b228","system_id":"levelo_inurba_marseille","lat":43.314811,"lon":5.373104,"is_reserved":false,"is_disabled":false,"rental_uris":{"android":"levelo://app?vid=432b721a-331e-46d1-ab59-236982e3b228","ios":"levelo://app?vid=432b721a-331e-46d1-ab59-236982e3b228"},"vehicle_type_id":"4","last_reported":1708373234,"current_range_meters":16000,"station_id":"ce4bgt12rcd13ifvqcd0","pricing_plan_id":"cebpf4jnsgd1na2vs0mg"},{"bike_id":"0cb5b8dc-0347-428a-949f-d92ee1ed7af1","system_id":"levelo_inurba_marseille","lat":43.309034,"lon":5.371783,"is_reserved":false,"is_disabled":false,"rental_uris":{"android":"levelo://app?vid=0cb5b8dc-0347-428a-949f-d92ee1ed7af1","ios":"levelo://app?vid=0cb5b8dc-0347-428a-949f-d92ee1ed7af1"},"vehicle_type_id":"4","last_reported":1708373234,"current_range_meters":8800,"station_id":"ce4bguh2rcd13ifvqckg","pricing_plan_id":"cebpf4jnsgd1na2vs0mg"},{"bike_id":"76fb9dd6-9185-4020-9096-109116386567","system_id":"levelo_inurba_marseille","lat":43.305368,"lon":5.367343,"is_reserved":false,"is_disabled":false,"rental_uris":{"android":"levelo://app?vid=76fb9dd6-9185-4020-9096-109116386567","ios":"levelo://app?vid=76fb9dd6-9185-4020-9096-109116386567"},"vehicle_type_id":"4","last_reported":1708373234,"current_range_meters":3600,"station_id":"ce4bgrp2rcd13ifvqc9g","pricing_plan_id":"cebpf4jnsgd1na2vs0mg"},{"bike_id":"844b86d2-bfaf-42bc-a4ad-4551a61a388d","system_id":"levelo_inurba_marseille","lat":43.305368,"lon":5.367343,"is_reserved":false,"is_disabled":false,"rental_uris":{"android":"levelo://app?vid=844b86d2-bfaf-42bc-a4ad-4551a61a388d","ios":"levelo://app?vid=844b86d2-bfaf-42bc-a4ad-4551a61a388d"},"vehicle_type_id":"4","last_reported":1708373234,"current_range_meters":16400,"station_id":"ce4bgrp2rcd13ifvqc9g","pricing_plan_id":"cebpf4jnsgd1na2vs0mg"},{"bike_id":"fc0b3c36-3893-46dd-b368-97ac44b084ab","system_id":"levelo_inurba_marseille","lat":43.305368,"lon":5.367343,"is_reserved":false,"is_disabled":false,"rental_uris":{"android":"levelo://app?vid=fc0b3c36-3893-46dd-b368-97ac44b084ab","ios":"levelo://app?vid=fc0b3c36-3893-46dd-b368-97ac44b084ab"},"vehicle_type_id":"4","last_reported":1708373234,"current_range_meters":800,"station_id":"ce4bgrp2rcd13ifvqc9g","pricing_plan_id":"cebpf4jnsgd1na2vs0mg"},{"bike_id":"11c7b7fc-e93e-4ee4-aa5d-5ce5716c911e","system_id":"levelo_inurba_marseille","lat":43.298037,"lon":5.381066,"is_reserved":false,"is_disabled":false,"rental_uris":{"android":"levelo://app?vid=11c7b7fc-e93e-4ee4-aa5d-5ce5716c911e","ios":"levelo://app?vid=11c7b7fc-e93e-4ee4-aa5d-5ce5716c911e"},"vehicle_type_id":"4","last_reported":1708373234,"current_range_meters":5200,"station_id":"ce4bgip2rcd13ifvqbb0","pricing_plan_id":"cebpf4jnsgd1na2vs0mg"},{"bike_id":"7b73d514-9422-4c57-8071-f66972931fe5","system_id":"levelo_inurba_marseille","lat":43.305989,"lon":5.37225,"is_reserved":false,"is_disabled":false,"rental_uris":{"android":"levelo://app?vid=7b73d514-9422-4c57-8071-f66972931fe5","ios":"levelo://app?vid=7b73d514-9422-4c57-8071-f66972931fe5"},"vehicle_type_id":"4","last_reported":1708373234,"current_range_meters":24800,"station_id":"ce4bgqh2rcd13ifvqc4g","pricing_plan_id":"cebpf4jnsgd1na2vs0mg"},{"bike_id":"e508b8d6-ed1c-4312-a8d0-6a407bac8100","system_id":"levelo_inurba_marseille","lat":43.311131,"lon":5.377651,"is_reserved":false,"is_disabled":false,"rental_uris":{"android":"levelo://app?vid=e508b8d6-ed1c-4312-a8d0-6a407bac8100","ios":"levelo://app?vid=e508b8d6-ed1c-4312-a8d0-6a407bac8100"},"vehicle_type_id":"4","last_reported":1708373234,"current_range_meters":7200,"station_id":"ce4bgt92rcd13ifvqcg0","pricing_plan_id":"cebpf4jnsgd1na2vs0mg"},{"bike_id":"b7388452-43cf-4c70-8df6-797be1d24fac","system_id":"levelo_inurba_marseille","lat":43.31122,"lon":5.377689,"is_reserved":false,"is_disabled":false,"rental_uris":{"android":"levelo://app?vid=b7388452-43cf-4c70-8df6-797be1d24fac","ios":"levelo://app?vid=b7388452-43cf-4c70-8df6-797be1d24fac"},"vehicle_type_id":"4","last_reported":1708373234,"current_range_meters":27600,"station_id":"ce4bgt92rcd13ifvqcg0","pricing_plan_id":"cebpf4jnsgd1na2vs0mg"},{"bike_id":"7af0fe75-826c-40a2-9f7b-3fa461949eb4","system_id":"levelo_inurba_marseille","lat":43.311131,"lon":5.377651,"is_reserved":false,"is_disabled":false,"rental_uris":{"android":"levelo://app?vid=7af0fe75-826c-40a2-9f7b-3fa461949eb4","ios":"levelo://app?vid=7af0fe75-826c-40a2-9f7b-3fa461949eb4"},"vehicle_type_id":"4","last_reported":1708373234,"current_range_meters":14000,"station_id":"ce4bgt92rcd13ifvqcg0","pricing_plan_id":"cebpf4jnsgd1na2vs0mg"},{"bike_id":"0208c589-fc9b-440f-b68b-5a3589ae3f3f","system_id":"levelo_inurba_marseille","lat":43.311131,"lon":5.377651,"is_reserved":false,"is_disabled":false,"rental_uris":{"android":"levelo://app?vid=0208c589-fc9b-440f-b68b-5a3589ae3f3f","ios":"levelo://app?vid=0208c589-fc9b-440f-b68b-5a3589ae3f3f"},"vehicle_type_id":"4","last_reported":1708373234,"current_range_meters":0,"station_id":"ce4bgt92rcd13ifvqcg0","pricing_plan_id":"cebpf4jnsgd1na2vs0mg"},{"bike_id":"7b755d1d-f38c-4741-b0d3-173930b4d07a","system_id":"levelo_inurba_marseille","lat":43.307945,"lon":5.376487,"is_reserved":false,"is_disabled":false,"rental_uris":{"android":"levelo://app?vid=7b755d1d-f38c-4741-b0d3-173930b4d07a","ios":"levelo://app?vid=7b755d1d-f38c-4741-b0d3-173930b4d07a"},"vehicle_type_id":"4","last_reported":1708373234,"current_range_meters":20000,"station_id":"ce4bgv92rcd13ifvqcq0","pricing_plan_id":"cebpf4jnsgd1na2vs0mg"},{"bike_id":"af4d98b8-6aaa-45bf-a686-b6f2adb4aa9f","system_id":"levelo_inurba_marseille","lat":43.307945,"lon":5.376487,"is_reserved":false,"is_disabled":false,"rental_uris":{"android":"levelo://app?vid=af4d98b8-6aaa-45bf-a686-b6f2adb4aa9f","ios":"levelo://app?vid=af4d98b8-6aaa-45bf-a686-b6f2adb4aa9f"},"vehicle_type_id":"4","last_reported":1708373234,"current_range_meters":3200,"station_id":"ce4bgv92rcd13ifvqcq0","pricing_plan_id":"cebpf4jnsgd1na2vs0mg"},{"bike_id":"0b6eadea-6fbd-45ef-9291-6b9e1d925434","system_id":"levelo_inurba_marseille","lat":43.317075,"lon":5.377367,"is_reserved":false,"is_disabled":false,"rental_uris":{"android":"levelo://app?vid=0b6eadea-6fbd-45ef-9291-6b9e1d925434","ios":"levelo://app?vid=0b6eadea-6fbd-45ef-9291-6b9e1d925434"},"vehicle_type_id":"4","last_reported":1708373234,"current_range_meters":0,"station_id":"ce4bgth2rcd13ifvqch0","pricing_plan_id":"cebpf4jnsgd1na2vs0mg"},{"bike_id":"e93332c8-71cb-4a70-a2cb-8dae89f30527","system_id":"levelo_inurba_marseille","lat":43.317075,"lon":5.377367,"is_reserved":false,"is_disabled":false,"rental_uris":{"android":"levelo://app?vid=e93332c8-71cb-4a70-a2cb-8dae89f30527","ios":"levelo://app?vid=e93332c8-71cb-4a70-a2cb-8dae89f30527"},"vehicle_type_id":"4","last_reported":1708373234,"current_range_meters":22400,"station_id":"ce4bgth2rcd13ifvqch0","pricing_plan_id":"cebpf4jnsgd1na2vs0mg"},{"bike_id":"0db7532c-e021-4035-a720-b03be0255deb","system_id":"levelo_inurba_marseille","lat":43.317075,"lon":5.377367,"is_reserved":false,"is_disabled":false,"rental_uris":{"android":"levelo://app?vid=0db7532c-e021-4035-a720-b03be0255deb","ios":"levelo://app?vid=0db7532c-e021-4035-a720-b03be0255deb"},"vehicle_type_id":"4","last_reported":1708373234,"current_range_meters":23600,"station_id":"ce4bgth2rcd13ifvqch0","pricing_plan_id":"cebpf4jnsgd1na2vs0mg"},{"bike_id":"ec6897b8-4570-47ab-8304-5ee71ff4da72","system_id":"levelo_inurba_marseille","lat":43.317127,"lon":5.377453,"is_reserved":false,"is_disabled":false,"rental_uris":{"android":"levelo://app?vid=ec6897b8-4570-47ab-8304-5ee71ff4da72","ios":"levelo://app?vid=ec6897b8-4570-47ab-8304-5ee71ff4da72"},"vehicle_type_id":"4","last_reported":1708373234,"current_range_meters":8000,"station_id":"ce4bgth2rcd13ifvqch0","pricing_plan_id":"cebpf4jnsgd1na2vs0mg"},{"bike_id":"f15eca08-944c-4ae1-b947-f95a5017ea4f","system_id":"levelo_inurba_marseille","lat":43.29529,"lon":5.385581,"is_reserved":false,"is_disabled":false,"rental_uris":{"android":"levelo://app?vid=f15eca08-944c-4ae1-b947-f95a5017ea4f","ios":"levelo://app?vid=f15eca08-944c-4ae1-b947-f95a5017ea4f"},"vehicle_type_id":"4","last_reported":1708373234,"current_range_meters":10000,"station_id":"ce4bgih2rcd13ifvqba0","pricing_plan_id":"cebpf4jnsgd1na2vs0mg"},{"bike_id":"ba7abea4-7e24-46bb-9b73-93d8ca3e3719","system_id":"levelo_inurba_marseille","lat":43.315293,"lon":5.380349,"is_reserved":false,"is_disabled":false,"rental_uris":{"android":"levelo://app?vid=ba7abea4-7e24-46bb-9b73-93d8ca3e3719","ios":"levelo://app?vid=ba7abea4-7e24-46bb-9b73-93d8ca3e3719"},"vehicle_type_id":"4","last_reported":1708373234,"current_range_meters":30400,"station_id":"ce4bhsp2rcd13ifvqi50","pricing_plan_id":"cebpf4jnsgd1na2vs0mg"},{"bike_id":"14623ca0-3e69-483e-9a41-7be7b88db399","system_id":"levelo_inurba_marseille","lat":43.315293,"lon":5.380349,"is_reserved":false,"is_disabled":false,"rental_uris":{"android":"levelo://app?vid=14623ca0-3e69-483e-9a41-7be7b88db399","ios":"levelo://app?vid=14623ca0-3e69-483e-9a41-7be7b88db399"},"vehicle_type_id":"4","last_reported":1708373234,"current_range_meters":27200,"station_id":"ce4bhsp2rcd13ifvqi50","pricing_plan_id":"cebpf4jnsgd1na2vs0mg"},{"bike_id":"851bb78f-5bb9-4747-b47e-fbb6a43efdfb","system_id":"levelo_inurba_marseille","lat":43.315293,"lon":5.380349,"is_reserved":false,"is_disabled":false,"rental_uris":{"android":"levelo://app?vid=851bb78f-5bb9-4747-b47e-fbb6a43efdfb","ios":"levelo://app?vid=851bb78f-5bb9-4747-b47e-fbb6a43efdfb"},"vehicle_type_id":"4","last_reported":1708373234,"current_range_meters":24400,"station_id":"ce4bhsp2rcd13ifvqi50","pricing_plan_id":"cebpf4jnsgd1na2vs0mg"},{"bike_id":"11f8eeee-e006-4536-8e5b-d66c9c7fbfbd","system_id":"levelo_inurba_marseille","lat":43.301939,"lon":5.366286,"is_reserved":false,"is_disabled":false,"rental_uris":{"android":"levelo://app?vid=11f8eeee-e006-4536-8e5b-d66c9c7fbfbd","ios":"levelo://app?vid=11f8eeee-e006-4536-8e5b-d66c9c7fbfbd"},"vehicle_type_id":"4","last_reported":1708373234,"current_range_meters":5600,"station_id":"ce4bgrh2rcd13ifvqc8g","pricing_plan_id":"cebpf4jnsgd1na2vs0mg"},{"bike_id":"7d212134-106a-4a81-8941-8c3b8ea02a15","system_id":"levelo_inurba_marseille","lat":43.301939,"lon":5.366286,"is_reserved":false,"is_disabled":false,"rental_uris":{"android":"levelo://app?vid=7d212134-106a-4a81-8941-8c3b8ea02a15","ios":"levelo://app?vid=7d212134-106a-4a81-8941-8c3b8ea02a15"},"vehicle_type_id":"4","last_reported":1708373234,"current_range_meters":24400,"station_id":"ce4bgrh2rcd13ifvqc8g","pricing_plan_id":"cebpf4jnsgd1na2vs0mg"},{"bike_id":"6d756072-f075-4962-bf68-f3fee4993c67","system_id":"levelo_inurba_marseille","lat":43.304606,"lon":5.379026,"is_reserved":false,"is_disabled":false,"rental_uris":{"android":"levelo://app?vid=6d756072-f075-4962-bf68-f3fee4993c67","ios":"levelo://app?vid=6d756072-f075-4962-bf68-f3fee4993c67"},"vehicle_type_id":"4","last_reported":1708373234,"current_range_meters":2800,"station_id":"ce4bgup2rcd13ifvqcn0","pricing_plan_id":"cebpf4jnsgd1na2vs0mg"},{"bike_id":"13ed5772-d318-40c2-a1ab-114038408622","system_id":"levelo_inurba_marseille","lat":43.324771,"lon":5.36557,"is_reserved":false,"is_disabled":false,"rental_uris":{"android":"levelo://app?vid=13ed5772-d318-40c2-a1ab-114038408622","ios":"levelo://app?vid=13ed5772-d318-40c2-a1ab-114038408622"},"vehicle_type_id":"4","last_reported":1708373234,"current_range_meters":30000,"station_id":"ce4bhs12rcd13ifvqhvg","pricing_plan_id":"cebpf4jnsgd1na2vs0mg"},{"bike_id":"a1411f93-559d-4c55-b53d-718f28f579af","system_id":"levelo_inurba_marseille","lat":43.324796,"lon":5.365623,"is_reserved":false,"is_disabled":false,"rental_uris":{"android":"levelo://app?vid=a1411f93-559d-4c55-b53d-718f28f579af","ios":"levelo://app?vid=a1411f93-559d-4c55-b53d-718f28f579af"},"vehicle_type_id":"4","last_reported":1708373234,"current_range_meters":2800,"station_id":"ce4bhs12rcd13ifvqhvg","pricing_plan_id":"cebpf4jnsgd1na2vs0mg"},{"bike_id":"7c66a11a-bea8-4a2a-98be-7794b214389b","system_id":"levelo_inurba_marseille","lat":43.324771,"lon":5.36557,"is_reserved":false,"is_disabled":false,"rental_uris":{"android":"levelo://app?vid=7c66a11a-bea8-4a2a-98be-7794b214389b","ios":"levelo://app?vid=7c66a11a-bea8-4a2a-98be-7794b214389b"},"vehicle_type_id":"4","last_reported":1708373234,"current_range_meters":0,"station_id":"ce4bhs12rcd13ifvqhvg","pricing_plan_id":"cebpf4jnsgd1na2vs0mg"},{"bike_id":"4cd60cd3-101b-4a05-9703-76840434a255","system_id":"levelo_inurba_marseille","lat":43.324771,"lon":5.36557,"is_reserved":false,"is_disabled":false,"rental_uris":{"android":"levelo://app?vid=4cd60cd3-101b-4a05-9703-76840434a255","ios":"levelo://app?vid=4cd60cd3-101b-4a05-9703-76840434a255"},"vehicle_type_id":"4","last_reported":1708373234,"current_range_meters":28800,"station_id":"ce4bhs12rcd13ifvqhvg","pricing_plan_id":"cebpf4jnsgd1na2vs0mg"},{"bike_id":"12b36bd4-2176-4c7e-b0b3-fc74f7095c6a","system_id":"levelo_inurba_marseille","lat":43.32481,"lon":5.36565,"is_reserved":false,"is_disabled":false,"rental_uris":{"android":"levelo://app?vid=12b36bd4-2176-4c7e-b0b3-fc74f7095c6a","ios":"levelo://app?vid=12b36bd4-2176-4c7e-b0b3-fc74f7095c6a"},"vehicle_type_id":"4","last_reported":1708373234,"current_range_meters":0,"station_id":"ce4bhs12rcd13ifvqhvg","pricing_plan_id":"cebpf4jnsgd1na2vs0mg"},{"bike_id":"2c6c36c9-7e02-4a23-ad99-472b535677b4","system_id":"levelo_inurba_marseille","lat":43.324771,"lon":5.36557,"is_reserved":false,"is_disabled":false,"rental_uris":{"android":"levelo://app?vid=2c6c36c9-7e02-4a23-ad99-472b535677b4","ios":"levelo://app?vid=2c6c36c9-7e02-4a23-ad99-472b535677b4"},"vehicle_type_id":"4","last_reported":1708373234,"current_range_meters":8000,"station_id":"ce4bhs12rcd13ifvqhvg","pricing_plan_id":"cebpf4jnsgd1na2vs0mg"},{"bike_id":"e5a43df1-97ba-4067-8df7-f3537edbfa4b","system_id":"levelo_inurba_marseille","lat":43.324771,"lon":5.36557,"is_reserved":false,"is_disabled":false,"rental_uris":{"android":"levelo://app?vid=e5a43df1-97ba-4067-8df7-f3537edbfa4b","ios":"levelo://app?vid=e5a43df1-97ba-4067-8df7-f3537edbfa4b"},"vehicle_type_id":"4","last_reported":1708373234,"current_range_meters":0,"station_id":"ce4bhs12rcd13ifvqhvg","pricing_plan_id":"cebpf4jnsgd1na2vs0mg"},{"bike_id":"ab60f61e-1754-4bab-9316-cbca6ab0249d","system_id":"levelo_inurba_marseille","lat":43.32485,"lon":5.365691,"is_reserved":false,"is_disabled":false,"rental_uris":{"android":"levelo://app?vid=ab60f61e-1754-4bab-9316-cbca6ab0249d","ios":"levelo://app?vid=ab60f61e-1754-4bab-9316-cbca6ab0249d"},"vehicle_type_id":"4","last_reported":1708373234,"current_range_meters":15600,"station_id":"ce4bhs12rcd13ifvqhvg","pricing_plan_id":"cebpf4jnsgd1na2vs0mg"},{"bike_id":"787b97fd-3045-418a-93db-948f0d624107","system_id":"levelo_inurba_marseille","lat":43.324841,"lon":5.365531,"is_reserved":false,"is_disabled":false,"rental_uris":{"android":"levelo://app?vid=787b97fd-3045-418a-93db-948f0d624107","ios":"levelo://app?vid=787b97fd-3045-418a-93db-948f0d624107"},"vehicle_type_id":"4","last_reported":1708373234,"current_range_meters":21600,"station_id":"ce4bhs12rcd13ifvqhvg","pricing_plan_id":"cebpf4jnsgd1na2vs0mg"},{"bike_id":"617637a0-a74b-48a2-8e03-a476ae74f235","system_id":"levelo_inurba_marseille","lat":43.310594,"lon":5.383411,"is_reserved":false,"is_disabled":false,"rental_uris":{"android":"levelo://app?vid=617637a0-a74b-48a2-8e03-a476ae74f235","ios":"levelo://app?vid=617637a0-a74b-48a2-8e03-a476ae74f235"},"vehicle_type_id":"4","last_reported":1708373234,"current_range_meters":6400,"station_id":"ce4bgv92rcd13ifvqcr0","pricing_plan_id":"cebpf4jnsgd1na2vs0mg"},{"bike_id":"5f3727da-be6d-4245-8b7a-5c108328736b","system_id":"levelo_inurba_marseille","lat":43.324771,"lon":5.36557,"is_reserved":false,"is_disabled":false,"rental_uris":{"android":"levelo://app?vid=5f3727da-be6d-4245-8b7a-5c108328736b","ios":"levelo://app?vid=5f3727da-be6d-4245-8b7a-5c108328736b"},"vehicle_type_id":"4","last_reported":1708373234,"current_range_meters":4000,"station_id":"ce4bhs12rcd13ifvqhvg","pricing_plan_id":"cebpf4jnsgd1na2vs0mg"},{"bike_id":"326adc9f-1ebd-49f3-9949-adab05bdfb8f","system_id":"levelo_inurba_marseille","lat":43.31999,"lon":5.38152,"is_reserved":false,"is_disabled":false,"rental_uris":{"android":"levelo://app?vid=326adc9f-1ebd-49f3-9949-adab05bdfb8f","ios":"levelo://app?vid=326adc9f-1ebd-49f3-9949-adab05bdfb8f"},"vehicle_type_id":"4","last_reported":1708373234,"current_range_meters":22800,"station_id":"ce4bhr12rcd13ifvqhpg","pricing_plan_id":"cebpf4jnsgd1na2vs0mg"},{"bike_id":"2d97ba72-a2b6-4623-9a8a-535f28fc5ec3","system_id":"levelo_inurba_marseille","lat":43.319968,"lon":5.381592,"is_reserved":false,"is_disabled":false,"rental_uris":{"android":"levelo://app?vid=2d97ba72-a2b6-4623-9a8a-535f28fc5ec3","ios":"levelo://app?vid=2d97ba72-a2b6-4623-9a8a-535f28fc5ec3"},"vehicle_type_id":"4","last_reported":1708373234,"current_range_meters":10000,"station_id":"ce4bhr12rcd13ifvqhpg","pricing_plan_id":"cebpf4jnsgd1na2vs0mg"},{"bike_id":"e8dfff5e-1bb7-477f-8452-42e99fa71ec3","system_id":"levelo_inurba_marseille","lat":43.319933,"lon":5.38165,"is_reserved":false,"is_disabled":false,"rental_uris":{"android":"levelo://app?vid=e8dfff5e-1bb7-477f-8452-42e99fa71ec3","ios":"levelo://app?vid=e8dfff5e-1bb7-477f-8452-42e99fa71ec3"},"vehicle_type_id":"4","last_reported":1708373234,"current_range_meters":20400,"station_id":"ce4bhr12rcd13ifvqhpg","pricing_plan_id":"cebpf4jnsgd1na2vs0mg"},{"bike_id":"1d9a0b9e-ca1c-45f5-811a-38974326c232","system_id":"levelo_inurba_marseille","lat":43.32013,"lon":5.38161,"is_reserved":false,"is_disabled":false,"rental_uris":{"android":"levelo://app?vid=1d9a0b9e-ca1c-45f5-811a-38974326c232","ios":"levelo://app?vid=1d9a0b9e-ca1c-45f5-811a-38974326c232"},"vehicle_type_id":"4","last_reported":1708373234,"current_range_meters":0,"station_id":"ce4bhr12rcd13ifvqhpg","pricing_plan_id":"cebpf4jnsgd1na2vs0mg"},{"bike_id":"5a5cce38-72f9-4aed-9741-4be0e45bb81c","system_id":"levelo_inurba_marseille","lat":43.313571,"lon":5.384829,"is_reserved":false,"is_disabled":false,"rental_uris":{"android":"levelo://app?vid=5a5cce38-72f9-4aed-9741-4be0e45bb81c","ios":"levelo://app?vid=5a5cce38-72f9-4aed-9741-4be0e45bb81c"},"vehicle_type_id":"4","last_reported":1708373234,"current_range_meters":31200,"station_id":"ce4bgt92rcd13ifvqcf0","pricing_plan_id":"cebpf4jnsgd1na2vs0mg"},{"bike_id":"1905feff-740f-4acf-b945-649dbf3c5c7b","system_id":"levelo_inurba_marseille","lat":43.313571,"lon":5.384829,"is_reserved":false,"is_disabled":false,"rental_uris":{"android":"levelo://app?vid=1905feff-740f-4acf-b945-649dbf3c5c7b","ios":"levelo://app?vid=1905feff-740f-4acf-b945-649dbf3c5c7b"},"vehicle_type_id":"4","last_reported":1708373234,"current_range_meters":16000,"station_id":"ce4bgt92rcd13ifvqcf0","pricing_plan_id":"cebpf4jnsgd1na2vs0mg"},{"bike_id":"04bf62c4-6547-4405-9474-bb0760741159","system_id":"levelo_inurba_marseille","lat":43.313566,"lon":5.384988,"is_reserved":false,"is_disabled":false,"rental_uris":{"android":"levelo://app?vid=04bf62c4-6547-4405-9474-bb0760741159","ios":"levelo://app?vid=04bf62c4-6547-4405-9474-bb0760741159"},"vehicle_type_id":"4","last_reported":1708373234,"current_range_meters":0,"station_id":"ce4bgt92rcd13ifvqcf0","pricing_plan_id":"cebpf4jnsgd1na2vs0mg"},{"bike_id":"7dc94315-b741-4abe-8a2b-c3a531ed40e2","system_id":"levelo_inurba_marseille","lat":43.313571,"lon":5.384829,"is_reserved":false,"is_disabled":false,"rental_uris":{"android":"levelo://app?vid=7dc94315-b741-4abe-8a2b-c3a531ed40e2","ios":"levelo://app?vid=7dc94315-b741-4abe-8a2b-c3a531ed40e2"},"vehicle_type_id":"4","last_reported":1708373234,"current_range_meters":13600,"station_id":"ce4bgt92rcd13ifvqcf0","pricing_plan_id":"cebpf4jnsgd1na2vs0mg"},{"bike_id":"63838351-a6a1-494f-80d2-d6c73201e40e","system_id":"levelo_inurba_marseille","lat":43.31359,"lon":5.38502,"is_reserved":false,"is_disabled":false,"rental_uris":{"android":"levelo://app?vid=63838351-a6a1-494f-80d2-d6c73201e40e","ios":"levelo://app?vid=63838351-a6a1-494f-80d2-d6c73201e40e"},"vehicle_type_id":"4","last_reported":1708373234,"current_range_meters":29600,"station_id":"ce4bgt92rcd13ifvqcf0","pricing_plan_id":"cebpf4jnsgd1na2vs0mg"},{"bike_id":"0256e02c-9bd1-4bc2-8316-e151c18c4971","system_id":"levelo_inurba_marseille","lat":43.31355,"lon":5.385077,"is_reserved":false,"is_disabled":false,"rental_uris":{"android":"levelo://app?vid=0256e02c-9bd1-4bc2-8316-e151c18c4971","ios":"levelo://app?vid=0256e02c-9bd1-4bc2-8316-e151c18c4971"},"vehicle_type_id":"4","last_reported":1708373234,"current_range_meters":23200,"station_id":"ce4bgt92rcd13ifvqcf0","pricing_plan_id":"cebpf4jnsgd1na2vs0mg"},{"bike_id":"cfca795c-3397-4828-8ff4-e8807935a37c","system_id":"levelo_inurba_marseille","lat":43.29994,"lon":5.371718,"is_reserved":false,"is_disabled":false,"rental_uris":{"android":"levelo://app?vid=cfca795c-3397-4828-8ff4-e8807935a37c","ios":"levelo://app?vid=cfca795c-3397-4828-8ff4-e8807935a37c"},"vehicle_type_id":"4","last_reported":1708373234,"current_range_meters":17200,"station_id":"ce4bgr92rcd13ifvqc7g","pricing_plan_id":"cebpf4jnsgd1na2vs0mg"},{"bike_id":"2049e4e4-d45a-49d8-9231-d76b36ee63c2","system_id":"levelo_inurba_marseille","lat":43.29984,"lon":5.37186,"is_reserved":false,"is_disabled":false,"rental_uris":{"android":"levelo://app?vid=2049e4e4-d45a-49d8-9231-d76b36ee63c2","ios":"levelo://app?vid=2049e4e4-d45a-49d8-9231-d76b36ee63c2"},"vehicle_type_id":"4","last_reported":1708373234,"current_range_meters":26000,"station_id":"ce4bgr92rcd13ifvqc7g","pricing_plan_id":"cebpf4jnsgd1na2vs0mg"},{"bike_id":"21e5dafc-b0d8-49e9-beec-76ab8f352a66","system_id":"levelo_inurba_marseille","lat":43.305364,"lon":5.384119,"is_reserved":false,"is_disabled":false,"rental_uris":{"android":"levelo://app?vid=21e5dafc-b0d8-49e9-beec-76ab8f352a66","ios":"levelo://app?vid=21e5dafc-b0d8-49e9-beec-76ab8f352a66"},"vehicle_type_id":"4","last_reported":1708373234,"current_range_meters":22400,"station_id":"ce4bgg92rcd13ifvqb30","pricing_plan_id":"cebpf4jnsgd1na2vs0mg"},{"bike_id":"6ac6d1f6-a2c0-401b-b047-45f18ce2ad28","system_id":"levelo_inurba_marseille","lat":43.305364,"lon":5.384119,"is_reserved":false,"is_disabled":false,"rental_uris":{"android":"levelo://app?vid=6ac6d1f6-a2c0-401b-b047-45f18ce2ad28","ios":"levelo://app?vid=6ac6d1f6-a2c0-401b-b047-45f18ce2ad28"},"vehicle_type_id":"4","last_reported":1708373234,"current_range_meters":12800,"station_id":"ce4bgg92rcd13ifvqb30","pricing_plan_id":"cebpf4jnsgd1na2vs0mg"},{"bike_id":"233a1a39-fa71-46b6-91bb-a07a5e935265","system_id":"levelo_inurba_marseille","lat":43.305364,"lon":5.384119,"is_reserved":false,"is_disabled":false,"rental_uris":{"android":"levelo://app?vid=233a1a39-fa71-46b6-91bb-a07a5e935265","ios":"levelo://app?vid=233a1a39-fa71-46b6-91bb-a07a5e935265"},"vehicle_type_id":"4","last_reported":1708373234,"current_range_meters":14400,"station_id":"ce4bgg92rcd13ifvqb30","pricing_plan_id":"cebpf4jnsgd1na2vs0mg"},{"bike_id":"12cb561a-e9d2-43e1-99e3-a6f6db042c53","system_id":"levelo_inurba_marseille","lat":43.298433,"lon":5.362774,"is_reserved":false,"is_disabled":false,"rental_uris":{"android":"levelo://app?vid=12cb561a-e9d2-43e1-99e3-a6f6db042c53","ios":"levelo://app?vid=12cb561a-e9d2-43e1-99e3-a6f6db042c53"},"vehicle_type_id":"4","last_reported":1708373234,"current_range_meters":0,"station_id":"ce4bgpp2rcd13ifvqc3g","pricing_plan_id":"cebpf4jnsgd1na2vs0mg"},{"bike_id":"3571987e-39cf-4d08-8e97-0689cea1def8","system_id":"levelo_inurba_marseille","lat":43.311722,"lon":5.387247,"is_reserved":false,"is_disabled":false,"rental_uris":{"android":"levelo://app?vid=3571987e-39cf-4d08-8e97-0689cea1def8","ios":"levelo://app?vid=3571987e-39cf-4d08-8e97-0689cea1def8"},"vehicle_type_id":"4","last_reported":1708373234,"current_range_meters":1200,"station_id":"ce4bgv12rcd13ifvqcp0","pricing_plan_id":"cebpf4jnsgd1na2vs0mg"},{"bike_id":"8a7f90af-495f-4071-8fa0-66c7a414613a","system_id":"levelo_inurba_marseille","lat":43.311722,"lon":5.387247,"is_reserved":false,"is_disabled":false,"rental_uris":{"android":"levelo://app?vid=8a7f90af-495f-4071-8fa0-66c7a414613a","ios":"levelo://app?vid=8a7f90af-495f-4071-8fa0-66c7a414613a"},"vehicle_type_id":"4","last_reported":1708373234,"current_range_meters":2000,"station_id":"ce4bgv12rcd13ifvqcp0","pricing_plan_id":"cebpf4jnsgd1na2vs0mg"},{"bike_id":"7853d033-42ed-40cd-95b6-d80e81c2c22c","system_id":"levelo_inurba_marseille","lat":43.311722,"lon":5.387247,"is_reserved":false,"is_disabled":false,"rental_uris":{"android":"levelo://app?vid=7853d033-42ed-40cd-95b6-d80e81c2c22c","ios":"levelo://app?vid=7853d033-42ed-40cd-95b6-d80e81c2c22c"},"vehicle_type_id":"4","last_reported":1708373234,"current_range_meters":18400,"station_id":"ce4bgv12rcd13ifvqcp0","pricing_plan_id":"cebpf4jnsgd1na2vs0mg"},{"bike_id":"ef5c7914-8e3f-45f1-9827-e955746d5cb8","system_id":"levelo_inurba_marseille","lat":43.29804,"lon":5.36506,"is_reserved":false,"is_disabled":false,"rental_uris":{"android":"levelo://app?vid=ef5c7914-8e3f-45f1-9827-e955746d5cb8","ios":"levelo://app?vid=ef5c7914-8e3f-45f1-9827-e955746d5cb8"},"vehicle_type_id":"4","last_reported":1708373234,"current_range_meters":13200,"station_id":"","pricing_plan_id":"cebpf4jnsgd1na2vs0mg"},{"bike_id":"6b8ad681-3ee9-4c24-9347-004dd485d9a6","system_id":"levelo_inurba_marseille","lat":43.299243,"lon":5.374807,"is_reserved":false,"is_disabled":false,"rental_uris":{"android":"levelo://app?vid=6b8ad681-3ee9-4c24-9347-004dd485d9a6","ios":"levelo://app?vid=6b8ad681-3ee9-4c24-9347-004dd485d9a6"},"vehicle_type_id":"4","last_reported":1708373234,"current_range_meters":24800,"station_id":"ce4bgjh2rcd13ifvqbg0","pricing_plan_id":"cebpf4jnsgd1na2vs0mg"},{"bike_id":"507b6f4a-8192-496c-9021-e9e73678672a","system_id":"levelo_inurba_marseille","lat":43.299243,"lon":5.37481,"is_reserved":false,"is_disabled":false,"rental_uris":{"android":"levelo://app?vid=507b6f4a-8192-496c-9021-e9e73678672a","ios":"levelo://app?vid=507b6f4a-8192-496c-9021-e9e73678672a"},"vehicle_type_id":"4","last_reported":1708373234,"current_range_meters":22000,"station_id":"ce4bgjh2rcd13ifvqbg0","pricing_plan_id":"cebpf4jnsgd1na2vs0mg"},{"bike_id":"609de7c4-9cb8-410a-a1c8-2b99f793ec1e","system_id":"levelo_inurba_marseille","lat":43.297794,"lon":5.370888,"is_reserved":false,"is_disabled":false,"rental_uris":{"android":"levelo://app?vid=609de7c4-9cb8-410a-a1c8-2b99f793ec1e","ios":"levelo://app?vid=609de7c4-9cb8-410a-a1c8-2b99f793ec1e"},"vehicle_type_id":"4","last_reported":1708373234,"current_range_meters":2400,"station_id":"ce4bgop2rcd13ifvqc1g","pricing_plan_id":"cebpf4jnsgd1na2vs0mg"},{"bike_id":"fce4e9eb-f1db-4840-9573-54454ce3f1d6","system_id":"levelo_inurba_marseille","lat":43.322872,"lon":5.382756,"is_reserved":false,"is_disabled":false,"rental_uris":{"android":"levelo://app?vid=fce4e9eb-f1db-4840-9573-54454ce3f1d6","ios":"levelo://app?vid=fce4e9eb-f1db-4840-9573-54454ce3f1d6"},"vehicle_type_id":"4","last_reported":1708373234,"current_range_meters":25200,"station_id":"ce4bhr12rcd13ifvqhqg","pricing_plan_id":"cebpf4jnsgd1na2vs0mg"},{"bike_id":"91ab4edd-d149-4ede-888b-4d27f7f91f34","system_id":"levelo_inurba_marseille","lat":43.322872,"lon":5.382756,"is_reserved":false,"is_disabled":false,"rental_uris":{"android":"levelo://app?vid=91ab4edd-d149-4ede-888b-4d27f7f91f34","ios":"levelo://app?vid=91ab4edd-d149-4ede-888b-4d27f7f91f34"},"vehicle_type_id":"4","last_reported":1708373234,"current_range_meters":9200,"station_id":"ce4bhr12rcd13ifvqhqg","pricing_plan_id":"cebpf4jnsgd1na2vs0mg"},{"bike_id":"9edfbbac-3647-4389-a484-42c4a248ae6c","system_id":"levelo_inurba_marseille","lat":43.322872,"lon":5.382756,"is_reserved":false,"is_disabled":false,"rental_uris":{"android":"levelo://app?vid=9edfbbac-3647-4389-a484-42c4a248ae6c","ios":"levelo://app?vid=9edfbbac-3647-4389-a484-42c4a248ae6c"},"vehicle_type_id":"4","last_reported":1708373234,"current_range_meters":23200,"station_id":"ce4bhr12rcd13ifvqhqg","pricing_plan_id":"cebpf4jnsgd1na2vs0mg"},{"bike_id":"d026edbc-abfe-4769-8eb1-e1acc923139d","system_id":"levelo_inurba_marseille","lat":43.322872,"lon":5.382756,"is_reserved":false,"is_disabled":false,"rental_uris":{"android":"levelo://app?vid=d026edbc-abfe-4769-8eb1-e1acc923139d","ios":"levelo://app?vid=d026edbc-abfe-4769-8eb1-e1acc923139d"},"vehicle_type_id":"4","last_reported":1708373234,"current_range_meters":26400,"station_id":"ce4bhr12rcd13ifvqhqg","pricing_plan_id":"cebpf4jnsgd1na2vs0mg"},{"bike_id":"4944fd53-42e5-40ee-b4f7-e155a7c5c6b7","system_id":"levelo_inurba_marseille","lat":43.297774,"lon":5.370875,"is_reserved":false,"is_disabled":false,"rental_uris":{"android":"levelo://app?vid=4944fd53-42e5-40ee-b4f7-e155a7c5c6b7","ios":"levelo://app?vid=4944fd53-42e5-40ee-b4f7-e155a7c5c6b7"},"vehicle_type_id":"4","last_reported":1708373234,"current_range_meters":15200,"station_id":"ce4bgop2rcd13ifvqc1g","pricing_plan_id":"cebpf4jnsgd1na2vs0mg"},{"bike_id":"db7075de-1a49-49cb-868e-aca4dc1f3aaf","system_id":"levelo_inurba_marseille","lat":43.311722,"lon":5.387247,"is_reserved":false,"is_disabled":false,"rental_uris":{"android":"levelo://app?vid=db7075de-1a49-49cb-868e-aca4dc1f3aaf","ios":"levelo://app?vid=db7075de-1a49-49cb-868e-aca4dc1f3aaf"},"vehicle_type_id":"4","last_reported":1708373234,"current_range_meters":1200,"station_id":"ce4bgv12rcd13ifvqcp0","pricing_plan_id":"cebpf4jnsgd1na2vs0mg"},{"bike_id":"add7985a-15aa-4ecf-aefb-9183c2c5c61d","system_id":"levelo_inurba_marseille","lat":43.299686,"lon":5.379322,"is_reserved":false,"is_disabled":false,"rental_uris":{"android":"levelo://app?vid=add7985a-15aa-4ecf-aefb-9183c2c5c61d","ios":"levelo://app?vid=add7985a-15aa-4ecf-aefb-9183c2c5c61d"},"vehicle_type_id":"4","last_reported":1708373234,"current_range_meters":11600,"station_id":"","pricing_plan_id":"cebpf4jnsgd1na2vs0mg"},{"bike_id":"f02a0f6f-66a6-462e-9e55-3dfdd8fe01d9","system_id":"levelo_inurba_marseille","lat":43.329092,"lon":5.367072,"is_reserved":false,"is_disabled":false,"rental_uris":{"android":"levelo://app?vid=f02a0f6f-66a6-462e-9e55-3dfdd8fe01d9","ios":"levelo://app?vid=f02a0f6f-66a6-462e-9e55-3dfdd8fe01d9"},"vehicle_type_id":"4","last_reported":1708373234,"current_range_meters":1600,"station_id":"","pricing_plan_id":"cebpf4jnsgd1na2vs0mg"},{"bike_id":"85f2648e-47b8-43af-8fc1-b9b4242abb10","system_id":"levelo_inurba_marseille","lat":43.296858,"lon":5.372824,"is_reserved":false,"is_disabled":false,"rental_uris":{"android":"levelo://app?vid=85f2648e-47b8-43af-8fc1-b9b4242abb10","ios":"levelo://app?vid=85f2648e-47b8-43af-8fc1-b9b4242abb10"},"vehicle_type_id":"4","last_reported":1708373234,"current_range_meters":22000,"station_id":"ce4bgk12rcd13ifvqbj0","pricing_plan_id":"cebpf4jnsgd1na2vs0mg"},{"bike_id":"6288b525-46ae-45a4-99da-97dc9e3fa0e1","system_id":"levelo_inurba_marseille","lat":43.295973,"lon":5.367958,"is_reserved":false,"is_disabled":false,"rental_uris":{"android":"levelo://app?vid=6288b525-46ae-45a4-99da-97dc9e3fa0e1","ios":"levelo://app?vid=6288b525-46ae-45a4-99da-97dc9e3fa0e1"},"vehicle_type_id":"4","last_reported":1708373234,"current_range_meters":24800,"station_id":"ce4bgph2rcd13ifvqc2g","pricing_plan_id":"cebpf4jnsgd1na2vs0mg"},{"bike_id":"9006dcf1-17d3-4031-81c2-9e818b61b918","system_id":"levelo_inurba_marseille","lat":43.317557,"lon":5.390173,"is_reserved":false,"is_disabled":false,"rental_uris":{"android":"levelo://app?vid=9006dcf1-17d3-4031-81c2-9e818b61b918","ios":"levelo://app?vid=9006dcf1-17d3-4031-81c2-9e818b61b918"},"vehicle_type_id":"4","last_reported":1708373234,"current_range_meters":25600,"station_id":"ce4bhqp2rcd13ifvqhng","pricing_plan_id":"cebpf4jnsgd1na2vs0mg"},{"bike_id":"01d234d0-e8e0-45f8-b8bb-c81cf3e028da","system_id":"levelo_inurba_marseille","lat":43.317557,"lon":5.390173,"is_reserved":false,"is_disabled":false,"rental_uris":{"android":"levelo://app?vid=01d234d0-e8e0-45f8-b8bb-c81cf3e028da","ios":"levelo://app?vid=01d234d0-e8e0-45f8-b8bb-c81cf3e028da"},"vehicle_type_id":"4","last_reported":1708373234,"current_range_meters":31200,"station_id":"ce4bhqp2rcd13ifvqhng","pricing_plan_id":"cebpf4jnsgd1na2vs0mg"},{"bike_id":"e3d6a117-f1c2-4286-b6fc-026747e43e8e","system_id":"levelo_inurba_marseille","lat":43.317557,"lon":5.390173,"is_reserved":false,"is_disabled":false,"rental_uris":{"android":"levelo://app?vid=e3d6a117-f1c2-4286-b6fc-026747e43e8e","ios":"levelo://app?vid=e3d6a117-f1c2-4286-b6fc-026747e43e8e"},"vehicle_type_id":"4","last_reported":1708373234,"current_range_meters":17600,"station_id":"ce4bhqp2rcd13ifvqhng","pricing_plan_id":"cebpf4jnsgd1na2vs0mg"},{"bike_id":"a058b8c9-ce73-4233-9ec0-7d21bd3e485a","system_id":"levelo_inurba_marseille","lat":43.317557,"lon":5.390173,"is_reserved":false,"is_disabled":false,"rental_uris":{"android":"levelo://app?vid=a058b8c9-ce73-4233-9ec0-7d21bd3e485a","ios":"levelo://app?vid=a058b8c9-ce73-4233-9ec0-7d21bd3e485a"},"vehicle_type_id":"4","last_reported":1708373234,"current_range_meters":11200,"station_id":"ce4bhqp2rcd13ifvqhng","pricing_plan_id":"cebpf4jnsgd1na2vs0mg"},{"bike_id":"f2666d97-f098-4e8d-948b-6ca5cf2b5347","system_id":"levelo_inurba_marseille","lat":43.317557,"lon":5.390173,"is_reserved":false,"is_disabled":false,"rental_uris":{"android":"levelo://app?vid=f2666d97-f098-4e8d-948b-6ca5cf2b5347","ios":"levelo://app?vid=f2666d97-f098-4e8d-948b-6ca5cf2b5347"},"vehicle_type_id":"4","last_reported":1708373234,"current_range_meters":10400,"station_id":"ce4bhqp2rcd13ifvqhng","pricing_plan_id":"cebpf4jnsgd1na2vs0mg"},{"bike_id":"da5ea889-04e1-42f6-9e86-b93c95cbade5","system_id":"levelo_inurba_marseille","lat":43.304278,"lon":5.388868,"is_reserved":false,"is_disabled":false,"rental_uris":{"android":"levelo://app?vid=da5ea889-04e1-42f6-9e86-b93c95cbade5","ios":"levelo://app?vid=da5ea889-04e1-42f6-9e86-b93c95cbade5"},"vehicle_type_id":"4","last_reported":1708373234,"current_range_meters":6000,"station_id":"ce4bgk12rcd13ifvqbi0","pricing_plan_id":"cebpf4jnsgd1na2vs0mg"},{"bike_id":"b1cb2892-ebdc-4518-818b-fcf31394b373","system_id":"levelo_inurba_marseille","lat":43.304278,"lon":5.388868,"is_reserved":false,"is_disabled":false,"rental_uris":{"android":"levelo://app?vid=b1cb2892-ebdc-4518-818b-fcf31394b373","ios":"levelo://app?vid=b1cb2892-ebdc-4518-818b-fcf31394b373"},"vehicle_type_id":"4","last_reported":1708373234,"current_range_meters":15600,"station_id":"ce4bgk12rcd13ifvqbi0","pricing_plan_id":"cebpf4jnsgd1na2vs0mg"},{"bike_id":"070e0d4d-81b9-4c51-afa9-932e172193b2","system_id":"levelo_inurba_marseille","lat":43.304274,"lon":5.388873,"is_reserved":false,"is_disabled":false,"rental_uris":{"android":"levelo://app?vid=070e0d4d-81b9-4c51-afa9-932e172193b2","ios":"levelo://app?vid=070e0d4d-81b9-4c51-afa9-932e172193b2"},"vehicle_type_id":"4","last_reported":1708373234,"current_range_meters":0,"station_id":"ce4bgk12rcd13ifvqbi0","pricing_plan_id":"cebpf4jnsgd1na2vs0mg"},{"bike_id":"4e4a4174-76b2-42e3-8aa8-8842fc0b84f8","system_id":"levelo_inurba_marseille","lat":43.304278,"lon":5.388868,"is_reserved":false,"is_disabled":false,"rental_uris":{"android":"levelo://app?vid=4e4a4174-76b2-42e3-8aa8-8842fc0b84f8","ios":"levelo://app?vid=4e4a4174-76b2-42e3-8aa8-8842fc0b84f8"},"vehicle_type_id":"4","last_reported":1708373234,"current_range_meters":24800,"station_id":"ce4bgk12rcd13ifvqbi0","pricing_plan_id":"cebpf4jnsgd1na2vs0mg"},{"bike_id":"ecb87f08-652e-4da2-8b63-9feb38bb665a","system_id":"levelo_inurba_marseille","lat":43.304274,"lon":5.388873,"is_reserved":false,"is_disabled":false,"rental_uris":{"android":"levelo://app?vid=ecb87f08-652e-4da2-8b63-9feb38bb665a","ios":"levelo://app?vid=ecb87f08-652e-4da2-8b63-9feb38bb665a"},"vehicle_type_id":"4","last_reported":1708373234,"current_range_meters":13200,"station_id":"ce4bgk12rcd13ifvqbi0","pricing_plan_id":"cebpf4jnsgd1na2vs0mg"},{"bike_id":"3d80a6b4-456a-4f71-891d-9f1ee12153d5","system_id":"levelo_inurba_marseille","lat":43.30439,"lon":5.38894,"is_reserved":false,"is_disabled":false,"rental_uris":{"android":"levelo://app?vid=3d80a6b4-456a-4f71-891d-9f1ee12153d5","ios":"levelo://app?vid=3d80a6b4-456a-4f71-891d-9f1ee12153d5"},"vehicle_type_id":"4","last_reported":1708373234,"current_range_meters":5200,"station_id":"ce4bgk12rcd13ifvqbi0","pricing_plan_id":"cebpf4jnsgd1na2vs0mg"},{"bike_id":"af1f9690-65d5-4e2f-8e4f-8929b8a670ee","system_id":"levelo_inurba_marseille","lat":43.299724,"lon":5.384848,"is_reserved":false,"is_disabled":false,"rental_uris":{"android":"levelo://app?vid=af1f9690-65d5-4e2f-8e4f-8929b8a670ee","ios":"levelo://app?vid=af1f9690-65d5-4e2f-8e4f-8929b8a670ee"},"vehicle_type_id":"4","last_reported":1708373234,"current_range_meters":24000,"station_id":"ce4bgj92rcd13ifvqbd0","pricing_plan_id":"cebpf4jnsgd1na2vs0mg"},{"bike_id":"6254061e-bf9a-494f-b0a4-6c46cda3b90e","system_id":"levelo_inurba_marseille","lat":43.299514,"lon":5.384848,"is_reserved":false,"is_disabled":false,"rental_uris":{"android":"levelo://app?vid=6254061e-bf9a-494f-b0a4-6c46cda3b90e","ios":"levelo://app?vid=6254061e-bf9a-494f-b0a4-6c46cda3b90e"},"vehicle_type_id":"4","last_reported":1708373234,"current_range_meters":6000,"station_id":"ce4bgj92rcd13ifvqbd0","pricing_plan_id":"cebpf4jnsgd1na2vs0mg"},{"bike_id":"625bf81e-5463-45b8-bf69-deb946377d7c","system_id":"levelo_inurba_marseille","lat":43.32367,"lon":5.388836,"is_reserved":false,"is_disabled":false,"rental_uris":{"android":"levelo://app?vid=625bf81e-5463-45b8-bf69-deb946377d7c","ios":"levelo://app?vid=625bf81e-5463-45b8-bf69-deb946377d7c"},"vehicle_type_id":"4","last_reported":1708373234,"current_range_meters":1600,"station_id":"ce4bhqp2rcd13ifvqhog","pricing_plan_id":"cebpf4jnsgd1na2vs0mg"},{"bike_id":"14b2adbd-de5e-493a-919f-cb01d90fdaa2","system_id":"levelo_inurba_marseille","lat":43.32368,"lon":5.38887,"is_reserved":false,"is_disabled":false,"rental_uris":{"android":"levelo://app?vid=14b2adbd-de5e-493a-919f-cb01d90fdaa2","ios":"levelo://app?vid=14b2adbd-de5e-493a-919f-cb01d90fdaa2"},"vehicle_type_id":"4","last_reported":1708373234,"current_range_meters":12400,"station_id":"ce4bhqp2rcd13ifvqhog","pricing_plan_id":"cebpf4jnsgd1na2vs0mg"},{"bike_id":"9b21743d-1988-4a2d-8787-4bceb7580e73","system_id":"levelo_inurba_marseille","lat":43.29602,"lon":5.381084,"is_reserved":false,"is_disabled":false,"rental_uris":{"android":"levelo://app?vid=9b21743d-1988-4a2d-8787-4bceb7580e73","ios":"levelo://app?vid=9b21743d-1988-4a2d-8787-4bceb7580e73"},"vehicle_type_id":"4","last_reported":1708373234,"current_range_meters":28400,"station_id":"ce4bgl12rcd13ifvqbo0","pricing_plan_id":"cebpf4jnsgd1na2vs0mg"},{"bike_id":"9e2db9a7-1a01-456d-856b-2a57a8da7676","system_id":"levelo_inurba_marseille","lat":43.29602,"lon":5.381084,"is_reserved":false,"is_disabled":false,"rental_uris":{"android":"levelo://app?vid=9e2db9a7-1a01-456d-856b-2a57a8da7676","ios":"levelo://app?vid=9e2db9a7-1a01-456d-856b-2a57a8da7676"},"vehicle_type_id":"4","last_reported":1708373234,"current_range_meters":20400,"station_id":"ce4bgl12rcd13ifvqbo0","pricing_plan_id":"cebpf4jnsgd1na2vs0mg"},{"bike_id":"e420a287-5ac2-4536-8c45-81553279ce2c","system_id":"levelo_inurba_marseille","lat":43.293259,"lon":5.371586,"is_reserved":false,"is_disabled":false,"rental_uris":{"android":"levelo://app?vid=e420a287-5ac2-4536-8c45-81553279ce2c","ios":"levelo://app?vid=e420a287-5ac2-4536-8c45-81553279ce2c"},"vehicle_type_id":"4","last_reported":1708373234,"current_range_meters":27200,"station_id":"ce4bgh92rcd13ifvqb40","pricing_plan_id":"cebpf4jnsgd1na2vs0mg"},{"bike_id":"b9bb1226-e8e6-448d-97a4-edd293c4266d","system_id":"levelo_inurba_marseille","lat":43.292749,"lon":5.368402,"is_reserved":false,"is_disabled":false,"rental_uris":{"android":"levelo://app?vid=b9bb1226-e8e6-448d-97a4-edd293c4266d","ios":"levelo://app?vid=b9bb1226-e8e6-448d-97a4-edd293c4266d"},"vehicle_type_id":"4","last_reported":1708373234,"current_range_meters":16800,"station_id":"ce4bhbp2rcd13ifvqesg","pricing_plan_id":"cebpf4jnsgd1na2vs0mg"},{"bike_id":"cd28783c-f1fd-4672-8a78-31d8cb8326e7","system_id":"levelo_inurba_marseille","lat":43.292749,"lon":5.368402,"is_reserved":false,"is_disabled":false,"rental_uris":{"android":"levelo://app?vid=cd28783c-f1fd-4672-8a78-31d8cb8326e7","ios":"levelo://app?vid=cd28783c-f1fd-4672-8a78-31d8cb8326e7"},"vehicle_type_id":"4","last_reported":1708373234,"current_range_meters":16400,"station_id":"ce4bhbp2rcd13ifvqesg","pricing_plan_id":"cebpf4jnsgd1na2vs0mg"},{"bike_id":"2e5550ad-dd8f-4d1e-ba6a-014f2ff13365","system_id":"levelo_inurba_marseille","lat":43.293259,"lon":5.371586,"is_reserved":false,"is_disabled":false,"rental_uris":{"android":"levelo://app?vid=2e5550ad-dd8f-4d1e-ba6a-014f2ff13365","ios":"levelo://app?vid=2e5550ad-dd8f-4d1e-ba6a-014f2ff13365"},"vehicle_type_id":"4","last_reported":1708373234,"current_range_meters":0,"station_id":"ce4bgh92rcd13ifvqb40","pricing_plan_id":"cebpf4jnsgd1na2vs0mg"},{"bike_id":"39874c9c-e271-4588-a67e-047443b8a6bf","system_id":"levelo_inurba_marseille","lat":43.292749,"lon":5.368402,"is_reserved":false,"is_disabled":false,"rental_uris":{"android":"levelo://app?vid=39874c9c-e271-4588-a67e-047443b8a6bf","ios":"levelo://app?vid=39874c9c-e271-4588-a67e-047443b8a6bf"},"vehicle_type_id":"4","last_reported":1708373234,"current_range_meters":12000,"station_id":"ce4bhbp2rcd13ifvqesg","pricing_plan_id":"cebpf4jnsgd1na2vs0mg"},{"bike_id":"05473435-ad65-4900-8f56-1f03d887f9de","system_id":"levelo_inurba_marseille","lat":43.292749,"lon":5.368402,"is_reserved":false,"is_disabled":false,"rental_uris":{"android":"levelo://app?vid=05473435-ad65-4900-8f56-1f03d887f9de","ios":"levelo://app?vid=05473435-ad65-4900-8f56-1f03d887f9de"},"vehicle_type_id":"4","last_reported":1708373234,"current_range_meters":14800,"station_id":"ce4bhbp2rcd13ifvqesg","pricing_plan_id":"cebpf4jnsgd1na2vs0mg"},{"bike_id":"cecd75e9-92d1-41df-9a74-5a6e34876066","system_id":"levelo_inurba_marseille","lat":43.292749,"lon":5.368402,"is_reserved":false,"is_disabled":false,"rental_uris":{"android":"levelo://app?vid=cecd75e9-92d1-41df-9a74-5a6e34876066","ios":"levelo://app?vid=cecd75e9-92d1-41df-9a74-5a6e34876066"},"vehicle_type_id":"4","last_reported":1708373234,"current_range_meters":26000,"station_id":"ce4bhbp2rcd13ifvqesg","pricing_plan_id":"cebpf4jnsgd1na2vs0mg"},{"bike_id":"65d46780-9af6-4746-8021-d5e4f59b3de8","system_id":"levelo_inurba_marseille","lat":43.292749,"lon":5.368402,"is_reserved":false,"is_disabled":false,"rental_uris":{"android":"levelo://app?vid=65d46780-9af6-4746-8021-d5e4f59b3de8","ios":"levelo://app?vid=65d46780-9af6-4746-8021-d5e4f59b3de8"},"vehicle_type_id":"4","last_reported":1708373234,"current_range_meters":9600,"station_id":"ce4bhbp2rcd13ifvqesg","pricing_plan_id":"cebpf4jnsgd1na2vs0mg"},{"bike_id":"2cefa430-0071-4b80-9a72-3bbc0b92fb78","system_id":"levelo_inurba_marseille","lat":43.292749,"lon":5.368402,"is_reserved":false,"is_disabled":false,"rental_uris":{"android":"levelo://app?vid=2cefa430-0071-4b80-9a72-3bbc0b92fb78","ios":"levelo://app?vid=2cefa430-0071-4b80-9a72-3bbc0b92fb78"},"vehicle_type_id":"4","last_reported":1708373234,"current_range_meters":0,"station_id":"ce4bhbp2rcd13ifvqesg","pricing_plan_id":"cebpf4jnsgd1na2vs0mg"},{"bike_id":"abe7d0a2-2080-4dab-84e2-41db18473abb","system_id":"levelo_inurba_marseille","lat":43.292749,"lon":5.368402,"is_reserved":false,"is_disabled":false,"rental_uris":{"android":"levelo://app?vid=abe7d0a2-2080-4dab-84e2-41db18473abb","ios":"levelo://app?vid=abe7d0a2-2080-4dab-84e2-41db18473abb"},"vehicle_type_id":"4","last_reported":1708373234,"current_range_meters":4800,"station_id":"ce4bhbp2rcd13ifvqesg","pricing_plan_id":"cebpf4jnsgd1na2vs0mg"},{"bike_id":"a356a71d-8723-493e-8dd7-0d2f4f5a935a","system_id":"levelo_inurba_marseille","lat":43.31274,"lon":5.39468,"is_reserved":false,"is_disabled":false,"rental_uris":{"android":"levelo://app?vid=a356a71d-8723-493e-8dd7-0d2f4f5a935a","ios":"levelo://app?vid=a356a71d-8723-493e-8dd7-0d2f4f5a935a"},"vehicle_type_id":"4","last_reported":1708373234,"current_range_meters":15600,"station_id":"","pricing_plan_id":"cebpf4jnsgd1na2vs0mg"},{"bike_id":"694518db-5cfe-4346-a842-f4a75416c9f7","system_id":"levelo_inurba_marseille","lat":43.293009,"lon":5.374584,"is_reserved":false,"is_disabled":false,"rental_uris":{"android":"levelo://app?vid=694518db-5cfe-4346-a842-f4a75416c9f7","ios":"levelo://app?vid=694518db-5cfe-4346-a842-f4a75416c9f7"},"vehicle_type_id":"4","last_reported":1708373234,"current_range_meters":7600,"station_id":"ce4bgi12rcd13ifvqb70","pricing_plan_id":"cebpf4jnsgd1na2vs0mg"},{"bike_id":"8dd8d30d-48ab-4c72-8408-f69e1402b65c","system_id":"levelo_inurba_marseille","lat":43.303002,"lon":5.392142,"is_reserved":false,"is_disabled":false,"rental_uris":{"android":"levelo://app?vid=8dd8d30d-48ab-4c72-8408-f69e1402b65c","ios":"levelo://app?vid=8dd8d30d-48ab-4c72-8408-f69e1402b65c"},"vehicle_type_id":"4","last_reported":1708373234,"current_range_meters":1200,"station_id":"ce4bgkh2rcd13ifvqbk0","pricing_plan_id":"cebpf4jnsgd1na2vs0mg"},{"bike_id":"7f527278-7982-4491-a1b0-d3e1bd2821c3","system_id":"levelo_inurba_marseille","lat":43.303002,"lon":5.392142,"is_reserved":false,"is_disabled":false,"rental_uris":{"android":"levelo://app?vid=7f527278-7982-4491-a1b0-d3e1bd2821c3","ios":"levelo://app?vid=7f527278-7982-4491-a1b0-d3e1bd2821c3"},"vehicle_type_id":"4","last_reported":1708373234,"current_range_meters":18800,"station_id":"ce4bgkh2rcd13ifvqbk0","pricing_plan_id":"cebpf4jnsgd1na2vs0mg"},{"bike_id":"1b0e97d1-fe53-4f86-bb8e-f7999a8ca6ab","system_id":"levelo_inurba_marseille","lat":43.302992,"lon":5.392136,"is_reserved":false,"is_disabled":false,"rental_uris":{"android":"levelo://app?vid=1b0e97d1-fe53-4f86-bb8e-f7999a8ca6ab","ios":"levelo://app?vid=1b0e97d1-fe53-4f86-bb8e-f7999a8ca6ab"},"vehicle_type_id":"4","last_reported":1708373234,"current_range_meters":7200,"station_id":"ce4bgkh2rcd13ifvqbk0","pricing_plan_id":"cebpf4jnsgd1na2vs0mg"},{"bike_id":"508173b8-815b-4969-8700-8f90575942c9","system_id":"levelo_inurba_marseille","lat":43.2936,"lon":5.37835,"is_reserved":false,"is_disabled":false,"rental_uris":{"android":"levelo://app?vid=508173b8-815b-4969-8700-8f90575942c9","ios":"levelo://app?vid=508173b8-815b-4969-8700-8f90575942c9"},"vehicle_type_id":"4","last_reported":1708373234,"current_range_meters":18800,"station_id":"ce4bgjh2rcd13ifvqbf0","pricing_plan_id":"cebpf4jnsgd1na2vs0mg"},{"bike_id":"e05ed398-bcee-43e2-a2a7-18e3e7c07adc","system_id":"levelo_inurba_marseille","lat":43.2936,"lon":5.37835,"is_reserved":false,"is_disabled":false,"rental_uris":{"android":"levelo://app?vid=e05ed398-bcee-43e2-a2a7-18e3e7c07adc","ios":"levelo://app?vid=e05ed398-bcee-43e2-a2a7-18e3e7c07adc"},"vehicle_type_id":"4","last_reported":1708373234,"current_range_meters":14400,"station_id":"ce4bgjh2rcd13ifvqbf0","pricing_plan_id":"cebpf4jnsgd1na2vs0mg"},{"bike_id":"ee2323db-b18a-4104-943d-633166f1819f","system_id":"levelo_inurba_marseille","lat":43.300852,"lon":5.390859,"is_reserved":false,"is_disabled":false,"rental_uris":{"android":"levelo://app?vid=ee2323db-b18a-4104-943d-633166f1819f","ios":"levelo://app?vid=ee2323db-b18a-4104-943d-633166f1819f"},"vehicle_type_id":"4","last_reported":1708373234,"current_range_meters":23600,"station_id":"ce4bh192rcd13ifvqdb0","pricing_plan_id":"cebpf4jnsgd1na2vs0mg"},{"bike_id":"6bf44859-f99c-4224-89be-0a480416bea9","system_id":"levelo_inurba_marseille","lat":43.302992,"lon":5.392136,"is_reserved":false,"is_disabled":false,"rental_uris":{"android":"levelo://app?vid=6bf44859-f99c-4224-89be-0a480416bea9","ios":"levelo://app?vid=6bf44859-f99c-4224-89be-0a480416bea9"},"vehicle_type_id":"4","last_reported":1708373234,"current_range_meters":30000,"station_id":"ce4bgkh2rcd13ifvqbk0","pricing_plan_id":"cebpf4jnsgd1na2vs0mg"},{"bike_id":"0c11dde7-9001-400d-9357-1bc988a3611c","system_id":"levelo_inurba_marseille","lat":43.301043,"lon":5.390712,"is_reserved":false,"is_disabled":false,"rental_uris":{"android":"levelo://app?vid=0c11dde7-9001-400d-9357-1bc988a3611c","ios":"levelo://app?vid=0c11dde7-9001-400d-9357-1bc988a3611c"},"vehicle_type_id":"4","last_reported":1708373234,"current_range_meters":18000,"station_id":"ce4bh192rcd13ifvqdb0","pricing_plan_id":"cebpf4jnsgd1na2vs0mg"},{"bike_id":"31e50d26-7e9b-4bdc-886c-6fe65b9c6f68","system_id":"levelo_inurba_marseille","lat":43.292311,"lon":5.360731,"is_reserved":false,"is_disabled":false,"rental_uris":{"android":"levelo://app?vid=31e50d26-7e9b-4bdc-886c-6fe65b9c6f68","ios":"levelo://app?vid=31e50d26-7e9b-4bdc-886c-6fe65b9c6f68"},"vehicle_type_id":"4","last_reported":1708373234,"current_range_meters":0,"station_id":"ce4bhbh2rcd13ifvqeqg","pricing_plan_id":"cebpf4jnsgd1na2vs0mg"},{"bike_id":"41ad962e-360c-478f-80e7-beb50152db3d","system_id":"levelo_inurba_marseille","lat":43.292311,"lon":5.360731,"is_reserved":false,"is_disabled":false,"rental_uris":{"android":"levelo://app?vid=41ad962e-360c-478f-80e7-beb50152db3d","ios":"levelo://app?vid=41ad962e-360c-478f-80e7-beb50152db3d"},"vehicle_type_id":"4","last_reported":1708373234,"current_range_meters":27200,"station_id":"ce4bhbh2rcd13ifvqeqg","pricing_plan_id":"cebpf4jnsgd1na2vs0mg"},{"bike_id":"6a874ee3-1bee-4588-9433-d9ab2af9fc37","system_id":"levelo_inurba_marseille","lat":43.30085,"lon":5.390856,"is_reserved":false,"is_disabled":false,"rental_uris":{"android":"levelo://app?vid=6a874ee3-1bee-4588-9433-d9ab2af9fc37","ios":"levelo://app?vid=6a874ee3-1bee-4588-9433-d9ab2af9fc37"},"vehicle_type_id":"4","last_reported":1708373234,"current_range_meters":9200,"station_id":"ce4bh192rcd13ifvqdb0","pricing_plan_id":"cebpf4jnsgd1na2vs0mg"},{"bike_id":"f7a81959-4415-435d-a520-d41cd22ed438","system_id":"levelo_inurba_marseille","lat":43.292311,"lon":5.360731,"is_reserved":false,"is_disabled":false,"rental_uris":{"android":"levelo://app?vid=f7a81959-4415-435d-a520-d41cd22ed438","ios":"levelo://app?vid=f7a81959-4415-435d-a520-d41cd22ed438"},"vehicle_type_id":"4","last_reported":1708373234,"current_range_meters":21600,"station_id":"ce4bhbh2rcd13ifvqeqg","pricing_plan_id":"cebpf4jnsgd1na2vs0mg"},{"bike_id":"7f4d1554-7035-4dbb-a3b5-6508097fdee8","system_id":"levelo_inurba_marseille","lat":43.292311,"lon":5.360731,"is_reserved":false,"is_disabled":false,"rental_uris":{"android":"levelo://app?vid=7f4d1554-7035-4dbb-a3b5-6508097fdee8","ios":"levelo://app?vid=7f4d1554-7035-4dbb-a3b5-6508097fdee8"},"vehicle_type_id":"4","last_reported":1708373234,"current_range_meters":10000,"station_id":"ce4bhbh2rcd13ifvqeqg","pricing_plan_id":"cebpf4jnsgd1na2vs0mg"},{"bike_id":"38e678fc-a604-4448-95f0-758be9a976a8","system_id":"levelo_inurba_marseille","lat":43.292311,"lon":5.360731,"is_reserved":false,"is_disabled":false,"rental_uris":{"android":"levelo://app?vid=38e678fc-a604-4448-95f0-758be9a976a8","ios":"levelo://app?vid=38e678fc-a604-4448-95f0-758be9a976a8"},"vehicle_type_id":"4","last_reported":1708373234,"current_range_meters":10400,"station_id":"ce4bhbh2rcd13ifvqeqg","pricing_plan_id":"cebpf4jnsgd1na2vs0mg"},{"bike_id":"b0bc2962-60bd-485d-a9bb-7db5b00c1dbf","system_id":"levelo_inurba_marseille","lat":43.30085,"lon":5.390856,"is_reserved":false,"is_disabled":false,"rental_uris":{"android":"levelo://app?vid=b0bc2962-60bd-485d-a9bb-7db5b00c1dbf","ios":"levelo://app?vid=b0bc2962-60bd-485d-a9bb-7db5b00c1dbf"},"vehicle_type_id":"4","last_reported":1708373234,"current_range_meters":17200,"station_id":"ce4bh192rcd13ifvqdb0","pricing_plan_id":"cebpf4jnsgd1na2vs0mg"},{"bike_id":"4b27d897-22ea-4e3c-b737-f75584568374","system_id":"levelo_inurba_marseille","lat":43.292311,"lon":5.360731,"is_reserved":false,"is_disabled":false,"rental_uris":{"android":"levelo://app?vid=4b27d897-22ea-4e3c-b737-f75584568374","ios":"levelo://app?vid=4b27d897-22ea-4e3c-b737-f75584568374"},"vehicle_type_id":"4","last_reported":1708373234,"current_range_meters":24800,"station_id":"ce4bhbh2rcd13ifvqeqg","pricing_plan_id":"cebpf4jnsgd1na2vs0mg"},{"bike_id":"86ec6f0c-3bd6-4fd5-9085-23171a09d9e5","system_id":"levelo_inurba_marseille","lat":43.292311,"lon":5.360731,"is_reserved":false,"is_disabled":false,"rental_uris":{"android":"levelo://app?vid=86ec6f0c-3bd6-4fd5-9085-23171a09d9e5","ios":"levelo://app?vid=86ec6f0c-3bd6-4fd5-9085-23171a09d9e5"},"vehicle_type_id":"4","last_reported":1708373234,"current_range_meters":16800,"station_id":"ce4bhbh2rcd13ifvqeqg","pricing_plan_id":"cebpf4jnsgd1na2vs0mg"},{"bike_id":"8ac9a789-ac66-4bfc-937c-cf8bf287d8d7","system_id":"levelo_inurba_marseille","lat":43.292311,"lon":5.360731,"is_reserved":false,"is_disabled":false,"rental_uris":{"android":"levelo://app?vid=8ac9a789-ac66-4bfc-937c-cf8bf287d8d7","ios":"levelo://app?vid=8ac9a789-ac66-4bfc-937c-cf8bf287d8d7"},"vehicle_type_id":"4","last_reported":1708373234,"current_range_meters":23600,"station_id":"ce4bhbh2rcd13ifvqeqg","pricing_plan_id":"cebpf4jnsgd1na2vs0mg"},{"bike_id":"bc7dd6d8-5622-4b45-b827-8ed3f73babd7","system_id":"levelo_inurba_marseille","lat":43.29227,"lon":5.36053,"is_reserved":false,"is_disabled":false,"rental_uris":{"android":"levelo://app?vid=bc7dd6d8-5622-4b45-b827-8ed3f73babd7","ios":"levelo://app?vid=bc7dd6d8-5622-4b45-b827-8ed3f73babd7"},"vehicle_type_id":"4","last_reported":1708373234,"current_range_meters":0,"station_id":"ce4bhbh2rcd13ifvqeqg","pricing_plan_id":"cebpf4jnsgd1na2vs0mg"},{"bike_id":"a8e5c5a6-4950-415d-ac72-f4ce8cacd3a0","system_id":"levelo_inurba_marseille","lat":43.300852,"lon":5.390859,"is_reserved":false,"is_disabled":false,"rental_uris":{"android":"levelo://app?vid=a8e5c5a6-4950-415d-ac72-f4ce8cacd3a0","ios":"levelo://app?vid=a8e5c5a6-4950-415d-ac72-f4ce8cacd3a0"},"vehicle_type_id":"4","last_reported":1708373234,"current_range_meters":16800,"station_id":"ce4bh192rcd13ifvqdb0","pricing_plan_id":"cebpf4jnsgd1na2vs0mg"},{"bike_id":"3672ef6c-69dd-4adc-b75d-2274fee2816f","system_id":"levelo_inurba_marseille","lat":43.29268,"lon":5.37631,"is_reserved":false,"is_disabled":false,"rental_uris":{"android":"levelo://app?vid=3672ef6c-69dd-4adc-b75d-2274fee2816f","ios":"levelo://app?vid=3672ef6c-69dd-4adc-b75d-2274fee2816f"},"vehicle_type_id":"4","last_reported":1708373234,"current_range_meters":17600,"station_id":"","pricing_plan_id":"cebpf4jnsgd1na2vs0mg"},{"bike_id":"2ff98eb7-d90c-47dd-a14b-2a87a95fe49f","system_id":"levelo_inurba_marseille","lat":43.298764,"lon":5.388973,"is_reserved":false,"is_disabled":false,"rental_uris":{"android":"levelo://app?vid=2ff98eb7-d90c-47dd-a14b-2a87a95fe49f","ios":"levelo://app?vid=2ff98eb7-d90c-47dd-a14b-2a87a95fe49f"},"vehicle_type_id":"4","last_reported":1708373234,"current_range_meters":15200,"station_id":"ce4bh392rcd13ifvqdl0","pricing_plan_id":"cebpf4jnsgd1na2vs0mg"},{"bike_id":"f6ca420a-1b92-4b6e-a220-8a9f5f8dcf57","system_id":"levelo_inurba_marseille","lat":43.29261,"lon":5.37612,"is_reserved":false,"is_disabled":false,"rental_uris":{"android":"levelo://app?vid=f6ca420a-1b92-4b6e-a220-8a9f5f8dcf57","ios":"levelo://app?vid=f6ca420a-1b92-4b6e-a220-8a9f5f8dcf57"},"vehicle_type_id":"4","last_reported":1708373234,"current_range_meters":19600,"station_id":"","pricing_plan_id":"cebpf4jnsgd1na2vs0mg"},{"bike_id":"a5d49166-62fe-41bd-8bee-6062b26689ee","system_id":"levelo_inurba_marseille","lat":43.298764,"lon":5.388973,"is_reserved":false,"is_disabled":false,"rental_uris":{"android":"levelo://app?vid=a5d49166-62fe-41bd-8bee-6062b26689ee","ios":"levelo://app?vid=a5d49166-62fe-41bd-8bee-6062b26689ee"},"vehicle_type_id":"4","last_reported":1708373234,"current_range_meters":18400,"station_id":"ce4bh392rcd13ifvqdl0","pricing_plan_id":"cebpf4jnsgd1na2vs0mg"},{"bike_id":"5859c668-66c4-46a4-ba5d-4c36f9de602a","system_id":"levelo_inurba_marseille","lat":43.291675,"lon":5.371583,"is_reserved":false,"is_disabled":false,"rental_uris":{"android":"levelo://app?vid=5859c668-66c4-46a4-ba5d-4c36f9de602a","ios":"levelo://app?vid=5859c668-66c4-46a4-ba5d-4c36f9de602a"},"vehicle_type_id":"4","last_reported":1708373234,"current_range_meters":5200,"station_id":"ce4bha92rcd13ifvqeh0","pricing_plan_id":"cebpf4jnsgd1na2vs0mg"},{"bike_id":"6ef80946-e823-4bba-b064-c62007f12da4","system_id":"levelo_inurba_marseille","lat":43.298764,"lon":5.388973,"is_reserved":false,"is_disabled":false,"rental_uris":{"android":"levelo://app?vid=6ef80946-e823-4bba-b064-c62007f12da4","ios":"levelo://app?vid=6ef80946-e823-4bba-b064-c62007f12da4"},"vehicle_type_id":"4","last_reported":1708373234,"current_range_meters":19200,"station_id":"ce4bh392rcd13ifvqdl0","pricing_plan_id":"cebpf4jnsgd1na2vs0mg"},{"bike_id":"022ad871-0efc-4ba3-b813-6250f276730c","system_id":"levelo_inurba_marseille","lat":43.291994,"lon":5.357886,"is_reserved":false,"is_disabled":false,"rental_uris":{"android":"levelo://app?vid=022ad871-0efc-4ba3-b813-6250f276730c","ios":"levelo://app?vid=022ad871-0efc-4ba3-b813-6250f276730c"},"vehicle_type_id":"4","last_reported":1708373234,"current_range_meters":16800,"station_id":"ce4bhb12rcd13ifvqel0","pricing_plan_id":"cebpf4jnsgd1na2vs0mg"},{"bike_id":"b8a24971-25ad-4674-ae1a-8fdff4dab901","system_id":"levelo_inurba_marseille","lat":43.291994,"lon":5.357886,"is_reserved":false,"is_disabled":false,"rental_uris":{"android":"levelo://app?vid=b8a24971-25ad-4674-ae1a-8fdff4dab901","ios":"levelo://app?vid=b8a24971-25ad-4674-ae1a-8fdff4dab901"},"vehicle_type_id":"4","last_reported":1708373234,"current_range_meters":2400,"station_id":"ce4bhb12rcd13ifvqel0","pricing_plan_id":"cebpf4jnsgd1na2vs0mg"},{"bike_id":"9d656cd5-f452-40d3-b700-7cad2d1c897d","system_id":"levelo_inurba_marseille","lat":43.309038,"lon":5.396546,"is_reserved":false,"is_disabled":false,"rental_uris":{"android":"levelo://app?vid=9d656cd5-f452-40d3-b700-7cad2d1c897d","ios":"levelo://app?vid=9d656cd5-f452-40d3-b700-7cad2d1c897d"},"vehicle_type_id":"4","last_reported":1708373234,"current_range_meters":0,"station_id":"ce4bh012rcd13ifvqcv0","pricing_plan_id":"cebpf4jnsgd1na2vs0mg"},{"bike_id":"c35b1c73-8760-4c1e-af98-17ca5ba0cbcb","system_id":"levelo_inurba_marseille","lat":43.309038,"lon":5.396546,"is_reserved":false,"is_disabled":false,"rental_uris":{"android":"levelo://app?vid=c35b1c73-8760-4c1e-af98-17ca5ba0cbcb","ios":"levelo://app?vid=c35b1c73-8760-4c1e-af98-17ca5ba0cbcb"},"vehicle_type_id":"4","last_reported":1708373234,"current_range_meters":20800,"station_id":"ce4bh012rcd13ifvqcv0","pricing_plan_id":"cebpf4jnsgd1na2vs0mg"},{"bike_id":"6c4f712b-8037-4932-99eb-53873955d2e5","system_id":"levelo_inurba_marseille","lat":43.291994,"lon":5.357886,"is_reserved":false,"is_disabled":false,"rental_uris":{"android":"levelo://app?vid=6c4f712b-8037-4932-99eb-53873955d2e5","ios":"levelo://app?vid=6c4f712b-8037-4932-99eb-53873955d2e5"},"vehicle_type_id":"4","last_reported":1708373234,"current_range_meters":2400,"station_id":"ce4bhb12rcd13ifvqel0","pricing_plan_id":"cebpf4jnsgd1na2vs0mg"},{"bike_id":"9f33d0f2-ce92-4065-a003-d3e306806f1d","system_id":"levelo_inurba_marseille","lat":43.30888,"lon":5.39639,"is_reserved":false,"is_disabled":false,"rental_uris":{"android":"levelo://app?vid=9f33d0f2-ce92-4065-a003-d3e306806f1d","ios":"levelo://app?vid=9f33d0f2-ce92-4065-a003-d3e306806f1d"},"vehicle_type_id":"4","last_reported":1708373234,"current_range_meters":24400,"station_id":"ce4bh012rcd13ifvqcv0","pricing_plan_id":"cebpf4jnsgd1na2vs0mg"},{"bike_id":"f56ab3ba-0120-4e74-8550-905d7dc0e3d1","system_id":"levelo_inurba_marseille","lat":43.309038,"lon":5.396546,"is_reserved":false,"is_disabled":false,"rental_uris":{"android":"levelo://app?vid=f56ab3ba-0120-4e74-8550-905d7dc0e3d1","ios":"levelo://app?vid=f56ab3ba-0120-4e74-8550-905d7dc0e3d1"},"vehicle_type_id":"4","last_reported":1708373234,"current_range_meters":12000,"station_id":"ce4bh012rcd13ifvqcv0","pricing_plan_id":"cebpf4jnsgd1na2vs0mg"},{"bike_id":"cb0639bd-179f-44e0-989b-e3b6a05b75a4","system_id":"levelo_inurba_marseille","lat":43.309038,"lon":5.396546,"is_reserved":false,"is_disabled":false,"rental_uris":{"android":"levelo://app?vid=cb0639bd-179f-44e0-989b-e3b6a05b75a4","ios":"levelo://app?vid=cb0639bd-179f-44e0-989b-e3b6a05b75a4"},"vehicle_type_id":"4","last_reported":1708373234,"current_range_meters":8000,"station_id":"ce4bh012rcd13ifvqcv0","pricing_plan_id":"cebpf4jnsgd1na2vs0mg"},{"bike_id":"3cd5ba5c-ab88-4937-935c-89f0e00fff91","system_id":"levelo_inurba_marseille","lat":43.313291,"lon":5.396838,"is_reserved":false,"is_disabled":false,"rental_uris":{"android":"levelo://app?vid=3cd5ba5c-ab88-4937-935c-89f0e00fff91","ios":"levelo://app?vid=3cd5ba5c-ab88-4937-935c-89f0e00fff91"},"vehicle_type_id":"4","last_reported":1708373234,"current_range_meters":0,"station_id":"ce4bgvp2rcd13ifvqcu0","pricing_plan_id":"cebpf4jnsgd1na2vs0mg"},{"bike_id":"aac08445-40cf-4197-880d-7f0184a0c926","system_id":"levelo_inurba_marseille","lat":43.31321,"lon":5.396997,"is_reserved":false,"is_disabled":false,"rental_uris":{"android":"levelo://app?vid=aac08445-40cf-4197-880d-7f0184a0c926","ios":"levelo://app?vid=aac08445-40cf-4197-880d-7f0184a0c926"},"vehicle_type_id":"4","last_reported":1708373234,"current_range_meters":2400,"station_id":"ce4bgvp2rcd13ifvqcu0","pricing_plan_id":"cebpf4jnsgd1na2vs0mg"},{"bike_id":"5045cbe0-c968-4e65-bf2c-fd47c1b38fb9","system_id":"levelo_inurba_marseille","lat":43.31324,"lon":5.397,"is_reserved":false,"is_disabled":false,"rental_uris":{"android":"levelo://app?vid=5045cbe0-c968-4e65-bf2c-fd47c1b38fb9","ios":"levelo://app?vid=5045cbe0-c968-4e65-bf2c-fd47c1b38fb9"},"vehicle_type_id":"4","last_reported":1708373234,"current_range_meters":4400,"station_id":"ce4bgvp2rcd13ifvqcu0","pricing_plan_id":"cebpf4jnsgd1na2vs0mg"},{"bike_id":"bab24dd4-9f77-415d-ad48-c773efdf66ca","system_id":"levelo_inurba_marseille","lat":43.29529,"lon":5.385581,"is_reserved":false,"is_disabled":false,"rental_uris":{"android":"levelo://app?vid=bab24dd4-9f77-415d-ad48-c773efdf66ca","ios":"levelo://app?vid=bab24dd4-9f77-415d-ad48-c773efdf66ca"},"vehicle_type_id":"4","last_reported":1708373234,"current_range_meters":27600,"station_id":"ce4bgih2rcd13ifvqba0","pricing_plan_id":"cebpf4jnsgd1na2vs0mg"},{"bike_id":"4b7fe8b9-b4e7-4ced-958e-dc1e1f4aa236","system_id":"levelo_inurba_marseille","lat":43.29529,"lon":5.385581,"is_reserved":false,"is_disabled":false,"rental_uris":{"android":"levelo://app?vid=4b7fe8b9-b4e7-4ced-958e-dc1e1f4aa236","ios":"levelo://app?vid=4b7fe8b9-b4e7-4ced-958e-dc1e1f4aa236"},"vehicle_type_id":"4","last_reported":1708373234,"current_range_meters":21200,"station_id":"ce4bgih2rcd13ifvqba0","pricing_plan_id":"cebpf4jnsgd1na2vs0mg"},{"bike_id":"4760f9b1-198f-4f50-ad70-2cad0de1d54a","system_id":"levelo_inurba_marseille","lat":43.309038,"lon":5.396546,"is_reserved":false,"is_disabled":false,"rental_uris":{"android":"levelo://app?vid=4760f9b1-198f-4f50-ad70-2cad0de1d54a","ios":"levelo://app?vid=4760f9b1-198f-4f50-ad70-2cad0de1d54a"},"vehicle_type_id":"4","last_reported":1708373234,"current_range_meters":26800,"station_id":"ce4bh012rcd13ifvqcv0","pricing_plan_id":"cebpf4jnsgd1na2vs0mg"},{"bike_id":"568621b2-5a5d-4655-9d35-f5500f44e7ea","system_id":"levelo_inurba_marseille","lat":43.29529,"lon":5.385581,"is_reserved":false,"is_disabled":false,"rental_uris":{"android":"levelo://app?vid=568621b2-5a5d-4655-9d35-f5500f44e7ea","ios":"levelo://app?vid=568621b2-5a5d-4655-9d35-f5500f44e7ea"},"vehicle_type_id":"4","last_reported":1708373234,"current_range_meters":9200,"station_id":"ce4bgih2rcd13ifvqba0","pricing_plan_id":"cebpf4jnsgd1na2vs0mg"},{"bike_id":"4be0d9ed-4068-4b7e-90d1-387998dac091","system_id":"levelo_inurba_marseille","lat":43.29529,"lon":5.385581,"is_reserved":false,"is_disabled":false,"rental_uris":{"android":"levelo://app?vid=4be0d9ed-4068-4b7e-90d1-387998dac091","ios":"levelo://app?vid=4be0d9ed-4068-4b7e-90d1-387998dac091"},"vehicle_type_id":"4","last_reported":1708373234,"current_range_meters":27600,"station_id":"ce4bgih2rcd13ifvqba0","pricing_plan_id":"cebpf4jnsgd1na2vs0mg"},{"bike_id":"b77ddd61-62c4-4e40-93bb-789355930db5","system_id":"levelo_inurba_marseille","lat":43.29529,"lon":5.385581,"is_reserved":false,"is_disabled":false,"rental_uris":{"android":"levelo://app?vid=b77ddd61-62c4-4e40-93bb-789355930db5","ios":"levelo://app?vid=b77ddd61-62c4-4e40-93bb-789355930db5"},"vehicle_type_id":"4","last_reported":1708373234,"current_range_meters":29600,"station_id":"ce4bgih2rcd13ifvqba0","pricing_plan_id":"cebpf4jnsgd1na2vs0mg"},{"bike_id":"017051ee-88ca-408a-a1bb-7ba31fc095ec","system_id":"levelo_inurba_marseille","lat":43.29529,"lon":5.385581,"is_reserved":false,"is_disabled":false,"rental_uris":{"android":"levelo://app?vid=017051ee-88ca-408a-a1bb-7ba31fc095ec","ios":"levelo://app?vid=017051ee-88ca-408a-a1bb-7ba31fc095ec"},"vehicle_type_id":"4","last_reported":1708373234,"current_range_meters":24800,"station_id":"ce4bgih2rcd13ifvqba0","pricing_plan_id":"cebpf4jnsgd1na2vs0mg"},{"bike_id":"c1e01c7b-5d19-43a8-865f-1b56c20994fa","system_id":"levelo_inurba_marseille","lat":43.29529,"lon":5.385581,"is_reserved":false,"is_disabled":false,"rental_uris":{"android":"levelo://app?vid=c1e01c7b-5d19-43a8-865f-1b56c20994fa","ios":"levelo://app?vid=c1e01c7b-5d19-43a8-865f-1b56c20994fa"},"vehicle_type_id":"4","last_reported":1708373234,"current_range_meters":27600,"station_id":"ce4bgih2rcd13ifvqba0","pricing_plan_id":"cebpf4jnsgd1na2vs0mg"},{"bike_id":"ea383555-9157-48b6-9ff2-d3578b006850","system_id":"levelo_inurba_marseille","lat":43.29529,"lon":5.385581,"is_reserved":false,"is_disabled":false,"rental_uris":{"android":"levelo://app?vid=ea383555-9157-48b6-9ff2-d3578b006850","ios":"levelo://app?vid=ea383555-9157-48b6-9ff2-d3578b006850"},"vehicle_type_id":"4","last_reported":1708373234,"current_range_meters":30000,"station_id":"ce4bgih2rcd13ifvqba0","pricing_plan_id":"cebpf4jnsgd1na2vs0mg"},{"bike_id":"2fed8b98-e0b2-4302-a8f6-3146e7d21d81","system_id":"levelo_inurba_marseille","lat":43.29529,"lon":5.385581,"is_reserved":false,"is_disabled":false,"rental_uris":{"android":"levelo://app?vid=2fed8b98-e0b2-4302-a8f6-3146e7d21d81","ios":"levelo://app?vid=2fed8b98-e0b2-4302-a8f6-3146e7d21d81"},"vehicle_type_id":"4","last_reported":1708373234,"current_range_meters":18000,"station_id":"ce4bgih2rcd13ifvqba0","pricing_plan_id":"cebpf4jnsgd1na2vs0mg"},{"bike_id":"b00d167b-77cd-4643-808a-537dad96e675","system_id":"levelo_inurba_marseille","lat":43.290779,"lon":5.371482,"is_reserved":false,"is_disabled":false,"rental_uris":{"android":"levelo://app?vid=b00d167b-77cd-4643-808a-537dad96e675","ios":"levelo://app?vid=b00d167b-77cd-4643-808a-537dad96e675"},"vehicle_type_id":"4","last_reported":1708373234,"current_range_meters":20800,"station_id":"ce4bh5p2rcd13ifvqe4g","pricing_plan_id":"cebpf4jnsgd1na2vs0mg"},{"bike_id":"eee79b2c-5070-4c96-a845-b23f630a0c5e","system_id":"levelo_inurba_marseille","lat":43.290779,"lon":5.371482,"is_reserved":false,"is_disabled":false,"rental_uris":{"android":"levelo://app?vid=eee79b2c-5070-4c96-a845-b23f630a0c5e","ios":"levelo://app?vid=eee79b2c-5070-4c96-a845-b23f630a0c5e"},"vehicle_type_id":"4","last_reported":1708373234,"current_range_meters":24800,"station_id":"ce4bh5p2rcd13ifvqe4g","pricing_plan_id":"cebpf4jnsgd1na2vs0mg"},{"bike_id":"e547d83f-3359-4aab-8a2d-a3d32b0d52a6","system_id":"levelo_inurba_marseille","lat":43.290779,"lon":5.371482,"is_reserved":false,"is_disabled":false,"rental_uris":{"android":"levelo://app?vid=e547d83f-3359-4aab-8a2d-a3d32b0d52a6","ios":"levelo://app?vid=e547d83f-3359-4aab-8a2d-a3d32b0d52a6"},"vehicle_type_id":"4","last_reported":1708373234,"current_range_meters":23200,"station_id":"ce4bh5p2rcd13ifvqe4g","pricing_plan_id":"cebpf4jnsgd1na2vs0mg"},{"bike_id":"25c075e9-01f9-47cb-a9cd-c4709c91e32c","system_id":"levelo_inurba_marseille","lat":43.290779,"lon":5.371482,"is_reserved":false,"is_disabled":false,"rental_uris":{"android":"levelo://app?vid=25c075e9-01f9-47cb-a9cd-c4709c91e32c","ios":"levelo://app?vid=25c075e9-01f9-47cb-a9cd-c4709c91e32c"},"vehicle_type_id":"4","last_reported":1708373234,"current_range_meters":13600,"station_id":"ce4bh5p2rcd13ifvqe4g","pricing_plan_id":"cebpf4jnsgd1na2vs0mg"},{"bike_id":"782f443d-2beb-4079-a863-282c62807c87","system_id":"levelo_inurba_marseille","lat":43.302008,"lon":5.394694,"is_reserved":false,"is_disabled":false,"rental_uris":{"android":"levelo://app?vid=782f443d-2beb-4079-a863-282c62807c87","ios":"levelo://app?vid=782f443d-2beb-4079-a863-282c62807c87"},"vehicle_type_id":"4","last_reported":1708373234,"current_range_meters":4400,"station_id":"ce4bh0p2rcd13ifvqd70","pricing_plan_id":"cebpf4jnsgd1na2vs0mg"},{"bike_id":"1a5925eb-b513-44e9-bdb4-da13b640e4e0","system_id":"levelo_inurba_marseille","lat":43.302008,"lon":5.394694,"is_reserved":false,"is_disabled":false,"rental_uris":{"android":"levelo://app?vid=1a5925eb-b513-44e9-bdb4-da13b640e4e0","ios":"levelo://app?vid=1a5925eb-b513-44e9-bdb4-da13b640e4e0"},"vehicle_type_id":"4","last_reported":1708373234,"current_range_meters":18400,"station_id":"ce4bh0p2rcd13ifvqd70","pricing_plan_id":"cebpf4jnsgd1na2vs0mg"},{"bike_id":"cdb26583-b868-464b-be59-823b2f44b92d","system_id":"levelo_inurba_marseille","lat":43.302008,"lon":5.394694,"is_reserved":false,"is_disabled":false,"rental_uris":{"android":"levelo://app?vid=cdb26583-b868-464b-be59-823b2f44b92d","ios":"levelo://app?vid=cdb26583-b868-464b-be59-823b2f44b92d"},"vehicle_type_id":"4","last_reported":1708373234,"current_range_meters":21600,"station_id":"ce4bh0p2rcd13ifvqd70","pricing_plan_id":"cebpf4jnsgd1na2vs0mg"},{"bike_id":"9ae9bb05-3613-45c5-af42-6793a884baae","system_id":"levelo_inurba_marseille","lat":43.302008,"lon":5.394694,"is_reserved":false,"is_disabled":false,"rental_uris":{"android":"levelo://app?vid=9ae9bb05-3613-45c5-af42-6793a884baae","ios":"levelo://app?vid=9ae9bb05-3613-45c5-af42-6793a884baae"},"vehicle_type_id":"4","last_reported":1708373234,"current_range_meters":17600,"station_id":"ce4bh0p2rcd13ifvqd70","pricing_plan_id":"cebpf4jnsgd1na2vs0mg"},{"bike_id":"63b06769-8eb7-4189-b14e-c2f88656b7b0","system_id":"levelo_inurba_marseille","lat":43.302008,"lon":5.394694,"is_reserved":false,"is_disabled":false,"rental_uris":{"android":"levelo://app?vid=63b06769-8eb7-4189-b14e-c2f88656b7b0","ios":"levelo://app?vid=63b06769-8eb7-4189-b14e-c2f88656b7b0"},"vehicle_type_id":"4","last_reported":1708373234,"current_range_meters":29200,"station_id":"ce4bh0p2rcd13ifvqd70","pricing_plan_id":"cebpf4jnsgd1na2vs0mg"},{"bike_id":"113b5df0-06f8-432e-9644-6329de3156dc","system_id":"levelo_inurba_marseille","lat":43.302008,"lon":5.394694,"is_reserved":false,"is_disabled":false,"rental_uris":{"android":"levelo://app?vid=113b5df0-06f8-432e-9644-6329de3156dc","ios":"levelo://app?vid=113b5df0-06f8-432e-9644-6329de3156dc"},"vehicle_type_id":"4","last_reported":1708373234,"current_range_meters":22400,"station_id":"ce4bh0p2rcd13ifvqd70","pricing_plan_id":"cebpf4jnsgd1na2vs0mg"},{"bike_id":"a9f22d26-1906-4235-8b62-e4eb27ed8a85","system_id":"levelo_inurba_marseille","lat":43.302008,"lon":5.394694,"is_reserved":false,"is_disabled":false,"rental_uris":{"android":"levelo://app?vid=a9f22d26-1906-4235-8b62-e4eb27ed8a85","ios":"levelo://app?vid=a9f22d26-1906-4235-8b62-e4eb27ed8a85"},"vehicle_type_id":"4","last_reported":1708373234,"current_range_meters":26800,"station_id":"ce4bh0p2rcd13ifvqd70","pricing_plan_id":"cebpf4jnsgd1na2vs0mg"},{"bike_id":"7697bb1e-769d-4764-a226-6aa9762b9a89","system_id":"levelo_inurba_marseille","lat":43.302008,"lon":5.394694,"is_reserved":false,"is_disabled":false,"rental_uris":{"android":"levelo://app?vid=7697bb1e-769d-4764-a226-6aa9762b9a89","ios":"levelo://app?vid=7697bb1e-769d-4764-a226-6aa9762b9a89"},"vehicle_type_id":"4","last_reported":1708373234,"current_range_meters":6400,"station_id":"ce4bh0p2rcd13ifvqd70","pricing_plan_id":"cebpf4jnsgd1na2vs0mg"},{"bike_id":"a7c6ac1b-ebbf-400c-973b-c0dd82a9922e","system_id":"levelo_inurba_marseille","lat":43.302008,"lon":5.394694,"is_reserved":false,"is_disabled":false,"rental_uris":{"android":"levelo://app?vid=a7c6ac1b-ebbf-400c-973b-c0dd82a9922e","ios":"levelo://app?vid=a7c6ac1b-ebbf-400c-973b-c0dd82a9922e"},"vehicle_type_id":"4","last_reported":1708373234,"current_range_meters":8800,"station_id":"ce4bh0p2rcd13ifvqd70","pricing_plan_id":"cebpf4jnsgd1na2vs0mg"},{"bike_id":"3b763e75-f756-4507-a004-8c4f1908ccc9","system_id":"levelo_inurba_marseille","lat":43.290624,"lon":5.359245,"is_reserved":false,"is_disabled":false,"rental_uris":{"android":"levelo://app?vid=3b763e75-f756-4507-a004-8c4f1908ccc9","ios":"levelo://app?vid=3b763e75-f756-4507-a004-8c4f1908ccc9"},"vehicle_type_id":"4","last_reported":1708373234,"current_range_meters":29200,"station_id":"ce4bha92rcd13ifvqeg0","pricing_plan_id":"cebpf4jnsgd1na2vs0mg"},{"bike_id":"096cc9e4-c605-44af-bfd2-61a654309cda","system_id":"levelo_inurba_marseille","lat":43.290631,"lon":5.359244,"is_reserved":false,"is_disabled":false,"rental_uris":{"android":"levelo://app?vid=096cc9e4-c605-44af-bfd2-61a654309cda","ios":"levelo://app?vid=096cc9e4-c605-44af-bfd2-61a654309cda"},"vehicle_type_id":"4","last_reported":1708373234,"current_range_meters":27600,"station_id":"ce4bha92rcd13ifvqeg0","pricing_plan_id":"cebpf4jnsgd1na2vs0mg"},{"bike_id":"a32df588-7861-4d35-8a36-3120498d3b8f","system_id":"levelo_inurba_marseille","lat":43.290631,"lon":5.359244,"is_reserved":false,"is_disabled":false,"rental_uris":{"android":"levelo://app?vid=a32df588-7861-4d35-8a36-3120498d3b8f","ios":"levelo://app?vid=a32df588-7861-4d35-8a36-3120498d3b8f"},"vehicle_type_id":"4","last_reported":1708373234,"current_range_meters":7200,"station_id":"ce4bha92rcd13ifvqeg0","pricing_plan_id":"cebpf4jnsgd1na2vs0mg"},{"bike_id":"f3621e31-2802-4d00-9575-e569e4cadbd9","system_id":"levelo_inurba_marseille","lat":43.290624,"lon":5.359245,"is_reserved":false,"is_disabled":false,"rental_uris":{"android":"levelo://app?vid=f3621e31-2802-4d00-9575-e569e4cadbd9","ios":"levelo://app?vid=f3621e31-2802-4d00-9575-e569e4cadbd9"},"vehicle_type_id":"4","last_reported":1708373234,"current_range_meters":30400,"station_id":"ce4bha92rcd13ifvqeg0","pricing_plan_id":"cebpf4jnsgd1na2vs0mg"},{"bike_id":"c662e9d1-5a66-4b42-822d-fcc8221d0a4e","system_id":"levelo_inurba_marseille","lat":43.290631,"lon":5.359244,"is_reserved":false,"is_disabled":false,"rental_uris":{"android":"levelo://app?vid=c662e9d1-5a66-4b42-822d-fcc8221d0a4e","ios":"levelo://app?vid=c662e9d1-5a66-4b42-822d-fcc8221d0a4e"},"vehicle_type_id":"4","last_reported":1708373234,"current_range_meters":17600,"station_id":"ce4bha92rcd13ifvqeg0","pricing_plan_id":"cebpf4jnsgd1na2vs0mg"},{"bike_id":"7d1ec4a4-68f4-4667-877e-11f51144dc14","system_id":"levelo_inurba_marseille","lat":43.29425,"lon":5.38617,"is_reserved":false,"is_disabled":false,"rental_uris":{"android":"levelo://app?vid=7d1ec4a4-68f4-4667-877e-11f51144dc14","ios":"levelo://app?vid=7d1ec4a4-68f4-4667-877e-11f51144dc14"},"vehicle_type_id":"4","last_reported":1708373234,"current_range_meters":17200,"station_id":"ce4bh2h2rcd13ifvqdh0","pricing_plan_id":"cebpf4jnsgd1na2vs0mg"},{"bike_id":"037458bc-bc19-4003-9bed-e8db714bfb75","system_id":"levelo_inurba_marseille","lat":43.294153,"lon":5.386305,"is_reserved":false,"is_disabled":false,"rental_uris":{"android":"levelo://app?vid=037458bc-bc19-4003-9bed-e8db714bfb75","ios":"levelo://app?vid=037458bc-bc19-4003-9bed-e8db714bfb75"},"vehicle_type_id":"4","last_reported":1708373234,"current_range_meters":18000,"station_id":"ce4bh2h2rcd13ifvqdh0","pricing_plan_id":"cebpf4jnsgd1na2vs0mg"},{"bike_id":"4401f28e-a935-4462-8266-9979b22a62c7","system_id":"levelo_inurba_marseille","lat":43.294153,"lon":5.386305,"is_reserved":false,"is_disabled":false,"rental_uris":{"android":"levelo://app?vid=4401f28e-a935-4462-8266-9979b22a62c7","ios":"levelo://app?vid=4401f28e-a935-4462-8266-9979b22a62c7"},"vehicle_type_id":"4","last_reported":1708373234,"current_range_meters":19600,"station_id":"ce4bh2h2rcd13ifvqdh0","pricing_plan_id":"cebpf4jnsgd1na2vs0mg"},{"bike_id":"877bf60e-08f0-45ff-b6e5-a17261cf9a2d","system_id":"levelo_inurba_marseille","lat":43.29422,"lon":5.38624,"is_reserved":false,"is_disabled":false,"rental_uris":{"android":"levelo://app?vid=877bf60e-08f0-45ff-b6e5-a17261cf9a2d","ios":"levelo://app?vid=877bf60e-08f0-45ff-b6e5-a17261cf9a2d"},"vehicle_type_id":"4","last_reported":1708373234,"current_range_meters":18400,"station_id":"ce4bh2h2rcd13ifvqdh0","pricing_plan_id":"cebpf4jnsgd1na2vs0mg"},{"bike_id":"4a3f62fa-d70f-403e-a9d1-bc5e66de800e","system_id":"levelo_inurba_marseille","lat":43.2942,"lon":5.38621,"is_reserved":false,"is_disabled":false,"rental_uris":{"android":"levelo://app?vid=4a3f62fa-d70f-403e-a9d1-bc5e66de800e","ios":"levelo://app?vid=4a3f62fa-d70f-403e-a9d1-bc5e66de800e"},"vehicle_type_id":"4","last_reported":1708373234,"current_range_meters":0,"station_id":"ce4bh2h2rcd13ifvqdh0","pricing_plan_id":"cebpf4jnsgd1na2vs0mg"},{"bike_id":"28f48392-8f39-48ac-9ee1-c9e88ffd5fbb","system_id":"levelo_inurba_marseille","lat":43.290327,"lon":5.375711,"is_reserved":false,"is_disabled":false,"rental_uris":{"android":"levelo://app?vid=28f48392-8f39-48ac-9ee1-c9e88ffd5fbb","ios":"levelo://app?vid=28f48392-8f39-48ac-9ee1-c9e88ffd5fbb"},"vehicle_type_id":"4","last_reported":1708373234,"current_range_meters":30800,"station_id":"ce4bh692rcd13ifvqe90","pricing_plan_id":"cebpf4jnsgd1na2vs0mg"},{"bike_id":"37b990c0-7ed6-4817-898a-415a856812f8","system_id":"levelo_inurba_marseille","lat":43.2942,"lon":5.38625,"is_reserved":false,"is_disabled":false,"rental_uris":{"android":"levelo://app?vid=37b990c0-7ed6-4817-898a-415a856812f8","ios":"levelo://app?vid=37b990c0-7ed6-4817-898a-415a856812f8"},"vehicle_type_id":"4","last_reported":1708373234,"current_range_meters":1200,"station_id":"ce4bh2h2rcd13ifvqdh0","pricing_plan_id":"cebpf4jnsgd1na2vs0mg"},{"bike_id":"704b0cbb-4f72-494b-9f65-1a87da17aebb","system_id":"levelo_inurba_marseille","lat":43.294153,"lon":5.386305,"is_reserved":false,"is_disabled":false,"rental_uris":{"android":"levelo://app?vid=704b0cbb-4f72-494b-9f65-1a87da17aebb","ios":"levelo://app?vid=704b0cbb-4f72-494b-9f65-1a87da17aebb"},"vehicle_type_id":"4","last_reported":1708373234,"current_range_meters":18800,"station_id":"ce4bh2h2rcd13ifvqdh0","pricing_plan_id":"cebpf4jnsgd1na2vs0mg"},{"bike_id":"f21b13a1-3fd9-460a-8d56-795c7ff241c7","system_id":"levelo_inurba_marseille","lat":43.294153,"lon":5.386305,"is_reserved":false,"is_disabled":false,"rental_uris":{"android":"levelo://app?vid=f21b13a1-3fd9-460a-8d56-795c7ff241c7","ios":"levelo://app?vid=f21b13a1-3fd9-460a-8d56-795c7ff241c7"},"vehicle_type_id":"4","last_reported":1708373234,"current_range_meters":0,"station_id":"ce4bh2h2rcd13ifvqdh0","pricing_plan_id":"cebpf4jnsgd1na2vs0mg"},{"bike_id":"34018b6b-a20d-4f2a-a01f-095c7cf9f8ac","system_id":"levelo_inurba_marseille","lat":43.289184,"lon":5.366408,"is_reserved":false,"is_disabled":false,"rental_uris":{"android":"levelo://app?vid=34018b6b-a20d-4f2a-a01f-095c7cf9f8ac","ios":"levelo://app?vid=34018b6b-a20d-4f2a-a01f-095c7cf9f8ac"},"vehicle_type_id":"4","last_reported":1708373234,"current_range_meters":0,"station_id":"ce4bhap2rcd13ifvqek0","pricing_plan_id":"cebpf4jnsgd1na2vs0mg"},{"bike_id":"a6546b50-d234-4f6a-aa1e-f89413b59276","system_id":"levelo_inurba_marseille","lat":43.289468,"lon":5.363719,"is_reserved":false,"is_disabled":false,"rental_uris":{"android":"levelo://app?vid=a6546b50-d234-4f6a-aa1e-f89413b59276","ios":"levelo://app?vid=a6546b50-d234-4f6a-aa1e-f89413b59276"},"vehicle_type_id":"4","last_reported":1708373234,"current_range_meters":6400,"station_id":"ce4bhc92rcd13ifvqetg","pricing_plan_id":"cebpf4jnsgd1na2vs0mg"},{"bike_id":"980b1df1-6684-470b-9e6a-7824c1b891d7","system_id":"levelo_inurba_marseille","lat":43.289468,"lon":5.363719,"is_reserved":false,"is_disabled":false,"rental_uris":{"android":"levelo://app?vid=980b1df1-6684-470b-9e6a-7824c1b891d7","ios":"levelo://app?vid=980b1df1-6684-470b-9e6a-7824c1b891d7"},"vehicle_type_id":"4","last_reported":1708373234,"current_range_meters":0,"station_id":"ce4bhc92rcd13ifvqetg","pricing_plan_id":"cebpf4jnsgd1na2vs0mg"},{"bike_id":"18c8e9e9-d7be-44f8-87ba-76eb458e1d93","system_id":"levelo_inurba_marseille","lat":43.289468,"lon":5.363719,"is_reserved":false,"is_disabled":false,"rental_uris":{"android":"levelo://app?vid=18c8e9e9-d7be-44f8-87ba-76eb458e1d93","ios":"levelo://app?vid=18c8e9e9-d7be-44f8-87ba-76eb458e1d93"},"vehicle_type_id":"4","last_reported":1708373234,"current_range_meters":18400,"station_id":"ce4bhc92rcd13ifvqetg","pricing_plan_id":"cebpf4jnsgd1na2vs0mg"},{"bike_id":"905b6888-a922-40d3-b2ef-349918a2bf42","system_id":"levelo_inurba_marseille","lat":43.294153,"lon":5.386305,"is_reserved":false,"is_disabled":false,"rental_uris":{"android":"levelo://app?vid=905b6888-a922-40d3-b2ef-349918a2bf42","ios":"levelo://app?vid=905b6888-a922-40d3-b2ef-349918a2bf42"},"vehicle_type_id":"4","last_reported":1708373234,"current_range_meters":24000,"station_id":"ce4bh2h2rcd13ifvqdh0","pricing_plan_id":"cebpf4jnsgd1na2vs0mg"},{"bike_id":"432661e7-96fd-4027-8311-a20c94a0b10d","system_id":"levelo_inurba_marseille","lat":43.289184,"lon":5.366408,"is_reserved":false,"is_disabled":false,"rental_uris":{"android":"levelo://app?vid=432661e7-96fd-4027-8311-a20c94a0b10d","ios":"levelo://app?vid=432661e7-96fd-4027-8311-a20c94a0b10d"},"vehicle_type_id":"4","last_reported":1708373234,"current_range_meters":0,"station_id":"ce4bhap2rcd13ifvqek0","pricing_plan_id":"cebpf4jnsgd1na2vs0mg"},{"bike_id":"e56db7fa-186c-4931-94f2-35c51cebecc1","system_id":"levelo_inurba_marseille","lat":43.289184,"lon":5.366408,"is_reserved":false,"is_disabled":false,"rental_uris":{"android":"levelo://app?vid=e56db7fa-186c-4931-94f2-35c51cebecc1","ios":"levelo://app?vid=e56db7fa-186c-4931-94f2-35c51cebecc1"},"vehicle_type_id":"4","last_reported":1708373234,"current_range_meters":6000,"station_id":"ce4bhap2rcd13ifvqek0","pricing_plan_id":"cebpf4jnsgd1na2vs0mg"},{"bike_id":"4205f57d-942f-4c21-9089-4ab70f47911f","system_id":"levelo_inurba_marseille","lat":43.289468,"lon":5.363719,"is_reserved":false,"is_disabled":false,"rental_uris":{"android":"levelo://app?vid=4205f57d-942f-4c21-9089-4ab70f47911f","ios":"levelo://app?vid=4205f57d-942f-4c21-9089-4ab70f47911f"},"vehicle_type_id":"4","last_reported":1708373234,"current_range_meters":1600,"station_id":"ce4bhc92rcd13ifvqetg","pricing_plan_id":"cebpf4jnsgd1na2vs0mg"},{"bike_id":"7648050a-831a-4273-9407-3d69ca346dc9","system_id":"levelo_inurba_marseille","lat":43.289184,"lon":5.366408,"is_reserved":false,"is_disabled":false,"rental_uris":{"android":"levelo://app?vid=7648050a-831a-4273-9407-3d69ca346dc9","ios":"levelo://app?vid=7648050a-831a-4273-9407-3d69ca346dc9"},"vehicle_type_id":"4","last_reported":1708373234,"current_range_meters":7600,"station_id":"ce4bhap2rcd13ifvqek0","pricing_plan_id":"cebpf4jnsgd1na2vs0mg"},{"bike_id":"a0adad83-c911-4527-9595-004dd160d60c","system_id":"levelo_inurba_marseille","lat":43.289184,"lon":5.366408,"is_reserved":false,"is_disabled":false,"rental_uris":{"android":"levelo://app?vid=a0adad83-c911-4527-9595-004dd160d60c","ios":"levelo://app?vid=a0adad83-c911-4527-9595-004dd160d60c"},"vehicle_type_id":"4","last_reported":1708373234,"current_range_meters":7200,"station_id":"ce4bhap2rcd13ifvqek0","pricing_plan_id":"cebpf4jnsgd1na2vs0mg"},{"bike_id":"2773b66f-4626-491a-a0ef-00a18ced1762","system_id":"levelo_inurba_marseille","lat":43.289184,"lon":5.366408,"is_reserved":false,"is_disabled":false,"rental_uris":{"android":"levelo://app?vid=2773b66f-4626-491a-a0ef-00a18ced1762","ios":"levelo://app?vid=2773b66f-4626-491a-a0ef-00a18ced1762"},"vehicle_type_id":"4","last_reported":1708373234,"current_range_meters":8800,"station_id":"ce4bhap2rcd13ifvqek0","pricing_plan_id":"cebpf4jnsgd1na2vs0mg"},{"bike_id":"5ecdddfd-b0ec-422e-b2e0-2b508a4c4140","system_id":"levelo_inurba_marseille","lat":43.289468,"lon":5.363719,"is_reserved":false,"is_disabled":false,"rental_uris":{"android":"levelo://app?vid=5ecdddfd-b0ec-422e-b2e0-2b508a4c4140","ios":"levelo://app?vid=5ecdddfd-b0ec-422e-b2e0-2b508a4c4140"},"vehicle_type_id":"4","last_reported":1708373234,"current_range_meters":31200,"station_id":"ce4bhc92rcd13ifvqetg","pricing_plan_id":"cebpf4jnsgd1na2vs0mg"},{"bike_id":"73d6d1b3-0fb1-4dda-a310-1d0b519c47a2","system_id":"levelo_inurba_marseille","lat":43.289468,"lon":5.363719,"is_reserved":false,"is_disabled":false,"rental_uris":{"android":"levelo://app?vid=73d6d1b3-0fb1-4dda-a310-1d0b519c47a2","ios":"levelo://app?vid=73d6d1b3-0fb1-4dda-a310-1d0b519c47a2"},"vehicle_type_id":"4","last_reported":1708373234,"current_range_meters":5200,"station_id":"ce4bhc92rcd13ifvqetg","pricing_plan_id":"cebpf4jnsgd1na2vs0mg"},{"bike_id":"c330d24c-5923-4cbc-afee-64809bfbfe80","system_id":"levelo_inurba_marseille","lat":43.28927,"lon":5.3664,"is_reserved":false,"is_disabled":false,"rental_uris":{"android":"levelo://app?vid=c330d24c-5923-4cbc-afee-64809bfbfe80","ios":"levelo://app?vid=c330d24c-5923-4cbc-afee-64809bfbfe80"},"vehicle_type_id":"4","last_reported":1708373234,"current_range_meters":0,"station_id":"ce4bhap2rcd13ifvqek0","pricing_plan_id":"cebpf4jnsgd1na2vs0mg"},{"bike_id":"443ae071-165e-4c57-8005-5c8f3eff7a36","system_id":"levelo_inurba_marseille","lat":43.292662,"lon":5.383939,"is_reserved":false,"is_disabled":false,"rental_uris":{"android":"levelo://app?vid=443ae071-165e-4c57-8005-5c8f3eff7a36","ios":"levelo://app?vid=443ae071-165e-4c57-8005-5c8f3eff7a36"},"vehicle_type_id":"4","last_reported":1708373234,"current_range_meters":0,"station_id":"ce4bh692rcd13ifvqea0","pricing_plan_id":"cebpf4jnsgd1na2vs0mg"},{"bike_id":"d486575d-394c-44f4-99b2-2b8bf8a4698d","system_id":"levelo_inurba_marseille","lat":43.29267,"lon":5.38428,"is_reserved":false,"is_disabled":false,"rental_uris":{"android":"levelo://app?vid=d486575d-394c-44f4-99b2-2b8bf8a4698d","ios":"levelo://app?vid=d486575d-394c-44f4-99b2-2b8bf8a4698d"},"vehicle_type_id":"4","last_reported":1708373234,"current_range_meters":0,"station_id":"ce4bh692rcd13ifvqea0","pricing_plan_id":"cebpf4jnsgd1na2vs0mg"},{"bike_id":"5772ee86-8b4b-43f5-a995-e5eb36990021","system_id":"levelo_inurba_marseille","lat":43.2927,"lon":5.38437,"is_reserved":false,"is_disabled":false,"rental_uris":{"android":"levelo://app?vid=5772ee86-8b4b-43f5-a995-e5eb36990021","ios":"levelo://app?vid=5772ee86-8b4b-43f5-a995-e5eb36990021"},"vehicle_type_id":"4","last_reported":1708373234,"current_range_meters":20000,"station_id":"ce4bh692rcd13ifvqea0","pricing_plan_id":"cebpf4jnsgd1na2vs0mg"},{"bike_id":"5bfcda07-ee26-487d-b1c0-0f4d345a80e2","system_id":"levelo_inurba_marseille","lat":43.292644,"lon":5.384257,"is_reserved":false,"is_disabled":false,"rental_uris":{"android":"levelo://app?vid=5bfcda07-ee26-487d-b1c0-0f4d345a80e2","ios":"levelo://app?vid=5bfcda07-ee26-487d-b1c0-0f4d345a80e2"},"vehicle_type_id":"4","last_reported":1708373234,"current_range_meters":0,"station_id":"ce4bh692rcd13ifvqea0","pricing_plan_id":"cebpf4jnsgd1na2vs0mg"},{"bike_id":"4d170e2b-437e-470f-b99b-686fd929d019","system_id":"levelo_inurba_marseille","lat":43.292642,"lon":5.384254,"is_reserved":false,"is_disabled":false,"rental_uris":{"android":"levelo://app?vid=4d170e2b-437e-470f-b99b-686fd929d019","ios":"levelo://app?vid=4d170e2b-437e-470f-b99b-686fd929d019"},"vehicle_type_id":"4","last_reported":1708373234,"current_range_meters":14400,"station_id":"ce4bh692rcd13ifvqea0","pricing_plan_id":"cebpf4jnsgd1na2vs0mg"},{"bike_id":"903d868b-9f2e-42a0-8251-56c58e0fe53b","system_id":"levelo_inurba_marseille","lat":43.292644,"lon":5.384257,"is_reserved":false,"is_disabled":false,"rental_uris":{"android":"levelo://app?vid=903d868b-9f2e-42a0-8251-56c58e0fe53b","ios":"levelo://app?vid=903d868b-9f2e-42a0-8251-56c58e0fe53b"},"vehicle_type_id":"4","last_reported":1708373234,"current_range_meters":31200,"station_id":"ce4bh692rcd13ifvqea0","pricing_plan_id":"cebpf4jnsgd1na2vs0mg"},{"bike_id":"0b46b3cb-7135-426a-acd1-7f7f2c2be5ab","system_id":"levelo_inurba_marseille","lat":43.292644,"lon":5.384257,"is_reserved":false,"is_disabled":false,"rental_uris":{"android":"levelo://app?vid=0b46b3cb-7135-426a-acd1-7f7f2c2be5ab","ios":"levelo://app?vid=0b46b3cb-7135-426a-acd1-7f7f2c2be5ab"},"vehicle_type_id":"4","last_reported":1708373234,"current_range_meters":5600,"station_id":"ce4bh692rcd13ifvqea0","pricing_plan_id":"cebpf4jnsgd1na2vs0mg"},{"bike_id":"a7014aee-d7d0-48ba-8ddd-2338bd8c8f76","system_id":"levelo_inurba_marseille","lat":43.292644,"lon":5.384257,"is_reserved":false,"is_disabled":false,"rental_uris":{"android":"levelo://app?vid=a7014aee-d7d0-48ba-8ddd-2338bd8c8f76","ios":"levelo://app?vid=a7014aee-d7d0-48ba-8ddd-2338bd8c8f76"},"vehicle_type_id":"4","last_reported":1708373234,"current_range_meters":0,"station_id":"ce4bh692rcd13ifvqea0","pricing_plan_id":"cebpf4jnsgd1na2vs0mg"},{"bike_id":"7b5cb249-ee3d-4375-9a81-435e6a4e1fd2","system_id":"levelo_inurba_marseille","lat":43.304296,"lon":5.397513,"is_reserved":false,"is_disabled":false,"rental_uris":{"android":"levelo://app?vid=7b5cb249-ee3d-4375-9a81-435e6a4e1fd2","ios":"levelo://app?vid=7b5cb249-ee3d-4375-9a81-435e6a4e1fd2"},"vehicle_type_id":"4","last_reported":1708373234,"current_range_meters":25600,"station_id":"ce4bh092rcd13ifvqd20","pricing_plan_id":"cebpf4jnsgd1na2vs0mg"},{"bike_id":"4ed05fdb-a1ee-4ed2-8095-b1153eb9bc7c","system_id":"levelo_inurba_marseille","lat":43.292642,"lon":5.384254,"is_reserved":false,"is_disabled":false,"rental_uris":{"android":"levelo://app?vid=4ed05fdb-a1ee-4ed2-8095-b1153eb9bc7c","ios":"levelo://app?vid=4ed05fdb-a1ee-4ed2-8095-b1153eb9bc7c"},"vehicle_type_id":"4","last_reported":1708373234,"current_range_meters":11600,"station_id":"ce4bh692rcd13ifvqea0","pricing_plan_id":"cebpf4jnsgd1na2vs0mg"},{"bike_id":"985a50d9-1da2-473c-b4f4-3093637608f9","system_id":"levelo_inurba_marseille","lat":43.292642,"lon":5.384254,"is_reserved":false,"is_disabled":false,"rental_uris":{"android":"levelo://app?vid=985a50d9-1da2-473c-b4f4-3093637608f9","ios":"levelo://app?vid=985a50d9-1da2-473c-b4f4-3093637608f9"},"vehicle_type_id":"4","last_reported":1708373234,"current_range_meters":10800,"station_id":"ce4bh692rcd13ifvqea0","pricing_plan_id":"cebpf4jnsgd1na2vs0mg"},{"bike_id":"35a288ec-b2f5-44e8-8671-b9c2af9fa303","system_id":"levelo_inurba_marseille","lat":43.292642,"lon":5.384254,"is_reserved":false,"is_disabled":false,"rental_uris":{"android":"levelo://app?vid=35a288ec-b2f5-44e8-8671-b9c2af9fa303","ios":"levelo://app?vid=35a288ec-b2f5-44e8-8671-b9c2af9fa303"},"vehicle_type_id":"4","last_reported":1708373234,"current_range_meters":11200,"station_id":"ce4bh692rcd13ifvqea0","pricing_plan_id":"cebpf4jnsgd1na2vs0mg"},{"bike_id":"64c8a977-e817-4529-bbbf-d54830de4873","system_id":"levelo_inurba_marseille","lat":43.29103,"lon":5.38085,"is_reserved":false,"is_disabled":false,"rental_uris":{"android":"levelo://app?vid=64c8a977-e817-4529-bbbf-d54830de4873","ios":"levelo://app?vid=64c8a977-e817-4529-bbbf-d54830de4873"},"vehicle_type_id":"4","last_reported":1708373234,"current_range_meters":16000,"station_id":"","pricing_plan_id":"cebpf4jnsgd1na2vs0mg"},{"bike_id":"dbc881e6-551a-48c3-b5c5-1fda618870b4","system_id":"levelo_inurba_marseille","lat":43.290103,"lon":5.356114,"is_reserved":false,"is_disabled":false,"rental_uris":{"android":"levelo://app?vid=dbc881e6-551a-48c3-b5c5-1fda618870b4","ios":"levelo://app?vid=dbc881e6-551a-48c3-b5c5-1fda618870b4"},"vehicle_type_id":"4","last_reported":1708373234,"current_range_meters":29600,"station_id":"ce4bhb92rcd13ifvqen0","pricing_plan_id":"cebpf4jnsgd1na2vs0mg"},{"bike_id":"edcc0279-1716-4f8f-a660-34b1b14b2250","system_id":"levelo_inurba_marseille","lat":43.290103,"lon":5.356114,"is_reserved":false,"is_disabled":false,"rental_uris":{"android":"levelo://app?vid=edcc0279-1716-4f8f-a660-34b1b14b2250","ios":"levelo://app?vid=edcc0279-1716-4f8f-a660-34b1b14b2250"},"vehicle_type_id":"4","last_reported":1708373234,"current_range_meters":12400,"station_id":"ce4bhb92rcd13ifvqen0","pricing_plan_id":"cebpf4jnsgd1na2vs0mg"},{"bike_id":"e830da0a-86c7-4ce7-900d-8e961c0b939d","system_id":"levelo_inurba_marseille","lat":43.290103,"lon":5.356114,"is_reserved":false,"is_disabled":false,"rental_uris":{"android":"levelo://app?vid=e830da0a-86c7-4ce7-900d-8e961c0b939d","ios":"levelo://app?vid=e830da0a-86c7-4ce7-900d-8e961c0b939d"},"vehicle_type_id":"4","last_reported":1708373234,"current_range_meters":21200,"station_id":"ce4bhb92rcd13ifvqen0","pricing_plan_id":"cebpf4jnsgd1na2vs0mg"},{"bike_id":"9a9240be-325a-4969-a362-4e84aed35f49","system_id":"levelo_inurba_marseille","lat":43.290104,"lon":5.356111,"is_reserved":false,"is_disabled":false,"rental_uris":{"android":"levelo://app?vid=9a9240be-325a-4969-a362-4e84aed35f49","ios":"levelo://app?vid=9a9240be-325a-4969-a362-4e84aed35f49"},"vehicle_type_id":"4","last_reported":1708373234,"current_range_meters":19200,"station_id":"ce4bhb92rcd13ifvqen0","pricing_plan_id":"cebpf4jnsgd1na2vs0mg"},{"bike_id":"976b7a6f-6946-4cc2-ac45-ef015536dc22","system_id":"levelo_inurba_marseille","lat":43.29005,"lon":5.35615,"is_reserved":false,"is_disabled":false,"rental_uris":{"android":"levelo://app?vid=976b7a6f-6946-4cc2-ac45-ef015536dc22","ios":"levelo://app?vid=976b7a6f-6946-4cc2-ac45-ef015536dc22"},"vehicle_type_id":"4","last_reported":1708373234,"current_range_meters":28400,"station_id":"ce4bhb92rcd13ifvqen0","pricing_plan_id":"cebpf4jnsgd1na2vs0mg"},{"bike_id":"9f48c0a5-b975-43ed-b2b9-63f1785c40b1","system_id":"levelo_inurba_marseille","lat":43.290104,"lon":5.356111,"is_reserved":false,"is_disabled":false,"rental_uris":{"android":"levelo://app?vid=9f48c0a5-b975-43ed-b2b9-63f1785c40b1","ios":"levelo://app?vid=9f48c0a5-b975-43ed-b2b9-63f1785c40b1"},"vehicle_type_id":"4","last_reported":1708373234,"current_range_meters":20000,"station_id":"ce4bhb92rcd13ifvqen0","pricing_plan_id":"cebpf4jnsgd1na2vs0mg"},{"bike_id":"1df3f504-5781-4d50-bc6c-d04624e9c380","system_id":"levelo_inurba_marseille","lat":43.29005,"lon":5.35612,"is_reserved":false,"is_disabled":false,"rental_uris":{"android":"levelo://app?vid=1df3f504-5781-4d50-bc6c-d04624e9c380","ios":"levelo://app?vid=1df3f504-5781-4d50-bc6c-d04624e9c380"},"vehicle_type_id":"4","last_reported":1708373234,"current_range_meters":20000,"station_id":"ce4bhb92rcd13ifvqen0","pricing_plan_id":"cebpf4jnsgd1na2vs0mg"},{"bike_id":"33dcc62e-67f5-47af-9f5d-0cdf07c7c80c","system_id":"levelo_inurba_marseille","lat":43.290103,"lon":5.356114,"is_reserved":false,"is_disabled":false,"rental_uris":{"android":"levelo://app?vid=33dcc62e-67f5-47af-9f5d-0cdf07c7c80c","ios":"levelo://app?vid=33dcc62e-67f5-47af-9f5d-0cdf07c7c80c"},"vehicle_type_id":"4","last_reported":1708373234,"current_range_meters":31200,"station_id":"ce4bhb92rcd13ifvqen0","pricing_plan_id":"cebpf4jnsgd1na2vs0mg"},{"bike_id":"c95ad3f9-ba14-4d47-9a17-91e5a028ceff","system_id":"levelo_inurba_marseille","lat":43.29004,"lon":5.35613,"is_reserved":false,"is_disabled":false,"rental_uris":{"android":"levelo://app?vid=c95ad3f9-ba14-4d47-9a17-91e5a028ceff","ios":"levelo://app?vid=c95ad3f9-ba14-4d47-9a17-91e5a028ceff"},"vehicle_type_id":"4","last_reported":1708373234,"current_range_meters":25200,"station_id":"","pricing_plan_id":"cebpf4jnsgd1na2vs0mg"},{"bike_id":"a376388f-8e38-4a45-86d6-1a65433d6918","system_id":"levelo_inurba_marseille","lat":43.29004,"lon":5.35613,"is_reserved":false,"is_disabled":false,"rental_uris":{"android":"levelo://app?vid=a376388f-8e38-4a45-86d6-1a65433d6918","ios":"levelo://app?vid=a376388f-8e38-4a45-86d6-1a65433d6918"},"vehicle_type_id":"4","last_reported":1708373234,"current_range_meters":15200,"station_id":"ce4bhb92rcd13ifvqen0","pricing_plan_id":"cebpf4jnsgd1na2vs0mg"},{"bike_id":"a28d0f7d-ff3d-458a-916a-a0efc1611ef6","system_id":"levelo_inurba_marseille","lat":43.29003,"lon":5.35614,"is_reserved":false,"is_disabled":false,"rental_uris":{"android":"levelo://app?vid=a28d0f7d-ff3d-458a-916a-a0efc1611ef6","ios":"levelo://app?vid=a28d0f7d-ff3d-458a-916a-a0efc1611ef6"},"vehicle_type_id":"4","last_reported":1708373234,"current_range_meters":24800,"station_id":"ce4bhb92rcd13ifvqen0","pricing_plan_id":"cebpf4jnsgd1na2vs0mg"},{"bike_id":"6ff16ab2-61d1-4c5d-9cc6-1f9c4599538b","system_id":"levelo_inurba_marseille","lat":43.290104,"lon":5.356111,"is_reserved":false,"is_disabled":false,"rental_uris":{"android":"levelo://app?vid=6ff16ab2-61d1-4c5d-9cc6-1f9c4599538b","ios":"levelo://app?vid=6ff16ab2-61d1-4c5d-9cc6-1f9c4599538b"},"vehicle_type_id":"4","last_reported":1708373234,"current_range_meters":8000,"station_id":"ce4bhb92rcd13ifvqen0","pricing_plan_id":"cebpf4jnsgd1na2vs0mg"},{"bike_id":"c99665f8-a7e4-43be-af3f-5ad7ea54612e","system_id":"levelo_inurba_marseille","lat":43.29002,"lon":5.35613,"is_reserved":false,"is_disabled":false,"rental_uris":{"android":"levelo://app?vid=c99665f8-a7e4-43be-af3f-5ad7ea54612e","ios":"levelo://app?vid=c99665f8-a7e4-43be-af3f-5ad7ea54612e"},"vehicle_type_id":"4","last_reported":1708373234,"current_range_meters":10000,"station_id":"ce4bhb92rcd13ifvqen0","pricing_plan_id":"cebpf4jnsgd1na2vs0mg"},{"bike_id":"92112f1b-4fcd-42d3-9872-1e0583d0a648","system_id":"levelo_inurba_marseille","lat":43.30962,"lon":5.39971,"is_reserved":false,"is_disabled":false,"rental_uris":{"android":"levelo://app?vid=92112f1b-4fcd-42d3-9872-1e0583d0a648","ios":"levelo://app?vid=92112f1b-4fcd-42d3-9872-1e0583d0a648"},"vehicle_type_id":"4","last_reported":1708373234,"current_range_meters":7200,"station_id":"ce4bh092rcd13ifvqd30","pricing_plan_id":"cebpf4jnsgd1na2vs0mg"},{"bike_id":"4e1c869c-37a3-40e1-b2da-e575043abfaf","system_id":"levelo_inurba_marseille","lat":43.29002,"lon":5.35605,"is_reserved":false,"is_disabled":false,"rental_uris":{"android":"levelo://app?vid=4e1c869c-37a3-40e1-b2da-e575043abfaf","ios":"levelo://app?vid=4e1c869c-37a3-40e1-b2da-e575043abfaf"},"vehicle_type_id":"4","last_reported":1708373234,"current_range_meters":26400,"station_id":"ce4bhb92rcd13ifvqen0","pricing_plan_id":"cebpf4jnsgd1na2vs0mg"},{"bike_id":"e2fde6be-2cb6-4572-b699-27121c055eea","system_id":"levelo_inurba_marseille","lat":43.289973,"lon":5.356128,"is_reserved":false,"is_disabled":false,"rental_uris":{"android":"levelo://app?vid=e2fde6be-2cb6-4572-b699-27121c055eea","ios":"levelo://app?vid=e2fde6be-2cb6-4572-b699-27121c055eea"},"vehicle_type_id":"4","last_reported":1708373234,"current_range_meters":31200,"station_id":"ce4bhb92rcd13ifvqen0","pricing_plan_id":"cebpf4jnsgd1na2vs0mg"},{"bike_id":"16b7635d-7942-4149-bf93-bd3457e1517e","system_id":"levelo_inurba_marseille","lat":43.295169,"lon":5.390426,"is_reserved":false,"is_disabled":false,"rental_uris":{"android":"levelo://app?vid=16b7635d-7942-4149-bf93-bd3457e1517e","ios":"levelo://app?vid=16b7635d-7942-4149-bf93-bd3457e1517e"},