{"last_updated":1732947143,"ttl":60,"version":"2.2","data":{"bikes":[{"bike_id":"d375be11-1a40-470b-b905-c4946466142a","system_id":"levelo_inurba_marseille","lat":43.28468,"lon":5.35883,"is_reserved":false,"is_disabled":false,"rental_uris":{"android":"levelo://app?vid=d375be11-1a40-470b-b905-c4946466142a","ios":"levelo://app?vid=d375be11-1a40-470b-b905-c4946466142a"},"vehicle_type_id":"4","last_reported":1732947144,"current_range_meters":24000,"station_id":"ce4bhah2rcd13ifvqei0","pricing_plan_id":"cebpf4jnsgd1na2vs0mg"},{"bike_id":"05c23fe0-83e1-49fc-8c98-561bfe31127a","system_id":"levelo_inurba_marseille","lat":43.3078,"lon":5.37656,"is_reserved":false,"is_disabled":true,"rental_uris":{"android":"levelo://app?vid=05c23fe0-83e1-49fc-8c98-561bfe31127a","ios":"levelo://app?vid=05c23fe0-83e1-49fc-8c98-561bfe31127a"},"vehicle_type_id":"4","last_reported":1732947144,"current_range_meters":400,"station_id":"ce4bgv92rcd13ifvqcq0","pricing_plan_id":"cebpf4jnsgd1na2vs0mg"},{"bike_id":"83da132d-ce4c-4d7e-a9b3-72cb15a96807","system_id":"levelo_inurba_marseille","lat":43.29727,"lon":5.37681,"is_reserved":false,"is_disabled":false,"rental_uris":{"android":"levelo://app?vid=83da132d-ce4c-4d7e-a9b3-72cb15a96807","ios":"levelo://app?vid=83da132d-ce4c-4d7e-a9b3-72cb15a96807"},"vehicle_type_id":"4","last_reported":1732947144,"current_range_meters":38800,"station_id":"ce4bgkh2rcd13ifvqbl0","pricing_plan_id":"cebpf4jnsgd1na2vs0mg"},{"bike_id":"b856c8b4-412d-4c25-bdd4-e6b29aed04cb","system_id":"levelo_inurba_marseille","lat":43.22933,"lon":5.35379,"is_reserved":false,"is_disabled":false,"rental_uris":{"android":"levelo://app?vid=b856c8b4-412d-4c25-bdd4-e6b29aed04cb","ios":"levelo://app?vid=b856c8b4-412d-4c25-bdd4-e6b29aed04cb"},"vehicle_type_id":"4","last_reported":1732947144,"current_range_meters":38800,"station_id":"cpo3532slgdg3j2ikp40","pricing_plan_id":"cebpf4jnsgd1na2vs0mg"},{"bike_id":"3ab70a40-e825-45f1-adcb-4f1977bdbea9","system_id":"levelo_inurba_marseille","lat":43.30816,"lon":5.38161,"is_reserved":false,"is_disabled":false,"rental_uris":{"android":"levelo://app?vid=3ab70a40-e825-45f1-adcb-4f1977bdbea9","ios":"levelo://app?vid=3ab70a40-e825-45f1-adcb-4f1977bdbea9"},"vehicle_type_id":"4","last_reported":1732947144,"current_range_meters":38800,"station_id":"ce4bgt12rcd13ifvqce0","pricing_plan_id":"cebpf4jnsgd1na2vs0mg"},{"bike_id":"3b0e05b2-1e98-491d-b2e1-ddc66cfd8a1a","system_id":"levelo_inurba_marseille","lat":43.30056,"lon":5.38636,"is_reserved":false,"is_disabled":true,"rental_uris":{"android":"levelo://app?vid=3b0e05b2-1e98-491d-b2e1-ddc66cfd8a1a","ios":"levelo://app?vid=3b0e05b2-1e98-491d-b2e1-ddc66cfd8a1a"},"vehicle_type_id":"4","last_reported":1732947144,"current_range_meters":0,"station_id":"","pricing_plan_id":"cebpf4jnsgd1na2vs0mg"},{"bike_id":"84ccddc4-6681-44c8-bacd-154da9b78895","system_id":"levelo_inurba_marseille","lat":43.31716,"lon":5.42406,"is_reserved":false,"is_disabled":false,"rental_uris":{"android":"levelo://app?vid=84ccddc4-6681-44c8-bacd-154da9b78895","ios":"levelo://app?vid=84ccddc4-6681-44c8-bacd-154da9b78895"},"vehicle_type_id":"4","last_reported":1732947144,"current_range_meters":26000,"station_id":"ce4bhp92rcd13ifvqhbg","pricing_plan_id":"cebpf4jnsgd1na2vs0mg"},{"bike_id":"81e37fd6-f383-4ba1-aabd-80988a64a94e","system_id":"levelo_inurba_marseille","lat":43.28944,"lon":5.39625,"is_reserved":false,"is_disabled":false,"rental_uris":{"android":"levelo://app?vid=81e37fd6-f383-4ba1-aabd-80988a64a94e","ios":"levelo://app?vid=81e37fd6-f383-4ba1-aabd-80988a64a94e"},"vehicle_type_id":"4","last_reported":1732947144,"current_range_meters":38000,"station_id":"ce4bh3h2rcd13ifvqdn0","pricing_plan_id":"cebpf4jnsgd1na2vs0mg"},{"bike_id":"e2e30902-f575-40ed-a6ad-0f88d28c0438","system_id":"levelo_inurba_marseille","lat":43.28511,"lon":5.3919,"is_reserved":false,"is_disabled":false,"rental_uris":{"android":"levelo://app?vid=e2e30902-f575-40ed-a6ad-0f88d28c0438","ios":"levelo://app?vid=e2e30902-f575-40ed-a6ad-0f88d28c0438"},"vehicle_type_id":"4","last_reported":1732947144,"current_range_meters":33600,"station_id":"","pricing_plan_id":"cebpf4jnsgd1na2vs0mg"},{"bike_id":"edb5639e-25fe-4ee3-ab07-5b09d8eb6b3c","system_id":"levelo_inurba_marseille","lat":43.30446,"lon":5.38898,"is_reserved":false,"is_disabled":true,"rental_uris":{"android":"levelo://app?vid=edb5639e-25fe-4ee3-ab07-5b09d8eb6b3c","ios":"levelo://app?vid=edb5639e-25fe-4ee3-ab07-5b09d8eb6b3c"},"vehicle_type_id":"4","last_reported":1732947144,"current_range_meters":28000,"station_id":"ce4bgk12rcd13ifvqbi0","pricing_plan_id":"cebpf4jnsgd1na2vs0mg"},{"bike_id":"55a59da6-5727-4b23-892f-57b9bc4daf50","system_id":"levelo_inurba_marseille","lat":43.3137,"lon":5.38495,"is_reserved":false,"is_disabled":false,"rental_uris":{"android":"levelo://app?vid=55a59da6-5727-4b23-892f-57b9bc4daf50","ios":"levelo://app?vid=55a59da6-5727-4b23-892f-57b9bc4daf50"},"vehicle_type_id":"4","last_reported":1732947144,"current_range_meters":24400,"station_id":"ce4bgt92rcd13ifvqcf0","pricing_plan_id":"cebpf4jnsgd1na2vs0mg"},{"bike_id":"0a4a00f8-e940-4495-95bc-d6dafa02bd98","system_id":"levelo_inurba_marseille","lat":43.29255,"lon":5.40905,"is_reserved":false,"is_disabled":false,"rental_uris":{"android":"levelo://app?vid=0a4a00f8-e940-4495-95bc-d6dafa02bd98","ios":"levelo://app?vid=0a4a00f8-e940-4495-95bc-d6dafa02bd98"},"vehicle_type_id":"4","last_reported":1732947144,"current_range_meters":32400,"station_id":"ce4bh192rcd13ifvqdc0","pricing_plan_id":"cebpf4jnsgd1na2vs0mg"},{"bike_id":"7974306f-50f1-4979-96e6-42a3a669c81a","system_id":"levelo_inurba_marseille","lat":43.32007,"lon":5.38154,"is_reserved":false,"is_disabled":false,"rental_uris":{"android":"levelo://app?vid=7974306f-50f1-4979-96e6-42a3a669c81a","ios":"levelo://app?vid=7974306f-50f1-4979-96e6-42a3a669c81a"},"vehicle_type_id":"4","last_reported":1732947144,"current_range_meters":11200,"station_id":"ce4bhr12rcd13ifvqhpg","pricing_plan_id":"cebpf4jnsgd1na2vs0mg"},{"bike_id":"20c517da-b98e-4ea7-a67d-92dc6310bd2b","system_id":"levelo_inurba_marseille","lat":43.29309,"lon":5.37182,"is_reserved":false,"is_disabled":false,"rental_uris":{"android":"levelo://app?vid=20c517da-b98e-4ea7-a67d-92dc6310bd2b","ios":"levelo://app?vid=20c517da-b98e-4ea7-a67d-92dc6310bd2b"},"vehicle_type_id":"4","last_reported":1732947144,"current_range_meters":24400,"station_id":"ce4bgh92rcd13ifvqb40","pricing_plan_id":"cebpf4jnsgd1na2vs0mg"},{"bike_id":"fa0dcfe7-a8e6-481c-8a7a-e0a304e9e295","system_id":"levelo_inurba_marseille","lat":43.29624,"lon":5.37153,"is_reserved":false,"is_disabled":false,"rental_uris":{"android":"levelo://app?vid=fa0dcfe7-a8e6-481c-8a7a-e0a304e9e295","ios":"levelo://app?vid=fa0dcfe7-a8e6-481c-8a7a-e0a304e9e295"},"vehicle_type_id":"4","last_reported":1732947144,"current_range_meters":38000,"station_id":"ce4bgnh2rcd13ifvqc0g","pricing_plan_id":"cebpf4jnsgd1na2vs0mg"},{"bike_id":"5b3d7557-0f31-4db8-a953-16fb594bab36","system_id":"levelo_inurba_marseille","lat":43.26213,"lon":5.37446,"is_reserved":false,"is_disabled":false,"rental_uris":{"android":"levelo://app?vid=5b3d7557-0f31-4db8-a953-16fb594bab36","ios":"levelo://app?vid=5b3d7557-0f31-4db8-a953-16fb594bab36"},"vehicle_type_id":"4","last_reported":1732947144,"current_range_meters":10000,"station_id":"ce4bhgp2rcd13ifvqfc0","pricing_plan_id":"cebpf4jnsgd1na2vs0mg"},{"bike_id":"01edda7e-8d56-4c6c-989f-d0650faadea3","system_id":"levelo_inurba_marseille","lat":43.3093,"lon":5.40151,"is_reserved":false,"is_disabled":false,"rental_uris":{"android":"levelo://app?vid=01edda7e-8d56-4c6c-989f-d0650faadea3","ios":"levelo://app?vid=01edda7e-8d56-4c6c-989f-d0650faadea3"},"vehicle_type_id":"4","last_reported":1732947144,"current_range_meters":32000,"station_id":"ce4bgvp2rcd13ifvqct0","pricing_plan_id":"cebpf4jnsgd1na2vs0mg"},{"bike_id":"2c9efddb-7b07-4f26-a920-d37f72aa7b7b","system_id":"levelo_inurba_marseille","lat":43.30793,"lon":5.38151,"is_reserved":false,"is_disabled":false,"rental_uris":{"android":"levelo://app?vid=2c9efddb-7b07-4f26-a920-d37f72aa7b7b","ios":"levelo://app?vid=2c9efddb-7b07-4f26-a920-d37f72aa7b7b"},"vehicle_type_id":"4","last_reported":1732947144,"current_range_meters":6000,"station_id":"ce4bgt12rcd13ifvqce0","pricing_plan_id":"cebpf4jnsgd1na2vs0mg"},{"bike_id":"c5e4c159-76fa-473f-8dd9-3d70a0b40354","system_id":"levelo_inurba_marseille","lat":43.30932,"lon":5.40143,"is_reserved":false,"is_disabled":false,"rental_uris":{"android":"levelo://app?vid=c5e4c159-76fa-473f-8dd9-3d70a0b40354","ios":"levelo://app?vid=c5e4c159-76fa-473f-8dd9-3d70a0b40354"},"vehicle_type_id":"4","last_reported":1732947144,"current_range_meters":24000,"station_id":"ce4bgvp2rcd13ifvqct0","pricing_plan_id":"cebpf4jnsgd1na2vs0mg"},{"bike_id":"dd764c4f-e5a4-49d0-a29b-266bdb920ff5","system_id":"levelo_inurba_marseille","lat":43.24545,"lon":5.39519,"is_reserved":false,"is_disabled":false,"rental_uris":{"android":"levelo://app?vid=dd764c4f-e5a4-49d0-a29b-266bdb920ff5","ios":"levelo://app?vid=dd764c4f-e5a4-49d0-a29b-266bdb920ff5"},"vehicle_type_id":"4","last_reported":1732947144,"current_range_meters":22000,"station_id":"ce4bhlp2rcd13ifvqgjg","pricing_plan_id":"cebpf4jnsgd1na2vs0mg"},{"bike_id":"45671b3b-179f-4624-9796-835c93ae15d8","system_id":"levelo_inurba_marseille","lat":43.24388,"lon":5.37054,"is_reserved":false,"is_disabled":false,"rental_uris":{"android":"levelo://app?vid=45671b3b-179f-4624-9796-835c93ae15d8","ios":"levelo://app?vid=45671b3b-179f-4624-9796-835c93ae15d8"},"vehicle_type_id":"4","last_reported":1732947144,"current_range_meters":37600,"station_id":"ce4bhhh2rcd13ifvqfk0","pricing_plan_id":"cebpf4jnsgd1na2vs0mg"},{"bike_id":"d77c8fa8-9230-4eda-bc9a-5b066cfdd6cc","system_id":"levelo_inurba_marseille","lat":43.25721,"lon":5.41116,"is_reserved":false,"is_disabled":false,"rental_uris":{"android":"levelo://app?vid=d77c8fa8-9230-4eda-bc9a-5b066cfdd6cc","ios":"levelo://app?vid=d77c8fa8-9230-4eda-bc9a-5b066cfdd6cc"},"vehicle_type_id":"4","last_reported":1732947144,"current_range_meters":22400,"station_id":"ce4bhkp2rcd13ifvqgd0","pricing_plan_id":"cebpf4jnsgd1na2vs0mg"},{"bike_id":"1fc9325f-710f-49a4-8684-4130de067a92","system_id":"levelo_inurba_marseille","lat":43.33605,"lon":5.41019,"is_reserved":false,"is_disabled":false,"rental_uris":{"android":"levelo://app?vid=1fc9325f-710f-49a4-8684-4130de067a92","ios":"levelo://app?vid=1fc9325f-710f-49a4-8684-4130de067a92"},"vehicle_type_id":"4","last_reported":1732947144,"current_range_meters":38400,"station_id":"ce4bhqh2rcd13ifvqhmg","pricing_plan_id":"cebpf4jnsgd1na2vs0mg"},{"bike_id":"2e205062-0f9e-4f82-8617-2c13f007dd60","system_id":"levelo_inurba_marseille","lat":43.33017,"lon":5.39042,"is_reserved":false,"is_disabled":false,"rental_uris":{"android":"levelo://app?vid=2e205062-0f9e-4f82-8617-2c13f007dd60","ios":"levelo://app?vid=2e205062-0f9e-4f82-8617-2c13f007dd60"},"vehicle_type_id":"4","last_reported":1732947144,"current_range_meters":23200,"station_id":"ce4bhr92rcd13ifvqhrg","pricing_plan_id":"cebpf4jnsgd1na2vs0mg"},{"bike_id":"eff5979d-2213-40b3-bc4d-f6c0932b6716","system_id":"levelo_inurba_marseille","lat":43.24673,"lon":5.38173,"is_reserved":false,"is_disabled":true,"rental_uris":{"android":"levelo://app?vid=eff5979d-2213-40b3-bc4d-f6c0932b6716","ios":"levelo://app?vid=eff5979d-2213-40b3-bc4d-f6c0932b6716"},"vehicle_type_id":"4","last_reported":1732947144,"current_range_meters":0,"station_id":"ce4bhih2rcd13ifvqfr0","pricing_plan_id":"cebpf4jnsgd1na2vs0mg"},{"bike_id":"4932acf2-2223-4e2f-a3d4-ac1f8a06ce2b","system_id":"levelo_inurba_marseille","lat":43.28691,"lon":5.37931,"is_reserved":false,"is_disabled":true,"rental_uris":{"android":"levelo://app?vid=4932acf2-2223-4e2f-a3d4-ac1f8a06ce2b","ios":"levelo://app?vid=4932acf2-2223-4e2f-a3d4-ac1f8a06ce2b"},"vehicle_type_id":"4","last_reported":1732947144,"current_range_meters":0,"station_id":"ce4bh9p2rcd13ifvqec0","pricing_plan_id":"cebpf4jnsgd1na2vs0mg"},{"bike_id":"20068e05-8509-4397-86dc-d4b13378e32c","system_id":"levelo_inurba_marseille","lat":43.29045,"lon":5.39947,"is_reserved":false,"is_disabled":false,"rental_uris":{"android":"levelo://app?vid=20068e05-8509-4397-86dc-d4b13378e32c","ios":"levelo://app?vid=20068e05-8509-4397-86dc-d4b13378e32c"},"vehicle_type_id":"4","last_reported":1732947144,"current_range_meters":32000,"station_id":"ce4bh392rcd13ifvqdm0","pricing_plan_id":"cebpf4jnsgd1na2vs0mg"},{"bike_id":"9e455e0d-ec4c-43a4-9911-72384dec058c","system_id":"levelo_inurba_marseille","lat":43.31732,"lon":5.39031,"is_reserved":false,"is_disabled":false,"rental_uris":{"android":"levelo://app?vid=9e455e0d-ec4c-43a4-9911-72384dec058c","ios":"levelo://app?vid=9e455e0d-ec4c-43a4-9911-72384dec058c"},"vehicle_type_id":"4","last_reported":1732947144,"current_range_meters":36000,"station_id":"ce4bhqp2rcd13ifvqhng","pricing_plan_id":"cebpf4jnsgd1na2vs0mg"},{"bike_id":"3c241112-0e96-425e-8646-c6f08bf02411","system_id":"levelo_inurba_marseille","lat":43.24651,"lon":5.38893,"is_reserved":false,"is_disabled":true,"rental_uris":{"android":"levelo://app?vid=3c241112-0e96-425e-8646-c6f08bf02411","ios":"levelo://app?vid=3c241112-0e96-425e-8646-c6f08bf02411"},"vehicle_type_id":"4","last_reported":1732947144,"current_range_meters":0,"station_id":"ce4bhg12rcd13ifvqf60","pricing_plan_id":"cebpf4jnsgd1na2vs0mg"},{"bike_id":"6f7949e1-de87-4a49-8620-fec27e04447f","system_id":"levelo_inurba_marseille","lat":43.33718,"lon":5.39185,"is_reserved":false,"is_disabled":false,"rental_uris":{"android":"levelo://app?vid=6f7949e1-de87-4a49-8620-fec27e04447f","ios":"levelo://app?vid=6f7949e1-de87-4a49-8620-fec27e04447f"},"vehicle_type_id":"4","last_reported":1732947144,"current_range_meters":28400,"station_id":"ce4bhr92rcd13ifvqhsg","pricing_plan_id":"cebpf4jnsgd1na2vs0mg"},{"bike_id":"35d571c6-7ee8-402e-b9a9-509c04cc6376","system_id":"levelo_inurba_marseille","lat":43.23196,"lon":5.35547,"is_reserved":false,"is_disabled":false,"rental_uris":{"android":"levelo://app?vid=35d571c6-7ee8-402e-b9a9-509c04cc6376","ios":"levelo://app?vid=35d571c6-7ee8-402e-b9a9-509c04cc6376"},"vehicle_type_id":"4","last_reported":1732947144,"current_range_meters":35200,"station_id":"ce4bhu92rcd13ifvqi70","pricing_plan_id":"cebpf4jnsgd1na2vs0mg"},{"bike_id":"7066298c-8444-4dbb-8e5a-afa45f0890f5","system_id":"levelo_inurba_marseille","lat":43.28857,"lon":5.39318,"is_reserved":false,"is_disabled":true,"rental_uris":{"android":"levelo://app?vid=7066298c-8444-4dbb-8e5a-afa45f0890f5","ios":"levelo://app?vid=7066298c-8444-4dbb-8e5a-afa45f0890f5"},"vehicle_type_id":"4","last_reported":1732947144,"current_range_meters":14400,"station_id":"ce4bh2p2rcd13ifvqdi0","pricing_plan_id":"cebpf4jnsgd1na2vs0mg"},{"bike_id":"79da6e11-068f-4f85-891a-bf5d6033ae1b","system_id":"levelo_inurba_marseille","lat":43.29197,"lon":5.39313,"is_reserved":false,"is_disabled":true,"rental_uris":{"android":"levelo://app?vid=79da6e11-068f-4f85-891a-bf5d6033ae1b","ios":"levelo://app?vid=79da6e11-068f-4f85-891a-bf5d6033ae1b"},"vehicle_type_id":"4","last_reported":1732947144,"current_range_meters":25600,"station_id":"ce4bh192rcd13ifvqdd0","pricing_plan_id":"cebpf4jnsgd1na2vs0mg"},{"bike_id":"ea65bc22-100f-4a7b-a38b-f2659223cf3d","system_id":"levelo_inurba_marseille","lat":43.31998,"lon":5.38149,"is_reserved":false,"is_disabled":false,"rental_uris":{"android":"levelo://app?vid=ea65bc22-100f-4a7b-a38b-f2659223cf3d","ios":"levelo://app?vid=ea65bc22-100f-4a7b-a38b-f2659223cf3d"},"vehicle_type_id":"4","last_reported":1732947144,"current_range_meters":8400,"station_id":"ce4bhr12rcd13ifvqhpg","pricing_plan_id":"cebpf4jnsgd1na2vs0mg"},{"bike_id":"17c3787c-47ed-47fd-9c64-fc0be19f7592","system_id":"levelo_inurba_marseille","lat":43.30421,"lon":5.4128,"is_reserved":false,"is_disabled":false,"rental_uris":{"android":"levelo://app?vid=17c3787c-47ed-47fd-9c64-fc0be19f7592","ios":"levelo://app?vid=17c3787c-47ed-47fd-9c64-fc0be19f7592"},"vehicle_type_id":"4","last_reported":1732947144,"current_range_meters":38800,"station_id":"ce4bhop2rcd13ifvqh8g","pricing_plan_id":"cebpf4jnsgd1na2vs0mg"},{"bike_id":"c8e18c54-9b3f-4cd1-ad67-6ca07bf358c8","system_id":"levelo_inurba_marseille","lat":43.33022,"lon":5.39036,"is_reserved":false,"is_disabled":false,"rental_uris":{"android":"levelo://app?vid=c8e18c54-9b3f-4cd1-ad67-6ca07bf358c8","ios":"levelo://app?vid=c8e18c54-9b3f-4cd1-ad67-6ca07bf358c8"},"vehicle_type_id":"4","last_reported":1732947144,"current_range_meters":8800,"station_id":"ce4bhr92rcd13ifvqhrg","pricing_plan_id":"cebpf4jnsgd1na2vs0mg"},{"bike_id":"9e31b174-5e56-4abf-af7a-c20c3f4512a3","system_id":"levelo_inurba_marseille","lat":43.24074,"lon":5.37751,"is_reserved":false,"is_disabled":false,"rental_uris":{"android":"levelo://app?vid=9e31b174-5e56-4abf-af7a-c20c3f4512a3","ios":"levelo://app?vid=9e31b174-5e56-4abf-af7a-c20c3f4512a3"},"vehicle_type_id":"4","last_reported":1732947144,"current_range_meters":29600,"station_id":"ce4bhnp2rcd13ifvqgvg","pricing_plan_id":"cebpf4jnsgd1na2vs0mg"},{"bike_id":"9df891fc-6fad-4fa6-8d41-90f57311b9ce","system_id":"levelo_inurba_marseille","lat":43.30768,"lon":5.37657,"is_reserved":false,"is_disabled":false,"rental_uris":{"android":"levelo://app?vid=9df891fc-6fad-4fa6-8d41-90f57311b9ce","ios":"levelo://app?vid=9df891fc-6fad-4fa6-8d41-90f57311b9ce"},"vehicle_type_id":"4","last_reported":1732947144,"current_range_meters":33600,"station_id":"ce4bgv92rcd13ifvqcq0","pricing_plan_id":"cebpf4jnsgd1na2vs0mg"},{"bike_id":"e1cf4d4c-7ed0-41a9-a491-42f1836afb55","system_id":"levelo_inurba_marseille","lat":43.29252,"lon":5.40898,"is_reserved":false,"is_disabled":false,"rental_uris":{"android":"levelo://app?vid=e1cf4d4c-7ed0-41a9-a491-42f1836afb55","ios":"levelo://app?vid=e1cf4d4c-7ed0-41a9-a491-42f1836afb55"},"vehicle_type_id":"4","last_reported":1732947144,"current_range_meters":24400,"station_id":"ce4bh192rcd13ifvqdc0","pricing_plan_id":"cebpf4jnsgd1na2vs0mg"},{"bike_id":"94bae708-d310-44a1-a04e-31b7e85a467c","system_id":"levelo_inurba_marseille","lat":43.30936,"lon":5.40148,"is_reserved":false,"is_disabled":false,"rental_uris":{"android":"levelo://app?vid=94bae708-d310-44a1-a04e-31b7e85a467c","ios":"levelo://app?vid=94bae708-d310-44a1-a04e-31b7e85a467c"},"vehicle_type_id":"4","last_reported":1732947144,"current_range_meters":27600,"station_id":"ce4bgvp2rcd13ifvqct0","pricing_plan_id":"cebpf4jnsgd1na2vs0mg"},{"bike_id":"54d94b0a-4c56-4afd-bd03-de5e41d25987","system_id":"levelo_inurba_marseille","lat":43.29224,"lon":5.35799,"is_reserved":false,"is_disabled":false,"rental_uris":{"android":"levelo://app?vid=54d94b0a-4c56-4afd-bd03-de5e41d25987","ios":"levelo://app?vid=54d94b0a-4c56-4afd-bd03-de5e41d25987"},"vehicle_type_id":"4","last_reported":1732947144,"current_range_meters":38800,"station_id":"ce4bhb12rcd13ifvqel0","pricing_plan_id":"cebpf4jnsgd1na2vs0mg"},{"bike_id":"98037c3a-9b2c-4fc3-b5c9-984ee3607601","system_id":"levelo_inurba_marseille","lat":43.32362,"lon":5.36762,"is_reserved":false,"is_disabled":false,"rental_uris":{"android":"levelo://app?vid=98037c3a-9b2c-4fc3-b5c9-984ee3607601","ios":"levelo://app?vid=98037c3a-9b2c-4fc3-b5c9-984ee3607601"},"vehicle_type_id":"4","last_reported":1732947144,"current_range_meters":8800,"station_id":"ce4bhsh2rcd13ifvqi2g","pricing_plan_id":"cebpf4jnsgd1na2vs0mg"},{"bike_id":"72c6469a-1b4d-4e1f-a094-3f615b1c9a10","system_id":"levelo_inurba_marseille","lat":43.24672,"lon":5.38162,"is_reserved":false,"is_disabled":false,"rental_uris":{"android":"levelo://app?vid=72c6469a-1b4d-4e1f-a094-3f615b1c9a10","ios":"levelo://app?vid=72c6469a-1b4d-4e1f-a094-3f615b1c9a10"},"vehicle_type_id":"4","last_reported":1732947144,"current_range_meters":6800,"station_id":"ce4bhih2rcd13ifvqfr0","pricing_plan_id":"cebpf4jnsgd1na2vs0mg"},{"bike_id":"19d8d449-a0eb-4c0e-9592-0053e853ceac","system_id":"levelo_inurba_marseille","lat":43.3303,"lon":5.39042,"is_reserved":false,"is_disabled":false,"rental_uris":{"android":"levelo://app?vid=19d8d449-a0eb-4c0e-9592-0053e853ceac","ios":"levelo://app?vid=19d8d449-a0eb-4c0e-9592-0053e853ceac"},"vehicle_type_id":"4","last_reported":1732947144,"current_range_meters":36400,"station_id":"ce4bhr92rcd13ifvqhrg","pricing_plan_id":"cebpf4jnsgd1na2vs0mg"},{"bike_id":"d1486dd5-23d4-40bc-bb61-4a3c8126196a","system_id":"levelo_inurba_marseille","lat":43.273674,"lon":5.362553,"is_reserved":false,"is_disabled":true,"rental_uris":{"android":"levelo://app?vid=d1486dd5-23d4-40bc-bb61-4a3c8126196a","ios":"levelo://app?vid=d1486dd5-23d4-40bc-bb61-4a3c8126196a"},"vehicle_type_id":"4","last_reported":1732947144,"current_range_meters":38400,"station_id":"ce4bhbh2rcd13ifvqeo0","pricing_plan_id":"cebpf4jnsgd1na2vs0mg"},{"bike_id":"d2de27b1-ac77-418a-927d-3e7b155a51f9","system_id":"levelo_inurba_marseille","lat":43.29002,"lon":5.40072,"is_reserved":false,"is_disabled":false,"rental_uris":{"android":"levelo://app?vid=d2de27b1-ac77-418a-927d-3e7b155a51f9","ios":"levelo://app?vid=d2de27b1-ac77-418a-927d-3e7b155a51f9"},"vehicle_type_id":"4","last_reported":1732947144,"current_range_meters":38800,"station_id":"ce4bh392rcd13ifvqdm0","pricing_plan_id":"cebpf4jnsgd1na2vs0mg"},{"bike_id":"5dc9edb1-f8c3-4553-889d-f73c08836757","system_id":"levelo_inurba_marseille","lat":43.32489,"lon":5.36577,"is_reserved":false,"is_disabled":true,"rental_uris":{"android":"levelo://app?vid=5dc9edb1-f8c3-4553-889d-f73c08836757","ios":"levelo://app?vid=5dc9edb1-f8c3-4553-889d-f73c08836757"},"vehicle_type_id":"4","last_reported":1732947144,"current_range_meters":5600,"station_id":"ce4bhs12rcd13ifvqhvg","pricing_plan_id":"cebpf4jnsgd1na2vs0mg"},{"bike_id":"47cf5621-bb46-4015-a67e-89a7584abc0d","system_id":"levelo_inurba_marseille","lat":43.30349,"lon":5.41881,"is_reserved":false,"is_disabled":false,"rental_uris":{"android":"levelo://app?vid=47cf5621-bb46-4015-a67e-89a7584abc0d","ios":"levelo://app?vid=47cf5621-bb46-4015-a67e-89a7584abc0d"},"vehicle_type_id":"4","last_reported":1732947144,"current_range_meters":30400,"station_id":"ce4bhop2rcd13ifvqh7g","pricing_plan_id":"cebpf4jnsgd1na2vs0mg"},{"bike_id":"d350231d-a46d-4666-ba51-f12c2e69a01c","system_id":"levelo_inurba_marseille","lat":43.25718,"lon":5.41113,"is_reserved":false,"is_disabled":false,"rental_uris":{"android":"levelo://app?vid=d350231d-a46d-4666-ba51-f12c2e69a01c","ios":"levelo://app?vid=d350231d-a46d-4666-ba51-f12c2e69a01c"},"vehicle_type_id":"4","last_reported":1732947144,"current_range_meters":39200,"station_id":"ce4bhkp2rcd13ifvqgd0","pricing_plan_id":"cebpf4jnsgd1na2vs0mg"},{"bike_id":"4651a703-59f3-466c-b16b-a4f8e06e86f3","system_id":"levelo_inurba_marseille","lat":43.311726,"lon":5.387141,"is_reserved":false,"is_disabled":false,"rental_uris":{"android":"levelo://app?vid=4651a703-59f3-466c-b16b-a4f8e06e86f3","ios":"levelo://app?vid=4651a703-59f3-466c-b16b-a4f8e06e86f3"},"vehicle_type_id":"4","last_reported":1732947144,"current_range_meters":38800,"station_id":"ce4bgv12rcd13ifvqcp0","pricing_plan_id":"cebpf4jnsgd1na2vs0mg"},{"bike_id":"17e69a6c-e451-444d-a02c-b7faaa4464c2","system_id":"levelo_inurba_marseille","lat":43.30805,"lon":5.38165,"is_reserved":false,"is_disabled":false,"rental_uris":{"android":"levelo://app?vid=17e69a6c-e451-444d-a02c-b7faaa4464c2","ios":"levelo://app?vid=17e69a6c-e451-444d-a02c-b7faaa4464c2"},"vehicle_type_id":"4","last_reported":1732947144,"current_range_meters":30800,"station_id":"ce4bgt12rcd13ifvqce0","pricing_plan_id":"cebpf4jnsgd1na2vs0mg"},{"bike_id":"8938b680-b8f0-439b-aa76-77079135e43c","system_id":"levelo_inurba_marseille","lat":43.31527,"lon":5.38031,"is_reserved":false,"is_disabled":false,"rental_uris":{"android":"levelo://app?vid=8938b680-b8f0-439b-aa76-77079135e43c","ios":"levelo://app?vid=8938b680-b8f0-439b-aa76-77079135e43c"},"vehicle_type_id":"4","last_reported":1732947144,"current_range_meters":32400,"station_id":"ce4bhsp2rcd13ifvqi50","pricing_plan_id":"cebpf4jnsgd1na2vs0mg"},{"bike_id":"ab48ff1d-73d7-44c7-9ef3-0adeaaf25f01","system_id":"levelo_inurba_marseille","lat":43.26936,"lon":5.38924,"is_reserved":false,"is_disabled":true,"rental_uris":{"android":"levelo://app?vid=ab48ff1d-73d7-44c7-9ef3-0adeaaf25f01","ios":"levelo://app?vid=ab48ff1d-73d7-44c7-9ef3-0adeaaf25f01"},"vehicle_type_id":"4","last_reported":1732947144,"current_range_meters":11200,"station_id":"ce4bhhh2rcd13ifvqfl0","pricing_plan_id":"cebpf4jnsgd1na2vs0mg"},{"bike_id":"34a919e2-17b1-4650-b548-63094cc7f6aa","system_id":"levelo_inurba_marseille","lat":43.27369,"lon":5.36256,"is_reserved":false,"is_disabled":false,"rental_uris":{"android":"levelo://app?vid=34a919e2-17b1-4650-b548-63094cc7f6aa","ios":"levelo://app?vid=34a919e2-17b1-4650-b548-63094cc7f6aa"},"vehicle_type_id":"4","last_reported":1732947144,"current_range_meters":33600,"station_id":"ce4bhbh2rcd13ifvqeo0","pricing_plan_id":"cebpf4jnsgd1na2vs0mg"},{"bike_id":"68ac2526-6dbf-490d-82be-7dddf6b41705","system_id":"levelo_inurba_marseille","lat":43.301597,"lon":5.380703,"is_reserved":false,"is_disabled":false,"rental_uris":{"android":"levelo://app?vid=68ac2526-6dbf-490d-82be-7dddf6b41705","ios":"levelo://app?vid=68ac2526-6dbf-490d-82be-7dddf6b41705"},"vehicle_type_id":"4","last_reported":1732947144,"current_range_meters":21600,"station_id":"ce4bgjp2rcd13ifvqbh0","pricing_plan_id":"cebpf4jnsgd1na2vs0mg"},{"bike_id":"a2e68fbf-bb8a-4931-ad50-eb639c7d0dbc","system_id":"levelo_inurba_marseille","lat":43.32338,"lon":5.40617,"is_reserved":false,"is_disabled":false,"rental_uris":{"android":"levelo://app?vid=a2e68fbf-bb8a-4931-ad50-eb639c7d0dbc","ios":"levelo://app?vid=a2e68fbf-bb8a-4931-ad50-eb639c7d0dbc"},"vehicle_type_id":"4","last_reported":1732947144,"current_range_meters":28000,"station_id":"ce4bhq92rcd13ifvqhjg","pricing_plan_id":"cebpf4jnsgd1na2vs0mg"},{"bike_id":"94ddd20c-e5b2-4c73-a61a-2ac668abc7d2","system_id":"levelo_inurba_marseille","lat":43.32,"lon":5.38134,"is_reserved":false,"is_disabled":false,"rental_uris":{"android":"levelo://app?vid=94ddd20c-e5b2-4c73-a61a-2ac668abc7d2","ios":"levelo://app?vid=94ddd20c-e5b2-4c73-a61a-2ac668abc7d2"},"vehicle_type_id":"4","last_reported":1732947144,"current_range_meters":39200,"station_id":"ce4bhr12rcd13ifvqhpg","pricing_plan_id":"cebpf4jnsgd1na2vs0mg"},{"bike_id":"bede0b8f-6f13-4382-839b-8bf6932ef238","system_id":"levelo_inurba_marseille","lat":43.26555,"lon":5.37289,"is_reserved":false,"is_disabled":false,"rental_uris":{"android":"levelo://app?vid=bede0b8f-6f13-4382-839b-8bf6932ef238","ios":"levelo://app?vid=bede0b8f-6f13-4382-839b-8bf6932ef238"},"vehicle_type_id":"4","last_reported":1732947144,"current_range_meters":33200,"station_id":"ce4bhg12rcd13ifvqf70","pricing_plan_id":"cebpf4jnsgd1na2vs0mg"},{"bike_id":"fe2c00d6-fab6-472b-887d-35960cae9038","system_id":"levelo_inurba_marseille","lat":43.25939,"lon":5.409,"is_reserved":false,"is_disabled":false,"rental_uris":{"android":"levelo://app?vid=fe2c00d6-fab6-472b-887d-35960cae9038","ios":"levelo://app?vid=fe2c00d6-fab6-472b-887d-35960cae9038"},"vehicle_type_id":"4","last_reported":1732947144,"current_range_meters":38000,"station_id":"ce4bhm92rcd13ifvqglg","pricing_plan_id":"cebpf4jnsgd1na2vs0mg"},{"bike_id":"dd44e59f-2fad-4d4c-9388-e21a3b977031","system_id":"levelo_inurba_marseille","lat":43.32001,"lon":5.38148,"is_reserved":false,"is_disabled":false,"rental_uris":{"android":"levelo://app?vid=dd44e59f-2fad-4d4c-9388-e21a3b977031","ios":"levelo://app?vid=dd44e59f-2fad-4d4c-9388-e21a3b977031"},"vehicle_type_id":"4","last_reported":1732947144,"current_range_meters":20800,"station_id":"ce4bhr12rcd13ifvqhpg","pricing_plan_id":"cebpf4jnsgd1na2vs0mg"},{"bike_id":"4035e70a-9b35-49ff-8763-9565717e2e74","system_id":"levelo_inurba_marseille","lat":43.28464,"lon":5.3589,"is_reserved":false,"is_disabled":true,"rental_uris":{"android":"levelo://app?vid=4035e70a-9b35-49ff-8763-9565717e2e74","ios":"levelo://app?vid=4035e70a-9b35-49ff-8763-9565717e2e74"},"vehicle_type_id":"4","last_reported":1732947144,"current_range_meters":6800,"station_id":"ce4bhah2rcd13ifvqei0","pricing_plan_id":"cebpf4jnsgd1na2vs0mg"},{"bike_id":"bc749360-3ce4-4dd6-a0ac-83aa82c323a7","system_id":"levelo_inurba_marseille","lat":43.28149,"lon":5.4263,"is_reserved":false,"is_disabled":true,"rental_uris":{"android":"levelo://app?vid=bc749360-3ce4-4dd6-a0ac-83aa82c323a7","ios":"levelo://app?vid=bc749360-3ce4-4dd6-a0ac-83aa82c323a7"},"vehicle_type_id":"4","last_reported":1732947144,"current_range_meters":36800,"station_id":"ce4bhnh2rcd13ifvqgug","pricing_plan_id":"cebpf4jnsgd1na2vs0mg"},{"bike_id":"a5083c7e-4a01-446d-8f78-53cc7c6d43ce","system_id":"levelo_inurba_marseille","lat":43.2319,"lon":5.35551,"is_reserved":false,"is_disabled":false,"rental_uris":{"android":"levelo://app?vid=a5083c7e-4a01-446d-8f78-53cc7c6d43ce","ios":"levelo://app?vid=a5083c7e-4a01-446d-8f78-53cc7c6d43ce"},"vehicle_type_id":"4","last_reported":1732947144,"current_range_meters":39200,"station_id":"ce4bhu92rcd13ifvqi70","pricing_plan_id":"cebpf4jnsgd1na2vs0mg"},{"bike_id":"4d4c884f-6933-49c0-8899-f9856d90f44d","system_id":"levelo_inurba_marseille","lat":43.29748,"lon":5.37971,"is_reserved":false,"is_disabled":true,"rental_uris":{"android":"levelo://app?vid=4d4c884f-6933-49c0-8899-f9856d90f44d","ios":"levelo://app?vid=4d4c884f-6933-49c0-8899-f9856d90f44d"},"vehicle_type_id":"4","last_reported":1732947144,"current_range_meters":0,"station_id":"","pricing_plan_id":"cebpf4jnsgd1na2vs0mg"},{"bike_id":"1e969821-f4e9-44c3-a1f6-76f097f06ab9","system_id":"levelo_inurba_marseille","lat":43.32031,"lon":5.4155,"is_reserved":false,"is_disabled":false,"rental_uris":{"android":"levelo://app?vid=1e969821-f4e9-44c3-a1f6-76f097f06ab9","ios":"levelo://app?vid=1e969821-f4e9-44c3-a1f6-76f097f06ab9"},"vehicle_type_id":"4","last_reported":1732947144,"current_range_meters":35600,"station_id":"ce4bhq92rcd13ifvqhkg","pricing_plan_id":"cebpf4jnsgd1na2vs0mg"},{"bike_id":"bec64105-90b6-4236-9514-e7570ee661dc","system_id":"levelo_inurba_marseille","lat":43.306458,"lon":5.400683,"is_reserved":false,"is_disabled":false,"rental_uris":{"android":"levelo://app?vid=bec64105-90b6-4236-9514-e7570ee661dc","ios":"levelo://app?vid=bec64105-90b6-4236-9514-e7570ee661dc"},"vehicle_type_id":"4","last_reported":1732947144,"current_range_meters":21600,"station_id":"ce4bh112rcd13ifvqda0","pricing_plan_id":"cebpf4jnsgd1na2vs0mg"},{"bike_id":"b2934c94-af9d-4f2f-8b68-f653a5eb02ff","system_id":"levelo_inurba_marseille","lat":43.25089,"lon":5.39517,"is_reserved":false,"is_disabled":false,"rental_uris":{"android":"levelo://app?vid=b2934c94-af9d-4f2f-8b68-f653a5eb02ff","ios":"levelo://app?vid=b2934c94-af9d-4f2f-8b68-f653a5eb02ff"},"vehicle_type_id":"4","last_reported":1732947144,"current_range_meters":38400,"station_id":"ce4bhm12rcd13ifvqgkg","pricing_plan_id":"cebpf4jnsgd1na2vs0mg"},{"bike_id":"ec9ad250-db01-42b8-9736-15127403fe10","system_id":"levelo_inurba_marseille","lat":43.313695,"lon":5.384956,"is_reserved":false,"is_disabled":false,"rental_uris":{"android":"levelo://app?vid=ec9ad250-db01-42b8-9736-15127403fe10","ios":"levelo://app?vid=ec9ad250-db01-42b8-9736-15127403fe10"},"vehicle_type_id":"4","last_reported":1732947144,"current_range_meters":28000,"station_id":"ce4bgt92rcd13ifvqcf0","pricing_plan_id":"cebpf4jnsgd1na2vs0mg"},{"bike_id":"9009be37-c6b1-406b-b0a8-fbab355f715e","system_id":"levelo_inurba_marseille","lat":43.33763,"lon":5.37495,"is_reserved":false,"is_disabled":false,"rental_uris":{"android":"levelo://app?vid=9009be37-c6b1-406b-b0a8-fbab355f715e","ios":"levelo://app?vid=9009be37-c6b1-406b-b0a8-fbab355f715e"},"vehicle_type_id":"4","last_reported":1732947144,"current_range_meters":38000,"station_id":"","pricing_plan_id":"cebpf4jnsgd1na2vs0mg"},{"bike_id":"3fd3c9e9-2a71-460f-909c-9685f3d1b7d4","system_id":"levelo_inurba_marseille","lat":43.257182,"lon":5.411146,"is_reserved":false,"is_disabled":false,"rental_uris":{"android":"levelo://app?vid=3fd3c9e9-2a71-460f-909c-9685f3d1b7d4","ios":"levelo://app?vid=3fd3c9e9-2a71-460f-909c-9685f3d1b7d4"},"vehicle_type_id":"4","last_reported":1732947144,"current_range_meters":27600,"station_id":"ce4bhkp2rcd13ifvqgd0","pricing_plan_id":"cebpf4jnsgd1na2vs0mg"},{"bike_id":"c81e7d9f-2f5c-4377-8a55-0fc1c7e25641","system_id":"levelo_inurba_marseille","lat":43.31712,"lon":5.4371,"is_reserved":false,"is_disabled":false,"rental_uris":{"android":"levelo://app?vid=c81e7d9f-2f5c-4377-8a55-0fc1c7e25641","ios":"levelo://app?vid=c81e7d9f-2f5c-4377-8a55-0fc1c7e25641"},"vehicle_type_id":"4","last_reported":1732947144,"current_range_meters":35200,"station_id":"ce4bhp92rcd13ifvqhcg","pricing_plan_id":"cebpf4jnsgd1na2vs0mg"},{"bike_id":"ad3ee3ef-e6d1-4407-9499-5dafea0bca3f","system_id":"levelo_inurba_marseille","lat":43.29721,"lon":5.36615,"is_reserved":false,"is_disabled":false,"rental_uris":{"android":"levelo://app?vid=ad3ee3ef-e6d1-4407-9499-5dafea0bca3f","ios":"levelo://app?vid=ad3ee3ef-e6d1-4407-9499-5dafea0bca3f"},"vehicle_type_id":"4","last_reported":1732947144,"current_range_meters":25200,"station_id":"ce4bgn12rcd13ifvqbt0","pricing_plan_id":"cebpf4jnsgd1na2vs0mg"},{"bike_id":"d2807836-6000-47ca-b96b-95836404774c","system_id":"levelo_inurba_marseille","lat":43.30236,"lon":5.39396,"is_reserved":false,"is_disabled":true,"rental_uris":{"android":"levelo://app?vid=d2807836-6000-47ca-b96b-95836404774c","ios":"levelo://app?vid=d2807836-6000-47ca-b96b-95836404774c"},"vehicle_type_id":"4","last_reported":1732947144,"current_range_meters":9600,"station_id":"","pricing_plan_id":"cebpf4jnsgd1na2vs0mg"},{"bike_id":"be1ea8ae-bb6c-4cc9-9878-4dd6e7c328d6","system_id":"levelo_inurba_marseille","lat":43.32106,"lon":5.36769,"is_reserved":false,"is_disabled":false,"rental_uris":{"android":"levelo://app?vid=be1ea8ae-bb6c-4cc9-9878-4dd6e7c328d6","ios":"levelo://app?vid=be1ea8ae-bb6c-4cc9-9878-4dd6e7c328d6"},"vehicle_type_id":"4","last_reported":1732947144,"current_range_meters":32000,"station_id":"ce4bhrh2rcd13ifvqhug","pricing_plan_id":"cebpf4jnsgd1na2vs0mg"},{"bike_id":"8c9876ea-1b04-44eb-a3de-6d20def82905","system_id":"levelo_inurba_marseille","lat":43.2843,"lon":5.34979,"is_reserved":false,"is_disabled":false,"rental_uris":{"android":"levelo://app?vid=8c9876ea-1b04-44eb-a3de-6d20def82905","ios":"levelo://app?vid=8c9876ea-1b04-44eb-a3de-6d20def82905"},"vehicle_type_id":"4","last_reported":1732947144,"current_range_meters":7200,"station_id":"ce4bhbh2rcd13ifvqepg","pricing_plan_id":"cebpf4jnsgd1na2vs0mg"},{"bike_id":"b1ac7571-eb4e-4f10-b111-5adbf1306f57","system_id":"levelo_inurba_marseille","lat":43.28467,"lon":5.35892,"is_reserved":false,"is_disabled":false,"rental_uris":{"android":"levelo://app?vid=b1ac7571-eb4e-4f10-b111-5adbf1306f57","ios":"levelo://app?vid=b1ac7571-eb4e-4f10-b111-5adbf1306f57"},"vehicle_type_id":"4","last_reported":1732947144,"current_range_meters":38800,"station_id":"ce4bhah2rcd13ifvqei0","pricing_plan_id":"cebpf4jnsgd1na2vs0mg"},{"bike_id":"a2e389d1-e3df-4f18-a79d-5461697ea3a6","system_id":"levelo_inurba_marseille","lat":43.27995,"lon":5.41657,"is_reserved":false,"is_disabled":false,"rental_uris":{"android":"levelo://app?vid=a2e389d1-e3df-4f18-a79d-5461697ea3a6","ios":"levelo://app?vid=a2e389d1-e3df-4f18-a79d-5461697ea3a6"},"vehicle_type_id":"4","last_reported":1732947144,"current_range_meters":17600,"station_id":"ce4bho12rcd13ifvqh1g","pricing_plan_id":"cebpf4jnsgd1na2vs0mg"},{"bike_id":"d9981645-9dc0-4a60-9f60-a742ee975aa6","system_id":"levelo_inurba_marseille","lat":43.28568,"lon":5.39498,"is_reserved":false,"is_disabled":false,"rental_uris":{"android":"levelo://app?vid=d9981645-9dc0-4a60-9f60-a742ee975aa6","ios":"levelo://app?vid=d9981645-9dc0-4a60-9f60-a742ee975aa6"},"vehicle_type_id":"4","last_reported":1732947144,"current_range_meters":12000,"station_id":"ce4bh292rcd13ifvqdg0","pricing_plan_id":"cebpf4jnsgd1na2vs0mg"},{"bike_id":"77be03dd-3d99-4535-adc0-1c7477c4a3a3","system_id":"levelo_inurba_marseille","lat":43.32284,"lon":5.38277,"is_reserved":false,"is_disabled":false,"rental_uris":{"android":"levelo://app?vid=77be03dd-3d99-4535-adc0-1c7477c4a3a3","ios":"levelo://app?vid=77be03dd-3d99-4535-adc0-1c7477c4a3a3"},"vehicle_type_id":"4","last_reported":1732947144,"current_range_meters":38800,"station_id":"ce4bhr12rcd13ifvqhqg","pricing_plan_id":"cebpf4jnsgd1na2vs0mg"},{"bike_id":"283ea3d0-76fc-48bb-af4d-d58ee37064ff","system_id":"levelo_inurba_marseille","lat":43.28728,"lon":5.36087,"is_reserved":false,"is_disabled":false,"rental_uris":{"android":"levelo://app?vid=283ea3d0-76fc-48bb-af4d-d58ee37064ff","ios":"levelo://app?vid=283ea3d0-76fc-48bb-af4d-d58ee37064ff"},"vehicle_type_id":"4","last_reported":1732947144,"current_range_meters":10000,"station_id":"cki0cbj6b192h4jlfktg","pricing_plan_id":"cebpf4jnsgd1na2vs0mg"},{"bike_id":"8857916b-5ad7-42a9-ba43-1c9c57aaad48","system_id":"levelo_inurba_marseille","lat":43.291673,"lon":5.371541,"is_reserved":false,"is_disabled":false,"rental_uris":{"android":"levelo://app?vid=8857916b-5ad7-42a9-ba43-1c9c57aaad48","ios":"levelo://app?vid=8857916b-5ad7-42a9-ba43-1c9c57aaad48"},"vehicle_type_id":"4","last_reported":1732947144,"current_range_meters":37600,"station_id":"ce4bha92rcd13ifvqeh0","pricing_plan_id":"cebpf4jnsgd1na2vs0mg"},{"bike_id":"f417758e-d5f5-4e46-8e61-41e3114e14c2","system_id":"levelo_inurba_marseille","lat":43.30137,"lon":5.37408,"is_reserved":false,"is_disabled":true,"rental_uris":{"android":"levelo://app?vid=f417758e-d5f5-4e46-8e61-41e3114e14c2","ios":"levelo://app?vid=f417758e-d5f5-4e46-8e61-41e3114e14c2"},"vehicle_type_id":"4","last_reported":1732947144,"current_range_meters":37600,"station_id":"ce4bgs92rcd13ifvqcc0","pricing_plan_id":"cebpf4jnsgd1na2vs0mg"},{"bike_id":"9885a916-0c71-47c7-a92e-d9a2093be9b3","system_id":"levelo_inurba_marseille","lat":43.27989,"lon":5.41664,"is_reserved":false,"is_disabled":false,"rental_uris":{"android":"levelo://app?vid=9885a916-0c71-47c7-a92e-d9a2093be9b3","ios":"levelo://app?vid=9885a916-0c71-47c7-a92e-d9a2093be9b3"},"vehicle_type_id":"4","last_reported":1732947144,"current_range_meters":7200,"station_id":"ce4bho12rcd13ifvqh1g","pricing_plan_id":"cebpf4jnsgd1na2vs0mg"},{"bike_id":"da44d878-f6ff-41ae-8a97-e52ee36bd087","system_id":"levelo_inurba_marseille","lat":43.24805,"lon":5.37455,"is_reserved":false,"is_disabled":false,"rental_uris":{"android":"levelo://app?vid=da44d878-f6ff-41ae-8a97-e52ee36bd087","ios":"levelo://app?vid=da44d878-f6ff-41ae-8a97-e52ee36bd087"},"vehicle_type_id":"4","last_reported":1732947144,"current_range_meters":39200,"station_id":"ce4bhgh2rcd13ifvqfb0","pricing_plan_id":"cebpf4jnsgd1na2vs0mg"},{"bike_id":"ca20ea45-5a00-49af-88ae-1db20fe0c34f","system_id":"levelo_inurba_marseille","lat":43.26939,"lon":5.38922,"is_reserved":false,"is_disabled":true,"rental_uris":{"android":"levelo://app?vid=ca20ea45-5a00-49af-88ae-1db20fe0c34f","ios":"levelo://app?vid=ca20ea45-5a00-49af-88ae-1db20fe0c34f"},"vehicle_type_id":"4","last_reported":1732947144,"current_range_meters":9600,"station_id":"ce4bhhh2rcd13ifvqfl0","pricing_plan_id":"cebpf4jnsgd1na2vs0mg"},{"bike_id":"511f8be8-f46d-4397-8963-85d48c280cb2","system_id":"levelo_inurba_marseille","lat":43.28103,"lon":5.3784,"is_reserved":false,"is_disabled":true,"rental_uris":{"android":"levelo://app?vid=511f8be8-f46d-4397-8963-85d48c280cb2","ios":"levelo://app?vid=511f8be8-f46d-4397-8963-85d48c280cb2"},"vehicle_type_id":"4","last_reported":1732947144,"current_range_meters":1200,"station_id":"ce4bha12rcd13ifvqee0","pricing_plan_id":"cebpf4jnsgd1na2vs0mg"},{"bike_id":"e8fa7be1-2407-41a7-b843-e7c70f1917ef","system_id":"levelo_inurba_marseille","lat":43.27611,"lon":5.36109,"is_reserved":false,"is_disabled":true,"rental_uris":{"android":"levelo://app?vid=e8fa7be1-2407-41a7-b843-e7c70f1917ef","ios":"levelo://app?vid=e8fa7be1-2407-41a7-b843-e7c70f1917ef"},"vehicle_type_id":"4","last_reported":1732947144,"current_range_meters":0,"station_id":"ce4bgj92rcd13ifvqbe0","pricing_plan_id":"cebpf4jnsgd1na2vs0mg"},{"bike_id":"91f59935-b697-40e0-be46-a343a0c298d0","system_id":"levelo_inurba_marseille","lat":43.28659,"lon":5.36355,"is_reserved":false,"is_disabled":false,"rental_uris":{"android":"levelo://app?vid=91f59935-b697-40e0-be46-a343a0c298d0","ios":"levelo://app?vid=91f59935-b697-40e0-be46-a343a0c298d0"},"vehicle_type_id":"4","last_reported":1732947144,"current_range_meters":38000,"station_id":"ce4bhah2rcd13ifvqej0","pricing_plan_id":"cebpf4jnsgd1na2vs0mg"},{"bike_id":"df0dfc86-7540-4a0c-8976-9af5497d0a2c","system_id":"levelo_inurba_marseille","lat":43.337444,"lon":5.374475,"is_reserved":false,"is_disabled":false,"rental_uris":{"android":"levelo://app?vid=df0dfc86-7540-4a0c-8976-9af5497d0a2c","ios":"levelo://app?vid=df0dfc86-7540-4a0c-8976-9af5497d0a2c"},"vehicle_type_id":"4","last_reported":1732947144,"current_range_meters":23200,"station_id":"","pricing_plan_id":"cebpf4jnsgd1na2vs0mg"},{"bike_id":"e4d273de-5063-4eee-a2b6-95208d403a93","system_id":"levelo_inurba_marseille","lat":43.29593,"lon":5.38104,"is_reserved":false,"is_disabled":false,"rental_uris":{"android":"levelo://app?vid=e4d273de-5063-4eee-a2b6-95208d403a93","ios":"levelo://app?vid=e4d273de-5063-4eee-a2b6-95208d403a93"},"vehicle_type_id":"4","last_reported":1732947144,"current_range_meters":31200,"station_id":"ce4bgl12rcd13ifvqbo0","pricing_plan_id":"cebpf4jnsgd1na2vs0mg"},{"bike_id":"d6a0ff66-87dd-49de-a09b-bea530d1c972","system_id":"levelo_inurba_marseille","lat":43.25576,"lon":5.38235,"is_reserved":false,"is_disabled":true,"rental_uris":{"android":"levelo://app?vid=d6a0ff66-87dd-49de-a09b-bea530d1c972","ios":"levelo://app?vid=d6a0ff66-87dd-49de-a09b-bea530d1c972"},"vehicle_type_id":"4","last_reported":1732947144,"current_range_meters":28800,"station_id":"ce4bhih2rcd13ifvqfs0","pricing_plan_id":"cebpf4jnsgd1na2vs0mg"},{"bike_id":"b64c6095-9d78-4b69-b855-374d2a38d0a7","system_id":"levelo_inurba_marseille","lat":43.27614,"lon":5.36118,"is_reserved":false,"is_disabled":false,"rental_uris":{"android":"levelo://app?vid=b64c6095-9d78-4b69-b855-374d2a38d0a7","ios":"levelo://app?vid=b64c6095-9d78-4b69-b855-374d2a38d0a7"},"vehicle_type_id":"4","last_reported":1732947144,"current_range_meters":38800,"station_id":"ce4bgj92rcd13ifvqbe0","pricing_plan_id":"cebpf4jnsgd1na2vs0mg"},{"bike_id":"2eb7d04e-8959-4612-a33e-ebdf956bbff2","system_id":"levelo_inurba_marseille","lat":43.29627,"lon":5.40594,"is_reserved":false,"is_disabled":false,"rental_uris":{"android":"levelo://app?vid=2eb7d04e-8959-4612-a33e-ebdf956bbff2","ios":"levelo://app?vid=2eb7d04e-8959-4612-a33e-ebdf956bbff2"},"vehicle_type_id":"4","last_reported":1732947144,"current_range_meters":38000,"station_id":"ce4bh0h2rcd13ifvqd60","pricing_plan_id":"cebpf4jnsgd1na2vs0mg"},{"bike_id":"5edaa513-18ec-4cef-a923-f5208a28c4a2","system_id":"levelo_inurba_marseille","lat":43.28999,"lon":5.35619,"is_reserved":false,"is_disabled":false,"rental_uris":{"android":"levelo://app?vid=5edaa513-18ec-4cef-a923-f5208a28c4a2","ios":"levelo://app?vid=5edaa513-18ec-4cef-a923-f5208a28c4a2"},"vehicle_type_id":"4","last_reported":1732947144,"current_range_meters":28800,"station_id":"ce4bhb92rcd13ifvqen0","pricing_plan_id":"cebpf4jnsgd1na2vs0mg"},{"bike_id":"5475a59e-dc1c-4611-9183-c9b725626a4b","system_id":"levelo_inurba_marseille","lat":43.24075,"lon":5.37754,"is_reserved":false,"is_disabled":false,"rental_uris":{"android":"levelo://app?vid=5475a59e-dc1c-4611-9183-c9b725626a4b","ios":"levelo://app?vid=5475a59e-dc1c-4611-9183-c9b725626a4b"},"vehicle_type_id":"4","last_reported":1732947144,"current_range_meters":4000,"station_id":"ce4bhnp2rcd13ifvqgvg","pricing_plan_id":"cebpf4jnsgd1na2vs0mg"},{"bike_id":"3ca8d527-6c31-4160-8bc9-0dbae13780f9","system_id":"levelo_inurba_marseille","lat":43.28455,"lon":5.35884,"is_reserved":false,"is_disabled":true,"rental_uris":{"android":"levelo://app?vid=3ca8d527-6c31-4160-8bc9-0dbae13780f9","ios":"levelo://app?vid=3ca8d527-6c31-4160-8bc9-0dbae13780f9"},"vehicle_type_id":"4","last_reported":1732947144,"current_range_meters":19200,"station_id":"ce4bhah2rcd13ifvqei0","pricing_plan_id":"cebpf4jnsgd1na2vs0mg"},{"bike_id":"c074ca47-64f6-4069-b08a-8151f9f4825b","system_id":"levelo_inurba_marseille","lat":43.282671,"lon":5.350613,"is_reserved":false,"is_disabled":false,"rental_uris":{"android":"levelo://app?vid=c074ca47-64f6-4069-b08a-8151f9f4825b","ios":"levelo://app?vid=c074ca47-64f6-4069-b08a-8151f9f4825b"},"vehicle_type_id":"4","last_reported":1732947144,"current_range_meters":38800,"station_id":"ce4bhbp2rcd13ifvqerg","pricing_plan_id":"cebpf4jnsgd1na2vs0mg"},{"bike_id":"92de0aec-7fd7-4b0f-836a-d45b7677365d","system_id":"levelo_inurba_marseille","lat":43.25006,"lon":5.38938,"is_reserved":false,"is_disabled":false,"rental_uris":{"android":"levelo://app?vid=92de0aec-7fd7-4b0f-836a-d45b7677365d","ios":"levelo://app?vid=92de0aec-7fd7-4b0f-836a-d45b7677365d"},"vehicle_type_id":"4","last_reported":1732947144,"current_range_meters":39200,"station_id":"ce4bhgp2rcd13ifvqfd0","pricing_plan_id":"cebpf4jnsgd1na2vs0mg"},{"bike_id":"0651e545-d640-4c22-a85d-367b9b3a77da","system_id":"levelo_inurba_marseille","lat":43.30418,"lon":5.41284,"is_reserved":false,"is_disabled":false,"rental_uris":{"android":"levelo://app?vid=0651e545-d640-4c22-a85d-367b9b3a77da","ios":"levelo://app?vid=0651e545-d640-4c22-a85d-367b9b3a77da"},"vehicle_type_id":"4","last_reported":1732947144,"current_range_meters":38800,"station_id":"ce4bhop2rcd13ifvqh8g","pricing_plan_id":"cebpf4jnsgd1na2vs0mg"},{"bike_id":"6aa9fcfc-be16-4684-bdff-01d1ea30ac8d","system_id":"levelo_inurba_marseille","lat":43.289189,"lon":5.359448,"is_reserved":false,"is_disabled":false,"rental_uris":{"android":"levelo://app?vid=6aa9fcfc-be16-4684-bdff-01d1ea30ac8d","ios":"levelo://app?vid=6aa9fcfc-be16-4684-bdff-01d1ea30ac8d"},"vehicle_type_id":"4","last_reported":1732947144,"current_range_meters":30000,"station_id":"ce4bhc92rcd13ifvqetg","pricing_plan_id":"cebpf4jnsgd1na2vs0mg"},{"bike_id":"4a2be555-d056-454c-bed3-fe781ba86f8e","system_id":"levelo_inurba_marseille","lat":43.25886,"lon":5.39954,"is_reserved":false,"is_disabled":true,"rental_uris":{"android":"levelo://app?vid=4a2be555-d056-454c-bed3-fe781ba86f8e","ios":"levelo://app?vid=4a2be555-d056-454c-bed3-fe781ba86f8e"},"vehicle_type_id":"4","last_reported":1732947144,"current_range_meters":0,"station_id":"","pricing_plan_id":"cebpf4jnsgd1na2vs0mg"},{"bike_id":"8f22ce9f-b266-4291-a09b-63ff117ff1ad","system_id":"levelo_inurba_marseille","lat":43.32479,"lon":5.36568,"is_reserved":false,"is_disabled":false,"rental_uris":{"android":"levelo://app?vid=8f22ce9f-b266-4291-a09b-63ff117ff1ad","ios":"levelo://app?vid=8f22ce9f-b266-4291-a09b-63ff117ff1ad"},"vehicle_type_id":"4","last_reported":1732947144,"current_range_meters":37600,"station_id":"ce4bhs12rcd13ifvqhvg","pricing_plan_id":"cebpf4jnsgd1na2vs0mg"},{"bike_id":"e7409b42-c149-4b21-bac4-0ccaf55b69e0","system_id":"levelo_inurba_marseille","lat":43.29579,"lon":5.38103,"is_reserved":false,"is_disabled":true,"rental_uris":{"android":"levelo://app?vid=e7409b42-c149-4b21-bac4-0ccaf55b69e0","ios":"levelo://app?vid=e7409b42-c149-4b21-bac4-0ccaf55b69e0"},"vehicle_type_id":"4","last_reported":1732947144,"current_range_meters":32000,"station_id":"ce4bgl12rcd13ifvqbo0","pricing_plan_id":"cebpf4jnsgd1na2vs0mg"},{"bike_id":"9a00f89a-0d81-4377-915f-d6fd9966228d","system_id":"levelo_inurba_marseille","lat":43.29817,"lon":5.40413,"is_reserved":false,"is_disabled":false,"rental_uris":{"android":"levelo://app?vid=9a00f89a-0d81-4377-915f-d6fd9966228d","ios":"levelo://app?vid=9a00f89a-0d81-4377-915f-d6fd9966228d"},"vehicle_type_id":"4","last_reported":1732947144,"current_range_meters":38400,"station_id":"ce4bh112rcd13ifvqd90","pricing_plan_id":"cebpf4jnsgd1na2vs0mg"},{"bike_id":"149cbc14-0894-4485-abf0-1d0584f14756","system_id":"levelo_inurba_marseille","lat":43.27816,"lon":5.4071,"is_reserved":false,"is_disabled":false,"rental_uris":{"android":"levelo://app?vid=149cbc14-0894-4485-abf0-1d0584f14756","ios":"levelo://app?vid=149cbc14-0894-4485-abf0-1d0584f14756"},"vehicle_type_id":"4","last_reported":1732947144,"current_range_meters":39200,"station_id":"ce4bhnh2rcd13ifvqgtg","pricing_plan_id":"cebpf4jnsgd1na2vs0mg"},{"bike_id":"8ac1d851-4d76-4c23-a9e9-b3ad0f0f4bf1","system_id":"levelo_inurba_marseille","lat":43.32339,"lon":5.40618,"is_reserved":false,"is_disabled":false,"rental_uris":{"android":"levelo://app?vid=8ac1d851-4d76-4c23-a9e9-b3ad0f0f4bf1","ios":"levelo://app?vid=8ac1d851-4d76-4c23-a9e9-b3ad0f0f4bf1"},"vehicle_type_id":"4","last_reported":1732947144,"current_range_meters":38800,"station_id":"ce4bhq92rcd13ifvqhjg","pricing_plan_id":"cebpf4jnsgd1na2vs0mg"},{"bike_id":"24998420-0380-4723-9afc-291d57f3e3d8","system_id":"levelo_inurba_marseille","lat":43.25721,"lon":5.41111,"is_reserved":false,"is_disabled":false,"rental_uris":{"android":"levelo://app?vid=24998420-0380-4723-9afc-291d57f3e3d8","ios":"levelo://app?vid=24998420-0380-4723-9afc-291d57f3e3d8"},"vehicle_type_id":"4","last_reported":1732947144,"current_range_meters":31200,"station_id":"ce4bhkp2rcd13ifvqgd0","pricing_plan_id":"cebpf4jnsgd1na2vs0mg"},{"bike_id":"80ee5806-271f-4b24-a602-2dc27d804313","system_id":"levelo_inurba_marseille","lat":43.32109,"lon":5.36767,"is_reserved":false,"is_disabled":false,"rental_uris":{"android":"levelo://app?vid=80ee5806-271f-4b24-a602-2dc27d804313","ios":"levelo://app?vid=80ee5806-271f-4b24-a602-2dc27d804313"},"vehicle_type_id":"4","last_reported":1732947144,"current_range_meters":10800,"station_id":"ce4bhrh2rcd13ifvqhug","pricing_plan_id":"cebpf4jnsgd1na2vs0mg"},{"bike_id":"a99e441f-fcb3-4edf-8132-a5c34ea369bf","system_id":"levelo_inurba_marseille","lat":43.269415,"lon":5.402498,"is_reserved":false,"is_disabled":false,"rental_uris":{"android":"levelo://app?vid=a99e441f-fcb3-4edf-8132-a5c34ea369bf","ios":"levelo://app?vid=a99e441f-fcb3-4edf-8132-a5c34ea369bf"},"vehicle_type_id":"4","last_reported":1732947144,"current_range_meters":38000,"station_id":"cjm6bp8fraef2m0cb0m0","pricing_plan_id":"cebpf4jnsgd1na2vs0mg"},{"bike_id":"1d70e936-a5c9-4092-b55e-bd5c3d620336","system_id":"levelo_inurba_marseille","lat":43.28098,"lon":5.37849,"is_reserved":false,"is_disabled":false,"rental_uris":{"android":"levelo://app?vid=1d70e936-a5c9-4092-b55e-bd5c3d620336","ios":"levelo://app?vid=1d70e936-a5c9-4092-b55e-bd5c3d620336"},"vehicle_type_id":"4","last_reported":1732947144,"current_range_meters":29600,"station_id":"ce4bha12rcd13ifvqee0","pricing_plan_id":"cebpf4jnsgd1na2vs0mg"},{"bike_id":"688ed6cf-322b-4efe-9ca3-813fea996aa2","system_id":"levelo_inurba_marseille","lat":43.28663,"lon":5.36353,"is_reserved":false,"is_disabled":false,"rental_uris":{"android":"levelo://app?vid=688ed6cf-322b-4efe-9ca3-813fea996aa2","ios":"levelo://app?vid=688ed6cf-322b-4efe-9ca3-813fea996aa2"},"vehicle_type_id":"4","last_reported":1732947144,"current_range_meters":38000,"station_id":"ce4bhah2rcd13ifvqej0","pricing_plan_id":"cebpf4jnsgd1na2vs0mg"},{"bike_id":"3032096e-cca7-4267-a12b-d258401708bb","system_id":"levelo_inurba_marseille","lat":43.280401,"lon":5.369434,"is_reserved":false,"is_disabled":false,"rental_uris":{"android":"levelo://app?vid=3032096e-cca7-4267-a12b-d258401708bb","ios":"levelo://app?vid=3032096e-cca7-4267-a12b-d258401708bb"},"vehicle_type_id":"4","last_reported":1732947144,"current_range_meters":38000,"station_id":"ce4bha12rcd13ifvqef0","pricing_plan_id":"cebpf4jnsgd1na2vs0mg"},{"bike_id":"f77c946c-c6e5-452b-9a5e-5f2df84b15d2","system_id":"levelo_inurba_marseille","lat":43.30414,"lon":5.39747,"is_reserved":false,"is_disabled":true,"rental_uris":{"android":"levelo://app?vid=f77c946c-c6e5-452b-9a5e-5f2df84b15d2","ios":"levelo://app?vid=f77c946c-c6e5-452b-9a5e-5f2df84b15d2"},"vehicle_type_id":"4","last_reported":1732947144,"current_range_meters":24800,"station_id":"ce4bh092rcd13ifvqd20","pricing_plan_id":"cebpf4jnsgd1na2vs0mg"},{"bike_id":"caec5743-9551-49a1-bc6f-66ea9df752cc","system_id":"levelo_inurba_marseille","lat":43.33023,"lon":5.39047,"is_reserved":false,"is_disabled":false,"rental_uris":{"android":"levelo://app?vid=caec5743-9551-49a1-bc6f-66ea9df752cc","ios":"levelo://app?vid=caec5743-9551-49a1-bc6f-66ea9df752cc"},"vehicle_type_id":"4","last_reported":1732947144,"current_range_meters":33200,"station_id":"ce4bhr92rcd13ifvqhrg","pricing_plan_id":"cebpf4jnsgd1na2vs0mg"},{"bike_id":"981f5323-76ee-4aff-abdb-308b2ece5ca8","system_id":"levelo_inurba_marseille","lat":43.33732,"lon":5.3918,"is_reserved":false,"is_disabled":false,"rental_uris":{"android":"levelo://app?vid=981f5323-76ee-4aff-abdb-308b2ece5ca8","ios":"levelo://app?vid=981f5323-76ee-4aff-abdb-308b2ece5ca8"},"vehicle_type_id":"4","last_reported":1732947144,"current_range_meters":39200,"station_id":"ce4bhr92rcd13ifvqhsg","pricing_plan_id":"cebpf4jnsgd1na2vs0mg"},{"bike_id":"81d9f7be-c3c6-4233-bf11-948e6f22debc","system_id":"levelo_inurba_marseille","lat":43.3236,"lon":5.38889,"is_reserved":false,"is_disabled":false,"rental_uris":{"android":"levelo://app?vid=81d9f7be-c3c6-4233-bf11-948e6f22debc","ios":"levelo://app?vid=81d9f7be-c3c6-4233-bf11-948e6f22debc"},"vehicle_type_id":"4","last_reported":1732947144,"current_range_meters":32800,"station_id":"ce4bhqp2rcd13ifvqhog","pricing_plan_id":"cebpf4jnsgd1na2vs0mg"},{"bike_id":"1eede84d-8533-480b-beca-64379132784d","system_id":"levelo_inurba_marseille","lat":43.33019,"lon":5.39036,"is_reserved":false,"is_disabled":false,"rental_uris":{"android":"levelo://app?vid=1eede84d-8533-480b-beca-64379132784d","ios":"levelo://app?vid=1eede84d-8533-480b-beca-64379132784d"},"vehicle_type_id":"4","last_reported":1732947144,"current_range_meters":38400,"station_id":"ce4bhr92rcd13ifvqhrg","pricing_plan_id":"cebpf4jnsgd1na2vs0mg"},{"bike_id":"def90535-8063-4c54-b688-08f7d163ce9a","system_id":"levelo_inurba_marseille","lat":43.29423,"lon":5.3861,"is_reserved":false,"is_disabled":true,"rental_uris":{"android":"levelo://app?vid=def90535-8063-4c54-b688-08f7d163ce9a","ios":"levelo://app?vid=def90535-8063-4c54-b688-08f7d163ce9a"},"vehicle_type_id":"4","last_reported":1732947144,"current_range_meters":0,"station_id":"ce4bh2h2rcd13ifvqdh0","pricing_plan_id":"cebpf4jnsgd1na2vs0mg"},{"bike_id":"af97a686-7dba-4ece-b2c8-70582f2b6789","system_id":"levelo_inurba_marseille","lat":43.2511,"lon":5.40316,"is_reserved":false,"is_disabled":false,"rental_uris":{"android":"levelo://app?vid=af97a686-7dba-4ece-b2c8-70582f2b6789","ios":"levelo://app?vid=af97a686-7dba-4ece-b2c8-70582f2b6789"},"vehicle_type_id":"4","last_reported":1732947144,"current_range_meters":39200,"station_id":"ce4bhlh2rcd13ifvqgig","pricing_plan_id":"cebpf4jnsgd1na2vs0mg"},{"bike_id":"2ac9997c-e0b8-4af3-a63d-0d638faf7903","system_id":"levelo_inurba_marseille","lat":43.28474,"lon":5.38425,"is_reserved":false,"is_disabled":false,"rental_uris":{"android":"levelo://app?vid=2ac9997c-e0b8-4af3-a63d-0d638faf7903","ios":"levelo://app?vid=2ac9997c-e0b8-4af3-a63d-0d638faf7903"},"vehicle_type_id":"4","last_reported":1732947144,"current_range_meters":6000,"station_id":"ce4bh512rcd13ifvqe3g","pricing_plan_id":"cebpf4jnsgd1na2vs0mg"},{"bike_id":"9c868faa-a859-4a44-b8e7-f9fcd3ce3d61","system_id":"levelo_inurba_marseille","lat":43.27947,"lon":5.41054,"is_reserved":false,"is_disabled":false,"rental_uris":{"android":"levelo://app?vid=9c868faa-a859-4a44-b8e7-f9fcd3ce3d61","ios":"levelo://app?vid=9c868faa-a859-4a44-b8e7-f9fcd3ce3d61"},"vehicle_type_id":"4","last_reported":1732947144,"current_range_meters":21600,"station_id":"ce4bhnp2rcd13ifvqh0g","pricing_plan_id":"cebpf4jnsgd1na2vs0mg"},{"bike_id":"ab1db49f-701c-4711-8b20-531372b5e60f","system_id":"levelo_inurba_marseille","lat":43.32621,"lon":5.37548,"is_reserved":false,"is_disabled":false,"rental_uris":{"android":"levelo://app?vid=ab1db49f-701c-4711-8b20-531372b5e60f","ios":"levelo://app?vid=ab1db49f-701c-4711-8b20-531372b5e60f"},"vehicle_type_id":"4","last_reported":1732947144,"current_range_meters":33600,"station_id":"","pricing_plan_id":"cebpf4jnsgd1na2vs0mg"},{"bike_id":"29a80c71-9648-4a26-b6c9-5f69092eaa01","system_id":"levelo_inurba_marseille","lat":43.2707,"lon":5.42279,"is_reserved":false,"is_disabled":true,"rental_uris":{"android":"levelo://app?vid=29a80c71-9648-4a26-b6c9-5f69092eaa01","ios":"levelo://app?vid=29a80c71-9648-4a26-b6c9-5f69092eaa01"},"vehicle_type_id":"4","last_reported":1732947144,"current_range_meters":39200,"station_id":"ce4bhk92rcd13ifvqgb0","pricing_plan_id":"cebpf4jnsgd1na2vs0mg"},{"bike_id":"6179da37-d06b-4e7f-84ec-990f5fbc58c6","system_id":"levelo_inurba_marseille","lat":43.30809,"lon":5.38167,"is_reserved":false,"is_disabled":false,"rental_uris":{"android":"levelo://app?vid=6179da37-d06b-4e7f-84ec-990f5fbc58c6","ios":"levelo://app?vid=6179da37-d06b-4e7f-84ec-990f5fbc58c6"},"vehicle_type_id":"4","last_reported":1732947144,"current_range_meters":38800,"station_id":"ce4bgt12rcd13ifvqce0","pricing_plan_id":"cebpf4jnsgd1na2vs0mg"},{"bike_id":"09cf73fd-3859-4d2d-8fa6-137eda4c933a","system_id":"levelo_inurba_marseille","lat":43.297924,"lon":5.393432,"is_reserved":false,"is_disabled":false,"rental_uris":{"android":"levelo://app?vid=09cf73fd-3859-4d2d-8fa6-137eda4c933a","ios":"levelo://app?vid=09cf73fd-3859-4d2d-8fa6-137eda4c933a"},"vehicle_type_id":"4","last_reported":1732947144,"current_range_meters":19600,"station_id":"chh1huq6cuj3fo74tm60","pricing_plan_id":"cebpf4jnsgd1na2vs0mg"},{"bike_id":"4a9d6e1f-1828-4869-9bb6-c94fb652e1a9","system_id":"levelo_inurba_marseille","lat":43.22934,"lon":5.35378,"is_reserved":false,"is_disabled":false,"rental_uris":{"android":"levelo://app?vid=4a9d6e1f-1828-4869-9bb6-c94fb652e1a9","ios":"levelo://app?vid=4a9d6e1f-1828-4869-9bb6-c94fb652e1a9"},"vehicle_type_id":"4","last_reported":1732947144,"current_range_meters":38800,"station_id":"cpo3532slgdg3j2ikp40","pricing_plan_id":"cebpf4jnsgd1na2vs0mg"},{"bike_id":"0174841e-8011-4a7b-bd18-480101bee765","system_id":"levelo_inurba_marseille","lat":43.23963,"lon":5.36624,"is_reserved":false,"is_disabled":true,"rental_uris":{"android":"levelo://app?vid=0174841e-8011-4a7b-bd18-480101bee765","ios":"levelo://app?vid=0174841e-8011-4a7b-bd18-480101bee765"},"vehicle_type_id":"4","last_reported":1732947144,"current_range_meters":0,"station_id":"ce4bhi12rcd13ifvqfp0","pricing_plan_id":"cebpf4jnsgd1na2vs0mg"},{"bike_id":"867f5543-0414-4767-b490-b67e303a6386","system_id":"levelo_inurba_marseille","lat":43.27425,"lon":5.39415,"is_reserved":false,"is_disabled":false,"rental_uris":{"android":"levelo://app?vid=867f5543-0414-4767-b490-b67e303a6386","ios":"levelo://app?vid=867f5543-0414-4767-b490-b67e303a6386"},"vehicle_type_id":"4","last_reported":1732947144,"current_range_meters":37600,"station_id":"ce4bhdp2rcd13ifvqf20","pricing_plan_id":"cebpf4jnsgd1na2vs0mg"},{"bike_id":"8949c00e-a81f-4148-a07a-4fc91d2f087c","system_id":"levelo_inurba_marseille","lat":43.28406,"lon":5.37519,"is_reserved":false,"is_disabled":false,"rental_uris":{"android":"levelo://app?vid=8949c00e-a81f-4148-a07a-4fc91d2f087c","ios":"levelo://app?vid=8949c00e-a81f-4148-a07a-4fc91d2f087c"},"vehicle_type_id":"4","last_reported":1732947144,"current_range_meters":38400,"station_id":"ce4bh412rcd13ifvqds0","pricing_plan_id":"cebpf4jnsgd1na2vs0mg"},{"bike_id":"52c5ec48-d9d2-4224-8f63-3b7560e41bcc","system_id":"levelo_inurba_marseille","lat":43.24176,"lon":5.39735,"is_reserved":false,"is_disabled":false,"rental_uris":{"android":"levelo://app?vid=52c5ec48-d9d2-4224-8f63-3b7560e41bcc","ios":"levelo://app?vid=52c5ec48-d9d2-4224-8f63-3b7560e41bcc"},"vehicle_type_id":"4","last_reported":1732947144,"current_range_meters":39200,"station_id":"ce4bhn12rcd13ifvqgpg","pricing_plan_id":"cebpf4jnsgd1na2vs0mg"},{"bike_id":"a233b25b-869e-422b-bf5e-63d3d8ff686f","system_id":"levelo_inurba_marseille","lat":43.30924,"lon":5.40146,"is_reserved":false,"is_disabled":true,"rental_uris":{"android":"levelo://app?vid=a233b25b-869e-422b-bf5e-63d3d8ff686f","ios":"levelo://app?vid=a233b25b-869e-422b-bf5e-63d3d8ff686f"},"vehicle_type_id":"4","last_reported":1732947144,"current_range_meters":26000,"station_id":"ce4bgvp2rcd13ifvqct0","pricing_plan_id":"cebpf4jnsgd1na2vs0mg"},{"bike_id":"9b43fa90-8002-406b-9078-95708d067095","system_id":"levelo_inurba_marseille","lat":43.28728,"lon":5.36083,"is_reserved":false,"is_disabled":false,"rental_uris":{"android":"levelo://app?vid=9b43fa90-8002-406b-9078-95708d067095","ios":"levelo://app?vid=9b43fa90-8002-406b-9078-95708d067095"},"vehicle_type_id":"4","last_reported":1732947144,"current_range_meters":39200,"station_id":"cki0cbj6b192h4jlfktg","pricing_plan_id":"cebpf4jnsgd1na2vs0mg"},{"bike_id":"759518f4-9f32-4b72-97fe-df61c6c7bd05","system_id":"levelo_inurba_marseille","lat":43.31287,"lon":5.40179,"is_reserved":false,"is_disabled":true,"rental_uris":{"android":"levelo://app?vid=759518f4-9f32-4b72-97fe-df61c6c7bd05","ios":"levelo://app?vid=759518f4-9f32-4b72-97fe-df61c6c7bd05"},"vehicle_type_id":"4","last_reported":1732947144,"current_range_meters":4000,"station_id":"ce4bh092rcd13ifvqd30","pricing_plan_id":"cebpf4jnsgd1na2vs0mg"},{"bike_id":"1a012ee7-fb29-4679-b59b-6d28f1150f72","system_id":"levelo_inurba_marseille","lat":43.30924,"lon":5.4016,"is_reserved":false,"is_disabled":false,"rental_uris":{"android":"levelo://app?vid=1a012ee7-fb29-4679-b59b-6d28f1150f72","ios":"levelo://app?vid=1a012ee7-fb29-4679-b59b-6d28f1150f72"},"vehicle_type_id":"4","last_reported":1732947144,"current_range_meters":32800,"station_id":"ce4bgvp2rcd13ifvqct0","pricing_plan_id":"cebpf4jnsgd1na2vs0mg"},{"bike_id":"ae2dbdc5-0973-4b7d-8b99-588d10a21c6f","system_id":"levelo_inurba_marseille","lat":43.25728,"lon":5.41109,"is_reserved":false,"is_disabled":false,"rental_uris":{"android":"levelo://app?vid=ae2dbdc5-0973-4b7d-8b99-588d10a21c6f","ios":"levelo://app?vid=ae2dbdc5-0973-4b7d-8b99-588d10a21c6f"},"vehicle_type_id":"4","last_reported":1732947144,"current_range_meters":38000,"station_id":"ce4bhkp2rcd13ifvqgd0","pricing_plan_id":"cebpf4jnsgd1na2vs0mg"},{"bike_id":"f7dcc4d5-519f-421b-a7fb-fd3bc2061eac","system_id":"levelo_inurba_marseille","lat":43.28669,"lon":5.36354,"is_reserved":false,"is_disabled":false,"rental_uris":{"android":"levelo://app?vid=f7dcc4d5-519f-421b-a7fb-fd3bc2061eac","ios":"levelo://app?vid=f7dcc4d5-519f-421b-a7fb-fd3bc2061eac"},"vehicle_type_id":"4","last_reported":1732947144,"current_range_meters":38000,"station_id":"ce4bhah2rcd13ifvqej0","pricing_plan_id":"cebpf4jnsgd1na2vs0mg"},{"bike_id":"ac2a4554-ffe0-4e28-9df7-abf3737df124","system_id":"levelo_inurba_marseille","lat":43.24645,"lon":5.38902,"is_reserved":false,"is_disabled":false,"rental_uris":{"android":"levelo://app?vid=ac2a4554-ffe0-4e28-9df7-abf3737df124","ios":"levelo://app?vid=ac2a4554-ffe0-4e28-9df7-abf3737df124"},"vehicle_type_id":"4","last_reported":1732947144,"current_range_meters":40000,"station_id":"ce4bhg12rcd13ifvqf60","pricing_plan_id":"cebpf4jnsgd1na2vs0mg"},{"bike_id":"018d83b4-beb9-4d8a-826b-6bf8fe633ca9","system_id":"levelo_inurba_marseille","lat":43.25502,"lon":5.3765,"is_reserved":false,"is_disabled":false,"rental_uris":{"android":"levelo://app?vid=018d83b4-beb9-4d8a-826b-6bf8fe633ca9","ios":"levelo://app?vid=018d83b4-beb9-4d8a-826b-6bf8fe633ca9"},"vehicle_type_id":"4","last_reported":1732947144,"current_range_meters":38800,"station_id":"ce4bhh12rcd13ifvqff0","pricing_plan_id":"cebpf4jnsgd1na2vs0mg"},{"bike_id":"619527db-d955-4500-890a-be5a78967425","system_id":"levelo_inurba_marseille","lat":43.23966,"lon":5.36633,"is_reserved":false,"is_disabled":false,"rental_uris":{"android":"levelo://app?vid=619527db-d955-4500-890a-be5a78967425","ios":"levelo://app?vid=619527db-d955-4500-890a-be5a78967425"},"vehicle_type_id":"4","last_reported":1732947144,"current_range_meters":38800,"station_id":"ce4bhi12rcd13ifvqfp0","pricing_plan_id":"cebpf4jnsgd1na2vs0mg"},{"bike_id":"76825390-f7dd-4a7d-90c0-4569087e47d3","system_id":"levelo_inurba_marseille","lat":43.28477,"lon":5.38411,"is_reserved":false,"is_disabled":false,"rental_uris":{"android":"levelo://app?vid=76825390-f7dd-4a7d-90c0-4569087e47d3","ios":"levelo://app?vid=76825390-f7dd-4a7d-90c0-4569087e47d3"},"vehicle_type_id":"4","last_reported":1732947144,"current_range_meters":34800,"station_id":"ce4bh512rcd13ifvqe3g","pricing_plan_id":"cebpf4jnsgd1na2vs0mg"},{"bike_id":"c2d172e1-98e6-4a29-80b6-476b9c5f1669","system_id":"levelo_inurba_marseille","lat":43.27633,"lon":5.36115,"is_reserved":false,"is_disabled":false,"rental_uris":{"android":"levelo://app?vid=c2d172e1-98e6-4a29-80b6-476b9c5f1669","ios":"levelo://app?vid=c2d172e1-98e6-4a29-80b6-476b9c5f1669"},"vehicle_type_id":"4","last_reported":1732947144,"current_range_meters":38800,"station_id":"ce4bgj92rcd13ifvqbe0","pricing_plan_id":"cebpf4jnsgd1na2vs0mg"},{"bike_id":"01dd4a61-2932-478c-bb90-a182878898af","system_id":"levelo_inurba_marseille","lat":43.3153,"lon":5.38033,"is_reserved":false,"is_disabled":false,"rental_uris":{"android":"levelo://app?vid=01dd4a61-2932-478c-bb90-a182878898af","ios":"levelo://app?vid=01dd4a61-2932-478c-bb90-a182878898af"},"vehicle_type_id":"4","last_reported":1732947144,"current_range_meters":39200,"station_id":"ce4bhsp2rcd13ifvqi50","pricing_plan_id":"cebpf4jnsgd1na2vs0mg"},{"bike_id":"0676ead7-2862-4703-9538-361a0c198d14","system_id":"levelo_inurba_marseille","lat":43.25081,"lon":5.39537,"is_reserved":false,"is_disabled":false,"rental_uris":{"android":"levelo://app?vid=0676ead7-2862-4703-9538-361a0c198d14","ios":"levelo://app?vid=0676ead7-2862-4703-9538-361a0c198d14"},"vehicle_type_id":"4","last_reported":1732947144,"current_range_meters":24400,"station_id":"ce4bhm12rcd13ifvqgkg","pricing_plan_id":"cebpf4jnsgd1na2vs0mg"},{"bike_id":"280db94a-4ac4-4031-b0d5-2e80acdca75b","system_id":"levelo_inurba_marseille","lat":43.30688,"lon":5.40033,"is_reserved":false,"is_disabled":true,"rental_uris":{"android":"levelo://app?vid=280db94a-4ac4-4031-b0d5-2e80acdca75b","ios":"levelo://app?vid=280db94a-4ac4-4031-b0d5-2e80acdca75b"},"vehicle_type_id":"4","last_reported":1732947144,"current_range_meters":1200,"station_id":"","pricing_plan_id":"cebpf4jnsgd1na2vs0mg"},{"bike_id":"33049e50-f02c-4c99-9f9f-5407f5025668","system_id":"levelo_inurba_marseille","lat":43.29855,"lon":5.39734,"is_reserved":false,"is_disabled":true,"rental_uris":{"android":"levelo://app?vid=33049e50-f02c-4c99-9f9f-5407f5025668","ios":"levelo://app?vid=33049e50-f02c-4c99-9f9f-5407f5025668"},"vehicle_type_id":"4","last_reported":1732947144,"current_range_meters":0,"station_id":"ce4bh0h2rcd13ifvqd50","pricing_plan_id":"cebpf4jnsgd1na2vs0mg"},{"bike_id":"c872430b-cdb2-4c01-90a7-0a81173bfaa1","system_id":"levelo_inurba_marseille","lat":43.27989,"lon":5.41666,"is_reserved":false,"is_disabled":false,"rental_uris":{"android":"levelo://app?vid=c872430b-cdb2-4c01-90a7-0a81173bfaa1","ios":"levelo://app?vid=c872430b-cdb2-4c01-90a7-0a81173bfaa1"},"vehicle_type_id":"4","last_reported":1732947144,"current_range_meters":38800,"station_id":"ce4bho12rcd13ifvqh1g","pricing_plan_id":"cebpf4jnsgd1na2vs0mg"},{"bike_id":"d0dc94cc-b94b-4064-b42d-d702bb3c732d","system_id":"levelo_inurba_marseille","lat":43.31701,"lon":5.37743,"is_reserved":false,"is_disabled":false,"rental_uris":{"android":"levelo://app?vid=d0dc94cc-b94b-4064-b42d-d702bb3c732d","ios":"levelo://app?vid=d0dc94cc-b94b-4064-b42d-d702bb3c732d"},"vehicle_type_id":"4","last_reported":1732947144,"current_range_meters":38800,"station_id":"ce4bgth2rcd13ifvqch0","pricing_plan_id":"cebpf4jnsgd1na2vs0mg"},{"bike_id":"9b5b7b4c-38d3-45c8-835a-e199461c2717","system_id":"levelo_inurba_marseille","lat":43.30655,"lon":5.40086,"is_reserved":false,"is_disabled":false,"rental_uris":{"android":"levelo://app?vid=9b5b7b4c-38d3-45c8-835a-e199461c2717","ios":"levelo://app?vid=9b5b7b4c-38d3-45c8-835a-e199461c2717"},"vehicle_type_id":"4","last_reported":1732947144,"current_range_meters":27600,"station_id":"ce4bh112rcd13ifvqda0","pricing_plan_id":"cebpf4jnsgd1na2vs0mg"},{"bike_id":"2839c06e-dfc6-4bb4-92dd-cd78c43581f0","system_id":"levelo_inurba_marseille","lat":43.23195,"lon":5.35545,"is_reserved":false,"is_disabled":false,"rental_uris":{"android":"levelo://app?vid=2839c06e-dfc6-4bb4-92dd-cd78c43581f0","ios":"levelo://app?vid=2839c06e-dfc6-4bb4-92dd-cd78c43581f0"},"vehicle_type_id":"4","last_reported":1732947144,"current_range_meters":16000,"station_id":"ce4bhu92rcd13ifvqi70","pricing_plan_id":"cebpf4jnsgd1na2vs0mg"},{"bike_id":"b65e2ee9-f5ce-49bc-8dea-f18fe08be424","system_id":"levelo_inurba_marseille","lat":43.29313,"lon":5.37194,"is_reserved":false,"is_disabled":true,"rental_uris":{"android":"levelo://app?vid=b65e2ee9-f5ce-49bc-8dea-f18fe08be424","ios":"levelo://app?vid=b65e2ee9-f5ce-49bc-8dea-f18fe08be424"},"vehicle_type_id":"4","last_reported":1732947144,"current_range_meters":1600,"station_id":"ce4bgh92rcd13ifvqb40","pricing_plan_id":"cebpf4jnsgd1na2vs0mg"},{"bike_id":"379b779e-1a20-4f52-8be0-066b2181a3e6","system_id":"levelo_inurba_marseille","lat":43.295757,"lon":5.375076,"is_reserved":false,"is_disabled":true,"rental_uris":{"android":"levelo://app?vid=379b779e-1a20-4f52-8be0-066b2181a3e6","ios":"levelo://app?vid=379b779e-1a20-4f52-8be0-066b2181a3e6"},"vehicle_type_id":"4","last_reported":1732947144,"current_range_meters":36800,"station_id":"ce4bgh92rcd13ifvqb50","pricing_plan_id":"cebpf4jnsgd1na2vs0mg"},{"bike_id":"8e4762e3-fcb7-4957-8033-dc75fdd52758","system_id":"levelo_inurba_marseille","lat":43.29435,"lon":5.39754,"is_reserved":false,"is_disabled":false,"rental_uris":{"android":"levelo://app?vid=8e4762e3-fcb7-4957-8033-dc75fdd52758","ios":"levelo://app?vid=8e4762e3-fcb7-4957-8033-dc75fdd52758"},"vehicle_type_id":"4","last_reported":1732947144,"current_range_meters":18000,"station_id":"ce4bh3h2rcd13ifvqdo0","pricing_plan_id":"cebpf4jnsgd1na2vs0mg"},{"bike_id":"fe1c6c60-0f4f-4b5c-a7ea-9f2ff8347245","system_id":"levelo_inurba_marseille","lat":43.27617,"lon":5.36114,"is_reserved":false,"is_disabled":true,"rental_uris":{"android":"levelo://app?vid=fe1c6c60-0f4f-4b5c-a7ea-9f2ff8347245","ios":"levelo://app?vid=fe1c6c60-0f4f-4b5c-a7ea-9f2ff8347245"},"vehicle_type_id":"4","last_reported":1732947144,"current_range_meters":38000,"station_id":"ce4bgj92rcd13ifvqbe0","pricing_plan_id":"cebpf4jnsgd1na2vs0mg"},{"bike_id":"4abebe2b-dec7-442c-a6a0-da33deb742de","system_id":"levelo_inurba_marseille","lat":43.321089,"lon":5.367993,"is_reserved":false,"is_disabled":false,"rental_uris":{"android":"levelo://app?vid=4abebe2b-dec7-442c-a6a0-da33deb742de","ios":"levelo://app?vid=4abebe2b-dec7-442c-a6a0-da33deb742de"},"vehicle_type_id":"4","last_reported":1732947144,"current_range_meters":38400,"station_id":"ce4bhrh2rcd13ifvqhug","pricing_plan_id":"cebpf4jnsgd1na2vs0mg"},{"bike_id":"d2a9a511-4195-4028-87e5-b8a39536c4a6","system_id":"levelo_inurba_marseille","lat":43.28684,"lon":5.37393,"is_reserved":false,"is_disabled":false,"rental_uris":{"android":"levelo://app?vid=d2a9a511-4195-4028-87e5-b8a39536c4a6","ios":"levelo://app?vid=d2a9a511-4195-4028-87e5-b8a39536c4a6"},"vehicle_type_id":"4","last_reported":1732947144,"current_range_meters":30800,"station_id":"ce4bh3p2rcd13ifvqdq0","pricing_plan_id":"cebpf4jnsgd1na2vs0mg"},{"bike_id":"95e16b67-0d53-4cca-8aaa-2b831d4e43c6","system_id":"levelo_inurba_marseille","lat":43.33024,"lon":5.39037,"is_reserved":false,"is_disabled":false,"rental_uris":{"android":"levelo://app?vid=95e16b67-0d53-4cca-8aaa-2b831d4e43c6","ios":"levelo://app?vid=95e16b67-0d53-4cca-8aaa-2b831d4e43c6"},"vehicle_type_id":"4","last_reported":1732947144,"current_range_meters":28400,"station_id":"ce4bhr92rcd13ifvqhrg","pricing_plan_id":"cebpf4jnsgd1na2vs0mg"},{"bike_id":"e1ed9fd0-04ec-494b-a15e-016fe3367960","system_id":"levelo_inurba_marseille","lat":43.29902,"lon":5.38151,"is_reserved":false,"is_disabled":false,"rental_uris":{"android":"levelo://app?vid=e1ed9fd0-04ec-494b-a15e-016fe3367960","ios":"levelo://app?vid=e1ed9fd0-04ec-494b-a15e-016fe3367960"},"vehicle_type_id":"4","last_reported":1732947144,"current_range_meters":38000,"station_id":"ce4bgj12rcd13ifvqbc0","pricing_plan_id":"cebpf4jnsgd1na2vs0mg"},{"bike_id":"5434a019-cad8-494b-9068-6f248b69b4ad","system_id":"levelo_inurba_marseille","lat":43.25868,"lon":5.39894,"is_reserved":false,"is_disabled":false,"rental_uris":{"android":"levelo://app?vid=5434a019-cad8-494b-9068-6f248b69b4ad","ios":"levelo://app?vid=5434a019-cad8-494b-9068-6f248b69b4ad"},"vehicle_type_id":"4","last_reported":1732947144,"current_range_meters":38400,"station_id":"ce4bhl92rcd13ifvqghg","pricing_plan_id":"cebpf4jnsgd1na2vs0mg"},{"bike_id":"0f17f004-1308-4dc1-baa4-8e9fe8d97b2d","system_id":"levelo_inurba_marseille","lat":43.25734,"lon":5.41137,"is_reserved":false,"is_disabled":false,"rental_uris":{"android":"levelo://app?vid=0f17f004-1308-4dc1-baa4-8e9fe8d97b2d","ios":"levelo://app?vid=0f17f004-1308-4dc1-baa4-8e9fe8d97b2d"},"vehicle_type_id":"4","last_reported":1732947144,"current_range_meters":25200,"station_id":"ce4bhkp2rcd13ifvqgd0","pricing_plan_id":"cebpf4jnsgd1na2vs0mg"},{"bike_id":"a6622c8e-a345-4fa3-9671-ecb3cc3299b3","system_id":"levelo_inurba_marseille","lat":43.25104,"lon":5.40332,"is_reserved":false,"is_disabled":false,"rental_uris":{"android":"levelo://app?vid=a6622c8e-a345-4fa3-9671-ecb3cc3299b3","ios":"levelo://app?vid=a6622c8e-a345-4fa3-9671-ecb3cc3299b3"},"vehicle_type_id":"4","last_reported":1732947144,"current_range_meters":39200,"station_id":"ce4bhlh2rcd13ifvqgig","pricing_plan_id":"cebpf4jnsgd1na2vs0mg"},{"bike_id":"0a6cb623-d052-4c80-95be-635004795b3a","system_id":"levelo_inurba_marseille","lat":43.25105,"lon":5.40331,"is_reserved":false,"is_disabled":false,"rental_uris":{"android":"levelo://app?vid=0a6cb623-d052-4c80-95be-635004795b3a","ios":"levelo://app?vid=0a6cb623-d052-4c80-95be-635004795b3a"},"vehicle_type_id":"4","last_reported":1732947144,"current_range_meters":25600,"station_id":"ce4bhlh2rcd13ifvqgig","pricing_plan_id":"cebpf4jnsgd1na2vs0mg"},{"bike_id":"a2a628f3-3624-40ea-81dc-927872a6fe69","system_id":"levelo_inurba_marseille","lat":43.30592,"lon":5.39354,"is_reserved":false,"is_disabled":true,"rental_uris":{"android":"levelo://app?vid=a2a628f3-3624-40ea-81dc-927872a6fe69","ios":"levelo://app?vid=a2a628f3-3624-40ea-81dc-927872a6fe69"},"vehicle_type_id":"4","last_reported":1732947144,"current_range_meters":0,"station_id":"ce4bh0p2rcd13ifvqd80","pricing_plan_id":"cebpf4jnsgd1na2vs0mg"},{"bike_id":"07b13898-8bee-4da1-8a9b-958623a7893d","system_id":"levelo_inurba_marseille","lat":43.30928,"lon":5.40147,"is_reserved":false,"is_disabled":false,"rental_uris":{"android":"levelo://app?vid=07b13898-8bee-4da1-8a9b-958623a7893d","ios":"levelo://app?vid=07b13898-8bee-4da1-8a9b-958623a7893d"},"vehicle_type_id":"4","last_reported":1732947144,"current_range_meters":39200,"station_id":"ce4bgvp2rcd13ifvqct0","pricing_plan_id":"cebpf4jnsgd1na2vs0mg"},{"bike_id":"92f7af08-1e68-4dac-b2ef-bf956ed706be","system_id":"levelo_inurba_marseille","lat":43.28104,"lon":5.37839,"is_reserved":false,"is_disabled":false,"rental_uris":{"android":"levelo://app?vid=92f7af08-1e68-4dac-b2ef-bf956ed706be","ios":"levelo://app?vid=92f7af08-1e68-4dac-b2ef-bf956ed706be"},"vehicle_type_id":"4","last_reported":1732947144,"current_range_meters":4000,"station_id":"ce4bha12rcd13ifvqee0","pricing_plan_id":"cebpf4jnsgd1na2vs0mg"},{"bike_id":"aed335d6-97c4-490f-94db-7d1da5c9ad3c","system_id":"levelo_inurba_marseille","lat":43.29626,"lon":5.40597,"is_reserved":false,"is_disabled":false,"rental_uris":{"android":"levelo://app?vid=aed335d6-97c4-490f-94db-7d1da5c9ad3c","ios":"levelo://app?vid=aed335d6-97c4-490f-94db-7d1da5c9ad3c"},"vehicle_type_id":"4","last_reported":1732947144,"current_range_meters":8800,"station_id":"ce4bh0h2rcd13ifvqd60","pricing_plan_id":"cebpf4jnsgd1na2vs0mg"},{"bike_id":"3acac616-bde1-4eca-84b4-53ec439ad165","system_id":"levelo_inurba_marseille","lat":43.30461,"lon":5.37922,"is_reserved":false,"is_disabled":false,"rental_uris":{"android":"levelo://app?vid=3acac616-bde1-4eca-84b4-53ec439ad165","ios":"levelo://app?vid=3acac616-bde1-4eca-84b4-53ec439ad165"},"vehicle_type_id":"4","last_reported":1732947144,"current_range_meters":38000,"station_id":"ce4bgup2rcd13ifvqcn0","pricing_plan_id":"cebpf4jnsgd1na2vs0mg"},{"bike_id":"9dd1fc98-a89e-437a-b707-6eb8b3c899e8","system_id":"levelo_inurba_marseille","lat":43.29044,"lon":5.35932,"is_reserved":false,"is_disabled":true,"rental_uris":{"android":"levelo://app?vid=9dd1fc98-a89e-437a-b707-6eb8b3c899e8","ios":"levelo://app?vid=9dd1fc98-a89e-437a-b707-6eb8b3c899e8"},"vehicle_type_id":"4","last_reported":1732947144,"current_range_meters":2000,"station_id":"ce4bha92rcd13ifvqeg0","pricing_plan_id":"cebpf4jnsgd1na2vs0mg"},{"bike_id":"7458f4e3-abc6-4f83-832b-9a346124f3ed","system_id":"levelo_inurba_marseille","lat":43.25721,"lon":5.41113,"is_reserved":false,"is_disabled":false,"rental_uris":{"android":"levelo://app?vid=7458f4e3-abc6-4f83-832b-9a346124f3ed","ios":"levelo://app?vid=7458f4e3-abc6-4f83-832b-9a346124f3ed"},"vehicle_type_id":"4","last_reported":1732947144,"current_range_meters":16000,"station_id":"ce4bhkp2rcd13ifvqgd0","pricing_plan_id":"cebpf4jnsgd1na2vs0mg"},{"bike_id":"1b751b96-b525-44d3-b2a2-b74407b81de6","system_id":"levelo_inurba_marseille","lat":43.27993,"lon":5.40012,"is_reserved":false,"is_disabled":false,"rental_uris":{"android":"levelo://app?vid=1b751b96-b525-44d3-b2a2-b74407b81de6","ios":"levelo://app?vid=1b751b96-b525-44d3-b2a2-b74407b81de6"},"vehicle_type_id":"4","last_reported":1732947144,"current_range_meters":38000,"station_id":"ce4bho92rcd13ifvqh4g","pricing_plan_id":"cebpf4jnsgd1na2vs0mg"},{"bike_id":"a1da46ac-0823-493f-ac56-218330798636","system_id":"levelo_inurba_marseille","lat":43.24374,"lon":5.37051,"is_reserved":false,"is_disabled":false,"rental_uris":{"android":"levelo://app?vid=a1da46ac-0823-493f-ac56-218330798636","ios":"levelo://app?vid=a1da46ac-0823-493f-ac56-218330798636"},"vehicle_type_id":"4","last_reported":1732947144,"current_range_meters":38800,"station_id":"ce4bhhh2rcd13ifvqfk0","pricing_plan_id":"cebpf4jnsgd1na2vs0mg"},{"bike_id":"7307f0e4-31af-411a-ab43-8b99ae660981","system_id":"levelo_inurba_marseille","lat":43.28691,"lon":5.3739,"is_reserved":false,"is_disabled":false,"rental_uris":{"android":"levelo://app?vid=7307f0e4-31af-411a-ab43-8b99ae660981","ios":"levelo://app?vid=7307f0e4-31af-411a-ab43-8b99ae660981"},"vehicle_type_id":"4","last_reported":1732947144,"current_range_meters":39200,"station_id":"ce4bh3p2rcd13ifvqdq0","pricing_plan_id":"cebpf4jnsgd1na2vs0mg"},{"bike_id":"a5909545-3e09-4859-9fda-9ffe4e6e4883","system_id":"levelo_inurba_marseille","lat":43.23066,"lon":5.35492,"is_reserved":false,"is_disabled":false,"rental_uris":{"android":"levelo://app?vid=a5909545-3e09-4859-9fda-9ffe4e6e4883","ios":"levelo://app?vid=a5909545-3e09-4859-9fda-9ffe4e6e4883"},"vehicle_type_id":"4","last_reported":1732947144,"current_range_meters":12800,"station_id":"cpo3342slgdg3j2ifvpg","pricing_plan_id":"cebpf4jnsgd1na2vs0mg"},{"bike_id":"c54fa7c9-a127-4d75-ac3d-fe8ea889edd3","system_id":"levelo_inurba_marseille","lat":43.3015,"lon":5.39875,"is_reserved":false,"is_disabled":true,"rental_uris":{"android":"levelo://app?vid=c54fa7c9-a127-4d75-ac3d-fe8ea889edd3","ios":"levelo://app?vid=c54fa7c9-a127-4d75-ac3d-fe8ea889edd3"},"vehicle_type_id":"4","last_reported":1732947144,"current_range_meters":38800,"station_id":"ce4bh0h2rcd13ifvqd40","pricing_plan_id":"cebpf4jnsgd1na2vs0mg"},{"bike_id":"a99c4b50-ed6f-4692-809b-22df41f741dc","system_id":"levelo_inurba_marseille","lat":43.28275,"lon":5.35073,"is_reserved":false,"is_disabled":false,"rental_uris":{"android":"levelo://app?vid=a99c4b50-ed6f-4692-809b-22df41f741dc","ios":"levelo://app?vid=a99c4b50-ed6f-4692-809b-22df41f741dc"},"vehicle_type_id":"4","last_reported":1732947144,"current_range_meters":16000,"station_id":"ce4bhbp2rcd13ifvqerg","pricing_plan_id":"cebpf4jnsgd1na2vs0mg"},{"bike_id":"8a706c0a-83d1-44fa-9127-38cdaec2557e","system_id":"levelo_inurba_marseille","lat":43.31324,"lon":5.39699,"is_reserved":false,"is_disabled":false,"rental_uris":{"android":"levelo://app?vid=8a706c0a-83d1-44fa-9127-38cdaec2557e","ios":"levelo://app?vid=8a706c0a-83d1-44fa-9127-38cdaec2557e"},"vehicle_type_id":"4","last_reported":1732947144,"current_range_meters":38800,"station_id":"ce4bgvp2rcd13ifvqcu0","pricing_plan_id":"cebpf4jnsgd1na2vs0mg"},{"bike_id":"78716590-acd8-4375-8266-67d9a41d59a7","system_id":"levelo_inurba_marseille","lat":43.32336,"lon":5.38924,"is_reserved":false,"is_disabled":false,"rental_uris":{"android":"levelo://app?vid=78716590-acd8-4375-8266-67d9a41d59a7","ios":"levelo://app?vid=78716590-acd8-4375-8266-67d9a41d59a7"},"vehicle_type_id":"4","last_reported":1732947144,"current_range_meters":32000,"station_id":"ce4bhqp2rcd13ifvqhog","pricing_plan_id":"cebpf4jnsgd1na2vs0mg"},{"bike_id":"66b3a864-e260-4a71-bc51-0f24aaa4eea8","system_id":"levelo_inurba_marseille","lat":43.2963,"lon":5.40598,"is_reserved":false,"is_disabled":false,"rental_uris":{"android":"levelo://app?vid=66b3a864-e260-4a71-bc51-0f24aaa4eea8","ios":"levelo://app?vid=66b3a864-e260-4a71-bc51-0f24aaa4eea8"},"vehicle_type_id":"4","last_reported":1732947144,"current_range_meters":36400,"station_id":"ce4bh0h2rcd13ifvqd60","pricing_plan_id":"cebpf4jnsgd1na2vs0mg"},{"bike_id":"7d915583-b887-4aeb-8816-82444c1b5b57","system_id":"levelo_inurba_marseille","lat":43.27987,"lon":5.41665,"is_reserved":false,"is_disabled":false,"rental_uris":{"android":"levelo://app?vid=7d915583-b887-4aeb-8816-82444c1b5b57","ios":"levelo://app?vid=7d915583-b887-4aeb-8816-82444c1b5b57"},"vehicle_type_id":"4","last_reported":1732947144,"current_range_meters":24400,"station_id":"ce4bho12rcd13ifvqh1g","pricing_plan_id":"cebpf4jnsgd1na2vs0mg"},{"bike_id":"645c606c-68ed-422b-af50-4155f76d4c2c","system_id":"levelo_inurba_marseille","lat":43.3015,"lon":5.38083,"is_reserved":false,"is_disabled":false,"rental_uris":{"android":"levelo://app?vid=645c606c-68ed-422b-af50-4155f76d4c2c","ios":"levelo://app?vid=645c606c-68ed-422b-af50-4155f76d4c2c"},"vehicle_type_id":"4","last_reported":1732947144,"current_range_meters":24000,"station_id":"ce4bgjp2rcd13ifvqbh0","pricing_plan_id":"cebpf4jnsgd1na2vs0mg"},{"bike_id":"e5951ee3-4a5a-4ebb-b469-096c5188dfa3","system_id":"levelo_inurba_marseille","lat":43.23172,"lon":5.35585,"is_reserved":false,"is_disabled":false,"rental_uris":{"android":"levelo://app?vid=e5951ee3-4a5a-4ebb-b469-096c5188dfa3","ios":"levelo://app?vid=e5951ee3-4a5a-4ebb-b469-096c5188dfa3"},"vehicle_type_id":"4","last_reported":1732947144,"current_range_meters":20400,"station_id":"ce4bhu92rcd13ifvqi70","pricing_plan_id":"cebpf4jnsgd1na2vs0mg"},{"bike_id":"f9a63393-5401-4f98-ae5a-dfbb8291ab6d","system_id":"levelo_inurba_marseille","lat":43.3004,"lon":5.37551,"is_reserved":false,"is_disabled":true,"rental_uris":{"android":"levelo://app?vid=f9a63393-5401-4f98-ae5a-dfbb8291ab6d","ios":"levelo://app?vid=f9a63393-5401-4f98-ae5a-dfbb8291ab6d"},"vehicle_type_id":"4","last_reported":1732947144,"current_range_meters":0,"station_id":"","pricing_plan_id":"cebpf4jnsgd1na2vs0mg"},{"bike_id":"d2300a67-e59d-4c6d-84e8-89c1777cddcc","system_id":"levelo_inurba_marseille","lat":43.31994,"lon":5.38143,"is_reserved":false,"is_disabled":false,"rental_uris":{"android":"levelo://app?vid=d2300a67-e59d-4c6d-84e8-89c1777cddcc","ios":"levelo://app?vid=d2300a67-e59d-4c6d-84e8-89c1777cddcc"},"vehicle_type_id":"4","last_reported":1732947144,"current_range_meters":38800,"station_id":"ce4bhr12rcd13ifvqhpg","pricing_plan_id":"cebpf4jnsgd1na2vs0mg"},{"bike_id":"3ce2fffb-4d51-444b-8bb2-5cd62ad86f77","system_id":"levelo_inurba_marseille","lat":43.31286,"lon":5.40182,"is_reserved":false,"is_disabled":false,"rental_uris":{"android":"levelo://app?vid=3ce2fffb-4d51-444b-8bb2-5cd62ad86f77","ios":"levelo://app?vid=3ce2fffb-4d51-444b-8bb2-5cd62ad86f77"},"vehicle_type_id":"4","last_reported":1732947144,"current_range_meters":38800,"station_id":"ce4bh092rcd13ifvqd30","pricing_plan_id":"cebpf4jnsgd1na2vs0mg"},{"bike_id":"e6255c20-ab66-4554-b49e-8f9f2441cb68","system_id":"levelo_inurba_marseille","lat":43.27984,"lon":5.41635,"is_reserved":false,"is_disabled":false,"rental_uris":{"android":"levelo://app?vid=e6255c20-ab66-4554-b49e-8f9f2441cb68","ios":"levelo://app?vid=e6255c20-ab66-4554-b49e-8f9f2441cb68"},"vehicle_type_id":"4","last_reported":1732947144,"current_range_meters":29600,"station_id":"ce4bho12rcd13ifvqh1g","pricing_plan_id":"cebpf4jnsgd1na2vs0mg"},{"bike_id":"209edce5-94bd-42b7-894c-233f806592a5","system_id":"levelo_inurba_marseille","lat":43.323613,"lon":5.367593,"is_reserved":false,"is_disabled":false,"rental_uris":{"android":"levelo://app?vid=209edce5-94bd-42b7-894c-233f806592a5","ios":"levelo://app?vid=209edce5-94bd-42b7-894c-233f806592a5"},"vehicle_type_id":"4","last_reported":1732947144,"current_range_meters":29600,"station_id":"ce4bhsh2rcd13ifvqi2g","pricing_plan_id":"cebpf4jnsgd1na2vs0mg"},{"bike_id":"cb90edb8-6b97-4f13-aaf4-7fc553c35336","system_id":"levelo_inurba_marseille","lat":43.31676,"lon":5.37763,"is_reserved":false,"is_disabled":false,"rental_uris":{"android":"levelo://app?vid=cb90edb8-6b97-4f13-aaf4-7fc553c35336","ios":"levelo://app?vid=cb90edb8-6b97-4f13-aaf4-7fc553c35336"},"vehicle_type_id":"4","last_reported":1732947144,"current_range_meters":35200,"station_id":"ce4bgth2rcd13ifvqch0","pricing_plan_id":"cebpf4jnsgd1na2vs0mg"},{"bike_id":"ca671336-3c2c-4fe2-bd8e-7dcbd7736b5e","system_id":"levelo_inurba_marseille","lat":43.323334,"lon":5.406247,"is_reserved":false,"is_disabled":false,"rental_uris":{"android":"levelo://app?vid=ca671336-3c2c-4fe2-bd8e-7dcbd7736b5e","ios":"levelo://app?vid=ca671336-3c2c-4fe2-bd8e-7dcbd7736b5e"},"vehicle_type_id":"4","last_reported":1732947144,"current_range_meters":26000,"station_id":"ce4bhq92rcd13ifvqhjg","pricing_plan_id":"cebpf4jnsgd1na2vs0mg"},{"bike_id":"bba82484-d6d2-4eb9-a24b-0fee4128de51","system_id":"levelo_inurba_marseille","lat":43.30146,"lon":5.3879,"is_reserved":false,"is_disabled":true,"rental_uris":{"android":"levelo://app?vid=bba82484-d6d2-4eb9-a24b-0fee4128de51","ios":"levelo://app?vid=bba82484-d6d2-4eb9-a24b-0fee4128de51"},"vehicle_type_id":"4","last_reported":1732947144,"current_range_meters":0,"station_id":"ce4bghh2rcd13ifvqb60","pricing_plan_id":"cebpf4jnsgd1na2vs0mg"},{"bike_id":"a1de088e-f9bc-437b-86db-027b9d5a0352","system_id":"levelo_inurba_marseille","lat":43.33023,"lon":5.3904,"is_reserved":false,"is_disabled":false,"rental_uris":{"android":"levelo://app?vid=a1de088e-f9bc-437b-86db-027b9d5a0352","ios":"levelo://app?vid=a1de088e-f9bc-437b-86db-027b9d5a0352"},"vehicle_type_id":"4","last_reported":1732947144,"current_range_meters":37600,"station_id":"ce4bhr92rcd13ifvqhrg","pricing_plan_id":"cebpf4jnsgd1na2vs0mg"},{"bike_id":"ca0d7f16-64f7-440d-b3a5-3cffc2476785","system_id":"levelo_inurba_marseille","lat":43.30154,"lon":5.39881,"is_reserved":false,"is_disabled":false,"rental_uris":{"android":"levelo://app?vid=ca0d7f16-64f7-440d-b3a5-3cffc2476785","ios":"levelo://app?vid=ca0d7f16-64f7-440d-b3a5-3cffc2476785"},"vehicle_type_id":"4","last_reported":1732947144,"current_range_meters":38800,"station_id":"ce4bh0h2rcd13ifvqd40","pricing_plan_id":"cebpf4jnsgd1na2vs0mg"},{"bike_id":"de8dedfd-c65e-4ce5-b8ec-b5ab34a22a6e","system_id":"levelo_inurba_marseille","lat":43.27068,"lon":5.42271,"is_reserved":false,"is_disabled":true,"rental_uris":{"android":"levelo://app?vid=de8dedfd-c65e-4ce5-b8ec-b5ab34a22a6e","ios":"levelo://app?vid=de8dedfd-c65e-4ce5-b8ec-b5ab34a22a6e"},"vehicle_type_id":"4","last_reported":1732947144,"current_range_meters":39200,"station_id":"ce4bhk92rcd13ifvqgb0","pricing_plan_id":"cebpf4jnsgd1na2vs0mg"},{"bike_id":"de4ae613-0f4d-48a6-a364-cb3a9285befc","system_id":"levelo_inurba_marseille","lat":43.28154,"lon":5.42643,"is_reserved":false,"is_disabled":false,"rental_uris":{"android":"levelo://app?vid=de4ae613-0f4d-48a6-a364-cb3a9285befc","ios":"levelo://app?vid=de4ae613-0f4d-48a6-a364-cb3a9285befc"},"vehicle_type_id":"4","last_reported":1732947144,"current_range_meters":18000,"station_id":"ce4bhnh2rcd13ifvqgug","pricing_plan_id":"cebpf4jnsgd1na2vs0mg"},{"bike_id":"38798db8-5bd5-4792-b41b-6f809d1b1c45","system_id":"levelo_inurba_marseille","lat":43.31991,"lon":5.38117,"is_reserved":false,"is_disabled":false,"rental_uris":{"android":"levelo://app?vid=38798db8-5bd5-4792-b41b-6f809d1b1c45","ios":"levelo://app?vid=38798db8-5bd5-4792-b41b-6f809d1b1c45"},"vehicle_type_id":"4","last_reported":1732947144,"current_range_meters":19600,"station_id":"ce4bhr12rcd13ifvqhpg","pricing_plan_id":"cebpf4jnsgd1na2vs0mg"},{"bike_id":"fe9be248-2d6c-46fc-a6b6-8c4fc6f4bc6c","system_id":"levelo_inurba_marseille","lat":43.29871,"lon":5.38909,"is_reserved":false,"is_disabled":false,"rental_uris":{"android":"levelo://app?vid=fe9be248-2d6c-46fc-a6b6-8c4fc6f4bc6c","ios":"levelo://app?vid=fe9be248-2d6c-46fc-a6b6-8c4fc6f4bc6c"},"vehicle_type_id":"4","last_reported":1732947144,"current_range_meters":37600,"station_id":"ce4bh392rcd13ifvqdl0","pricing_plan_id":"cebpf4jnsgd1na2vs0mg"},{"bike_id":"375f3ff8-f817-4dea-ba6a-e7f3d0cf2b56","system_id":"levelo_inurba_marseille","lat":43.280411,"lon":5.369482,"is_reserved":false,"is_disabled":false,"rental_uris":{"android":"levelo://app?vid=375f3ff8-f817-4dea-ba6a-e7f3d0cf2b56","ios":"levelo://app?vid=375f3ff8-f817-4dea-ba6a-e7f3d0cf2b56"},"vehicle_type_id":"4","last_reported":1732947144,"current_range_meters":38800,"station_id":"ce4bha12rcd13ifvqef0","pricing_plan_id":"cebpf4jnsgd1na2vs0mg"},{"bike_id":"f05403b4-7fc6-4ed9-83e5-21728471368c","system_id":"levelo_inurba_marseille","lat":43.30803,"lon":5.3816,"is_reserved":false,"is_disabled":false,"rental_uris":{"android":"levelo://app?vid=f05403b4-7fc6-4ed9-83e5-21728471368c","ios":"levelo://app?vid=f05403b4-7fc6-4ed9-83e5-21728471368c"},"vehicle_type_id":"4","last_reported":1732947144,"current_range_meters":37600,"station_id":"ce4bgt12rcd13ifvqce0","pricing_plan_id":"cebpf4jnsgd1na2vs0mg"},{"bike_id":"50f255d1-fdb4-49d7-9b2f-23e854e0bb06","system_id":"levelo_inurba_marseille","lat":43.30804,"lon":5.38167,"is_reserved":false,"is_disabled":false,"rental_uris":{"android":"levelo://app?vid=50f255d1-fdb4-49d7-9b2f-23e854e0bb06","ios":"levelo://app?vid=50f255d1-fdb4-49d7-9b2f-23e854e0bb06"},"vehicle_type_id":"4","last_reported":1732947144,"current_range_meters":38400,"station_id":"ce4bgt12rcd13ifvqce0","pricing_plan_id":"cebpf4jnsgd1na2vs0mg"},{"bike_id":"ced6f6fa-1cfb-4262-99ab-9eb61311c35b","system_id":"levelo_inurba_marseille","lat":43.312702,"lon":5.401709,"is_reserved":false,"is_disabled":false,"rental_uris":{"android":"levelo://app?vid=ced6f6fa-1cfb-4262-99ab-9eb61311c35b","ios":"levelo://app?vid=ced6f6fa-1cfb-4262-99ab-9eb61311c35b"},"vehicle_type_id":"4","last_reported":1732947144,"current_range_meters":28800,"station_id":"ce4bh092rcd13ifvqd30","pricing_plan_id":"cebpf4jnsgd1na2vs0mg"},{"bike_id":"c43fffd1-108f-4493-9c53-d2971d2b16a2","system_id":"levelo_inurba_marseille","lat":43.32917,"lon":5.41563,"is_reserved":false,"is_disabled":false,"rental_uris":{"android":"levelo://app?vid=c43fffd1-108f-4493-9c53-d2971d2b16a2","ios":"levelo://app?vid=c43fffd1-108f-4493-9c53-d2971d2b16a2"},"vehicle_type_id":"4","last_reported":1732947144,"current_range_meters":22800,"station_id":"","pricing_plan_id":"cebpf4jnsgd1na2vs0mg"},{"bike_id":"cf002d38-17c9-44fd-9354-c7910c4bd3ff","system_id":"levelo_inurba_marseille","lat":43.33019,"lon":5.39033,"is_reserved":false,"is_disabled":false,"rental_uris":{"android":"levelo://app?vid=cf002d38-17c9-44fd-9354-c7910c4bd3ff","ios":"levelo://app?vid=cf002d38-17c9-44fd-9354-c7910c4bd3ff"},"vehicle_type_id":"4","last_reported":1732947144,"current_range_meters":38000,"station_id":"ce4bhr92rcd13ifvqhrg","pricing_plan_id":"cebpf4jnsgd1na2vs0mg"},{"bike_id":"cd5bdb0e-c660-491a-873e-6f6fa50987b8","system_id":"levelo_inurba_marseille","lat":43.29278,"lon":5.36847,"is_reserved":false,"is_disabled":false,"rental_uris":{"android":"levelo://app?vid=cd5bdb0e-c660-491a-873e-6f6fa50987b8","ios":"levelo://app?vid=cd5bdb0e-c660-491a-873e-6f6fa50987b8"},"vehicle_type_id":"4","last_reported":1732947144,"current_range_meters":32800,"station_id":"ce4bhbp2rcd13ifvqesg","pricing_plan_id":"cebpf4jnsgd1na2vs0mg"},{"bike_id":"cb261da6-4840-44c8-b66c-2a0cb568a4ad","system_id":"levelo_inurba_marseille","lat":43.27826,"lon":5.39212,"is_reserved":false,"is_disabled":true,"rental_uris":{"android":"levelo://app?vid=cb261da6-4840-44c8-b66c-2a0cb568a4ad","ios":"levelo://app?vid=cb261da6-4840-44c8-b66c-2a0cb568a4ad"},"vehicle_type_id":"4","last_reported":1732947144,"current_range_meters":38800,"station_id":"ce4bhjp2rcd13ifvqga0","pricing_plan_id":"cebpf4jnsgd1na2vs0mg"},{"bike_id":"43746d86-8a13-4845-9faf-ae69b548d714","system_id":"levelo_inurba_marseille","lat":43.29459,"lon":5.37917,"is_reserved":false,"is_disabled":true,"rental_uris":{"android":"levelo://app?vid=43746d86-8a13-4845-9faf-ae69b548d714","ios":"levelo://app?vid=43746d86-8a13-4845-9faf-ae69b548d714"},"vehicle_type_id":"4","last_reported":1732947144,"current_range_meters":0,"station_id":"","pricing_plan_id":"cebpf4jnsgd1na2vs0mg"},{"bike_id":"746d0832-fa34-43ef-bd41-a94b306dc08e","system_id":"levelo_inurba_marseille","lat":43.24668,"lon":5.38157,"is_reserved":false,"is_disabled":false,"rental_uris":{"android":"levelo://app?vid=746d0832-fa34-43ef-bd41-a94b306dc08e","ios":"levelo://app?vid=746d0832-fa34-43ef-bd41-a94b306dc08e"},"vehicle_type_id":"4","last_reported":1732947144,"current_range_meters":8800,"station_id":"ce4bhih2rcd13ifvqfr0","pricing_plan_id":"cebpf4jnsgd1na2vs0mg"},{"bike_id":"1665090c-d6bc-4de6-b530-613846e90070","system_id":"levelo_inurba_marseille","lat":43.3136,"lon":5.385,"is_reserved":false,"is_disabled":false,"rental_uris":{"android":"levelo://app?vid=1665090c-d6bc-4de6-b530-613846e90070","ios":"levelo://app?vid=1665090c-d6bc-4de6-b530-613846e90070"},"vehicle_type_id":"4","last_reported":1732947144,"current_range_meters":27600,"station_id":"ce4bgt92rcd13ifvqcf0","pricing_plan_id":"cebpf4jnsgd1na2vs0mg"},{"bike_id":"4f9e2a6f-409c-4144-b32b-ac793231ce82","system_id":"levelo_inurba_marseille","lat":43.28622,"lon":5.35099,"is_reserved":false,"is_disabled":false,"rental_uris":{"android":"levelo://app?vid=4f9e2a6f-409c-4144-b32b-ac793231ce82","ios":"levelo://app?vid=4f9e2a6f-409c-4144-b32b-ac793231ce82"},"vehicle_type_id":"4","last_reported":1732947144,"current_range_meters":10800,"station_id":"ce4bhch2rcd13ifvqeug","pricing_plan_id":"cebpf4jnsgd1na2vs0mg"},{"bike_id":"14f953b8-411b-4657-b890-7cae883b1ccc","system_id":"levelo_inurba_marseille","lat":43.31272,"lon":5.40174,"is_reserved":false,"is_disabled":false,"rental_uris":{"android":"levelo://app?vid=14f953b8-411b-4657-b890-7cae883b1ccc","ios":"levelo://app?vid=14f953b8-411b-4657-b890-7cae883b1ccc"},"vehicle_type_id":"4","last_reported":1732947144,"current_range_meters":9600,"station_id":"ce4bh092rcd13ifvqd30","pricing_plan_id":"cebpf4jnsgd1na2vs0mg"},{"bike_id":"f3923452-7887-4c81-ac08-4d748d1c6919","system_id":"levelo_inurba_marseille","lat":43.29514,"lon":5.39408,"is_reserved":false,"is_disabled":true,"rental_uris":{"android":"levelo://app?vid=f3923452-7887-4c81-ac08-4d748d1c6919","ios":"levelo://app?vid=f3923452-7887-4c81-ac08-4d748d1c6919"},"vehicle_type_id":"4","last_reported":1732947144,"current_range_meters":12800,"station_id":"ce4bh292rcd13ifvqdf0","pricing_plan_id":"cebpf4jnsgd1na2vs0mg"},{"bike_id":"98e2d888-37de-4669-ac4b-97e1a8acaade","system_id":"levelo_inurba_marseille","lat":43.29303,"lon":5.38546,"is_reserved":false,"is_disabled":true,"rental_uris":{"android":"levelo://app?vid=98e2d888-37de-4669-ac4b-97e1a8acaade","ios":"levelo://app?vid=98e2d888-37de-4669-ac4b-97e1a8acaade"},"vehicle_type_id":"4","last_reported":1732947144,"current_range_meters":0,"station_id":"","pricing_plan_id":"cebpf4jnsgd1na2vs0mg"},{"bike_id":"d8090434-8164-4911-a368-9f666e5165ad","system_id":"levelo_inurba_marseille","lat":43.265568,"lon":5.372936,"is_reserved":false,"is_disabled":false,"rental_uris":{"android":"levelo://app?vid=d8090434-8164-4911-a368-9f666e5165ad","ios":"levelo://app?vid=d8090434-8164-4911-a368-9f666e5165ad"},"vehicle_type_id":"4","last_reported":1732947144,"current_range_meters":33200,"station_id":"ce4bhg12rcd13ifvqf70","pricing_plan_id":"cebpf4jnsgd1na2vs0mg"},{"bike_id":"effe31b8-cf03-466e-a623-0779e7572d9b","system_id":"levelo_inurba_marseille","lat":43.306489,"lon":5.400916,"is_reserved":false,"is_disabled":false,"rental_uris":{"android":"levelo://app?vid=effe31b8-cf03-466e-a623-0779e7572d9b","ios":"levelo://app?vid=effe31b8-cf03-466e-a623-0779e7572d9b"},"vehicle_type_id":"4","last_reported":1732947144,"current_range_meters":21600,"station_id":"ce4bh112rcd13ifvqda0","pricing_plan_id":"cebpf4jnsgd1na2vs0mg"},{"bike_id":"6da9caa4-0313-43ff-a969-1b6a799cb79a","system_id":"levelo_inurba_marseille","lat":43.28719,"lon":5.36084,"is_reserved":false,"is_disabled":false,"rental_uris":{"android":"levelo://app?vid=6da9caa4-0313-43ff-a969-1b6a799cb79a","ios":"levelo://app?vid=6da9caa4-0313-43ff-a969-1b6a799cb79a"},"vehicle_type_id":"4","last_reported":1732947144,"current_range_meters":18800,"station_id":"cki0cbj6b192h4jlfktg","pricing_plan_id":"cebpf4jnsgd1na2vs0mg"},{"bike_id":"75dee289-e6d4-4b81-8f1a-f980ce7de3bd","system_id":"levelo_inurba_marseille","lat":43.29923,"lon":5.3748,"is_reserved":false,"is_disabled":false,"rental_uris":{"android":"levelo://app?vid=75dee289-e6d4-4b81-8f1a-f980ce7de3bd","ios":"levelo://app?vid=75dee289-e6d4-4b81-8f1a-f980ce7de3bd"},"vehicle_type_id":"4","last_reported":1732947144,"current_range_meters":32000,"station_id":"ce4bgjh2rcd13ifvqbg0","pricing_plan_id":"cebpf4jnsgd1na2vs0mg"},{"bike_id":"2ca4c736-b173-4957-99b1-47e46344c420","system_id":"levelo_inurba_marseille","lat":43.26929,"lon":5.38914,"is_reserved":false,"is_disabled":false,"rental_uris":{"android":"levelo://app?vid=2ca4c736-b173-4957-99b1-47e46344c420","ios":"levelo://app?vid=2ca4c736-b173-4957-99b1-47e46344c420"},"vehicle_type_id":"4","last_reported":1732947144,"current_range_meters":37600,"station_id":"ce4bhhh2rcd13ifvqfl0","pricing_plan_id":"cebpf4jnsgd1na2vs0mg"},{"bike_id":"15e24c31-4292-4084-bcd3-e24f0a31685e","system_id":"levelo_inurba_marseille","lat":43.28421,"lon":5.34995,"is_reserved":false,"is_disabled":true,"rental_uris":{"android":"levelo://app?vid=15e24c31-4292-4084-bcd3-e24f0a31685e","ios":"levelo://app?vid=15e24c31-4292-4084-bcd3-e24f0a31685e"},"vehicle_type_id":"4","last_reported":1732947144,"current_range_meters":36400,"station_id":"ce4bhbh2rcd13ifvqepg","pricing_plan_id":"cebpf4jnsgd1na2vs0mg"},{"bike_id":"60bcfd83-20b5-46ea-b55f-3d3dab37186e","system_id":"levelo_inurba_marseille","lat":43.30421,"lon":5.39755,"is_reserved":false,"is_disabled":true,"rental_uris":{"android":"levelo://app?vid=60bcfd83-20b5-46ea-b55f-3d3dab37186e","ios":"levelo://app?vid=60bcfd83-20b5-46ea-b55f-3d3dab37186e"},"vehicle_type_id":"4","last_reported":1732947144,"current_range_meters":16000,"station_id":"ce4bh092rcd13ifvqd20","pricing_plan_id":"cebpf4jnsgd1na2vs0mg"},{"bike_id":"579ec052-1a9b-4b33-b6e7-3ce0d78a27eb","system_id":"levelo_inurba_marseille","lat":43.32478,"lon":5.36568,"is_reserved":false,"is_disabled":false,"rental_uris":{"android":"levelo://app?vid=579ec052-1a9b-4b33-b6e7-3ce0d78a27eb","ios":"levelo://app?vid=579ec052-1a9b-4b33-b6e7-3ce0d78a27eb"},"vehicle_type_id":"4","last_reported":1732947144,"current_range_meters":39200,"station_id":"ce4bhs12rcd13ifvqhvg","pricing_plan_id":"cebpf4jnsgd1na2vs0mg"},{"bike_id":"d7c027ce-affe-4e74-a76c-56f36651134b","system_id":"levelo_inurba_marseille","lat":43.22934,"lon":5.35377,"is_reserved":false,"is_disabled":false,"rental_uris":{"android":"levelo://app?vid=d7c027ce-affe-4e74-a76c-56f36651134b","ios":"levelo://app?vid=d7c027ce-affe-4e74-a76c-56f36651134b"},"vehicle_type_id":"4","last_reported":1732947144,"current_range_meters":37600,"station_id":"cpo3532slgdg3j2ikp40","pricing_plan_id":"cebpf4jnsgd1na2vs0mg"},{"bike_id":"5aaf5eea-de56-48b5-867b-bc63870c5a21","system_id":"levelo_inurba_marseille","lat":43.31486,"lon":5.37312,"is_reserved":false,"is_disabled":false,"rental_uris":{"android":"levelo://app?vid=5aaf5eea-de56-48b5-867b-bc63870c5a21","ios":"levelo://app?vid=5aaf5eea-de56-48b5-867b-bc63870c5a21"},"vehicle_type_id":"4","last_reported":1732947144,"current_range_meters":36800,"station_id":"ce4bgt12rcd13ifvqcd0","pricing_plan_id":"cebpf4jnsgd1na2vs0mg"},