{"last_updated":1701687996,"ttl":30,"version":"2.2","data":{"bikes":[{"bike_id":"5b1b5bed-ca5a-414c-9728-36e25ea4caa7","system_id":"levelo_inurba_marseille","lat":43.31341,"lon":5.367098,"is_reserved":false,"is_disabled":false,"rental_uris":{"android":"levelo://app?vid=5b1b5bed-ca5a-414c-9728-36e25ea4caa7","ios":"levelo://app?vid=5b1b5bed-ca5a-414c-9728-36e25ea4caa7"},"vehicle_type_id":"4","last_reported":1701687996,"current_range_meters":30800,"station_id":"ce4bgr92rcd13ifvqc6g","pricing_plan_id":"free"},{"bike_id":"9fd2c2a3-9211-4206-bfa3-f779f0a0bb0a","system_id":"levelo_inurba_marseille","lat":43.31341,"lon":5.367098,"is_reserved":false,"is_disabled":false,"rental_uris":{"android":"levelo://app?vid=9fd2c2a3-9211-4206-bfa3-f779f0a0bb0a","ios":"levelo://app?vid=9fd2c2a3-9211-4206-bfa3-f779f0a0bb0a"},"vehicle_type_id":"4","last_reported":1701687996,"current_range_meters":31200,"station_id":"ce4bgr92rcd13ifvqc6g","pricing_plan_id":"free"},{"bike_id":"7761dd5b-4f3b-4342-9d88-90a06e46ccc0","system_id":"levelo_inurba_marseille","lat":43.31341,"lon":5.367098,"is_reserved":false,"is_disabled":false,"rental_uris":{"android":"levelo://app?vid=7761dd5b-4f3b-4342-9d88-90a06e46ccc0","ios":"levelo://app?vid=7761dd5b-4f3b-4342-9d88-90a06e46ccc0"},"vehicle_type_id":"4","last_reported":1701687996,"current_range_meters":25600,"station_id":"ce4bgr92rcd13ifvqc6g","pricing_plan_id":"free"},{"bike_id":"1d1266c1-f156-4ba9-8684-af505cad0dc4","system_id":"levelo_inurba_marseille","lat":43.31341,"lon":5.367098,"is_reserved":false,"is_disabled":false,"rental_uris":{"android":"levelo://app?vid=1d1266c1-f156-4ba9-8684-af505cad0dc4","ios":"levelo://app?vid=1d1266c1-f156-4ba9-8684-af505cad0dc4"},"vehicle_type_id":"4","last_reported":1701687996,"current_range_meters":28400,"station_id":"ce4bgr92rcd13ifvqc6g","pricing_plan_id":"free"},{"bike_id":"7d010324-72b9-4171-b0f6-ae456597a9b2","system_id":"levelo_inurba_marseille","lat":43.31341,"lon":5.367098,"is_reserved":false,"is_disabled":false,"rental_uris":{"android":"levelo://app?vid=7d010324-72b9-4171-b0f6-ae456597a9b2","ios":"levelo://app?vid=7d010324-72b9-4171-b0f6-ae456597a9b2"},"vehicle_type_id":"4","last_reported":1701687996,"current_range_meters":30000,"station_id":"ce4bgr92rcd13ifvqc6g","pricing_plan_id":"free"},{"bike_id":"93bc443b-95f1-4e8b-aa1e-4ae50e6b89d7","system_id":"levelo_inurba_marseille","lat":43.313391,"lon":5.36706,"is_reserved":false,"is_disabled":false,"rental_uris":{"android":"levelo://app?vid=93bc443b-95f1-4e8b-aa1e-4ae50e6b89d7","ios":"levelo://app?vid=93bc443b-95f1-4e8b-aa1e-4ae50e6b89d7"},"vehicle_type_id":"4","last_reported":1701687996,"current_range_meters":20400,"station_id":"ce4bgr92rcd13ifvqc6g","pricing_plan_id":"free"},{"bike_id":"0a256dd4-efc7-41da-a03e-0f8cf2240442","system_id":"levelo_inurba_marseille","lat":43.31341,"lon":5.367098,"is_reserved":false,"is_disabled":false,"rental_uris":{"android":"levelo://app?vid=0a256dd4-efc7-41da-a03e-0f8cf2240442","ios":"levelo://app?vid=0a256dd4-efc7-41da-a03e-0f8cf2240442"},"vehicle_type_id":"4","last_reported":1701687996,"current_range_meters":31200,"station_id":"ce4bgr92rcd13ifvqc6g","pricing_plan_id":"free"},{"bike_id":"549e12a1-62c9-4bbb-9a3a-a61e019544aa","system_id":"levelo_inurba_marseille","lat":43.313391,"lon":5.36706,"is_reserved":false,"is_disabled":false,"rental_uris":{"android":"levelo://app?vid=549e12a1-62c9-4bbb-9a3a-a61e019544aa","ios":"levelo://app?vid=549e12a1-62c9-4bbb-9a3a-a61e019544aa"},"vehicle_type_id":"4","last_reported":1701687996,"current_range_meters":31600,"station_id":"ce4bgr92rcd13ifvqc6g","pricing_plan_id":"free"},{"bike_id":"329896f5-e6d6-4f46-ba59-d0c444e5a534","system_id":"levelo_inurba_marseille","lat":43.313391,"lon":5.36706,"is_reserved":false,"is_disabled":false,"rental_uris":{"android":"levelo://app?vid=329896f5-e6d6-4f46-ba59-d0c444e5a534","ios":"levelo://app?vid=329896f5-e6d6-4f46-ba59-d0c444e5a534"},"vehicle_type_id":"4","last_reported":1701687996,"current_range_meters":15600,"station_id":"ce4bgr92rcd13ifvqc6g","pricing_plan_id":"free"},{"bike_id":"f6c69f67-bcc4-4ecc-9133-ea97d071d7ee","system_id":"levelo_inurba_marseille","lat":43.313391,"lon":5.36706,"is_reserved":false,"is_disabled":false,"rental_uris":{"android":"levelo://app?vid=f6c69f67-bcc4-4ecc-9133-ea97d071d7ee","ios":"levelo://app?vid=f6c69f67-bcc4-4ecc-9133-ea97d071d7ee"},"vehicle_type_id":"4","last_reported":1701687996,"current_range_meters":8800,"station_id":"ce4bgr92rcd13ifvqc6g","pricing_plan_id":"free"},{"bike_id":"0637ab4b-796f-4481-bf55-db78446d9143","system_id":"levelo_inurba_marseille","lat":43.313391,"lon":5.36706,"is_reserved":false,"is_disabled":false,"rental_uris":{"android":"levelo://app?vid=0637ab4b-796f-4481-bf55-db78446d9143","ios":"levelo://app?vid=0637ab4b-796f-4481-bf55-db78446d9143"},"vehicle_type_id":"4","last_reported":1701687996,"current_range_meters":14400,"station_id":"ce4bgr92rcd13ifvqc6g","pricing_plan_id":"free"},{"bike_id":"eaf80ade-1f68-4fe7-b62d-1e9bba26c62e","system_id":"levelo_inurba_marseille","lat":43.313391,"lon":5.36706,"is_reserved":false,"is_disabled":false,"rental_uris":{"android":"levelo://app?vid=eaf80ade-1f68-4fe7-b62d-1e9bba26c62e","ios":"levelo://app?vid=eaf80ade-1f68-4fe7-b62d-1e9bba26c62e"},"vehicle_type_id":"4","last_reported":1701687996,"current_range_meters":14400,"station_id":"ce4bgr92rcd13ifvqc6g","pricing_plan_id":"free"},{"bike_id":"285c93d8-a911-4b68-b9ca-c285ac9c9041","system_id":"levelo_inurba_marseille","lat":43.312239,"lon":5.368562,"is_reserved":false,"is_disabled":false,"rental_uris":{"android":"levelo://app?vid=285c93d8-a911-4b68-b9ca-c285ac9c9041","ios":"levelo://app?vid=285c93d8-a911-4b68-b9ca-c285ac9c9041"},"vehicle_type_id":"4","last_reported":1701687996,"current_range_meters":12800,"station_id":"ce4bgl92rcd13ifvqbq0","pricing_plan_id":"free"},{"bike_id":"b23b0555-d909-4bcd-8bce-44dfdd786222","system_id":"levelo_inurba_marseille","lat":43.312239,"lon":5.368562,"is_reserved":false,"is_disabled":false,"rental_uris":{"android":"levelo://app?vid=b23b0555-d909-4bcd-8bce-44dfdd786222","ios":"levelo://app?vid=b23b0555-d909-4bcd-8bce-44dfdd786222"},"vehicle_type_id":"4","last_reported":1701687996,"current_range_meters":16800,"station_id":"ce4bgl92rcd13ifvqbq0","pricing_plan_id":"free"},{"bike_id":"49971ac8-eb05-4661-8b00-5548faed97d1","system_id":"levelo_inurba_marseille","lat":43.312239,"lon":5.368562,"is_reserved":false,"is_disabled":false,"rental_uris":{"android":"levelo://app?vid=49971ac8-eb05-4661-8b00-5548faed97d1","ios":"levelo://app?vid=49971ac8-eb05-4661-8b00-5548faed97d1"},"vehicle_type_id":"4","last_reported":1701687996,"current_range_meters":22000,"station_id":"ce4bgl92rcd13ifvqbq0","pricing_plan_id":"free"},{"bike_id":"8e9566f4-bb76-47ca-92f2-69cf9756d197","system_id":"levelo_inurba_marseille","lat":43.3122,"lon":5.36857,"is_reserved":false,"is_disabled":false,"rental_uris":{"android":"levelo://app?vid=8e9566f4-bb76-47ca-92f2-69cf9756d197","ios":"levelo://app?vid=8e9566f4-bb76-47ca-92f2-69cf9756d197"},"vehicle_type_id":"4","last_reported":1701687996,"current_range_meters":14800,"station_id":"ce4bgl92rcd13ifvqbq0","pricing_plan_id":"free"},{"bike_id":"567f62f8-7be0-40fb-b015-e330b3255b7c","system_id":"levelo_inurba_marseille","lat":43.309076,"lon":5.368465,"is_reserved":false,"is_disabled":false,"rental_uris":{"android":"levelo://app?vid=567f62f8-7be0-40fb-b015-e330b3255b7c","ios":"levelo://app?vid=567f62f8-7be0-40fb-b015-e330b3255b7c"},"vehicle_type_id":"4","last_reported":1701687996,"current_range_meters":11600,"station_id":"ce4bgn92rcd13ifvqbvg","pricing_plan_id":"free"},{"bike_id":"098b0466-e4f7-41b5-808a-9e90540f65a9","system_id":"levelo_inurba_marseille","lat":43.309076,"lon":5.368465,"is_reserved":false,"is_disabled":false,"rental_uris":{"android":"levelo://app?vid=098b0466-e4f7-41b5-808a-9e90540f65a9","ios":"levelo://app?vid=098b0466-e4f7-41b5-808a-9e90540f65a9"},"vehicle_type_id":"4","last_reported":1701687996,"current_range_meters":5600,"station_id":"ce4bgn92rcd13ifvqbvg","pricing_plan_id":"free"},{"bike_id":"26692493-2092-4545-8734-a8463f83838c","system_id":"levelo_inurba_marseille","lat":43.309076,"lon":5.368465,"is_reserved":false,"is_disabled":false,"rental_uris":{"android":"levelo://app?vid=26692493-2092-4545-8734-a8463f83838c","ios":"levelo://app?vid=26692493-2092-4545-8734-a8463f83838c"},"vehicle_type_id":"4","last_reported":1701687996,"current_range_meters":27600,"station_id":"ce4bgn92rcd13ifvqbvg","pricing_plan_id":"free"},{"bike_id":"320857b5-a322-4f83-8ab0-a1dcf3ff272c","system_id":"levelo_inurba_marseille","lat":43.309076,"lon":5.368465,"is_reserved":false,"is_disabled":false,"rental_uris":{"android":"levelo://app?vid=320857b5-a322-4f83-8ab0-a1dcf3ff272c","ios":"levelo://app?vid=320857b5-a322-4f83-8ab0-a1dcf3ff272c"},"vehicle_type_id":"4","last_reported":1701687996,"current_range_meters":31600,"station_id":"ce4bgn92rcd13ifvqbvg","pricing_plan_id":"free"},{"bike_id":"cfd17f12-bb3c-4c24-bef7-085990ad9ce2","system_id":"levelo_inurba_marseille","lat":43.309076,"lon":5.368465,"is_reserved":false,"is_disabled":false,"rental_uris":{"android":"levelo://app?vid=cfd17f12-bb3c-4c24-bef7-085990ad9ce2","ios":"levelo://app?vid=cfd17f12-bb3c-4c24-bef7-085990ad9ce2"},"vehicle_type_id":"4","last_reported":1701687996,"current_range_meters":18800,"station_id":"ce4bgn92rcd13ifvqbvg","pricing_plan_id":"free"},{"bike_id":"4201e1d5-a13b-45f7-85c8-47c917f6277f","system_id":"levelo_inurba_marseille","lat":43.309076,"lon":5.368465,"is_reserved":false,"is_disabled":false,"rental_uris":{"android":"levelo://app?vid=4201e1d5-a13b-45f7-85c8-47c917f6277f","ios":"levelo://app?vid=4201e1d5-a13b-45f7-85c8-47c917f6277f"},"vehicle_type_id":"4","last_reported":1701687996,"current_range_meters":23600,"station_id":"ce4bgn92rcd13ifvqbvg","pricing_plan_id":"free"},{"bike_id":"6c84a195-8bf2-4490-a4e2-48550505377d","system_id":"levelo_inurba_marseille","lat":43.309076,"lon":5.368465,"is_reserved":false,"is_disabled":false,"rental_uris":{"android":"levelo://app?vid=6c84a195-8bf2-4490-a4e2-48550505377d","ios":"levelo://app?vid=6c84a195-8bf2-4490-a4e2-48550505377d"},"vehicle_type_id":"4","last_reported":1701687996,"current_range_meters":12800,"station_id":"ce4bgn92rcd13ifvqbvg","pricing_plan_id":"free"},{"bike_id":"e706824d-ab97-49a0-9082-08cfe2c74a92","system_id":"levelo_inurba_marseille","lat":43.309076,"lon":5.368465,"is_reserved":false,"is_disabled":false,"rental_uris":{"android":"levelo://app?vid=e706824d-ab97-49a0-9082-08cfe2c74a92","ios":"levelo://app?vid=e706824d-ab97-49a0-9082-08cfe2c74a92"},"vehicle_type_id":"4","last_reported":1701687996,"current_range_meters":29600,"station_id":"ce4bgn92rcd13ifvqbvg","pricing_plan_id":"free"},{"bike_id":"2da5c7c9-3465-4a73-86fe-048014e16025","system_id":"levelo_inurba_marseille","lat":43.305712,"lon":5.365641,"is_reserved":false,"is_disabled":false,"rental_uris":{"android":"levelo://app?vid=2da5c7c9-3465-4a73-86fe-048014e16025","ios":"levelo://app?vid=2da5c7c9-3465-4a73-86fe-048014e16025"},"vehicle_type_id":"4","last_reported":1701687996,"current_range_meters":13600,"station_id":"ce4bgs12rcd13ifvqcag","pricing_plan_id":"free"},{"bike_id":"abb3b8ca-30ec-4588-a269-c946154c4ef7","system_id":"levelo_inurba_marseille","lat":43.305416,"lon":5.366984,"is_reserved":false,"is_disabled":false,"rental_uris":{"android":"levelo://app?vid=abb3b8ca-30ec-4588-a269-c946154c4ef7","ios":"levelo://app?vid=abb3b8ca-30ec-4588-a269-c946154c4ef7"},"vehicle_type_id":"4","last_reported":1701687996,"current_range_meters":13200,"station_id":"ce4bgrp2rcd13ifvqc9g","pricing_plan_id":"free"},{"bike_id":"f25d3ec8-5180-444a-af8d-e8a66bc108e7","system_id":"levelo_inurba_marseille","lat":43.305714,"lon":5.365633,"is_reserved":false,"is_disabled":false,"rental_uris":{"android":"levelo://app?vid=f25d3ec8-5180-444a-af8d-e8a66bc108e7","ios":"levelo://app?vid=f25d3ec8-5180-444a-af8d-e8a66bc108e7"},"vehicle_type_id":"4","last_reported":1701687996,"current_range_meters":31200,"station_id":"ce4bgs12rcd13ifvqcag","pricing_plan_id":"free"},{"bike_id":"7dc58317-dd70-490d-b45f-120442875004","system_id":"levelo_inurba_marseille","lat":43.305714,"lon":5.365633,"is_reserved":false,"is_disabled":false,"rental_uris":{"android":"levelo://app?vid=7dc58317-dd70-490d-b45f-120442875004","ios":"levelo://app?vid=7dc58317-dd70-490d-b45f-120442875004"},"vehicle_type_id":"4","last_reported":1701687996,"current_range_meters":24800,"station_id":"ce4bgs12rcd13ifvqcag","pricing_plan_id":"free"},{"bike_id":"baa1ddcc-7c38-4f7d-89ac-ac0924fe5606","system_id":"levelo_inurba_marseille","lat":43.305714,"lon":5.365633,"is_reserved":false,"is_disabled":false,"rental_uris":{"android":"levelo://app?vid=baa1ddcc-7c38-4f7d-89ac-ac0924fe5606","ios":"levelo://app?vid=baa1ddcc-7c38-4f7d-89ac-ac0924fe5606"},"vehicle_type_id":"4","last_reported":1701687996,"current_range_meters":30800,"station_id":"ce4bgs12rcd13ifvqcag","pricing_plan_id":"free"},{"bike_id":"5b4514ee-3246-4558-9d4c-abc2e52c24e7","system_id":"levelo_inurba_marseille","lat":43.305706,"lon":5.365654,"is_reserved":false,"is_disabled":false,"rental_uris":{"android":"levelo://app?vid=5b4514ee-3246-4558-9d4c-abc2e52c24e7","ios":"levelo://app?vid=5b4514ee-3246-4558-9d4c-abc2e52c24e7"},"vehicle_type_id":"4","last_reported":1701687996,"current_range_meters":26000,"station_id":"ce4bgs12rcd13ifvqcag","pricing_plan_id":"free"},{"bike_id":"5d597ddc-1808-4b9b-82bd-5e6a70aefaca","system_id":"levelo_inurba_marseille","lat":43.319357,"lon":5.372994,"is_reserved":false,"is_disabled":false,"rental_uris":{"android":"levelo://app?vid=5d597ddc-1808-4b9b-82bd-5e6a70aefaca","ios":"levelo://app?vid=5d597ddc-1808-4b9b-82bd-5e6a70aefaca"},"vehicle_type_id":"4","last_reported":1701687996,"current_range_meters":0,"station_id":"","pricing_plan_id":"free"},{"bike_id":"e913f328-1e31-4c22-bd87-f809ea246de4","system_id":"levelo_inurba_marseille","lat":43.317168,"lon":5.376883,"is_reserved":false,"is_disabled":false,"rental_uris":{"android":"levelo://app?vid=e913f328-1e31-4c22-bd87-f809ea246de4","ios":"levelo://app?vid=e913f328-1e31-4c22-bd87-f809ea246de4"},"vehicle_type_id":"4","last_reported":1701687996,"current_range_meters":0,"station_id":"","pricing_plan_id":"free"},{"bike_id":"fb6fd937-527b-4585-9058-0dfdc6436ac8","system_id":"levelo_inurba_marseille","lat":43.31351,"lon":5.37909,"is_reserved":false,"is_disabled":false,"rental_uris":{"android":"levelo://app?vid=fb6fd937-527b-4585-9058-0dfdc6436ac8","ios":"levelo://app?vid=fb6fd937-527b-4585-9058-0dfdc6436ac8"},"vehicle_type_id":"4","last_reported":1701687996,"current_range_meters":14400,"station_id":"","pricing_plan_id":"free"},{"bike_id":"55397374-9ac5-42a8-9754-f38400fb32f8","system_id":"levelo_inurba_marseille","lat":43.303046,"lon":5.368981,"is_reserved":false,"is_disabled":false,"rental_uris":{"android":"levelo://app?vid=55397374-9ac5-42a8-9754-f38400fb32f8","ios":"levelo://app?vid=55397374-9ac5-42a8-9754-f38400fb32f8"},"vehicle_type_id":"4","last_reported":1701687996,"current_range_meters":18400,"station_id":"ce4bgqh2rcd13ifvqc5g","pricing_plan_id":"free"},{"bike_id":"4f060e9e-aca2-4257-a6ca-f6628812f38f","system_id":"levelo_inurba_marseille","lat":43.315327,"lon":5.38015,"is_reserved":false,"is_disabled":false,"rental_uris":{"android":"levelo://app?vid=4f060e9e-aca2-4257-a6ca-f6628812f38f","ios":"levelo://app?vid=4f060e9e-aca2-4257-a6ca-f6628812f38f"},"vehicle_type_id":"4","last_reported":1701687996,"current_range_meters":22800,"station_id":"ce4bhsp2rcd13ifvqi50","pricing_plan_id":"free"},{"bike_id":"3a28ef85-4995-4283-8cc0-0e3dc7945b3d","system_id":"levelo_inurba_marseille","lat":43.31524,"lon":5.38023,"is_reserved":false,"is_disabled":false,"rental_uris":{"android":"levelo://app?vid=3a28ef85-4995-4283-8cc0-0e3dc7945b3d","ios":"levelo://app?vid=3a28ef85-4995-4283-8cc0-0e3dc7945b3d"},"vehicle_type_id":"4","last_reported":1701687996,"current_range_meters":23200,"station_id":"ce4bhsp2rcd13ifvqi50","pricing_plan_id":"free"},{"bike_id":"b2f11747-27e7-47ba-8fcc-f49cb37d9824","system_id":"levelo_inurba_marseille","lat":43.304606,"lon":5.379026,"is_reserved":false,"is_disabled":false,"rental_uris":{"android":"levelo://app?vid=b2f11747-27e7-47ba-8fcc-f49cb37d9824","ios":"levelo://app?vid=b2f11747-27e7-47ba-8fcc-f49cb37d9824"},"vehicle_type_id":"4","last_reported":1701687996,"current_range_meters":24000,"station_id":"ce4bgup2rcd13ifvqcn0","pricing_plan_id":"free"},{"bike_id":"22d95e83-0ac8-4e49-b25c-8513da2e5bbc","system_id":"levelo_inurba_marseille","lat":43.304606,"lon":5.379026,"is_reserved":false,"is_disabled":false,"rental_uris":{"android":"levelo://app?vid=22d95e83-0ac8-4e49-b25c-8513da2e5bbc","ios":"levelo://app?vid=22d95e83-0ac8-4e49-b25c-8513da2e5bbc"},"vehicle_type_id":"4","last_reported":1701687996,"current_range_meters":22400,"station_id":"ce4bgup2rcd13ifvqcn0","pricing_plan_id":"free"},{"bike_id":"2275aca5-3158-4c2c-8022-ca5d2714bc86","system_id":"levelo_inurba_marseille","lat":43.319997,"lon":5.381594,"is_reserved":false,"is_disabled":false,"rental_uris":{"android":"levelo://app?vid=2275aca5-3158-4c2c-8022-ca5d2714bc86","ios":"levelo://app?vid=2275aca5-3158-4c2c-8022-ca5d2714bc86"},"vehicle_type_id":"4","last_reported":1701687996,"current_range_meters":8000,"station_id":"ce4bhr12rcd13ifvqhpg","pricing_plan_id":"free"},{"bike_id":"9fdb7f97-586d-42d2-befd-15216ba2e422","system_id":"levelo_inurba_marseille","lat":43.31183,"lon":5.38523,"is_reserved":false,"is_disabled":false,"rental_uris":{"android":"levelo://app?vid=9fdb7f97-586d-42d2-befd-15216ba2e422","ios":"levelo://app?vid=9fdb7f97-586d-42d2-befd-15216ba2e422"},"vehicle_type_id":"4","last_reported":1701687996,"current_range_meters":0,"station_id":"","pricing_plan_id":"free"},{"bike_id":"f85e7b11-9409-4c7b-9039-0f7cbb028ed4","system_id":"levelo_inurba_marseille","lat":43.299222,"lon":5.365554,"is_reserved":false,"is_disabled":false,"rental_uris":{"android":"levelo://app?vid=f85e7b11-9409-4c7b-9039-0f7cbb028ed4","ios":"levelo://app?vid=f85e7b11-9409-4c7b-9039-0f7cbb028ed4"},"vehicle_type_id":"4","last_reported":1701687996,"current_range_meters":5600,"station_id":"ce4bgm92rcd13ifvqbr0","pricing_plan_id":"free"},{"bike_id":"12240d6a-8ea0-413b-88f7-1023e0605583","system_id":"levelo_inurba_marseille","lat":43.305364,"lon":5.384119,"is_reserved":false,"is_disabled":false,"rental_uris":{"android":"levelo://app?vid=12240d6a-8ea0-413b-88f7-1023e0605583","ios":"levelo://app?vid=12240d6a-8ea0-413b-88f7-1023e0605583"},"vehicle_type_id":"4","last_reported":1701687996,"current_range_meters":14800,"station_id":"ce4bgg92rcd13ifvqb30","pricing_plan_id":"free"},{"bike_id":"6bd0c11d-ff47-415c-9962-843dbce0d5eb","system_id":"levelo_inurba_marseille","lat":43.305364,"lon":5.384119,"is_reserved":false,"is_disabled":false,"rental_uris":{"android":"levelo://app?vid=6bd0c11d-ff47-415c-9962-843dbce0d5eb","ios":"levelo://app?vid=6bd0c11d-ff47-415c-9962-843dbce0d5eb"},"vehicle_type_id":"4","last_reported":1701687996,"current_range_meters":27600,"station_id":"ce4bgg92rcd13ifvqb30","pricing_plan_id":"free"},{"bike_id":"7b270567-40da-453b-8c37-a37b285f8ebf","system_id":"levelo_inurba_marseille","lat":43.29822,"lon":5.36547,"is_reserved":false,"is_disabled":false,"rental_uris":{"android":"levelo://app?vid=7b270567-40da-453b-8c37-a37b285f8ebf","ios":"levelo://app?vid=7b270567-40da-453b-8c37-a37b285f8ebf"},"vehicle_type_id":"4","last_reported":1701687996,"current_range_meters":18800,"station_id":"","pricing_plan_id":"free"},{"bike_id":"b8e472a2-8140-4330-9893-8fd8c62848ff","system_id":"levelo_inurba_marseille","lat":43.305364,"lon":5.384119,"is_reserved":false,"is_disabled":false,"rental_uris":{"android":"levelo://app?vid=b8e472a2-8140-4330-9893-8fd8c62848ff","ios":"levelo://app?vid=b8e472a2-8140-4330-9893-8fd8c62848ff"},"vehicle_type_id":"4","last_reported":1701687996,"current_range_meters":27600,"station_id":"ce4bgg92rcd13ifvqb30","pricing_plan_id":"free"},{"bike_id":"a02170d4-6a84-4254-a317-c4c137874b8b","system_id":"levelo_inurba_marseille","lat":43.298433,"lon":5.362774,"is_reserved":false,"is_disabled":false,"rental_uris":{"android":"levelo://app?vid=a02170d4-6a84-4254-a317-c4c137874b8b","ios":"levelo://app?vid=a02170d4-6a84-4254-a317-c4c137874b8b"},"vehicle_type_id":"4","last_reported":1701687996,"current_range_meters":14400,"station_id":"ce4bgpp2rcd13ifvqc3g","pricing_plan_id":"free"},{"bike_id":"ffc991f7-ff4c-4159-8533-c036dbc8a1bc","system_id":"levelo_inurba_marseille","lat":43.298433,"lon":5.362774,"is_reserved":false,"is_disabled":false,"rental_uris":{"android":"levelo://app?vid=ffc991f7-ff4c-4159-8533-c036dbc8a1bc","ios":"levelo://app?vid=ffc991f7-ff4c-4159-8533-c036dbc8a1bc"},"vehicle_type_id":"4","last_reported":1701687996,"current_range_meters":25600,"station_id":"ce4bgpp2rcd13ifvqc3g","pricing_plan_id":"free"},{"bike_id":"4c61f1d7-b68f-424e-92b1-0e437fae88b9","system_id":"levelo_inurba_marseille","lat":43.298433,"lon":5.362774,"is_reserved":false,"is_disabled":false,"rental_uris":{"android":"levelo://app?vid=4c61f1d7-b68f-424e-92b1-0e437fae88b9","ios":"levelo://app?vid=4c61f1d7-b68f-424e-92b1-0e437fae88b9"},"vehicle_type_id":"4","last_reported":1701687996,"current_range_meters":28800,"station_id":"ce4bgpp2rcd13ifvqc3g","pricing_plan_id":"free"},{"bike_id":"4027c12a-0ec8-4dd8-931c-60d1e24fc4cc","system_id":"levelo_inurba_marseille","lat":43.299243,"lon":5.37481,"is_reserved":false,"is_disabled":false,"rental_uris":{"android":"levelo://app?vid=4027c12a-0ec8-4dd8-931c-60d1e24fc4cc","ios":"levelo://app?vid=4027c12a-0ec8-4dd8-931c-60d1e24fc4cc"},"vehicle_type_id":"4","last_reported":1701687996,"current_range_meters":10800,"station_id":"ce4bgjh2rcd13ifvqbg0","pricing_plan_id":"free"},{"bike_id":"620ce715-03d9-4fb5-9895-6968fc4b73c0","system_id":"levelo_inurba_marseille","lat":43.297794,"lon":5.370888,"is_reserved":false,"is_disabled":false,"rental_uris":{"android":"levelo://app?vid=620ce715-03d9-4fb5-9895-6968fc4b73c0","ios":"levelo://app?vid=620ce715-03d9-4fb5-9895-6968fc4b73c0"},"vehicle_type_id":"4","last_reported":1701687996,"current_range_meters":27200,"station_id":"ce4bgop2rcd13ifvqc1g","pricing_plan_id":"free"},{"bike_id":"cdd6948d-41bb-4104-b1c8-abe1b06e0800","system_id":"levelo_inurba_marseille","lat":43.297774,"lon":5.370875,"is_reserved":false,"is_disabled":false,"rental_uris":{"android":"levelo://app?vid=cdd6948d-41bb-4104-b1c8-abe1b06e0800","ios":"levelo://app?vid=cdd6948d-41bb-4104-b1c8-abe1b06e0800"},"vehicle_type_id":"4","last_reported":1701687996,"current_range_meters":30000,"station_id":"ce4bgop2rcd13ifvqc1g","pricing_plan_id":"free"},{"bike_id":"c6ce3b8f-2076-4eb8-b7d5-d674dca50e8e","system_id":"levelo_inurba_marseille","lat":43.328371,"lon":5.366909,"is_reserved":false,"is_disabled":false,"rental_uris":{"android":"levelo://app?vid=c6ce3b8f-2076-4eb8-b7d5-d674dca50e8e","ios":"levelo://app?vid=c6ce3b8f-2076-4eb8-b7d5-d674dca50e8e"},"vehicle_type_id":"4","last_reported":1701687996,"current_range_meters":7200,"station_id":"ce4bhs92rcd13ifvqi0g","pricing_plan_id":"free"},{"bike_id":"f8284d70-c5e7-490d-9c5a-74a62dd38512","system_id":"levelo_inurba_marseille","lat":43.3283,"lon":5.36666,"is_reserved":false,"is_disabled":false,"rental_uris":{"android":"levelo://app?vid=f8284d70-c5e7-490d-9c5a-74a62dd38512","ios":"levelo://app?vid=f8284d70-c5e7-490d-9c5a-74a62dd38512"},"vehicle_type_id":"4","last_reported":1701687996,"current_range_meters":13200,"station_id":"ce4bhs92rcd13ifvqi0g","pricing_plan_id":"free"},{"bike_id":"8874ef37-d11b-4860-b7df-daab8952a737","system_id":"levelo_inurba_marseille","lat":43.328371,"lon":5.366909,"is_reserved":false,"is_disabled":false,"rental_uris":{"android":"levelo://app?vid=8874ef37-d11b-4860-b7df-daab8952a737","ios":"levelo://app?vid=8874ef37-d11b-4860-b7df-daab8952a737"},"vehicle_type_id":"4","last_reported":1701687996,"current_range_meters":19600,"station_id":"ce4bhs92rcd13ifvqi0g","pricing_plan_id":"free"},{"bike_id":"c477d28a-023f-48dc-9b5a-c3f6bad6c889","system_id":"levelo_inurba_marseille","lat":43.32832,"lon":5.36679,"is_reserved":false,"is_disabled":false,"rental_uris":{"android":"levelo://app?vid=c477d28a-023f-48dc-9b5a-c3f6bad6c889","ios":"levelo://app?vid=c477d28a-023f-48dc-9b5a-c3f6bad6c889"},"vehicle_type_id":"4","last_reported":1701687996,"current_range_meters":21600,"station_id":"ce4bhs92rcd13ifvqi0g","pricing_plan_id":"free"},{"bike_id":"d0d5c39d-ba06-4d02-a3a8-e824946b5f23","system_id":"levelo_inurba_marseille","lat":43.328371,"lon":5.366909,"is_reserved":false,"is_disabled":false,"rental_uris":{"android":"levelo://app?vid=d0d5c39d-ba06-4d02-a3a8-e824946b5f23","ios":"levelo://app?vid=d0d5c39d-ba06-4d02-a3a8-e824946b5f23"},"vehicle_type_id":"4","last_reported":1701687996,"current_range_meters":28800,"station_id":"ce4bhs92rcd13ifvqi0g","pricing_plan_id":"free"},{"bike_id":"07b4675b-f755-4edc-99c1-a0a22654496c","system_id":"levelo_inurba_marseille","lat":43.311722,"lon":5.387247,"is_reserved":false,"is_disabled":false,"rental_uris":{"android":"levelo://app?vid=07b4675b-f755-4edc-99c1-a0a22654496c","ios":"levelo://app?vid=07b4675b-f755-4edc-99c1-a0a22654496c"},"vehicle_type_id":"4","last_reported":1701687996,"current_range_meters":0,"station_id":"ce4bgv12rcd13ifvqcp0","pricing_plan_id":"free"},{"bike_id":"5c26bdfb-7b7c-43fb-8a01-250128a1a6f8","system_id":"levelo_inurba_marseille","lat":43.29805,"lon":5.3743,"is_reserved":false,"is_disabled":false,"rental_uris":{"android":"levelo://app?vid=5c26bdfb-7b7c-43fb-8a01-250128a1a6f8","ios":"levelo://app?vid=5c26bdfb-7b7c-43fb-8a01-250128a1a6f8"},"vehicle_type_id":"4","last_reported":1701687996,"current_range_meters":20800,"station_id":"","pricing_plan_id":"free"},{"bike_id":"eaa0e7e7-2390-47fa-909b-7b240952cbef","system_id":"levelo_inurba_marseille","lat":43.316538,"lon":5.38954,"is_reserved":false,"is_disabled":false,"rental_uris":{"android":"levelo://app?vid=eaa0e7e7-2390-47fa-909b-7b240952cbef","ios":"levelo://app?vid=eaa0e7e7-2390-47fa-909b-7b240952cbef"},"vehicle_type_id":"4","last_reported":1701687996,"current_range_meters":17200,"station_id":"","pricing_plan_id":"free"},{"bike_id":"52659e2d-1f2d-4d41-9842-e1dee0bdc265","system_id":"levelo_inurba_marseille","lat":43.305714,"lon":5.365633,"is_reserved":false,"is_disabled":false,"rental_uris":{"android":"levelo://app?vid=52659e2d-1f2d-4d41-9842-e1dee0bdc265","ios":"levelo://app?vid=52659e2d-1f2d-4d41-9842-e1dee0bdc265"},"vehicle_type_id":"4","last_reported":1701687996,"current_range_meters":19600,"station_id":"ce4bgs12rcd13ifvqcag","pricing_plan_id":"free"},{"bike_id":"cbdb1b26-1b7b-4316-9220-24d1960a98cf","system_id":"levelo_inurba_marseille","lat":43.317557,"lon":5.390173,"is_reserved":false,"is_disabled":false,"rental_uris":{"android":"levelo://app?vid=cbdb1b26-1b7b-4316-9220-24d1960a98cf","ios":"levelo://app?vid=cbdb1b26-1b7b-4316-9220-24d1960a98cf"},"vehicle_type_id":"4","last_reported":1701687996,"current_range_meters":18000,"station_id":"ce4bhqp2rcd13ifvqhng","pricing_plan_id":"free"},{"bike_id":"ae81485e-1d4d-4d60-a588-e4e00e9361f5","system_id":"levelo_inurba_marseille","lat":43.317557,"lon":5.390173,"is_reserved":false,"is_disabled":false,"rental_uris":{"android":"levelo://app?vid=ae81485e-1d4d-4d60-a588-e4e00e9361f5","ios":"levelo://app?vid=ae81485e-1d4d-4d60-a588-e4e00e9361f5"},"vehicle_type_id":"4","last_reported":1701687996,"current_range_meters":28800,"station_id":"ce4bhqp2rcd13ifvqhng","pricing_plan_id":"free"},{"bike_id":"c6c5acc0-3971-43b9-ba4d-33c881a5a76e","system_id":"levelo_inurba_marseille","lat":43.317557,"lon":5.390173,"is_reserved":false,"is_disabled":false,"rental_uris":{"android":"levelo://app?vid=c6c5acc0-3971-43b9-ba4d-33c881a5a76e","ios":"levelo://app?vid=c6c5acc0-3971-43b9-ba4d-33c881a5a76e"},"vehicle_type_id":"4","last_reported":1701687996,"current_range_meters":19600,"station_id":"ce4bhqp2rcd13ifvqhng","pricing_plan_id":"free"},{"bike_id":"a71c79c9-2e02-4efa-8ab0-fbd47268f50a","system_id":"levelo_inurba_marseille","lat":43.317512,"lon":5.39031,"is_reserved":false,"is_disabled":false,"rental_uris":{"android":"levelo://app?vid=a71c79c9-2e02-4efa-8ab0-fbd47268f50a","ios":"levelo://app?vid=a71c79c9-2e02-4efa-8ab0-fbd47268f50a"},"vehicle_type_id":"4","last_reported":1701687996,"current_range_meters":20400,"station_id":"ce4bhqp2rcd13ifvqhng","pricing_plan_id":"free"},{"bike_id":"6e46e6a2-590e-4727-9285-2927041968f7","system_id":"levelo_inurba_marseille","lat":43.304274,"lon":5.388873,"is_reserved":false,"is_disabled":false,"rental_uris":{"android":"levelo://app?vid=6e46e6a2-590e-4727-9285-2927041968f7","ios":"levelo://app?vid=6e46e6a2-590e-4727-9285-2927041968f7"},"vehicle_type_id":"4","last_reported":1701687996,"current_range_meters":26000,"station_id":"ce4bgk12rcd13ifvqbi0","pricing_plan_id":"free"},{"bike_id":"87e742fe-26a4-4286-a6a1-7da3d242c966","system_id":"levelo_inurba_marseille","lat":43.304274,"lon":5.388873,"is_reserved":false,"is_disabled":false,"rental_uris":{"android":"levelo://app?vid=87e742fe-26a4-4286-a6a1-7da3d242c966","ios":"levelo://app?vid=87e742fe-26a4-4286-a6a1-7da3d242c966"},"vehicle_type_id":"4","last_reported":1701687996,"current_range_meters":30000,"station_id":"ce4bgk12rcd13ifvqbi0","pricing_plan_id":"free"},{"bike_id":"e567c985-3477-4440-8165-114bd869214c","system_id":"levelo_inurba_marseille","lat":43.299724,"lon":5.384848,"is_reserved":false,"is_disabled":false,"rental_uris":{"android":"levelo://app?vid=e567c985-3477-4440-8165-114bd869214c","ios":"levelo://app?vid=e567c985-3477-4440-8165-114bd869214c"},"vehicle_type_id":"4","last_reported":1701687996,"current_range_meters":22800,"station_id":"ce4bgj92rcd13ifvqbd0","pricing_plan_id":"free"},{"bike_id":"330481bf-c556-4433-bb18-f41acdfee4f7","system_id":"levelo_inurba_marseille","lat":43.32368,"lon":5.38881,"is_reserved":false,"is_disabled":false,"rental_uris":{"android":"levelo://app?vid=330481bf-c556-4433-bb18-f41acdfee4f7","ios":"levelo://app?vid=330481bf-c556-4433-bb18-f41acdfee4f7"},"vehicle_type_id":"4","last_reported":1701687996,"current_range_meters":1200,"station_id":"ce4bhqp2rcd13ifvqhog","pricing_plan_id":"free"},{"bike_id":"29851edb-e6e9-40fc-baf2-05b0aeeb5fc4","system_id":"levelo_inurba_marseille","lat":43.323657,"lon":5.388848,"is_reserved":false,"is_disabled":false,"rental_uris":{"android":"levelo://app?vid=29851edb-e6e9-40fc-baf2-05b0aeeb5fc4","ios":"levelo://app?vid=29851edb-e6e9-40fc-baf2-05b0aeeb5fc4"},"vehicle_type_id":"4","last_reported":1701687996,"current_range_meters":3600,"station_id":"ce4bhqp2rcd13ifvqhog","pricing_plan_id":"free"},{"bike_id":"eede2644-9686-41de-824b-580dd09293a1","system_id":"levelo_inurba_marseille","lat":43.2936,"lon":5.37835,"is_reserved":false,"is_disabled":false,"rental_uris":{"android":"levelo://app?vid=eede2644-9686-41de-824b-580dd09293a1","ios":"levelo://app?vid=eede2644-9686-41de-824b-580dd09293a1"},"vehicle_type_id":"4","last_reported":1701687996,"current_range_meters":7600,"station_id":"ce4bgjh2rcd13ifvqbf0","pricing_plan_id":"free"},{"bike_id":"3da06301-ff6e-4350-ad63-1b8cf983b44c","system_id":"levelo_inurba_marseille","lat":43.292311,"lon":5.360731,"is_reserved":false,"is_disabled":false,"rental_uris":{"android":"levelo://app?vid=3da06301-ff6e-4350-ad63-1b8cf983b44c","ios":"levelo://app?vid=3da06301-ff6e-4350-ad63-1b8cf983b44c"},"vehicle_type_id":"4","last_reported":1701687996,"current_range_meters":20800,"station_id":"ce4bhbh2rcd13ifvqeqg","pricing_plan_id":"free"},{"bike_id":"ef438e5a-db04-4d97-bda7-82a556c5f32d","system_id":"levelo_inurba_marseille","lat":43.292311,"lon":5.360731,"is_reserved":false,"is_disabled":false,"rental_uris":{"android":"levelo://app?vid=ef438e5a-db04-4d97-bda7-82a556c5f32d","ios":"levelo://app?vid=ef438e5a-db04-4d97-bda7-82a556c5f32d"},"vehicle_type_id":"4","last_reported":1701687996,"current_range_meters":19200,"station_id":"ce4bhbh2rcd13ifvqeqg","pricing_plan_id":"free"},{"bike_id":"9af90117-c929-46d5-a2f8-90c560b1385a","system_id":"levelo_inurba_marseille","lat":43.296935,"lon":5.376544,"is_reserved":false,"is_disabled":false,"rental_uris":{"android":"levelo://app?vid=9af90117-c929-46d5-a2f8-90c560b1385a","ios":"levelo://app?vid=9af90117-c929-46d5-a2f8-90c560b1385a"},"vehicle_type_id":"4","last_reported":1701687996,"current_range_meters":20000,"station_id":"ce4bgkh2rcd13ifvqbl0","pricing_plan_id":"free"},{"bike_id":"3b0ec0cd-8814-480e-b63c-14e7b5a01fac","system_id":"levelo_inurba_marseille","lat":43.291994,"lon":5.357886,"is_reserved":false,"is_disabled":false,"rental_uris":{"android":"levelo://app?vid=3b0ec0cd-8814-480e-b63c-14e7b5a01fac","ios":"levelo://app?vid=3b0ec0cd-8814-480e-b63c-14e7b5a01fac"},"vehicle_type_id":"4","last_reported":1701687996,"current_range_meters":17200,"station_id":"ce4bhb12rcd13ifvqel0","pricing_plan_id":"free"},{"bike_id":"bc5c1e57-6818-4e72-aa38-394d6e08d1ba","system_id":"levelo_inurba_marseille","lat":43.30211,"lon":5.39467,"is_reserved":false,"is_disabled":false,"rental_uris":{"android":"levelo://app?vid=bc5c1e57-6818-4e72-aa38-394d6e08d1ba","ios":"levelo://app?vid=bc5c1e57-6818-4e72-aa38-394d6e08d1ba"},"vehicle_type_id":"4","last_reported":1701687996,"current_range_meters":10800,"station_id":"ce4bh0p2rcd13ifvqd70","pricing_plan_id":"free"},{"bike_id":"46ee5c59-0fb1-4a1a-8a1f-14b18ee291f1","system_id":"levelo_inurba_marseille","lat":43.294153,"lon":5.386305,"is_reserved":false,"is_disabled":false,"rental_uris":{"android":"levelo://app?vid=46ee5c59-0fb1-4a1a-8a1f-14b18ee291f1","ios":"levelo://app?vid=46ee5c59-0fb1-4a1a-8a1f-14b18ee291f1"},"vehicle_type_id":"4","last_reported":1701687996,"current_range_meters":26800,"station_id":"ce4bh2h2rcd13ifvqdh0","pricing_plan_id":"free"},{"bike_id":"3a921694-0b5c-4b5a-b06c-ddddf55fd3f9","system_id":"levelo_inurba_marseille","lat":43.304296,"lon":5.397513,"is_reserved":false,"is_disabled":false,"rental_uris":{"android":"levelo://app?vid=3a921694-0b5c-4b5a-b06c-ddddf55fd3f9","ios":"levelo://app?vid=3a921694-0b5c-4b5a-b06c-ddddf55fd3f9"},"vehicle_type_id":"4","last_reported":1701687996,"current_range_meters":29200,"station_id":"ce4bh092rcd13ifvqd20","pricing_plan_id":"free"},{"bike_id":"fdec1f8c-3f65-4c4a-a693-42f0752abef1","system_id":"levelo_inurba_marseille","lat":43.290089,"lon":5.35617,"is_reserved":false,"is_disabled":false,"rental_uris":{"android":"levelo://app?vid=fdec1f8c-3f65-4c4a-a693-42f0752abef1","ios":"levelo://app?vid=fdec1f8c-3f65-4c4a-a693-42f0752abef1"},"vehicle_type_id":"4","last_reported":1701687996,"current_range_meters":4400,"station_id":"ce4bhb92rcd13ifvqen0","pricing_plan_id":"free"},{"bike_id":"821b761d-6865-4e52-b45a-331da3046b08","system_id":"levelo_inurba_marseille","lat":43.290074,"lon":5.356181,"is_reserved":false,"is_disabled":false,"rental_uris":{"android":"levelo://app?vid=821b761d-6865-4e52-b45a-331da3046b08","ios":"levelo://app?vid=821b761d-6865-4e52-b45a-331da3046b08"},"vehicle_type_id":"4","last_reported":1701687996,"current_range_meters":19600,"station_id":"ce4bhb92rcd13ifvqen0","pricing_plan_id":"free"},{"bike_id":"92e87130-2e7a-4e1e-95f9-672ad7f00e62","system_id":"levelo_inurba_marseille","lat":43.29008,"lon":5.35613,"is_reserved":false,"is_disabled":false,"rental_uris":{"android":"levelo://app?vid=92e87130-2e7a-4e1e-95f9-672ad7f00e62","ios":"levelo://app?vid=92e87130-2e7a-4e1e-95f9-672ad7f00e62"},"vehicle_type_id":"4","last_reported":1701687996,"current_range_meters":5200,"station_id":"ce4bhb92rcd13ifvqen0","pricing_plan_id":"free"},{"bike_id":"879a8c6a-88b2-4f7d-843e-93f3ee1c8705","system_id":"levelo_inurba_marseille","lat":43.29008,"lon":5.35609,"is_reserved":false,"is_disabled":false,"rental_uris":{"android":"levelo://app?vid=879a8c6a-88b2-4f7d-843e-93f3ee1c8705","ios":"levelo://app?vid=879a8c6a-88b2-4f7d-843e-93f3ee1c8705"},"vehicle_type_id":"4","last_reported":1701687996,"current_range_meters":20800,"station_id":"ce4bhb92rcd13ifvqen0","pricing_plan_id":"free"},{"bike_id":"86d4a3d2-971c-4c36-8278-bec9be32993e","system_id":"levelo_inurba_marseille","lat":43.290056,"lon":5.356181,"is_reserved":false,"is_disabled":false,"rental_uris":{"android":"levelo://app?vid=86d4a3d2-971c-4c36-8278-bec9be32993e","ios":"levelo://app?vid=86d4a3d2-971c-4c36-8278-bec9be32993e"},"vehicle_type_id":"4","last_reported":1701687996,"current_range_meters":10800,"station_id":"ce4bhb92rcd13ifvqen0","pricing_plan_id":"free"},{"bike_id":"38975dab-411a-4b4b-8650-7483102fcb9e","system_id":"levelo_inurba_marseille","lat":43.29008,"lon":5.35608,"is_reserved":false,"is_disabled":false,"rental_uris":{"android":"levelo://app?vid=38975dab-411a-4b4b-8650-7483102fcb9e","ios":"levelo://app?vid=38975dab-411a-4b4b-8650-7483102fcb9e"},"vehicle_type_id":"4","last_reported":1701687996,"current_range_meters":8400,"station_id":"ce4bhb92rcd13ifvqen0","pricing_plan_id":"free"},{"bike_id":"9843c21d-1183-476a-b0c6-edb77488e756","system_id":"levelo_inurba_marseille","lat":43.290068,"lon":5.356122,"is_reserved":false,"is_disabled":false,"rental_uris":{"android":"levelo://app?vid=9843c21d-1183-476a-b0c6-edb77488e756","ios":"levelo://app?vid=9843c21d-1183-476a-b0c6-edb77488e756"},"vehicle_type_id":"4","last_reported":1701687996,"current_range_meters":6000,"station_id":"ce4bhb92rcd13ifvqen0","pricing_plan_id":"free"},{"bike_id":"c30ec4f4-771a-42a1-8006-44dd17008ebc","system_id":"levelo_inurba_marseille","lat":43.29008,"lon":5.35607,"is_reserved":false,"is_disabled":false,"rental_uris":{"android":"levelo://app?vid=c30ec4f4-771a-42a1-8006-44dd17008ebc","ios":"levelo://app?vid=c30ec4f4-771a-42a1-8006-44dd17008ebc"},"vehicle_type_id":"4","last_reported":1701687996,"current_range_meters":21200,"station_id":"ce4bhb92rcd13ifvqen0","pricing_plan_id":"free"},{"bike_id":"26b5439b-c7f2-419a-984b-48b0e2ec436a","system_id":"levelo_inurba_marseille","lat":43.290052,"lon":5.356178,"is_reserved":false,"is_disabled":false,"rental_uris":{"android":"levelo://app?vid=26b5439b-c7f2-419a-984b-48b0e2ec436a","ios":"levelo://app?vid=26b5439b-c7f2-419a-984b-48b0e2ec436a"},"vehicle_type_id":"4","last_reported":1701687996,"current_range_meters":9600,"station_id":"ce4bhb92rcd13ifvqen0","pricing_plan_id":"free"},{"bike_id":"8c3ce7b5-bf45-4c96-9b6b-ada64a59ff11","system_id":"levelo_inurba_marseille","lat":43.290047,"lon":5.356184,"is_reserved":false,"is_disabled":false,"rental_uris":{"android":"levelo://app?vid=8c3ce7b5-bf45-4c96-9b6b-ada64a59ff11","ios":"levelo://app?vid=8c3ce7b5-bf45-4c96-9b6b-ada64a59ff11"},"vehicle_type_id":"4","last_reported":1701687996,"current_range_meters":25600,"station_id":"ce4bhb92rcd13ifvqen0","pricing_plan_id":"free"},{"bike_id":"ebd51177-9189-496c-b130-14675721fe46","system_id":"levelo_inurba_marseille","lat":43.29007,"lon":5.35609,"is_reserved":false,"is_disabled":false,"rental_uris":{"android":"levelo://app?vid=ebd51177-9189-496c-b130-14675721fe46","ios":"levelo://app?vid=ebd51177-9189-496c-b130-14675721fe46"},"vehicle_type_id":"4","last_reported":1701687996,"current_range_meters":11200,"station_id":"ce4bhb92rcd13ifvqen0","pricing_plan_id":"free"},{"bike_id":"39f8b8ac-f88a-413c-bd1e-a0197d654a4f","system_id":"levelo_inurba_marseille","lat":43.290042,"lon":5.356189,"is_reserved":false,"is_disabled":false,"rental_uris":{"android":"levelo://app?vid=39f8b8ac-f88a-413c-bd1e-a0197d654a4f","ios":"levelo://app?vid=39f8b8ac-f88a-413c-bd1e-a0197d654a4f"},"vehicle_type_id":"4","last_reported":1701687996,"current_range_meters":800,"station_id":"ce4bhb92rcd13ifvqen0","pricing_plan_id":"free"},{"bike_id":"c8e4d4f8-e420-471a-9d88-d16e5c5df564","system_id":"levelo_inurba_marseille","lat":43.290041,"lon":5.356183,"is_reserved":false,"is_disabled":false,"rental_uris":{"android":"levelo://app?vid=c8e4d4f8-e420-471a-9d88-d16e5c5df564","ios":"levelo://app?vid=c8e4d4f8-e420-471a-9d88-d16e5c5df564"},"vehicle_type_id":"4","last_reported":1701687996,"current_range_meters":26000,"station_id":"ce4bhb92rcd13ifvqen0","pricing_plan_id":"free"},{"bike_id":"54520010-3631-4ffa-946c-aad46e5f28d6","system_id":"levelo_inurba_marseille","lat":43.290043,"lon":5.356142,"is_reserved":false,"is_disabled":false,"rental_uris":{"android":"levelo://app?vid=54520010-3631-4ffa-946c-aad46e5f28d6","ios":"levelo://app?vid=54520010-3631-4ffa-946c-aad46e5f28d6"},"vehicle_type_id":"4","last_reported":1701687996,"current_range_meters":28400,"station_id":"ce4bhb92rcd13ifvqen0","pricing_plan_id":"free"},{"bike_id":"e3b9b546-1be6-4f9e-9981-aff49095651c","system_id":"levelo_inurba_marseille","lat":43.290047,"lon":5.356116,"is_reserved":false,"is_disabled":false,"rental_uris":{"android":"levelo://app?vid=e3b9b546-1be6-4f9e-9981-aff49095651c","ios":"levelo://app?vid=e3b9b546-1be6-4f9e-9981-aff49095651c"},"vehicle_type_id":"4","last_reported":1701687996,"current_range_meters":17200,"station_id":"ce4bhb92rcd13ifvqen0","pricing_plan_id":"free"},{"bike_id":"f727844a-30cd-44fa-beb9-4c168d63a3e0","system_id":"levelo_inurba_marseille","lat":43.290043,"lon":5.356027,"is_reserved":false,"is_disabled":false,"rental_uris":{"android":"levelo://app?vid=f727844a-30cd-44fa-beb9-4c168d63a3e0","ios":"levelo://app?vid=f727844a-30cd-44fa-beb9-4c168d63a3e0"},"vehicle_type_id":"4","last_reported":1701687996,"current_range_meters":18000,"station_id":"ce4bhb92rcd13ifvqen0","pricing_plan_id":"free"},{"bike_id":"10375e89-6dba-4cca-b4ee-8625fdd0f636","system_id":"levelo_inurba_marseille","lat":43.29002,"lon":5.35608,"is_reserved":false,"is_disabled":false,"rental_uris":{"android":"levelo://app?vid=10375e89-6dba-4cca-b4ee-8625fdd0f636","ios":"levelo://app?vid=10375e89-6dba-4cca-b4ee-8625fdd0f636"},"vehicle_type_id":"4","last_reported":1701687996,"current_range_meters":11600,"station_id":"ce4bhb92rcd13ifvqen0","pricing_plan_id":"free"},{"bike_id":"c53ebf42-6746-4a00-ae00-6760d8019153","system_id":"levelo_inurba_marseille","lat":43.29003,"lon":5.35601,"is_reserved":false,"is_disabled":false,"rental_uris":{"android":"levelo://app?vid=c53ebf42-6746-4a00-ae00-6760d8019153","ios":"levelo://app?vid=c53ebf42-6746-4a00-ae00-6760d8019153"},"vehicle_type_id":"4","last_reported":1701687996,"current_range_meters":20800,"station_id":"ce4bhb92rcd13ifvqen0","pricing_plan_id":"free"},{"bike_id":"befc1f3c-16af-4d6c-8897-9422920a7681","system_id":"levelo_inurba_marseille","lat":43.289996,"lon":5.356064,"is_reserved":false,"is_disabled":false,"rental_uris":{"android":"levelo://app?vid=befc1f3c-16af-4d6c-8897-9422920a7681","ios":"levelo://app?vid=befc1f3c-16af-4d6c-8897-9422920a7681"},"vehicle_type_id":"4","last_reported":1701687996,"current_range_meters":8800,"station_id":"ce4bhb92rcd13ifvqen0","pricing_plan_id":"free"},{"bike_id":"21424d1a-2313-4bdc-85ab-f5ac09aced86","system_id":"levelo_inurba_marseille","lat":43.290995,"lon":5.381361,"is_reserved":false,"is_disabled":false,"rental_uris":{"android":"levelo://app?vid=21424d1a-2313-4bdc-85ab-f5ac09aced86","ios":"levelo://app?vid=21424d1a-2313-4bdc-85ab-f5ac09aced86"},"vehicle_type_id":"4","last_reported":1701687996,"current_range_meters":27200,"station_id":"ce4bh512rcd13ifvqe2g","pricing_plan_id":"free"},{"bike_id":"a1d68d51-c697-4194-87a5-2f3f0da8ca4b","system_id":"levelo_inurba_marseille","lat":43.290995,"lon":5.381361,"is_reserved":false,"is_disabled":false,"rental_uris":{"android":"levelo://app?vid=a1d68d51-c697-4194-87a5-2f3f0da8ca4b","ios":"levelo://app?vid=a1d68d51-c697-4194-87a5-2f3f0da8ca4b"},"vehicle_type_id":"4","last_reported":1701687996,"current_range_meters":29600,"station_id":"ce4bh512rcd13ifvqe2g","pricing_plan_id":"free"},{"bike_id":"dec17826-81f8-48bb-8cbc-3821177b730d","system_id":"levelo_inurba_marseille","lat":43.295169,"lon":5.390426,"is_reserved":false,"is_disabled":false,"rental_uris":{"android":"levelo://app?vid=dec17826-81f8-48bb-8cbc-3821177b730d","ios":"levelo://app?vid=dec17826-81f8-48bb-8cbc-3821177b730d"},"vehicle_type_id":"4","last_reported":1701687996,"current_range_meters":26800,"station_id":"ce4bh3p2rcd13ifvqdp0","pricing_plan_id":"free"},{"bike_id":"6e116e51-d8b0-46a7-a804-ae5afdfe58aa","system_id":"levelo_inurba_marseille","lat":43.28867,"lon":5.35867,"is_reserved":false,"is_disabled":false,"rental_uris":{"android":"levelo://app?vid=6e116e51-d8b0-46a7-a804-ae5afdfe58aa","ios":"levelo://app?vid=6e116e51-d8b0-46a7-a804-ae5afdfe58aa"},"vehicle_type_id":"4","last_reported":1701687996,"current_range_meters":23200,"station_id":"ce4bhb12rcd13ifvqem0","pricing_plan_id":"free"},{"bike_id":"75aae73a-1219-4986-b70e-a56f337e495e","system_id":"levelo_inurba_marseille","lat":43.28856,"lon":5.358371,"is_reserved":false,"is_disabled":false,"rental_uris":{"android":"levelo://app?vid=75aae73a-1219-4986-b70e-a56f337e495e","ios":"levelo://app?vid=75aae73a-1219-4986-b70e-a56f337e495e"},"vehicle_type_id":"4","last_reported":1701687996,"current_range_meters":22400,"station_id":"ce4bhb12rcd13ifvqem0","pricing_plan_id":"free"},{"bike_id":"94dff6b1-c359-4e63-9b5b-5f815ee3ce54","system_id":"levelo_inurba_marseille","lat":43.337343,"lon":5.374513,"is_reserved":false,"is_disabled":false,"rental_uris":{"android":"levelo://app?vid=94dff6b1-c359-4e63-9b5b-5f815ee3ce54","ios":"levelo://app?vid=94dff6b1-c359-4e63-9b5b-5f815ee3ce54"},"vehicle_type_id":"4","last_reported":1701687996,"current_range_meters":9600,"station_id":"","pricing_plan_id":"free"},{"bike_id":"a6d30fb2-2e63-47bd-9244-71c52b231c0b","system_id":"levelo_inurba_marseille","lat":43.301317,"lon":5.398681,"is_reserved":false,"is_disabled":false,"rental_uris":{"android":"levelo://app?vid=a6d30fb2-2e63-47bd-9244-71c52b231c0b","ios":"levelo://app?vid=a6d30fb2-2e63-47bd-9244-71c52b231c0b"},"vehicle_type_id":"4","last_reported":1701687996,"current_range_meters":0,"station_id":"","pricing_plan_id":"free"},{"bike_id":"88bcc93a-207a-4490-9ca8-a16446484421","system_id":"levelo_inurba_marseille","lat":43.298681,"lon":5.397225,"is_reserved":false,"is_disabled":false,"rental_uris":{"android":"levelo://app?vid=88bcc93a-207a-4490-9ca8-a16446484421","ios":"levelo://app?vid=88bcc93a-207a-4490-9ca8-a16446484421"},"vehicle_type_id":"4","last_reported":1701687996,"current_range_meters":24000,"station_id":"ce4bh0h2rcd13ifvqd50","pricing_plan_id":"free"},{"bike_id":"0b1c2261-495f-4d70-9abe-bae621246fa7","system_id":"levelo_inurba_marseille","lat":43.286591,"lon":5.363346,"is_reserved":false,"is_disabled":false,"rental_uris":{"android":"levelo://app?vid=0b1c2261-495f-4d70-9abe-bae621246fa7","ios":"levelo://app?vid=0b1c2261-495f-4d70-9abe-bae621246fa7"},"vehicle_type_id":"4","last_reported":1701687996,"current_range_meters":13200,"station_id":"ce4bhah2rcd13ifvqej0","pricing_plan_id":"free"},{"bike_id":"33ce39a2-3e76-4b71-b387-a04b5b89f029","system_id":"levelo_inurba_marseille","lat":43.286961,"lon":5.373785,"is_reserved":false,"is_disabled":false,"rental_uris":{"android":"levelo://app?vid=33ce39a2-3e76-4b71-b387-a04b5b89f029","ios":"levelo://app?vid=33ce39a2-3e76-4b71-b387-a04b5b89f029"},"vehicle_type_id":"4","last_reported":1701687996,"current_range_meters":25200,"station_id":"ce4bh3p2rcd13ifvqdq0","pricing_plan_id":"free"},{"bike_id":"18d8fbdd-76dd-4ed4-8e59-5ff44121887c","system_id":"levelo_inurba_marseille","lat":43.289307,"lon":5.38406,"is_reserved":false,"is_disabled":false,"rental_uris":{"android":"levelo://app?vid=18d8fbdd-76dd-4ed4-8e59-5ff44121887c","ios":"levelo://app?vid=18d8fbdd-76dd-4ed4-8e59-5ff44121887c"},"vehicle_type_id":"4","last_reported":1701687996,"current_range_meters":22000,"station_id":"ce4bh612rcd13ifvqe6g","pricing_plan_id":"free"},{"bike_id":"9a60e5bd-e432-4a16-86ae-bbca6715db78","system_id":"levelo_inurba_marseille","lat":43.302759,"lon":5.400793,"is_reserved":false,"is_disabled":false,"rental_uris":{"android":"levelo://app?vid=9a60e5bd-e432-4a16-86ae-bbca6715db78","ios":"levelo://app?vid=9a60e5bd-e432-4a16-86ae-bbca6715db78"},"vehicle_type_id":"4","last_reported":1701687996,"current_range_meters":29600,"station_id":"ce4bgvh2rcd13ifvqcs0","pricing_plan_id":"free"},{"bike_id":"7fea3769-1e49-4101-9624-5931a0852249","system_id":"levelo_inurba_marseille","lat":43.287185,"lon":5.379373,"is_reserved":false,"is_disabled":false,"rental_uris":{"android":"levelo://app?vid=7fea3769-1e49-4101-9624-5931a0852249","ios":"levelo://app?vid=7fea3769-1e49-4101-9624-5931a0852249"},"vehicle_type_id":"4","last_reported":1701687996,"current_range_meters":25600,"station_id":"ce4bh9p2rcd13ifvqec0","pricing_plan_id":"free"},{"bike_id":"19407d5e-6ff4-4cc6-b7e4-a557848de64e","system_id":"levelo_inurba_marseille","lat":43.291994,"lon":5.392907,"is_reserved":false,"is_disabled":false,"rental_uris":{"android":"levelo://app?vid=19407d5e-6ff4-4cc6-b7e4-a557848de64e","ios":"levelo://app?vid=19407d5e-6ff4-4cc6-b7e4-a557848de64e"},"vehicle_type_id":"4","last_reported":1701687996,"current_range_meters":23600,"station_id":"ce4bh192rcd13ifvqdd0","pricing_plan_id":"free"},{"bike_id":"9e49de5b-39b7-47e1-9e0d-8e9756523e09","system_id":"levelo_inurba_marseille","lat":43.302008,"lon":5.394694,"is_reserved":false,"is_disabled":false,"rental_uris":{"android":"levelo://app?vid=9e49de5b-39b7-47e1-9e0d-8e9756523e09","ios":"levelo://app?vid=9e49de5b-39b7-47e1-9e0d-8e9756523e09"},"vehicle_type_id":"4","last_reported":1701687996,"current_range_meters":24800,"station_id":"ce4bh0p2rcd13ifvqd70","pricing_plan_id":"free"},{"bike_id":"bbe9593b-da5b-4b7f-a87c-14aaf2cb631e","system_id":"levelo_inurba_marseille","lat":43.291994,"lon":5.392907,"is_reserved":false,"is_disabled":false,"rental_uris":{"android":"levelo://app?vid=bbe9593b-da5b-4b7f-a87c-14aaf2cb631e","ios":"levelo://app?vid=bbe9593b-da5b-4b7f-a87c-14aaf2cb631e"},"vehicle_type_id":"4","last_reported":1701687996,"current_range_meters":27600,"station_id":"ce4bh192rcd13ifvqdd0","pricing_plan_id":"free"},{"bike_id":"0d139901-623a-400f-b22f-b57c1f439975","system_id":"levelo_inurba_marseille","lat":43.284538,"lon":5.358657,"is_reserved":false,"is_disabled":false,"rental_uris":{"android":"levelo://app?vid=0d139901-623a-400f-b22f-b57c1f439975","ios":"levelo://app?vid=0d139901-623a-400f-b22f-b57c1f439975"},"vehicle_type_id":"4","last_reported":1701687996,"current_range_meters":24000,"station_id":"ce4bhah2rcd13ifvqei0","pricing_plan_id":"free"},{"bike_id":"78aa54fc-c264-4671-8c0c-59759069a77a","system_id":"levelo_inurba_marseille","lat":43.285856,"lon":5.350771,"is_reserved":false,"is_disabled":false,"rental_uris":{"android":"levelo://app?vid=78aa54fc-c264-4671-8c0c-59759069a77a","ios":"levelo://app?vid=78aa54fc-c264-4671-8c0c-59759069a77a"},"vehicle_type_id":"4","last_reported":1701687996,"current_range_meters":9200,"station_id":"ce4bhch2rcd13ifvqeug","pricing_plan_id":"free"},{"bike_id":"b686b8a8-ca19-4d96-b2a7-299d4f07bc59","system_id":"levelo_inurba_marseille","lat":43.286139,"lon":5.35101,"is_reserved":false,"is_disabled":false,"rental_uris":{"android":"levelo://app?vid=b686b8a8-ca19-4d96-b2a7-299d4f07bc59","ios":"levelo://app?vid=b686b8a8-ca19-4d96-b2a7-299d4f07bc59"},"vehicle_type_id":"4","last_reported":1701687996,"current_range_meters":30000,"station_id":"ce4bhch2rcd13ifvqeug","pricing_plan_id":"free"},{"bike_id":"5118ebab-f973-4dab-9861-dbc1a6ed1b7c","system_id":"levelo_inurba_marseille","lat":43.283998,"lon":5.375062,"is_reserved":false,"is_disabled":false,"rental_uris":{"android":"levelo://app?vid=5118ebab-f973-4dab-9861-dbc1a6ed1b7c","ios":"levelo://app?vid=5118ebab-f973-4dab-9861-dbc1a6ed1b7c"},"vehicle_type_id":"4","last_reported":1701687996,"current_range_meters":24400,"station_id":"ce4bh412rcd13ifvqds0","pricing_plan_id":"free"},{"bike_id":"19f67075-5441-4bb1-88c2-68051f38468b","system_id":"levelo_inurba_marseille","lat":43.283998,"lon":5.375062,"is_reserved":false,"is_disabled":false,"rental_uris":{"android":"levelo://app?vid=19f67075-5441-4bb1-88c2-68051f38468b","ios":"levelo://app?vid=19f67075-5441-4bb1-88c2-68051f38468b"},"vehicle_type_id":"4","last_reported":1701687996,"current_range_meters":24400,"station_id":"ce4bh412rcd13ifvqds0","pricing_plan_id":"free"},{"bike_id":"05afa003-da4e-4bd9-80ce-3e8360212277","system_id":"levelo_inurba_marseille","lat":43.33717,"lon":5.391857,"is_reserved":false,"is_disabled":false,"rental_uris":{"android":"levelo://app?vid=05afa003-da4e-4bd9-80ce-3e8360212277","ios":"levelo://app?vid=05afa003-da4e-4bd9-80ce-3e8360212277"},"vehicle_type_id":"4","last_reported":1701687996,"current_range_meters":18800,"station_id":"ce4bhr92rcd13ifvqhsg","pricing_plan_id":"free"},{"bike_id":"2f73a9c6-ea7c-45de-beee-438befc58a7b","system_id":"levelo_inurba_marseille","lat":43.33717,"lon":5.391857,"is_reserved":false,"is_disabled":false,"rental_uris":{"android":"levelo://app?vid=2f73a9c6-ea7c-45de-beee-438befc58a7b","ios":"levelo://app?vid=2f73a9c6-ea7c-45de-beee-438befc58a7b"},"vehicle_type_id":"4","last_reported":1701687996,"current_range_meters":14800,"station_id":"ce4bhr92rcd13ifvqhsg","pricing_plan_id":"free"},{"bike_id":"4b021143-be23-4d8d-ac72-086548831286","system_id":"levelo_inurba_marseille","lat":43.33717,"lon":5.391857,"is_reserved":false,"is_disabled":false,"rental_uris":{"android":"levelo://app?vid=4b021143-be23-4d8d-ac72-086548831286","ios":"levelo://app?vid=4b021143-be23-4d8d-ac72-086548831286"},"vehicle_type_id":"4","last_reported":1701687996,"current_range_meters":31600,"station_id":"ce4bhr92rcd13ifvqhsg","pricing_plan_id":"free"},{"bike_id":"23a6e18e-5ad6-40cf-b6fb-7a4b1a6034c9","system_id":"levelo_inurba_marseille","lat":43.337168,"lon":5.391825,"is_reserved":false,"is_disabled":false,"rental_uris":{"android":"levelo://app?vid=23a6e18e-5ad6-40cf-b6fb-7a4b1a6034c9","ios":"levelo://app?vid=23a6e18e-5ad6-40cf-b6fb-7a4b1a6034c9"},"vehicle_type_id":"4","last_reported":1701687996,"current_range_meters":28000,"station_id":"ce4bhr92rcd13ifvqhsg","pricing_plan_id":"free"},{"bike_id":"9ec2cb56-a672-44a8-9301-69cee67e4a84","system_id":"levelo_inurba_marseille","lat":43.284793,"lon":5.384113,"is_reserved":false,"is_disabled":false,"rental_uris":{"android":"levelo://app?vid=9ec2cb56-a672-44a8-9301-69cee67e4a84","ios":"levelo://app?vid=9ec2cb56-a672-44a8-9301-69cee67e4a84"},"vehicle_type_id":"4","last_reported":1701687996,"current_range_meters":31200,"station_id":"ce4bh512rcd13ifvqe3g","pricing_plan_id":"free"},{"bike_id":"9ddf5614-1b10-4369-82eb-f48ce97b415d","system_id":"levelo_inurba_marseille","lat":43.284793,"lon":5.384113,"is_reserved":false,"is_disabled":false,"rental_uris":{"android":"levelo://app?vid=9ddf5614-1b10-4369-82eb-f48ce97b415d","ios":"levelo://app?vid=9ddf5614-1b10-4369-82eb-f48ce97b415d"},"vehicle_type_id":"4","last_reported":1701687996,"current_range_meters":22800,"station_id":"ce4bh512rcd13ifvqe3g","pricing_plan_id":"free"},{"bike_id":"7ace1585-eb44-4f7c-8514-d412c7434224","system_id":"levelo_inurba_marseille","lat":43.284787,"lon":5.384116,"is_reserved":false,"is_disabled":false,"rental_uris":{"android":"levelo://app?vid=7ace1585-eb44-4f7c-8514-d412c7434224","ios":"levelo://app?vid=7ace1585-eb44-4f7c-8514-d412c7434224"},"vehicle_type_id":"4","last_reported":1701687996,"current_range_meters":27200,"station_id":"ce4bh512rcd13ifvqe3g","pricing_plan_id":"free"},{"bike_id":"45cef143-0774-4b55-ae91-b77bdbfc7b38","system_id":"levelo_inurba_marseille","lat":43.284219,"lon":5.3497,"is_reserved":false,"is_disabled":false,"rental_uris":{"android":"levelo://app?vid=45cef143-0774-4b55-ae91-b77bdbfc7b38","ios":"levelo://app?vid=45cef143-0774-4b55-ae91-b77bdbfc7b38"},"vehicle_type_id":"4","last_reported":1701687996,"current_range_meters":30400,"station_id":"ce4bhbh2rcd13ifvqepg","pricing_plan_id":"free"},{"bike_id":"21752b81-0626-41e4-9d15-8ad0e7067d85","system_id":"levelo_inurba_marseille","lat":43.284217,"lon":5.349697,"is_reserved":false,"is_disabled":false,"rental_uris":{"android":"levelo://app?vid=21752b81-0626-41e4-9d15-8ad0e7067d85","ios":"levelo://app?vid=21752b81-0626-41e4-9d15-8ad0e7067d85"},"vehicle_type_id":"4","last_reported":1701687996,"current_range_meters":30400,"station_id":"ce4bhbh2rcd13ifvqepg","pricing_plan_id":"free"},{"bike_id":"58f0f0d9-215b-4a2a-9276-93ec9a6fe075","system_id":"levelo_inurba_marseille","lat":43.289363,"lon":5.396322,"is_reserved":false,"is_disabled":false,"rental_uris":{"android":"levelo://app?vid=58f0f0d9-215b-4a2a-9276-93ec9a6fe075","ios":"levelo://app?vid=58f0f0d9-215b-4a2a-9276-93ec9a6fe075"},"vehicle_type_id":"4","last_reported":1701687996,"current_range_meters":10400,"station_id":"ce4bh3h2rcd13ifvqdn0","pricing_plan_id":"free"},{"bike_id":"e4209332-e03a-4b1d-a6eb-fe77e2b34631","system_id":"levelo_inurba_marseille","lat":43.28039,"lon":5.369297,"is_reserved":false,"is_disabled":false,"rental_uris":{"android":"levelo://app?vid=e4209332-e03a-4b1d-a6eb-fe77e2b34631","ios":"levelo://app?vid=e4209332-e03a-4b1d-a6eb-fe77e2b34631"},"vehicle_type_id":"4","last_reported":1701687996,"current_range_meters":29200,"station_id":"ce4bha12rcd13ifvqef0","pricing_plan_id":"free"},{"bike_id":"13d15ca2-efd0-470a-b2e5-2c329c94d7d7","system_id":"levelo_inurba_marseille","lat":43.28118,"lon":5.38207,"is_reserved":false,"is_disabled":false,"rental_uris":{"android":"levelo://app?vid=13d15ca2-efd0-470a-b2e5-2c329c94d7d7","ios":"levelo://app?vid=13d15ca2-efd0-470a-b2e5-2c329c94d7d7"},"vehicle_type_id":"4","last_reported":1701687996,"current_range_meters":12800,"station_id":"","pricing_plan_id":"free"},{"bike_id":"bf67dce8-c342-4745-923f-69fc7b0305d5","system_id":"levelo_inurba_marseille","lat":43.284462,"lon":5.392121,"is_reserved":false,"is_disabled":false,"rental_uris":{"android":"levelo://app?vid=bf67dce8-c342-4745-923f-69fc7b0305d5","ios":"levelo://app?vid=bf67dce8-c342-4745-923f-69fc7b0305d5"},"vehicle_type_id":"4","last_reported":1701687996,"current_range_meters":22000,"station_id":"ce4bhoh2rcd13ifvqh5g","pricing_plan_id":"free"},{"bike_id":"a1e555e1-517b-432f-a3cc-409cb4020186","system_id":"levelo_inurba_marseille","lat":43.28573,"lon":5.394992,"is_reserved":false,"is_disabled":false,"rental_uris":{"android":"levelo://app?vid=a1e555e1-517b-432f-a3cc-409cb4020186","ios":"levelo://app?vid=a1e555e1-517b-432f-a3cc-409cb4020186"},"vehicle_type_id":"4","last_reported":1701687996,"current_range_meters":24800,"station_id":"ce4bh292rcd13ifvqdg0","pricing_plan_id":"free"},{"bike_id":"97d426ea-c6c0-4f09-9ba0-813647455d12","system_id":"levelo_inurba_marseille","lat":43.27973,"lon":5.38726,"is_reserved":false,"is_disabled":false,"rental_uris":{"android":"levelo://app?vid=97d426ea-c6c0-4f09-9ba0-813647455d12","ios":"levelo://app?vid=97d426ea-c6c0-4f09-9ba0-813647455d12"},"vehicle_type_id":"4","last_reported":1701687996,"current_range_meters":13200,"station_id":"ce4bhg12rcd13ifvqf80","pricing_plan_id":"free"},{"bike_id":"7e69e305-86d6-43c6-91d1-b699a62f746d","system_id":"levelo_inurba_marseille","lat":43.279742,"lon":5.38744,"is_reserved":false,"is_disabled":false,"rental_uris":{"android":"levelo://app?vid=7e69e305-86d6-43c6-91d1-b699a62f746d","ios":"levelo://app?vid=7e69e305-86d6-43c6-91d1-b699a62f746d"},"vehicle_type_id":"4","last_reported":1701687996,"current_range_meters":28000,"station_id":"ce4bhg12rcd13ifvqf80","pricing_plan_id":"free"},{"bike_id":"0b36325d-7ed7-4315-9fcd-d28e7b9c0ad6","system_id":"levelo_inurba_marseille","lat":43.279742,"lon":5.38744,"is_reserved":false,"is_disabled":false,"rental_uris":{"android":"levelo://app?vid=0b36325d-7ed7-4315-9fcd-d28e7b9c0ad6","ios":"levelo://app?vid=0b36325d-7ed7-4315-9fcd-d28e7b9c0ad6"},"vehicle_type_id":"4","last_reported":1701687996,"current_range_meters":24800,"station_id":"ce4bhg12rcd13ifvqf80","pricing_plan_id":"free"},{"bike_id":"42799abd-7493-4700-ac99-6ab0ae79d508","system_id":"levelo_inurba_marseille","lat":43.32547,"lon":5.41434,"is_reserved":false,"is_disabled":false,"rental_uris":{"android":"levelo://app?vid=42799abd-7493-4700-ac99-6ab0ae79d508","ios":"levelo://app?vid=42799abd-7493-4700-ac99-6ab0ae79d508"},"vehicle_type_id":"4","last_reported":1701687996,"current_range_meters":15200,"station_id":"ce4bhq12rcd13ifvqhhg","pricing_plan_id":"free"},{"bike_id":"5a25bf69-6178-4680-ba62-eb181662b01d","system_id":"levelo_inurba_marseille","lat":43.325243,"lon":5.414326,"is_reserved":false,"is_disabled":false,"rental_uris":{"android":"levelo://app?vid=5a25bf69-6178-4680-ba62-eb181662b01d","ios":"levelo://app?vid=5a25bf69-6178-4680-ba62-eb181662b01d"},"vehicle_type_id":"4","last_reported":1701687996,"current_range_meters":26800,"station_id":"ce4bhq12rcd13ifvqhhg","pricing_plan_id":"free"},{"bike_id":"0da37ed4-bac2-4367-be03-b22617a8c7c7","system_id":"levelo_inurba_marseille","lat":43.325233,"lon":5.414318,"is_reserved":false,"is_disabled":false,"rental_uris":{"android":"levelo://app?vid=0da37ed4-bac2-4367-be03-b22617a8c7c7","ios":"levelo://app?vid=0da37ed4-bac2-4367-be03-b22617a8c7c7"},"vehicle_type_id":"4","last_reported":1701687996,"current_range_meters":28400,"station_id":"ce4bhq12rcd13ifvqhhg","pricing_plan_id":"free"},{"bike_id":"7bd2208d-341e-43cb-9d17-06f746e5d7a8","system_id":"levelo_inurba_marseille","lat":43.27611,"lon":5.36108,"is_reserved":false,"is_disabled":false,"rental_uris":{"android":"levelo://app?vid=7bd2208d-341e-43cb-9d17-06f746e5d7a8","ios":"levelo://app?vid=7bd2208d-341e-43cb-9d17-06f746e5d7a8"},"vehicle_type_id":"4","last_reported":1701687996,"current_range_meters":0,"station_id":"ce4bgj92rcd13ifvqbe0","pricing_plan_id":"free"},{"bike_id":"c0de6499-2376-42d4-97e2-9aeff38da8aa","system_id":"levelo_inurba_marseille","lat":43.280784,"lon":5.396622,"is_reserved":false,"is_disabled":false,"rental_uris":{"android":"levelo://app?vid=c0de6499-2376-42d4-97e2-9aeff38da8aa","ios":"levelo://app?vid=c0de6499-2376-42d4-97e2-9aeff38da8aa"},"vehicle_type_id":"4","last_reported":1701687996,"current_range_meters":28400,"station_id":"ce4bho12rcd13ifvqh2g","pricing_plan_id":"free"},{"bike_id":"d8138366-200c-4f0a-868e-37ec9469c672","system_id":"levelo_inurba_marseille","lat":43.278401,"lon":5.392152,"is_reserved":false,"is_disabled":false,"rental_uris":{"android":"levelo://app?vid=d8138366-200c-4f0a-868e-37ec9469c672","ios":"levelo://app?vid=d8138366-200c-4f0a-868e-37ec9469c672"},"vehicle_type_id":"4","last_reported":1701687996,"current_range_meters":28400,"station_id":"ce4bhjp2rcd13ifvqga0","pricing_plan_id":"free"},{"bike_id":"3ea28be1-d23c-49b6-a64f-225039a206c7","system_id":"levelo_inurba_marseille","lat":43.273613,"lon":5.362705,"is_reserved":false,"is_disabled":false,"rental_uris":{"android":"levelo://app?vid=3ea28be1-d23c-49b6-a64f-225039a206c7","ios":"levelo://app?vid=3ea28be1-d23c-49b6-a64f-225039a206c7"},"vehicle_type_id":"4","last_reported":1701687996,"current_range_meters":28400,"station_id":"ce4bhbh2rcd13ifvqeo0","pricing_plan_id":"free"},{"bike_id":"c1f3b903-62f9-4d4c-ada3-06f74bad596b","system_id":"levelo_inurba_marseille","lat":43.33612,"lon":5.410321,"is_reserved":false,"is_disabled":false,"rental_uris":{"android":"levelo://app?vid=c1f3b903-62f9-4d4c-ada3-06f74bad596b","ios":"levelo://app?vid=c1f3b903-62f9-4d4c-ada3-06f74bad596b"},"vehicle_type_id":"4","last_reported":1701687996,"current_range_meters":26800,"station_id":"ce4bhqh2rcd13ifvqhmg","pricing_plan_id":"free"},{"bike_id":"fda9e40b-e96c-4e66-a454-2245b873b970","system_id":"levelo_inurba_marseille","lat":43.273609,"lon":5.362708,"is_reserved":false,"is_disabled":false,"rental_uris":{"android":"levelo://app?vid=fda9e40b-e96c-4e66-a454-2245b873b970","ios":"levelo://app?vid=fda9e40b-e96c-4e66-a454-2245b873b970"},"vehicle_type_id":"4","last_reported":1701687996,"current_range_meters":20800,"station_id":"ce4bhbh2rcd13ifvqeo0","pricing_plan_id":"free"},{"bike_id":"eac3d9de-eeb6-448f-80c9-79a5d1bfd339","system_id":"levelo_inurba_marseille","lat":43.33612,"lon":5.410321,"is_reserved":false,"is_disabled":false,"rental_uris":{"android":"levelo://app?vid=eac3d9de-eeb6-448f-80c9-79a5d1bfd339","ios":"levelo://app?vid=eac3d9de-eeb6-448f-80c9-79a5d1bfd339"},"vehicle_type_id":"4","last_reported":1701687996,"current_range_meters":30400,"station_id":"ce4bhqh2rcd13ifvqhmg","pricing_plan_id":"free"},{"bike_id":"8ceb9436-1b12-4bfd-ba8b-a535ac6cf291","system_id":"levelo_inurba_marseille","lat":43.33612,"lon":5.410321,"is_reserved":false,"is_disabled":false,"rental_uris":{"android":"levelo://app?vid=8ceb9436-1b12-4bfd-ba8b-a535ac6cf291","ios":"levelo://app?vid=8ceb9436-1b12-4bfd-ba8b-a535ac6cf291"},"vehicle_type_id":"4","last_reported":1701687996,"current_range_meters":23200,"station_id":"ce4bhqh2rcd13ifvqhmg","pricing_plan_id":"free"},{"bike_id":"11d8d21a-245a-459d-a65a-79ac375f16a5","system_id":"levelo_inurba_marseille","lat":43.279975,"lon":5.40009,"is_reserved":false,"is_disabled":false,"rental_uris":{"android":"levelo://app?vid=11d8d21a-245a-459d-a65a-79ac375f16a5","ios":"levelo://app?vid=11d8d21a-245a-459d-a65a-79ac375f16a5"},"vehicle_type_id":"4","last_reported":1701687996,"current_range_meters":28800,"station_id":"ce4bho92rcd13ifvqh4g","pricing_plan_id":"free"},{"bike_id":"d97b9f7f-84c7-4749-82c7-b7f1a1599719","system_id":"levelo_inurba_marseille","lat":43.31715,"lon":5.42398,"is_reserved":false,"is_disabled":false,"rental_uris":{"android":"levelo://app?vid=d97b9f7f-84c7-4749-82c7-b7f1a1599719","ios":"levelo://app?vid=d97b9f7f-84c7-4749-82c7-b7f1a1599719"},"vehicle_type_id":"4","last_reported":1701687996,"current_range_meters":2800,"station_id":"ce4bhp92rcd13ifvqhbg","pricing_plan_id":"free"},{"bike_id":"049ae131-4fca-4c04-a57a-4af68fe56b48","system_id":"levelo_inurba_marseille","lat":43.310785,"lon":5.424305,"is_reserved":false,"is_disabled":false,"rental_uris":{"android":"levelo://app?vid=049ae131-4fca-4c04-a57a-4af68fe56b48","ios":"levelo://app?vid=049ae131-4fca-4c04-a57a-4af68fe56b48"},"vehicle_type_id":"4","last_reported":1701687996,"current_range_meters":28800,"station_id":"ce4bhp92rcd13ifvqhag","pricing_plan_id":"free"},{"bike_id":"910fd3aa-d2e0-4553-894a-6161d41c7fcd","system_id":"levelo_inurba_marseille","lat":43.27609,"lon":5.39475,"is_reserved":false,"is_disabled":false,"rental_uris":{"android":"levelo://app?vid=910fd3aa-d2e0-4553-894a-6161d41c7fcd","ios":"levelo://app?vid=910fd3aa-d2e0-4553-894a-6161d41c7fcd"},"vehicle_type_id":"4","last_reported":1701687996,"current_range_meters":11600,"station_id":"","pricing_plan_id":"free"},{"bike_id":"24512130-767c-4da7-a81e-def6b1744033","system_id":"levelo_inurba_marseille","lat":43.295511,"lon":5.422926,"is_reserved":false,"is_disabled":false,"rental_uris":{"android":"levelo://app?vid=24512130-767c-4da7-a81e-def6b1744033","ios":"levelo://app?vid=24512130-767c-4da7-a81e-def6b1744033"},"vehicle_type_id":"4","last_reported":1701687996,"current_range_meters":10800,"station_id":"ce4bhph2rcd13ifvqhdg","pricing_plan_id":"free"},{"bike_id":"55c23f66-31a6-4882-8fa6-769301f13946","system_id":"levelo_inurba_marseille","lat":43.295523,"lon":5.422926,"is_reserved":false,"is_disabled":false,"rental_uris":{"android":"levelo://app?vid=55c23f66-31a6-4882-8fa6-769301f13946","ios":"levelo://app?vid=55c23f66-31a6-4882-8fa6-769301f13946"},"vehicle_type_id":"4","last_reported":1701687996,"current_range_meters":30400,"station_id":"ce4bhph2rcd13ifvqhdg","pricing_plan_id":"free"},{"bike_id":"939b60ca-347d-4311-a9c3-44ae23d596a0","system_id":"levelo_inurba_marseille","lat":43.295511,"lon":5.422926,"is_reserved":false,"is_disabled":false,"rental_uris":{"android":"levelo://app?vid=939b60ca-347d-4311-a9c3-44ae23d596a0","ios":"levelo://app?vid=939b60ca-347d-4311-a9c3-44ae23d596a0"},"vehicle_type_id":"4","last_reported":1701687996,"current_range_meters":31600,"station_id":"ce4bhph2rcd13ifvqhdg","pricing_plan_id":"free"},{"bike_id":"0b838350-a586-42c9-bd0a-6681c033ae62","system_id":"levelo_inurba_marseille","lat":43.269467,"lon":5.386439,"is_reserved":false,"is_disabled":false,"rental_uris":{"android":"levelo://app?vid=0b838350-a586-42c9-bd0a-6681c033ae62","ios":"levelo://app?vid=0b838350-a586-42c9-bd0a-6681c033ae62"},"vehicle_type_id":"4","last_reported":1701687996,"current_range_meters":28000,"station_id":"ce4bhh92rcd13ifvqfh0","pricing_plan_id":"free"},{"bike_id":"76428908-f402-4f05-9bf9-f7b908ca58bd","system_id":"levelo_inurba_marseille","lat":43.27944,"lon":5.41042,"is_reserved":false,"is_disabled":false,"rental_uris":{"android":"levelo://app?vid=76428908-f402-4f05-9bf9-f7b908ca58bd","ios":"levelo://app?vid=76428908-f402-4f05-9bf9-f7b908ca58bd"},"vehicle_type_id":"4","last_reported":1701687996,"current_range_meters":20400,"station_id":"ce4bhnp2rcd13ifvqh0g","pricing_plan_id":"free"},{"bike_id":"f8f560c8-6dc3-423c-8b03-e06c54d42693","system_id":"levelo_inurba_marseille","lat":43.279465,"lon":5.410561,"is_reserved":false,"is_disabled":false,"rental_uris":{"android":"levelo://app?vid=f8f560c8-6dc3-423c-8b03-e06c54d42693","ios":"levelo://app?vid=f8f560c8-6dc3-423c-8b03-e06c54d42693"},"vehicle_type_id":"4","last_reported":1701687996,"current_range_meters":22000,"station_id":"ce4bhnp2rcd13ifvqh0g","pricing_plan_id":"free"},{"bike_id":"7bf64022-48bc-48c8-b276-bb4faf5683b3","system_id":"levelo_inurba_marseille","lat":43.26681,"lon":5.382694,"is_reserved":false,"is_disabled":false,"rental_uris":{"android":"levelo://app?vid=7bf64022-48bc-48c8-b276-bb4faf5683b3","ios":"levelo://app?vid=7bf64022-48bc-48c8-b276-bb4faf5683b3"},"vehicle_type_id":"4","last_reported":1701687996,"current_range_meters":27600,"station_id":"ce4bhg92rcd13ifvqf90","pricing_plan_id":"free"},{"bike_id":"ea6316e9-334e-49b5-812d-e8f8c9ccb35f","system_id":"levelo_inurba_marseille","lat":43.26681,"lon":5.382694,"is_reserved":false,"is_disabled":false,"rental_uris":{"android":"levelo://app?vid=ea6316e9-334e-49b5-812d-e8f8c9ccb35f","ios":"levelo://app?vid=ea6316e9-334e-49b5-812d-e8f8c9ccb35f"},"vehicle_type_id":"4","last_reported":1701687996,"current_range_meters":22000,"station_id":"ce4bhg92rcd13ifvqf90","pricing_plan_id":"free"},{"bike_id":"7a4cc2ce-de58-4624-b1df-9b37dcf9d96f","system_id":"levelo_inurba_marseille","lat":43.26681,"lon":5.382694,"is_reserved":false,"is_disabled":false,"rental_uris":{"android":"levelo://app?vid=7a4cc2ce-de58-4624-b1df-9b37dcf9d96f","ios":"levelo://app?vid=7a4cc2ce-de58-4624-b1df-9b37dcf9d96f"},"vehicle_type_id":"4","last_reported":1701687996,"current_range_meters":13600,"station_id":"ce4bhg92rcd13ifvqf90","pricing_plan_id":"free"},{"bike_id":"a789502c-81da-4b15-8b87-6ec568c248f6","system_id":"levelo_inurba_marseille","lat":43.26681,"lon":5.382694,"is_reserved":false,"is_disabled":false,"rental_uris":{"android":"levelo://app?vid=a789502c-81da-4b15-8b87-6ec568c248f6","ios":"levelo://app?vid=a789502c-81da-4b15-8b87-6ec568c248f6"},"vehicle_type_id":"4","last_reported":1701687996,"current_range_meters":31600,"station_id":"ce4bhg92rcd13ifvqf90","pricing_plan_id":"free"},{"bike_id":"e326da63-87b2-4790-bd5f-aa6920af9e30","system_id":"levelo_inurba_marseille","lat":43.26556,"lon":5.37282,"is_reserved":false,"is_disabled":false,"rental_uris":{"android":"levelo://app?vid=e326da63-87b2-4790-bd5f-aa6920af9e30","ios":"levelo://app?vid=e326da63-87b2-4790-bd5f-aa6920af9e30"},"vehicle_type_id":"4","last_reported":1701687996,"current_range_meters":19600,"station_id":"ce4bhg12rcd13ifvqf70","pricing_plan_id":"free"},{"bike_id":"08cc114f-2c40-455a-afd9-98e0fc35dbef","system_id":"levelo_inurba_marseille","lat":43.265714,"lon":5.372891,"is_reserved":false,"is_disabled":false,"rental_uris":{"android":"levelo://app?vid=08cc114f-2c40-455a-afd9-98e0fc35dbef","ios":"levelo://app?vid=08cc114f-2c40-455a-afd9-98e0fc35dbef"},"vehicle_type_id":"4","last_reported":1701687996,"current_range_meters":29200,"station_id":"ce4bhg12rcd13ifvqf70","pricing_plan_id":"free"},{"bike_id":"81b9d940-9e69-4437-bcdc-446ace94672a","system_id":"levelo_inurba_marseille","lat":43.26554,"lon":5.372825,"is_reserved":false,"is_disabled":false,"rental_uris":{"android":"levelo://app?vid=81b9d940-9e69-4437-bcdc-446ace94672a","ios":"levelo://app?vid=81b9d940-9e69-4437-bcdc-446ace94672a"},"vehicle_type_id":"4","last_reported":1701687996,"current_range_meters":17600,"station_id":"ce4bhg12rcd13ifvqf70","pricing_plan_id":"free"},{"bike_id":"30a2fb00-bd0e-4df6-b28a-ff7c3111ee21","system_id":"levelo_inurba_marseille","lat":43.265714,"lon":5.372891,"is_reserved":false,"is_disabled":false,"rental_uris":{"android":"levelo://app?vid=30a2fb00-bd0e-4df6-b28a-ff7c3111ee21","ios":"levelo://app?vid=30a2fb00-bd0e-4df6-b28a-ff7c3111ee21"},"vehicle_type_id":"4","last_reported":1701687996,"current_range_meters":29200,"station_id":"ce4bhg12rcd13ifvqf70","pricing_plan_id":"free"},{"bike_id":"844c008b-a288-4450-b3e2-85fcc170fcbd","system_id":"levelo_inurba_marseille","lat":43.267966,"lon":5.393976,"is_reserved":false,"is_disabled":false,"rental_uris":{"android":"levelo://app?vid=844c008b-a288-4450-b3e2-85fcc170fcbd","ios":"levelo://app?vid=844c008b-a288-4450-b3e2-85fcc170fcbd"},"vehicle_type_id":"4","last_reported":1701687996,"current_range_meters":26000,"station_id":"ce4bhh12rcd13ifvqfg0","pricing_plan_id":"free"},{"bike_id":"fd835d26-3648-4b9d-96e1-71a396fe3f5f","system_id":"levelo_inurba_marseille","lat":43.26949,"lon":5.40262,"is_reserved":false,"is_disabled":false,"rental_uris":{"android":"levelo://app?vid=fd835d26-3648-4b9d-96e1-71a396fe3f5f","ios":"levelo://app?vid=fd835d26-3648-4b9d-96e1-71a396fe3f5f"},"vehicle_type_id":"4","last_reported":1701687996,"current_range_meters":20400,"station_id":"cjm6bp8fraef2m0cb0m0","pricing_plan_id":"free"},{"bike_id":"c372c5e7-3301-4df3-932c-1571e86b4f1b","system_id":"levelo_inurba_marseille","lat":43.26949,"lon":5.40262,"is_reserved":false,"is_disabled":false,"rental_uris":{"android":"levelo://app?vid=c372c5e7-3301-4df3-932c-1571e86b4f1b","ios":"levelo://app?vid=c372c5e7-3301-4df3-932c-1571e86b4f1b"},"vehicle_type_id":"4","last_reported":1701687996,"current_range_meters":19200,"station_id":"cjm6bp8fraef2m0cb0m0","pricing_plan_id":"free"},{"bike_id":"534557a7-75b9-42c2-a9e5-80ccaebbc29e","system_id":"levelo_inurba_marseille","lat":43.261782,"lon":5.374515,"is_reserved":false,"is_disabled":false,"rental_uris":{"android":"levelo://app?vid=534557a7-75b9-42c2-a9e5-80ccaebbc29e","ios":"levelo://app?vid=534557a7-75b9-42c2-a9e5-80ccaebbc29e"},"vehicle_type_id":"4","last_reported":1701687996,"current_range_meters":26400,"station_id":"ce4bhgp2rcd13ifvqfc0","pricing_plan_id":"free"},{"bike_id":"b3a4a88c-d155-447c-ad55-fd92c25575ce","system_id":"levelo_inurba_marseille","lat":43.262012,"lon":5.379307,"is_reserved":false,"is_disabled":false,"rental_uris":{"android":"levelo://app?vid=b3a4a88c-d155-447c-ad55-fd92c25575ce","ios":"levelo://app?vid=b3a4a88c-d155-447c-ad55-fd92c25575ce"},"vehicle_type_id":"4","last_reported":1701687996,"current_range_meters":29200,"station_id":"ce4bhjp2rcd13ifvqg90","pricing_plan_id":"free"},{"bike_id":"0988ab1d-3404-4117-b2ea-c883ba45a061","system_id":"levelo_inurba_marseille","lat":43.26202,"lon":5.379299,"is_reserved":false,"is_disabled":false,"rental_uris":{"android":"levelo://app?vid=0988ab1d-3404-4117-b2ea-c883ba45a061","ios":"levelo://app?vid=0988ab1d-3404-4117-b2ea-c883ba45a061"},"vehicle_type_id":"4","last_reported":1701687996,"current_range_meters":27600,"station_id":"ce4bhjp2rcd13ifvqg90","pricing_plan_id":"free"},{"bike_id":"afe992f1-d65a-4c7f-8730-bdb1a5c5635f","system_id":"levelo_inurba_marseille","lat":43.26202,"lon":5.379299,"is_reserved":false,"is_disabled":false,"rental_uris":{"android":"levelo://app?vid=afe992f1-d65a-4c7f-8730-bdb1a5c5635f","ios":"levelo://app?vid=afe992f1-d65a-4c7f-8730-bdb1a5c5635f"},"vehicle_type_id":"4","last_reported":1701687996,"current_range_meters":19200,"station_id":"ce4bhjp2rcd13ifvqg90","pricing_plan_id":"free"},{"bike_id":"1346e3a4-157f-46b9-9ad3-17cf740a6866","system_id":"levelo_inurba_marseille","lat":43.26202,"lon":5.379299,"is_reserved":false,"is_disabled":false,"rental_uris":{"android":"levelo://app?vid=1346e3a4-157f-46b9-9ad3-17cf740a6866","ios":"levelo://app?vid=1346e3a4-157f-46b9-9ad3-17cf740a6866"},"vehicle_type_id":"4","last_reported":1701687996,"current_range_meters":19600,"station_id":"ce4bhjp2rcd13ifvqg90","pricing_plan_id":"free"},{"bike_id":"5b3e0566-b00a-45ce-bada-6ddf6f7727ce","system_id":"levelo_inurba_marseille","lat":43.28153,"lon":5.42644,"is_reserved":false,"is_disabled":false,"rental_uris":{"android":"levelo://app?vid=5b3e0566-b00a-45ce-bada-6ddf6f7727ce","ios":"levelo://app?vid=5b3e0566-b00a-45ce-bada-6ddf6f7727ce"},"vehicle_type_id":"4","last_reported":1701687996,"current_range_meters":16400,"station_id":"ce4bhnh2rcd13ifvqgug","pricing_plan_id":"free"},{"bike_id":"7a96db8f-5eb4-405b-8773-67506ad37afb","system_id":"levelo_inurba_marseille","lat":43.28149,"lon":5.42646,"is_reserved":false,"is_disabled":false,"rental_uris":{"android":"levelo://app?vid=7a96db8f-5eb4-405b-8773-67506ad37afb","ios":"levelo://app?vid=7a96db8f-5eb4-405b-8773-67506ad37afb"},"vehicle_type_id":"4","last_reported":1701687996,"current_range_meters":9200,"station_id":"ce4bhnh2rcd13ifvqgug","pricing_plan_id":"free"},{"bike_id":"3501b184-5b82-4b31-98c9-7b17ad053ea9","system_id":"levelo_inurba_marseille","lat":43.2607,"lon":5.393983,"is_reserved":false,"is_disabled":false,"rental_uris":{"android":"levelo://app?vid=3501b184-5b82-4b31-98c9-7b17ad053ea9","ios":"levelo://app?vid=3501b184-5b82-4b31-98c9-7b17ad053ea9"},"vehicle_type_id":"4","last_reported":1701687996,"current_range_meters":21600,"station_id":"ce4bhh92rcd13ifvqfj0","pricing_plan_id":"free"},{"bike_id":"8ec842f3-eb01-40b7-a399-0d860fa789db","system_id":"levelo_inurba_marseille","lat":43.2607,"lon":5.393983,"is_reserved":false,"is_disabled":false,"rental_uris":{"android":"levelo://app?vid=8ec842f3-eb01-40b7-a399-0d860fa789db","ios":"levelo://app?vid=8ec842f3-eb01-40b7-a399-0d860fa789db"},"vehicle_type_id":"4","last_reported":1701687996,"current_range_meters":30800,"station_id":"ce4bhh92rcd13ifvqfj0","pricing_plan_id":"free"},{"bike_id":"958686c9-9c63-438a-b5a9-67bff506c73b","system_id":"levelo_inurba_marseille","lat":43.2607,"lon":5.393983,"is_reserved":false,"is_disabled":false,"rental_uris":{"android":"levelo://app?vid=958686c9-9c63-438a-b5a9-67bff506c73b","ios":"levelo://app?vid=958686c9-9c63-438a-b5a9-67bff506c73b"},"vehicle_type_id":"4","last_reported":1701687996,"current_range_meters":24000,"station_id":"ce4bhh92rcd13ifvqfj0","pricing_plan_id":"free"},{"bike_id":"f535f8c9-e9ee-4ae0-bfac-eaa3439dbcba","system_id":"levelo_inurba_marseille","lat":43.275,"lon":5.42444,"is_reserved":false,"is_disabled":false,"rental_uris":{"android":"levelo://app?vid=f535f8c9-e9ee-4ae0-bfac-eaa3439dbcba","ios":"levelo://app?vid=f535f8c9-e9ee-4ae0-bfac-eaa3439dbcba"},"vehicle_type_id":"4","last_reported":1701687996,"current_range_meters":22800,"station_id":"ce4bhn92rcd13ifvqgrg","pricing_plan_id":"free"},{"bike_id":"0cf91f44-1c71-4055-a585-bd700e726a30","system_id":"levelo_inurba_marseille","lat":43.27502,"lon":5.42448,"is_reserved":false,"is_disabled":false,"rental_uris":{"android":"levelo://app?vid=0cf91f44-1c71-4055-a585-bd700e726a30","ios":"levelo://app?vid=0cf91f44-1c71-4055-a585-bd700e726a30"},"vehicle_type_id":"4","last_reported":1701687996,"current_range_meters":18800,"station_id":"ce4bhn92rcd13ifvqgrg","pricing_plan_id":"free"},{"bike_id":"1ca4e670-ddc7-488e-892a-22d74af73e32","system_id":"levelo_inurba_marseille","lat":43.27499,"lon":5.42445,"is_reserved":false,"is_disabled":false,"rental_uris":{"android":"levelo://app?vid=1ca4e670-ddc7-488e-892a-22d74af73e32","ios":"levelo://app?vid=1ca4e670-ddc7-488e-892a-22d74af73e32"},"vehicle_type_id":"4","last_reported":1701687996,"current_range_meters":24000,"station_id":"ce4bhn92rcd13ifvqgrg","pricing_plan_id":"free"},{"bike_id":"f7bce490-38ce-426e-8a28-e1380519c898","system_id":"levelo_inurba_marseille","lat":43.27496,"lon":5.42448,"is_reserved":false,"is_disabled":false,"rental_uris":{"android":"levelo://app?vid=f7bce490-38ce-426e-8a28-e1380519c898","ios":"levelo://app?vid=f7bce490-38ce-426e-8a28-e1380519c898"},"vehicle_type_id":"4","last_reported":1701687996,"current_range_meters":22400,"station_id":"ce4bhn92rcd13ifvqgrg","pricing_plan_id":"free"},{"bike_id":"2c4ea684-d3df-425b-8578-5e576ab8d9b6","system_id":"levelo_inurba_marseille","lat":43.27497,"lon":5.42452,"is_reserved":false,"is_disabled":false,"rental_uris":{"android":"levelo://app?vid=2c4ea684-d3df-425b-8578-5e576ab8d9b6","ios":"levelo://app?vid=2c4ea684-d3df-425b-8578-5e576ab8d9b6"},"vehicle_type_id":"4","last_reported":1701687996,"current_range_meters":12800,"station_id":"ce4bhn92rcd13ifvqgrg","pricing_plan_id":"free"},{"bike_id":"841e705d-b370-4c59-ae50-0bce582ddd23","system_id":"levelo_inurba_marseille","lat":43.274963,"lon":5.424513,"is_reserved":false,"is_disabled":false,"rental_uris":{"android":"levelo://app?vid=841e705d-b370-4c59-ae50-0bce582ddd23","ios":"levelo://app?vid=841e705d-b370-4c59-ae50-0bce582ddd23"},"vehicle_type_id":"4","last_reported":1701687996,"current_range_meters":17200,"station_id":"ce4bhn92rcd13ifvqgrg","pricing_plan_id":"free"},{"bike_id":"f1a4bd6d-e695-438c-b29b-aede97329226","system_id":"levelo_inurba_marseille","lat":43.27494,"lon":5.42449,"is_reserved":false,"is_disabled":false,"rental_uris":{"android":"levelo://app?vid=f1a4bd6d-e695-438c-b29b-aede97329226","ios":"levelo://app?vid=f1a4bd6d-e695-438c-b29b-aede97329226"},"vehicle_type_id":"4","last_reported":1701687996,"current_range_meters":20000,"station_id":"ce4bhn92rcd13ifvqgrg","pricing_plan_id":"free"},{"bike_id":"74f8af55-ccdf-4cc0-85c6-e8172bf564aa","system_id":"levelo_inurba_marseille","lat":43.27494,"lon":5.42456,"is_reserved":false,"is_disabled":false,"rental_uris":{"android":"levelo://app?vid=74f8af55-ccdf-4cc0-85c6-e8172bf564aa","ios":"levelo://app?vid=74f8af55-ccdf-4cc0-85c6-e8172bf564aa"},"vehicle_type_id":"4","last_reported":1701687996,"current_range_meters":18400,"station_id":"ce4bhn92rcd13ifvqgrg","pricing_plan_id":"free"},{"bike_id":"2896d740-c829-4769-ab23-e2aa604b10cd","system_id":"levelo_inurba_marseille","lat":43.27495,"lon":5.42458,"is_reserved":false,"is_disabled":false,"rental_uris":{"android":"levelo://app?vid=2896d740-c829-4769-ab23-e2aa604b10cd","ios":"levelo://app?vid=2896d740-c829-4769-ab23-e2aa604b10cd"},"vehicle_type_id":"4","last_reported":1701687996,"current_range_meters":28000,"station_id":"ce4bhn92rcd13ifvqgrg","pricing_plan_id":"free"},{"bike_id":"1442ffd9-954e-48a9-97d8-1c007af2e23d","system_id":"levelo_inurba_marseille","lat":43.274914,"lon":5.424543,"is_reserved":false,"is_disabled":false,"rental_uris":{"android":"levelo://app?vid=1442ffd9-954e-48a9-97d8-1c007af2e23d","ios":"levelo://app?vid=1442ffd9-954e-48a9-97d8-1c007af2e23d"},"vehicle_type_id":"4","last_reported":1701687996,"current_range_meters":10400,"station_id":"ce4bhn92rcd13ifvqgrg","pricing_plan_id":"free"},{"bike_id":"01cafc76-788b-4956-a52f-65796b80b893","system_id":"levelo_inurba_marseille","lat":43.25578,"lon":5.38242,"is_reserved":false,"is_disabled":false,"rental_uris":{"android":"levelo://app?vid=01cafc76-788b-4956-a52f-65796b80b893","ios":"levelo://app?vid=01cafc76-788b-4956-a52f-65796b80b893"},"vehicle_type_id":"4","last_reported":1701687996,"current_range_meters":14400,"station_id":"ce4bhih2rcd13ifvqfs0","pricing_plan_id":"free"},{"bike_id":"66b21a0c-94da-405d-8137-c1cddb78fb4e","system_id":"levelo_inurba_marseille","lat":43.25577,"lon":5.38241,"is_reserved":false,"is_disabled":false,"rental_uris":{"android":"levelo://app?vid=66b21a0c-94da-405d-8137-c1cddb78fb4e","ios":"levelo://app?vid=66b21a0c-94da-405d-8137-c1cddb78fb4e"},"vehicle_type_id":"4","last_reported":1701687996,"current_range_meters":17600,"station_id":"ce4bhih2rcd13ifvqfs0","pricing_plan_id":"free"},{"bike_id":"df2fc6a0-a2bf-42d2-b706-39d05cae4606","system_id":"levelo_inurba_marseille","lat":43.25574,"lon":5.38226,"is_reserved":false,"is_disabled":false,"rental_uris":{"android":"levelo://app?vid=df2fc6a0-a2bf-42d2-b706-39d05cae4606","ios":"levelo://app?vid=df2fc6a0-a2bf-42d2-b706-39d05cae4606"},"vehicle_type_id":"4","last_reported":1701687996,"current_range_meters":0,"station_id":"ce4bhih2rcd13ifvqfs0","pricing_plan_id":"free"},{"bike_id":"c4190b31-98fb-4e4e-b800-789652f41352","system_id":"levelo_inurba_marseille","lat":43.255027,"lon":5.376509,"is_reserved":false,"is_disabled":false,"rental_uris":{"android":"levelo://app?vid=c4190b31-98fb-4e4e-b800-789652f41352","ios":"levelo://app?vid=c4190b31-98fb-4e4e-b800-789652f41352"},"vehicle_type_id":"4","last_reported":1701687996,"current_range_meters":22800,"station_id":"ce4bhh12rcd13ifvqff0","pricing_plan_id":"free"},{"bike_id":"e72008a9-53a7-4941-a163-953a03680224","system_id":"levelo_inurba_marseille","lat":43.25501,"lon":5.37648,"is_reserved":false,"is_disabled":false,"rental_uris":{"android":"levelo://app?vid=e72008a9-53a7-4941-a163-953a03680224","ios":"levelo://app?vid=e72008a9-53a7-4941-a163-953a03680224"},"vehicle_type_id":"4","last_reported":1701687996,"current_range_meters":13600,"station_id":"ce4bhh12rcd13ifvqff0","pricing_plan_id":"free"},{"bike_id":"343abc3c-e02d-437e-b758-4b73aef440db","system_id":"levelo_inurba_marseille","lat":43.25501,"lon":5.3765,"is_reserved":false,"is_disabled":false,"rental_uris":{"android":"levelo://app?vid=343abc3c-e02d-437e-b758-4b73aef440db","ios":"levelo://app?vid=343abc3c-e02d-437e-b758-4b73aef440db"},"vehicle_type_id":"4","last_reported":1701687996,"current_range_meters":27600,"station_id":"ce4bhh12rcd13ifvqff0","pricing_plan_id":"free"},{"bike_id":"7c0fa8ce-63ea-40a6-ad15-9b21c53beeea","system_id":"levelo_inurba_marseille","lat":43.255,"lon":5.37649,"is_reserved":false,"is_disabled":false,"rental_uris":{"android":"levelo://app?vid=7c0fa8ce-63ea-40a6-ad15-9b21c53beeea","ios":"levelo://app?vid=7c0fa8ce-63ea-40a6-ad15-9b21c53beeea"},"vehicle_type_id":"4","last_reported":1701687996,"current_range_meters":15200,"station_id":"ce4bhh12rcd13ifvqff0","pricing_plan_id":"free"},{"bike_id":"917cb5c7-1c75-44ef-90ca-5958cfd31a67","system_id":"levelo_inurba_marseille","lat":43.25499,"lon":5.37647,"is_reserved":false,"is_disabled":false,"rental_uris":{"android":"levelo://app?vid=917cb5c7-1c75-44ef-90ca-5958cfd31a67","ios":"levelo://app?vid=917cb5c7-1c75-44ef-90ca-5958cfd31a67"},"vehicle_type_id":"4","last_reported":1701687996,"current_range_meters":24000,"station_id":"ce4bhh12rcd13ifvqff0","pricing_plan_id":"free"},{"bike_id":"dcf42513-b79f-4adc-9d0b-3660790d450a","system_id":"levelo_inurba_marseille","lat":43.270721,"lon":5.422764,"is_reserved":false,"is_disabled":false,"rental_uris":{"android":"levelo://app?vid=dcf42513-b79f-4adc-9d0b-3660790d450a","ios":"levelo://app?vid=dcf42513-b79f-4adc-9d0b-3660790d450a"},"vehicle_type_id":"4","last_reported":1701687996,"current_range_meters":14400,"station_id":"ce4bhk92rcd13ifvqgb0","pricing_plan_id":"free"},{"bike_id":"e6fee166-d8ae-4019-abb3-6c4f3b176b93","system_id":"levelo_inurba_marseille","lat":43.270721,"lon":5.422764,"is_reserved":false,"is_disabled":false,"rental_uris":{"android":"levelo://app?vid=e6fee166-d8ae-4019-abb3-6c4f3b176b93","ios":"levelo://app?vid=e6fee166-d8ae-4019-abb3-6c4f3b176b93"},"vehicle_type_id":"4","last_reported":1701687996,"current_range_meters":31600,"station_id":"ce4bhk92rcd13ifvqgb0","pricing_plan_id":"free"},{"bike_id":"cb118d21-1e7e-4798-bb69-af48b989b18d","system_id":"levelo_inurba_marseille","lat":43.25933,"lon":5.40913,"is_reserved":false,"is_disabled":false,"rental_uris":{"android":"levelo://app?vid=cb118d21-1e7e-4798-bb69-af48b989b18d","ios":"levelo://app?vid=cb118d21-1e7e-4798-bb69-af48b989b18d"},"vehicle_type_id":"4","last_reported":1701687996,"current_range_meters":23200,"station_id":"ce4bhm92rcd13ifvqglg","pricing_plan_id":"free"},{"bike_id":"79931ad1-634d-46b6-b4f2-2d3e004f3743","system_id":"levelo_inurba_marseille","lat":43.259013,"lon":5.409301,"is_reserved":false,"is_disabled":false,"rental_uris":{"android":"levelo://app?vid=79931ad1-634d-46b6-b4f2-2d3e004f3743","ios":"levelo://app?vid=79931ad1-634d-46b6-b4f2-2d3e004f3743"},"vehicle_type_id":"4","last_reported":1701687996,"current_range_meters":3200,"station_id":"ce4bhm92rcd13ifvqglg","pricing_plan_id":"free"},{"bike_id":"09f8919c-9a0d-4acc-ad67-8ce676366609","system_id":"levelo_inurba_marseille","lat":43.2593,"lon":5.40914,"is_reserved":false,"is_disabled":false,"rental_uris":{"android":"levelo://app?vid=09f8919c-9a0d-4acc-ad67-8ce676366609","ios":"levelo://app?vid=09f8919c-9a0d-4acc-ad67-8ce676366609"},"vehicle_type_id":"4","last_reported":1701687996,"current_range_meters":23200,"station_id":"ce4bhm92rcd13ifvqglg","pricing_plan_id":"free"},{"bike_id":"bee61dc6-9764-4267-a768-a1fb711af849","system_id":"levelo_inurba_marseille","lat":43.25927,"lon":5.40907,"is_reserved":false,"is_disabled":false,"rental_uris":{"android":"levelo://app?vid=bee61dc6-9764-4267-a768-a1fb711af849","ios":"levelo://app?vid=bee61dc6-9764-4267-a768-a1fb711af849"},"vehicle_type_id":"4","last_reported":1701687996,"current_range_meters":18800,"station_id":"ce4bhm92rcd13ifvqglg","pricing_plan_id":"free"},{"bike_id":"4b531910-b0c4-4ee2-9fa5-bba2025def72","system_id":"levelo_inurba_marseille","lat":43.250023,"lon":5.38919,"is_reserved":false,"is_disabled":false,"rental_uris":{"android":"levelo://app?vid=4b531910-b0c4-4ee2-9fa5-bba2025def72","ios":"levelo://app?vid=4b531910-b0c4-4ee2-9fa5-bba2025def72"},"vehicle_type_id":"4","last_reported":1701687996,"current_range_meters":22800,"station_id":"ce4bhgp2rcd13ifvqfd0","pricing_plan_id":"free"},{"bike_id":"0050d107-a2d5-4a6c-a474-13f7a477852a","system_id":"levelo_inurba_marseille","lat":43.250023,"lon":5.38919,"is_reserved":false,"is_disabled":false,"rental_uris":{"android":"levelo://app?vid=0050d107-a2d5-4a6c-a474-13f7a477852a","ios":"levelo://app?vid=0050d107-a2d5-4a6c-a474-13f7a477852a"},"vehicle_type_id":"4","last_reported":1701687996,"current_range_meters":26800,"station_id":"ce4bhgp2rcd13ifvqfd0","pricing_plan_id":"free"},{"bike_id":"2c92eded-66e5-4d53-98a0-b64e6c9c913c","system_id":"levelo_inurba_marseille","lat":43.25001,"lon":5.389186,"is_reserved":false,"is_disabled":false,"rental_uris":{"android":"levelo://app?vid=2c92eded-66e5-4d53-98a0-b64e6c9c913c","ios":"levelo://app?vid=2c92eded-66e5-4d53-98a0-b64e6c9c913c"},"vehicle_type_id":"4","last_reported":1701687996,"current_range_meters":9600,"station_id":"ce4bhgp2rcd13ifvqfd0","pricing_plan_id":"free"},{"bike_id":"b2095e5c-185a-415c-8fcf-3a12b5c3cb72","system_id":"levelo_inurba_marseille","lat":43.250023,"lon":5.38919,"is_reserved":false,"is_disabled":false,"rental_uris":{"android":"levelo://app?vid=b2095e5c-185a-415c-8fcf-3a12b5c3cb72","ios":"levelo://app?vid=b2095e5c-185a-415c-8fcf-3a12b5c3cb72"},"vehicle_type_id":"4","last_reported":1701687996,"current_range_meters":22000,"station_id":"ce4bhgp2rcd13ifvqfd0","pricing_plan_id":"free"},{"bike_id":"e1486615-1f97-47a6-969e-80868e9295bf","system_id":"levelo_inurba_marseille","lat":43.2509,"lon":5.39521,"is_reserved":false,"is_disabled":false,"rental_uris":{"android":"levelo://app?vid=e1486615-1f97-47a6-969e-80868e9295bf","ios":"levelo://app?vid=e1486615-1f97-47a6-969e-80868e9295bf"},"vehicle_type_id":"4","last_reported":1701687996,"current_range_meters":12000,"station_id":"ce4bhm12rcd13ifvqgkg","pricing_plan_id":"free"},{"bike_id":"4d762fd6-f6ff-48e7-aac0-19bf59f60ecd","system_id":"levelo_inurba_marseille","lat":43.246467,"lon":5.388984,"is_reserved":false,"is_disabled":false,"rental_uris":{"android":"levelo://app?vid=4d762fd6-f6ff-48e7-aac0-19bf59f60ecd","ios":"levelo://app?vid=4d762fd6-f6ff-48e7-aac0-19bf59f60ecd"},"vehicle_type_id":"4","last_reported":1701687996,"current_range_meters":22400,"station_id":"ce4bhg12rcd13ifvqf60","pricing_plan_id":"free"},{"bike_id":"837823c0-1805-4907-8b03-832503f29a7f","system_id":"levelo_inurba_marseille","lat":43.243884,"lon":5.370737,"is_reserved":false,"is_disabled":false,"rental_uris":{"android":"levelo://app?vid=837823c0-1805-4907-8b03-832503f29a7f","ios":"levelo://app?vid=837823c0-1805-4907-8b03-832503f29a7f"},"vehicle_type_id":"4","last_reported":1701687996,"current_range_meters":31600,"station_id":"ce4bhhh2rcd13ifvqfk0","pricing_plan_id":"free"},{"bike_id":"0c99bbb2-aa98-46ad-830d-f1f0e833610a","system_id":"levelo_inurba_marseille","lat":43.243884,"lon":5.370737,"is_reserved":false,"is_disabled":false,"rental_uris":{"android":"levelo://app?vid=0c99bbb2-aa98-46ad-830d-f1f0e833610a","ios":"levelo://app?vid=0c99bbb2-aa98-46ad-830d-f1f0e833610a"},"vehicle_type_id":"4","last_reported":1701687996,"current_range_meters":23600,"station_id":"ce4bhhh2rcd13ifvqfk0","pricing_plan_id":"free"},{"bike_id":"40dd6df8-9a91-4104-9816-30c6f87a1c59","system_id":"levelo_inurba_marseille","lat":43.243884,"lon":5.370736,"is_reserved":false,"is_disabled":false,"rental_uris":{"android":"levelo://app?vid=40dd6df8-9a91-4104-9816-30c6f87a1c59","ios":"levelo://app?vid=40dd6df8-9a91-4104-9816-30c6f87a1c59"},"vehicle_type_id":"4","last_reported":1701687996,"current_range_meters":17600,"station_id":"ce4bhhh2rcd13ifvqfk0","pricing_plan_id":"free"},{"bike_id":"d90f7333-a64b-4ebd-8384-161bbc00c4c4","system_id":"levelo_inurba_marseille","lat":43.243884,"lon":5.370736,"is_reserved":false,"is_disabled":false,"rental_uris":{"android":"levelo://app?vid=d90f7333-a64b-4ebd-8384-161bbc00c4c4","ios":"levelo://app?vid=d90f7333-a64b-4ebd-8384-161bbc00c4c4"},"vehicle_type_id":"4","last_reported":1701687996,"current_range_meters":12000,"station_id":"ce4bhhh2rcd13ifvqfk0","pricing_plan_id":"free"},{"bike_id":"24f755ce-b094-48d8-96ab-65f254e17598","system_id":"levelo_inurba_marseille","lat":43.243884,"lon":5.370737,"is_reserved":false,"is_disabled":false,"rental_uris":{"android":"levelo://app?vid=24f755ce-b094-48d8-96ab-65f254e17598","ios":"levelo://app?vid=24f755ce-b094-48d8-96ab-65f254e17598"},"vehicle_type_id":"4","last_reported":1701687996,"current_range_meters":28000,"station_id":"ce4bhhh2rcd13ifvqfk0","pricing_plan_id":"free"},{"bike_id":"8a8e58fc-03cd-4b4c-9b9e-3683264c747e","system_id":"levelo_inurba_marseille","lat":43.245581,"lon":5.395069,"is_reserved":false,"is_disabled":false,"rental_uris":{"android":"levelo://app?vid=8a8e58fc-03cd-4b4c-9b9e-3683264c747e","ios":"levelo://app?vid=8a8e58fc-03cd-4b4c-9b9e-3683264c747e"},"vehicle_type_id":"4","last_reported":1701687996,"current_range_meters":30000,"station_id":"ce4bhlp2rcd13ifvqgjg","pricing_plan_id":"free"},{"bike_id":"8bf056ee-5712-4afa-96f6-4f7c0c8043db","system_id":"levelo_inurba_marseille","lat":43.24073,"lon":5.37763,"is_reserved":false,"is_disabled":false,"rental_uris":{"android":"levelo://app?vid=8bf056ee-5712-4afa-96f6-4f7c0c8043db","ios":"levelo://app?vid=8bf056ee-5712-4afa-96f6-4f7c0c8043db"},"vehicle_type_id":"4","last_reported":1701687996,"current_range_meters":15200,"station_id":"ce4bhnp2rcd13ifvqgvg","pricing_plan_id":"free"},{"bike_id":"69bb31ca-94ed-4346-a6b2-f8251c68ad3a","system_id":"levelo_inurba_marseille","lat":43.240623,"lon":5.377642,"is_reserved":false,"is_disabled":false,"rental_uris":{"android":"levelo://app?vid=69bb31ca-94ed-4346-a6b2-f8251c68ad3a","ios":"levelo://app?vid=69bb31ca-94ed-4346-a6b2-f8251c68ad3a"},"vehicle_type_id":"4","last_reported":1701687996,"current_range_meters":29600,"station_id":"ce4bhnp2rcd13ifvqgvg","pricing_plan_id":"free"},{"bike_id":"43dcc53c-0402-4665-82aa-27920a7c50a2","system_id":"levelo_inurba_marseille","lat":43.239588,"lon":5.366238,"is_reserved":false,"is_disabled":false,"rental_uris":{"android":"levelo://app?vid=43dcc53c-0402-4665-82aa-27920a7c50a2","ios":"levelo://app?vid=43dcc53c-0402-4665-82aa-27920a7c50a2"},"vehicle_type_id":"4","last_reported":1701687996,"current_range_meters":25200,"station_id":"ce4bhi12rcd13ifvqfp0","pricing_plan_id":"free"},{"bike_id":"15ec8c74-bb7d-4bed-ae17-b97a26635983","system_id":"levelo_inurba_marseille","lat":43.239588,"lon":5.366238,"is_reserved":false,"is_disabled":false,"rental_uris":{"android":"levelo://app?vid=15ec8c74-bb7d-4bed-ae17-b97a26635983","ios":"levelo://app?vid=15ec8c74-bb7d-4bed-ae17-b97a26635983"},"vehicle_type_id":"4","last_reported":1701687996,"current_range_meters":28400,"station_id":"ce4bhi12rcd13ifvqfp0","pricing_plan_id":"free"},{"bike_id":"d20a470f-eec9-4be7-9312-f4382b146bbd","system_id":"levelo_inurba_marseille","lat":43.239588,"lon":5.366238,"is_reserved":false,"is_disabled":false,"rental_uris":{"android":"levelo://app?vid=d20a470f-eec9-4be7-9312-f4382b146bbd","ios":"levelo://app?vid=d20a470f-eec9-4be7-9312-f4382b146bbd"},"vehicle_type_id":"4","last_reported":1701687996,"current_range_meters":17600,"station_id":"ce4bhi12rcd13ifvqfp0","pricing_plan_id":"free"},{"bike_id":"2232eb50-8241-47c3-aeb9-f6e3ee401704","system_id":"levelo_inurba_marseille","lat":43.239588,"lon":5.366238,"is_reserved":false,"is_disabled":false,"rental_uris":{"android":"levelo://app?vid=2232eb50-8241-47c3-aeb9-f6e3ee401704","ios":"levelo://app?vid=2232eb50-8241-47c3-aeb9-f6e3ee401704"},"vehicle_type_id":"4","last_reported":1701687996,"current_range_meters":30400,"station_id":"ce4bhi12rcd13ifvqfp0","pricing_plan_id":"free"},{"bike_id":"7f284465-fada-4bfe-83d9-86527b7b5358","system_id":"levelo_inurba_marseille","lat":43.239588,"lon":5.366238,"is_reserved":false,"is_disabled":false,"rental_uris":{"android":"levelo://app?vid=7f284465-fada-4bfe-83d9-86527b7b5358","ios":"levelo://app?vid=7f284465-fada-4bfe-83d9-86527b7b5358"},"vehicle_type_id":"4","last_reported":1701687996,"current_range_meters":29600,"station_id":"ce4bhi12rcd13ifvqfp0","pricing_plan_id":"free"},{"bike_id":"ff618645-447e-48ac-aaeb-90cc442e68dc","system_id":"levelo_inurba_marseille","lat":43.241782,"lon":5.397261,"is_reserved":false,"is_disabled":false,"rental_uris":{"android":"levelo://app?vid=ff618645-447e-48ac-aaeb-90cc442e68dc","ios":"levelo://app?vid=ff618645-447e-48ac-aaeb-90cc442e68dc"},"vehicle_type_id":"4","last_reported":1701687996,"current_range_meters":6000,"station_id":"ce4bhn12rcd13ifvqgpg","pricing_plan_id":"free"},{"bike_id":"eb1d283c-e696-4afd-beba-5a6438129bb8","system_id":"levelo_inurba_marseille","lat":43.241782,"lon":5.397261,"is_reserved":false,"is_disabled":false,"rental_uris":{"android":"levelo://app?vid=eb1d283c-e696-4afd-beba-5a6438129bb8","ios":"levelo://app?vid=eb1d283c-e696-4afd-beba-5a6438129bb8"},"vehicle_type_id":"4","last_reported":1701687996,"current_range_meters":5600,"station_id":"ce4bhn12rcd13ifvqgpg","pricing_plan_id":"free"},{"bike_id":"d56a6e17-2997-421a-bc4f-117dc8258f86","system_id":"levelo_inurba_marseille","lat":43.241782,"lon":5.397261,"is_reserved":false,"is_disabled":false,"rental_uris":{"android":"levelo://app?vid=d56a6e17-2997-421a-bc4f-117dc8258f86","ios":"levelo://app?vid=d56a6e17-2997-421a-bc4f-117dc8258f86"},"vehicle_type_id":"4","last_reported":1701687996,"current_range_meters":22400,"station_id":"ce4bhn12rcd13ifvqgpg","pricing_plan_id":"free"},{"bike_id":"9e01ee59-41e6-425c-ae1f-3e33312fefcd","system_id":"levelo_inurba_marseille","lat":43.231923,"lon":5.355545,"is_reserved":false,"is_disabled":false,"rental_uris":{"android":"levelo://app?vid=9e01ee59-41e6-425c-ae1f-3e33312fefcd","ios":"levelo://app?vid=9e01ee59-41e6-425c-ae1f-3e33312fefcd"},"vehicle_type_id":"4","last_reported":1701687996,"current_range_meters":12400,"station_id":"ce4bhu92rcd13ifvqi70","pricing_plan_id":"free"},{"bike_id":"2b04708e-eed8-4471-916a-9fdeea01eec7","system_id":"levelo_inurba_marseille","lat":43.231923,"lon":5.355545,"is_reserved":false,"is_disabled":false,"rental_uris":{"android":"levelo://app?vid=2b04708e-eed8-4471-916a-9fdeea01eec7","ios":"levelo://app?vid=2b04708e-eed8-4471-916a-9fdeea01eec7"},"vehicle_type_id":"4","last_reported":1701687996,"current_range_meters":28400,"station_id":"ce4bhu92rcd13ifvqi70","pricing_plan_id":"free"},{"bike_id":"cf3102c4-88e0-4a41-86b7-69a76932d3e6","system_id":"levelo_inurba_marseille","lat":43.231923,"lon":5.355545,"is_reserved":false,"is_disabled":false,"rental_uris":{"android":"levelo://app?vid=cf3102c4-88e0-4a41-86b7-69a76932d3e6","ios":"levelo://app?vid=cf3102c4-88e0-4a41-86b7-69a76932d3e6"},"vehicle_type_id":"4","last_reported":1701687996,"current_range_meters":31600,"station_id":"ce4bhu92rcd13ifvqi70","pricing_plan_id":"free"},{"bike_id":"6041d620-664b-4836-b597-a0e62593a032","system_id":"levelo_inurba_marseille","lat":43.231923,"lon":5.355545,"is_reserved":false,"is_disabled":false,"rental_uris":{"android":"levelo://app?vid=6041d620-664b-4836-b597-a0e62593a032","ios":"levelo://app?vid=6041d620-664b-4836-b597-a0e62593a032"},"vehicle_type_id":"4","last_reported":1701687996,"current_range_meters":24800,"station_id":"ce4bhu92rcd13ifvqi70","pricing_plan_id":"free"},