{"last_updated":1706043994,"ttl":30,"version":"2.2","data":{"bikes":[{"bike_id":"c2ed9c0d-b07c-45ec-bdf2-16d882e57614","system_id":"levelo_inurba_marseille","lat":43.313391,"lon":5.36706,"is_reserved":false,"is_disabled":false,"rental_uris":{"android":"levelo://app?vid=c2ed9c0d-b07c-45ec-bdf2-16d882e57614","ios":"levelo://app?vid=c2ed9c0d-b07c-45ec-bdf2-16d882e57614"},"vehicle_type_id":"4","last_reported":1706043994,"current_range_meters":23200,"station_id":"ce4bgr92rcd13ifvqc6g","pricing_plan_id":"free"},{"bike_id":"38f91f47-3939-4a72-8f7a-4c5adc5fa5a9","system_id":"levelo_inurba_marseille","lat":43.31241,"lon":5.368634,"is_reserved":false,"is_disabled":false,"rental_uris":{"android":"levelo://app?vid=38f91f47-3939-4a72-8f7a-4c5adc5fa5a9","ios":"levelo://app?vid=38f91f47-3939-4a72-8f7a-4c5adc5fa5a9"},"vehicle_type_id":"4","last_reported":1706043994,"current_range_meters":3600,"station_id":"ce4bgl92rcd13ifvqbq0","pricing_plan_id":"free"},{"bike_id":"c3b775f7-ac2a-4ee2-90bd-4841d400b4cc","system_id":"levelo_inurba_marseille","lat":43.309076,"lon":5.368465,"is_reserved":false,"is_disabled":false,"rental_uris":{"android":"levelo://app?vid=c3b775f7-ac2a-4ee2-90bd-4841d400b4cc","ios":"levelo://app?vid=c3b775f7-ac2a-4ee2-90bd-4841d400b4cc"},"vehicle_type_id":"4","last_reported":1706043994,"current_range_meters":18000,"station_id":"ce4bgn92rcd13ifvqbvg","pricing_plan_id":"free"},{"bike_id":"c258bd89-1c59-4dd9-83e6-3d971acc3f19","system_id":"levelo_inurba_marseille","lat":43.309076,"lon":5.368465,"is_reserved":false,"is_disabled":false,"rental_uris":{"android":"levelo://app?vid=c258bd89-1c59-4dd9-83e6-3d971acc3f19","ios":"levelo://app?vid=c258bd89-1c59-4dd9-83e6-3d971acc3f19"},"vehicle_type_id":"4","last_reported":1706043994,"current_range_meters":10400,"station_id":"ce4bgn92rcd13ifvqbvg","pricing_plan_id":"free"},{"bike_id":"53966695-f878-4e80-bdfb-176f4014a3da","system_id":"levelo_inurba_marseille","lat":43.314811,"lon":5.373103,"is_reserved":false,"is_disabled":false,"rental_uris":{"android":"levelo://app?vid=53966695-f878-4e80-bdfb-176f4014a3da","ios":"levelo://app?vid=53966695-f878-4e80-bdfb-176f4014a3da"},"vehicle_type_id":"4","last_reported":1706043994,"current_range_meters":1200,"station_id":"ce4bgt12rcd13ifvqcd0","pricing_plan_id":"free"},{"bike_id":"7432051f-519f-42e0-85e6-7b1b3d5afd1d","system_id":"levelo_inurba_marseille","lat":43.309039,"lon":5.371797,"is_reserved":false,"is_disabled":false,"rental_uris":{"android":"levelo://app?vid=7432051f-519f-42e0-85e6-7b1b3d5afd1d","ios":"levelo://app?vid=7432051f-519f-42e0-85e6-7b1b3d5afd1d"},"vehicle_type_id":"4","last_reported":1706043994,"current_range_meters":6400,"station_id":"ce4bguh2rcd13ifvqckg","pricing_plan_id":"free"},{"bike_id":"5a7e5407-1aea-4cab-82e3-d8be5338198f","system_id":"levelo_inurba_marseille","lat":43.306164,"lon":5.366531,"is_reserved":false,"is_disabled":false,"rental_uris":{"android":"levelo://app?vid=5a7e5407-1aea-4cab-82e3-d8be5338198f","ios":"levelo://app?vid=5a7e5407-1aea-4cab-82e3-d8be5338198f"},"vehicle_type_id":"4","last_reported":1706043994,"current_range_meters":0,"station_id":"","pricing_plan_id":"free"},{"bike_id":"87588726-b2de-4327-8499-3b00115c2756","system_id":"levelo_inurba_marseille","lat":43.305706,"lon":5.365654,"is_reserved":false,"is_disabled":false,"rental_uris":{"android":"levelo://app?vid=87588726-b2de-4327-8499-3b00115c2756","ios":"levelo://app?vid=87588726-b2de-4327-8499-3b00115c2756"},"vehicle_type_id":"4","last_reported":1706043994,"current_range_meters":14000,"station_id":"ce4bgs12rcd13ifvqcag","pricing_plan_id":"free"},{"bike_id":"04df9b81-480a-429b-98d9-7b6e39d920ff","system_id":"levelo_inurba_marseille","lat":43.311125,"lon":5.377624,"is_reserved":false,"is_disabled":false,"rental_uris":{"android":"levelo://app?vid=04df9b81-480a-429b-98d9-7b6e39d920ff","ios":"levelo://app?vid=04df9b81-480a-429b-98d9-7b6e39d920ff"},"vehicle_type_id":"4","last_reported":1706043994,"current_range_meters":5200,"station_id":"ce4bgt92rcd13ifvqcg0","pricing_plan_id":"free"},{"bike_id":"c508de5d-6751-4c08-9006-72549e20f78c","system_id":"levelo_inurba_marseille","lat":43.311125,"lon":5.377624,"is_reserved":false,"is_disabled":false,"rental_uris":{"android":"levelo://app?vid=c508de5d-6751-4c08-9006-72549e20f78c","ios":"levelo://app?vid=c508de5d-6751-4c08-9006-72549e20f78c"},"vehicle_type_id":"4","last_reported":1706043994,"current_range_meters":22000,"station_id":"ce4bgt92rcd13ifvqcg0","pricing_plan_id":"free"},{"bike_id":"fc0878a1-ab9d-44e6-9dad-1c71d18e5fc0","system_id":"levelo_inurba_marseille","lat":43.311125,"lon":5.377624,"is_reserved":false,"is_disabled":false,"rental_uris":{"android":"levelo://app?vid=fc0878a1-ab9d-44e6-9dad-1c71d18e5fc0","ios":"levelo://app?vid=fc0878a1-ab9d-44e6-9dad-1c71d18e5fc0"},"vehicle_type_id":"4","last_reported":1706043994,"current_range_meters":6400,"station_id":"ce4bgt92rcd13ifvqcg0","pricing_plan_id":"free"},{"bike_id":"cf37a971-2ffd-4fdb-ab26-c43b1a4acc13","system_id":"levelo_inurba_marseille","lat":43.311131,"lon":5.377651,"is_reserved":false,"is_disabled":false,"rental_uris":{"android":"levelo://app?vid=cf37a971-2ffd-4fdb-ab26-c43b1a4acc13","ios":"levelo://app?vid=cf37a971-2ffd-4fdb-ab26-c43b1a4acc13"},"vehicle_type_id":"4","last_reported":1706043994,"current_range_meters":20800,"station_id":"ce4bgt92rcd13ifvqcg0","pricing_plan_id":"free"},{"bike_id":"cf3f0c35-a456-4355-9f4a-e5cc66bc3e7d","system_id":"levelo_inurba_marseille","lat":43.307945,"lon":5.376487,"is_reserved":false,"is_disabled":false,"rental_uris":{"android":"levelo://app?vid=cf3f0c35-a456-4355-9f4a-e5cc66bc3e7d","ios":"levelo://app?vid=cf3f0c35-a456-4355-9f4a-e5cc66bc3e7d"},"vehicle_type_id":"4","last_reported":1706043994,"current_range_meters":26400,"station_id":"ce4bgv92rcd13ifvqcq0","pricing_plan_id":"free"},{"bike_id":"fe3ea01a-611d-45bb-ade9-61ab37619286","system_id":"levelo_inurba_marseille","lat":43.307945,"lon":5.376487,"is_reserved":false,"is_disabled":false,"rental_uris":{"android":"levelo://app?vid=fe3ea01a-611d-45bb-ade9-61ab37619286","ios":"levelo://app?vid=fe3ea01a-611d-45bb-ade9-61ab37619286"},"vehicle_type_id":"4","last_reported":1706043994,"current_range_meters":20400,"station_id":"ce4bgv92rcd13ifvqcq0","pricing_plan_id":"free"},{"bike_id":"a111c29d-23e6-41dd-980a-8196109059a9","system_id":"levelo_inurba_marseille","lat":43.307945,"lon":5.376487,"is_reserved":false,"is_disabled":false,"rental_uris":{"android":"levelo://app?vid=a111c29d-23e6-41dd-980a-8196109059a9","ios":"levelo://app?vid=a111c29d-23e6-41dd-980a-8196109059a9"},"vehicle_type_id":"4","last_reported":1706043994,"current_range_meters":30000,"station_id":"ce4bgv92rcd13ifvqcq0","pricing_plan_id":"free"},{"bike_id":"d7854f2c-e25b-4567-9ca1-100b79dde627","system_id":"levelo_inurba_marseille","lat":43.31713,"lon":5.37692,"is_reserved":false,"is_disabled":false,"rental_uris":{"android":"levelo://app?vid=d7854f2c-e25b-4567-9ca1-100b79dde627","ios":"levelo://app?vid=d7854f2c-e25b-4567-9ca1-100b79dde627"},"vehicle_type_id":"4","last_reported":1706043994,"current_range_meters":13200,"station_id":"ce4bgth2rcd13ifvqch0","pricing_plan_id":"free"},{"bike_id":"c00ff8ea-cdbf-46f4-9a5c-b2abe4228fde","system_id":"levelo_inurba_marseille","lat":43.307945,"lon":5.376487,"is_reserved":false,"is_disabled":false,"rental_uris":{"android":"levelo://app?vid=c00ff8ea-cdbf-46f4-9a5c-b2abe4228fde","ios":"levelo://app?vid=c00ff8ea-cdbf-46f4-9a5c-b2abe4228fde"},"vehicle_type_id":"4","last_reported":1706043994,"current_range_meters":18800,"station_id":"ce4bgv92rcd13ifvqcq0","pricing_plan_id":"free"},{"bike_id":"2469635f-2b69-42b6-924a-0cc1c51fda3c","system_id":"levelo_inurba_marseille","lat":43.303046,"lon":5.368981,"is_reserved":false,"is_disabled":false,"rental_uris":{"android":"levelo://app?vid=2469635f-2b69-42b6-924a-0cc1c51fda3c","ios":"levelo://app?vid=2469635f-2b69-42b6-924a-0cc1c51fda3c"},"vehicle_type_id":"4","last_reported":1706043994,"current_range_meters":8400,"station_id":"ce4bgqh2rcd13ifvqc5g","pricing_plan_id":"free"},{"bike_id":"0e9e0a61-dbc2-4321-94eb-4d63435b7054","system_id":"levelo_inurba_marseille","lat":43.3153,"lon":5.38029,"is_reserved":false,"is_disabled":false,"rental_uris":{"android":"levelo://app?vid=0e9e0a61-dbc2-4321-94eb-4d63435b7054","ios":"levelo://app?vid=0e9e0a61-dbc2-4321-94eb-4d63435b7054"},"vehicle_type_id":"4","last_reported":1706043994,"current_range_meters":8800,"station_id":"ce4bhsp2rcd13ifvqi50","pricing_plan_id":"free"},{"bike_id":"78a433e0-5c2b-4b5b-9333-b232be4753e2","system_id":"levelo_inurba_marseille","lat":43.301939,"lon":5.366286,"is_reserved":false,"is_disabled":false,"rental_uris":{"android":"levelo://app?vid=78a433e0-5c2b-4b5b-9333-b232be4753e2","ios":"levelo://app?vid=78a433e0-5c2b-4b5b-9333-b232be4753e2"},"vehicle_type_id":"4","last_reported":1706043994,"current_range_meters":22000,"station_id":"ce4bgrh2rcd13ifvqc8g","pricing_plan_id":"free"},{"bike_id":"4ab61cc9-1949-4ab5-bcf1-8f07c54632b5","system_id":"levelo_inurba_marseille","lat":43.310552,"lon":5.381532,"is_reserved":false,"is_disabled":false,"rental_uris":{"android":"levelo://app?vid=4ab61cc9-1949-4ab5-bcf1-8f07c54632b5","ios":"levelo://app?vid=4ab61cc9-1949-4ab5-bcf1-8f07c54632b5"},"vehicle_type_id":"4","last_reported":1706043994,"current_range_meters":20000,"station_id":"","pricing_plan_id":"free"},{"bike_id":"9b5e78cd-6acc-418b-a884-3744c0e0bf9b","system_id":"levelo_inurba_marseille","lat":43.301939,"lon":5.366286,"is_reserved":false,"is_disabled":false,"rental_uris":{"android":"levelo://app?vid=9b5e78cd-6acc-418b-a884-3744c0e0bf9b","ios":"levelo://app?vid=9b5e78cd-6acc-418b-a884-3744c0e0bf9b"},"vehicle_type_id":"4","last_reported":1706043994,"current_range_meters":28400,"station_id":"ce4bgrh2rcd13ifvqc8g","pricing_plan_id":"free"},{"bike_id":"9fca1292-6957-4b05-a77b-23617c81a648","system_id":"levelo_inurba_marseille","lat":43.301939,"lon":5.366286,"is_reserved":false,"is_disabled":false,"rental_uris":{"android":"levelo://app?vid=9fca1292-6957-4b05-a77b-23617c81a648","ios":"levelo://app?vid=9fca1292-6957-4b05-a77b-23617c81a648"},"vehicle_type_id":"4","last_reported":1706043994,"current_range_meters":23200,"station_id":"ce4bgrh2rcd13ifvqc8g","pricing_plan_id":"free"},{"bike_id":"026dd225-3632-43ad-82a0-cc07dee5f5f8","system_id":"levelo_inurba_marseille","lat":43.308012,"lon":5.381511,"is_reserved":false,"is_disabled":false,"rental_uris":{"android":"levelo://app?vid=026dd225-3632-43ad-82a0-cc07dee5f5f8","ios":"levelo://app?vid=026dd225-3632-43ad-82a0-cc07dee5f5f8"},"vehicle_type_id":"4","last_reported":1706043994,"current_range_meters":9200,"station_id":"ce4bgt12rcd13ifvqce0","pricing_plan_id":"free"},{"bike_id":"58b0b020-1733-46ca-b95f-5f43da072158","system_id":"levelo_inurba_marseille","lat":43.30804,"lon":5.38149,"is_reserved":false,"is_disabled":false,"rental_uris":{"android":"levelo://app?vid=58b0b020-1733-46ca-b95f-5f43da072158","ios":"levelo://app?vid=58b0b020-1733-46ca-b95f-5f43da072158"},"vehicle_type_id":"4","last_reported":1706043994,"current_range_meters":0,"station_id":"ce4bgt12rcd13ifvqce0","pricing_plan_id":"free"},{"bike_id":"5ef545b8-3c03-4f1d-ba2c-a283ad92be40","system_id":"levelo_inurba_marseille","lat":43.308012,"lon":5.381511,"is_reserved":false,"is_disabled":false,"rental_uris":{"android":"levelo://app?vid=5ef545b8-3c03-4f1d-ba2c-a283ad92be40","ios":"levelo://app?vid=5ef545b8-3c03-4f1d-ba2c-a283ad92be40"},"vehicle_type_id":"4","last_reported":1706043994,"current_range_meters":20000,"station_id":"ce4bgt12rcd13ifvqce0","pricing_plan_id":"free"},{"bike_id":"923f07f9-3f9d-4536-92fb-0a998e52b61d","system_id":"levelo_inurba_marseille","lat":43.308012,"lon":5.381511,"is_reserved":false,"is_disabled":false,"rental_uris":{"android":"levelo://app?vid=923f07f9-3f9d-4536-92fb-0a998e52b61d","ios":"levelo://app?vid=923f07f9-3f9d-4536-92fb-0a998e52b61d"},"vehicle_type_id":"4","last_reported":1706043994,"current_range_meters":25600,"station_id":"ce4bgt12rcd13ifvqce0","pricing_plan_id":"free"},{"bike_id":"83609f9f-1583-4194-b4d4-cef5a99c906f","system_id":"levelo_inurba_marseille","lat":43.308012,"lon":5.381511,"is_reserved":false,"is_disabled":false,"rental_uris":{"android":"levelo://app?vid=83609f9f-1583-4194-b4d4-cef5a99c906f","ios":"levelo://app?vid=83609f9f-1583-4194-b4d4-cef5a99c906f"},"vehicle_type_id":"4","last_reported":1706043994,"current_range_meters":16000,"station_id":"ce4bgt12rcd13ifvqce0","pricing_plan_id":"free"},{"bike_id":"a93d442f-129b-4941-a622-54afda2ae9f8","system_id":"levelo_inurba_marseille","lat":43.308012,"lon":5.381511,"is_reserved":false,"is_disabled":false,"rental_uris":{"android":"levelo://app?vid=a93d442f-129b-4941-a622-54afda2ae9f8","ios":"levelo://app?vid=a93d442f-129b-4941-a622-54afda2ae9f8"},"vehicle_type_id":"4","last_reported":1706043994,"current_range_meters":19200,"station_id":"ce4bgt12rcd13ifvqce0","pricing_plan_id":"free"},{"bike_id":"57f4a1d0-30b8-4140-8cb7-a30c09f393d9","system_id":"levelo_inurba_marseille","lat":43.308012,"lon":5.381511,"is_reserved":false,"is_disabled":false,"rental_uris":{"android":"levelo://app?vid=57f4a1d0-30b8-4140-8cb7-a30c09f393d9","ios":"levelo://app?vid=57f4a1d0-30b8-4140-8cb7-a30c09f393d9"},"vehicle_type_id":"4","last_reported":1706043994,"current_range_meters":30800,"station_id":"ce4bgt12rcd13ifvqce0","pricing_plan_id":"free"},{"bike_id":"f0b091a3-ae1b-494d-860f-210572240e8c","system_id":"levelo_inurba_marseille","lat":43.308012,"lon":5.381511,"is_reserved":false,"is_disabled":false,"rental_uris":{"android":"levelo://app?vid=f0b091a3-ae1b-494d-860f-210572240e8c","ios":"levelo://app?vid=f0b091a3-ae1b-494d-860f-210572240e8c"},"vehicle_type_id":"4","last_reported":1706043994,"current_range_meters":12400,"station_id":"ce4bgt12rcd13ifvqce0","pricing_plan_id":"free"},{"bike_id":"f4d43637-748a-42ca-b475-983a409d336b","system_id":"levelo_inurba_marseille","lat":43.324771,"lon":5.36557,"is_reserved":false,"is_disabled":false,"rental_uris":{"android":"levelo://app?vid=f4d43637-748a-42ca-b475-983a409d336b","ios":"levelo://app?vid=f4d43637-748a-42ca-b475-983a409d336b"},"vehicle_type_id":"4","last_reported":1706043994,"current_range_meters":16400,"station_id":"ce4bhs12rcd13ifvqhvg","pricing_plan_id":"free"},{"bike_id":"5eb89afe-c51f-4ff8-8e66-71558e6cd7e3","system_id":"levelo_inurba_marseille","lat":43.324771,"lon":5.36557,"is_reserved":false,"is_disabled":false,"rental_uris":{"android":"levelo://app?vid=5eb89afe-c51f-4ff8-8e66-71558e6cd7e3","ios":"levelo://app?vid=5eb89afe-c51f-4ff8-8e66-71558e6cd7e3"},"vehicle_type_id":"4","last_reported":1706043994,"current_range_meters":8000,"station_id":"ce4bhs12rcd13ifvqhvg","pricing_plan_id":"free"},{"bike_id":"e8864f13-cb02-44c6-88ab-ba5f258fe84f","system_id":"levelo_inurba_marseille","lat":43.324771,"lon":5.36557,"is_reserved":false,"is_disabled":false,"rental_uris":{"android":"levelo://app?vid=e8864f13-cb02-44c6-88ab-ba5f258fe84f","ios":"levelo://app?vid=e8864f13-cb02-44c6-88ab-ba5f258fe84f"},"vehicle_type_id":"4","last_reported":1706043994,"current_range_meters":21200,"station_id":"ce4bhs12rcd13ifvqhvg","pricing_plan_id":"free"},{"bike_id":"ecf70e63-ad30-4d40-a838-db07dc292d27","system_id":"levelo_inurba_marseille","lat":43.302784,"lon":5.377158,"is_reserved":false,"is_disabled":false,"rental_uris":{"android":"levelo://app?vid=ecf70e63-ad30-4d40-a838-db07dc292d27","ios":"levelo://app?vid=ecf70e63-ad30-4d40-a838-db07dc292d27"},"vehicle_type_id":"4","last_reported":1706043994,"current_range_meters":25600,"station_id":"ce4bguh2rcd13ifvqcj0","pricing_plan_id":"free"},{"bike_id":"db5640b8-520d-4779-8ec1-4a4bc253b2f8","system_id":"levelo_inurba_marseille","lat":43.319935,"lon":5.381699,"is_reserved":false,"is_disabled":false,"rental_uris":{"android":"levelo://app?vid=db5640b8-520d-4779-8ec1-4a4bc253b2f8","ios":"levelo://app?vid=db5640b8-520d-4779-8ec1-4a4bc253b2f8"},"vehicle_type_id":"4","last_reported":1706043994,"current_range_meters":9600,"station_id":"ce4bhr12rcd13ifvqhpg","pricing_plan_id":"free"},{"bike_id":"00646b3f-5cf3-4e84-bfb8-47e4dcf2da8c","system_id":"levelo_inurba_marseille","lat":43.319935,"lon":5.381699,"is_reserved":false,"is_disabled":false,"rental_uris":{"android":"levelo://app?vid=00646b3f-5cf3-4e84-bfb8-47e4dcf2da8c","ios":"levelo://app?vid=00646b3f-5cf3-4e84-bfb8-47e4dcf2da8c"},"vehicle_type_id":"4","last_reported":1706043994,"current_range_meters":3600,"station_id":"ce4bhr12rcd13ifvqhpg","pricing_plan_id":"free"},{"bike_id":"3ce3e68d-0313-40cb-afa9-858c717ce4c9","system_id":"levelo_inurba_marseille","lat":43.319935,"lon":5.381699,"is_reserved":false,"is_disabled":false,"rental_uris":{"android":"levelo://app?vid=3ce3e68d-0313-40cb-afa9-858c717ce4c9","ios":"levelo://app?vid=3ce3e68d-0313-40cb-afa9-858c717ce4c9"},"vehicle_type_id":"4","last_reported":1706043994,"current_range_meters":22000,"station_id":"ce4bhr12rcd13ifvqhpg","pricing_plan_id":"free"},{"bike_id":"fd388e30-6c90-4fbf-abdf-dd15ef425659","system_id":"levelo_inurba_marseille","lat":43.319967,"lon":5.381565,"is_reserved":false,"is_disabled":false,"rental_uris":{"android":"levelo://app?vid=fd388e30-6c90-4fbf-abdf-dd15ef425659","ios":"levelo://app?vid=fd388e30-6c90-4fbf-abdf-dd15ef425659"},"vehicle_type_id":"4","last_reported":1706043994,"current_range_meters":20800,"station_id":"ce4bhr12rcd13ifvqhpg","pricing_plan_id":"free"},{"bike_id":"4c2d4969-44b3-4b99-ac08-166dc554d101","system_id":"levelo_inurba_marseille","lat":43.319935,"lon":5.381699,"is_reserved":false,"is_disabled":false,"rental_uris":{"android":"levelo://app?vid=4c2d4969-44b3-4b99-ac08-166dc554d101","ios":"levelo://app?vid=4c2d4969-44b3-4b99-ac08-166dc554d101"},"vehicle_type_id":"4","last_reported":1706043994,"current_range_meters":2800,"station_id":"ce4bhr12rcd13ifvqhpg","pricing_plan_id":"free"},{"bike_id":"cc49fb07-820d-4047-984c-6077647af278","system_id":"levelo_inurba_marseille","lat":43.319935,"lon":5.381699,"is_reserved":false,"is_disabled":false,"rental_uris":{"android":"levelo://app?vid=cc49fb07-820d-4047-984c-6077647af278","ios":"levelo://app?vid=cc49fb07-820d-4047-984c-6077647af278"},"vehicle_type_id":"4","last_reported":1706043994,"current_range_meters":21600,"station_id":"ce4bhr12rcd13ifvqhpg","pricing_plan_id":"free"},{"bike_id":"dc49a2bc-c54f-43f8-bdaf-bfb9096d0275","system_id":"levelo_inurba_marseille","lat":43.319935,"lon":5.381699,"is_reserved":false,"is_disabled":false,"rental_uris":{"android":"levelo://app?vid=dc49a2bc-c54f-43f8-bdaf-bfb9096d0275","ios":"levelo://app?vid=dc49a2bc-c54f-43f8-bdaf-bfb9096d0275"},"vehicle_type_id":"4","last_reported":1706043994,"current_range_meters":6000,"station_id":"ce4bhr12rcd13ifvqhpg","pricing_plan_id":"free"},{"bike_id":"26473e6c-6aa5-4477-be16-b83b681d1fa5","system_id":"levelo_inurba_marseille","lat":43.319935,"lon":5.381699,"is_reserved":false,"is_disabled":false,"rental_uris":{"android":"levelo://app?vid=26473e6c-6aa5-4477-be16-b83b681d1fa5","ios":"levelo://app?vid=26473e6c-6aa5-4477-be16-b83b681d1fa5"},"vehicle_type_id":"4","last_reported":1706043994,"current_range_meters":17600,"station_id":"ce4bhr12rcd13ifvqhpg","pricing_plan_id":"free"},{"bike_id":"88483b5e-a393-4bfe-9800-1971f45b7e52","system_id":"levelo_inurba_marseille","lat":43.319935,"lon":5.381699,"is_reserved":false,"is_disabled":false,"rental_uris":{"android":"levelo://app?vid=88483b5e-a393-4bfe-9800-1971f45b7e52","ios":"levelo://app?vid=88483b5e-a393-4bfe-9800-1971f45b7e52"},"vehicle_type_id":"4","last_reported":1706043994,"current_range_meters":19600,"station_id":"ce4bhr12rcd13ifvqhpg","pricing_plan_id":"free"},{"bike_id":"d87078bd-be56-40a8-a9a5-b622c33fa043","system_id":"levelo_inurba_marseille","lat":43.313571,"lon":5.384829,"is_reserved":false,"is_disabled":false,"rental_uris":{"android":"levelo://app?vid=d87078bd-be56-40a8-a9a5-b622c33fa043","ios":"levelo://app?vid=d87078bd-be56-40a8-a9a5-b622c33fa043"},"vehicle_type_id":"4","last_reported":1706043994,"current_range_meters":13600,"station_id":"ce4bgt92rcd13ifvqcf0","pricing_plan_id":"free"},{"bike_id":"9186a8af-d83c-43ee-b333-fa0e3abc90b4","system_id":"levelo_inurba_marseille","lat":43.313571,"lon":5.384829,"is_reserved":false,"is_disabled":false,"rental_uris":{"android":"levelo://app?vid=9186a8af-d83c-43ee-b333-fa0e3abc90b4","ios":"levelo://app?vid=9186a8af-d83c-43ee-b333-fa0e3abc90b4"},"vehicle_type_id":"4","last_reported":1706043994,"current_range_meters":6800,"station_id":"ce4bgt92rcd13ifvqcf0","pricing_plan_id":"free"},{"bike_id":"b50399c3-1af2-47ab-b44a-262d7c001484","system_id":"levelo_inurba_marseille","lat":43.313571,"lon":5.384829,"is_reserved":false,"is_disabled":false,"rental_uris":{"android":"levelo://app?vid=b50399c3-1af2-47ab-b44a-262d7c001484","ios":"levelo://app?vid=b50399c3-1af2-47ab-b44a-262d7c001484"},"vehicle_type_id":"4","last_reported":1706043994,"current_range_meters":8800,"station_id":"ce4bgt92rcd13ifvqcf0","pricing_plan_id":"free"},{"bike_id":"2ae1bec3-a79b-4c20-beee-12484a244334","system_id":"levelo_inurba_marseille","lat":43.313571,"lon":5.384829,"is_reserved":false,"is_disabled":false,"rental_uris":{"android":"levelo://app?vid=2ae1bec3-a79b-4c20-beee-12484a244334","ios":"levelo://app?vid=2ae1bec3-a79b-4c20-beee-12484a244334"},"vehicle_type_id":"4","last_reported":1706043994,"current_range_meters":12400,"station_id":"ce4bgt92rcd13ifvqcf0","pricing_plan_id":"free"},{"bike_id":"a39cfb70-5717-4ecb-bf2d-a36c3cafa75b","system_id":"levelo_inurba_marseille","lat":43.31364,"lon":5.38495,"is_reserved":false,"is_disabled":false,"rental_uris":{"android":"levelo://app?vid=a39cfb70-5717-4ecb-bf2d-a36c3cafa75b","ios":"levelo://app?vid=a39cfb70-5717-4ecb-bf2d-a36c3cafa75b"},"vehicle_type_id":"4","last_reported":1706043994,"current_range_meters":11200,"station_id":"ce4bgt92rcd13ifvqcf0","pricing_plan_id":"free"},{"bike_id":"96b8e3c9-9066-4bc1-979d-6d2d67bf219b","system_id":"levelo_inurba_marseille","lat":43.313571,"lon":5.384829,"is_reserved":false,"is_disabled":false,"rental_uris":{"android":"levelo://app?vid=96b8e3c9-9066-4bc1-979d-6d2d67bf219b","ios":"levelo://app?vid=96b8e3c9-9066-4bc1-979d-6d2d67bf219b"},"vehicle_type_id":"4","last_reported":1706043994,"current_range_meters":29200,"station_id":"ce4bgt92rcd13ifvqcf0","pricing_plan_id":"free"},{"bike_id":"112ebb17-85eb-4c66-a1cb-752d5f767624","system_id":"levelo_inurba_marseille","lat":43.299209,"lon":5.365547,"is_reserved":false,"is_disabled":false,"rental_uris":{"android":"levelo://app?vid=112ebb17-85eb-4c66-a1cb-752d5f767624","ios":"levelo://app?vid=112ebb17-85eb-4c66-a1cb-752d5f767624"},"vehicle_type_id":"4","last_reported":1706043994,"current_range_meters":21600,"station_id":"ce4bgm92rcd13ifvqbr0","pricing_plan_id":"free"},{"bike_id":"ed5a1b49-3268-4096-8e22-2756a409a5b6","system_id":"levelo_inurba_marseille","lat":43.305364,"lon":5.384119,"is_reserved":false,"is_disabled":false,"rental_uris":{"android":"levelo://app?vid=ed5a1b49-3268-4096-8e22-2756a409a5b6","ios":"levelo://app?vid=ed5a1b49-3268-4096-8e22-2756a409a5b6"},"vehicle_type_id":"4","last_reported":1706043994,"current_range_meters":800,"station_id":"ce4bgg92rcd13ifvqb30","pricing_plan_id":"free"},{"bike_id":"de051bf8-81d4-427d-a47e-6754a47e440f","system_id":"levelo_inurba_marseille","lat":43.29917,"lon":5.37451,"is_reserved":false,"is_disabled":false,"rental_uris":{"android":"levelo://app?vid=de051bf8-81d4-427d-a47e-6754a47e440f","ios":"levelo://app?vid=de051bf8-81d4-427d-a47e-6754a47e440f"},"vehicle_type_id":"4","last_reported":1706043994,"current_range_meters":25600,"station_id":"","pricing_plan_id":"free"},{"bike_id":"47e14d49-b774-47c3-a96e-de2ce1c0f7bb","system_id":"levelo_inurba_marseille","lat":43.311722,"lon":5.387247,"is_reserved":false,"is_disabled":false,"rental_uris":{"android":"levelo://app?vid=47e14d49-b774-47c3-a96e-de2ce1c0f7bb","ios":"levelo://app?vid=47e14d49-b774-47c3-a96e-de2ce1c0f7bb"},"vehicle_type_id":"4","last_reported":1706043994,"current_range_meters":21200,"station_id":"ce4bgv12rcd13ifvqcp0","pricing_plan_id":"free"},{"bike_id":"0301e0f2-1b14-4b29-bc2a-c6f423dab75f","system_id":"levelo_inurba_marseille","lat":43.311722,"lon":5.387247,"is_reserved":false,"is_disabled":false,"rental_uris":{"android":"levelo://app?vid=0301e0f2-1b14-4b29-bc2a-c6f423dab75f","ios":"levelo://app?vid=0301e0f2-1b14-4b29-bc2a-c6f423dab75f"},"vehicle_type_id":"4","last_reported":1706043994,"current_range_meters":13600,"station_id":"ce4bgv12rcd13ifvqcp0","pricing_plan_id":"free"},{"bike_id":"170f40b6-cc0e-4d6c-a6f3-50e67a11b4df","system_id":"levelo_inurba_marseille","lat":43.311722,"lon":5.387247,"is_reserved":false,"is_disabled":false,"rental_uris":{"android":"levelo://app?vid=170f40b6-cc0e-4d6c-a6f3-50e67a11b4df","ios":"levelo://app?vid=170f40b6-cc0e-4d6c-a6f3-50e67a11b4df"},"vehicle_type_id":"4","last_reported":1706043994,"current_range_meters":12000,"station_id":"ce4bgv12rcd13ifvqcp0","pricing_plan_id":"free"},{"bike_id":"82111cc0-128e-43cb-a4c3-c0a66daa394d","system_id":"levelo_inurba_marseille","lat":43.311722,"lon":5.387247,"is_reserved":false,"is_disabled":false,"rental_uris":{"android":"levelo://app?vid=82111cc0-128e-43cb-a4c3-c0a66daa394d","ios":"levelo://app?vid=82111cc0-128e-43cb-a4c3-c0a66daa394d"},"vehicle_type_id":"4","last_reported":1706043994,"current_range_meters":26800,"station_id":"ce4bgv12rcd13ifvqcp0","pricing_plan_id":"free"},{"bike_id":"a5eab93a-98fb-47fc-9252-cb341c71bc75","system_id":"levelo_inurba_marseille","lat":43.297878,"lon":5.37114,"is_reserved":false,"is_disabled":false,"rental_uris":{"android":"levelo://app?vid=a5eab93a-98fb-47fc-9252-cb341c71bc75","ios":"levelo://app?vid=a5eab93a-98fb-47fc-9252-cb341c71bc75"},"vehicle_type_id":"4","last_reported":1706043994,"current_range_meters":0,"station_id":"ce4bgop2rcd13ifvqc1g","pricing_plan_id":"free"},{"bike_id":"171d2d26-404a-4d95-bf44-3dcfca9fe8aa","system_id":"levelo_inurba_marseille","lat":43.322872,"lon":5.382756,"is_reserved":false,"is_disabled":false,"rental_uris":{"android":"levelo://app?vid=171d2d26-404a-4d95-bf44-3dcfca9fe8aa","ios":"levelo://app?vid=171d2d26-404a-4d95-bf44-3dcfca9fe8aa"},"vehicle_type_id":"4","last_reported":1706043994,"current_range_meters":21600,"station_id":"ce4bhr12rcd13ifvqhqg","pricing_plan_id":"free"},{"bike_id":"89789d60-57f9-4669-bae1-bd74942c359c","system_id":"levelo_inurba_marseille","lat":43.322872,"lon":5.382756,"is_reserved":false,"is_disabled":false,"rental_uris":{"android":"levelo://app?vid=89789d60-57f9-4669-bae1-bd74942c359c","ios":"levelo://app?vid=89789d60-57f9-4669-bae1-bd74942c359c"},"vehicle_type_id":"4","last_reported":1706043994,"current_range_meters":17600,"station_id":"ce4bhr12rcd13ifvqhqg","pricing_plan_id":"free"},{"bike_id":"455aa212-be06-4400-9478-d2f1e827f201","system_id":"levelo_inurba_marseille","lat":43.322872,"lon":5.382756,"is_reserved":false,"is_disabled":false,"rental_uris":{"android":"levelo://app?vid=455aa212-be06-4400-9478-d2f1e827f201","ios":"levelo://app?vid=455aa212-be06-4400-9478-d2f1e827f201"},"vehicle_type_id":"4","last_reported":1706043994,"current_range_meters":22000,"station_id":"ce4bhr12rcd13ifvqhqg","pricing_plan_id":"free"},{"bike_id":"e654f202-6c69-4242-8f59-efc7b661b26a","system_id":"levelo_inurba_marseille","lat":43.322872,"lon":5.382756,"is_reserved":false,"is_disabled":false,"rental_uris":{"android":"levelo://app?vid=e654f202-6c69-4242-8f59-efc7b661b26a","ios":"levelo://app?vid=e654f202-6c69-4242-8f59-efc7b661b26a"},"vehicle_type_id":"4","last_reported":1706043994,"current_range_meters":27200,"station_id":"ce4bhr12rcd13ifvqhqg","pricing_plan_id":"free"},{"bike_id":"73755ba0-1381-4d5d-8750-d3a07d3f4c75","system_id":"levelo_inurba_marseille","lat":43.32824,"lon":5.36679,"is_reserved":false,"is_disabled":false,"rental_uris":{"android":"levelo://app?vid=73755ba0-1381-4d5d-8750-d3a07d3f4c75","ios":"levelo://app?vid=73755ba0-1381-4d5d-8750-d3a07d3f4c75"},"vehicle_type_id":"4","last_reported":1706043994,"current_range_meters":9600,"station_id":"ce4bhs92rcd13ifvqi0g","pricing_plan_id":"free"},{"bike_id":"6da9db5a-42ba-4fa8-afc9-4fdbb45498c1","system_id":"levelo_inurba_marseille","lat":43.328252,"lon":5.366804,"is_reserved":false,"is_disabled":false,"rental_uris":{"android":"levelo://app?vid=6da9db5a-42ba-4fa8-afc9-4fdbb45498c1","ios":"levelo://app?vid=6da9db5a-42ba-4fa8-afc9-4fdbb45498c1"},"vehicle_type_id":"4","last_reported":1706043994,"current_range_meters":18000,"station_id":"ce4bhs92rcd13ifvqi0g","pricing_plan_id":"free"},{"bike_id":"572c30ca-2698-4ebb-9720-28d9ee8291d9","system_id":"levelo_inurba_marseille","lat":43.32826,"lon":5.366853,"is_reserved":false,"is_disabled":false,"rental_uris":{"android":"levelo://app?vid=572c30ca-2698-4ebb-9720-28d9ee8291d9","ios":"levelo://app?vid=572c30ca-2698-4ebb-9720-28d9ee8291d9"},"vehicle_type_id":"4","last_reported":1706043994,"current_range_meters":17600,"station_id":"ce4bhs92rcd13ifvqi0g","pricing_plan_id":"free"},{"bike_id":"ea0178f3-2c6b-4af6-b062-91b0b8dde1df","system_id":"levelo_inurba_marseille","lat":43.32827,"lon":5.36688,"is_reserved":false,"is_disabled":false,"rental_uris":{"android":"levelo://app?vid=ea0178f3-2c6b-4af6-b062-91b0b8dde1df","ios":"levelo://app?vid=ea0178f3-2c6b-4af6-b062-91b0b8dde1df"},"vehicle_type_id":"4","last_reported":1706043994,"current_range_meters":8400,"station_id":"ce4bhs92rcd13ifvqi0g","pricing_plan_id":"free"},{"bike_id":"f529af8b-6eb5-4dad-b929-2be8fdbdd47b","system_id":"levelo_inurba_marseille","lat":43.328371,"lon":5.366909,"is_reserved":false,"is_disabled":false,"rental_uris":{"android":"levelo://app?vid=f529af8b-6eb5-4dad-b929-2be8fdbdd47b","ios":"levelo://app?vid=f529af8b-6eb5-4dad-b929-2be8fdbdd47b"},"vehicle_type_id":"4","last_reported":1706043994,"current_range_meters":29200,"station_id":"ce4bhs92rcd13ifvqi0g","pricing_plan_id":"free"},{"bike_id":"6721428b-c74b-45c6-886b-c2d04f1acc8c","system_id":"levelo_inurba_marseille","lat":43.328276,"lon":5.3669,"is_reserved":false,"is_disabled":false,"rental_uris":{"android":"levelo://app?vid=6721428b-c74b-45c6-886b-c2d04f1acc8c","ios":"levelo://app?vid=6721428b-c74b-45c6-886b-c2d04f1acc8c"},"vehicle_type_id":"4","last_reported":1706043994,"current_range_meters":12400,"station_id":"ce4bhs92rcd13ifvqi0g","pricing_plan_id":"free"},{"bike_id":"38d4b3c6-c1c4-4ada-b0ed-8e6826ac2770","system_id":"levelo_inurba_marseille","lat":43.328371,"lon":5.366912,"is_reserved":false,"is_disabled":false,"rental_uris":{"android":"levelo://app?vid=38d4b3c6-c1c4-4ada-b0ed-8e6826ac2770","ios":"levelo://app?vid=38d4b3c6-c1c4-4ada-b0ed-8e6826ac2770"},"vehicle_type_id":"4","last_reported":1706043994,"current_range_meters":16800,"station_id":"ce4bhs92rcd13ifvqi0g","pricing_plan_id":"free"},{"bike_id":"6851d2e7-d28c-47d0-964c-c2c15e7e3afe","system_id":"levelo_inurba_marseille","lat":43.328371,"lon":5.366909,"is_reserved":false,"is_disabled":false,"rental_uris":{"android":"levelo://app?vid=6851d2e7-d28c-47d0-964c-c2c15e7e3afe","ios":"levelo://app?vid=6851d2e7-d28c-47d0-964c-c2c15e7e3afe"},"vehicle_type_id":"4","last_reported":1706043994,"current_range_meters":4000,"station_id":"ce4bhs92rcd13ifvqi0g","pricing_plan_id":"free"},{"bike_id":"e92d083a-dfb9-464f-a2d7-ffc480709cb3","system_id":"levelo_inurba_marseille","lat":43.328371,"lon":5.366912,"is_reserved":false,"is_disabled":false,"rental_uris":{"android":"levelo://app?vid=e92d083a-dfb9-464f-a2d7-ffc480709cb3","ios":"levelo://app?vid=e92d083a-dfb9-464f-a2d7-ffc480709cb3"},"vehicle_type_id":"4","last_reported":1706043994,"current_range_meters":12800,"station_id":"ce4bhs92rcd13ifvqi0g","pricing_plan_id":"free"},{"bike_id":"d8b5260c-205c-4300-9784-22ead2fde86f","system_id":"levelo_inurba_marseille","lat":43.328371,"lon":5.366909,"is_reserved":false,"is_disabled":false,"rental_uris":{"android":"levelo://app?vid=d8b5260c-205c-4300-9784-22ead2fde86f","ios":"levelo://app?vid=d8b5260c-205c-4300-9784-22ead2fde86f"},"vehicle_type_id":"4","last_reported":1706043994,"current_range_meters":18000,"station_id":"ce4bhs92rcd13ifvqi0g","pricing_plan_id":"free"},{"bike_id":"85cedcff-9e9a-415d-8415-195178ea3cb7","system_id":"levelo_inurba_marseille","lat":43.32829,"lon":5.366746,"is_reserved":false,"is_disabled":false,"rental_uris":{"android":"levelo://app?vid=85cedcff-9e9a-415d-8415-195178ea3cb7","ios":"levelo://app?vid=85cedcff-9e9a-415d-8415-195178ea3cb7"},"vehicle_type_id":"4","last_reported":1706043994,"current_range_meters":10800,"station_id":"ce4bhs92rcd13ifvqi0g","pricing_plan_id":"free"},{"bike_id":"5b7aaccd-f0dd-4bc4-a5b7-1581df3aca1d","system_id":"levelo_inurba_marseille","lat":43.328371,"lon":5.366909,"is_reserved":false,"is_disabled":false,"rental_uris":{"android":"levelo://app?vid=5b7aaccd-f0dd-4bc4-a5b7-1581df3aca1d","ios":"levelo://app?vid=5b7aaccd-f0dd-4bc4-a5b7-1581df3aca1d"},"vehicle_type_id":"4","last_reported":1706043994,"current_range_meters":14400,"station_id":"ce4bhs92rcd13ifvqi0g","pricing_plan_id":"free"},{"bike_id":"447532c0-56ca-46ac-9000-fea47d81b433","system_id":"levelo_inurba_marseille","lat":43.328298,"lon":5.366836,"is_reserved":false,"is_disabled":false,"rental_uris":{"android":"levelo://app?vid=447532c0-56ca-46ac-9000-fea47d81b433","ios":"levelo://app?vid=447532c0-56ca-46ac-9000-fea47d81b433"},"vehicle_type_id":"4","last_reported":1706043994,"current_range_meters":26000,"station_id":"ce4bhs92rcd13ifvqi0g","pricing_plan_id":"free"},{"bike_id":"32a039db-eef1-4a0a-8c6a-17ab6d5d4eda","system_id":"levelo_inurba_marseille","lat":43.3283,"lon":5.36672,"is_reserved":false,"is_disabled":false,"rental_uris":{"android":"levelo://app?vid=32a039db-eef1-4a0a-8c6a-17ab6d5d4eda","ios":"levelo://app?vid=32a039db-eef1-4a0a-8c6a-17ab6d5d4eda"},"vehicle_type_id":"4","last_reported":1706043994,"current_range_meters":4400,"station_id":"ce4bhs92rcd13ifvqi0g","pricing_plan_id":"free"},{"bike_id":"8e2e258c-9f25-408c-8291-bf6e5ba33180","system_id":"levelo_inurba_marseille","lat":43.328371,"lon":5.366909,"is_reserved":false,"is_disabled":false,"rental_uris":{"android":"levelo://app?vid=8e2e258c-9f25-408c-8291-bf6e5ba33180","ios":"levelo://app?vid=8e2e258c-9f25-408c-8291-bf6e5ba33180"},"vehicle_type_id":"4","last_reported":1706043994,"current_range_meters":28400,"station_id":"ce4bhs92rcd13ifvqi0g","pricing_plan_id":"free"},{"bike_id":"fb5c81e7-2e43-4803-b381-527ab4102689","system_id":"levelo_inurba_marseille","lat":43.328371,"lon":5.366909,"is_reserved":false,"is_disabled":false,"rental_uris":{"android":"levelo://app?vid=fb5c81e7-2e43-4803-b381-527ab4102689","ios":"levelo://app?vid=fb5c81e7-2e43-4803-b381-527ab4102689"},"vehicle_type_id":"4","last_reported":1706043994,"current_range_meters":30800,"station_id":"ce4bhs92rcd13ifvqi0g","pricing_plan_id":"free"},{"bike_id":"79d2d98a-29f2-4ffd-ae01-bfd8a1fa05d5","system_id":"levelo_inurba_marseille","lat":43.328371,"lon":5.366912,"is_reserved":false,"is_disabled":false,"rental_uris":{"android":"levelo://app?vid=79d2d98a-29f2-4ffd-ae01-bfd8a1fa05d5","ios":"levelo://app?vid=79d2d98a-29f2-4ffd-ae01-bfd8a1fa05d5"},"vehicle_type_id":"4","last_reported":1706043994,"current_range_meters":29600,"station_id":"ce4bhs92rcd13ifvqi0g","pricing_plan_id":"free"},{"bike_id":"204738f6-469d-4db3-bd14-c2b38ef5e726","system_id":"levelo_inurba_marseille","lat":43.328371,"lon":5.366912,"is_reserved":false,"is_disabled":false,"rental_uris":{"android":"levelo://app?vid=204738f6-469d-4db3-bd14-c2b38ef5e726","ios":"levelo://app?vid=204738f6-469d-4db3-bd14-c2b38ef5e726"},"vehicle_type_id":"4","last_reported":1706043994,"current_range_meters":23200,"station_id":"ce4bhs92rcd13ifvqi0g","pricing_plan_id":"free"},{"bike_id":"ad32d1c0-0a4c-4152-8c29-fea173cfe935","system_id":"levelo_inurba_marseille","lat":43.295959,"lon":5.367893,"is_reserved":false,"is_disabled":false,"rental_uris":{"android":"levelo://app?vid=ad32d1c0-0a4c-4152-8c29-fea173cfe935","ios":"levelo://app?vid=ad32d1c0-0a4c-4152-8c29-fea173cfe935"},"vehicle_type_id":"4","last_reported":1706043994,"current_range_meters":17200,"station_id":"","pricing_plan_id":"free"},{"bike_id":"8d91eba4-5dc1-431b-805f-d266df987154","system_id":"levelo_inurba_marseille","lat":43.29717,"lon":5.37681,"is_reserved":false,"is_disabled":false,"rental_uris":{"android":"levelo://app?vid=8d91eba4-5dc1-431b-805f-d266df987154","ios":"levelo://app?vid=8d91eba4-5dc1-431b-805f-d266df987154"},"vehicle_type_id":"4","last_reported":1706043994,"current_range_meters":2000,"station_id":"ce4bgkh2rcd13ifvqbl0","pricing_plan_id":"free"},{"bike_id":"e3689707-ebc0-41d8-8284-cf3e01232ac9","system_id":"levelo_inurba_marseille","lat":43.29717,"lon":5.37686,"is_reserved":false,"is_disabled":false,"rental_uris":{"android":"levelo://app?vid=e3689707-ebc0-41d8-8284-cf3e01232ac9","ios":"levelo://app?vid=e3689707-ebc0-41d8-8284-cf3e01232ac9"},"vehicle_type_id":"4","last_reported":1706043994,"current_range_meters":0,"station_id":"ce4bgkh2rcd13ifvqbl0","pricing_plan_id":"free"},{"bike_id":"89bd7d10-5b76-4eb7-a8bc-970f24da2b52","system_id":"levelo_inurba_marseille","lat":43.309589,"lon":5.390258,"is_reserved":false,"is_disabled":false,"rental_uris":{"android":"levelo://app?vid=89bd7d10-5b76-4eb7-a8bc-970f24da2b52","ios":"levelo://app?vid=89bd7d10-5b76-4eb7-a8bc-970f24da2b52"},"vehicle_type_id":"4","last_reported":1706043994,"current_range_meters":1200,"station_id":"ce4bgup2rcd13ifvqco0","pricing_plan_id":"free"},{"bike_id":"0b89f1ef-7e39-40da-b52c-537085a903f0","system_id":"levelo_inurba_marseille","lat":43.309589,"lon":5.390258,"is_reserved":false,"is_disabled":false,"rental_uris":{"android":"levelo://app?vid=0b89f1ef-7e39-40da-b52c-537085a903f0","ios":"levelo://app?vid=0b89f1ef-7e39-40da-b52c-537085a903f0"},"vehicle_type_id":"4","last_reported":1706043994,"current_range_meters":31600,"station_id":"ce4bgup2rcd13ifvqco0","pricing_plan_id":"free"},{"bike_id":"a8ee9d30-40b0-4853-b58c-0e424c6eee67","system_id":"levelo_inurba_marseille","lat":43.317557,"lon":5.390173,"is_reserved":false,"is_disabled":false,"rental_uris":{"android":"levelo://app?vid=a8ee9d30-40b0-4853-b58c-0e424c6eee67","ios":"levelo://app?vid=a8ee9d30-40b0-4853-b58c-0e424c6eee67"},"vehicle_type_id":"4","last_reported":1706043994,"current_range_meters":0,"station_id":"ce4bhqp2rcd13ifvqhng","pricing_plan_id":"free"},{"bike_id":"5a1aba35-eebe-4738-991b-60ac34377a47","system_id":"levelo_inurba_marseille","lat":43.296277,"lon":5.377108,"is_reserved":false,"is_disabled":false,"rental_uris":{"android":"levelo://app?vid=5a1aba35-eebe-4738-991b-60ac34377a47","ios":"levelo://app?vid=5a1aba35-eebe-4738-991b-60ac34377a47"},"vehicle_type_id":"4","last_reported":1706043994,"current_range_meters":30000,"station_id":"ce4bgi92rcd13ifvqb90","pricing_plan_id":"free"},{"bike_id":"cb61270b-1874-4608-b078-3f2984626b6c","system_id":"levelo_inurba_marseille","lat":43.304274,"lon":5.388873,"is_reserved":false,"is_disabled":false,"rental_uris":{"android":"levelo://app?vid=cb61270b-1874-4608-b078-3f2984626b6c","ios":"levelo://app?vid=cb61270b-1874-4608-b078-3f2984626b6c"},"vehicle_type_id":"4","last_reported":1706043994,"current_range_meters":0,"station_id":"ce4bgk12rcd13ifvqbi0","pricing_plan_id":"free"},{"bike_id":"0445d1a9-e719-4b06-9390-673b6beb59ee","system_id":"levelo_inurba_marseille","lat":43.296277,"lon":5.377108,"is_reserved":false,"is_disabled":false,"rental_uris":{"android":"levelo://app?vid=0445d1a9-e719-4b06-9390-673b6beb59ee","ios":"levelo://app?vid=0445d1a9-e719-4b06-9390-673b6beb59ee"},"vehicle_type_id":"4","last_reported":1706043994,"current_range_meters":0,"station_id":"ce4bgi92rcd13ifvqb90","pricing_plan_id":"free"},{"bike_id":"04c7614e-9c93-4247-ab5b-793d0868a50b","system_id":"levelo_inurba_marseille","lat":43.299707,"lon":5.384859,"is_reserved":false,"is_disabled":false,"rental_uris":{"android":"levelo://app?vid=04c7614e-9c93-4247-ab5b-793d0868a50b","ios":"levelo://app?vid=04c7614e-9c93-4247-ab5b-793d0868a50b"},"vehicle_type_id":"4","last_reported":1706043994,"current_range_meters":9600,"station_id":"ce4bgj92rcd13ifvqbd0","pricing_plan_id":"free"},{"bike_id":"7c87c026-52e9-4e83-8653-ad965d6f3915","system_id":"levelo_inurba_marseille","lat":43.299717,"lon":5.384845,"is_reserved":false,"is_disabled":false,"rental_uris":{"android":"levelo://app?vid=7c87c026-52e9-4e83-8653-ad965d6f3915","ios":"levelo://app?vid=7c87c026-52e9-4e83-8653-ad965d6f3915"},"vehicle_type_id":"4","last_reported":1706043994,"current_range_meters":8000,"station_id":"ce4bgj92rcd13ifvqbd0","pricing_plan_id":"free"},{"bike_id":"28395faf-8cf1-4f81-a0d6-4ca33555226e","system_id":"levelo_inurba_marseille","lat":43.32367,"lon":5.388836,"is_reserved":false,"is_disabled":false,"rental_uris":{"android":"levelo://app?vid=28395faf-8cf1-4f81-a0d6-4ca33555226e","ios":"levelo://app?vid=28395faf-8cf1-4f81-a0d6-4ca33555226e"},"vehicle_type_id":"4","last_reported":1706043994,"current_range_meters":14400,"station_id":"ce4bhqp2rcd13ifvqhog","pricing_plan_id":"free"},{"bike_id":"b3ae146c-2436-4afb-b45a-3899af5aa2de","system_id":"levelo_inurba_marseille","lat":43.32367,"lon":5.388836,"is_reserved":false,"is_disabled":false,"rental_uris":{"android":"levelo://app?vid=b3ae146c-2436-4afb-b45a-3899af5aa2de","ios":"levelo://app?vid=b3ae146c-2436-4afb-b45a-3899af5aa2de"},"vehicle_type_id":"4","last_reported":1706043994,"current_range_meters":20400,"station_id":"ce4bhqp2rcd13ifvqhog","pricing_plan_id":"free"},{"bike_id":"3aa7afa9-31c9-412e-b41c-5eb00ac6866d","system_id":"levelo_inurba_marseille","lat":43.306413,"lon":5.392997,"is_reserved":false,"is_disabled":false,"rental_uris":{"android":"levelo://app?vid=3aa7afa9-31c9-412e-b41c-5eb00ac6866d","ios":"levelo://app?vid=3aa7afa9-31c9-412e-b41c-5eb00ac6866d"},"vehicle_type_id":"4","last_reported":1706043994,"current_range_meters":22000,"station_id":"","pricing_plan_id":"free"},{"bike_id":"77207433-070c-488b-9266-26f9529cf742","system_id":"levelo_inurba_marseille","lat":43.297118,"lon":5.385459,"is_reserved":false,"is_disabled":false,"rental_uris":{"android":"levelo://app?vid=77207433-070c-488b-9266-26f9529cf742","ios":"levelo://app?vid=77207433-070c-488b-9266-26f9529cf742"},"vehicle_type_id":"4","last_reported":1706043994,"current_range_meters":0,"station_id":"","pricing_plan_id":"free"},{"bike_id":"108559eb-0086-4b88-8a12-331a614a5a79","system_id":"levelo_inurba_marseille","lat":43.294253,"lon":5.380312,"is_reserved":false,"is_disabled":false,"rental_uris":{"android":"levelo://app?vid=108559eb-0086-4b88-8a12-331a614a5a79","ios":"levelo://app?vid=108559eb-0086-4b88-8a12-331a614a5a79"},"vehicle_type_id":"4","last_reported":1706043994,"current_range_meters":12800,"station_id":"","pricing_plan_id":"free"},{"bike_id":"9002b701-070e-4f11-8b31-ab499ca1a7df","system_id":"levelo_inurba_marseille","lat":43.292311,"lon":5.360731,"is_reserved":false,"is_disabled":false,"rental_uris":{"android":"levelo://app?vid=9002b701-070e-4f11-8b31-ab499ca1a7df","ios":"levelo://app?vid=9002b701-070e-4f11-8b31-ab499ca1a7df"},"vehicle_type_id":"4","last_reported":1706043994,"current_range_meters":23600,"station_id":"ce4bhbh2rcd13ifvqeqg","pricing_plan_id":"free"},{"bike_id":"a5df906d-0249-44a7-9029-b188205c8200","system_id":"levelo_inurba_marseille","lat":43.300852,"lon":5.390859,"is_reserved":false,"is_disabled":false,"rental_uris":{"android":"levelo://app?vid=a5df906d-0249-44a7-9029-b188205c8200","ios":"levelo://app?vid=a5df906d-0249-44a7-9029-b188205c8200"},"vehicle_type_id":"4","last_reported":1706043994,"current_range_meters":10400,"station_id":"ce4bh192rcd13ifvqdb0","pricing_plan_id":"free"},{"bike_id":"6c4d9f8f-76f6-4e0e-b1af-9c9bc06663db","system_id":"levelo_inurba_marseille","lat":43.298764,"lon":5.388973,"is_reserved":false,"is_disabled":false,"rental_uris":{"android":"levelo://app?vid=6c4d9f8f-76f6-4e0e-b1af-9c9bc06663db","ios":"levelo://app?vid=6c4d9f8f-76f6-4e0e-b1af-9c9bc06663db"},"vehicle_type_id":"4","last_reported":1706043994,"current_range_meters":0,"station_id":"ce4bh392rcd13ifvqdl0","pricing_plan_id":"free"},{"bike_id":"80be8dc2-b2d4-45e9-a58a-607ce69f1450","system_id":"levelo_inurba_marseille","lat":43.298764,"lon":5.388973,"is_reserved":false,"is_disabled":false,"rental_uris":{"android":"levelo://app?vid=80be8dc2-b2d4-45e9-a58a-607ce69f1450","ios":"levelo://app?vid=80be8dc2-b2d4-45e9-a58a-607ce69f1450"},"vehicle_type_id":"4","last_reported":1706043994,"current_range_meters":0,"station_id":"ce4bh392rcd13ifvqdl0","pricing_plan_id":"free"},{"bike_id":"1c3684a5-4e4c-4929-9460-3d99be34492e","system_id":"levelo_inurba_marseille","lat":43.298687,"lon":5.38915,"is_reserved":false,"is_disabled":false,"rental_uris":{"android":"levelo://app?vid=1c3684a5-4e4c-4929-9460-3d99be34492e","ios":"levelo://app?vid=1c3684a5-4e4c-4929-9460-3d99be34492e"},"vehicle_type_id":"4","last_reported":1706043994,"current_range_meters":0,"station_id":"ce4bh392rcd13ifvqdl0","pricing_plan_id":"free"},{"bike_id":"3ad45def-9801-4830-93f6-31b670685a91","system_id":"levelo_inurba_marseille","lat":43.309038,"lon":5.396546,"is_reserved":false,"is_disabled":false,"rental_uris":{"android":"levelo://app?vid=3ad45def-9801-4830-93f6-31b670685a91","ios":"levelo://app?vid=3ad45def-9801-4830-93f6-31b670685a91"},"vehicle_type_id":"4","last_reported":1706043994,"current_range_meters":20000,"station_id":"ce4bh012rcd13ifvqcv0","pricing_plan_id":"free"},{"bike_id":"b84e9270-4a17-4301-8bba-8665768dd7af","system_id":"levelo_inurba_marseille","lat":43.291994,"lon":5.357886,"is_reserved":false,"is_disabled":false,"rental_uris":{"android":"levelo://app?vid=b84e9270-4a17-4301-8bba-8665768dd7af","ios":"levelo://app?vid=b84e9270-4a17-4301-8bba-8665768dd7af"},"vehicle_type_id":"4","last_reported":1706043994,"current_range_meters":17600,"station_id":"ce4bhb12rcd13ifvqel0","pricing_plan_id":"free"},{"bike_id":"b801f3af-5189-4a3d-93f2-ae44c07ad806","system_id":"levelo_inurba_marseille","lat":43.291994,"lon":5.357886,"is_reserved":false,"is_disabled":false,"rental_uris":{"android":"levelo://app?vid=b801f3af-5189-4a3d-93f2-ae44c07ad806","ios":"levelo://app?vid=b801f3af-5189-4a3d-93f2-ae44c07ad806"},"vehicle_type_id":"4","last_reported":1706043994,"current_range_meters":29200,"station_id":"ce4bhb12rcd13ifvqel0","pricing_plan_id":"free"},{"bike_id":"2378141d-6fe9-4791-9657-29fcf004c61d","system_id":"levelo_inurba_marseille","lat":43.29195,"lon":5.35801,"is_reserved":false,"is_disabled":false,"rental_uris":{"android":"levelo://app?vid=2378141d-6fe9-4791-9657-29fcf004c61d","ios":"levelo://app?vid=2378141d-6fe9-4791-9657-29fcf004c61d"},"vehicle_type_id":"4","last_reported":1706043994,"current_range_meters":0,"station_id":"ce4bhb12rcd13ifvqel0","pricing_plan_id":"free"},{"bike_id":"b0378619-07e4-423e-8a92-aeed8a6b2a85","system_id":"levelo_inurba_marseille","lat":43.291994,"lon":5.357886,"is_reserved":false,"is_disabled":false,"rental_uris":{"android":"levelo://app?vid=b0378619-07e4-423e-8a92-aeed8a6b2a85","ios":"levelo://app?vid=b0378619-07e4-423e-8a92-aeed8a6b2a85"},"vehicle_type_id":"4","last_reported":1706043994,"current_range_meters":21600,"station_id":"ce4bhb12rcd13ifvqel0","pricing_plan_id":"free"},{"bike_id":"9ceb9abd-65fb-43f8-93fe-cd68cb282130","system_id":"levelo_inurba_marseille","lat":43.291994,"lon":5.357886,"is_reserved":false,"is_disabled":false,"rental_uris":{"android":"levelo://app?vid=9ceb9abd-65fb-43f8-93fe-cd68cb282130","ios":"levelo://app?vid=9ceb9abd-65fb-43f8-93fe-cd68cb282130"},"vehicle_type_id":"4","last_reported":1706043994,"current_range_meters":19600,"station_id":"ce4bhb12rcd13ifvqel0","pricing_plan_id":"free"},{"bike_id":"ee570c37-7e5b-4f34-854d-9f0e3f694527","system_id":"levelo_inurba_marseille","lat":43.313291,"lon":5.396838,"is_reserved":false,"is_disabled":false,"rental_uris":{"android":"levelo://app?vid=ee570c37-7e5b-4f34-854d-9f0e3f694527","ios":"levelo://app?vid=ee570c37-7e5b-4f34-854d-9f0e3f694527"},"vehicle_type_id":"4","last_reported":1706043994,"current_range_meters":14800,"station_id":"ce4bgvp2rcd13ifvqcu0","pricing_plan_id":"free"},{"bike_id":"1beee7ae-44c9-46a5-8c0f-71536d72fb01","system_id":"levelo_inurba_marseille","lat":43.313291,"lon":5.396838,"is_reserved":false,"is_disabled":false,"rental_uris":{"android":"levelo://app?vid=1beee7ae-44c9-46a5-8c0f-71536d72fb01","ios":"levelo://app?vid=1beee7ae-44c9-46a5-8c0f-71536d72fb01"},"vehicle_type_id":"4","last_reported":1706043994,"current_range_meters":19200,"station_id":"ce4bgvp2rcd13ifvqcu0","pricing_plan_id":"free"},{"bike_id":"86f516b8-f84c-4efe-9cdc-1ce35f94c9a7","system_id":"levelo_inurba_marseille","lat":43.313291,"lon":5.396838,"is_reserved":false,"is_disabled":false,"rental_uris":{"android":"levelo://app?vid=86f516b8-f84c-4efe-9cdc-1ce35f94c9a7","ios":"levelo://app?vid=86f516b8-f84c-4efe-9cdc-1ce35f94c9a7"},"vehicle_type_id":"4","last_reported":1706043994,"current_range_meters":29600,"station_id":"ce4bgvp2rcd13ifvqcu0","pricing_plan_id":"free"},{"bike_id":"5e7a6b38-b865-4eab-82f2-9b56861caa36","system_id":"levelo_inurba_marseille","lat":43.309038,"lon":5.396546,"is_reserved":false,"is_disabled":false,"rental_uris":{"android":"levelo://app?vid=5e7a6b38-b865-4eab-82f2-9b56861caa36","ios":"levelo://app?vid=5e7a6b38-b865-4eab-82f2-9b56861caa36"},"vehicle_type_id":"4","last_reported":1706043994,"current_range_meters":7200,"station_id":"ce4bh012rcd13ifvqcv0","pricing_plan_id":"free"},{"bike_id":"82ec280b-d53f-473c-aabc-d4a4b34ca7e1","system_id":"levelo_inurba_marseille","lat":43.29534,"lon":5.38542,"is_reserved":false,"is_disabled":false,"rental_uris":{"android":"levelo://app?vid=82ec280b-d53f-473c-aabc-d4a4b34ca7e1","ios":"levelo://app?vid=82ec280b-d53f-473c-aabc-d4a4b34ca7e1"},"vehicle_type_id":"4","last_reported":1706043994,"current_range_meters":1600,"station_id":"ce4bgih2rcd13ifvqba0","pricing_plan_id":"free"},{"bike_id":"af2d124a-7840-4dfc-9937-692ad675833f","system_id":"levelo_inurba_marseille","lat":43.29529,"lon":5.385581,"is_reserved":false,"is_disabled":false,"rental_uris":{"android":"levelo://app?vid=af2d124a-7840-4dfc-9937-692ad675833f","ios":"levelo://app?vid=af2d124a-7840-4dfc-9937-692ad675833f"},"vehicle_type_id":"4","last_reported":1706043994,"current_range_meters":24800,"station_id":"ce4bgih2rcd13ifvqba0","pricing_plan_id":"free"},{"bike_id":"98871879-4f99-4ce3-91ad-e20e99753d70","system_id":"levelo_inurba_marseille","lat":43.290631,"lon":5.359244,"is_reserved":false,"is_disabled":false,"rental_uris":{"android":"levelo://app?vid=98871879-4f99-4ce3-91ad-e20e99753d70","ios":"levelo://app?vid=98871879-4f99-4ce3-91ad-e20e99753d70"},"vehicle_type_id":"4","last_reported":1706043994,"current_range_meters":25600,"station_id":"ce4bha92rcd13ifvqeg0","pricing_plan_id":"free"},{"bike_id":"88b07f89-0aa6-4fb8-8a7f-7e4bd1f65587","system_id":"levelo_inurba_marseille","lat":43.290345,"lon":5.359195,"is_reserved":false,"is_disabled":false,"rental_uris":{"android":"levelo://app?vid=88b07f89-0aa6-4fb8-8a7f-7e4bd1f65587","ios":"levelo://app?vid=88b07f89-0aa6-4fb8-8a7f-7e4bd1f65587"},"vehicle_type_id":"4","last_reported":1706043994,"current_range_meters":0,"station_id":"ce4bha92rcd13ifvqeg0","pricing_plan_id":"free"},{"bike_id":"34f77e5d-dfef-40a9-ab56-c7c220e08229","system_id":"levelo_inurba_marseille","lat":43.294235,"lon":5.386184,"is_reserved":false,"is_disabled":false,"rental_uris":{"android":"levelo://app?vid=34f77e5d-dfef-40a9-ab56-c7c220e08229","ios":"levelo://app?vid=34f77e5d-dfef-40a9-ab56-c7c220e08229"},"vehicle_type_id":"4","last_reported":1706043994,"current_range_meters":30000,"station_id":"","pricing_plan_id":"free"},{"bike_id":"bff78bc8-dad9-4a7c-aa1d-3b0db3879877","system_id":"levelo_inurba_marseille","lat":43.29421,"lon":5.3862,"is_reserved":false,"is_disabled":false,"rental_uris":{"android":"levelo://app?vid=bff78bc8-dad9-4a7c-aa1d-3b0db3879877","ios":"levelo://app?vid=bff78bc8-dad9-4a7c-aa1d-3b0db3879877"},"vehicle_type_id":"4","last_reported":1706043994,"current_range_meters":23600,"station_id":"ce4bh2h2rcd13ifvqdh0","pricing_plan_id":"free"},{"bike_id":"ec1b6b8a-eae7-4cca-8a8b-85690bd97505","system_id":"levelo_inurba_marseille","lat":43.2942,"lon":5.38619,"is_reserved":false,"is_disabled":false,"rental_uris":{"android":"levelo://app?vid=ec1b6b8a-eae7-4cca-8a8b-85690bd97505","ios":"levelo://app?vid=ec1b6b8a-eae7-4cca-8a8b-85690bd97505"},"vehicle_type_id":"4","last_reported":1706043994,"current_range_meters":14400,"station_id":"ce4bh2h2rcd13ifvqdh0","pricing_plan_id":"free"},{"bike_id":"38861a24-e611-4fb8-ae64-630733aa783c","system_id":"levelo_inurba_marseille","lat":43.290631,"lon":5.359244,"is_reserved":false,"is_disabled":false,"rental_uris":{"android":"levelo://app?vid=38861a24-e611-4fb8-ae64-630733aa783c","ios":"levelo://app?vid=38861a24-e611-4fb8-ae64-630733aa783c"},"vehicle_type_id":"4","last_reported":1706043994,"current_range_meters":0,"station_id":"ce4bha92rcd13ifvqeg0","pricing_plan_id":"free"},{"bike_id":"445d7401-6264-450b-8a64-48331e360a80","system_id":"levelo_inurba_marseille","lat":43.29417,"lon":5.38622,"is_reserved":false,"is_disabled":false,"rental_uris":{"android":"levelo://app?vid=445d7401-6264-450b-8a64-48331e360a80","ios":"levelo://app?vid=445d7401-6264-450b-8a64-48331e360a80"},"vehicle_type_id":"4","last_reported":1706043994,"current_range_meters":0,"station_id":"ce4bh2h2rcd13ifvqdh0","pricing_plan_id":"free"},{"bike_id":"f36c0aa4-c30e-480f-a857-ee413690f5e4","system_id":"levelo_inurba_marseille","lat":43.29416,"lon":5.38622,"is_reserved":false,"is_disabled":false,"rental_uris":{"android":"levelo://app?vid=f36c0aa4-c30e-480f-a857-ee413690f5e4","ios":"levelo://app?vid=f36c0aa4-c30e-480f-a857-ee413690f5e4"},"vehicle_type_id":"4","last_reported":1706043994,"current_range_meters":24400,"station_id":"ce4bh2h2rcd13ifvqdh0","pricing_plan_id":"free"},{"bike_id":"f402e118-02f2-43ae-a825-4173364f23f3","system_id":"levelo_inurba_marseille","lat":43.29415,"lon":5.38623,"is_reserved":false,"is_disabled":false,"rental_uris":{"android":"levelo://app?vid=f402e118-02f2-43ae-a825-4173364f23f3","ios":"levelo://app?vid=f402e118-02f2-43ae-a825-4173364f23f3"},"vehicle_type_id":"4","last_reported":1706043994,"current_range_meters":4000,"station_id":"ce4bh2h2rcd13ifvqdh0","pricing_plan_id":"free"},{"bike_id":"7e372fb0-19a7-4eb4-a5df-ac8145d4b723","system_id":"levelo_inurba_marseille","lat":43.289184,"lon":5.366408,"is_reserved":false,"is_disabled":false,"rental_uris":{"android":"levelo://app?vid=7e372fb0-19a7-4eb4-a5df-ac8145d4b723","ios":"levelo://app?vid=7e372fb0-19a7-4eb4-a5df-ac8145d4b723"},"vehicle_type_id":"4","last_reported":1706043994,"current_range_meters":22800,"station_id":"ce4bhap2rcd13ifvqek0","pricing_plan_id":"free"},{"bike_id":"46e31da2-3396-4dab-a60b-65b7ea57b714","system_id":"levelo_inurba_marseille","lat":43.289468,"lon":5.363719,"is_reserved":false,"is_disabled":false,"rental_uris":{"android":"levelo://app?vid=46e31da2-3396-4dab-a60b-65b7ea57b714","ios":"levelo://app?vid=46e31da2-3396-4dab-a60b-65b7ea57b714"},"vehicle_type_id":"4","last_reported":1706043994,"current_range_meters":13600,"station_id":"ce4bhc92rcd13ifvqetg","pricing_plan_id":"free"},{"bike_id":"f0a0277f-a2ac-4db8-8b98-f672afdc1c26","system_id":"levelo_inurba_marseille","lat":43.289184,"lon":5.366408,"is_reserved":false,"is_disabled":false,"rental_uris":{"android":"levelo://app?vid=f0a0277f-a2ac-4db8-8b98-f672afdc1c26","ios":"levelo://app?vid=f0a0277f-a2ac-4db8-8b98-f672afdc1c26"},"vehicle_type_id":"4","last_reported":1706043994,"current_range_meters":27600,"station_id":"ce4bhap2rcd13ifvqek0","pricing_plan_id":"free"},{"bike_id":"2dd6f75d-c82e-4a49-85ba-cfe2dc8b9967","system_id":"levelo_inurba_marseille","lat":43.289184,"lon":5.366408,"is_reserved":false,"is_disabled":false,"rental_uris":{"android":"levelo://app?vid=2dd6f75d-c82e-4a49-85ba-cfe2dc8b9967","ios":"levelo://app?vid=2dd6f75d-c82e-4a49-85ba-cfe2dc8b9967"},"vehicle_type_id":"4","last_reported":1706043994,"current_range_meters":22000,"station_id":"ce4bhap2rcd13ifvqek0","pricing_plan_id":"free"},{"bike_id":"b73913ed-7738-4043-bd40-21d334b745c6","system_id":"levelo_inurba_marseille","lat":43.28935,"lon":5.36645,"is_reserved":false,"is_disabled":false,"rental_uris":{"android":"levelo://app?vid=b73913ed-7738-4043-bd40-21d334b745c6","ios":"levelo://app?vid=b73913ed-7738-4043-bd40-21d334b745c6"},"vehicle_type_id":"4","last_reported":1706043994,"current_range_meters":14400,"station_id":"ce4bhap2rcd13ifvqek0","pricing_plan_id":"free"},{"bike_id":"37255525-1597-4ee3-ba49-9b83c7fa1a76","system_id":"levelo_inurba_marseille","lat":43.28934,"lon":5.36633,"is_reserved":false,"is_disabled":false,"rental_uris":{"android":"levelo://app?vid=37255525-1597-4ee3-ba49-9b83c7fa1a76","ios":"levelo://app?vid=37255525-1597-4ee3-ba49-9b83c7fa1a76"},"vehicle_type_id":"4","last_reported":1706043994,"current_range_meters":31200,"station_id":"ce4bhap2rcd13ifvqek0","pricing_plan_id":"free"},{"bike_id":"6ed23ca5-ecbb-4de3-8983-7774f1d8a8ae","system_id":"levelo_inurba_marseille","lat":43.28932,"lon":5.36639,"is_reserved":false,"is_disabled":false,"rental_uris":{"android":"levelo://app?vid=6ed23ca5-ecbb-4de3-8983-7774f1d8a8ae","ios":"levelo://app?vid=6ed23ca5-ecbb-4de3-8983-7774f1d8a8ae"},"vehicle_type_id":"4","last_reported":1706043994,"current_range_meters":4400,"station_id":"ce4bhap2rcd13ifvqek0","pricing_plan_id":"free"},{"bike_id":"665c030c-cee2-48e6-a7b2-734aefd69be1","system_id":"levelo_inurba_marseille","lat":43.294162,"lon":5.386292,"is_reserved":false,"is_disabled":false,"rental_uris":{"android":"levelo://app?vid=665c030c-cee2-48e6-a7b2-734aefd69be1","ios":"levelo://app?vid=665c030c-cee2-48e6-a7b2-734aefd69be1"},"vehicle_type_id":"4","last_reported":1706043994,"current_range_meters":1600,"station_id":"ce4bh2h2rcd13ifvqdh0","pricing_plan_id":"free"},{"bike_id":"6b460e1f-335b-4458-920c-020a1aef63a9","system_id":"levelo_inurba_marseille","lat":43.289468,"lon":5.363719,"is_reserved":false,"is_disabled":false,"rental_uris":{"android":"levelo://app?vid=6b460e1f-335b-4458-920c-020a1aef63a9","ios":"levelo://app?vid=6b460e1f-335b-4458-920c-020a1aef63a9"},"vehicle_type_id":"4","last_reported":1706043994,"current_range_meters":2800,"station_id":"ce4bhc92rcd13ifvqetg","pricing_plan_id":"free"},{"bike_id":"6c067683-26f8-4d5e-980d-4647ff4e93ea","system_id":"levelo_inurba_marseille","lat":43.289468,"lon":5.363719,"is_reserved":false,"is_disabled":false,"rental_uris":{"android":"levelo://app?vid=6c067683-26f8-4d5e-980d-4647ff4e93ea","ios":"levelo://app?vid=6c067683-26f8-4d5e-980d-4647ff4e93ea"},"vehicle_type_id":"4","last_reported":1706043994,"current_range_meters":4000,"station_id":"ce4bhc92rcd13ifvqetg","pricing_plan_id":"free"},{"bike_id":"292c734f-43f5-4517-b2d2-2ed36c1ea6fe","system_id":"levelo_inurba_marseille","lat":43.29385,"lon":5.38634,"is_reserved":false,"is_disabled":false,"rental_uris":{"android":"levelo://app?vid=292c734f-43f5-4517-b2d2-2ed36c1ea6fe","ios":"levelo://app?vid=292c734f-43f5-4517-b2d2-2ed36c1ea6fe"},"vehicle_type_id":"4","last_reported":1706043994,"current_range_meters":24800,"station_id":"ce4bh2h2rcd13ifvqdh0","pricing_plan_id":"free"},{"bike_id":"b96d8317-4fa5-4f10-82a6-8465329cb872","system_id":"levelo_inurba_marseille","lat":43.292644,"lon":5.384257,"is_reserved":false,"is_disabled":false,"rental_uris":{"android":"levelo://app?vid=b96d8317-4fa5-4f10-82a6-8465329cb872","ios":"levelo://app?vid=b96d8317-4fa5-4f10-82a6-8465329cb872"},"vehicle_type_id":"4","last_reported":1706043994,"current_range_meters":18800,"station_id":"ce4bh692rcd13ifvqea0","pricing_plan_id":"free"},{"bike_id":"a9b62a41-eff4-4b40-a3fa-265cd419cfcf","system_id":"levelo_inurba_marseille","lat":43.309038,"lon":5.396546,"is_reserved":false,"is_disabled":false,"rental_uris":{"android":"levelo://app?vid=a9b62a41-eff4-4b40-a3fa-265cd419cfcf","ios":"levelo://app?vid=a9b62a41-eff4-4b40-a3fa-265cd419cfcf"},"vehicle_type_id":"4","last_reported":1706043994,"current_range_meters":18800,"station_id":"ce4bh012rcd13ifvqcv0","pricing_plan_id":"free"},{"bike_id":"32ed320b-4015-48ca-99f5-0707370e49c1","system_id":"levelo_inurba_marseille","lat":43.292644,"lon":5.384257,"is_reserved":false,"is_disabled":false,"rental_uris":{"android":"levelo://app?vid=32ed320b-4015-48ca-99f5-0707370e49c1","ios":"levelo://app?vid=32ed320b-4015-48ca-99f5-0707370e49c1"},"vehicle_type_id":"4","last_reported":1706043994,"current_range_meters":3200,"station_id":"ce4bh692rcd13ifvqea0","pricing_plan_id":"free"},{"bike_id":"07c16a97-d24a-4f83-b784-031726818b68","system_id":"levelo_inurba_marseille","lat":43.292642,"lon":5.384254,"is_reserved":false,"is_disabled":false,"rental_uris":{"android":"levelo://app?vid=07c16a97-d24a-4f83-b784-031726818b68","ios":"levelo://app?vid=07c16a97-d24a-4f83-b784-031726818b68"},"vehicle_type_id":"4","last_reported":1706043994,"current_range_meters":11200,"station_id":"ce4bh692rcd13ifvqea0","pricing_plan_id":"free"},{"bike_id":"a5c5698e-d20c-4c9f-a3a5-ebb247d15fd0","system_id":"levelo_inurba_marseille","lat":43.290104,"lon":5.356111,"is_reserved":false,"is_disabled":false,"rental_uris":{"android":"levelo://app?vid=a5c5698e-d20c-4c9f-a3a5-ebb247d15fd0","ios":"levelo://app?vid=a5c5698e-d20c-4c9f-a3a5-ebb247d15fd0"},"vehicle_type_id":"4","last_reported":1706043994,"current_range_meters":0,"station_id":"ce4bhb92rcd13ifvqen0","pricing_plan_id":"free"},{"bike_id":"f80c0bbd-f809-4868-bc97-a6ae7843c94d","system_id":"levelo_inurba_marseille","lat":43.290104,"lon":5.356111,"is_reserved":false,"is_disabled":false,"rental_uris":{"android":"levelo://app?vid=f80c0bbd-f809-4868-bc97-a6ae7843c94d","ios":"levelo://app?vid=f80c0bbd-f809-4868-bc97-a6ae7843c94d"},"vehicle_type_id":"4","last_reported":1706043994,"current_range_meters":0,"station_id":"ce4bhb92rcd13ifvqen0","pricing_plan_id":"free"},{"bike_id":"2fedfe57-a9c5-4168-a122-32439a79b7f7","system_id":"levelo_inurba_marseille","lat":43.290103,"lon":5.356114,"is_reserved":false,"is_disabled":false,"rental_uris":{"android":"levelo://app?vid=2fedfe57-a9c5-4168-a122-32439a79b7f7","ios":"levelo://app?vid=2fedfe57-a9c5-4168-a122-32439a79b7f7"},"vehicle_type_id":"4","last_reported":1706043994,"current_range_meters":22000,"station_id":"ce4bhb92rcd13ifvqen0","pricing_plan_id":"free"},{"bike_id":"ae7160bd-ce53-4c80-82c2-c61d2415a7c9","system_id":"levelo_inurba_marseille","lat":43.29005,"lon":5.35602,"is_reserved":false,"is_disabled":false,"rental_uris":{"android":"levelo://app?vid=ae7160bd-ce53-4c80-82c2-c61d2415a7c9","ios":"levelo://app?vid=ae7160bd-ce53-4c80-82c2-c61d2415a7c9"},"vehicle_type_id":"4","last_reported":1706043994,"current_range_meters":0,"station_id":"ce4bhb92rcd13ifvqen0","pricing_plan_id":"free"},{"bike_id":"f47297b3-14a2-46aa-94d3-f350a807c853","system_id":"levelo_inurba_marseille","lat":43.29792,"lon":5.39334,"is_reserved":false,"is_disabled":false,"rental_uris":{"android":"levelo://app?vid=f47297b3-14a2-46aa-94d3-f350a807c853","ios":"levelo://app?vid=f47297b3-14a2-46aa-94d3-f350a807c853"},"vehicle_type_id":"4","last_reported":1706043994,"current_range_meters":22800,"station_id":"chh1huq6cuj3fo74tm60","pricing_plan_id":"free"},{"bike_id":"88f1f9e0-5542-4f2c-a2bd-453ddefd1eef","system_id":"levelo_inurba_marseille","lat":43.29796,"lon":5.393395,"is_reserved":false,"is_disabled":false,"rental_uris":{"android":"levelo://app?vid=88f1f9e0-5542-4f2c-a2bd-453ddefd1eef","ios":"levelo://app?vid=88f1f9e0-5542-4f2c-a2bd-453ddefd1eef"},"vehicle_type_id":"4","last_reported":1706043994,"current_range_meters":31600,"station_id":"chh1huq6cuj3fo74tm60","pricing_plan_id":"free"},{"bike_id":"7bea473a-ffca-428b-b3d5-b9bceb5843df","system_id":"levelo_inurba_marseille","lat":43.29783,"lon":5.39327,"is_reserved":false,"is_disabled":false,"rental_uris":{"android":"levelo://app?vid=7bea473a-ffca-428b-b3d5-b9bceb5843df","ios":"levelo://app?vid=7bea473a-ffca-428b-b3d5-b9bceb5843df"},"vehicle_type_id":"4","last_reported":1706043994,"current_range_meters":16000,"station_id":"chh1huq6cuj3fo74tm60","pricing_plan_id":"free"},{"bike_id":"a1e806de-7881-4fd8-a3a5-9f3f5208bdc0","system_id":"levelo_inurba_marseille","lat":43.297815,"lon":5.393548,"is_reserved":false,"is_disabled":false,"rental_uris":{"android":"levelo://app?vid=a1e806de-7881-4fd8-a3a5-9f3f5208bdc0","ios":"levelo://app?vid=a1e806de-7881-4fd8-a3a5-9f3f5208bdc0"},"vehicle_type_id":"4","last_reported":1706043994,"current_range_meters":21600,"station_id":"chh1huq6cuj3fo74tm60","pricing_plan_id":"free"},{"bike_id":"a854f462-3472-47bf-84c4-789d10af92a0","system_id":"levelo_inurba_marseille","lat":43.29788,"lon":5.39339,"is_reserved":false,"is_disabled":false,"rental_uris":{"android":"levelo://app?vid=a854f462-3472-47bf-84c4-789d10af92a0","ios":"levelo://app?vid=a854f462-3472-47bf-84c4-789d10af92a0"},"vehicle_type_id":"4","last_reported":1706043994,"current_range_meters":18800,"station_id":"chh1huq6cuj3fo74tm60","pricing_plan_id":"free"},{"bike_id":"7e3b44a0-6518-4173-8fd1-e575b28a3580","system_id":"levelo_inurba_marseille","lat":43.297914,"lon":5.393434,"is_reserved":false,"is_disabled":false,"rental_uris":{"android":"levelo://app?vid=7e3b44a0-6518-4173-8fd1-e575b28a3580","ios":"levelo://app?vid=7e3b44a0-6518-4173-8fd1-e575b28a3580"},"vehicle_type_id":"4","last_reported":1706043994,"current_range_meters":22400,"station_id":"chh1huq6cuj3fo74tm60","pricing_plan_id":"free"},{"bike_id":"aadf3741-df5b-4dc3-a623-3a98b6ec6724","system_id":"levelo_inurba_marseille","lat":43.29794,"lon":5.39347,"is_reserved":false,"is_disabled":false,"rental_uris":{"android":"levelo://app?vid=aadf3741-df5b-4dc3-a623-3a98b6ec6724","ios":"levelo://app?vid=aadf3741-df5b-4dc3-a623-3a98b6ec6724"},"vehicle_type_id":"4","last_reported":1706043994,"current_range_meters":28000,"station_id":"chh1huq6cuj3fo74tm60","pricing_plan_id":"free"},{"bike_id":"85e70da8-2ffe-437f-826a-be80d7f20f63","system_id":"levelo_inurba_marseille","lat":43.29784,"lon":5.39337,"is_reserved":false,"is_disabled":false,"rental_uris":{"android":"levelo://app?vid=85e70da8-2ffe-437f-826a-be80d7f20f63","ios":"levelo://app?vid=85e70da8-2ffe-437f-826a-be80d7f20f63"},"vehicle_type_id":"4","last_reported":1706043994,"current_range_meters":10400,"station_id":"chh1huq6cuj3fo74tm60","pricing_plan_id":"free"},{"bike_id":"812712cd-ab4e-4eb5-a583-f8bfe592f71d","system_id":"levelo_inurba_marseille","lat":43.297896,"lon":5.393436,"is_reserved":false,"is_disabled":false,"rental_uris":{"android":"levelo://app?vid=812712cd-ab4e-4eb5-a583-f8bfe592f71d","ios":"levelo://app?vid=812712cd-ab4e-4eb5-a583-f8bfe592f71d"},"vehicle_type_id":"4","last_reported":1706043994,"current_range_meters":2000,"station_id":"chh1huq6cuj3fo74tm60","pricing_plan_id":"free"},{"bike_id":"5bd801ae-98c5-4ed3-95c8-24c2fdac86c0","system_id":"levelo_inurba_marseille","lat":43.297815,"lon":5.393548,"is_reserved":false,"is_disabled":false,"rental_uris":{"android":"levelo://app?vid=5bd801ae-98c5-4ed3-95c8-24c2fdac86c0","ios":"levelo://app?vid=5bd801ae-98c5-4ed3-95c8-24c2fdac86c0"},"vehicle_type_id":"4","last_reported":1706043994,"current_range_meters":20800,"station_id":"chh1huq6cuj3fo74tm60","pricing_plan_id":"free"},{"bike_id":"d52baf28-50ef-4220-9c27-8a655062a064","system_id":"levelo_inurba_marseille","lat":43.297886,"lon":5.393498,"is_reserved":false,"is_disabled":false,"rental_uris":{"android":"levelo://app?vid=d52baf28-50ef-4220-9c27-8a655062a064","ios":"levelo://app?vid=d52baf28-50ef-4220-9c27-8a655062a064"},"vehicle_type_id":"4","last_reported":1706043994,"current_range_meters":22000,"station_id":"chh1huq6cuj3fo74tm60","pricing_plan_id":"free"},{"bike_id":"67c380de-ab9c-4162-b94f-c63800b63578","system_id":"levelo_inurba_marseille","lat":43.330255,"lon":5.390402,"is_reserved":false,"is_disabled":false,"rental_uris":{"android":"levelo://app?vid=67c380de-ab9c-4162-b94f-c63800b63578","ios":"levelo://app?vid=67c380de-ab9c-4162-b94f-c63800b63578"},"vehicle_type_id":"4","last_reported":1706043994,"current_range_meters":8800,"station_id":"","pricing_plan_id":"free"},{"bike_id":"96586ac9-9a64-4c4e-ab3a-f0f771191d77","system_id":"levelo_inurba_marseille","lat":43.330442,"lon":5.389148,"is_reserved":false,"is_disabled":false,"rental_uris":{"android":"levelo://app?vid=96586ac9-9a64-4c4e-ab3a-f0f771191d77","ios":"levelo://app?vid=96586ac9-9a64-4c4e-ab3a-f0f771191d77"},"vehicle_type_id":"4","last_reported":1706043994,"current_range_meters":10800,"station_id":"ce4bhr92rcd13ifvqhrg","pricing_plan_id":"free"},{"bike_id":"395c82f9-55ab-4c66-8db3-c361ea2ce031","system_id":"levelo_inurba_marseille","lat":43.330442,"lon":5.389148,"is_reserved":false,"is_disabled":false,"rental_uris":{"android":"levelo://app?vid=395c82f9-55ab-4c66-8db3-c361ea2ce031","ios":"levelo://app?vid=395c82f9-55ab-4c66-8db3-c361ea2ce031"},"vehicle_type_id":"4","last_reported":1706043994,"current_range_meters":13600,"station_id":"ce4bhr92rcd13ifvqhrg","pricing_plan_id":"free"},{"bike_id":"1cc8b87d-c914-4364-925d-625b0e108ce5","system_id":"levelo_inurba_marseille","lat":43.28856,"lon":5.358371,"is_reserved":false,"is_disabled":false,"rental_uris":{"android":"levelo://app?vid=1cc8b87d-c914-4364-925d-625b0e108ce5","ios":"levelo://app?vid=1cc8b87d-c914-4364-925d-625b0e108ce5"},"vehicle_type_id":"4","last_reported":1706043994,"current_range_meters":18000,"station_id":"ce4bhb12rcd13ifvqem0","pricing_plan_id":"free"},{"bike_id":"acb7ac40-2d0f-496c-87a2-095502ed748c","system_id":"levelo_inurba_marseille","lat":43.28856,"lon":5.358371,"is_reserved":false,"is_disabled":false,"rental_uris":{"android":"levelo://app?vid=acb7ac40-2d0f-496c-87a2-095502ed748c","ios":"levelo://app?vid=acb7ac40-2d0f-496c-87a2-095502ed748c"},"vehicle_type_id":"4","last_reported":1706043994,"current_range_meters":16400,"station_id":"ce4bhb12rcd13ifvqem0","pricing_plan_id":"free"},{"bike_id":"7e350033-17c9-42c2-b62f-617a96d712ca","system_id":"levelo_inurba_marseille","lat":43.28856,"lon":5.358371,"is_reserved":false,"is_disabled":false,"rental_uris":{"android":"levelo://app?vid=7e350033-17c9-42c2-b62f-617a96d712ca","ios":"levelo://app?vid=7e350033-17c9-42c2-b62f-617a96d712ca"},"vehicle_type_id":"4","last_reported":1706043994,"current_range_meters":5600,"station_id":"ce4bhb12rcd13ifvqem0","pricing_plan_id":"free"},{"bike_id":"803f435c-f72f-4aca-a707-644537ea2758","system_id":"levelo_inurba_marseille","lat":43.28856,"lon":5.358371,"is_reserved":false,"is_disabled":false,"rental_uris":{"android":"levelo://app?vid=803f435c-f72f-4aca-a707-644537ea2758","ios":"levelo://app?vid=803f435c-f72f-4aca-a707-644537ea2758"},"vehicle_type_id":"4","last_reported":1706043994,"current_range_meters":9600,"station_id":"ce4bhb12rcd13ifvqem0","pricing_plan_id":"free"},{"bike_id":"af038385-ef17-4511-b1ed-eae25e80acec","system_id":"levelo_inurba_marseille","lat":43.302723,"lon":5.398603,"is_reserved":false,"is_disabled":false,"rental_uris":{"android":"levelo://app?vid=af038385-ef17-4511-b1ed-eae25e80acec","ios":"levelo://app?vid=af038385-ef17-4511-b1ed-eae25e80acec"},"vehicle_type_id":"4","last_reported":1706043994,"current_range_meters":23600,"station_id":"","pricing_plan_id":"free"},{"bike_id":"66fff7a6-b42c-43ed-a95e-2a6313453dfe","system_id":"levelo_inurba_marseille","lat":43.312609,"lon":5.401662,"is_reserved":false,"is_disabled":false,"rental_uris":{"android":"levelo://app?vid=66fff7a6-b42c-43ed-a95e-2a6313453dfe","ios":"levelo://app?vid=66fff7a6-b42c-43ed-a95e-2a6313453dfe"},"vehicle_type_id":"4","last_reported":1706043994,"current_range_meters":32000,"station_id":"ce4bh092rcd13ifvqd30","pricing_plan_id":"free"},{"bike_id":"22ebb342-e9b1-472d-9bc6-674213140877","system_id":"levelo_inurba_marseille","lat":43.31281,"lon":5.40166,"is_reserved":false,"is_disabled":false,"rental_uris":{"android":"levelo://app?vid=22ebb342-e9b1-472d-9bc6-674213140877","ios":"levelo://app?vid=22ebb342-e9b1-472d-9bc6-674213140877"},"vehicle_type_id":"4","last_reported":1706043994,"current_range_meters":0,"station_id":"ce4bh092rcd13ifvqd30","pricing_plan_id":"free"},{"bike_id":"c4bce579-e593-411a-a243-d0cda52af56f","system_id":"levelo_inurba_marseille","lat":43.309371,"lon":5.401449,"is_reserved":false,"is_disabled":false,"rental_uris":{"android":"levelo://app?vid=c4bce579-e593-411a-a243-d0cda52af56f","ios":"levelo://app?vid=c4bce579-e593-411a-a243-d0cda52af56f"},"vehicle_type_id":"4","last_reported":1706043994,"current_range_meters":28000,"station_id":"ce4bgvp2rcd13ifvqct0","pricing_plan_id":"free"},{"bike_id":"79adac48-d322-4fbf-aad5-87b1fad5f3da","system_id":"levelo_inurba_marseille","lat":43.309371,"lon":5.401449,"is_reserved":false,"is_disabled":false,"rental_uris":{"android":"levelo://app?vid=79adac48-d322-4fbf-aad5-87b1fad5f3da","ios":"levelo://app?vid=79adac48-d322-4fbf-aad5-87b1fad5f3da"},"vehicle_type_id":"4","last_reported":1706043994,"current_range_meters":16400,"station_id":"ce4bgvp2rcd13ifvqct0","pricing_plan_id":"free"},{"bike_id":"17081a1f-9f97-4e9d-a26c-47c34541bc95","system_id":"levelo_inurba_marseille","lat":43.306393,"lon":5.40069,"is_reserved":false,"is_disabled":false,"rental_uris":{"android":"levelo://app?vid=17081a1f-9f97-4e9d-a26c-47c34541bc95","ios":"levelo://app?vid=17081a1f-9f97-4e9d-a26c-47c34541bc95"},"vehicle_type_id":"4","last_reported":1706043994,"current_range_meters":12800,"station_id":"ce4bh112rcd13ifvqda0","pricing_plan_id":"free"},{"bike_id":"3e207e3e-8d7d-4594-9d90-f200b790bedc","system_id":"levelo_inurba_marseille","lat":43.306405,"lon":5.400741,"is_reserved":false,"is_disabled":false,"rental_uris":{"android":"levelo://app?vid=3e207e3e-8d7d-4594-9d90-f200b790bedc","ios":"levelo://app?vid=3e207e3e-8d7d-4594-9d90-f200b790bedc"},"vehicle_type_id":"4","last_reported":1706043994,"current_range_meters":6400,"station_id":"ce4bh112rcd13ifvqda0","pricing_plan_id":"free"},{"bike_id":"d13ed38d-1338-4715-b3a8-e7cc2cbae523","system_id":"levelo_inurba_marseille","lat":43.33757,"lon":5.37442,"is_reserved":false,"is_disabled":false,"rental_uris":{"android":"levelo://app?vid=d13ed38d-1338-4715-b3a8-e7cc2cbae523","ios":"levelo://app?vid=d13ed38d-1338-4715-b3a8-e7cc2cbae523"},"vehicle_type_id":"4","last_reported":1706043994,"current_range_meters":26800,"station_id":"","pricing_plan_id":"free"},{"bike_id":"19f51fbb-06a9-4724-97c1-b02c1b65ffde","system_id":"levelo_inurba_marseille","lat":43.337533,"lon":5.374667,"is_reserved":false,"is_disabled":false,"rental_uris":{"android":"levelo://app?vid=19f51fbb-06a9-4724-97c1-b02c1b65ffde","ios":"levelo://app?vid=19f51fbb-06a9-4724-97c1-b02c1b65ffde"},"vehicle_type_id":"4","last_reported":1706043994,"current_range_meters":21600,"station_id":"","pricing_plan_id":"free"},{"bike_id":"b4897c8c-c6f7-4a1a-b17b-462a0f9447d0","system_id":"levelo_inurba_marseille","lat":43.306412,"lon":5.401035,"is_reserved":false,"is_disabled":false,"rental_uris":{"android":"levelo://app?vid=b4897c8c-c6f7-4a1a-b17b-462a0f9447d0","ios":"levelo://app?vid=b4897c8c-c6f7-4a1a-b17b-462a0f9447d0"},"vehicle_type_id":"4","last_reported":1706043994,"current_range_meters":24400,"station_id":"ce4bh112rcd13ifvqda0","pricing_plan_id":"free"},{"bike_id":"57a9d892-99f9-4937-b71d-26f1023aec36","system_id":"levelo_inurba_marseille","lat":43.306412,"lon":5.401035,"is_reserved":false,"is_disabled":false,"rental_uris":{"android":"levelo://app?vid=57a9d892-99f9-4937-b71d-26f1023aec36","ios":"levelo://app?vid=57a9d892-99f9-4937-b71d-26f1023aec36"},"vehicle_type_id":"4","last_reported":1706043994,"current_range_meters":12000,"station_id":"ce4bh112rcd13ifvqda0","pricing_plan_id":"free"},{"bike_id":"a493c45e-deed-4f05-b9df-b6bb1af98b07","system_id":"levelo_inurba_marseille","lat":43.30627,"lon":5.40081,"is_reserved":false,"is_disabled":false,"rental_uris":{"android":"levelo://app?vid=a493c45e-deed-4f05-b9df-b6bb1af98b07","ios":"levelo://app?vid=a493c45e-deed-4f05-b9df-b6bb1af98b07"},"vehicle_type_id":"4","last_reported":1706043994,"current_range_meters":5200,"station_id":"ce4bh112rcd13ifvqda0","pricing_plan_id":"free"},{"bike_id":"9ecbc398-15ee-4567-a1e1-70d3fbeda470","system_id":"levelo_inurba_marseille","lat":43.306412,"lon":5.401035,"is_reserved":false,"is_disabled":false,"rental_uris":{"android":"levelo://app?vid=9ecbc398-15ee-4567-a1e1-70d3fbeda470","ios":"levelo://app?vid=9ecbc398-15ee-4567-a1e1-70d3fbeda470"},"vehicle_type_id":"4","last_reported":1706043994,"current_range_meters":19200,"station_id":"ce4bh112rcd13ifvqda0","pricing_plan_id":"free"},{"bike_id":"8b894521-1a30-4078-ab48-f86b65b9874e","system_id":"levelo_inurba_marseille","lat":43.33761,"lon":5.37472,"is_reserved":false,"is_disabled":false,"rental_uris":{"android":"levelo://app?vid=8b894521-1a30-4078-ab48-f86b65b9874e","ios":"levelo://app?vid=8b894521-1a30-4078-ab48-f86b65b9874e"},"vehicle_type_id":"4","last_reported":1706043994,"current_range_meters":24000,"station_id":"","pricing_plan_id":"free"},{"bike_id":"9e97375e-ad31-4261-8ad7-7b7fe5bf638f","system_id":"levelo_inurba_marseille","lat":43.30627,"lon":5.40091,"is_reserved":false,"is_disabled":false,"rental_uris":{"android":"levelo://app?vid=9e97375e-ad31-4261-8ad7-7b7fe5bf638f","ios":"levelo://app?vid=9e97375e-ad31-4261-8ad7-7b7fe5bf638f"},"vehicle_type_id":"4","last_reported":1706043994,"current_range_meters":10400,"station_id":"ce4bh112rcd13ifvqda0","pricing_plan_id":"free"},{"bike_id":"9e3eb807-cb13-443b-ae09-22ddbd6033f2","system_id":"levelo_inurba_marseille","lat":43.306412,"lon":5.401035,"is_reserved":false,"is_disabled":false,"rental_uris":{"android":"levelo://app?vid=9e3eb807-cb13-443b-ae09-22ddbd6033f2","ios":"levelo://app?vid=9e3eb807-cb13-443b-ae09-22ddbd6033f2"},"vehicle_type_id":"4","last_reported":1706043994,"current_range_meters":14800,"station_id":"ce4bh112rcd13ifvqda0","pricing_plan_id":"free"},{"bike_id":"f3f56574-0a42-4878-af96-716c32ca81b6","system_id":"levelo_inurba_marseille","lat":43.30637,"lon":5.40102,"is_reserved":false,"is_disabled":false,"rental_uris":{"android":"levelo://app?vid=f3f56574-0a42-4878-af96-716c32ca81b6","ios":"levelo://app?vid=f3f56574-0a42-4878-af96-716c32ca81b6"},"vehicle_type_id":"4","last_reported":1706043994,"current_range_meters":20400,"station_id":"ce4bh112rcd13ifvqda0","pricing_plan_id":"free"},{"bike_id":"9ccd64a4-071b-45a2-b409-77b7cd74ba22","system_id":"levelo_inurba_marseille","lat":43.30136,"lon":5.39861,"is_reserved":false,"is_disabled":false,"rental_uris":{"android":"levelo://app?vid=9ccd64a4-071b-45a2-b409-77b7cd74ba22","ios":"levelo://app?vid=9ccd64a4-071b-45a2-b409-77b7cd74ba22"},"vehicle_type_id":"4","last_reported":1706043994,"current_range_meters":4400,"station_id":"ce4bh0h2rcd13ifvqd40","pricing_plan_id":"free"},{"bike_id":"6bba64e4-7a41-49b3-88ef-e0daea3f3248","system_id":"levelo_inurba_marseille","lat":43.301117,"lon":5.398795,"is_reserved":false,"is_disabled":false,"rental_uris":{"android":"levelo://app?vid=6bba64e4-7a41-49b3-88ef-e0daea3f3248","ios":"levelo://app?vid=6bba64e4-7a41-49b3-88ef-e0daea3f3248"},"vehicle_type_id":"4","last_reported":1706043994,"current_range_meters":24000,"station_id":"ce4bh0h2rcd13ifvqd40","pricing_plan_id":"free"},{"bike_id":"c0826c06-002c-4390-9f82-cf174a3bed05","system_id":"levelo_inurba_marseille","lat":43.28727,"lon":5.36078,"is_reserved":false,"is_disabled":false,"rental_uris":{"android":"levelo://app?vid=c0826c06-002c-4390-9f82-cf174a3bed05","ios":"levelo://app?vid=c0826c06-002c-4390-9f82-cf174a3bed05"},"vehicle_type_id":"4","last_reported":1706043994,"current_range_meters":10800,"station_id":"cki0cbj6b192h4jlfktg","pricing_plan_id":"free"},{"bike_id":"98278856-d083-43fc-a3dc-b34347b41bda","system_id":"levelo_inurba_marseille","lat":43.28727,"lon":5.36078,"is_reserved":false,"is_disabled":false,"rental_uris":{"android":"levelo://app?vid=98278856-d083-43fc-a3dc-b34347b41bda","ios":"levelo://app?vid=98278856-d083-43fc-a3dc-b34347b41bda"},"vehicle_type_id":"4","last_reported":1706043994,"current_range_meters":7200,"station_id":"cki0cbj6b192h4jlfktg","pricing_plan_id":"free"},{"bike_id":"5d5e716e-af5c-476e-a250-c81d170c08b4","system_id":"levelo_inurba_marseille","lat":43.301117,"lon":5.398795,"is_reserved":false,"is_disabled":false,"rental_uris":{"android":"levelo://app?vid=5d5e716e-af5c-476e-a250-c81d170c08b4","ios":"levelo://app?vid=5d5e716e-af5c-476e-a250-c81d170c08b4"},"vehicle_type_id":"4","last_reported":1706043994,"current_range_meters":0,"station_id":"ce4bh0h2rcd13ifvqd40","pricing_plan_id":"free"},{"bike_id":"38344fa7-f60d-4904-88e1-73eaf3e53887","system_id":"levelo_inurba_marseille","lat":43.28727,"lon":5.36078,"is_reserved":false,"is_disabled":false,"rental_uris":{"android":"levelo://app?vid=38344fa7-f60d-4904-88e1-73eaf3e53887","ios":"levelo://app?vid=38344fa7-f60d-4904-88e1-73eaf3e53887"},"vehicle_type_id":"4","last_reported":1706043994,"current_range_meters":8800,"station_id":"cki0cbj6b192h4jlfktg","pricing_plan_id":"free"},{"bike_id":"0c8ea0d4-8699-45e8-9f5b-6d299875192f","system_id":"levelo_inurba_marseille","lat":43.28727,"lon":5.36078,"is_reserved":false,"is_disabled":false,"rental_uris":{"android":"levelo://app?vid=0c8ea0d4-8699-45e8-9f5b-6d299875192f","ios":"levelo://app?vid=0c8ea0d4-8699-45e8-9f5b-6d299875192f"},"vehicle_type_id":"4","last_reported":1706043994,"current_range_meters":12400,"station_id":"cki0cbj6b192h4jlfktg","pricing_plan_id":"free"},{"bike_id":"94c51eae-a55d-41cc-a11f-0610a5c25685","system_id":"levelo_inurba_marseille","lat":43.28723,"lon":5.36079,"is_reserved":false,"is_disabled":false,"rental_uris":{"android":"levelo://app?vid=94c51eae-a55d-41cc-a11f-0610a5c25685","ios":"levelo://app?vid=94c51eae-a55d-41cc-a11f-0610a5c25685"},"vehicle_type_id":"4","last_reported":1706043994,"current_range_meters":0,"station_id":"cki0cbj6b192h4jlfktg","pricing_plan_id":"free"},{"bike_id":"badd1cb2-1cf5-4513-b016-6b69513340c1","system_id":"levelo_inurba_marseille","lat":43.298681,"lon":5.397225,"is_reserved":false,"is_disabled":false,"rental_uris":{"android":"levelo://app?vid=badd1cb2-1cf5-4513-b016-6b69513340c1","ios":"levelo://app?vid=badd1cb2-1cf5-4513-b016-6b69513340c1"},"vehicle_type_id":"4","last_reported":1706043994,"current_range_meters":24800,"station_id":"ce4bh0h2rcd13ifvqd50","pricing_plan_id":"free"},{"bike_id":"da8872cf-7463-43d3-bbc6-fe7c861651ca","system_id":"levelo_inurba_marseille","lat":43.298681,"lon":5.397225,"is_reserved":false,"is_disabled":false,"rental_uris":{"android":"levelo://app?vid=da8872cf-7463-43d3-bbc6-fe7c861651ca","ios":"levelo://app?vid=da8872cf-7463-43d3-bbc6-fe7c861651ca"},"vehicle_type_id":"4","last_reported":1706043994,"current_range_meters":14400,"station_id":"ce4bh0h2rcd13ifvqd50","pricing_plan_id":"free"},{"bike_id":"a424a8ee-e1fc-4ee2-ad59-f2a9f768c872","system_id":"levelo_inurba_marseille","lat":43.286591,"lon":5.363346,"is_reserved":false,"is_disabled":false,"rental_uris":{"android":"levelo://app?vid=a424a8ee-e1fc-4ee2-ad59-f2a9f768c872","ios":"levelo://app?vid=a424a8ee-e1fc-4ee2-ad59-f2a9f768c872"},"vehicle_type_id":"4","last_reported":1706043994,"current_range_meters":8400,"station_id":"ce4bhah2rcd13ifvqej0","pricing_plan_id":"free"},{"bike_id":"19ffc743-5767-458d-a1ec-a7c46f57abc1","system_id":"levelo_inurba_marseille","lat":43.286591,"lon":5.363346,"is_reserved":false,"is_disabled":false,"rental_uris":{"android":"levelo://app?vid=19ffc743-5767-458d-a1ec-a7c46f57abc1","ios":"levelo://app?vid=19ffc743-5767-458d-a1ec-a7c46f57abc1"},"vehicle_type_id":"4","last_reported":1706043994,"current_range_meters":16400,"station_id":"ce4bhah2rcd13ifvqej0","pricing_plan_id":"free"},{"bike_id":"1dcc87b0-b1a6-4ffe-845f-937b8f493392","system_id":"levelo_inurba_marseille","lat":43.286591,"lon":5.363346,"is_reserved":false,"is_disabled":false,"rental_uris":{"android":"levelo://app?vid=1dcc87b0-b1a6-4ffe-845f-937b8f493392","ios":"levelo://app?vid=1dcc87b0-b1a6-4ffe-845f-937b8f493392"},"vehicle_type_id":"4","last_reported":1706043994,"current_range_meters":16000,"station_id":"ce4bhah2rcd13ifvqej0","pricing_plan_id":"free"},{"bike_id":"cb00a1a8-2274-48fe-ab1c-d71d9e89889e","system_id":"levelo_inurba_marseille","lat":43.286591,"lon":5.363346,"is_reserved":false,"is_disabled":false,"rental_uris":{"android":"levelo://app?vid=cb00a1a8-2274-48fe-ab1c-d71d9e89889e","ios":"levelo://app?vid=cb00a1a8-2274-48fe-ab1c-d71d9e89889e"},"vehicle_type_id":"4","last_reported":1706043994,"current_range_meters":1600,"station_id":"ce4bhah2rcd13ifvqej0","pricing_plan_id":"free"},{"bike_id":"1ca4ae02-789e-4877-8988-8b4228c58335","system_id":"levelo_inurba_marseille","lat":43.286593,"lon":5.363346,"is_reserved":false,"is_disabled":false,"rental_uris":{"android":"levelo://app?vid=1ca4ae02-789e-4877-8988-8b4228c58335","ios":"levelo://app?vid=1ca4ae02-789e-4877-8988-8b4228c58335"},"vehicle_type_id":"4","last_reported":1706043994,"current_range_meters":18400,"station_id":"ce4bhah2rcd13ifvqej0","pricing_plan_id":"free"},{"bike_id":"9102473f-9c79-41f0-b318-80d31a6a4425","system_id":"levelo_inurba_marseille","lat":43.286593,"lon":5.363346,"is_reserved":false,"is_disabled":false,"rental_uris":{"android":"levelo://app?vid=9102473f-9c79-41f0-b318-80d31a6a4425","ios":"levelo://app?vid=9102473f-9c79-41f0-b318-80d31a6a4425"},"vehicle_type_id":"4","last_reported":1706043994,"current_range_meters":15200,"station_id":"ce4bhah2rcd13ifvqej0","pricing_plan_id":"free"},{"bike_id":"4ff0019a-17d2-4c5d-b9e0-701b63e93346","system_id":"levelo_inurba_marseille","lat":43.286591,"lon":5.363346,"is_reserved":false,"is_disabled":false,"rental_uris":{"android":"levelo://app?vid=4ff0019a-17d2-4c5d-b9e0-701b63e93346","ios":"levelo://app?vid=4ff0019a-17d2-4c5d-b9e0-701b63e93346"},"vehicle_type_id":"4","last_reported":1706043994,"current_range_meters":4400,"station_id":"ce4bhah2rcd13ifvqej0","pricing_plan_id":"free"},{"bike_id":"2fe45e97-34bb-4974-b109-a39267d6385c","system_id":"levelo_inurba_marseille","lat":43.295194,"lon":5.39397,"is_reserved":false,"is_disabled":false,"rental_uris":{"android":"levelo://app?vid=2fe45e97-34bb-4974-b109-a39267d6385c","ios":"levelo://app?vid=2fe45e97-34bb-4974-b109-a39267d6385c"},"vehicle_type_id":"4","last_reported":1706043994,"current_range_meters":9200,"station_id":"ce4bh292rcd13ifvqdf0","pricing_plan_id":"free"},{"bike_id":"f3dcd3e1-b91a-4be7-a6ea-b0f2a4ae0175","system_id":"levelo_inurba_marseille","lat":43.29862,"lon":5.397459,"is_reserved":false,"is_disabled":false,"rental_uris":{"android":"levelo://app?vid=f3dcd3e1-b91a-4be7-a6ea-b0f2a4ae0175","ios":"levelo://app?vid=f3dcd3e1-b91a-4be7-a6ea-b0f2a4ae0175"},"vehicle_type_id":"4","last_reported":1706043994,"current_range_meters":400,"station_id":"ce4bh0h2rcd13ifvqd50","pricing_plan_id":"free"},{"bike_id":"e3a4de88-4760-4074-81b8-305782c0d2b7","system_id":"levelo_inurba_marseille","lat":43.286908,"lon":5.373914,"is_reserved":false,"is_disabled":false,"rental_uris":{"android":"levelo://app?vid=e3a4de88-4760-4074-81b8-305782c0d2b7","ios":"levelo://app?vid=e3a4de88-4760-4074-81b8-305782c0d2b7"},"vehicle_type_id":"4","last_reported":1706043994,"current_range_meters":1200,"station_id":"ce4bh3p2rcd13ifvqdq0","pricing_plan_id":"free"},{"bike_id":"69c32e18-571c-4b95-b5de-2f94894e4be9","system_id":"levelo_inurba_marseille","lat":43.298681,"lon":5.397225,"is_reserved":false,"is_disabled":false,"rental_uris":{"android":"levelo://app?vid=69c32e18-571c-4b95-b5de-2f94894e4be9","ios":"levelo://app?vid=69c32e18-571c-4b95-b5de-2f94894e4be9"},"vehicle_type_id":"4","last_reported":1706043994,"current_range_meters":28000,"station_id":"ce4bh0h2rcd13ifvqd50","pricing_plan_id":"free"},{"bike_id":"51573c6e-d598-4584-be99-6187578a54ed","system_id":"levelo_inurba_marseille","lat":43.286591,"lon":5.363346,"is_reserved":false,"is_disabled":false,"rental_uris":{"android":"levelo://app?vid=51573c6e-d598-4584-be99-6187578a54ed","ios":"levelo://app?vid=51573c6e-d598-4584-be99-6187578a54ed"},"vehicle_type_id":"4","last_reported":1706043994,"current_range_meters":9600,"station_id":"ce4bhah2rcd13ifvqej0","pricing_plan_id":"free"},{"bike_id":"1f2208ee-244c-451c-b58d-5dbb0b3a1dc4","system_id":"levelo_inurba_marseille","lat":43.295194,"lon":5.39397,"is_reserved":false,"is_disabled":false,"rental_uris":{"android":"levelo://app?vid=1f2208ee-244c-451c-b58d-5dbb0b3a1dc4","ios":"levelo://app?vid=1f2208ee-244c-451c-b58d-5dbb0b3a1dc4"},"vehicle_type_id":"4","last_reported":1706043994,"current_range_meters":13200,"station_id":"ce4bh292rcd13ifvqdf0","pricing_plan_id":"free"},{"bike_id":"2238f2a8-372a-4eb9-af3d-904a8d87f07b","system_id":"levelo_inurba_marseille","lat":43.29516,"lon":5.39407,"is_reserved":false,"is_disabled":false,"rental_uris":{"android":"levelo://app?vid=2238f2a8-372a-4eb9-af3d-904a8d87f07b","ios":"levelo://app?vid=2238f2a8-372a-4eb9-af3d-904a8d87f07b"},"vehicle_type_id":"4","last_reported":1706043994,"current_range_meters":0,"station_id":"","pricing_plan_id":"free"},{"bike_id":"df29c85a-00ed-4c35-92e3-88c6805faed3","system_id":"levelo_inurba_marseille","lat":43.295194,"lon":5.39397,"is_reserved":false,"is_disabled":false,"rental_uris":{"android":"levelo://app?vid=df29c85a-00ed-4c35-92e3-88c6805faed3","ios":"levelo://app?vid=df29c85a-00ed-4c35-92e3-88c6805faed3"},"vehicle_type_id":"4","last_reported":1706043994,"current_range_meters":2800,"station_id":"ce4bh292rcd13ifvqdf0","pricing_plan_id":"free"},{"bike_id":"b93ce9e0-eda6-4090-86a3-5a6f8ce90e14","system_id":"levelo_inurba_marseille","lat":43.28931,"lon":5.38396,"is_reserved":false,"is_disabled":false,"rental_uris":{"android":"levelo://app?vid=b93ce9e0-eda6-4090-86a3-5a6f8ce90e14","ios":"levelo://app?vid=b93ce9e0-eda6-4090-86a3-5a6f8ce90e14"},"vehicle_type_id":"4","last_reported":1706043994,"current_range_meters":13200,"station_id":"","pricing_plan_id":"free"},{"bike_id":"5c972b78-a7b8-48da-80af-900bc3575b1d","system_id":"levelo_inurba_marseille","lat":43.290357,"lon":5.38648,"is_reserved":false,"is_disabled":false,"rental_uris":{"android":"levelo://app?vid=5c972b78-a7b8-48da-80af-900bc3575b1d","ios":"levelo://app?vid=5c972b78-a7b8-48da-80af-900bc3575b1d"},"vehicle_type_id":"4","last_reported":1706043994,"current_range_meters":26000,"station_id":"ce4bh4p2rcd13ifvqe0g","pricing_plan_id":"free"},{"bike_id":"9926118d-a1c6-459d-bf57-a6d4eaaa41f5","system_id":"levelo_inurba_marseille","lat":43.290336,"lon":5.386425,"is_reserved":false,"is_disabled":false,"rental_uris":{"android":"levelo://app?vid=9926118d-a1c6-459d-bf57-a6d4eaaa41f5","ios":"levelo://app?vid=9926118d-a1c6-459d-bf57-a6d4eaaa41f5"},"vehicle_type_id":"4","last_reported":1706043994,"current_range_meters":9200,"station_id":"ce4bh4p2rcd13ifvqe0g","pricing_plan_id":"free"},{"bike_id":"62334620-a44a-4231-ac9d-7f741adce2c0","system_id":"levelo_inurba_marseille","lat":43.290345,"lon":5.38646,"is_reserved":false,"is_disabled":false,"rental_uris":{"android":"levelo://app?vid=62334620-a44a-4231-ac9d-7f741adce2c0","ios":"levelo://app?vid=62334620-a44a-4231-ac9d-7f741adce2c0"},"vehicle_type_id":"4","last_reported":1706043994,"current_range_meters":14400,"station_id":"ce4bh4p2rcd13ifvqe0g","pricing_plan_id":"free"},{"bike_id":"4c0f7d2d-333e-4439-84ff-2817868b828e","system_id":"levelo_inurba_marseille","lat":43.290345,"lon":5.38646,"is_reserved":false,"is_disabled":false,"rental_uris":{"android":"levelo://app?vid=4c0f7d2d-333e-4439-84ff-2817868b828e","ios":"levelo://app?vid=4c0f7d2d-333e-4439-84ff-2817868b828e"},"vehicle_type_id":"4","last_reported":1706043994,"current_range_meters":24000,"station_id":"ce4bh4p2rcd13ifvqe0g","pricing_plan_id":"free"},{"bike_id":"a660ca89-c1ec-4f6e-9d23-282f6cdb470c","system_id":"levelo_inurba_marseille","lat":43.302759,"lon":5.400793,"is_reserved":false,"is_disabled":false,"rental_uris":{"android":"levelo://app?vid=a660ca89-c1ec-4f6e-9d23-282f6cdb470c","ios":"levelo://app?vid=a660ca89-c1ec-4f6e-9d23-282f6cdb470c"},"vehicle_type_id":"4","last_reported":1706043994,"current_range_meters":28000,"station_id":"ce4bgvh2rcd13ifvqcs0","pricing_plan_id":"free"},{"bike_id":"51cb0144-e378-4030-a91a-90d41fc54f20","system_id":"levelo_inurba_marseille","lat":43.290336,"lon":5.386425,"is_reserved":false,"is_disabled":false,"rental_uris":{"android":"levelo://app?vid=51cb0144-e378-4030-a91a-90d41fc54f20","ios":"levelo://app?vid=51cb0144-e378-4030-a91a-90d41fc54f20"},"vehicle_type_id":"4","last_reported":1706043994,"current_range_meters":8000,"station_id":"ce4bh4p2rcd13ifvqe0g","pricing_plan_id":"free"},{"bike_id":"566df9e2-9bc9-4771-a943-91af09abb504","system_id":"levelo_inurba_marseille","lat":43.290336,"lon":5.386425,"is_reserved":false,"is_disabled":false,"rental_uris":{"android":"levelo://app?vid=566df9e2-9bc9-4771-a943-91af09abb504","ios":"levelo://app?vid=566df9e2-9bc9-4771-a943-91af09abb504"},"vehicle_type_id":"4","last_reported":1706043994,"current_range_meters":18400,"station_id":"ce4bh4p2rcd13ifvqe0g","pricing_plan_id":"free"},{"bike_id":"d3a1d66e-6ed9-44fd-a2c3-749a05b01450","system_id":"levelo_inurba_marseille","lat":43.302759,"lon":5.400793,"is_reserved":false,"is_disabled":false,"rental_uris":{"android":"levelo://app?vid=d3a1d66e-6ed9-44fd-a2c3-749a05b01450","ios":"levelo://app?vid=d3a1d66e-6ed9-44fd-a2c3-749a05b01450"},"vehicle_type_id":"4","last_reported":1706043994,"current_range_meters":7200,"station_id":"ce4bgvh2rcd13ifvqcs0","pricing_plan_id":"free"},{"bike_id":"6b408f0e-4475-4e0b-a46a-29e054adbf4f","system_id":"levelo_inurba_marseille","lat":43.290278,"lon":5.386502,"is_reserved":false,"is_disabled":false,"rental_uris":{"android":"levelo://app?vid=6b408f0e-4475-4e0b-a46a-29e054adbf4f","ios":"levelo://app?vid=6b408f0e-4475-4e0b-a46a-29e054adbf4f"},"vehicle_type_id":"4","last_reported":1706043994,"current_range_meters":0,"station_id":"ce4bh4p2rcd13ifvqe0g","pricing_plan_id":"free"},{"bike_id":"ae2d70b6-9577-4ab4-8ae7-c4662597be15","system_id":"levelo_inurba_marseille","lat":43.289307,"lon":5.38406,"is_reserved":false,"is_disabled":false,"rental_uris":{"android":"levelo://app?vid=ae2d70b6-9577-4ab4-8ae7-c4662597be15","ios":"levelo://app?vid=ae2d70b6-9577-4ab4-8ae7-c4662597be15"},"vehicle_type_id":"4","last_reported":1706043994,"current_range_meters":12400,"station_id":"ce4bh612rcd13ifvqe6g","pricing_plan_id":"free"},{"bike_id":"809a456d-9a28-4ae5-97ac-d809a2e70ddd","system_id":"levelo_inurba_marseille","lat":43.302759,"lon":5.400793,"is_reserved":false,"is_disabled":false,"rental_uris":{"android":"levelo://app?vid=809a456d-9a28-4ae5-97ac-d809a2e70ddd","ios":"levelo://app?vid=809a456d-9a28-4ae5-97ac-d809a2e70ddd"},"vehicle_type_id":"4","last_reported":1706043994,"current_range_meters":8400,"station_id":"ce4bgvh2rcd13ifvqcs0","pricing_plan_id":"free"},{"bike_id":"50dfd88b-95af-4317-9289-07012520456f","system_id":"levelo_inurba_marseille","lat":43.302759,"lon":5.400793,"is_reserved":false,"is_disabled":false,"rental_uris":{"android":"levelo://app?vid=50dfd88b-95af-4317-9289-07012520456f","ios":"levelo://app?vid=50dfd88b-95af-4317-9289-07012520456f"},"vehicle_type_id":"4","last_reported":1706043994,"current_range_meters":22800,"station_id":"ce4bgvh2rcd13ifvqcs0","pricing_plan_id":"free"},{"bike_id":"86b10ca4-19c1-45ba-b593-f885bb134090","system_id":"levelo_inurba_marseille","lat":43.28912,"lon":5.38387,"is_reserved":false,"is_disabled":false,"rental_uris":{"android":"levelo://app?vid=86b10ca4-19c1-45ba-b593-f885bb134090","ios":"levelo://app?vid=86b10ca4-19c1-45ba-b593-f885bb134090"},"vehicle_type_id":"4","last_reported":1706043994,"current_range_meters":22400,"station_id":"ce4bh612rcd13ifvqe6g","pricing_plan_id":"free"},{"bike_id":"2735d0dd-0b26-4be5-835c-9b210bc7cd65","system_id":"levelo_inurba_marseille","lat":43.302759,"lon":5.400793,"is_reserved":false,"is_disabled":false,"rental_uris":{"android":"levelo://app?vid=2735d0dd-0b26-4be5-835c-9b210bc7cd65","ios":"levelo://app?vid=2735d0dd-0b26-4be5-835c-9b210bc7cd65"},"vehicle_type_id":"4","last_reported":1706043994,"current_range_meters":800,"station_id":"ce4bgvh2rcd13ifvqcs0","pricing_plan_id":"free"},{"bike_id":"d104f3b4-c3f7-46b5-8b4c-df93c3365b43","system_id":"levelo_inurba_marseille","lat":43.286039,"lon":5.370679,"is_reserved":false,"is_disabled":false,"rental_uris":{"android":"levelo://app?vid=d104f3b4-c3f7-46b5-8b4c-df93c3365b43","ios":"levelo://app?vid=d104f3b4-c3f7-46b5-8b4c-df93c3365b43"},"vehicle_type_id":"4","last_reported":1706043994,"current_range_meters":18800,"station_id":"ce4bht12rcd13ifvqi60","pricing_plan_id":"free"},{"bike_id":"4b8292d5-1ef8-48e8-a9fe-938c15e38956","system_id":"levelo_inurba_marseille","lat":43.286039,"lon":5.370679,"is_reserved":false,"is_disabled":false,"rental_uris":{"android":"levelo://app?vid=4b8292d5-1ef8-48e8-a9fe-938c15e38956","ios":"levelo://app?vid=4b8292d5-1ef8-48e8-a9fe-938c15e38956"},"vehicle_type_id":"4","last_reported":1706043994,"current_range_meters":26400,"station_id":"ce4bht12rcd13ifvqi60","pricing_plan_id":"free"},{"bike_id":"3655f821-97f2-43b0-8583-eb8a32af0530","system_id":"levelo_inurba_marseille","lat":43.286039,"lon":5.370679,"is_reserved":false,"is_disabled":false,"rental_uris":{"android":"levelo://app?vid=3655f821-97f2-43b0-8583-eb8a32af0530","ios":"levelo://app?vid=3655f821-97f2-43b0-8583-eb8a32af0530"},"vehicle_type_id":"4","last_reported":1706043994,"current_range_meters":13200,"station_id":"ce4bht12rcd13ifvqi60","pricing_plan_id":"free"},{"bike_id":"ddcf175c-9fe6-4ad7-a1e3-acbbc7e7cdba","system_id":"levelo_inurba_marseille","lat":43.290869,"lon":5.390179,"is_reserved":false,"is_disabled":false,"rental_uris":{"android":"levelo://app?vid=ddcf175c-9fe6-4ad7-a1e3-acbbc7e7cdba","ios":"levelo://app?vid=ddcf175c-9fe6-4ad7-a1e3-acbbc7e7cdba"},"vehicle_type_id":"4","last_reported":1706043994,"current_range_meters":5600,"station_id":"","pricing_plan_id":"free"},{"bike_id":"70948f58-0c20-4cf4-9409-38f435a8fe8c","system_id":"levelo_inurba_marseille","lat":43.291994,"lon":5.392907,"is_reserved":false,"is_disabled":false,"rental_uris":{"android":"levelo://app?vid=70948f58-0c20-4cf4-9409-38f435a8fe8c","ios":"levelo://app?vid=70948f58-0c20-4cf4-9409-38f435a8fe8c"},"vehicle_type_id":"4","last_reported":1706043994,"current_range_meters":1600,"station_id":"ce4bh192rcd13ifvqdd0","pricing_plan_id":"free"},{"bike_id":"1372a274-f72b-41d3-a0b9-b741a687307d","system_id":"levelo_inurba_marseille","lat":43.291994,"lon":5.392907,"is_reserved":false,"is_disabled":false,"rental_uris":{"android":"levelo://app?vid=1372a274-f72b-41d3-a0b9-b741a687307d","ios":"levelo://app?vid=1372a274-f72b-41d3-a0b9-b741a687307d"},"vehicle_type_id":"4","last_reported":1706043994,"current_range_meters":18800,"station_id":"ce4bh192rcd13ifvqdd0","pricing_plan_id":"free"},{"bike_id":"54f04d6f-e6c1-40d5-9541-b768bde97b7f","system_id":"levelo_inurba_marseille","lat":43.291977,"lon":5.393173,"is_reserved":false,"is_disabled":false,"rental_uris":{"android":"levelo://app?vid=54f04d6f-e6c1-40d5-9541-b768bde97b7f","ios":"levelo://app?vid=54f04d6f-e6c1-40d5-9541-b768bde97b7f"},"vehicle_type_id":"4","last_reported":1706043994,"current_range_meters":2000,"station_id":"ce4bh192rcd13ifvqdd0","pricing_plan_id":"free"},{"bike_id":"6e93c2b9-4080-4cff-a85d-1f143d588969","system_id":"levelo_inurba_marseille","lat":43.291994,"lon":5.392907,"is_reserved":false,"is_disabled":false,"rental_uris":{"android":"levelo://app?vid=6e93c2b9-4080-4cff-a85d-1f143d588969","ios":"levelo://app?vid=6e93c2b9-4080-4cff-a85d-1f143d588969"},"vehicle_type_id":"4","last_reported":1706043994,"current_range_meters":17600,"station_id":"ce4bh192rcd13ifvqdd0","pricing_plan_id":"free"},{"bike_id":"e8aa7159-7d2c-4aaf-ae16-0bf26adf378a","system_id":"levelo_inurba_marseille","lat":43.291994,"lon":5.392907,"is_reserved":false,"is_disabled":false,"rental_uris":{"android":"levelo://app?vid=e8aa7159-7d2c-4aaf-ae16-0bf26adf378a","ios":"levelo://app?vid=e8aa7159-7d2c-4aaf-ae16-0bf26adf378a"},"vehicle_type_id":"4","last_reported":1706043994,"current_range_meters":11600,"station_id":"ce4bh192rcd13ifvqdd0","pricing_plan_id":"free"},{"bike_id":"4fadbbf3-c236-446d-8ec5-caa13e5d537d","system_id":"levelo_inurba_marseille","lat":43.291968,"lon":5.393194,"is_reserved":false,"is_disabled":false,"rental_uris":{"android":"levelo://app?vid=4fadbbf3-c236-446d-8ec5-caa13e5d537d","ios":"levelo://app?vid=4fadbbf3-c236-446d-8ec5-caa13e5d537d"},"vehicle_type_id":"4","last_reported":1706043994,"current_range_meters":8400,"station_id":"","pricing_plan_id":"free"},{"bike_id":"fa89d402-f3ea-4b64-8fe4-7b9edadbc1c2","system_id":"levelo_inurba_marseille","lat":43.291994,"lon":5.392907,"is_reserved":false,"is_disabled":false,"rental_uris":{"android":"levelo://app?vid=fa89d402-f3ea-4b64-8fe4-7b9edadbc1c2","ios":"levelo://app?vid=fa89d402-f3ea-4b64-8fe4-7b9edadbc1c2"},