{"last_updated":1729764609,"ttl":60,"version":"2.2","data":{"bikes":[{"bike_id":"6bb28513-7ba6-4d73-94c5-cbf1dfef8b42","system_id":"levelo_inurba_marseille","lat":43.32479,"lon":5.36564,"is_reserved":false,"is_disabled":false,"rental_uris":{"android":"levelo://app?vid=6bb28513-7ba6-4d73-94c5-cbf1dfef8b42","ios":"levelo://app?vid=6bb28513-7ba6-4d73-94c5-cbf1dfef8b42"},"vehicle_type_id":"4","last_reported":1729764609,"current_range_meters":25200,"station_id":"ce4bhs12rcd13ifvqhvg","pricing_plan_id":"cebpf4jnsgd1na2vs0mg"},{"bike_id":"0e3c03e4-b338-410b-98d6-cd003c78a0dc","system_id":"levelo_inurba_marseille","lat":43.28462,"lon":5.35895,"is_reserved":false,"is_disabled":false,"rental_uris":{"android":"levelo://app?vid=0e3c03e4-b338-410b-98d6-cd003c78a0dc","ios":"levelo://app?vid=0e3c03e4-b338-410b-98d6-cd003c78a0dc"},"vehicle_type_id":"4","last_reported":1729764609,"current_range_meters":12800,"station_id":"ce4bhah2rcd13ifvqei0","pricing_plan_id":"cebpf4jnsgd1na2vs0mg"},{"bike_id":"1b3b229b-dfff-428f-a70e-345d2f904bc3","system_id":"levelo_inurba_marseille","lat":43.25821,"lon":5.39431,"is_reserved":false,"is_disabled":false,"rental_uris":{"android":"levelo://app?vid=1b3b229b-dfff-428f-a70e-345d2f904bc3","ios":"levelo://app?vid=1b3b229b-dfff-428f-a70e-345d2f904bc3"},"vehicle_type_id":"4","last_reported":1729764609,"current_range_meters":31200,"station_id":"ce4bhip2rcd13ifvqft0","pricing_plan_id":"cebpf4jnsgd1na2vs0mg"},{"bike_id":"4e718520-217c-4986-8e4a-4dbcae9b7210","system_id":"levelo_inurba_marseille","lat":43.27987,"lon":5.41655,"is_reserved":false,"is_disabled":false,"rental_uris":{"android":"levelo://app?vid=4e718520-217c-4986-8e4a-4dbcae9b7210","ios":"levelo://app?vid=4e718520-217c-4986-8e4a-4dbcae9b7210"},"vehicle_type_id":"4","last_reported":1729764609,"current_range_meters":9200,"station_id":"ce4bho12rcd13ifvqh1g","pricing_plan_id":"cebpf4jnsgd1na2vs0mg"},{"bike_id":"289bc81a-c96c-4d64-9c61-f4480dd9f717","system_id":"levelo_inurba_marseille","lat":43.29908,"lon":5.38136,"is_reserved":false,"is_disabled":false,"rental_uris":{"android":"levelo://app?vid=289bc81a-c96c-4d64-9c61-f4480dd9f717","ios":"levelo://app?vid=289bc81a-c96c-4d64-9c61-f4480dd9f717"},"vehicle_type_id":"4","last_reported":1729764609,"current_range_meters":8400,"station_id":"ce4bgj12rcd13ifvqbc0","pricing_plan_id":"cebpf4jnsgd1na2vs0mg"},{"bike_id":"4a772866-e894-47a6-8f2e-b3ce8e34f9ca","system_id":"levelo_inurba_marseille","lat":43.32034,"lon":5.41553,"is_reserved":false,"is_disabled":false,"rental_uris":{"android":"levelo://app?vid=4a772866-e894-47a6-8f2e-b3ce8e34f9ca","ios":"levelo://app?vid=4a772866-e894-47a6-8f2e-b3ce8e34f9ca"},"vehicle_type_id":"4","last_reported":1729764609,"current_range_meters":16800,"station_id":"ce4bhq92rcd13ifvqhkg","pricing_plan_id":"cebpf4jnsgd1na2vs0mg"},{"bike_id":"449bf265-b5c6-4133-bfcc-04eb47e57c72","system_id":"levelo_inurba_marseille","lat":43.26686,"lon":5.38279,"is_reserved":false,"is_disabled":false,"rental_uris":{"android":"levelo://app?vid=449bf265-b5c6-4133-bfcc-04eb47e57c72","ios":"levelo://app?vid=449bf265-b5c6-4133-bfcc-04eb47e57c72"},"vehicle_type_id":"4","last_reported":1729764609,"current_range_meters":36000,"station_id":"ce4bhg92rcd13ifvqf90","pricing_plan_id":"cebpf4jnsgd1na2vs0mg"},{"bike_id":"cf00bfcd-9f87-4011-81c6-4541ee31d8cd","system_id":"levelo_inurba_marseille","lat":43.3135,"lon":5.36706,"is_reserved":false,"is_disabled":false,"rental_uris":{"android":"levelo://app?vid=cf00bfcd-9f87-4011-81c6-4541ee31d8cd","ios":"levelo://app?vid=cf00bfcd-9f87-4011-81c6-4541ee31d8cd"},"vehicle_type_id":"4","last_reported":1729764609,"current_range_meters":39200,"station_id":"ce4bgr92rcd13ifvqc6g","pricing_plan_id":"cebpf4jnsgd1na2vs0mg"},{"bike_id":"21c7101c-ca4b-4c55-b4b1-4130a4e6a9f4","system_id":"levelo_inurba_marseille","lat":43.30538,"lon":5.36712,"is_reserved":false,"is_disabled":false,"rental_uris":{"android":"levelo://app?vid=21c7101c-ca4b-4c55-b4b1-4130a4e6a9f4","ios":"levelo://app?vid=21c7101c-ca4b-4c55-b4b1-4130a4e6a9f4"},"vehicle_type_id":"4","last_reported":1729764609,"current_range_meters":38800,"station_id":"ce4bgrp2rcd13ifvqc9g","pricing_plan_id":"cebpf4jnsgd1na2vs0mg"},{"bike_id":"d9811f9d-bd40-4e92-99fb-4670ec3d386e","system_id":"levelo_inurba_marseille","lat":43.26192,"lon":5.37451,"is_reserved":false,"is_disabled":false,"rental_uris":{"android":"levelo://app?vid=d9811f9d-bd40-4e92-99fb-4670ec3d386e","ios":"levelo://app?vid=d9811f9d-bd40-4e92-99fb-4670ec3d386e"},"vehicle_type_id":"4","last_reported":1729764609,"current_range_meters":22800,"station_id":"ce4bhgp2rcd13ifvqfc0","pricing_plan_id":"cebpf4jnsgd1na2vs0mg"},{"bike_id":"7eac4f3c-fbd0-4ef9-94ab-55e4a8c693e6","system_id":"levelo_inurba_marseille","lat":43.296112,"lon":5.381595,"is_reserved":false,"is_disabled":false,"rental_uris":{"android":"levelo://app?vid=7eac4f3c-fbd0-4ef9-94ab-55e4a8c693e6","ios":"levelo://app?vid=7eac4f3c-fbd0-4ef9-94ab-55e4a8c693e6"},"vehicle_type_id":"4","last_reported":1729764609,"current_range_meters":29600,"station_id":"ce4bgl12rcd13ifvqbo0","pricing_plan_id":"cebpf4jnsgd1na2vs0mg"},{"bike_id":"0a1b479d-52cc-43be-b555-b0ec65cfda36","system_id":"levelo_inurba_marseille","lat":43.24069,"lon":5.3776,"is_reserved":false,"is_disabled":false,"rental_uris":{"android":"levelo://app?vid=0a1b479d-52cc-43be-b555-b0ec65cfda36","ios":"levelo://app?vid=0a1b479d-52cc-43be-b555-b0ec65cfda36"},"vehicle_type_id":"4","last_reported":1729764609,"current_range_meters":37600,"station_id":"ce4bhnp2rcd13ifvqgvg","pricing_plan_id":"cebpf4jnsgd1na2vs0mg"},{"bike_id":"04cacd45-3145-4dfe-94dd-4f708911ef95","system_id":"levelo_inurba_marseille","lat":43.31272,"lon":5.40168,"is_reserved":false,"is_disabled":false,"rental_uris":{"android":"levelo://app?vid=04cacd45-3145-4dfe-94dd-4f708911ef95","ios":"levelo://app?vid=04cacd45-3145-4dfe-94dd-4f708911ef95"},"vehicle_type_id":"4","last_reported":1729764609,"current_range_meters":38800,"station_id":"ce4bh092rcd13ifvqd30","pricing_plan_id":"cebpf4jnsgd1na2vs0mg"},{"bike_id":"93b004d5-e088-4995-a4b0-f34bd0d548c5","system_id":"levelo_inurba_marseille","lat":43.33724,"lon":5.39182,"is_reserved":false,"is_disabled":false,"rental_uris":{"android":"levelo://app?vid=93b004d5-e088-4995-a4b0-f34bd0d548c5","ios":"levelo://app?vid=93b004d5-e088-4995-a4b0-f34bd0d548c5"},"vehicle_type_id":"4","last_reported":1729764609,"current_range_meters":27600,"station_id":"ce4bhr92rcd13ifvqhsg","pricing_plan_id":"cebpf4jnsgd1na2vs0mg"},{"bike_id":"29022cab-0aa3-4fff-9ddc-958bddb55705","system_id":"levelo_inurba_marseille","lat":43.30603,"lon":5.37223,"is_reserved":false,"is_disabled":false,"rental_uris":{"android":"levelo://app?vid=29022cab-0aa3-4fff-9ddc-958bddb55705","ios":"levelo://app?vid=29022cab-0aa3-4fff-9ddc-958bddb55705"},"vehicle_type_id":"4","last_reported":1729764609,"current_range_meters":33600,"station_id":"ce4bgqh2rcd13ifvqc4g","pricing_plan_id":"cebpf4jnsgd1na2vs0mg"},{"bike_id":"b7b946b0-5224-4751-ab5c-23be4f41699b","system_id":"levelo_inurba_marseille","lat":43.28572,"lon":5.395,"is_reserved":false,"is_disabled":false,"rental_uris":{"android":"levelo://app?vid=b7b946b0-5224-4751-ab5c-23be4f41699b","ios":"levelo://app?vid=b7b946b0-5224-4751-ab5c-23be4f41699b"},"vehicle_type_id":"4","last_reported":1729764609,"current_range_meters":27200,"station_id":"ce4bh292rcd13ifvqdg0","pricing_plan_id":"cebpf4jnsgd1na2vs0mg"},{"bike_id":"7a632fec-0e5c-4d95-9f73-b6a9f3a4cd45","system_id":"levelo_inurba_marseille","lat":43.31998,"lon":5.38165,"is_reserved":false,"is_disabled":false,"rental_uris":{"android":"levelo://app?vid=7a632fec-0e5c-4d95-9f73-b6a9f3a4cd45","ios":"levelo://app?vid=7a632fec-0e5c-4d95-9f73-b6a9f3a4cd45"},"vehicle_type_id":"4","last_reported":1729764609,"current_range_meters":24800,"station_id":"ce4bhr12rcd13ifvqhpg","pricing_plan_id":"cebpf4jnsgd1na2vs0mg"},{"bike_id":"af8efd69-244f-4492-b75b-4277ee495464","system_id":"levelo_inurba_marseille","lat":43.2678,"lon":5.39414,"is_reserved":false,"is_disabled":false,"rental_uris":{"android":"levelo://app?vid=af8efd69-244f-4492-b75b-4277ee495464","ios":"levelo://app?vid=af8efd69-244f-4492-b75b-4277ee495464"},"vehicle_type_id":"4","last_reported":1729764609,"current_range_meters":7200,"station_id":"ce4bhh12rcd13ifvqfg0","pricing_plan_id":"cebpf4jnsgd1na2vs0mg"},{"bike_id":"b88e4dc5-5503-4994-89af-e505032e0648","system_id":"levelo_inurba_marseille","lat":43.29613,"lon":5.37749,"is_reserved":false,"is_disabled":false,"rental_uris":{"android":"levelo://app?vid=b88e4dc5-5503-4994-89af-e505032e0648","ios":"levelo://app?vid=b88e4dc5-5503-4994-89af-e505032e0648"},"vehicle_type_id":"4","last_reported":1729764609,"current_range_meters":38800,"station_id":"ce4bgi92rcd13ifvqb90","pricing_plan_id":"cebpf4jnsgd1na2vs0mg"},{"bike_id":"74c88b73-3d70-4d2c-ab1b-0404963126cd","system_id":"levelo_inurba_marseille","lat":43.29257,"lon":5.38433,"is_reserved":false,"is_disabled":false,"rental_uris":{"android":"levelo://app?vid=74c88b73-3d70-4d2c-ab1b-0404963126cd","ios":"levelo://app?vid=74c88b73-3d70-4d2c-ab1b-0404963126cd"},"vehicle_type_id":"4","last_reported":1729764609,"current_range_meters":4400,"station_id":"ce4bh692rcd13ifvqea0","pricing_plan_id":"cebpf4jnsgd1na2vs0mg"},{"bike_id":"b62823ec-2126-4908-98ca-fbed5b8ceccb","system_id":"levelo_inurba_marseille","lat":43.29865,"lon":5.3973,"is_reserved":false,"is_disabled":false,"rental_uris":{"android":"levelo://app?vid=b62823ec-2126-4908-98ca-fbed5b8ceccb","ios":"levelo://app?vid=b62823ec-2126-4908-98ca-fbed5b8ceccb"},"vehicle_type_id":"4","last_reported":1729764609,"current_range_meters":38800,"station_id":"ce4bh0h2rcd13ifvqd50","pricing_plan_id":"cebpf4jnsgd1na2vs0mg"},{"bike_id":"3e6dacef-7721-4fd6-908f-05fbf9bc0354","system_id":"levelo_inurba_marseille","lat":43.23194,"lon":5.35548,"is_reserved":false,"is_disabled":false,"rental_uris":{"android":"levelo://app?vid=3e6dacef-7721-4fd6-908f-05fbf9bc0354","ios":"levelo://app?vid=3e6dacef-7721-4fd6-908f-05fbf9bc0354"},"vehicle_type_id":"4","last_reported":1729764609,"current_range_meters":36800,"station_id":"ce4bhu92rcd13ifvqi70","pricing_plan_id":"cebpf4jnsgd1na2vs0mg"},{"bike_id":"43625689-ac1a-41b4-ab73-66d27a8da837","system_id":"levelo_inurba_marseille","lat":43.24177,"lon":5.3973,"is_reserved":false,"is_disabled":false,"rental_uris":{"android":"levelo://app?vid=43625689-ac1a-41b4-ab73-66d27a8da837","ios":"levelo://app?vid=43625689-ac1a-41b4-ab73-66d27a8da837"},"vehicle_type_id":"4","last_reported":1729764609,"current_range_meters":30800,"station_id":"ce4bhn12rcd13ifvqgpg","pricing_plan_id":"cebpf4jnsgd1na2vs0mg"},{"bike_id":"97ce6431-cdfe-4c86-8575-534875aed7f5","system_id":"levelo_inurba_marseille","lat":43.3053,"lon":5.36659,"is_reserved":false,"is_disabled":false,"rental_uris":{"android":"levelo://app?vid=97ce6431-cdfe-4c86-8575-534875aed7f5","ios":"levelo://app?vid=97ce6431-cdfe-4c86-8575-534875aed7f5"},"vehicle_type_id":"4","last_reported":1729764609,"current_range_meters":8000,"station_id":"","pricing_plan_id":"cebpf4jnsgd1na2vs0mg"},{"bike_id":"bc4efb73-4734-4293-a1eb-82c722d0ec12","system_id":"levelo_inurba_marseille","lat":43.25503,"lon":5.37649,"is_reserved":false,"is_disabled":false,"rental_uris":{"android":"levelo://app?vid=bc4efb73-4734-4293-a1eb-82c722d0ec12","ios":"levelo://app?vid=bc4efb73-4734-4293-a1eb-82c722d0ec12"},"vehicle_type_id":"4","last_reported":1729764609,"current_range_meters":37600,"station_id":"ce4bhh12rcd13ifvqff0","pricing_plan_id":"cebpf4jnsgd1na2vs0mg"},{"bike_id":"dcec548d-d28e-48ba-a194-b4f2f508889b","system_id":"levelo_inurba_marseille","lat":43.2971,"lon":5.36608,"is_reserved":false,"is_disabled":false,"rental_uris":{"android":"levelo://app?vid=dcec548d-d28e-48ba-a194-b4f2f508889b","ios":"levelo://app?vid=dcec548d-d28e-48ba-a194-b4f2f508889b"},"vehicle_type_id":"4","last_reported":1729764609,"current_range_meters":38400,"station_id":"ce4bgn12rcd13ifvqbt0","pricing_plan_id":"cebpf4jnsgd1na2vs0mg"},{"bike_id":"b69d0c64-0724-4563-ab4e-cdb5166b1cd5","system_id":"levelo_inurba_marseille","lat":43.3312,"lon":5.38209,"is_reserved":false,"is_disabled":false,"rental_uris":{"android":"levelo://app?vid=b69d0c64-0724-4563-ab4e-cdb5166b1cd5","ios":"levelo://app?vid=b69d0c64-0724-4563-ab4e-cdb5166b1cd5"},"vehicle_type_id":"4","last_reported":1729764609,"current_range_meters":20800,"station_id":"","pricing_plan_id":"cebpf4jnsgd1na2vs0mg"},{"bike_id":"e05535c8-56a4-4714-aaa2-9ead5e6ba38b","system_id":"levelo_inurba_marseille","lat":43.25931,"lon":5.40912,"is_reserved":false,"is_disabled":false,"rental_uris":{"android":"levelo://app?vid=e05535c8-56a4-4714-aaa2-9ead5e6ba38b","ios":"levelo://app?vid=e05535c8-56a4-4714-aaa2-9ead5e6ba38b"},"vehicle_type_id":"4","last_reported":1729764609,"current_range_meters":27200,"station_id":"ce4bhm92rcd13ifvqglg","pricing_plan_id":"cebpf4jnsgd1na2vs0mg"},{"bike_id":"76a79ecc-f819-43ef-ab20-dd2cfb29f6c0","system_id":"levelo_inurba_marseille","lat":43.32115,"lon":5.36769,"is_reserved":false,"is_disabled":false,"rental_uris":{"android":"levelo://app?vid=76a79ecc-f819-43ef-ab20-dd2cfb29f6c0","ios":"levelo://app?vid=76a79ecc-f819-43ef-ab20-dd2cfb29f6c0"},"vehicle_type_id":"4","last_reported":1729764609,"current_range_meters":9600,"station_id":"ce4bhrh2rcd13ifvqhug","pricing_plan_id":"cebpf4jnsgd1na2vs0mg"},{"bike_id":"39737540-eb32-40eb-a5e2-c67f411ba132","system_id":"levelo_inurba_marseille","lat":43.30525,"lon":5.38433,"is_reserved":false,"is_disabled":false,"rental_uris":{"android":"levelo://app?vid=39737540-eb32-40eb-a5e2-c67f411ba132","ios":"levelo://app?vid=39737540-eb32-40eb-a5e2-c67f411ba132"},"vehicle_type_id":"4","last_reported":1729764609,"current_range_meters":26000,"station_id":"ce4bgg92rcd13ifvqb30","pricing_plan_id":"cebpf4jnsgd1na2vs0mg"},{"bike_id":"90ea73e9-2287-41fe-b49f-4ba5de33af5b","system_id":"levelo_inurba_marseille","lat":43.24166,"lon":5.39721,"is_reserved":false,"is_disabled":false,"rental_uris":{"android":"levelo://app?vid=90ea73e9-2287-41fe-b49f-4ba5de33af5b","ios":"levelo://app?vid=90ea73e9-2287-41fe-b49f-4ba5de33af5b"},"vehicle_type_id":"4","last_reported":1729764609,"current_range_meters":27600,"station_id":"ce4bhn12rcd13ifvqgpg","pricing_plan_id":"cebpf4jnsgd1na2vs0mg"},{"bike_id":"67fc909c-3820-48d9-a4af-ea6bbe1c49b9","system_id":"levelo_inurba_marseille","lat":43.2842,"lon":5.34992,"is_reserved":false,"is_disabled":false,"rental_uris":{"android":"levelo://app?vid=67fc909c-3820-48d9-a4af-ea6bbe1c49b9","ios":"levelo://app?vid=67fc909c-3820-48d9-a4af-ea6bbe1c49b9"},"vehicle_type_id":"4","last_reported":1729764609,"current_range_meters":39200,"station_id":"ce4bhbh2rcd13ifvqepg","pricing_plan_id":"cebpf4jnsgd1na2vs0mg"},{"bike_id":"ad620477-6535-4563-b912-7017fc201600","system_id":"levelo_inurba_marseille","lat":43.24546,"lon":5.39524,"is_reserved":false,"is_disabled":false,"rental_uris":{"android":"levelo://app?vid=ad620477-6535-4563-b912-7017fc201600","ios":"levelo://app?vid=ad620477-6535-4563-b912-7017fc201600"},"vehicle_type_id":"4","last_reported":1729764609,"current_range_meters":30000,"station_id":"ce4bhlp2rcd13ifvqgjg","pricing_plan_id":"cebpf4jnsgd1na2vs0mg"},{"bike_id":"819a3f8f-6125-4610-bff4-124ace204ca6","system_id":"levelo_inurba_marseille","lat":43.29269,"lon":5.37419,"is_reserved":false,"is_disabled":false,"rental_uris":{"android":"levelo://app?vid=819a3f8f-6125-4610-bff4-124ace204ca6","ios":"levelo://app?vid=819a3f8f-6125-4610-bff4-124ace204ca6"},"vehicle_type_id":"4","last_reported":1729764609,"current_range_meters":13600,"station_id":"ce4bgi12rcd13ifvqb70","pricing_plan_id":"cebpf4jnsgd1na2vs0mg"},{"bike_id":"07ae06f7-0adb-4e4d-beb2-862066df0ee5","system_id":"levelo_inurba_marseille","lat":43.29974,"lon":5.37187,"is_reserved":false,"is_disabled":false,"rental_uris":{"android":"levelo://app?vid=07ae06f7-0adb-4e4d-beb2-862066df0ee5","ios":"levelo://app?vid=07ae06f7-0adb-4e4d-beb2-862066df0ee5"},"vehicle_type_id":"4","last_reported":1729764609,"current_range_meters":23200,"station_id":"ce4bgr92rcd13ifvqc7g","pricing_plan_id":"cebpf4jnsgd1na2vs0mg"},{"bike_id":"c5c5921b-72a7-495c-b5a6-efe35fd1a251","system_id":"levelo_inurba_marseille","lat":43.30426,"lon":5.39746,"is_reserved":false,"is_disabled":false,"rental_uris":{"android":"levelo://app?vid=c5c5921b-72a7-495c-b5a6-efe35fd1a251","ios":"levelo://app?vid=c5c5921b-72a7-495c-b5a6-efe35fd1a251"},"vehicle_type_id":"4","last_reported":1729764609,"current_range_meters":38800,"station_id":"ce4bh092rcd13ifvqd20","pricing_plan_id":"cebpf4jnsgd1na2vs0mg"},{"bike_id":"8e40de37-296d-47ae-a26b-2fc39d683675","system_id":"levelo_inurba_marseille","lat":43.25932,"lon":5.40913,"is_reserved":false,"is_disabled":false,"rental_uris":{"android":"levelo://app?vid=8e40de37-296d-47ae-a26b-2fc39d683675","ios":"levelo://app?vid=8e40de37-296d-47ae-a26b-2fc39d683675"},"vehicle_type_id":"4","last_reported":1729764609,"current_range_meters":27200,"station_id":"ce4bhm92rcd13ifvqglg","pricing_plan_id":"cebpf4jnsgd1na2vs0mg"},{"bike_id":"c7767850-0e7e-461f-87d9-abd9dbb94de9","system_id":"levelo_inurba_marseille","lat":43.29577,"lon":5.36736,"is_reserved":false,"is_disabled":false,"rental_uris":{"android":"levelo://app?vid=c7767850-0e7e-461f-87d9-abd9dbb94de9","ios":"levelo://app?vid=c7767850-0e7e-461f-87d9-abd9dbb94de9"},"vehicle_type_id":"4","last_reported":1729764609,"current_range_meters":38800,"station_id":"ce4bgph2rcd13ifvqc2g","pricing_plan_id":"cebpf4jnsgd1na2vs0mg"},{"bike_id":"d559dc1b-ba63-4390-a50c-92e4adeb1a9d","system_id":"levelo_inurba_marseille","lat":43.2594,"lon":5.40905,"is_reserved":false,"is_disabled":false,"rental_uris":{"android":"levelo://app?vid=d559dc1b-ba63-4390-a50c-92e4adeb1a9d","ios":"levelo://app?vid=d559dc1b-ba63-4390-a50c-92e4adeb1a9d"},"vehicle_type_id":"4","last_reported":1729764609,"current_range_meters":8400,"station_id":"ce4bhm92rcd13ifvqglg","pricing_plan_id":"cebpf4jnsgd1na2vs0mg"},{"bike_id":"d8d04b62-9e6e-4685-88ba-23cbc9a398a8","system_id":"levelo_inurba_marseille","lat":43.30427,"lon":5.39747,"is_reserved":false,"is_disabled":false,"rental_uris":{"android":"levelo://app?vid=d8d04b62-9e6e-4685-88ba-23cbc9a398a8","ios":"levelo://app?vid=d8d04b62-9e6e-4685-88ba-23cbc9a398a8"},"vehicle_type_id":"4","last_reported":1729764609,"current_range_meters":27200,"station_id":"ce4bh092rcd13ifvqd20","pricing_plan_id":"cebpf4jnsgd1na2vs0mg"},{"bike_id":"039bc06d-9fef-49e0-821a-b303f4145b48","system_id":"levelo_inurba_marseille","lat":43.28577,"lon":5.39497,"is_reserved":false,"is_disabled":false,"rental_uris":{"android":"levelo://app?vid=039bc06d-9fef-49e0-821a-b303f4145b48","ios":"levelo://app?vid=039bc06d-9fef-49e0-821a-b303f4145b48"},"vehicle_type_id":"4","last_reported":1729764609,"current_range_meters":9600,"station_id":"ce4bh292rcd13ifvqdg0","pricing_plan_id":"cebpf4jnsgd1na2vs0mg"},{"bike_id":"d7f7ec00-9b82-4b1b-8c40-5ae8b7c7e605","system_id":"levelo_inurba_marseille","lat":43.29867,"lon":5.38911,"is_reserved":false,"is_disabled":false,"rental_uris":{"android":"levelo://app?vid=d7f7ec00-9b82-4b1b-8c40-5ae8b7c7e605","ios":"levelo://app?vid=d7f7ec00-9b82-4b1b-8c40-5ae8b7c7e605"},"vehicle_type_id":"4","last_reported":1729764609,"current_range_meters":37600,"station_id":"ce4bh392rcd13ifvqdl0","pricing_plan_id":"cebpf4jnsgd1na2vs0mg"},{"bike_id":"558cfc1a-72d8-48b9-a66e-03d4515ec68f","system_id":"levelo_inurba_marseille","lat":43.29625,"lon":5.37714,"is_reserved":false,"is_disabled":false,"rental_uris":{"android":"levelo://app?vid=558cfc1a-72d8-48b9-a66e-03d4515ec68f","ios":"levelo://app?vid=558cfc1a-72d8-48b9-a66e-03d4515ec68f"},"vehicle_type_id":"4","last_reported":1729764609,"current_range_meters":39200,"station_id":"ce4bgi92rcd13ifvqb90","pricing_plan_id":"cebpf4jnsgd1na2vs0mg"},{"bike_id":"cfa443ee-a1d4-48cc-97b0-2b7fa06601a5","system_id":"levelo_inurba_marseille","lat":43.2997,"lon":5.37181,"is_reserved":false,"is_disabled":false,"rental_uris":{"android":"levelo://app?vid=cfa443ee-a1d4-48cc-97b0-2b7fa06601a5","ios":"levelo://app?vid=cfa443ee-a1d4-48cc-97b0-2b7fa06601a5"},"vehicle_type_id":"4","last_reported":1729764609,"current_range_meters":17600,"station_id":"ce4bgr92rcd13ifvqc7g","pricing_plan_id":"cebpf4jnsgd1na2vs0mg"},{"bike_id":"e38d6abe-d29c-478e-8db0-3b610855bfb5","system_id":"levelo_inurba_marseille","lat":43.3361,"lon":5.41037,"is_reserved":false,"is_disabled":false,"rental_uris":{"android":"levelo://app?vid=e38d6abe-d29c-478e-8db0-3b610855bfb5","ios":"levelo://app?vid=e38d6abe-d29c-478e-8db0-3b610855bfb5"},"vehicle_type_id":"4","last_reported":1729764609,"current_range_meters":38800,"station_id":"ce4bhqh2rcd13ifvqhmg","pricing_plan_id":"cebpf4jnsgd1na2vs0mg"},{"bike_id":"f8e50538-d227-405f-9328-aa078046bf69","system_id":"levelo_inurba_marseille","lat":43.29977,"lon":5.37186,"is_reserved":false,"is_disabled":false,"rental_uris":{"android":"levelo://app?vid=f8e50538-d227-405f-9328-aa078046bf69","ios":"levelo://app?vid=f8e50538-d227-405f-9328-aa078046bf69"},"vehicle_type_id":"4","last_reported":1729764609,"current_range_meters":25200,"station_id":"ce4bgr92rcd13ifvqc7g","pricing_plan_id":"cebpf4jnsgd1na2vs0mg"},{"bike_id":"2dfebb92-dc2b-421d-8c00-c197cc08b328","system_id":"levelo_inurba_marseille","lat":43.29229,"lon":5.36062,"is_reserved":false,"is_disabled":false,"rental_uris":{"android":"levelo://app?vid=2dfebb92-dc2b-421d-8c00-c197cc08b328","ios":"levelo://app?vid=2dfebb92-dc2b-421d-8c00-c197cc08b328"},"vehicle_type_id":"4","last_reported":1729764609,"current_range_meters":35600,"station_id":"ce4bhbh2rcd13ifvqeqg","pricing_plan_id":"cebpf4jnsgd1na2vs0mg"},{"bike_id":"df6fba92-616f-41b7-84c7-697c91053276","system_id":"levelo_inurba_marseille","lat":43.22931,"lon":5.35378,"is_reserved":false,"is_disabled":false,"rental_uris":{"android":"levelo://app?vid=df6fba92-616f-41b7-84c7-697c91053276","ios":"levelo://app?vid=df6fba92-616f-41b7-84c7-697c91053276"},"vehicle_type_id":"4","last_reported":1729764609,"current_range_meters":25600,"station_id":"cpo3532slgdg3j2ikp40","pricing_plan_id":"cebpf4jnsgd1na2vs0mg"},{"bike_id":"8f40f5a1-dff7-42c7-90d7-c956ea526b89","system_id":"levelo_inurba_marseille","lat":43.30143,"lon":5.37415,"is_reserved":false,"is_disabled":false,"rental_uris":{"android":"levelo://app?vid=8f40f5a1-dff7-42c7-90d7-c956ea526b89","ios":"levelo://app?vid=8f40f5a1-dff7-42c7-90d7-c956ea526b89"},"vehicle_type_id":"4","last_reported":1729764609,"current_range_meters":35200,"station_id":"ce4bgs92rcd13ifvqcc0","pricing_plan_id":"cebpf4jnsgd1na2vs0mg"},{"bike_id":"7363baa8-1499-4460-88dc-e51f017b2c65","system_id":"levelo_inurba_marseille","lat":43.30842,"lon":5.38923,"is_reserved":false,"is_disabled":false,"rental_uris":{"android":"levelo://app?vid=7363baa8-1499-4460-88dc-e51f017b2c65","ios":"levelo://app?vid=7363baa8-1499-4460-88dc-e51f017b2c65"},"vehicle_type_id":"4","last_reported":1729764609,"current_range_meters":4800,"station_id":"","pricing_plan_id":"cebpf4jnsgd1na2vs0mg"},{"bike_id":"54b3556d-5573-44a6-9996-c2eac1159c03","system_id":"levelo_inurba_marseille","lat":43.30887,"lon":5.37194,"is_reserved":false,"is_disabled":false,"rental_uris":{"android":"levelo://app?vid=54b3556d-5573-44a6-9996-c2eac1159c03","ios":"levelo://app?vid=54b3556d-5573-44a6-9996-c2eac1159c03"},"vehicle_type_id":"4","last_reported":1729764609,"current_range_meters":10000,"station_id":"ce4bguh2rcd13ifvqckg","pricing_plan_id":"cebpf4jnsgd1na2vs0mg"},{"bike_id":"fca1dff7-e8c3-431f-815e-22b3b52afa19","system_id":"levelo_inurba_marseille","lat":43.29092,"lon":5.3816,"is_reserved":false,"is_disabled":false,"rental_uris":{"android":"levelo://app?vid=fca1dff7-e8c3-431f-815e-22b3b52afa19","ios":"levelo://app?vid=fca1dff7-e8c3-431f-815e-22b3b52afa19"},"vehicle_type_id":"4","last_reported":1729764609,"current_range_meters":35200,"station_id":"ce4bh512rcd13ifvqe2g","pricing_plan_id":"cebpf4jnsgd1na2vs0mg"},{"bike_id":"677a26f0-a8b9-43c0-a2aa-8b4d07896f2e","system_id":"levelo_inurba_marseille","lat":43.25086,"lon":5.39519,"is_reserved":false,"is_disabled":false,"rental_uris":{"android":"levelo://app?vid=677a26f0-a8b9-43c0-a2aa-8b4d07896f2e","ios":"levelo://app?vid=677a26f0-a8b9-43c0-a2aa-8b4d07896f2e"},"vehicle_type_id":"4","last_reported":1729764609,"current_range_meters":22400,"station_id":"ce4bhm12rcd13ifvqgkg","pricing_plan_id":"cebpf4jnsgd1na2vs0mg"},{"bike_id":"32745b13-c55b-4aa9-82ac-9fbdcc1e90be","system_id":"levelo_inurba_marseille","lat":43.254909,"lon":5.37651,"is_reserved":false,"is_disabled":false,"rental_uris":{"android":"levelo://app?vid=32745b13-c55b-4aa9-82ac-9fbdcc1e90be","ios":"levelo://app?vid=32745b13-c55b-4aa9-82ac-9fbdcc1e90be"},"vehicle_type_id":"4","last_reported":1729764609,"current_range_meters":24400,"station_id":"ce4bhh12rcd13ifvqff0","pricing_plan_id":"cebpf4jnsgd1na2vs0mg"},{"bike_id":"b094d4a5-f8e8-4ea5-91a8-7ddf088acd32","system_id":"levelo_inurba_marseille","lat":43.30536,"lon":5.36534,"is_reserved":false,"is_disabled":false,"rental_uris":{"android":"levelo://app?vid=b094d4a5-f8e8-4ea5-91a8-7ddf088acd32","ios":"levelo://app?vid=b094d4a5-f8e8-4ea5-91a8-7ddf088acd32"},"vehicle_type_id":"4","last_reported":1729764609,"current_range_meters":37600,"station_id":"ce4bgs12rcd13ifvqcag","pricing_plan_id":"cebpf4jnsgd1na2vs0mg"},{"bike_id":"06b47102-7d20-4a86-8584-158bf0878a25","system_id":"levelo_inurba_marseille","lat":43.30205,"lon":5.39469,"is_reserved":false,"is_disabled":false,"rental_uris":{"android":"levelo://app?vid=06b47102-7d20-4a86-8584-158bf0878a25","ios":"levelo://app?vid=06b47102-7d20-4a86-8584-158bf0878a25"},"vehicle_type_id":"4","last_reported":1729764609,"current_range_meters":36000,"station_id":"ce4bh0p2rcd13ifvqd70","pricing_plan_id":"cebpf4jnsgd1na2vs0mg"},{"bike_id":"78568ba3-e558-46e4-aa36-5671f868e825","system_id":"levelo_inurba_marseille","lat":43.32028,"lon":5.41575,"is_reserved":false,"is_disabled":false,"rental_uris":{"android":"levelo://app?vid=78568ba3-e558-46e4-aa36-5671f868e825","ios":"levelo://app?vid=78568ba3-e558-46e4-aa36-5671f868e825"},"vehicle_type_id":"4","last_reported":1729764609,"current_range_meters":18000,"station_id":"ce4bhq92rcd13ifvqhkg","pricing_plan_id":"cebpf4jnsgd1na2vs0mg"},{"bike_id":"7d664052-d703-4e70-a1d8-94e780b4cf92","system_id":"levelo_inurba_marseille","lat":43.28941,"lon":5.36635,"is_reserved":false,"is_disabled":false,"rental_uris":{"android":"levelo://app?vid=7d664052-d703-4e70-a1d8-94e780b4cf92","ios":"levelo://app?vid=7d664052-d703-4e70-a1d8-94e780b4cf92"},"vehicle_type_id":"4","last_reported":1729764609,"current_range_meters":6400,"station_id":"ce4bhap2rcd13ifvqek0","pricing_plan_id":"cebpf4jnsgd1na2vs0mg"},{"bike_id":"87b6995d-9c77-4c54-bef7-5ea2d7376b5f","system_id":"levelo_inurba_marseille","lat":43.30273,"lon":5.3771,"is_reserved":false,"is_disabled":false,"rental_uris":{"android":"levelo://app?vid=87b6995d-9c77-4c54-bef7-5ea2d7376b5f","ios":"levelo://app?vid=87b6995d-9c77-4c54-bef7-5ea2d7376b5f"},"vehicle_type_id":"4","last_reported":1729764609,"current_range_meters":13600,"station_id":"ce4bguh2rcd13ifvqcj0","pricing_plan_id":"cebpf4jnsgd1na2vs0mg"},{"bike_id":"bfb4048f-e852-4c39-a529-77aee6ef9cf9","system_id":"levelo_inurba_marseille","lat":43.29728,"lon":5.37682,"is_reserved":false,"is_disabled":false,"rental_uris":{"android":"levelo://app?vid=bfb4048f-e852-4c39-a529-77aee6ef9cf9","ios":"levelo://app?vid=bfb4048f-e852-4c39-a529-77aee6ef9cf9"},"vehicle_type_id":"4","last_reported":1729764609,"current_range_meters":28000,"station_id":"ce4bgkh2rcd13ifvqbl0","pricing_plan_id":"cebpf4jnsgd1na2vs0mg"},{"bike_id":"825b0c26-32f9-4648-81bd-2702b467ac44","system_id":"levelo_inurba_marseille","lat":43.24546,"lon":5.39522,"is_reserved":false,"is_disabled":false,"rental_uris":{"android":"levelo://app?vid=825b0c26-32f9-4648-81bd-2702b467ac44","ios":"levelo://app?vid=825b0c26-32f9-4648-81bd-2702b467ac44"},"vehicle_type_id":"4","last_reported":1729764609,"current_range_meters":38800,"station_id":"ce4bhlp2rcd13ifvqgjg","pricing_plan_id":"cebpf4jnsgd1na2vs0mg"},{"bike_id":"db69ea4c-1c7d-43a0-b7f1-e0da5b76f2ea","system_id":"levelo_inurba_marseille","lat":43.28426,"lon":5.45959,"is_reserved":false,"is_disabled":false,"rental_uris":{"android":"levelo://app?vid=db69ea4c-1c7d-43a0-b7f1-e0da5b76f2ea","ios":"levelo://app?vid=db69ea4c-1c7d-43a0-b7f1-e0da5b76f2ea"},"vehicle_type_id":"4","last_reported":1729764609,"current_range_meters":9200,"station_id":"","pricing_plan_id":"cebpf4jnsgd1na2vs0mg"},{"bike_id":"92c0c4e6-c101-4d8a-8f1c-80a806f8e0d6","system_id":"levelo_inurba_marseille","lat":43.29226,"lon":5.36072,"is_reserved":false,"is_disabled":false,"rental_uris":{"android":"levelo://app?vid=92c0c4e6-c101-4d8a-8f1c-80a806f8e0d6","ios":"levelo://app?vid=92c0c4e6-c101-4d8a-8f1c-80a806f8e0d6"},"vehicle_type_id":"4","last_reported":1729764609,"current_range_meters":20000,"station_id":"ce4bhbh2rcd13ifvqeqg","pricing_plan_id":"cebpf4jnsgd1na2vs0mg"},{"bike_id":"4b06a6b3-9141-4e99-b77f-4433bbdfc30c","system_id":"levelo_inurba_marseille","lat":43.337444,"lon":5.374475,"is_reserved":false,"is_disabled":false,"rental_uris":{"android":"levelo://app?vid=4b06a6b3-9141-4e99-b77f-4433bbdfc30c","ios":"levelo://app?vid=4b06a6b3-9141-4e99-b77f-4433bbdfc30c"},"vehicle_type_id":"4","last_reported":1729764609,"current_range_meters":37600,"station_id":"ce4bh092rcd13ifvqd20","pricing_plan_id":"cebpf4jnsgd1na2vs0mg"},{"bike_id":"59e653c3-fce4-4d8c-8f5f-86a86cc24477","system_id":"levelo_inurba_marseille","lat":43.29006,"lon":5.3561,"is_reserved":false,"is_disabled":false,"rental_uris":{"android":"levelo://app?vid=59e653c3-fce4-4d8c-8f5f-86a86cc24477","ios":"levelo://app?vid=59e653c3-fce4-4d8c-8f5f-86a86cc24477"},"vehicle_type_id":"4","last_reported":1729764609,"current_range_meters":39200,"station_id":"ce4bhb92rcd13ifvqen0","pricing_plan_id":"cebpf4jnsgd1na2vs0mg"},{"bike_id":"4a56ba03-e91e-4cfc-aac1-279c0281be26","system_id":"levelo_inurba_marseille","lat":43.29368,"lon":5.37841,"is_reserved":false,"is_disabled":false,"rental_uris":{"android":"levelo://app?vid=4a56ba03-e91e-4cfc-aac1-279c0281be26","ios":"levelo://app?vid=4a56ba03-e91e-4cfc-aac1-279c0281be26"},"vehicle_type_id":"4","last_reported":1729764609,"current_range_meters":6400,"station_id":"ce4bgjh2rcd13ifvqbf0","pricing_plan_id":"cebpf4jnsgd1na2vs0mg"},{"bike_id":"262f312a-af21-4ad6-a160-c5f1ecf1dcd9","system_id":"levelo_inurba_marseille","lat":43.291779,"lon":5.373253,"is_reserved":false,"is_disabled":false,"rental_uris":{"android":"levelo://app?vid=262f312a-af21-4ad6-a160-c5f1ecf1dcd9","ios":"levelo://app?vid=262f312a-af21-4ad6-a160-c5f1ecf1dcd9"},"vehicle_type_id":"4","last_reported":1729764609,"current_range_meters":20400,"station_id":"ce4bha92rcd13ifvqeh0","pricing_plan_id":"cebpf4jnsgd1na2vs0mg"},{"bike_id":"49806364-1909-4dea-bc93-a727bc91f04a","system_id":"levelo_inurba_marseille","lat":43.26554,"lon":5.37285,"is_reserved":false,"is_disabled":false,"rental_uris":{"android":"levelo://app?vid=49806364-1909-4dea-bc93-a727bc91f04a","ios":"levelo://app?vid=49806364-1909-4dea-bc93-a727bc91f04a"},"vehicle_type_id":"4","last_reported":1729764609,"current_range_meters":27600,"station_id":"ce4bhg12rcd13ifvqf70","pricing_plan_id":"cebpf4jnsgd1na2vs0mg"},{"bike_id":"491e6dc9-a9e0-47c6-b7ee-cbbf6227fc3b","system_id":"levelo_inurba_marseille","lat":43.31998,"lon":5.38153,"is_reserved":false,"is_disabled":false,"rental_uris":{"android":"levelo://app?vid=491e6dc9-a9e0-47c6-b7ee-cbbf6227fc3b","ios":"levelo://app?vid=491e6dc9-a9e0-47c6-b7ee-cbbf6227fc3b"},"vehicle_type_id":"4","last_reported":1729764609,"current_range_meters":6800,"station_id":"ce4bhr12rcd13ifvqhpg","pricing_plan_id":"cebpf4jnsgd1na2vs0mg"},{"bike_id":"5e506d15-df2d-4cf2-a9b2-860ae69be514","system_id":"levelo_inurba_marseille","lat":43.2962,"lon":5.37745,"is_reserved":false,"is_disabled":false,"rental_uris":{"android":"levelo://app?vid=5e506d15-df2d-4cf2-a9b2-860ae69be514","ios":"levelo://app?vid=5e506d15-df2d-4cf2-a9b2-860ae69be514"},"vehicle_type_id":"4","last_reported":1729764609,"current_range_meters":30000,"station_id":"ce4bgi92rcd13ifvqb90","pricing_plan_id":"cebpf4jnsgd1na2vs0mg"},{"bike_id":"ee56864d-0289-4ab0-b1d9-4e118a6c50f5","system_id":"levelo_inurba_marseille","lat":43.341431,"lon":5.408951,"is_reserved":false,"is_disabled":false,"rental_uris":{"android":"levelo://app?vid=ee56864d-0289-4ab0-b1d9-4e118a6c50f5","ios":"levelo://app?vid=ee56864d-0289-4ab0-b1d9-4e118a6c50f5"},"vehicle_type_id":"4","last_reported":1729764609,"current_range_meters":40000,"station_id":"ce4bhqh2rcd13ifvqhlg","pricing_plan_id":"cebpf4jnsgd1na2vs0mg"},{"bike_id":"71d7f328-a427-4358-bc2f-cc1d51a56f06","system_id":"levelo_inurba_marseille","lat":43.30961,"lon":5.39036,"is_reserved":false,"is_disabled":false,"rental_uris":{"android":"levelo://app?vid=71d7f328-a427-4358-bc2f-cc1d51a56f06","ios":"levelo://app?vid=71d7f328-a427-4358-bc2f-cc1d51a56f06"},"vehicle_type_id":"4","last_reported":1729764609,"current_range_meters":14400,"station_id":"ce4bgup2rcd13ifvqco0","pricing_plan_id":"cebpf4jnsgd1na2vs0mg"},{"bike_id":"3a904881-c49f-42f3-ab29-bca1bed304a9","system_id":"levelo_inurba_marseille","lat":43.25938,"lon":5.40899,"is_reserved":false,"is_disabled":false,"rental_uris":{"android":"levelo://app?vid=3a904881-c49f-42f3-ab29-bca1bed304a9","ios":"levelo://app?vid=3a904881-c49f-42f3-ab29-bca1bed304a9"},"vehicle_type_id":"4","last_reported":1729764609,"current_range_meters":27600,"station_id":"ce4bhm92rcd13ifvqglg","pricing_plan_id":"cebpf4jnsgd1na2vs0mg"},{"bike_id":"00ab6c2e-81d9-4e6b-8d7f-81f7cde02aa7","system_id":"levelo_inurba_marseille","lat":43.31358,"lon":5.38492,"is_reserved":false,"is_disabled":false,"rental_uris":{"android":"levelo://app?vid=00ab6c2e-81d9-4e6b-8d7f-81f7cde02aa7","ios":"levelo://app?vid=00ab6c2e-81d9-4e6b-8d7f-81f7cde02aa7"},"vehicle_type_id":"4","last_reported":1729764609,"current_range_meters":32000,"station_id":"ce4bgt92rcd13ifvqcf0","pricing_plan_id":"cebpf4jnsgd1na2vs0mg"},{"bike_id":"9e765c0e-c39f-4a00-bb44-b55f9d70d628","system_id":"levelo_inurba_marseille","lat":43.28156,"lon":5.42651,"is_reserved":false,"is_disabled":false,"rental_uris":{"android":"levelo://app?vid=9e765c0e-c39f-4a00-bb44-b55f9d70d628","ios":"levelo://app?vid=9e765c0e-c39f-4a00-bb44-b55f9d70d628"},"vehicle_type_id":"4","last_reported":1729764609,"current_range_meters":22800,"station_id":"ce4bhnh2rcd13ifvqgug","pricing_plan_id":"cebpf4jnsgd1na2vs0mg"},{"bike_id":"aa2bac7f-4d64-47d8-a821-d51b823766c9","system_id":"levelo_inurba_marseille","lat":43.30911,"lon":5.36857,"is_reserved":false,"is_disabled":false,"rental_uris":{"android":"levelo://app?vid=aa2bac7f-4d64-47d8-a821-d51b823766c9","ios":"levelo://app?vid=aa2bac7f-4d64-47d8-a821-d51b823766c9"},"vehicle_type_id":"4","last_reported":1729764609,"current_range_meters":23200,"station_id":"ce4bgn92rcd13ifvqbvg","pricing_plan_id":"cebpf4jnsgd1na2vs0mg"},{"bike_id":"91bfa645-9cfa-4568-8072-595cbd3b9c72","system_id":"levelo_inurba_marseille","lat":43.28905,"lon":5.36107,"is_reserved":false,"is_disabled":false,"rental_uris":{"android":"levelo://app?vid=91bfa645-9cfa-4568-8072-595cbd3b9c72","ios":"levelo://app?vid=91bfa645-9cfa-4568-8072-595cbd3b9c72"},"vehicle_type_id":"4","last_reported":1729764609,"current_range_meters":24000,"station_id":"","pricing_plan_id":"cebpf4jnsgd1na2vs0mg"},{"bike_id":"7ac878d5-7464-47b0-8096-73b091a39903","system_id":"levelo_inurba_marseille","lat":43.30538,"lon":5.36535,"is_reserved":false,"is_disabled":false,"rental_uris":{"android":"levelo://app?vid=7ac878d5-7464-47b0-8096-73b091a39903","ios":"levelo://app?vid=7ac878d5-7464-47b0-8096-73b091a39903"},"vehicle_type_id":"4","last_reported":1729764609,"current_range_meters":24000,"station_id":"ce4bgs12rcd13ifvqcag","pricing_plan_id":"cebpf4jnsgd1na2vs0mg"},{"bike_id":"678de949-9c97-4c29-87e5-9f0dabf6b6c1","system_id":"levelo_inurba_marseille","lat":43.25501,"lon":5.3765,"is_reserved":false,"is_disabled":false,"rental_uris":{"android":"levelo://app?vid=678de949-9c97-4c29-87e5-9f0dabf6b6c1","ios":"levelo://app?vid=678de949-9c97-4c29-87e5-9f0dabf6b6c1"},"vehicle_type_id":"4","last_reported":1729764609,"current_range_meters":20400,"station_id":"ce4bhh12rcd13ifvqff0","pricing_plan_id":"cebpf4jnsgd1na2vs0mg"},{"bike_id":"4a969d9a-a2f7-4482-9d72-f6a3a46a8b8b","system_id":"levelo_inurba_marseille","lat":43.30136,"lon":5.37425,"is_reserved":false,"is_disabled":false,"rental_uris":{"android":"levelo://app?vid=4a969d9a-a2f7-4482-9d72-f6a3a46a8b8b","ios":"levelo://app?vid=4a969d9a-a2f7-4482-9d72-f6a3a46a8b8b"},"vehicle_type_id":"4","last_reported":1729764609,"current_range_meters":29600,"station_id":"ce4bgs92rcd13ifvqcc0","pricing_plan_id":"cebpf4jnsgd1na2vs0mg"},{"bike_id":"12965f57-3a1d-4768-83c5-e018ff17ce98","system_id":"levelo_inurba_marseille","lat":43.24168,"lon":5.39739,"is_reserved":false,"is_disabled":false,"rental_uris":{"android":"levelo://app?vid=12965f57-3a1d-4768-83c5-e018ff17ce98","ios":"levelo://app?vid=12965f57-3a1d-4768-83c5-e018ff17ce98"},"vehicle_type_id":"4","last_reported":1729764609,"current_range_meters":40000,"station_id":"ce4bhn12rcd13ifvqgpg","pricing_plan_id":"cebpf4jnsgd1na2vs0mg"},{"bike_id":"0300ae8c-d89e-4fc9-94c4-e4571dd93d5f","system_id":"levelo_inurba_marseille","lat":43.2464,"lon":5.42472,"is_reserved":false,"is_disabled":false,"rental_uris":{"android":"levelo://app?vid=0300ae8c-d89e-4fc9-94c4-e4571dd93d5f","ios":"levelo://app?vid=0300ae8c-d89e-4fc9-94c4-e4571dd93d5f"},"vehicle_type_id":"4","last_reported":1729764609,"current_range_meters":32000,"station_id":"","pricing_plan_id":"cebpf4jnsgd1na2vs0mg"},{"bike_id":"0a44162f-f058-4046-81a5-0ad78a3e7aae","system_id":"levelo_inurba_marseille","lat":43.27561,"lon":5.38417,"is_reserved":false,"is_disabled":false,"rental_uris":{"android":"levelo://app?vid=0a44162f-f058-4046-81a5-0ad78a3e7aae","ios":"levelo://app?vid=0a44162f-f058-4046-81a5-0ad78a3e7aae"},"vehicle_type_id":"4","last_reported":1729764609,"current_range_meters":39200,"station_id":"ce4bhh92rcd13ifvqfi0","pricing_plan_id":"cebpf4jnsgd1na2vs0mg"},{"bike_id":"8b368eb4-d88f-4e27-9a59-f48c296d2a4c","system_id":"levelo_inurba_marseille","lat":43.27988,"lon":5.41661,"is_reserved":false,"is_disabled":false,"rental_uris":{"android":"levelo://app?vid=8b368eb4-d88f-4e27-9a59-f48c296d2a4c","ios":"levelo://app?vid=8b368eb4-d88f-4e27-9a59-f48c296d2a4c"},"vehicle_type_id":"4","last_reported":1729764609,"current_range_meters":22800,"station_id":"ce4bho12rcd13ifvqh1g","pricing_plan_id":"cebpf4jnsgd1na2vs0mg"},{"bike_id":"5c405a47-5da1-4eb2-a048-e6e0e39d0db1","system_id":"levelo_inurba_marseille","lat":43.29852,"lon":5.36277,"is_reserved":false,"is_disabled":false,"rental_uris":{"android":"levelo://app?vid=5c405a47-5da1-4eb2-a048-e6e0e39d0db1","ios":"levelo://app?vid=5c405a47-5da1-4eb2-a048-e6e0e39d0db1"},"vehicle_type_id":"4","last_reported":1729764609,"current_range_meters":19600,"station_id":"ce4bgpp2rcd13ifvqc3g","pricing_plan_id":"cebpf4jnsgd1na2vs0mg"},{"bike_id":"734cdb35-5f38-4565-9a1e-d875fede8e44","system_id":"levelo_inurba_marseille","lat":43.30455,"lon":5.37905,"is_reserved":false,"is_disabled":false,"rental_uris":{"android":"levelo://app?vid=734cdb35-5f38-4565-9a1e-d875fede8e44","ios":"levelo://app?vid=734cdb35-5f38-4565-9a1e-d875fede8e44"},"vehicle_type_id":"4","last_reported":1729764609,"current_range_meters":17200,"station_id":"ce4bgup2rcd13ifvqcn0","pricing_plan_id":"cebpf4jnsgd1na2vs0mg"},{"bike_id":"5424c37e-759e-40a2-bf3c-fc1acde864fc","system_id":"levelo_inurba_marseille","lat":43.29782,"lon":5.37104,"is_reserved":false,"is_disabled":false,"rental_uris":{"android":"levelo://app?vid=5424c37e-759e-40a2-bf3c-fc1acde864fc","ios":"levelo://app?vid=5424c37e-759e-40a2-bf3c-fc1acde864fc"},"vehicle_type_id":"4","last_reported":1729764609,"current_range_meters":38000,"station_id":"ce4bgop2rcd13ifvqc1g","pricing_plan_id":"cebpf4jnsgd1na2vs0mg"},{"bike_id":"9c980766-3696-42be-8e1a-d22fb6edb5c5","system_id":"levelo_inurba_marseille","lat":43.30657,"lon":5.38187,"is_reserved":false,"is_disabled":false,"rental_uris":{"android":"levelo://app?vid=9c980766-3696-42be-8e1a-d22fb6edb5c5","ios":"levelo://app?vid=9c980766-3696-42be-8e1a-d22fb6edb5c5"},"vehicle_type_id":"4","last_reported":1729764609,"current_range_meters":28400,"station_id":"","pricing_plan_id":"cebpf4jnsgd1na2vs0mg"},{"bike_id":"f71ecee2-e357-44d7-b169-b8b39ef4b213","system_id":"levelo_inurba_marseille","lat":43.31691,"lon":5.3778,"is_reserved":false,"is_disabled":false,"rental_uris":{"android":"levelo://app?vid=f71ecee2-e357-44d7-b169-b8b39ef4b213","ios":"levelo://app?vid=f71ecee2-e357-44d7-b169-b8b39ef4b213"},"vehicle_type_id":"4","last_reported":1729764609,"current_range_meters":38800,"station_id":"ce4bgth2rcd13ifvqch0","pricing_plan_id":"cebpf4jnsgd1na2vs0mg"},{"bike_id":"624fe77a-eea3-45c5-8705-7034c073ec0f","system_id":"levelo_inurba_marseille","lat":43.30531,"lon":5.36539,"is_reserved":false,"is_disabled":false,"rental_uris":{"android":"levelo://app?vid=624fe77a-eea3-45c5-8705-7034c073ec0f","ios":"levelo://app?vid=624fe77a-eea3-45c5-8705-7034c073ec0f"},"vehicle_type_id":"4","last_reported":1729764609,"current_range_meters":16400,"station_id":"ce4bgs12rcd13ifvqcag","pricing_plan_id":"cebpf4jnsgd1na2vs0mg"},{"bike_id":"8d3a665e-b607-4c6b-bfa9-0539dee50c40","system_id":"levelo_inurba_marseille","lat":43.3106,"lon":5.38126,"is_reserved":false,"is_disabled":false,"rental_uris":{"android":"levelo://app?vid=8d3a665e-b607-4c6b-bfa9-0539dee50c40","ios":"levelo://app?vid=8d3a665e-b607-4c6b-bfa9-0539dee50c40"},"vehicle_type_id":"4","last_reported":1729764609,"current_range_meters":28000,"station_id":"ce4bgup2rcd13ifvqcn0","pricing_plan_id":"cebpf4jnsgd1na2vs0mg"},{"bike_id":"8f1caad2-6668-48d2-87b2-cf3ca965c060","system_id":"levelo_inurba_marseille","lat":43.26683,"lon":5.38274,"is_reserved":false,"is_disabled":false,"rental_uris":{"android":"levelo://app?vid=8f1caad2-6668-48d2-87b2-cf3ca965c060","ios":"levelo://app?vid=8f1caad2-6668-48d2-87b2-cf3ca965c060"},"vehicle_type_id":"4","last_reported":1729764609,"current_range_meters":16400,"station_id":"ce4bhg92rcd13ifvqf90","pricing_plan_id":"cebpf4jnsgd1na2vs0mg"},{"bike_id":"0887c6b2-87f7-45b8-9ba9-710cc54bbbe1","system_id":"levelo_inurba_marseille","lat":43.29008,"lon":5.35621,"is_reserved":false,"is_disabled":false,"rental_uris":{"android":"levelo://app?vid=0887c6b2-87f7-45b8-9ba9-710cc54bbbe1","ios":"levelo://app?vid=0887c6b2-87f7-45b8-9ba9-710cc54bbbe1"},"vehicle_type_id":"4","last_reported":1729764609,"current_range_meters":36000,"station_id":"ce4bhb92rcd13ifvqen0","pricing_plan_id":"cebpf4jnsgd1na2vs0mg"},{"bike_id":"90c3a3ae-e1f9-49f9-8230-c82dc265a457","system_id":"levelo_inurba_marseille","lat":43.31994,"lon":5.38151,"is_reserved":false,"is_disabled":false,"rental_uris":{"android":"levelo://app?vid=90c3a3ae-e1f9-49f9-8230-c82dc265a457","ios":"levelo://app?vid=90c3a3ae-e1f9-49f9-8230-c82dc265a457"},"vehicle_type_id":"4","last_reported":1729764609,"current_range_meters":6800,"station_id":"ce4bhr12rcd13ifvqhpg","pricing_plan_id":"cebpf4jnsgd1na2vs0mg"},{"bike_id":"b61613ac-0748-4108-8037-3d7940c77f58","system_id":"levelo_inurba_marseille","lat":43.26802,"lon":5.40266,"is_reserved":false,"is_disabled":false,"rental_uris":{"android":"levelo://app?vid=b61613ac-0748-4108-8037-3d7940c77f58","ios":"levelo://app?vid=b61613ac-0748-4108-8037-3d7940c77f58"},"vehicle_type_id":"4","last_reported":1729764609,"current_range_meters":38800,"station_id":"ce501612rcd8frsf0b60","pricing_plan_id":"cebpf4jnsgd1na2vs0mg"},{"bike_id":"e6b310af-d763-4708-a97e-f6f2e27c7b8b","system_id":"levelo_inurba_marseille","lat":43.27178,"lon":5.40981,"is_reserved":false,"is_disabled":false,"rental_uris":{"android":"levelo://app?vid=e6b310af-d763-4708-a97e-f6f2e27c7b8b","ios":"levelo://app?vid=e6b310af-d763-4708-a97e-f6f2e27c7b8b"},"vehicle_type_id":"4","last_reported":1729764609,"current_range_meters":9200,"station_id":"ce4bhl12rcd13ifvqgf0","pricing_plan_id":"cebpf4jnsgd1na2vs0mg"},{"bike_id":"f935cf35-b036-4f96-9938-0dfc56bccf48","system_id":"levelo_inurba_marseille","lat":43.27054,"lon":5.40264,"is_reserved":false,"is_disabled":false,"rental_uris":{"android":"levelo://app?vid=f935cf35-b036-4f96-9938-0dfc56bccf48","ios":"levelo://app?vid=f935cf35-b036-4f96-9938-0dfc56bccf48"},"vehicle_type_id":"4","last_reported":1729764609,"current_range_meters":16800,"station_id":"ce4bhk92rcd13ifvqgc0","pricing_plan_id":"cebpf4jnsgd1na2vs0mg"},{"bike_id":"580e5096-fa37-4f44-a46b-8466554005b3","system_id":"levelo_inurba_marseille","lat":43.32038,"lon":5.41567,"is_reserved":false,"is_disabled":false,"rental_uris":{"android":"levelo://app?vid=580e5096-fa37-4f44-a46b-8466554005b3","ios":"levelo://app?vid=580e5096-fa37-4f44-a46b-8466554005b3"},"vehicle_type_id":"4","last_reported":1729764609,"current_range_meters":26000,"station_id":"ce4bhq92rcd13ifvqhkg","pricing_plan_id":"cebpf4jnsgd1na2vs0mg"},{"bike_id":"88986b18-d9fb-40dc-a7ca-b68880a51e54","system_id":"levelo_inurba_marseille","lat":43.30535,"lon":5.38432,"is_reserved":false,"is_disabled":false,"rental_uris":{"android":"levelo://app?vid=88986b18-d9fb-40dc-a7ca-b68880a51e54","ios":"levelo://app?vid=88986b18-d9fb-40dc-a7ca-b68880a51e54"},"vehicle_type_id":"4","last_reported":1729764609,"current_range_meters":39200,"station_id":"ce4bgg92rcd13ifvqb30","pricing_plan_id":"cebpf4jnsgd1na2vs0mg"},{"bike_id":"0d3c81fa-6a31-4452-b5b1-b7fbe245fca5","system_id":"levelo_inurba_marseille","lat":43.29064,"lon":5.37171,"is_reserved":false,"is_disabled":false,"rental_uris":{"android":"levelo://app?vid=0d3c81fa-6a31-4452-b5b1-b7fbe245fca5","ios":"levelo://app?vid=0d3c81fa-6a31-4452-b5b1-b7fbe245fca5"},"vehicle_type_id":"4","last_reported":1729764609,"current_range_meters":32400,"station_id":"ce4bh5p2rcd13ifvqe4g","pricing_plan_id":"cebpf4jnsgd1na2vs0mg"},{"bike_id":"53643c73-ebff-4438-9bbc-d1455671aa2b","system_id":"levelo_inurba_marseille","lat":43.32002,"lon":5.38148,"is_reserved":false,"is_disabled":false,"rental_uris":{"android":"levelo://app?vid=53643c73-ebff-4438-9bbc-d1455671aa2b","ios":"levelo://app?vid=53643c73-ebff-4438-9bbc-d1455671aa2b"},"vehicle_type_id":"4","last_reported":1729764609,"current_range_meters":30000,"station_id":"ce4bhr12rcd13ifvqhpg","pricing_plan_id":"cebpf4jnsgd1na2vs0mg"},{"bike_id":"ccdc46be-3359-4fc8-85a3-4029df8711ec","system_id":"levelo_inurba_marseille","lat":43.26685,"lon":5.38274,"is_reserved":false,"is_disabled":false,"rental_uris":{"android":"levelo://app?vid=ccdc46be-3359-4fc8-85a3-4029df8711ec","ios":"levelo://app?vid=ccdc46be-3359-4fc8-85a3-4029df8711ec"},"vehicle_type_id":"4","last_reported":1729764609,"current_range_meters":34800,"station_id":"ce4bhg92rcd13ifvqf90","pricing_plan_id":"cebpf4jnsgd1na2vs0mg"},{"bike_id":"00a8bd9d-eef3-42e3-9e17-61a6e620d1f8","system_id":"levelo_inurba_marseille","lat":43.33021,"lon":5.39041,"is_reserved":false,"is_disabled":false,"rental_uris":{"android":"levelo://app?vid=00a8bd9d-eef3-42e3-9e17-61a6e620d1f8","ios":"levelo://app?vid=00a8bd9d-eef3-42e3-9e17-61a6e620d1f8"},"vehicle_type_id":"4","last_reported":1729764609,"current_range_meters":40000,"station_id":"ce4bhr92rcd13ifvqhrg","pricing_plan_id":"cebpf4jnsgd1na2vs0mg"},{"bike_id":"cfa22508-ceb7-4555-aa40-dbd6e0ae53c7","system_id":"levelo_inurba_marseille","lat":43.25084,"lon":5.39512,"is_reserved":false,"is_disabled":false,"rental_uris":{"android":"levelo://app?vid=cfa22508-ceb7-4555-aa40-dbd6e0ae53c7","ios":"levelo://app?vid=cfa22508-ceb7-4555-aa40-dbd6e0ae53c7"},"vehicle_type_id":"4","last_reported":1729764609,"current_range_meters":6400,"station_id":"ce4bhm12rcd13ifvqgkg","pricing_plan_id":"cebpf4jnsgd1na2vs0mg"},{"bike_id":"610c18fb-7e2a-407e-a510-3ee88b3b2dd0","system_id":"levelo_inurba_marseille","lat":43.30143,"lon":5.37421,"is_reserved":false,"is_disabled":false,"rental_uris":{"android":"levelo://app?vid=610c18fb-7e2a-407e-a510-3ee88b3b2dd0","ios":"levelo://app?vid=610c18fb-7e2a-407e-a510-3ee88b3b2dd0"},"vehicle_type_id":"4","last_reported":1729764609,"current_range_meters":12800,"station_id":"ce4bgs92rcd13ifvqcc0","pricing_plan_id":"cebpf4jnsgd1na2vs0mg"},{"bike_id":"40d7d049-8518-4ec4-b0e7-a82d69869ad0","system_id":"levelo_inurba_marseille","lat":43.30273,"lon":5.37714,"is_reserved":false,"is_disabled":false,"rental_uris":{"android":"levelo://app?vid=40d7d049-8518-4ec4-b0e7-a82d69869ad0","ios":"levelo://app?vid=40d7d049-8518-4ec4-b0e7-a82d69869ad0"},"vehicle_type_id":"4","last_reported":1729764609,"current_range_meters":38800,"station_id":"ce4bguh2rcd13ifvqcj0","pricing_plan_id":"cebpf4jnsgd1na2vs0mg"},{"bike_id":"3bd1e45c-77e7-484c-a4cd-42c393daeced","system_id":"levelo_inurba_marseille","lat":43.25932,"lon":5.40913,"is_reserved":false,"is_disabled":false,"rental_uris":{"android":"levelo://app?vid=3bd1e45c-77e7-484c-a4cd-42c393daeced","ios":"levelo://app?vid=3bd1e45c-77e7-484c-a4cd-42c393daeced"},"vehicle_type_id":"4","last_reported":1729764609,"current_range_meters":32800,"station_id":"ce4bhm92rcd13ifvqglg","pricing_plan_id":"cebpf4jnsgd1na2vs0mg"},{"bike_id":"eb5f3e85-047f-4cb1-a153-9dab5107b971","system_id":"levelo_inurba_marseille","lat":43.2466,"lon":5.38163,"is_reserved":false,"is_disabled":false,"rental_uris":{"android":"levelo://app?vid=eb5f3e85-047f-4cb1-a153-9dab5107b971","ios":"levelo://app?vid=eb5f3e85-047f-4cb1-a153-9dab5107b971"},"vehicle_type_id":"4","last_reported":1729764609,"current_range_meters":9200,"station_id":"ce4bhih2rcd13ifvqfr0","pricing_plan_id":"cebpf4jnsgd1na2vs0mg"},{"bike_id":"f171fc0c-b02b-405c-bea8-4ce36b612836","system_id":"levelo_inurba_marseille","lat":43.27679,"lon":5.38877,"is_reserved":false,"is_disabled":false,"rental_uris":{"android":"levelo://app?vid=f171fc0c-b02b-405c-bea8-4ce36b612836","ios":"levelo://app?vid=f171fc0c-b02b-405c-bea8-4ce36b612836"},"vehicle_type_id":"4","last_reported":1729764609,"current_range_meters":11600,"station_id":"ce4bhi12rcd13ifvqfo0","pricing_plan_id":"cebpf4jnsgd1na2vs0mg"},{"bike_id":"7fa314c8-fcc7-43f1-a8b1-8cb324276442","system_id":"levelo_inurba_marseille","lat":43.31227,"lon":5.36863,"is_reserved":false,"is_disabled":false,"rental_uris":{"android":"levelo://app?vid=7fa314c8-fcc7-43f1-a8b1-8cb324276442","ios":"levelo://app?vid=7fa314c8-fcc7-43f1-a8b1-8cb324276442"},"vehicle_type_id":"4","last_reported":1729764609,"current_range_meters":38800,"station_id":"ce4bgl92rcd13ifvqbq0","pricing_plan_id":"cebpf4jnsgd1na2vs0mg"},{"bike_id":"3fc1ad93-2446-4003-9d63-89a6474603c6","system_id":"levelo_inurba_marseille","lat":43.27985,"lon":5.40022,"is_reserved":false,"is_disabled":false,"rental_uris":{"android":"levelo://app?vid=3fc1ad93-2446-4003-9d63-89a6474603c6","ios":"levelo://app?vid=3fc1ad93-2446-4003-9d63-89a6474603c6"},"vehicle_type_id":"4","last_reported":1729764609,"current_range_meters":38800,"station_id":"ce4bho92rcd13ifvqh4g","pricing_plan_id":"cebpf4jnsgd1na2vs0mg"},{"bike_id":"b2b9f3d6-a061-4ef3-bcc4-d6af18337c10","system_id":"levelo_inurba_marseille","lat":43.30141,"lon":5.3742,"is_reserved":false,"is_disabled":false,"rental_uris":{"android":"levelo://app?vid=b2b9f3d6-a061-4ef3-bcc4-d6af18337c10","ios":"levelo://app?vid=b2b9f3d6-a061-4ef3-bcc4-d6af18337c10"},"vehicle_type_id":"4","last_reported":1729764609,"current_range_meters":24800,"station_id":"ce4bgs92rcd13ifvqcc0","pricing_plan_id":"cebpf4jnsgd1na2vs0mg"},{"bike_id":"35c4ccfe-570c-4c7c-b9cc-a3c1ab167257","system_id":"levelo_inurba_marseille","lat":43.29848,"lon":5.36282,"is_reserved":false,"is_disabled":false,"rental_uris":{"android":"levelo://app?vid=35c4ccfe-570c-4c7c-b9cc-a3c1ab167257","ios":"levelo://app?vid=35c4ccfe-570c-4c7c-b9cc-a3c1ab167257"},"vehicle_type_id":"4","last_reported":1729764609,"current_range_meters":38800,"station_id":"ce4bgpp2rcd13ifvqc3g","pricing_plan_id":"cebpf4jnsgd1na2vs0mg"},{"bike_id":"c3e70af7-3f2f-4929-ac75-99c2d70a3d79","system_id":"levelo_inurba_marseille","lat":43.30134,"lon":5.37426,"is_reserved":false,"is_disabled":false,"rental_uris":{"android":"levelo://app?vid=c3e70af7-3f2f-4929-ac75-99c2d70a3d79","ios":"levelo://app?vid=c3e70af7-3f2f-4929-ac75-99c2d70a3d79"},"vehicle_type_id":"4","last_reported":1729764609,"current_range_meters":16800,"station_id":"ce4bgs92rcd13ifvqcc0","pricing_plan_id":"cebpf4jnsgd1na2vs0mg"},{"bike_id":"4b6769f0-9d52-4427-92eb-85214df0463d","system_id":"levelo_inurba_marseille","lat":43.23192,"lon":5.35552,"is_reserved":false,"is_disabled":false,"rental_uris":{"android":"levelo://app?vid=4b6769f0-9d52-4427-92eb-85214df0463d","ios":"levelo://app?vid=4b6769f0-9d52-4427-92eb-85214df0463d"},"vehicle_type_id":"4","last_reported":1729764609,"current_range_meters":16000,"station_id":"ce4bhu92rcd13ifvqi70","pricing_plan_id":"cebpf4jnsgd1na2vs0mg"},{"bike_id":"4ec25af9-2c50-4187-b3b7-1dc66bf6c68a","system_id":"levelo_inurba_marseille","lat":43.28289,"lon":5.40831,"is_reserved":false,"is_disabled":false,"rental_uris":{"android":"levelo://app?vid=4ec25af9-2c50-4187-b3b7-1dc66bf6c68a","ios":"levelo://app?vid=4ec25af9-2c50-4187-b3b7-1dc66bf6c68a"},"vehicle_type_id":"4","last_reported":1729764609,"current_range_meters":8400,"station_id":"","pricing_plan_id":"cebpf4jnsgd1na2vs0mg"},{"bike_id":"e360ce09-236a-4b01-8d2b-2451a5894b4b","system_id":"levelo_inurba_marseille","lat":43.33022,"lon":5.39047,"is_reserved":false,"is_disabled":false,"rental_uris":{"android":"levelo://app?vid=e360ce09-236a-4b01-8d2b-2451a5894b4b","ios":"levelo://app?vid=e360ce09-236a-4b01-8d2b-2451a5894b4b"},"vehicle_type_id":"4","last_reported":1729764609,"current_range_meters":39200,"station_id":"ce4bhr92rcd13ifvqhrg","pricing_plan_id":"cebpf4jnsgd1na2vs0mg"},{"bike_id":"39c0d443-18b8-4b74-9cbd-3665a3cec6cf","system_id":"levelo_inurba_marseille","lat":43.29289,"lon":5.37451,"is_reserved":false,"is_disabled":false,"rental_uris":{"android":"levelo://app?vid=39c0d443-18b8-4b74-9cbd-3665a3cec6cf","ios":"levelo://app?vid=39c0d443-18b8-4b74-9cbd-3665a3cec6cf"},"vehicle_type_id":"4","last_reported":1729764609,"current_range_meters":19200,"station_id":"ce4bgi12rcd13ifvqb70","pricing_plan_id":"cebpf4jnsgd1na2vs0mg"},{"bike_id":"eb098abf-7816-4ec9-ba59-3967db2af13f","system_id":"levelo_inurba_marseille","lat":43.27175,"lon":5.40999,"is_reserved":false,"is_disabled":false,"rental_uris":{"android":"levelo://app?vid=eb098abf-7816-4ec9-ba59-3967db2af13f","ios":"levelo://app?vid=eb098abf-7816-4ec9-ba59-3967db2af13f"},"vehicle_type_id":"4","last_reported":1729764609,"current_range_meters":27600,"station_id":"ce4bhl12rcd13ifvqgf0","pricing_plan_id":"cebpf4jnsgd1na2vs0mg"},{"bike_id":"11f4da9f-54d4-4fc3-bb64-30048373bf8c","system_id":"levelo_inurba_marseille","lat":43.23151,"lon":5.43704,"is_reserved":false,"is_disabled":false,"rental_uris":{"android":"levelo://app?vid=11f4da9f-54d4-4fc3-bb64-30048373bf8c","ios":"levelo://app?vid=11f4da9f-54d4-4fc3-bb64-30048373bf8c"},"vehicle_type_id":"4","last_reported":1729764609,"current_range_meters":24000,"station_id":"ce4bhmp2rcd13ifvqgog","pricing_plan_id":"cebpf4jnsgd1na2vs0mg"},{"bike_id":"103ed008-6f4b-4142-8ae0-e6b210d9a427","system_id":"levelo_inurba_marseille","lat":43.22928,"lon":5.35374,"is_reserved":false,"is_disabled":false,"rental_uris":{"android":"levelo://app?vid=103ed008-6f4b-4142-8ae0-e6b210d9a427","ios":"levelo://app?vid=103ed008-6f4b-4142-8ae0-e6b210d9a427"},"vehicle_type_id":"4","last_reported":1729764609,"current_range_meters":11200,"station_id":"cpo3532slgdg3j2ikp40","pricing_plan_id":"cebpf4jnsgd1na2vs0mg"},{"bike_id":"ca5536a6-d4cf-4970-b396-d6337f5fcca0","system_id":"levelo_inurba_marseille","lat":43.33608,"lon":5.4103,"is_reserved":false,"is_disabled":false,"rental_uris":{"android":"levelo://app?vid=ca5536a6-d4cf-4970-b396-d6337f5fcca0","ios":"levelo://app?vid=ca5536a6-d4cf-4970-b396-d6337f5fcca0"},"vehicle_type_id":"4","last_reported":1729764609,"current_range_meters":10000,"station_id":"ce4bhqh2rcd13ifvqhmg","pricing_plan_id":"cebpf4jnsgd1na2vs0mg"},{"bike_id":"dded596a-f90c-4c39-88ca-17060e5fd4d0","system_id":"levelo_inurba_marseille","lat":43.25932,"lon":5.40913,"is_reserved":false,"is_disabled":false,"rental_uris":{"android":"levelo://app?vid=dded596a-f90c-4c39-88ca-17060e5fd4d0","ios":"levelo://app?vid=dded596a-f90c-4c39-88ca-17060e5fd4d0"},"vehicle_type_id":"4","last_reported":1729764609,"current_range_meters":8000,"station_id":"ce4bhm92rcd13ifvqglg","pricing_plan_id":"cebpf4jnsgd1na2vs0mg"},{"bike_id":"e93d0849-6889-4c3b-b756-5d2c77aee686","system_id":"levelo_inurba_marseille","lat":43.27988,"lon":5.4166,"is_reserved":false,"is_disabled":false,"rental_uris":{"android":"levelo://app?vid=e93d0849-6889-4c3b-b756-5d2c77aee686","ios":"levelo://app?vid=e93d0849-6889-4c3b-b756-5d2c77aee686"},"vehicle_type_id":"4","last_reported":1729764609,"current_range_meters":38000,"station_id":"ce4bho12rcd13ifvqh1g","pricing_plan_id":"cebpf4jnsgd1na2vs0mg"},{"bike_id":"46c9caa3-d48b-4300-89b1-70f6680905f4","system_id":"levelo_inurba_marseille","lat":43.30891,"lon":5.37198,"is_reserved":false,"is_disabled":false,"rental_uris":{"android":"levelo://app?vid=46c9caa3-d48b-4300-89b1-70f6680905f4","ios":"levelo://app?vid=46c9caa3-d48b-4300-89b1-70f6680905f4"},"vehicle_type_id":"4","last_reported":1729764609,"current_range_meters":32000,"station_id":"ce4bguh2rcd13ifvqckg","pricing_plan_id":"cebpf4jnsgd1na2vs0mg"},{"bike_id":"36d1532d-7c14-46f7-baed-bdf121a610ea","system_id":"levelo_inurba_marseille","lat":43.27202,"lon":5.39182,"is_reserved":false,"is_disabled":false,"rental_uris":{"android":"levelo://app?vid=36d1532d-7c14-46f7-baed-bdf121a610ea","ios":"levelo://app?vid=36d1532d-7c14-46f7-baed-bdf121a610ea"},"vehicle_type_id":"4","last_reported":1729764609,"current_range_meters":38000,"station_id":"ce4bhhp2rcd13ifvqfm0","pricing_plan_id":"cebpf4jnsgd1na2vs0mg"},{"bike_id":"60fa8af4-5768-4621-acfd-1f361b386abc","system_id":"levelo_inurba_marseille","lat":43.284271,"lon":5.386333,"is_reserved":false,"is_disabled":false,"rental_uris":{"android":"levelo://app?vid=60fa8af4-5768-4621-acfd-1f361b386abc","ios":"levelo://app?vid=60fa8af4-5768-4621-acfd-1f361b386abc"},"vehicle_type_id":"4","last_reported":1729764609,"current_range_meters":3200,"station_id":"ce4bh8p2rcd13ifvqeb0","pricing_plan_id":"cebpf4jnsgd1na2vs0mg"},{"bike_id":"54b88a6a-89cd-4068-ae20-aab1b2e58c86","system_id":"levelo_inurba_marseille","lat":43.26688,"lon":5.3827,"is_reserved":false,"is_disabled":false,"rental_uris":{"android":"levelo://app?vid=54b88a6a-89cd-4068-ae20-aab1b2e58c86","ios":"levelo://app?vid=54b88a6a-89cd-4068-ae20-aab1b2e58c86"},"vehicle_type_id":"4","last_reported":1729764609,"current_range_meters":10000,"station_id":"ce4bhg92rcd13ifvqf90","pricing_plan_id":"cebpf4jnsgd1na2vs0mg"},{"bike_id":"dc9a765b-b0a7-4ba4-b3d9-747e3f62e985","system_id":"levelo_inurba_marseille","lat":43.303131,"lon":5.395355,"is_reserved":false,"is_disabled":false,"rental_uris":{"android":"levelo://app?vid=dc9a765b-b0a7-4ba4-b3d9-747e3f62e985","ios":"levelo://app?vid=dc9a765b-b0a7-4ba4-b3d9-747e3f62e985"},"vehicle_type_id":"4","last_reported":1729764609,"current_range_meters":10000,"station_id":"","pricing_plan_id":"cebpf4jnsgd1na2vs0mg"},{"bike_id":"53c31639-0c10-4eec-929c-a4ad5bb37ce6","system_id":"levelo_inurba_marseille","lat":43.30526,"lon":5.36706,"is_reserved":false,"is_disabled":false,"rental_uris":{"android":"levelo://app?vid=53c31639-0c10-4eec-929c-a4ad5bb37ce6","ios":"levelo://app?vid=53c31639-0c10-4eec-929c-a4ad5bb37ce6"},"vehicle_type_id":"4","last_reported":1729764609,"current_range_meters":40000,"station_id":"ce4bgrp2rcd13ifvqc9g","pricing_plan_id":"cebpf4jnsgd1na2vs0mg"},{"bike_id":"0bc90dc2-cf8c-457e-a6aa-9b91de95f992","system_id":"levelo_inurba_marseille","lat":43.22791,"lon":5.41572,"is_reserved":false,"is_disabled":false,"rental_uris":{"android":"levelo://app?vid=0bc90dc2-cf8c-457e-a6aa-9b91de95f992","ios":"levelo://app?vid=0bc90dc2-cf8c-457e-a6aa-9b91de95f992"},"vehicle_type_id":"4","last_reported":1729764609,"current_range_meters":33200,"station_id":"","pricing_plan_id":"cebpf4jnsgd1na2vs0mg"},{"bike_id":"6917ff80-1c12-4e44-a671-e21da3860abc","system_id":"levelo_inurba_marseille","lat":43.29611,"lon":5.37711,"is_reserved":false,"is_disabled":false,"rental_uris":{"android":"levelo://app?vid=6917ff80-1c12-4e44-a671-e21da3860abc","ios":"levelo://app?vid=6917ff80-1c12-4e44-a671-e21da3860abc"},"vehicle_type_id":"4","last_reported":1729764609,"current_range_meters":9200,"station_id":"ce4bgi92rcd13ifvqb90","pricing_plan_id":"cebpf4jnsgd1na2vs0mg"},{"bike_id":"9100f810-b1ba-4de0-bed9-364c0e63f279","system_id":"levelo_inurba_marseille","lat":43.30933,"lon":5.40144,"is_reserved":false,"is_disabled":false,"rental_uris":{"android":"levelo://app?vid=9100f810-b1ba-4de0-bed9-364c0e63f279","ios":"levelo://app?vid=9100f810-b1ba-4de0-bed9-364c0e63f279"},"vehicle_type_id":"4","last_reported":1729764609,"current_range_meters":31200,"station_id":"ce4bgvp2rcd13ifvqct0","pricing_plan_id":"cebpf4jnsgd1na2vs0mg"},{"bike_id":"af38d5e4-0e39-4374-845f-f1a25b139460","system_id":"levelo_inurba_marseille","lat":43.30176,"lon":5.3661,"is_reserved":false,"is_disabled":false,"rental_uris":{"android":"levelo://app?vid=af38d5e4-0e39-4374-845f-f1a25b139460","ios":"levelo://app?vid=af38d5e4-0e39-4374-845f-f1a25b139460"},"vehicle_type_id":"4","last_reported":1729764609,"current_range_meters":31200,"station_id":"ce4bgrh2rcd13ifvqc8g","pricing_plan_id":"cebpf4jnsgd1na2vs0mg"},{"bike_id":"bb2a666e-d4fd-434c-9930-bd52d9e92c1d","system_id":"levelo_inurba_marseille","lat":43.2594,"lon":5.40904,"is_reserved":false,"is_disabled":false,"rental_uris":{"android":"levelo://app?vid=bb2a666e-d4fd-434c-9930-bd52d9e92c1d","ios":"levelo://app?vid=bb2a666e-d4fd-434c-9930-bd52d9e92c1d"},"vehicle_type_id":"4","last_reported":1729764609,"current_range_meters":37600,"station_id":"ce4bhm92rcd13ifvqglg","pricing_plan_id":"cebpf4jnsgd1na2vs0mg"},{"bike_id":"9050aa27-210e-4a00-99a6-53ce385deffc","system_id":"levelo_inurba_marseille","lat":43.29624,"lon":5.37151,"is_reserved":false,"is_disabled":false,"rental_uris":{"android":"levelo://app?vid=9050aa27-210e-4a00-99a6-53ce385deffc","ios":"levelo://app?vid=9050aa27-210e-4a00-99a6-53ce385deffc"},"vehicle_type_id":"4","last_reported":1729764609,"current_range_meters":38800,"station_id":"ce4bgnh2rcd13ifvqc0g","pricing_plan_id":"cebpf4jnsgd1na2vs0mg"},{"bike_id":"a0bfcec4-1019-4422-bc30-2e46cb48cb4e","system_id":"levelo_inurba_marseille","lat":43.33753,"lon":5.37433,"is_reserved":false,"is_disabled":false,"rental_uris":{"android":"levelo://app?vid=a0bfcec4-1019-4422-bc30-2e46cb48cb4e","ios":"levelo://app?vid=a0bfcec4-1019-4422-bc30-2e46cb48cb4e"},"vehicle_type_id":"4","last_reported":1729764609,"current_range_meters":23200,"station_id":"","pricing_plan_id":"cebpf4jnsgd1na2vs0mg"},{"bike_id":"2b8730be-ef37-4431-9d19-d02d441014a3","system_id":"levelo_inurba_marseille","lat":43.25933,"lon":5.40911,"is_reserved":false,"is_disabled":false,"rental_uris":{"android":"levelo://app?vid=2b8730be-ef37-4431-9d19-d02d441014a3","ios":"levelo://app?vid=2b8730be-ef37-4431-9d19-d02d441014a3"},"vehicle_type_id":"4","last_reported":1729764609,"current_range_meters":28800,"station_id":"ce4bhm92rcd13ifvqglg","pricing_plan_id":"cebpf4jnsgd1na2vs0mg"},{"bike_id":"9e0fe749-668f-471c-9eec-da692379dec9","system_id":"levelo_inurba_marseille","lat":43.29879,"lon":5.38899,"is_reserved":false,"is_disabled":false,"rental_uris":{"android":"levelo://app?vid=9e0fe749-668f-471c-9eec-da692379dec9","ios":"levelo://app?vid=9e0fe749-668f-471c-9eec-da692379dec9"},"vehicle_type_id":"4","last_reported":1729764609,"current_range_meters":35600,"station_id":"ce4bh392rcd13ifvqdl0","pricing_plan_id":"cebpf4jnsgd1na2vs0mg"},{"bike_id":"82ac5e44-876e-4e53-8f2d-d9045945ac44","system_id":"levelo_inurba_marseille","lat":43.29515,"lon":5.39033,"is_reserved":false,"is_disabled":false,"rental_uris":{"android":"levelo://app?vid=82ac5e44-876e-4e53-8f2d-d9045945ac44","ios":"levelo://app?vid=82ac5e44-876e-4e53-8f2d-d9045945ac44"},"vehicle_type_id":"4","last_reported":1729764609,"current_range_meters":35600,"station_id":"ce4bh3p2rcd13ifvqdp0","pricing_plan_id":"cebpf4jnsgd1na2vs0mg"},{"bike_id":"b2402164-a84a-4a3f-a2cc-a31a3ff5defe","system_id":"levelo_inurba_marseille","lat":43.30412,"lon":5.39753,"is_reserved":false,"is_disabled":false,"rental_uris":{"android":"levelo://app?vid=b2402164-a84a-4a3f-a2cc-a31a3ff5defe","ios":"levelo://app?vid=b2402164-a84a-4a3f-a2cc-a31a3ff5defe"},"vehicle_type_id":"4","last_reported":1729764609,"current_range_meters":38800,"station_id":"ce4bh092rcd13ifvqd20","pricing_plan_id":"cebpf4jnsgd1na2vs0mg"},{"bike_id":"9cc86360-5eab-45ae-a458-952e8a91e43e","system_id":"levelo_inurba_marseille","lat":43.22933,"lon":5.35379,"is_reserved":false,"is_disabled":false,"rental_uris":{"android":"levelo://app?vid=9cc86360-5eab-45ae-a458-952e8a91e43e","ios":"levelo://app?vid=9cc86360-5eab-45ae-a458-952e8a91e43e"},"vehicle_type_id":"4","last_reported":1729764609,"current_range_meters":17200,"station_id":"cpo3532slgdg3j2ikp40","pricing_plan_id":"cebpf4jnsgd1na2vs0mg"},{"bike_id":"f7a0de5f-0ab0-462c-9f8c-f233935f432b","system_id":"levelo_inurba_marseille","lat":43.23189,"lon":5.35556,"is_reserved":false,"is_disabled":false,"rental_uris":{"android":"levelo://app?vid=f7a0de5f-0ab0-462c-9f8c-f233935f432b","ios":"levelo://app?vid=f7a0de5f-0ab0-462c-9f8c-f233935f432b"},"vehicle_type_id":"4","last_reported":1729764609,"current_range_meters":34800,"station_id":"ce4bhu92rcd13ifvqi70","pricing_plan_id":"cebpf4jnsgd1na2vs0mg"},{"bike_id":"7d1977d4-0c65-4eda-8a8e-3a0880cadabf","system_id":"levelo_inurba_marseille","lat":43.26505,"lon":5.39532,"is_reserved":false,"is_disabled":false,"rental_uris":{"android":"levelo://app?vid=7d1977d4-0c65-4eda-8a8e-3a0880cadabf","ios":"levelo://app?vid=7d1977d4-0c65-4eda-8a8e-3a0880cadabf"},"vehicle_type_id":"4","last_reported":1729764609,"current_range_meters":18000,"station_id":"ce4bhi12rcd13ifvqfq0","pricing_plan_id":"cebpf4jnsgd1na2vs0mg"},{"bike_id":"e731d480-7f7d-4d72-9030-deb3d2c4ebaa","system_id":"levelo_inurba_marseille","lat":43.312743,"lon":5.401907,"is_reserved":false,"is_disabled":false,"rental_uris":{"android":"levelo://app?vid=e731d480-7f7d-4d72-9030-deb3d2c4ebaa","ios":"levelo://app?vid=e731d480-7f7d-4d72-9030-deb3d2c4ebaa"},"vehicle_type_id":"4","last_reported":1729764609,"current_range_meters":28000,"station_id":"ce4bh112rcd13ifvqda0","pricing_plan_id":"cebpf4jnsgd1na2vs0mg"},{"bike_id":"2ec9e0b4-e0e2-4964-addd-52427af08b8d","system_id":"levelo_inurba_marseille","lat":43.31346,"lon":5.3674,"is_reserved":false,"is_disabled":false,"rental_uris":{"android":"levelo://app?vid=2ec9e0b4-e0e2-4964-addd-52427af08b8d","ios":"levelo://app?vid=2ec9e0b4-e0e2-4964-addd-52427af08b8d"},"vehicle_type_id":"4","last_reported":1729764609,"current_range_meters":35600,"station_id":"ce4bgr92rcd13ifvqc6g","pricing_plan_id":"cebpf4jnsgd1na2vs0mg"},{"bike_id":"484f6353-c630-4b55-8b88-6f80ade67c05","system_id":"levelo_inurba_marseille","lat":43.32655,"lon":5.40992,"is_reserved":false,"is_disabled":false,"rental_uris":{"android":"levelo://app?vid=484f6353-c630-4b55-8b88-6f80ade67c05","ios":"levelo://app?vid=484f6353-c630-4b55-8b88-6f80ade67c05"},"vehicle_type_id":"4","last_reported":1729764609,"current_range_meters":38800,"station_id":"ce4bhpp2rcd13ifvqhgg","pricing_plan_id":"cebpf4jnsgd1na2vs0mg"},{"bike_id":"e8d0ac63-9341-4151-adb7-1e0c24619ff3","system_id":"levelo_inurba_marseille","lat":43.33613,"lon":5.41038,"is_reserved":false,"is_disabled":false,"rental_uris":{"android":"levelo://app?vid=e8d0ac63-9341-4151-adb7-1e0c24619ff3","ios":"levelo://app?vid=e8d0ac63-9341-4151-adb7-1e0c24619ff3"},"vehicle_type_id":"4","last_reported":1729764609,"current_range_meters":38800,"station_id":"ce4bhqh2rcd13ifvqhmg","pricing_plan_id":"cebpf4jnsgd1na2vs0mg"},{"bike_id":"647afdcc-1a24-4860-bd2b-5e6f7f6d8fcb","system_id":"levelo_inurba_marseille","lat":43.2903,"lon":5.39975,"is_reserved":false,"is_disabled":false,"rental_uris":{"android":"levelo://app?vid=647afdcc-1a24-4860-bd2b-5e6f7f6d8fcb","ios":"levelo://app?vid=647afdcc-1a24-4860-bd2b-5e6f7f6d8fcb"},"vehicle_type_id":"4","last_reported":1729764609,"current_range_meters":36800,"station_id":"ce4bh392rcd13ifvqdm0","pricing_plan_id":"cebpf4jnsgd1na2vs0mg"},{"bike_id":"cfcebfa7-3f59-4d32-a8f1-45e59f6e2f26","system_id":"levelo_inurba_marseille","lat":43.22932,"lon":5.35378,"is_reserved":false,"is_disabled":false,"rental_uris":{"android":"levelo://app?vid=cfcebfa7-3f59-4d32-a8f1-45e59f6e2f26","ios":"levelo://app?vid=cfcebfa7-3f59-4d32-a8f1-45e59f6e2f26"},"vehicle_type_id":"4","last_reported":1729764609,"current_range_meters":32000,"station_id":"cpo3532slgdg3j2ikp40","pricing_plan_id":"cebpf4jnsgd1na2vs0mg"},{"bike_id":"9aca186a-6cb0-4da5-ad28-be895fe571e5","system_id":"levelo_inurba_marseille","lat":43.29275,"lon":5.4012,"is_reserved":false,"is_disabled":false,"rental_uris":{"android":"levelo://app?vid=9aca186a-6cb0-4da5-ad28-be895fe571e5","ios":"levelo://app?vid=9aca186a-6cb0-4da5-ad28-be895fe571e5"},"vehicle_type_id":"4","last_reported":1729764609,"current_range_meters":17200,"station_id":"ce4bh312rcd13ifvqdk0","pricing_plan_id":"cebpf4jnsgd1na2vs0mg"},{"bike_id":"6d26f9f1-b429-4a1e-bf7a-571041540158","system_id":"levelo_inurba_marseille","lat":43.28942,"lon":5.36635,"is_reserved":false,"is_disabled":false,"rental_uris":{"android":"levelo://app?vid=6d26f9f1-b429-4a1e-bf7a-571041540158","ios":"levelo://app?vid=6d26f9f1-b429-4a1e-bf7a-571041540158"},"vehicle_type_id":"4","last_reported":1729764609,"current_range_meters":36800,"station_id":"ce4bhap2rcd13ifvqek0","pricing_plan_id":"cebpf4jnsgd1na2vs0mg"},{"bike_id":"3e381e9b-65a4-436a-a571-b4ba1ee13663","system_id":"levelo_inurba_marseille","lat":43.3248,"lon":5.36563,"is_reserved":false,"is_disabled":false,"rental_uris":{"android":"levelo://app?vid=3e381e9b-65a4-436a-a571-b4ba1ee13663","ios":"levelo://app?vid=3e381e9b-65a4-436a-a571-b4ba1ee13663"},"vehicle_type_id":"4","last_reported":1729764609,"current_range_meters":16800,"station_id":"ce4bhs12rcd13ifvqhvg","pricing_plan_id":"cebpf4jnsgd1na2vs0mg"},{"bike_id":"a3dcf7ee-59f1-4f53-936b-77f32b59962d","system_id":"levelo_inurba_marseille","lat":43.27497,"lon":5.42451,"is_reserved":false,"is_disabled":false,"rental_uris":{"android":"levelo://app?vid=a3dcf7ee-59f1-4f53-936b-77f32b59962d","ios":"levelo://app?vid=a3dcf7ee-59f1-4f53-936b-77f32b59962d"},"vehicle_type_id":"4","last_reported":1729764609,"current_range_meters":39200,"station_id":"ce4bhn92rcd13ifvqgrg","pricing_plan_id":"cebpf4jnsgd1na2vs0mg"},{"bike_id":"3a526fc6-5f14-429c-8829-287dc38ef285","system_id":"levelo_inurba_marseille","lat":43.22931,"lon":5.35374,"is_reserved":false,"is_disabled":false,"rental_uris":{"android":"levelo://app?vid=3a526fc6-5f14-429c-8829-287dc38ef285","ios":"levelo://app?vid=3a526fc6-5f14-429c-8829-287dc38ef285"},"vehicle_type_id":"4","last_reported":1729764609,"current_range_meters":32000,"station_id":"cpo3532slgdg3j2ikp40","pricing_plan_id":"cebpf4jnsgd1na2vs0mg"},{"bike_id":"50d120a1-10db-46f7-af46-f5262df90342","system_id":"levelo_inurba_marseille","lat":43.2418,"lon":5.39731,"is_reserved":false,"is_disabled":false,"rental_uris":{"android":"levelo://app?vid=50d120a1-10db-46f7-af46-f5262df90342","ios":"levelo://app?vid=50d120a1-10db-46f7-af46-f5262df90342"},"vehicle_type_id":"4","last_reported":1729764609,"current_range_meters":30000,"station_id":"ce4bhn12rcd13ifvqgpg","pricing_plan_id":"cebpf4jnsgd1na2vs0mg"},{"bike_id":"ad416bfa-e282-462a-9c09-f2818c44e56a","system_id":"levelo_inurba_marseille","lat":43.31477,"lon":5.37311,"is_reserved":false,"is_disabled":false,"rental_uris":{"android":"levelo://app?vid=ad416bfa-e282-462a-9c09-f2818c44e56a","ios":"levelo://app?vid=ad416bfa-e282-462a-9c09-f2818c44e56a"},"vehicle_type_id":"4","last_reported":1729764609,"current_range_meters":12400,"station_id":"ce4bgt12rcd13ifvqcd0","pricing_plan_id":"cebpf4jnsgd1na2vs0mg"},{"bike_id":"5a981673-2e7c-44fa-829d-b073b4d20446","system_id":"levelo_inurba_marseille","lat":43.25115,"lon":5.40317,"is_reserved":false,"is_disabled":false,"rental_uris":{"android":"levelo://app?vid=5a981673-2e7c-44fa-829d-b073b4d20446","ios":"levelo://app?vid=5a981673-2e7c-44fa-829d-b073b4d20446"},"vehicle_type_id":"4","last_reported":1729764609,"current_range_meters":7200,"station_id":"ce4bhlh2rcd13ifvqgig","pricing_plan_id":"cebpf4jnsgd1na2vs0mg"},{"bike_id":"365a5e76-e012-4983-b8a9-1a07480bde83","system_id":"levelo_inurba_marseille","lat":43.23192,"lon":5.35547,"is_reserved":false,"is_disabled":false,"rental_uris":{"android":"levelo://app?vid=365a5e76-e012-4983-b8a9-1a07480bde83","ios":"levelo://app?vid=365a5e76-e012-4983-b8a9-1a07480bde83"},"vehicle_type_id":"4","last_reported":1729764609,"current_range_meters":40000,"station_id":"ce4bhu92rcd13ifvqi70","pricing_plan_id":"cebpf4jnsgd1na2vs0mg"},{"bike_id":"6238641e-c4b1-47db-8e1c-3446ea1a80b0","system_id":"levelo_inurba_marseille","lat":43.30552,"lon":5.36532,"is_reserved":false,"is_disabled":false,"rental_uris":{"android":"levelo://app?vid=6238641e-c4b1-47db-8e1c-3446ea1a80b0","ios":"levelo://app?vid=6238641e-c4b1-47db-8e1c-3446ea1a80b0"},"vehicle_type_id":"4","last_reported":1729764609,"current_range_meters":33200,"station_id":"ce4bgs12rcd13ifvqcag","pricing_plan_id":"cebpf4jnsgd1na2vs0mg"},{"bike_id":"c0a2c481-fabb-4e11-a000-2c2c1e1749fa","system_id":"levelo_inurba_marseille","lat":43.22929,"lon":5.35375,"is_reserved":false,"is_disabled":false,"rental_uris":{"android":"levelo://app?vid=c0a2c481-fabb-4e11-a000-2c2c1e1749fa","ios":"levelo://app?vid=c0a2c481-fabb-4e11-a000-2c2c1e1749fa"},"vehicle_type_id":"4","last_reported":1729764609,"current_range_meters":18800,"station_id":"cpo3532slgdg3j2ikp40","pricing_plan_id":"cebpf4jnsgd1na2vs0mg"},{"bike_id":"e317fccb-6bb3-454b-adb3-ebfe3ee23c68","system_id":"levelo_inurba_marseille","lat":43.29522,"lon":5.39046,"is_reserved":false,"is_disabled":false,"rental_uris":{"android":"levelo://app?vid=e317fccb-6bb3-454b-adb3-ebfe3ee23c68","ios":"levelo://app?vid=e317fccb-6bb3-454b-adb3-ebfe3ee23c68"},"vehicle_type_id":"4","last_reported":1729764609,"current_range_meters":38400,"station_id":"ce4bh3p2rcd13ifvqdp0","pricing_plan_id":"cebpf4jnsgd1na2vs0mg"},{"bike_id":"0b9e4057-ab6b-4f8d-b677-caa270a65354","system_id":"levelo_inurba_marseille","lat":43.34148,"lon":5.409,"is_reserved":false,"is_disabled":false,"rental_uris":{"android":"levelo://app?vid=0b9e4057-ab6b-4f8d-b677-caa270a65354","ios":"levelo://app?vid=0b9e4057-ab6b-4f8d-b677-caa270a65354"},"vehicle_type_id":"4","last_reported":1729764609,"current_range_meters":38800,"station_id":"ce4bhqh2rcd13ifvqhlg","pricing_plan_id":"cebpf4jnsgd1na2vs0mg"},{"bike_id":"9ce5bf9f-a65b-4aae-a095-dbca354df888","system_id":"levelo_inurba_marseille","lat":43.30131,"lon":5.39869,"is_reserved":false,"is_disabled":false,"rental_uris":{"android":"levelo://app?vid=9ce5bf9f-a65b-4aae-a095-dbca354df888","ios":"levelo://app?vid=9ce5bf9f-a65b-4aae-a095-dbca354df888"},"vehicle_type_id":"4","last_reported":1729764609,"current_range_meters":38400,"station_id":"ce4bh0h2rcd13ifvqd40","pricing_plan_id":"cebpf4jnsgd1na2vs0mg"},{"bike_id":"3dc2eb7e-15a4-47fb-81be-d850bbd51ccf","system_id":"levelo_inurba_marseille","lat":43.337444,"lon":5.374475,"is_reserved":false,"is_disabled":false,"rental_uris":{"android":"levelo://app?vid=3dc2eb7e-15a4-47fb-81be-d850bbd51ccf","ios":"levelo://app?vid=3dc2eb7e-15a4-47fb-81be-d850bbd51ccf"},"vehicle_type_id":"4","last_reported":1729764609,"current_range_meters":38400,"station_id":"","pricing_plan_id":"cebpf4jnsgd1na2vs0mg"},{"bike_id":"7ab3dde8-14a5-44f1-ac38-49bde026e358","system_id":"levelo_inurba_marseille","lat":43.26567,"lon":5.39013,"is_reserved":false,"is_disabled":false,"rental_uris":{"android":"levelo://app?vid=7ab3dde8-14a5-44f1-ac38-49bde026e358","ios":"levelo://app?vid=7ab3dde8-14a5-44f1-ac38-49bde026e358"},"vehicle_type_id":"4","last_reported":1729764609,"current_range_meters":26800,"station_id":"ce4bhe12rcd13ifvqf30","pricing_plan_id":"cebpf4jnsgd1na2vs0mg"},{"bike_id":"48a71a10-4989-4826-a330-ad6a8c8edf29","system_id":"levelo_inurba_marseille","lat":43.30461,"lon":5.37897,"is_reserved":false,"is_disabled":false,"rental_uris":{"android":"levelo://app?vid=48a71a10-4989-4826-a330-ad6a8c8edf29","ios":"levelo://app?vid=48a71a10-4989-4826-a330-ad6a8c8edf29"},"vehicle_type_id":"4","last_reported":1729764609,"current_range_meters":38800,"station_id":"ce4bgup2rcd13ifvqcn0","pricing_plan_id":"cebpf4jnsgd1na2vs0mg"},{"bike_id":"bd0dc981-55ab-4a5f-9621-dcd1f19a3506","system_id":"levelo_inurba_marseille","lat":43.26804,"lon":5.39405,"is_reserved":false,"is_disabled":false,"rental_uris":{"android":"levelo://app?vid=bd0dc981-55ab-4a5f-9621-dcd1f19a3506","ios":"levelo://app?vid=bd0dc981-55ab-4a5f-9621-dcd1f19a3506"},"vehicle_type_id":"4","last_reported":1729764609,"current_range_meters":28000,"station_id":"ce4bhh12rcd13ifvqfg0","pricing_plan_id":"cebpf4jnsgd1na2vs0mg"},{"bike_id":"6ae03549-5478-4731-b9e3-9ceeba8b2934","system_id":"levelo_inurba_marseille","lat":43.32358,"lon":5.38885,"is_reserved":false,"is_disabled":false,"rental_uris":{"android":"levelo://app?vid=6ae03549-5478-4731-b9e3-9ceeba8b2934","ios":"levelo://app?vid=6ae03549-5478-4731-b9e3-9ceeba8b2934"},"vehicle_type_id":"4","last_reported":1729764609,"current_range_meters":18800,"station_id":"ce4bhqp2rcd13ifvqhog","pricing_plan_id":"cebpf4jnsgd1na2vs0mg"},{"bike_id":"9628c565-4bae-4ea9-bd2b-a9c8948ed872","system_id":"levelo_inurba_marseille","lat":43.272858,"lon":5.391695,"is_reserved":false,"is_disabled":false,"rental_uris":{"android":"levelo://app?vid=9628c565-4bae-4ea9-bd2b-a9c8948ed872","ios":"levelo://app?vid=9628c565-4bae-4ea9-bd2b-a9c8948ed872"},"vehicle_type_id":"4","last_reported":1729764609,"current_range_meters":16400,"station_id":"ce4bhhp2rcd13ifvqfm0","pricing_plan_id":"cebpf4jnsgd1na2vs0mg"},{"bike_id":"104089ec-0f6c-4380-a3a3-9d46f231b584","system_id":"levelo_inurba_marseille","lat":43.29962,"lon":5.37185,"is_reserved":false,"is_disabled":false,"rental_uris":{"android":"levelo://app?vid=104089ec-0f6c-4380-a3a3-9d46f231b584","ios":"levelo://app?vid=104089ec-0f6c-4380-a3a3-9d46f231b584"},"vehicle_type_id":"4","last_reported":1729764609,"current_range_meters":33200,"station_id":"ce4bgr92rcd13ifvqc7g","pricing_plan_id":"cebpf4jnsgd1na2vs0mg"},{"bike_id":"1d180020-2774-494a-9712-55fe63b19d77","system_id":"levelo_inurba_marseille","lat":43.25937,"lon":5.40897,"is_reserved":false,"is_disabled":false,"rental_uris":{"android":"levelo://app?vid=1d180020-2774-494a-9712-55fe63b19d77","ios":"levelo://app?vid=1d180020-2774-494a-9712-55fe63b19d77"},"vehicle_type_id":"4","last_reported":1729764609,"current_range_meters":14000,"station_id":"ce4bhm92rcd13ifvqglg","pricing_plan_id":"cebpf4jnsgd1na2vs0mg"},{"bike_id":"f7049507-45c2-41d7-9262-0fb171be7c82","system_id":"levelo_inurba_marseille","lat":43.32476,"lon":5.36579,"is_reserved":false,"is_disabled":false,"rental_uris":{"android":"levelo://app?vid=f7049507-45c2-41d7-9262-0fb171be7c82","ios":"levelo://app?vid=f7049507-45c2-41d7-9262-0fb171be7c82"},"vehicle_type_id":"4","last_reported":1729764609,"current_range_meters":8000,"station_id":"ce4bhs12rcd13ifvqhvg","pricing_plan_id":"cebpf4jnsgd1na2vs0mg"},{"bike_id":"abfd30f5-95b6-4cac-a3a1-1eaa2ce2d044","system_id":"levelo_inurba_marseille","lat":43.33613,"lon":5.41034,"is_reserved":false,"is_disabled":false,"rental_uris":{"android":"levelo://app?vid=abfd30f5-95b6-4cac-a3a1-1eaa2ce2d044","ios":"levelo://app?vid=abfd30f5-95b6-4cac-a3a1-1eaa2ce2d044"},"vehicle_type_id":"4","last_reported":1729764609,"current_range_meters":30400,"station_id":"ce4bhqh2rcd13ifvqhmg","pricing_plan_id":"cebpf4jnsgd1na2vs0mg"},{"bike_id":"bef1f06b-12df-46cc-ab59-a6fed6408ed9","system_id":"levelo_inurba_marseille","lat":43.32549,"lon":5.41446,"is_reserved":false,"is_disabled":false,"rental_uris":{"android":"levelo://app?vid=bef1f06b-12df-46cc-ab59-a6fed6408ed9","ios":"levelo://app?vid=bef1f06b-12df-46cc-ab59-a6fed6408ed9"},"vehicle_type_id":"4","last_reported":1729764609,"current_range_meters":38800,"station_id":"ce4bhq12rcd13ifvqhhg","pricing_plan_id":"cebpf4jnsgd1na2vs0mg"},{"bike_id":"b174c9f4-7419-4d14-8671-d2bbfa735be5","system_id":"levelo_inurba_marseille","lat":43.2695,"lon":5.38634,"is_reserved":false,"is_disabled":false,"rental_uris":{"android":"levelo://app?vid=b174c9f4-7419-4d14-8671-d2bbfa735be5","ios":"levelo://app?vid=b174c9f4-7419-4d14-8671-d2bbfa735be5"},"vehicle_type_id":"4","last_reported":1729764609,"current_range_meters":14400,"station_id":"ce4bhh92rcd13ifvqfh0","pricing_plan_id":"cebpf4jnsgd1na2vs0mg"},{"bike_id":"f380d3a4-3abc-4845-b60c-c424cba3f1ba","system_id":"levelo_inurba_marseille","lat":43.2997,"lon":5.37189,"is_reserved":false,"is_disabled":false,"rental_uris":{"android":"levelo://app?vid=f380d3a4-3abc-4845-b60c-c424cba3f1ba","ios":"levelo://app?vid=f380d3a4-3abc-4845-b60c-c424cba3f1ba"},"vehicle_type_id":"4","last_reported":1729764609,"current_range_meters":24000,"station_id":"ce4bgr92rcd13ifvqc7g","pricing_plan_id":"cebpf4jnsgd1na2vs0mg"},{"bike_id":"6ee5768b-9894-4264-802f-fc3a368c3400","system_id":"levelo_inurba_marseille","lat":43.28154,"lon":5.4264,"is_reserved":false,"is_disabled":false,"rental_uris":{"android":"levelo://app?vid=6ee5768b-9894-4264-802f-fc3a368c3400","ios":"levelo://app?vid=6ee5768b-9894-4264-802f-fc3a368c3400"},"vehicle_type_id":"4","last_reported":1729764609,"current_range_meters":38800,"station_id":"ce4bhnh2rcd13ifvqgug","pricing_plan_id":"cebpf4jnsgd1na2vs0mg"},{"bike_id":"7f068292-5ba7-4e69-a821-1fdeea431492","system_id":"levelo_inurba_marseille","lat":43.23155,"lon":5.43709,"is_reserved":false,"is_disabled":false,"rental_uris":{"android":"levelo://app?vid=7f068292-5ba7-4e69-a821-1fdeea431492","ios":"levelo://app?vid=7f068292-5ba7-4e69-a821-1fdeea431492"},"vehicle_type_id":"4","last_reported":1729764609,"current_range_meters":27200,"station_id":"ce4bhmp2rcd13ifvqgog","pricing_plan_id":"cebpf4jnsgd1na2vs0mg"},{"bike_id":"2c4a684a-b69b-4a59-9f8f-3e61716fa58f","system_id":"levelo_inurba_marseille","lat":43.30543,"lon":5.3653,"is_reserved":false,"is_disabled":false,"rental_uris":{"android":"levelo://app?vid=2c4a684a-b69b-4a59-9f8f-3e61716fa58f","ios":"levelo://app?vid=2c4a684a-b69b-4a59-9f8f-3e61716fa58f"},"vehicle_type_id":"4","last_reported":1729764609,"current_range_meters":38800,"station_id":"ce4bgs12rcd13ifvqcag","pricing_plan_id":"cebpf4jnsgd1na2vs0mg"},{"bike_id":"d0e4e5f9-47e8-4ffb-b654-f0fcaffbd29e","system_id":"levelo_inurba_marseille","lat":43.26498,"lon":5.39544,"is_reserved":false,"is_disabled":false,"rental_uris":{"android":"levelo://app?vid=d0e4e5f9-47e8-4ffb-b654-f0fcaffbd29e","ios":"levelo://app?vid=d0e4e5f9-47e8-4ffb-b654-f0fcaffbd29e"},"vehicle_type_id":"4","last_reported":1729764609,"current_range_meters":26800,"station_id":"ce4bhi12rcd13ifvqfq0","pricing_plan_id":"cebpf4jnsgd1na2vs0mg"},{"bike_id":"a51fdc46-e30d-4261-a9df-3f5a927644a8","system_id":"levelo_inurba_marseille","lat":43.30458,"lon":5.37908,"is_reserved":false,"is_disabled":false,"rental_uris":{"android":"levelo://app?vid=a51fdc46-e30d-4261-a9df-3f5a927644a8","ios":"levelo://app?vid=a51fdc46-e30d-4261-a9df-3f5a927644a8"},"vehicle_type_id":"4","last_reported":1729764609,"current_range_meters":20800,"station_id":"ce4bgup2rcd13ifvqcn0","pricing_plan_id":"cebpf4jnsgd1na2vs0mg"},{"bike_id":"049e6b8b-6b24-416d-ada9-4a21fd898aad","system_id":"levelo_inurba_marseille","lat":43.25934,"lon":5.40913,"is_reserved":false,"is_disabled":false,"rental_uris":{"android":"levelo://app?vid=049e6b8b-6b24-416d-ada9-4a21fd898aad","ios":"levelo://app?vid=049e6b8b-6b24-416d-ada9-4a21fd898aad"},"vehicle_type_id":"4","last_reported":1729764609,"current_range_meters":26800,"station_id":"ce4bhm92rcd13ifvqglg","pricing_plan_id":"cebpf4jnsgd1na2vs0mg"},{"bike_id":"64b170f8-2500-48ef-96a3-25f7c0707542","system_id":"levelo_inurba_marseille","lat":43.337444,"lon":5.374475,"is_reserved":false,"is_disabled":false,"rental_uris":{"android":"levelo://app?vid=64b170f8-2500-48ef-96a3-25f7c0707542","ios":"levelo://app?vid=64b170f8-2500-48ef-96a3-25f7c0707542"},"vehicle_type_id":"4","last_reported":1729764609,"current_range_meters":7200,"station_id":"","pricing_plan_id":"cebpf4jnsgd1na2vs0mg"},{"bike_id":"316ea24d-f593-4042-9cf4-2e2584db247e","system_id":"levelo_inurba_marseille","lat":43.30553,"lon":5.36531,"is_reserved":false,"is_disabled":false,"rental_uris":{"android":"levelo://app?vid=316ea24d-f593-4042-9cf4-2e2584db247e","ios":"levelo://app?vid=316ea24d-f593-4042-9cf4-2e2584db247e"},"vehicle_type_id":"4","last_reported":1729764609,"current_range_meters":30400,"station_id":"ce4bgs12rcd13ifvqcag","pricing_plan_id":"cebpf4jnsgd1na2vs0mg"},{"bike_id":"4f409860-e0f7-4877-99ee-a24fed7f0e97","system_id":"levelo_inurba_marseille","lat":43.27818,"lon":5.40719,"is_reserved":false,"is_disabled":false,"rental_uris":{"android":"levelo://app?vid=4f409860-e0f7-4877-99ee-a24fed7f0e97","ios":"levelo://app?vid=4f409860-e0f7-4877-99ee-a24fed7f0e97"},"vehicle_type_id":"4","last_reported":1729764609,"current_range_meters":36800,"station_id":"ce4bhnh2rcd13ifvqgtg","pricing_plan_id":"cebpf4jnsgd1na2vs0mg"},{"bike_id":"5bb35adf-2cb2-48f1-b0e5-cc827ec35463","system_id":"levelo_inurba_marseille","lat":43.29309,"lon":5.3741,"is_reserved":false,"is_disabled":false,"rental_uris":{"android":"levelo://app?vid=5bb35adf-2cb2-48f1-b0e5-cc827ec35463","ios":"levelo://app?vid=5bb35adf-2cb2-48f1-b0e5-cc827ec35463"},"vehicle_type_id":"4","last_reported":1729764609,"current_range_meters":38000,"station_id":"ce4bgi12rcd13ifvqb70","pricing_plan_id":"cebpf4jnsgd1na2vs0mg"},{"bike_id":"953586a6-9c30-45e8-bb0d-f2db309ba810","system_id":"levelo_inurba_marseille","lat":43.27671,"lon":5.38882,"is_reserved":false,"is_disabled":false,"rental_uris":{"android":"levelo://app?vid=953586a6-9c30-45e8-bb0d-f2db309ba810","ios":"levelo://app?vid=953586a6-9c30-45e8-bb0d-f2db309ba810"},"vehicle_type_id":"4","last_reported":1729764609,"current_range_meters":38800,"station_id":"ce4bhi12rcd13ifvqfo0","pricing_plan_id":"cebpf4jnsgd1na2vs0mg"},{"bike_id":"595ef8fa-b99c-4d83-86c8-9df6954f4dbd","system_id":"levelo_inurba_marseille","lat":43.294924,"lon":5.422949,"is_reserved":false,"is_disabled":false,"rental_uris":{"android":"levelo://app?vid=595ef8fa-b99c-4d83-86c8-9df6954f4dbd","ios":"levelo://app?vid=595ef8fa-b99c-4d83-86c8-9df6954f4dbd"},"vehicle_type_id":"4","last_reported":1729764609,"current_range_meters":25200,"station_id":"ce4bhph2rcd13ifvqhdg","pricing_plan_id":"cebpf4jnsgd1na2vs0mg"},{"bike_id":"8c7dd9f3-53fb-40b0-9a2a-02faed8c14dc","system_id":"levelo_inurba_marseille","lat":43.302134,"lon":5.394647,"is_reserved":false,"is_disabled":false,"rental_uris":{"android":"levelo://app?vid=8c7dd9f3-53fb-40b0-9a2a-02faed8c14dc","ios":"levelo://app?vid=8c7dd9f3-53fb-40b0-9a2a-02faed8c14dc"},"vehicle_type_id":"4","last_reported":1729764609,"current_range_meters":8400,"station_id":"","pricing_plan_id":"cebpf4jnsgd1na2vs0mg"},{"bike_id":"e6449868-4ddb-4741-962c-4a49b9dbebd8","system_id":"levelo_inurba_marseille","lat":43.29006,"lon":5.35615,"is_reserved":false,"is_disabled":false,"rental_uris":{"android":"levelo://app?vid=e6449868-4ddb-4741-962c-4a49b9dbebd8","ios":"levelo://app?vid=e6449868-4ddb-4741-962c-4a49b9dbebd8"},"vehicle_type_id":"4","last_reported":1729764609,"current_range_meters":36000,"station_id":"ce4bhb92rcd13ifvqen0","pricing_plan_id":"cebpf4jnsgd1na2vs0mg"},{"bike_id":"e2366167-088f-4160-af23-712c2655b22c","system_id":"levelo_inurba_marseille","lat":43.29299,"lon":5.37451,"is_reserved":false,"is_disabled":false,"rental_uris":{"android":"levelo://app?vid=e2366167-088f-4160-af23-712c2655b22c","ios":"levelo://app?vid=e2366167-088f-4160-af23-712c2655b22c"},"vehicle_type_id":"4","last_reported":1729764609,"current_range_meters":38800,"station_id":"ce4bgi12rcd13ifvqb70","pricing_plan_id":"cebpf4jnsgd1na2vs0mg"},{"bike_id":"660d8206-d2bf-4217-8d3d-736e127e6830","system_id":"levelo_inurba_marseille","lat":43.29365,"lon":5.37842,"is_reserved":false,"is_disabled":false,"rental_uris":{"android":"levelo://app?vid=660d8206-d2bf-4217-8d3d-736e127e6830","ios":"levelo://app?vid=660d8206-d2bf-4217-8d3d-736e127e6830"},"vehicle_type_id":"4","last_reported":1729764609,"current_range_meters":5600,"station_id":"ce4bgjh2rcd13ifvqbf0","pricing_plan_id":"cebpf4jnsgd1na2vs0mg"},{"bike_id":"b4e6ddf4-e94c-4cf2-9931-296d9ca0f55e","system_id":"levelo_inurba_marseille","lat":43.25935,"lon":5.40899,"is_reserved":false,"is_disabled":false,"rental_uris":{"android":"levelo://app?vid=b4e6ddf4-e94c-4cf2-9931-296d9ca0f55e","ios":"levelo://app?vid=b4e6ddf4-e94c-4cf2-9931-296d9ca0f55e"},"vehicle_type_id":"4","last_reported":1729764609,"current_range_meters":12800,"station_id":"ce4bhm92rcd13ifvqglg","pricing_plan_id":"cebpf4jnsgd1na2vs0mg"},{"bike_id":"045439c4-5bc5-4d89-a2e5-3fbfe1bd344a","system_id":"levelo_inurba_marseille","lat":43.31999,"lon":5.38162,"is_reserved":false,"is_disabled":false,"rental_uris":{"android":"levelo://app?vid=045439c4-5bc5-4d89-a2e5-3fbfe1bd344a","ios":"levelo://app?vid=045439c4-5bc5-4d89-a2e5-3fbfe1bd344a"},"vehicle_type_id":"4","last_reported":1729764609,"current_range_meters":8800,"station_id":"ce4bhr12rcd13ifvqhpg","pricing_plan_id":"cebpf4jnsgd1na2vs0mg"},{"bike_id":"a4b0927f-71eb-473d-982e-a2d99a041e81","system_id":"levelo_inurba_marseille","lat":43.29033,"lon":5.37567,"is_reserved":false,"is_disabled":false,"rental_uris":{"android":"levelo://app?vid=a4b0927f-71eb-473d-982e-a2d99a041e81","ios":"levelo://app?vid=a4b0927f-71eb-473d-982e-a2d99a041e81"},"vehicle_type_id":"4","last_reported":1729764609,"current_range_meters":9600,"station_id":"ce4bh692rcd13ifvqe90","pricing_plan_id":"cebpf4jnsgd1na2vs0mg"},{"bike_id":"ba281863-9f58-430c-b368-eaaf45a66db6","system_id":"levelo_inurba_marseille","lat":43.32,"lon":5.38152,"is_reserved":false,"is_disabled":false,"rental_uris":{"android":"levelo://app?vid=ba281863-9f58-430c-b368-eaaf45a66db6","ios":"levelo://app?vid=ba281863-9f58-430c-b368-eaaf45a66db6"},"vehicle_type_id":"4","last_reported":1729764609,"current_range_meters":17600,"station_id":"ce4bhr12rcd13ifvqhpg","pricing_plan_id":"cebpf4jnsgd1na2vs0mg"},{"bike_id":"06e334e9-cd89-4c02-9877-e800c847cdb2","system_id":"levelo_inurba_marseille","lat":43.31354,"lon":5.36707,"is_reserved":false,"is_disabled":false,"rental_uris":{"android":"levelo://app?vid=06e334e9-cd89-4c02-9877-e800c847cdb2","ios":"levelo://app?vid=06e334e9-cd89-4c02-9877-e800c847cdb2"},"vehicle_type_id":"4","last_reported":1729764609,"current_range_meters":39200,"station_id":"ce4bgr92rcd13ifvqc6g","pricing_plan_id":"cebpf4jnsgd1na2vs0mg"},{"bike_id":"f83ceaa1-8d1c-4d1f-9b62-7bba25297877","system_id":"levelo_inurba_marseille","lat":43.29039,"lon":5.37568,"is_reserved":false,"is_disabled":false,"rental_uris":{"android":"levelo://app?vid=f83ceaa1-8d1c-4d1f-9b62-7bba25297877","ios":"levelo://app?vid=f83ceaa1-8d1c-4d1f-9b62-7bba25297877"},"vehicle_type_id":"4","last_reported":1729764609,"current_range_meters":15200,"station_id":"ce4bh692rcd13ifvqe90","pricing_plan_id":"cebpf4jnsgd1na2vs0mg"},{"bike_id":"7b4ddc79-90a3-4e6b-b411-13400b75756d","system_id":"levelo_inurba_marseille","lat":43.26026,"lon":5.37552,"is_reserved":false,"is_disabled":false,"rental_uris":{"android":"levelo://app?vid=7b4ddc79-90a3-4e6b-b411-13400b75756d","ios":"levelo://app?vid=7b4ddc79-90a3-4e6b-b411-13400b75756d"},"vehicle_type_id":"4","last_reported":1729764609,"current_range_meters":24400,"station_id":"ce4bhgh2rcd13ifvqfa0","pricing_plan_id":"cebpf4jnsgd1na2vs0mg"},{"bike_id":"16ec0dd1-aa95-4a2a-af66-600900e7c9b8","system_id":"levelo_inurba_marseille","lat":43.26203,"lon":5.37932,"is_reserved":false,"is_disabled":false,"rental_uris":{"android":"levelo://app?vid=16ec0dd1-aa95-4a2a-af66-600900e7c9b8","ios":"levelo://app?vid=16ec0dd1-aa95-4a2a-af66-600900e7c9b8"},"vehicle_type_id":"4","last_reported":1729764609,"current_range_meters":39200,"station_id":"ce4bhjp2rcd13ifvqg90","pricing_plan_id":"cebpf4jnsgd1na2vs0mg"},{"bike_id":"6afec774-c3c3-4ec5-9192-8e42dae79597","system_id":"levelo_inurba_marseille","lat":43.24177,"lon":5.39727,"is_reserved":false,"is_disabled":false,"rental_uris":{"android":"levelo://app?vid=6afec774-c3c3-4ec5-9192-8e42dae79597","ios":"levelo://app?vid=6afec774-c3c3-4ec5-9192-8e42dae79597"},"vehicle_type_id":"4","last_reported":1729764609,"current_range_meters":7200,"station_id":"ce4bhn12rcd13ifvqgpg","pricing_plan_id":"cebpf4jnsgd1na2vs0mg"},{"bike_id":"807e98e3-c05c-42d0-b77c-7c8989c5bdc4","system_id":"levelo_inurba_marseille","lat":43.32474,"lon":5.36567,"is_reserved":false,"is_disabled":false,"rental_uris":{"android":"levelo://app?vid=807e98e3-c05c-42d0-b77c-7c8989c5bdc4","ios":"levelo://app?vid=807e98e3-c05c-42d0-b77c-7c8989c5bdc4"},"vehicle_type_id":"4","last_reported":1729764609,"current_range_meters":39200,"station_id":"ce4bhs12rcd13ifvqhvg","pricing_plan_id":"cebpf4jnsgd1na2vs0mg"},{"bike_id":"4e5e4355-30f3-4aa2-a0ba-1b9175c7f0bb","system_id":"levelo_inurba_marseille","lat":43.33744,"lon":5.37438,"is_reserved":false,"is_disabled":false,"rental_uris":{"android":"levelo://app?vid=4e5e4355-30f3-4aa2-a0ba-1b9175c7f0bb","ios":"levelo://app?vid=4e5e4355-30f3-4aa2-a0ba-1b9175c7f0bb"},"vehicle_type_id":"4","last_reported":1729764609,"current_range_meters":36800,"station_id":"","pricing_plan_id":"cebpf4jnsgd1na2vs0mg"},{"bike_id":"dc42b281-a4e1-4b29-8e71-8ced69fc94fe","system_id":"levelo_inurba_marseille","lat":43.2985,"lon":5.3975,"is_reserved":false,"is_disabled":false,"rental_uris":{"android":"levelo://app?vid=dc42b281-a4e1-4b29-8e71-8ced69fc94fe","ios":"levelo://app?vid=dc42b281-a4e1-4b29-8e71-8ced69fc94fe"},"vehicle_type_id":"4","last_reported":1729764609,"current_range_meters":12800,"station_id":"ce4bh0h2rcd13ifvqd50","pricing_plan_id":"cebpf4jnsgd1na2vs0mg"},{"bike_id":"d75bec2a-e1d3-491e-90ca-e38a5d8adcf3","system_id":"levelo_inurba_marseille","lat":43.23153,"lon":5.43725,"is_reserved":false,"is_disabled":false,"rental_uris":{"android":"levelo://app?vid=d75bec2a-e1d3-491e-90ca-e38a5d8adcf3","ios":"levelo://app?vid=d75bec2a-e1d3-491e-90ca-e38a5d8adcf3"},"vehicle_type_id":"4","last_reported":1729764609,"current_range_meters":26800,"station_id":"ce4bhmp2rcd13ifvqgog","pricing_plan_id":"cebpf4jnsgd1na2vs0mg"},{"bike_id":"b43f2f12-8bdc-43d8-b6a2-d921ac3bafd3","system_id":"levelo_inurba_marseille","lat":43.32043,"lon":5.41554,"is_reserved":false,"is_disabled":false,"rental_uris":{"android":"levelo://app?vid=b43f2f12-8bdc-43d8-b6a2-d921ac3bafd3","ios":"levelo://app?vid=b43f2f12-8bdc-43d8-b6a2-d921ac3bafd3"},"vehicle_type_id":"4","last_reported":1729764609,"current_range_meters":36800,"station_id":"ce4bhq92rcd13ifvqhkg","pricing_plan_id":"cebpf4jnsgd1na2vs0mg"},{"bike_id":"46e5a48f-4501-4e4e-bfa0-f17a7aed52b9","system_id":"levelo_inurba_marseille","lat":43.33602,"lon":5.4103,"is_reserved":false,"is_disabled":false,"rental_uris":{"android":"levelo://app?vid=46e5a48f-4501-4e4e-bfa0-f17a7aed52b9","ios":"levelo://app?vid=46e5a48f-4501-4e4e-bfa0-f17a7aed52b9"},"vehicle_type_id":"4","last_reported":1729764609,"current_range_meters":24800,"station_id":"ce4bhqh2rcd13ifvqhmg","pricing_plan_id":"cebpf4jnsgd1na2vs0mg"},{"bike_id":"41f2c3bf-1a98-4826-89bc-642d1654be7f","system_id":"levelo_inurba_marseille","lat":43.29207,"lon":5.36057,"is_reserved":false,"is_disabled":false,"rental_uris":{"android":"levelo://app?vid=41f2c3bf-1a98-4826-89bc-642d1654be7f","ios":"levelo://app?vid=41f2c3bf-1a98-4826-89bc-642d1654be7f"},"vehicle_type_id":"4","last_reported":1729764609,"current_range_meters":38800,"station_id":"ce4bhbh2rcd13ifvqeqg","pricing_plan_id":"cebpf4jnsgd1na2vs0mg"},{"bike_id":"5ee5278b-8c8a-42d0-874a-1f9c7bb2b973","system_id":"levelo_inurba_marseille","lat":43.2407,"lon":5.37762,"is_reserved":false,"is_disabled":false,"rental_uris":{"android":"levelo://app?vid=5ee5278b-8c8a-42d0-874a-1f9c7bb2b973","ios":"levelo://app?vid=5ee5278b-8c8a-42d0-874a-1f9c7bb2b973"},"vehicle_type_id":"4","last_reported":1729764609,"current_range_meters":35200,"station_id":"ce4bhnp2rcd13ifvqgvg","pricing_plan_id":"cebpf4jnsgd1na2vs0mg"},{"bike_id":"0bc3f204-be97-48e8-8e53-28f4c3867df3","system_id":"levelo_inurba_marseille","lat":43.30456,"lon":5.38209,"is_reserved":false,"is_disabled":false,"rental_uris":{"android":"levelo://app?vid=0bc3f204-be97-48e8-8e53-28f4c3867df3","ios":"levelo://app?vid=0bc3f204-be97-48e8-8e53-28f4c3867df3"},"vehicle_type_id":"4","last_reported":1729764609,"current_range_meters":32800,"station_id":"ce4bgkh2rcd13ifvqbk0","pricing_plan_id":"cebpf4jnsgd1na2vs0mg"},{"bike_id":"3a520ac7-e9d2-47b3-9a90-ac5d889cf7c3","system_id":"levelo_inurba_marseille","lat":43.29024,"lon":5.37561,"is_reserved":false,"is_disabled":false,"rental_uris":{"android":"levelo://app?vid=3a520ac7-e9d2-47b3-9a90-ac5d889cf7c3","ios":"levelo://app?vid=3a520ac7-e9d2-47b3-9a90-ac5d889cf7c3"},"vehicle_type_id":"4","last_reported":1729764609,"current_range_meters":38800,"station_id":"ce4bh692rcd13ifvqe90","pricing_plan_id":"cebpf4jnsgd1na2vs0mg"},{"bike_id":"65385759-cd4a-4c00-a53e-f08c321bb5a1","system_id":"levelo_inurba_marseille","lat":43.26554,"lon":5.37285,"is_reserved":false,"is_disabled":false,"rental_uris":{"android":"levelo://app?vid=65385759-cd4a-4c00-a53e-f08c321bb5a1","ios":"levelo://app?vid=65385759-cd4a-4c00-a53e-f08c321bb5a1"},"vehicle_type_id":"4","last_reported":1729764609,"current_range_meters":16000,"station_id":"ce4bhg12rcd13ifvqf70","pricing_plan_id":"cebpf4jnsgd1na2vs0mg"},{"bike_id":"a0973f36-fe62-44a2-bc5f-3c196aeb2033","system_id":"levelo_inurba_marseille","lat":43.2315,"lon":5.43719,"is_reserved":false,"is_disabled":false,"rental_uris":{"android":"levelo://app?vid=a0973f36-fe62-44a2-bc5f-3c196aeb2033","ios":"levelo://app?vid=a0973f36-fe62-44a2-bc5f-3c196aeb2033"},"vehicle_type_id":"4","last_reported":1729764609,"current_range_meters":25200,"station_id":"ce4bhmp2rcd13ifvqgog","pricing_plan_id":"cebpf4jnsgd1na2vs0mg"},{"bike_id":"28ff410d-1399-4b82-946d-cad2c8e724e6","system_id":"levelo_inurba_marseille","lat":43.30159,"lon":5.38085,"is_reserved":false,"is_disabled":false,"rental_uris":{"android":"levelo://app?vid=28ff410d-1399-4b82-946d-cad2c8e724e6","ios":"levelo://app?vid=28ff410d-1399-4b82-946d-cad2c8e724e6"},"vehicle_type_id":"4","last_reported":1729764609,"current_range_meters":27600,"station_id":"ce4bgjp2rcd13ifvqbh0","pricing_plan_id":"cebpf4jnsgd1na2vs0mg"},{"bike_id":"54e22695-c48b-40b2-8aa7-e4631e5eb99c","system_id":"levelo_inurba_marseille","lat":43.25725,"lon":5.41105,"is_reserved":false,"is_disabled":false,"rental_uris":{"android":"levelo://app?vid=54e22695-c48b-40b2-8aa7-e4631e5eb99c","ios":"levelo://app?vid=54e22695-c48b-40b2-8aa7-e4631e5eb99c"},"vehicle_type_id":"4","last_reported":1729764609,"current_range_meters":38800,"station_id":"ce4bhkp2rcd13ifvqgd0","pricing_plan_id":"cebpf4jnsgd1na2vs0mg"},{"bike_id":"e280445f-e3ac-4517-9662-69f65e9f768d","system_id":"levelo_inurba_marseille","lat":43.29025,"lon":5.38643,"is_reserved":false,"is_disabled":false,"rental_uris":{"android":"levelo://app?vid=e280445f-e3ac-4517-9662-69f65e9f768d","ios":"levelo://app?vid=e280445f-e3ac-4517-9662-69f65e9f768d"},"vehicle_type_id":"4","last_reported":1729764609,"current_range_meters":7200,"station_id":"ce4bh4p2rcd13ifvqe0g","pricing_plan_id":"cebpf4jnsgd1na2vs0mg"},{"bike_id":"f7e4c143-7f5a-442e-97f4-37ff14a78ff4","system_id":"levelo_inurba_marseille","lat":43.27983,"lon":5.40033,"is_reserved":false,"is_disabled":false,"rental_uris":{"android":"levelo://app?vid=f7e4c143-7f5a-442e-97f4-37ff14a78ff4","ios":"levelo://app?vid=f7e4c143-7f5a-442e-97f4-37ff14a78ff4"},"vehicle_type_id":"4","last_reported":1729764609,"current_range_meters":38800,"station_id":"ce4bho92rcd13ifvqh4g","pricing_plan_id":"cebpf4jnsgd1na2vs0mg"},{"bike_id":"055026e7-aca3-466f-b7b0-f1dd313c923a","system_id":"levelo_inurba_marseille","lat":43.32474,"lon":5.36574,"is_reserved":false,"is_disabled":false,"rental_uris":{"android":"levelo://app?vid=055026e7-aca3-466f-b7b0-f1dd313c923a","ios":"levelo://app?vid=055026e7-aca3-466f-b7b0-f1dd313c923a"},"vehicle_type_id":"4","last_reported":1729764609,"current_range_meters":28400,"station_id":"ce4bhs12rcd13ifvqhvg","pricing_plan_id":"cebpf4jnsgd1na2vs0mg"},