{"last_updated":1742995214,"ttl":60,"version":"2.2","data":{"bikes":[{"bike_id":"90096fed-3130-4405-8646-47e5c65d7602","system_id":"levelo_inurba_marseille","lat":43.282623,"lon":5.350534,"is_reserved":false,"is_disabled":false,"rental_uris":{"android":"levelo://app?vid=90096fed-3130-4405-8646-47e5c65d7602","ios":"levelo://app?vid=90096fed-3130-4405-8646-47e5c65d7602"},"vehicle_type_id":"4","last_reported":1742995214,"current_range_meters":2800,"station_id":"ce4bhbp2rcd13ifvqerg","pricing_plan_id":"cebpf4jnsgd1na2vs0mg"},{"bike_id":"ba39c26e-5d96-45e5-8aa8-7b89dfd11b9a","system_id":"levelo_inurba_marseille","lat":43.28949,"lon":5.3964,"is_reserved":false,"is_disabled":false,"rental_uris":{"android":"levelo://app?vid=ba39c26e-5d96-45e5-8aa8-7b89dfd11b9a","ios":"levelo://app?vid=ba39c26e-5d96-45e5-8aa8-7b89dfd11b9a"},"vehicle_type_id":"4","last_reported":1742995214,"current_range_meters":2800,"station_id":"ce4bh3h2rcd13ifvqdn0","pricing_plan_id":"cebpf4jnsgd1na2vs0mg"},{"bike_id":"02c642d0-bab7-4205-b1fb-4419adeb4af1","system_id":"levelo_inurba_marseille","lat":43.29042,"lon":5.356,"is_reserved":false,"is_disabled":true,"rental_uris":{"android":"levelo://app?vid=02c642d0-bab7-4205-b1fb-4419adeb4af1","ios":"levelo://app?vid=02c642d0-bab7-4205-b1fb-4419adeb4af1"},"vehicle_type_id":"4","last_reported":1742995214,"current_range_meters":3200,"station_id":"","pricing_plan_id":"cebpf4jnsgd1na2vs0mg"},{"bike_id":"baf54f68-2ee3-4016-951c-6d2104656a49","system_id":"levelo_inurba_marseille","lat":43.26553,"lon":5.37294,"is_reserved":false,"is_disabled":false,"rental_uris":{"android":"levelo://app?vid=baf54f68-2ee3-4016-951c-6d2104656a49","ios":"levelo://app?vid=baf54f68-2ee3-4016-951c-6d2104656a49"},"vehicle_type_id":"4","last_reported":1742995214,"current_range_meters":3200,"station_id":"ce4bhg12rcd13ifvqf70","pricing_plan_id":"cebpf4jnsgd1na2vs0mg"},{"bike_id":"28131e16-6e78-4c2b-853f-1b50e00907b0","system_id":"levelo_inurba_marseille","lat":43.2766,"lon":5.38889,"is_reserved":false,"is_disabled":false,"rental_uris":{"android":"levelo://app?vid=28131e16-6e78-4c2b-853f-1b50e00907b0","ios":"levelo://app?vid=28131e16-6e78-4c2b-853f-1b50e00907b0"},"vehicle_type_id":"4","last_reported":1742995214,"current_range_meters":3200,"station_id":"ce4bhi12rcd13ifvqfo0","pricing_plan_id":"cebpf4jnsgd1na2vs0mg"},{"bike_id":"5c6209af-35b2-48a7-9728-07c71d29b202","system_id":"levelo_inurba_marseille","lat":43.28419,"lon":5.34978,"is_reserved":false,"is_disabled":false,"rental_uris":{"android":"levelo://app?vid=5c6209af-35b2-48a7-9728-07c71d29b202","ios":"levelo://app?vid=5c6209af-35b2-48a7-9728-07c71d29b202"},"vehicle_type_id":"4","last_reported":1742995214,"current_range_meters":3600,"station_id":"ce4bhbh2rcd13ifvqepg","pricing_plan_id":"cebpf4jnsgd1na2vs0mg"},{"bike_id":"d21547da-e964-40b3-9b9e-62acb284053f","system_id":"levelo_inurba_marseille","lat":43.29069,"lon":5.37163,"is_reserved":false,"is_disabled":false,"rental_uris":{"android":"levelo://app?vid=d21547da-e964-40b3-9b9e-62acb284053f","ios":"levelo://app?vid=d21547da-e964-40b3-9b9e-62acb284053f"},"vehicle_type_id":"4","last_reported":1742995214,"current_range_meters":3600,"station_id":"ce4bh5p2rcd13ifvqe4g","pricing_plan_id":"cebpf4jnsgd1na2vs0mg"},{"bike_id":"aaedf040-ede8-4cb4-9b04-744d75439b79","system_id":"levelo_inurba_marseille","lat":43.2768,"lon":5.38873,"is_reserved":false,"is_disabled":false,"rental_uris":{"android":"levelo://app?vid=aaedf040-ede8-4cb4-9b04-744d75439b79","ios":"levelo://app?vid=aaedf040-ede8-4cb4-9b04-744d75439b79"},"vehicle_type_id":"4","last_reported":1742995214,"current_range_meters":3600,"station_id":"ce4bhi12rcd13ifvqfo0","pricing_plan_id":"cebpf4jnsgd1na2vs0mg"},{"bike_id":"48fb31a8-b84c-4381-8d46-377e59e64c65","system_id":"levelo_inurba_marseille","lat":43.3135,"lon":5.3793,"is_reserved":false,"is_disabled":true,"rental_uris":{"android":"levelo://app?vid=48fb31a8-b84c-4381-8d46-377e59e64c65","ios":"levelo://app?vid=48fb31a8-b84c-4381-8d46-377e59e64c65"},"vehicle_type_id":"4","last_reported":1742995214,"current_range_meters":3600,"station_id":"","pricing_plan_id":"cebpf4jnsgd1na2vs0mg"},{"bike_id":"98544f89-0283-4627-b8c4-86da41cae188","system_id":"levelo_inurba_marseille","lat":43.29025,"lon":5.38643,"is_reserved":false,"is_disabled":false,"rental_uris":{"android":"levelo://app?vid=98544f89-0283-4627-b8c4-86da41cae188","ios":"levelo://app?vid=98544f89-0283-4627-b8c4-86da41cae188"},"vehicle_type_id":"4","last_reported":1742995214,"current_range_meters":3600,"station_id":"ce4bh4p2rcd13ifvqe0g","pricing_plan_id":"cebpf4jnsgd1na2vs0mg"},{"bike_id":"9ddf629c-17e7-4a11-8070-54ed820444dc","system_id":"levelo_inurba_marseille","lat":43.23155,"lon":5.43712,"is_reserved":false,"is_disabled":false,"rental_uris":{"android":"levelo://app?vid=9ddf629c-17e7-4a11-8070-54ed820444dc","ios":"levelo://app?vid=9ddf629c-17e7-4a11-8070-54ed820444dc"},"vehicle_type_id":"4","last_reported":1742995214,"current_range_meters":4000,"station_id":"ce4bhmp2rcd13ifvqgog","pricing_plan_id":"cebpf4jnsgd1na2vs0mg"},{"bike_id":"0be2a47e-9f8b-4e2b-b711-0fd4004076bb","system_id":"levelo_inurba_marseille","lat":43.262,"lon":5.37459,"is_reserved":false,"is_disabled":false,"rental_uris":{"android":"levelo://app?vid=0be2a47e-9f8b-4e2b-b711-0fd4004076bb","ios":"levelo://app?vid=0be2a47e-9f8b-4e2b-b711-0fd4004076bb"},"vehicle_type_id":"4","last_reported":1742995214,"current_range_meters":4400,"station_id":"ce4bhgp2rcd13ifvqfc0","pricing_plan_id":"cebpf4jnsgd1na2vs0mg"},{"bike_id":"1daf2de6-703d-45be-ae24-796c4be5fe7c","system_id":"levelo_inurba_marseille","lat":43.30204,"lon":5.39482,"is_reserved":false,"is_disabled":true,"rental_uris":{"android":"levelo://app?vid=1daf2de6-703d-45be-ae24-796c4be5fe7c","ios":"levelo://app?vid=1daf2de6-703d-45be-ae24-796c4be5fe7c"},"vehicle_type_id":"4","last_reported":1742995214,"current_range_meters":4000,"station_id":"ce4bh0p2rcd13ifvqd70","pricing_plan_id":"cebpf4jnsgd1na2vs0mg"},{"bike_id":"cc0756bc-a25a-41c4-95a1-6c61b1690789","system_id":"levelo_inurba_marseille","lat":43.2319,"lon":5.35552,"is_reserved":false,"is_disabled":false,"rental_uris":{"android":"levelo://app?vid=cc0756bc-a25a-41c4-95a1-6c61b1690789","ios":"levelo://app?vid=cc0756bc-a25a-41c4-95a1-6c61b1690789"},"vehicle_type_id":"4","last_reported":1742995214,"current_range_meters":4000,"station_id":"ce4bhu92rcd13ifvqi70","pricing_plan_id":"cebpf4jnsgd1na2vs0mg"},{"bike_id":"e7aa4695-6bd5-414c-becd-311f3f611eb1","system_id":"levelo_inurba_marseille","lat":43.28974,"lon":5.37844,"is_reserved":false,"is_disabled":true,"rental_uris":{"android":"levelo://app?vid=e7aa4695-6bd5-414c-becd-311f3f611eb1","ios":"levelo://app?vid=e7aa4695-6bd5-414c-becd-311f3f611eb1"},"vehicle_type_id":"4","last_reported":1742995214,"current_range_meters":4000,"station_id":"ce4bh9p2rcd13ifvqed0","pricing_plan_id":"cebpf4jnsgd1na2vs0mg"},{"bike_id":"0730edc8-5fc9-4572-8593-a12a3caf01f7","system_id":"levelo_inurba_marseille","lat":43.29934,"lon":5.36548,"is_reserved":false,"is_disabled":false,"rental_uris":{"android":"levelo://app?vid=0730edc8-5fc9-4572-8593-a12a3caf01f7","ios":"levelo://app?vid=0730edc8-5fc9-4572-8593-a12a3caf01f7"},"vehicle_type_id":"4","last_reported":1742995214,"current_range_meters":4000,"station_id":"ce4bgm92rcd13ifvqbr0","pricing_plan_id":"cebpf4jnsgd1na2vs0mg"},{"bike_id":"49a77b57-0e61-4a5d-bd8d-3f7e3a8cf2fb","system_id":"levelo_inurba_marseille","lat":43.27422,"lon":5.39424,"is_reserved":false,"is_disabled":true,"rental_uris":{"android":"levelo://app?vid=49a77b57-0e61-4a5d-bd8d-3f7e3a8cf2fb","ios":"levelo://app?vid=49a77b57-0e61-4a5d-bd8d-3f7e3a8cf2fb"},"vehicle_type_id":"4","last_reported":1742995214,"current_range_meters":4400,"station_id":"ce4bhdp2rcd13ifvqf20","pricing_plan_id":"cebpf4jnsgd1na2vs0mg"},{"bike_id":"a0d4632a-7a87-4031-aeeb-061ca0feaca6","system_id":"levelo_inurba_marseille","lat":43.23983,"lon":5.36632,"is_reserved":false,"is_disabled":false,"rental_uris":{"android":"levelo://app?vid=a0d4632a-7a87-4031-aeeb-061ca0feaca6","ios":"levelo://app?vid=a0d4632a-7a87-4031-aeeb-061ca0feaca6"},"vehicle_type_id":"4","last_reported":1742995214,"current_range_meters":4400,"station_id":"ce4bhi12rcd13ifvqfp0","pricing_plan_id":"cebpf4jnsgd1na2vs0mg"},{"bike_id":"66f69882-9bc0-4f69-af42-1e4faa3ed134","system_id":"levelo_inurba_marseille","lat":43.29908,"lon":5.43665,"is_reserved":false,"is_disabled":false,"rental_uris":{"android":"levelo://app?vid=66f69882-9bc0-4f69-af42-1e4faa3ed134","ios":"levelo://app?vid=66f69882-9bc0-4f69-af42-1e4faa3ed134"},"vehicle_type_id":"4","last_reported":1742995214,"current_range_meters":4400,"station_id":"ce4bhpp2rcd13ifvqhfg","pricing_plan_id":"cebpf4jnsgd1na2vs0mg"},{"bike_id":"6e38dec4-9f97-48ce-aeaf-8ff8c2a020e9","system_id":"levelo_inurba_marseille","lat":43.25936,"lon":5.40925,"is_reserved":false,"is_disabled":false,"rental_uris":{"android":"levelo://app?vid=6e38dec4-9f97-48ce-aeaf-8ff8c2a020e9","ios":"levelo://app?vid=6e38dec4-9f97-48ce-aeaf-8ff8c2a020e9"},"vehicle_type_id":"4","last_reported":1742995214,"current_range_meters":4400,"station_id":"ce4bhm92rcd13ifvqglg","pricing_plan_id":"cebpf4jnsgd1na2vs0mg"},{"bike_id":"b54650e8-325a-4fc5-97c6-ce7139f534bc","system_id":"levelo_inurba_marseille","lat":43.25823,"lon":5.394431,"is_reserved":false,"is_disabled":false,"rental_uris":{"android":"levelo://app?vid=b54650e8-325a-4fc5-97c6-ce7139f534bc","ios":"levelo://app?vid=b54650e8-325a-4fc5-97c6-ce7139f534bc"},"vehicle_type_id":"4","last_reported":1742995214,"current_range_meters":4800,"station_id":"ce4bhip2rcd13ifvqft0","pricing_plan_id":"cebpf4jnsgd1na2vs0mg"},{"bike_id":"e3162120-725a-4663-8148-e797ab7d76d4","system_id":"levelo_inurba_marseille","lat":43.3043,"lon":5.37014,"is_reserved":false,"is_disabled":false,"rental_uris":{"android":"levelo://app?vid=e3162120-725a-4663-8148-e797ab7d76d4","ios":"levelo://app?vid=e3162120-725a-4663-8148-e797ab7d76d4"},"vehicle_type_id":"4","last_reported":1742995214,"current_range_meters":4800,"station_id":"","pricing_plan_id":"cebpf4jnsgd1na2vs0mg"},{"bike_id":"85f740ce-b25c-4f01-a4d0-1cb1211ec32c","system_id":"levelo_inurba_marseille","lat":43.2319,"lon":5.39981,"is_reserved":false,"is_disabled":false,"rental_uris":{"android":"levelo://app?vid=85f740ce-b25c-4f01-a4d0-1cb1211ec32c","ios":"levelo://app?vid=85f740ce-b25c-4f01-a4d0-1cb1211ec32c"},"vehicle_type_id":"4","last_reported":1742995214,"current_range_meters":4800,"station_id":"ce4bhn12rcd13ifvqgqg","pricing_plan_id":"cebpf4jnsgd1na2vs0mg"},{"bike_id":"c2e48770-22ba-4e30-9c9b-c7b88a8e7b33","system_id":"levelo_inurba_marseille","lat":43.30618,"lon":5.37231,"is_reserved":false,"is_disabled":false,"rental_uris":{"android":"levelo://app?vid=c2e48770-22ba-4e30-9c9b-c7b88a8e7b33","ios":"levelo://app?vid=c2e48770-22ba-4e30-9c9b-c7b88a8e7b33"},"vehicle_type_id":"4","last_reported":1742995214,"current_range_meters":4800,"station_id":"ce4bgqh2rcd13ifvqc4g","pricing_plan_id":"cebpf4jnsgd1na2vs0mg"},{"bike_id":"2f3c8cf0-851f-4952-b4cf-5699b414ee53","system_id":"levelo_inurba_marseille","lat":43.285331,"lon":5.351337,"is_reserved":false,"is_disabled":false,"rental_uris":{"android":"levelo://app?vid=2f3c8cf0-851f-4952-b4cf-5699b414ee53","ios":"levelo://app?vid=2f3c8cf0-851f-4952-b4cf-5699b414ee53"},"vehicle_type_id":"4","last_reported":1742995214,"current_range_meters":4800,"station_id":"ce4bhch2rcd13ifvqeug","pricing_plan_id":"cebpf4jnsgd1na2vs0mg"},{"bike_id":"eadd4d04-6528-4184-a926-274168ff25fa","system_id":"levelo_inurba_marseille","lat":43.29532,"lon":5.38544,"is_reserved":false,"is_disabled":false,"rental_uris":{"android":"levelo://app?vid=eadd4d04-6528-4184-a926-274168ff25fa","ios":"levelo://app?vid=eadd4d04-6528-4184-a926-274168ff25fa"},"vehicle_type_id":"4","last_reported":1742995214,"current_range_meters":5600,"station_id":"ce4bgih2rcd13ifvqba0","pricing_plan_id":"cebpf4jnsgd1na2vs0mg"},{"bike_id":"4ec84361-3e14-45a3-a381-d82bb9b52034","system_id":"levelo_inurba_marseille","lat":43.29564,"lon":5.39991,"is_reserved":false,"is_disabled":false,"rental_uris":{"android":"levelo://app?vid=4ec84361-3e14-45a3-a381-d82bb9b52034","ios":"levelo://app?vid=4ec84361-3e14-45a3-a381-d82bb9b52034"},"vehicle_type_id":"4","last_reported":1742995214,"current_range_meters":4800,"station_id":"ce4bh312rcd13ifvqdj0","pricing_plan_id":"cebpf4jnsgd1na2vs0mg"},{"bike_id":"7d354833-0cc9-49e9-b699-c8053c5b4d7a","system_id":"levelo_inurba_marseille","lat":43.25709,"lon":5.41128,"is_reserved":false,"is_disabled":false,"rental_uris":{"android":"levelo://app?vid=7d354833-0cc9-49e9-b699-c8053c5b4d7a","ios":"levelo://app?vid=7d354833-0cc9-49e9-b699-c8053c5b4d7a"},"vehicle_type_id":"4","last_reported":1742995214,"current_range_meters":5600,"station_id":"ce4bhkp2rcd13ifvqgd0","pricing_plan_id":"cebpf4jnsgd1na2vs0mg"},{"bike_id":"2a99ecb7-4bf0-4c00-89bb-11ff019b8a6d","system_id":"levelo_inurba_marseille","lat":43.22923,"lon":5.35393,"is_reserved":false,"is_disabled":false,"rental_uris":{"android":"levelo://app?vid=2a99ecb7-4bf0-4c00-89bb-11ff019b8a6d","ios":"levelo://app?vid=2a99ecb7-4bf0-4c00-89bb-11ff019b8a6d"},"vehicle_type_id":"4","last_reported":1742995214,"current_range_meters":6000,"station_id":"cpo3532slgdg3j2ikp40","pricing_plan_id":"cebpf4jnsgd1na2vs0mg"},{"bike_id":"d9f7d8be-9425-4103-9342-1eabe2318a05","system_id":"levelo_inurba_marseille","lat":43.26677,"lon":5.38268,"is_reserved":false,"is_disabled":false,"rental_uris":{"android":"levelo://app?vid=d9f7d8be-9425-4103-9342-1eabe2318a05","ios":"levelo://app?vid=d9f7d8be-9425-4103-9342-1eabe2318a05"},"vehicle_type_id":"4","last_reported":1742995214,"current_range_meters":6000,"station_id":"ce4bhg92rcd13ifvqf90","pricing_plan_id":"cebpf4jnsgd1na2vs0mg"},{"bike_id":"0c9cada4-2764-4013-a528-15089818cb84","system_id":"levelo_inurba_marseille","lat":43.27726,"lon":5.41111,"is_reserved":false,"is_disabled":false,"rental_uris":{"android":"levelo://app?vid=0c9cada4-2764-4013-a528-15089818cb84","ios":"levelo://app?vid=0c9cada4-2764-4013-a528-15089818cb84"},"vehicle_type_id":"4","last_reported":1742995214,"current_range_meters":6000,"station_id":"","pricing_plan_id":"cebpf4jnsgd1na2vs0mg"},{"bike_id":"c27804bd-f22b-4f5e-b0b6-7240b2cee169","system_id":"levelo_inurba_marseille","lat":43.2794,"lon":5.41047,"is_reserved":false,"is_disabled":false,"rental_uris":{"android":"levelo://app?vid=c27804bd-f22b-4f5e-b0b6-7240b2cee169","ios":"levelo://app?vid=c27804bd-f22b-4f5e-b0b6-7240b2cee169"},"vehicle_type_id":"4","last_reported":1742995214,"current_range_meters":6000,"station_id":"ce4bhnp2rcd13ifvqh0g","pricing_plan_id":"cebpf4jnsgd1na2vs0mg"},{"bike_id":"6c7b4d04-a49b-4e1a-886a-6c7647783391","system_id":"levelo_inurba_marseille","lat":43.29232,"lon":5.36074,"is_reserved":false,"is_disabled":false,"rental_uris":{"android":"levelo://app?vid=6c7b4d04-a49b-4e1a-886a-6c7647783391","ios":"levelo://app?vid=6c7b4d04-a49b-4e1a-886a-6c7647783391"},"vehicle_type_id":"4","last_reported":1742995214,"current_range_meters":6000,"station_id":"ce4bhbh2rcd13ifvqeqg","pricing_plan_id":"cebpf4jnsgd1na2vs0mg"},{"bike_id":"ffeadf63-0af5-48f4-a71b-b77587538b1b","system_id":"levelo_inurba_marseille","lat":43.26209,"lon":5.37447,"is_reserved":false,"is_disabled":false,"rental_uris":{"android":"levelo://app?vid=ffeadf63-0af5-48f4-a71b-b77587538b1b","ios":"levelo://app?vid=ffeadf63-0af5-48f4-a71b-b77587538b1b"},"vehicle_type_id":"4","last_reported":1742995214,"current_range_meters":6000,"station_id":"ce4bhgp2rcd13ifvqfc0","pricing_plan_id":"cebpf4jnsgd1na2vs0mg"},{"bike_id":"034dd7e3-eb5f-492a-8c0f-ce934c74b1d2","system_id":"levelo_inurba_marseille","lat":43.3091,"lon":5.36849,"is_reserved":false,"is_disabled":false,"rental_uris":{"android":"levelo://app?vid=034dd7e3-eb5f-492a-8c0f-ce934c74b1d2","ios":"levelo://app?vid=034dd7e3-eb5f-492a-8c0f-ce934c74b1d2"},"vehicle_type_id":"4","last_reported":1742995214,"current_range_meters":6000,"station_id":"ce4bgn92rcd13ifvqbvg","pricing_plan_id":"cebpf4jnsgd1na2vs0mg"},{"bike_id":"661ad638-f20a-4099-990d-7e316fc20bf4","system_id":"levelo_inurba_marseille","lat":43.269379,"lon":5.402539,"is_reserved":false,"is_disabled":false,"rental_uris":{"android":"levelo://app?vid=661ad638-f20a-4099-990d-7e316fc20bf4","ios":"levelo://app?vid=661ad638-f20a-4099-990d-7e316fc20bf4"},"vehicle_type_id":"4","last_reported":1742995214,"current_range_meters":6000,"station_id":"cjm6bp8fraef2m0cb0m0","pricing_plan_id":"cebpf4jnsgd1na2vs0mg"},{"bike_id":"2f3e2a92-1301-4a27-8eaa-7b0ea525530e","system_id":"levelo_inurba_marseille","lat":43.31718,"lon":5.43714,"is_reserved":false,"is_disabled":false,"rental_uris":{"android":"levelo://app?vid=2f3e2a92-1301-4a27-8eaa-7b0ea525530e","ios":"levelo://app?vid=2f3e2a92-1301-4a27-8eaa-7b0ea525530e"},"vehicle_type_id":"4","last_reported":1742995214,"current_range_meters":6400,"station_id":"ce4bhp92rcd13ifvqhcg","pricing_plan_id":"cebpf4jnsgd1na2vs0mg"},{"bike_id":"1b74470a-fd62-4c71-b256-f4f03481e8c5","system_id":"levelo_inurba_marseille","lat":43.28614,"lon":5.35109,"is_reserved":false,"is_disabled":false,"rental_uris":{"android":"levelo://app?vid=1b74470a-fd62-4c71-b256-f4f03481e8c5","ios":"levelo://app?vid=1b74470a-fd62-4c71-b256-f4f03481e8c5"},"vehicle_type_id":"4","last_reported":1742995214,"current_range_meters":6400,"station_id":"ce4bhch2rcd13ifvqeug","pricing_plan_id":"cebpf4jnsgd1na2vs0mg"},{"bike_id":"ae64d049-3c54-4b63-a552-b1e07d06f548","system_id":"levelo_inurba_marseille","lat":43.25725,"lon":5.41114,"is_reserved":false,"is_disabled":false,"rental_uris":{"android":"levelo://app?vid=ae64d049-3c54-4b63-a552-b1e07d06f548","ios":"levelo://app?vid=ae64d049-3c54-4b63-a552-b1e07d06f548"},"vehicle_type_id":"4","last_reported":1742995214,"current_range_meters":6400,"station_id":"ce4bho12rcd13ifvqh1g","pricing_plan_id":"cebpf4jnsgd1na2vs0mg"},{"bike_id":"5723ef4f-762a-4ef4-a7d5-4d0d5bdaf819","system_id":"levelo_inurba_marseille","lat":43.25932,"lon":5.4092,"is_reserved":false,"is_disabled":false,"rental_uris":{"android":"levelo://app?vid=5723ef4f-762a-4ef4-a7d5-4d0d5bdaf819","ios":"levelo://app?vid=5723ef4f-762a-4ef4-a7d5-4d0d5bdaf819"},"vehicle_type_id":"4","last_reported":1742995214,"current_range_meters":6400,"station_id":"ce4bhm92rcd13ifvqglg","pricing_plan_id":"cebpf4jnsgd1na2vs0mg"},{"bike_id":"3fd05570-bbd9-42a2-8690-bcabc9299d64","system_id":"levelo_inurba_marseille","lat":43.28721,"lon":5.36101,"is_reserved":false,"is_disabled":false,"rental_uris":{"android":"levelo://app?vid=3fd05570-bbd9-42a2-8690-bcabc9299d64","ios":"levelo://app?vid=3fd05570-bbd9-42a2-8690-bcabc9299d64"},"vehicle_type_id":"4","last_reported":1742995214,"current_range_meters":6400,"station_id":"cki0cbj6b192h4jlfktg","pricing_plan_id":"cebpf4jnsgd1na2vs0mg"},{"bike_id":"6e52aca7-231f-4b5a-aafb-2b87d67b4bcc","system_id":"levelo_inurba_marseille","lat":43.30527,"lon":5.36709,"is_reserved":false,"is_disabled":false,"rental_uris":{"android":"levelo://app?vid=6e52aca7-231f-4b5a-aafb-2b87d67b4bcc","ios":"levelo://app?vid=6e52aca7-231f-4b5a-aafb-2b87d67b4bcc"},"vehicle_type_id":"4","last_reported":1742995214,"current_range_meters":6800,"station_id":"ce4bgrp2rcd13ifvqc9g","pricing_plan_id":"cebpf4jnsgd1na2vs0mg"},{"bike_id":"aa316640-b4e3-46a6-a983-b02f99f14049","system_id":"levelo_inurba_marseille","lat":43.26217,"lon":5.3744,"is_reserved":false,"is_disabled":false,"rental_uris":{"android":"levelo://app?vid=aa316640-b4e3-46a6-a983-b02f99f14049","ios":"levelo://app?vid=aa316640-b4e3-46a6-a983-b02f99f14049"},"vehicle_type_id":"4","last_reported":1742995214,"current_range_meters":6800,"station_id":"ce4bhgp2rcd13ifvqfc0","pricing_plan_id":"cebpf4jnsgd1na2vs0mg"},{"bike_id":"5b62ea6f-032d-435c-a1bf-f6fef2ce9c49","system_id":"levelo_inurba_marseille","lat":43.29573,"lon":5.39986,"is_reserved":false,"is_disabled":false,"rental_uris":{"android":"levelo://app?vid=5b62ea6f-032d-435c-a1bf-f6fef2ce9c49","ios":"levelo://app?vid=5b62ea6f-032d-435c-a1bf-f6fef2ce9c49"},"vehicle_type_id":"4","last_reported":1742995214,"current_range_meters":6800,"station_id":"ce4bh312rcd13ifvqdj0","pricing_plan_id":"cebpf4jnsgd1na2vs0mg"},{"bike_id":"02f216f6-5365-4a64-8ac6-6badd4e8814e","system_id":"levelo_inurba_marseille","lat":43.23968,"lon":5.36626,"is_reserved":false,"is_disabled":false,"rental_uris":{"android":"levelo://app?vid=02f216f6-5365-4a64-8ac6-6badd4e8814e","ios":"levelo://app?vid=02f216f6-5365-4a64-8ac6-6badd4e8814e"},"vehicle_type_id":"4","last_reported":1742995214,"current_range_meters":6800,"station_id":"ce4bhi12rcd13ifvqfp0","pricing_plan_id":"cebpf4jnsgd1na2vs0mg"},{"bike_id":"724ed8e8-2918-4d83-96a9-866364fdcf75","system_id":"levelo_inurba_marseille","lat":43.27361,"lon":5.36246,"is_reserved":false,"is_disabled":false,"rental_uris":{"android":"levelo://app?vid=724ed8e8-2918-4d83-96a9-866364fdcf75","ios":"levelo://app?vid=724ed8e8-2918-4d83-96a9-866364fdcf75"},"vehicle_type_id":"4","last_reported":1742995214,"current_range_meters":6800,"station_id":"ce4bhbh2rcd13ifvqeo0","pricing_plan_id":"cebpf4jnsgd1na2vs0mg"},{"bike_id":"77823725-c761-49bc-902c-64c32b686ae7","system_id":"levelo_inurba_marseille","lat":43.2306,"lon":5.35494,"is_reserved":false,"is_disabled":false,"rental_uris":{"android":"levelo://app?vid=77823725-c761-49bc-902c-64c32b686ae7","ios":"levelo://app?vid=77823725-c761-49bc-902c-64c32b686ae7"},"vehicle_type_id":"4","last_reported":1742995214,"current_range_meters":6800,"station_id":"cpo3342slgdg3j2ifvpg","pricing_plan_id":"cebpf4jnsgd1na2vs0mg"},{"bike_id":"bb8ab43e-d77e-40ca-92f3-39f857d462c7","system_id":"levelo_inurba_marseille","lat":43.29247,"lon":5.36135,"is_reserved":false,"is_disabled":false,"rental_uris":{"android":"levelo://app?vid=bb8ab43e-d77e-40ca-92f3-39f857d462c7","ios":"levelo://app?vid=bb8ab43e-d77e-40ca-92f3-39f857d462c7"},"vehicle_type_id":"4","last_reported":1742995214,"current_range_meters":6800,"station_id":"","pricing_plan_id":"cebpf4jnsgd1na2vs0mg"},{"bike_id":"7e628bd8-f74d-4310-8492-8512d6f315fe","system_id":"levelo_inurba_marseille","lat":43.23193,"lon":5.39997,"is_reserved":false,"is_disabled":false,"rental_uris":{"android":"levelo://app?vid=7e628bd8-f74d-4310-8492-8512d6f315fe","ios":"levelo://app?vid=7e628bd8-f74d-4310-8492-8512d6f315fe"},"vehicle_type_id":"4","last_reported":1742995214,"current_range_meters":6800,"station_id":"ce4bhn12rcd13ifvqgqg","pricing_plan_id":"cebpf4jnsgd1na2vs0mg"},{"bike_id":"5eb0e2f0-8111-4362-8b3d-f072323b11aa","system_id":"levelo_inurba_marseille","lat":43.28606,"lon":5.37045,"is_reserved":false,"is_disabled":false,"rental_uris":{"android":"levelo://app?vid=5eb0e2f0-8111-4362-8b3d-f072323b11aa","ios":"levelo://app?vid=5eb0e2f0-8111-4362-8b3d-f072323b11aa"},"vehicle_type_id":"4","last_reported":1742995214,"current_range_meters":7200,"station_id":"ce4bht12rcd13ifvqi60","pricing_plan_id":"cebpf4jnsgd1na2vs0mg"},{"bike_id":"c34b924b-6e46-4cd3-b28e-3452c8dfc5ef","system_id":"levelo_inurba_marseille","lat":43.29615,"lon":5.3773,"is_reserved":false,"is_disabled":false,"rental_uris":{"android":"levelo://app?vid=c34b924b-6e46-4cd3-b28e-3452c8dfc5ef","ios":"levelo://app?vid=c34b924b-6e46-4cd3-b28e-3452c8dfc5ef"},"vehicle_type_id":"4","last_reported":1742995214,"current_range_meters":7200,"station_id":"ce4bgi92rcd13ifvqb90","pricing_plan_id":"cebpf4jnsgd1na2vs0mg"},{"bike_id":"0d7a1304-87c2-4dc1-b1b3-524ea223182a","system_id":"levelo_inurba_marseille","lat":43.30959,"lon":5.39055,"is_reserved":false,"is_disabled":false,"rental_uris":{"android":"levelo://app?vid=0d7a1304-87c2-4dc1-b1b3-524ea223182a","ios":"levelo://app?vid=0d7a1304-87c2-4dc1-b1b3-524ea223182a"},"vehicle_type_id":"4","last_reported":1742995214,"current_range_meters":7200,"station_id":"ce4bgup2rcd13ifvqco0","pricing_plan_id":"cebpf4jnsgd1na2vs0mg"},{"bike_id":"6633349b-54ae-41b8-88d5-61ec5d012302","system_id":"levelo_inurba_marseille","lat":43.32122,"lon":5.36769,"is_reserved":false,"is_disabled":false,"rental_uris":{"android":"levelo://app?vid=6633349b-54ae-41b8-88d5-61ec5d012302","ios":"levelo://app?vid=6633349b-54ae-41b8-88d5-61ec5d012302"},"vehicle_type_id":"4","last_reported":1742995214,"current_range_meters":7200,"station_id":"ce4bhrh2rcd13ifvqhug","pricing_plan_id":"cebpf4jnsgd1na2vs0mg"},{"bike_id":"92b9c655-2b20-467e-b206-4992ba74e523","system_id":"levelo_inurba_marseille","lat":43.31092,"lon":5.42467,"is_reserved":false,"is_disabled":false,"rental_uris":{"android":"levelo://app?vid=92b9c655-2b20-467e-b206-4992ba74e523","ios":"levelo://app?vid=92b9c655-2b20-467e-b206-4992ba74e523"},"vehicle_type_id":"4","last_reported":1742995214,"current_range_meters":7200,"station_id":"ce4bhp92rcd13ifvqhag","pricing_plan_id":"cebpf4jnsgd1na2vs0mg"},{"bike_id":"70ea548a-e6c4-4697-bc68-f7e9bb29af16","system_id":"levelo_inurba_marseille","lat":43.26956,"lon":5.38635,"is_reserved":false,"is_disabled":false,"rental_uris":{"android":"levelo://app?vid=70ea548a-e6c4-4697-bc68-f7e9bb29af16","ios":"levelo://app?vid=70ea548a-e6c4-4697-bc68-f7e9bb29af16"},"vehicle_type_id":"4","last_reported":1742995214,"current_range_meters":7200,"station_id":"ce4bhh92rcd13ifvqfh0","pricing_plan_id":"cebpf4jnsgd1na2vs0mg"},{"bike_id":"1cc22df2-fffe-4fde-9634-268475adf9c2","system_id":"levelo_inurba_marseille","lat":43.27377,"lon":5.36256,"is_reserved":false,"is_disabled":false,"rental_uris":{"android":"levelo://app?vid=1cc22df2-fffe-4fde-9634-268475adf9c2","ios":"levelo://app?vid=1cc22df2-fffe-4fde-9634-268475adf9c2"},"vehicle_type_id":"4","last_reported":1742995214,"current_range_meters":7200,"station_id":"ce4bhbh2rcd13ifvqeo0","pricing_plan_id":"cebpf4jnsgd1na2vs0mg"},{"bike_id":"16e3790f-41b6-400e-8d88-6751ca433300","system_id":"levelo_inurba_marseille","lat":43.25011,"lon":5.38949,"is_reserved":false,"is_disabled":false,"rental_uris":{"android":"levelo://app?vid=16e3790f-41b6-400e-8d88-6751ca433300","ios":"levelo://app?vid=16e3790f-41b6-400e-8d88-6751ca433300"},"vehicle_type_id":"4","last_reported":1742995214,"current_range_meters":7200,"station_id":"ce4bhgp2rcd13ifvqfd0","pricing_plan_id":"cebpf4jnsgd1na2vs0mg"},{"bike_id":"6a554f5d-3da7-47b2-9b52-5593f151a17d","system_id":"levelo_inurba_marseille","lat":43.2621,"lon":5.37444,"is_reserved":false,"is_disabled":false,"rental_uris":{"android":"levelo://app?vid=6a554f5d-3da7-47b2-9b52-5593f151a17d","ios":"levelo://app?vid=6a554f5d-3da7-47b2-9b52-5593f151a17d"},"vehicle_type_id":"4","last_reported":1742995214,"current_range_meters":7200,"station_id":"ce4bhgp2rcd13ifvqfc0","pricing_plan_id":"cebpf4jnsgd1na2vs0mg"},{"bike_id":"e89bb612-c5c5-457b-9212-9f28624bcb2f","system_id":"levelo_inurba_marseille","lat":43.246559,"lon":5.388922,"is_reserved":false,"is_disabled":false,"rental_uris":{"android":"levelo://app?vid=e89bb612-c5c5-457b-9212-9f28624bcb2f","ios":"levelo://app?vid=e89bb612-c5c5-457b-9212-9f28624bcb2f"},"vehicle_type_id":"4","last_reported":1742995214,"current_range_meters":8000,"station_id":"ce4bhg12rcd13ifvqf60","pricing_plan_id":"cebpf4jnsgd1na2vs0mg"},{"bike_id":"60d9d0c4-c126-4ff0-a265-4e01c412e110","system_id":"levelo_inurba_marseille","lat":43.31486,"lon":5.37318,"is_reserved":false,"is_disabled":false,"rental_uris":{"android":"levelo://app?vid=60d9d0c4-c126-4ff0-a265-4e01c412e110","ios":"levelo://app?vid=60d9d0c4-c126-4ff0-a265-4e01c412e110"},"vehicle_type_id":"4","last_reported":1742995214,"current_range_meters":8000,"station_id":"ce4bgt12rcd13ifvqcd0","pricing_plan_id":"cebpf4jnsgd1na2vs0mg"},{"bike_id":"ab0ceb7a-0b63-4c95-956d-c758c5e5f2c3","system_id":"levelo_inurba_marseille","lat":43.2808,"lon":5.39666,"is_reserved":false,"is_disabled":false,"rental_uris":{"android":"levelo://app?vid=ab0ceb7a-0b63-4c95-956d-c758c5e5f2c3","ios":"levelo://app?vid=ab0ceb7a-0b63-4c95-956d-c758c5e5f2c3"},"vehicle_type_id":"4","last_reported":1742995214,"current_range_meters":8000,"station_id":"ce4bho12rcd13ifvqh2g","pricing_plan_id":"cebpf4jnsgd1na2vs0mg"},{"bike_id":"c5a53012-3ad4-48af-9734-3592df1799d5","system_id":"levelo_inurba_marseille","lat":43.23203,"lon":5.35541,"is_reserved":false,"is_disabled":false,"rental_uris":{"android":"levelo://app?vid=c5a53012-3ad4-48af-9734-3592df1799d5","ios":"levelo://app?vid=c5a53012-3ad4-48af-9734-3592df1799d5"},"vehicle_type_id":"4","last_reported":1742995214,"current_range_meters":8000,"station_id":"ce4bhu92rcd13ifvqi70","pricing_plan_id":"cebpf4jnsgd1na2vs0mg"},{"bike_id":"74406c35-ee35-437d-be26-2d7711378046","system_id":"levelo_inurba_marseille","lat":43.32353,"lon":5.36764,"is_reserved":false,"is_disabled":false,"rental_uris":{"android":"levelo://app?vid=74406c35-ee35-437d-be26-2d7711378046","ios":"levelo://app?vid=74406c35-ee35-437d-be26-2d7711378046"},"vehicle_type_id":"4","last_reported":1742995214,"current_range_meters":8000,"station_id":"ce4bhsh2rcd13ifvqi2g","pricing_plan_id":"cebpf4jnsgd1na2vs0mg"},{"bike_id":"aa794ec4-81a6-42f4-a54e-ca5925ac23e8","system_id":"levelo_inurba_marseille","lat":43.30966,"lon":5.39047,"is_reserved":false,"is_disabled":false,"rental_uris":{"android":"levelo://app?vid=aa794ec4-81a6-42f4-a54e-ca5925ac23e8","ios":"levelo://app?vid=aa794ec4-81a6-42f4-a54e-ca5925ac23e8"},"vehicle_type_id":"4","last_reported":1742995214,"current_range_meters":8000,"station_id":"ce4bgup2rcd13ifvqco0","pricing_plan_id":"cebpf4jnsgd1na2vs0mg"},{"bike_id":"3b2299dc-3d5a-49d7-b548-59cfdf9f0368","system_id":"levelo_inurba_marseille","lat":43.27663,"lon":5.38918,"is_reserved":false,"is_disabled":false,"rental_uris":{"android":"levelo://app?vid=3b2299dc-3d5a-49d7-b548-59cfdf9f0368","ios":"levelo://app?vid=3b2299dc-3d5a-49d7-b548-59cfdf9f0368"},"vehicle_type_id":"4","last_reported":1742995214,"current_range_meters":8000,"station_id":"ce4bhi12rcd13ifvqfo0","pricing_plan_id":"cebpf4jnsgd1na2vs0mg"},{"bike_id":"4cba2b23-61cd-49ec-8f61-827988a3ebc5","system_id":"levelo_inurba_marseille","lat":43.30609,"lon":5.37234,"is_reserved":false,"is_disabled":false,"rental_uris":{"android":"levelo://app?vid=4cba2b23-61cd-49ec-8f61-827988a3ebc5","ios":"levelo://app?vid=4cba2b23-61cd-49ec-8f61-827988a3ebc5"},"vehicle_type_id":"4","last_reported":1742995214,"current_range_meters":8000,"station_id":"ce4bgqh2rcd13ifvqc4g","pricing_plan_id":"cebpf4jnsgd1na2vs0mg"},{"bike_id":"41c128db-806a-4d3b-b38d-bc690dcceabb","system_id":"levelo_inurba_marseille","lat":43.2898,"lon":5.37832,"is_reserved":false,"is_disabled":true,"rental_uris":{"android":"levelo://app?vid=41c128db-806a-4d3b-b38d-bc690dcceabb","ios":"levelo://app?vid=41c128db-806a-4d3b-b38d-bc690dcceabb"},"vehicle_type_id":"4","last_reported":1742995214,"current_range_meters":8400,"station_id":"ce4bh9p2rcd13ifvqed0","pricing_plan_id":"cebpf4jnsgd1na2vs0mg"},{"bike_id":"9cca3ecc-af0e-4ff3-8a2a-94b77cbfebba","system_id":"levelo_inurba_marseille","lat":43.25927,"lon":5.40898,"is_reserved":false,"is_disabled":false,"rental_uris":{"android":"levelo://app?vid=9cca3ecc-af0e-4ff3-8a2a-94b77cbfebba","ios":"levelo://app?vid=9cca3ecc-af0e-4ff3-8a2a-94b77cbfebba"},"vehicle_type_id":"4","last_reported":1742995214,"current_range_meters":8400,"station_id":"ce4bhm92rcd13ifvqglg","pricing_plan_id":"cebpf4jnsgd1na2vs0mg"},{"bike_id":"6c565aa4-82a9-41b4-833b-ae75d9a678cd","system_id":"levelo_inurba_marseille","lat":43.31478,"lon":5.37286,"is_reserved":false,"is_disabled":false,"rental_uris":{"android":"levelo://app?vid=6c565aa4-82a9-41b4-833b-ae75d9a678cd","ios":"levelo://app?vid=6c565aa4-82a9-41b4-833b-ae75d9a678cd"},"vehicle_type_id":"4","last_reported":1742995214,"current_range_meters":8400,"station_id":"ce4bgt12rcd13ifvqcd0","pricing_plan_id":"cebpf4jnsgd1na2vs0mg"},{"bike_id":"ee3c756c-440a-402d-a400-1a8612b02e32","system_id":"levelo_inurba_marseille","lat":43.26939,"lon":5.40267,"is_reserved":false,"is_disabled":false,"rental_uris":{"android":"levelo://app?vid=ee3c756c-440a-402d-a400-1a8612b02e32","ios":"levelo://app?vid=ee3c756c-440a-402d-a400-1a8612b02e32"},"vehicle_type_id":"4","last_reported":1742995214,"current_range_meters":8400,"station_id":"cjm6bp8fraef2m0cb0m0","pricing_plan_id":"cebpf4jnsgd1na2vs0mg"},{"bike_id":"11c31ccf-3dff-440f-9d7d-08a3d89939fa","system_id":"levelo_inurba_marseille","lat":43.29204,"lon":5.35808,"is_reserved":false,"is_disabled":false,"rental_uris":{"android":"levelo://app?vid=11c31ccf-3dff-440f-9d7d-08a3d89939fa","ios":"levelo://app?vid=11c31ccf-3dff-440f-9d7d-08a3d89939fa"},"vehicle_type_id":"4","last_reported":1742995214,"current_range_meters":8400,"station_id":"ce4bhb12rcd13ifvqel0","pricing_plan_id":"cebpf4jnsgd1na2vs0mg"},{"bike_id":"aec1d2be-86f6-4e60-beb2-de9c370350a2","system_id":"levelo_inurba_marseille","lat":43.30156,"lon":5.37441,"is_reserved":false,"is_disabled":false,"rental_uris":{"android":"levelo://app?vid=aec1d2be-86f6-4e60-beb2-de9c370350a2","ios":"levelo://app?vid=aec1d2be-86f6-4e60-beb2-de9c370350a2"},"vehicle_type_id":"4","last_reported":1742995214,"current_range_meters":8400,"station_id":"ce4bgs92rcd13ifvqcc0","pricing_plan_id":"cebpf4jnsgd1na2vs0mg"},{"bike_id":"3082883e-716b-4940-977a-23703e6964ed","system_id":"levelo_inurba_marseille","lat":43.31323,"lon":5.39715,"is_reserved":false,"is_disabled":false,"rental_uris":{"android":"levelo://app?vid=3082883e-716b-4940-977a-23703e6964ed","ios":"levelo://app?vid=3082883e-716b-4940-977a-23703e6964ed"},"vehicle_type_id":"4","last_reported":1742995214,"current_range_meters":8400,"station_id":"ce4bgvp2rcd13ifvqcu0","pricing_plan_id":"cebpf4jnsgd1na2vs0mg"},{"bike_id":"681ec03c-5fcc-472b-a4f7-a3ac540e8e2a","system_id":"levelo_inurba_marseille","lat":43.30791,"lon":5.371,"is_reserved":false,"is_disabled":false,"rental_uris":{"android":"levelo://app?vid=681ec03c-5fcc-472b-a4f7-a3ac540e8e2a","ios":"levelo://app?vid=681ec03c-5fcc-472b-a4f7-a3ac540e8e2a"},"vehicle_type_id":"4","last_reported":1742995214,"current_range_meters":8400,"station_id":"","pricing_plan_id":"cebpf4jnsgd1na2vs0mg"},{"bike_id":"b51614f1-a055-42d4-901a-339f7104a5f1","system_id":"levelo_inurba_marseille","lat":43.26553,"lon":5.37295,"is_reserved":false,"is_disabled":false,"rental_uris":{"android":"levelo://app?vid=b51614f1-a055-42d4-901a-339f7104a5f1","ios":"levelo://app?vid=b51614f1-a055-42d4-901a-339f7104a5f1"},"vehicle_type_id":"4","last_reported":1742995214,"current_range_meters":8400,"station_id":"ce4bhg12rcd13ifvqf70","pricing_plan_id":"cebpf4jnsgd1na2vs0mg"},{"bike_id":"716148cb-cea4-42a4-880b-025eb1ddc48f","system_id":"levelo_inurba_marseille","lat":43.33621,"lon":5.40973,"is_reserved":false,"is_disabled":false,"rental_uris":{"android":"levelo://app?vid=716148cb-cea4-42a4-880b-025eb1ddc48f","ios":"levelo://app?vid=716148cb-cea4-42a4-880b-025eb1ddc48f"},"vehicle_type_id":"4","last_reported":1742995214,"current_range_meters":8800,"station_id":"ce4bhqh2rcd13ifvqhmg","pricing_plan_id":"cebpf4jnsgd1na2vs0mg"},{"bike_id":"ee28380f-2566-499f-8ab8-5a75cb1ed72f","system_id":"levelo_inurba_marseille","lat":43.288329,"lon":5.393258,"is_reserved":false,"is_disabled":true,"rental_uris":{"android":"levelo://app?vid=ee28380f-2566-499f-8ab8-5a75cb1ed72f","ios":"levelo://app?vid=ee28380f-2566-499f-8ab8-5a75cb1ed72f"},"vehicle_type_id":"4","last_reported":1742995214,"current_range_meters":8800,"station_id":"","pricing_plan_id":"cebpf4jnsgd1na2vs0mg"},{"bike_id":"6ba13e32-bc0a-4abe-a3b3-130ed7947fc0","system_id":"levelo_inurba_marseille","lat":43.2893,"lon":5.36648,"is_reserved":false,"is_disabled":false,"rental_uris":{"android":"levelo://app?vid=6ba13e32-bc0a-4abe-a3b3-130ed7947fc0","ios":"levelo://app?vid=6ba13e32-bc0a-4abe-a3b3-130ed7947fc0"},"vehicle_type_id":"4","last_reported":1742995214,"current_range_meters":8800,"station_id":"ce4bhap2rcd13ifvqek0","pricing_plan_id":"cebpf4jnsgd1na2vs0mg"},{"bike_id":"b3af4b3c-0caa-4674-96fb-e01531de63cb","system_id":"levelo_inurba_marseille","lat":43.29418,"lon":5.38608,"is_reserved":false,"is_disabled":false,"rental_uris":{"android":"levelo://app?vid=b3af4b3c-0caa-4674-96fb-e01531de63cb","ios":"levelo://app?vid=b3af4b3c-0caa-4674-96fb-e01531de63cb"},"vehicle_type_id":"4","last_reported":1742995214,"current_range_meters":8800,"station_id":"ce4bh2h2rcd13ifvqdh0","pricing_plan_id":"cebpf4jnsgd1na2vs0mg"},{"bike_id":"494edb5c-8886-472a-b4b2-0033adc0ccbd","system_id":"levelo_inurba_marseille","lat":43.23192,"lon":5.39989,"is_reserved":false,"is_disabled":false,"rental_uris":{"android":"levelo://app?vid=494edb5c-8886-472a-b4b2-0033adc0ccbd","ios":"levelo://app?vid=494edb5c-8886-472a-b4b2-0033adc0ccbd"},"vehicle_type_id":"4","last_reported":1742995214,"current_range_meters":8800,"station_id":"ce4bhn12rcd13ifvqgqg","pricing_plan_id":"cebpf4jnsgd1na2vs0mg"},{"bike_id":"71c8e650-22af-4084-a3bd-771dc2ba1d15","system_id":"levelo_inurba_marseille","lat":43.2573,"lon":5.41112,"is_reserved":false,"is_disabled":false,"rental_uris":{"android":"levelo://app?vid=71c8e650-22af-4084-a3bd-771dc2ba1d15","ios":"levelo://app?vid=71c8e650-22af-4084-a3bd-771dc2ba1d15"},"vehicle_type_id":"4","last_reported":1742995214,"current_range_meters":9200,"station_id":"ce4bhkp2rcd13ifvqgd0","pricing_plan_id":"cebpf4jnsgd1na2vs0mg"},{"bike_id":"3ee1f2d0-a450-44bc-8ac6-976182aa6192","system_id":"levelo_inurba_marseille","lat":43.30906,"lon":5.36843,"is_reserved":false,"is_disabled":false,"rental_uris":{"android":"levelo://app?vid=3ee1f2d0-a450-44bc-8ac6-976182aa6192","ios":"levelo://app?vid=3ee1f2d0-a450-44bc-8ac6-976182aa6192"},"vehicle_type_id":"4","last_reported":1742995214,"current_range_meters":9200,"station_id":"ce4bgn92rcd13ifvqbvg","pricing_plan_id":"cebpf4jnsgd1na2vs0mg"},{"bike_id":"3de42e2e-a603-4059-9279-2c8d680ab946","system_id":"levelo_inurba_marseille","lat":43.25027,"lon":5.38931,"is_reserved":false,"is_disabled":false,"rental_uris":{"android":"levelo://app?vid=3de42e2e-a603-4059-9279-2c8d680ab946","ios":"levelo://app?vid=3de42e2e-a603-4059-9279-2c8d680ab946"},"vehicle_type_id":"4","last_reported":1742995214,"current_range_meters":9200,"station_id":"ce4bhgp2rcd13ifvqfd0","pricing_plan_id":"cebpf4jnsgd1na2vs0mg"},{"bike_id":"4fb2f98f-f413-4758-8955-bb1720f5cdcf","system_id":"levelo_inurba_marseille","lat":43.27927,"lon":5.39576,"is_reserved":false,"is_disabled":false,"rental_uris":{"android":"levelo://app?vid=4fb2f98f-f413-4758-8955-bb1720f5cdcf","ios":"levelo://app?vid=4fb2f98f-f413-4758-8955-bb1720f5cdcf"},"vehicle_type_id":"4","last_reported":1742995214,"current_range_meters":9200,"station_id":"ce4bhf92rcd13ifvqf40","pricing_plan_id":"cebpf4jnsgd1na2vs0mg"},{"bike_id":"f70ef874-4b06-4723-88fc-4b31cdc74353","system_id":"levelo_inurba_marseille","lat":43.23187,"lon":5.39974,"is_reserved":false,"is_disabled":false,"rental_uris":{"android":"levelo://app?vid=f70ef874-4b06-4723-88fc-4b31cdc74353","ios":"levelo://app?vid=f70ef874-4b06-4723-88fc-4b31cdc74353"},"vehicle_type_id":"4","last_reported":1742995214,"current_range_meters":9600,"station_id":"ce4bhn12rcd13ifvqgqg","pricing_plan_id":"cebpf4jnsgd1na2vs0mg"},{"bike_id":"de348bc8-358e-428b-8ad7-4bf54bd71853","system_id":"levelo_inurba_marseille","lat":43.30597,"lon":5.37234,"is_reserved":false,"is_disabled":false,"rental_uris":{"android":"levelo://app?vid=de348bc8-358e-428b-8ad7-4bf54bd71853","ios":"levelo://app?vid=de348bc8-358e-428b-8ad7-4bf54bd71853"},"vehicle_type_id":"4","last_reported":1742995214,"current_range_meters":9600,"station_id":"ce4bgqh2rcd13ifvqc4g","pricing_plan_id":"cebpf4jnsgd1na2vs0mg"},{"bike_id":"8a9602e7-e6f2-4dac-845f-cea224e49dd5","system_id":"levelo_inurba_marseille","lat":43.23078,"lon":5.35496,"is_reserved":false,"is_disabled":false,"rental_uris":{"android":"levelo://app?vid=8a9602e7-e6f2-4dac-845f-cea224e49dd5","ios":"levelo://app?vid=8a9602e7-e6f2-4dac-845f-cea224e49dd5"},"vehicle_type_id":"4","last_reported":1742995214,"current_range_meters":9600,"station_id":"cpo3342slgdg3j2ifvpg","pricing_plan_id":"cebpf4jnsgd1na2vs0mg"},{"bike_id":"8b59be89-d4dd-4f3a-b9a7-f1534d3903b6","system_id":"levelo_inurba_marseille","lat":43.306,"lon":5.37223,"is_reserved":false,"is_disabled":false,"rental_uris":{"android":"levelo://app?vid=8b59be89-d4dd-4f3a-b9a7-f1534d3903b6","ios":"levelo://app?vid=8b59be89-d4dd-4f3a-b9a7-f1534d3903b6"},"vehicle_type_id":"4","last_reported":1742995214,"current_range_meters":9600,"station_id":"ce4bgqh2rcd13ifvqc4g","pricing_plan_id":"cebpf4jnsgd1na2vs0mg"},{"bike_id":"974f5876-effd-44d0-911c-76ea7a107a8c","system_id":"levelo_inurba_marseille","lat":43.33354,"lon":5.3598,"is_reserved":false,"is_disabled":false,"rental_uris":{"android":"levelo://app?vid=974f5876-effd-44d0-911c-76ea7a107a8c","ios":"levelo://app?vid=974f5876-effd-44d0-911c-76ea7a107a8c"},"vehicle_type_id":"4","last_reported":1742995214,"current_range_meters":9600,"station_id":"","pricing_plan_id":"cebpf4jnsgd1na2vs0mg"},{"bike_id":"d3664ec0-1481-458d-8cdf-4ce6d8553249","system_id":"levelo_inurba_marseille","lat":43.28272,"lon":5.35062,"is_reserved":false,"is_disabled":false,"rental_uris":{"android":"levelo://app?vid=d3664ec0-1481-458d-8cdf-4ce6d8553249","ios":"levelo://app?vid=d3664ec0-1481-458d-8cdf-4ce6d8553249"},"vehicle_type_id":"4","last_reported":1742995214,"current_range_meters":9600,"station_id":"ce4bhbp2rcd13ifvqerg","pricing_plan_id":"cebpf4jnsgd1na2vs0mg"},{"bike_id":"61c79b34-50ea-4612-8bab-fd54e2d0592c","system_id":"levelo_inurba_marseille","lat":43.317188,"lon":5.423921,"is_reserved":false,"is_disabled":false,"rental_uris":{"android":"levelo://app?vid=61c79b34-50ea-4612-8bab-fd54e2d0592c","ios":"levelo://app?vid=61c79b34-50ea-4612-8bab-fd54e2d0592c"},"vehicle_type_id":"4","last_reported":1742995214,"current_range_meters":9600,"station_id":"ce4bhp92rcd13ifvqhbg","pricing_plan_id":"cebpf4jnsgd1na2vs0mg"},{"bike_id":"efbcaaa6-b11f-400a-9240-cc4b1a3b098a","system_id":"levelo_inurba_marseille","lat":43.30604,"lon":5.39365,"is_reserved":false,"is_disabled":true,"rental_uris":{"android":"levelo://app?vid=efbcaaa6-b11f-400a-9240-cc4b1a3b098a","ios":"levelo://app?vid=efbcaaa6-b11f-400a-9240-cc4b1a3b098a"},"vehicle_type_id":"4","last_reported":1742995214,"current_range_meters":9600,"station_id":"ce4bh0p2rcd13ifvqd80","pricing_plan_id":"cebpf4jnsgd1na2vs0mg"},{"bike_id":"8de7059d-00de-4eed-a842-00ac61b0e1a8","system_id":"levelo_inurba_marseille","lat":43.295928,"lon":5.380904,"is_reserved":false,"is_disabled":true,"rental_uris":{"android":"levelo://app?vid=8de7059d-00de-4eed-a842-00ac61b0e1a8","ios":"levelo://app?vid=8de7059d-00de-4eed-a842-00ac61b0e1a8"},"vehicle_type_id":"4","last_reported":1742995214,"current_range_meters":10000,"station_id":"ce4bgl12rcd13ifvqbo0","pricing_plan_id":"cebpf4jnsgd1na2vs0mg"},{"bike_id":"8e1b69fe-38a9-404e-9145-427fd10d244c","system_id":"levelo_inurba_marseille","lat":43.284187,"lon":5.349781,"is_reserved":false,"is_disabled":false,"rental_uris":{"android":"levelo://app?vid=8e1b69fe-38a9-404e-9145-427fd10d244c","ios":"levelo://app?vid=8e1b69fe-38a9-404e-9145-427fd10d244c"},"vehicle_type_id":"4","last_reported":1742995214,"current_range_meters":10000,"station_id":"ce4bhbh2rcd13ifvqepg","pricing_plan_id":"cebpf4jnsgd1na2vs0mg"},{"bike_id":"eee5f011-365c-44ed-aecc-53b796707951","system_id":"levelo_inurba_marseille","lat":43.27492,"lon":5.42452,"is_reserved":false,"is_disabled":false,"rental_uris":{"android":"levelo://app?vid=eee5f011-365c-44ed-aecc-53b796707951","ios":"levelo://app?vid=eee5f011-365c-44ed-aecc-53b796707951"},"vehicle_type_id":"4","last_reported":1742995214,"current_range_meters":10000,"station_id":"ce4bhn92rcd13ifvqgrg","pricing_plan_id":"cebpf4jnsgd1na2vs0mg"},{"bike_id":"01cbffb0-3fb0-4769-96f8-4c2dd20b8277","system_id":"levelo_inurba_marseille","lat":43.28507,"lon":5.40568,"is_reserved":false,"is_disabled":true,"rental_uris":{"android":"levelo://app?vid=01cbffb0-3fb0-4769-96f8-4c2dd20b8277","ios":"levelo://app?vid=01cbffb0-3fb0-4769-96f8-4c2dd20b8277"},"vehicle_type_id":"4","last_reported":1742995214,"current_range_meters":10000,"station_id":"","pricing_plan_id":"cebpf4jnsgd1na2vs0mg"},{"bike_id":"7594b8b2-bbc1-44c8-a5f0-171036f07a0d","system_id":"levelo_inurba_marseille","lat":43.29912,"lon":5.37461,"is_reserved":false,"is_disabled":false,"rental_uris":{"android":"levelo://app?vid=7594b8b2-bbc1-44c8-a5f0-171036f07a0d","ios":"levelo://app?vid=7594b8b2-bbc1-44c8-a5f0-171036f07a0d"},"vehicle_type_id":"4","last_reported":1742995214,"current_range_meters":8400,"station_id":"ce4bgjh2rcd13ifvqbg0","pricing_plan_id":"cebpf4jnsgd1na2vs0mg"},{"bike_id":"084b002b-7859-41f4-ada3-7c58cc5ae6e5","system_id":"levelo_inurba_marseille","lat":43.31073,"lon":5.38359,"is_reserved":false,"is_disabled":false,"rental_uris":{"android":"levelo://app?vid=084b002b-7859-41f4-ada3-7c58cc5ae6e5","ios":"levelo://app?vid=084b002b-7859-41f4-ada3-7c58cc5ae6e5"},"vehicle_type_id":"4","last_reported":1742995214,"current_range_meters":10000,"station_id":"ce4bgv92rcd13ifvqcr0","pricing_plan_id":"cebpf4jnsgd1na2vs0mg"},{"bike_id":"94321aca-dda1-437f-a460-f5c1c1a8cd28","system_id":"levelo_inurba_marseille","lat":43.27566,"lon":5.38424,"is_reserved":false,"is_disabled":false,"rental_uris":{"android":"levelo://app?vid=94321aca-dda1-437f-a460-f5c1c1a8cd28","ios":"levelo://app?vid=94321aca-dda1-437f-a460-f5c1c1a8cd28"},"vehicle_type_id":"4","last_reported":1742995214,"current_range_meters":10000,"station_id":"ce4bhh92rcd13ifvqfi0","pricing_plan_id":"cebpf4jnsgd1na2vs0mg"},{"bike_id":"8d61cb0d-8055-4fe7-be6b-ab611d68ab6c","system_id":"levelo_inurba_marseille","lat":43.29608,"lon":5.37726,"is_reserved":false,"is_disabled":false,"rental_uris":{"android":"levelo://app?vid=8d61cb0d-8055-4fe7-be6b-ab611d68ab6c","ios":"levelo://app?vid=8d61cb0d-8055-4fe7-be6b-ab611d68ab6c"},"vehicle_type_id":"4","last_reported":1742995214,"current_range_meters":10000,"station_id":"ce4bgi92rcd13ifvqb90","pricing_plan_id":"cebpf4jnsgd1na2vs0mg"},{"bike_id":"ba6a46e1-2737-444a-9c29-0a44b16eab2c","system_id":"levelo_inurba_marseille","lat":43.30539,"lon":5.3655,"is_reserved":false,"is_disabled":false,"rental_uris":{"android":"levelo://app?vid=ba6a46e1-2737-444a-9c29-0a44b16eab2c","ios":"levelo://app?vid=ba6a46e1-2737-444a-9c29-0a44b16eab2c"},"vehicle_type_id":"4","last_reported":1742995214,"current_range_meters":10000,"station_id":"ce4bgs12rcd13ifvqcag","pricing_plan_id":"cebpf4jnsgd1na2vs0mg"},{"bike_id":"b418d168-f2ad-4db0-9a6f-e88743ba94c8","system_id":"levelo_inurba_marseille","lat":43.29262,"lon":5.37616,"is_reserved":false,"is_disabled":true,"rental_uris":{"android":"levelo://app?vid=b418d168-f2ad-4db0-9a6f-e88743ba94c8","ios":"levelo://app?vid=b418d168-f2ad-4db0-9a6f-e88743ba94c8"},"vehicle_type_id":"4","last_reported":1742995214,"current_range_meters":10800,"station_id":"ce4bgi12rcd13ifvqb80","pricing_plan_id":"cebpf4jnsgd1na2vs0mg"},{"bike_id":"5d2c04b4-328c-4d75-a9ae-ee3b58acb165","system_id":"levelo_inurba_marseille","lat":43.2828,"lon":5.35082,"is_reserved":false,"is_disabled":false,"rental_uris":{"android":"levelo://app?vid=5d2c04b4-328c-4d75-a9ae-ee3b58acb165","ios":"levelo://app?vid=5d2c04b4-328c-4d75-a9ae-ee3b58acb165"},"vehicle_type_id":"4","last_reported":1742995214,"current_range_meters":10800,"station_id":"ce4bhbp2rcd13ifvqerg","pricing_plan_id":"cebpf4jnsgd1na2vs0mg"},{"bike_id":"589f1146-20bc-4a88-9ab7-60ee275b3000","system_id":"levelo_inurba_marseille","lat":43.29711,"lon":5.3801,"is_reserved":false,"is_disabled":false,"rental_uris":{"android":"levelo://app?vid=589f1146-20bc-4a88-9ab7-60ee275b3000","ios":"levelo://app?vid=589f1146-20bc-4a88-9ab7-60ee275b3000"},"vehicle_type_id":"4","last_reported":1742995214,"current_range_meters":10800,"station_id":"","pricing_plan_id":"cebpf4jnsgd1na2vs0mg"},{"bike_id":"e969a44b-dcb1-4108-a5c5-4497b1c4f4ee","system_id":"levelo_inurba_marseille","lat":43.269332,"lon":5.402604,"is_reserved":false,"is_disabled":false,"rental_uris":{"android":"levelo://app?vid=e969a44b-dcb1-4108-a5c5-4497b1c4f4ee","ios":"levelo://app?vid=e969a44b-dcb1-4108-a5c5-4497b1c4f4ee"},"vehicle_type_id":"4","last_reported":1742995214,"current_range_meters":10800,"station_id":"cjm6bp8fraef2m0cb0m0","pricing_plan_id":"cebpf4jnsgd1na2vs0mg"},{"bike_id":"543a81a8-0b22-4d9b-9e1e-8bfaa6da2058","system_id":"levelo_inurba_marseille","lat":43.2656,"lon":5.37285,"is_reserved":false,"is_disabled":false,"rental_uris":{"android":"levelo://app?vid=543a81a8-0b22-4d9b-9e1e-8bfaa6da2058","ios":"levelo://app?vid=543a81a8-0b22-4d9b-9e1e-8bfaa6da2058"},"vehicle_type_id":"4","last_reported":1742995214,"current_range_meters":10800,"station_id":"ce4bhg12rcd13ifvqf70","pricing_plan_id":"cebpf4jnsgd1na2vs0mg"},{"bike_id":"8f0e5694-2965-41d1-8909-3a8d891b928d","system_id":"levelo_inurba_marseille","lat":43.29094,"lon":5.38136,"is_reserved":false,"is_disabled":false,"rental_uris":{"android":"levelo://app?vid=8f0e5694-2965-41d1-8909-3a8d891b928d","ios":"levelo://app?vid=8f0e5694-2965-41d1-8909-3a8d891b928d"},"vehicle_type_id":"4","last_reported":1742995214,"current_range_meters":10800,"station_id":"ce4bh512rcd13ifvqe2g","pricing_plan_id":"cebpf4jnsgd1na2vs0mg"},{"bike_id":"884b1136-c370-462e-928a-7c0cc80f3260","system_id":"levelo_inurba_marseille","lat":43.30294,"lon":5.39221,"is_reserved":false,"is_disabled":false,"rental_uris":{"android":"levelo://app?vid=884b1136-c370-462e-928a-7c0cc80f3260","ios":"levelo://app?vid=884b1136-c370-462e-928a-7c0cc80f3260"},"vehicle_type_id":"4","last_reported":1742995214,"current_range_meters":10800,"station_id":"ce4bgkh2rcd13ifvqbk0","pricing_plan_id":"cebpf4jnsgd1na2vs0mg"},{"bike_id":"84a7a785-5392-42bc-8088-fb903bcc7f5c","system_id":"levelo_inurba_marseille","lat":43.23069,"lon":5.35479,"is_reserved":false,"is_disabled":false,"rental_uris":{"android":"levelo://app?vid=84a7a785-5392-42bc-8088-fb903bcc7f5c","ios":"levelo://app?vid=84a7a785-5392-42bc-8088-fb903bcc7f5c"},"vehicle_type_id":"4","last_reported":1742995214,"current_range_meters":10800,"station_id":"cpo3342slgdg3j2ifvpg","pricing_plan_id":"cebpf4jnsgd1na2vs0mg"},{"bike_id":"9c31a06b-b971-46ad-8246-1f659e5293f1","system_id":"levelo_inurba_marseille","lat":43.26195,"lon":5.37461,"is_reserved":false,"is_disabled":false,"rental_uris":{"android":"levelo://app?vid=9c31a06b-b971-46ad-8246-1f659e5293f1","ios":"levelo://app?vid=9c31a06b-b971-46ad-8246-1f659e5293f1"},"vehicle_type_id":"4","last_reported":1742995214,"current_range_meters":10800,"station_id":"ce4bhgp2rcd13ifvqfc0","pricing_plan_id":"cebpf4jnsgd1na2vs0mg"},{"bike_id":"ab084c0d-be22-4dd4-b52f-6f8c5a521590","system_id":"levelo_inurba_marseille","lat":43.30423,"lon":5.41298,"is_reserved":false,"is_disabled":false,"rental_uris":{"android":"levelo://app?vid=ab084c0d-be22-4dd4-b52f-6f8c5a521590","ios":"levelo://app?vid=ab084c0d-be22-4dd4-b52f-6f8c5a521590"},"vehicle_type_id":"4","last_reported":1742995214,"current_range_meters":10800,"station_id":"ce4bhop2rcd13ifvqh8g","pricing_plan_id":"cebpf4jnsgd1na2vs0mg"},{"bike_id":"5bbfe0fc-2b0e-46ed-9a77-d73da147497b","system_id":"levelo_inurba_marseille","lat":43.25581,"lon":5.38244,"is_reserved":false,"is_disabled":false,"rental_uris":{"android":"levelo://app?vid=5bbfe0fc-2b0e-46ed-9a77-d73da147497b","ios":"levelo://app?vid=5bbfe0fc-2b0e-46ed-9a77-d73da147497b"},"vehicle_type_id":"4","last_reported":1742995214,"current_range_meters":10800,"station_id":"ce4bhih2rcd13ifvqfs0","pricing_plan_id":"cebpf4jnsgd1na2vs0mg"},{"bike_id":"dd3c2c21-8058-4ad2-bb2d-1b89c01c402f","system_id":"levelo_inurba_marseille","lat":43.305386,"lon":5.365334,"is_reserved":false,"is_disabled":false,"rental_uris":{"android":"levelo://app?vid=dd3c2c21-8058-4ad2-bb2d-1b89c01c402f","ios":"levelo://app?vid=dd3c2c21-8058-4ad2-bb2d-1b89c01c402f"},"vehicle_type_id":"4","last_reported":1742995214,"current_range_meters":10800,"station_id":"ce4bgs12rcd13ifvqcag","pricing_plan_id":"cebpf4jnsgd1na2vs0mg"},{"bike_id":"a3581d99-7175-4d7f-ae46-7197148d1b7a","system_id":"levelo_inurba_marseille","lat":43.28425,"lon":5.3499,"is_reserved":false,"is_disabled":false,"rental_uris":{"android":"levelo://app?vid=a3581d99-7175-4d7f-ae46-7197148d1b7a","ios":"levelo://app?vid=a3581d99-7175-4d7f-ae46-7197148d1b7a"},"vehicle_type_id":"4","last_reported":1742995214,"current_range_meters":10800,"station_id":"ce4bhbh2rcd13ifvqepg","pricing_plan_id":"cebpf4jnsgd1na2vs0mg"},{"bike_id":"2349ea78-e5ff-44c1-8a9d-5755df83b4b0","system_id":"levelo_inurba_marseille","lat":43.28131,"lon":5.42677,"is_reserved":false,"is_disabled":false,"rental_uris":{"android":"levelo://app?vid=2349ea78-e5ff-44c1-8a9d-5755df83b4b0","ios":"levelo://app?vid=2349ea78-e5ff-44c1-8a9d-5755df83b4b0"},"vehicle_type_id":"4","last_reported":1742995214,"current_range_meters":10800,"station_id":"ce4bhnh2rcd13ifvqgug","pricing_plan_id":"cebpf4jnsgd1na2vs0mg"},{"bike_id":"ffaf6716-09fd-4ee2-be14-fe7fd975c6bd","system_id":"levelo_inurba_marseille","lat":43.27385,"lon":5.3627,"is_reserved":false,"is_disabled":false,"rental_uris":{"android":"levelo://app?vid=ffaf6716-09fd-4ee2-be14-fe7fd975c6bd","ios":"levelo://app?vid=ffaf6716-09fd-4ee2-be14-fe7fd975c6bd"},"vehicle_type_id":"4","last_reported":1742995214,"current_range_meters":11200,"station_id":"ce4bhbh2rcd13ifvqeo0","pricing_plan_id":"cebpf4jnsgd1na2vs0mg"},{"bike_id":"d1f0bfd4-c951-4e4e-b8ea-91fef0511b94","system_id":"levelo_inurba_marseille","lat":43.323601,"lon":5.367638,"is_reserved":false,"is_disabled":false,"rental_uris":{"android":"levelo://app?vid=d1f0bfd4-c951-4e4e-b8ea-91fef0511b94","ios":"levelo://app?vid=d1f0bfd4-c951-4e4e-b8ea-91fef0511b94"},"vehicle_type_id":"4","last_reported":1742995214,"current_range_meters":11200,"station_id":"ce4bhsh2rcd13ifvqi2g","pricing_plan_id":"cebpf4jnsgd1na2vs0mg"},{"bike_id":"09a2833f-64ea-4550-8dcc-0e74c47110a9","system_id":"levelo_inurba_marseille","lat":43.29897,"lon":5.43667,"is_reserved":false,"is_disabled":false,"rental_uris":{"android":"levelo://app?vid=09a2833f-64ea-4550-8dcc-0e74c47110a9","ios":"levelo://app?vid=09a2833f-64ea-4550-8dcc-0e74c47110a9"},"vehicle_type_id":"4","last_reported":1742995214,"current_range_meters":11200,"station_id":"ce4bhpp2rcd13ifvqhfg","pricing_plan_id":"cebpf4jnsgd1na2vs0mg"},{"bike_id":"3140f9af-c373-4c53-b143-7b7c69eca4ff","system_id":"levelo_inurba_marseille","lat":43.29868,"lon":5.39733,"is_reserved":false,"is_disabled":false,"rental_uris":{"android":"levelo://app?vid=3140f9af-c373-4c53-b143-7b7c69eca4ff","ios":"levelo://app?vid=3140f9af-c373-4c53-b143-7b7c69eca4ff"},"vehicle_type_id":"4","last_reported":1742995214,"current_range_meters":8400,"station_id":"ce4bh0h2rcd13ifvqd50","pricing_plan_id":"cebpf4jnsgd1na2vs0mg"},{"bike_id":"06db576b-9a32-47a2-8fa4-2e2a8658ea6d","system_id":"levelo_inurba_marseille","lat":43.2998,"lon":5.38482,"is_reserved":false,"is_disabled":false,"rental_uris":{"android":"levelo://app?vid=06db576b-9a32-47a2-8fa4-2e2a8658ea6d","ios":"levelo://app?vid=06db576b-9a32-47a2-8fa4-2e2a8658ea6d"},"vehicle_type_id":"4","last_reported":1742995214,"current_range_meters":10000,"station_id":"ce4bgj92rcd13ifvqbd0","pricing_plan_id":"cebpf4jnsgd1na2vs0mg"},{"bike_id":"d45a2f6c-957b-46cd-bd89-ee8e58d1536e","system_id":"levelo_inurba_marseille","lat":43.27723,"lon":5.40798,"is_reserved":false,"is_disabled":false,"rental_uris":{"android":"levelo://app?vid=d45a2f6c-957b-46cd-bd89-ee8e58d1536e","ios":"levelo://app?vid=d45a2f6c-957b-46cd-bd89-ee8e58d1536e"},"vehicle_type_id":"4","last_reported":1742995214,"current_range_meters":11200,"station_id":"","pricing_plan_id":"cebpf4jnsgd1na2vs0mg"},{"bike_id":"41a3dd54-69c8-4a8c-8cb4-82f3648e8acc","system_id":"levelo_inurba_marseille","lat":43.27384,"lon":5.36263,"is_reserved":false,"is_disabled":false,"rental_uris":{"android":"levelo://app?vid=41a3dd54-69c8-4a8c-8cb4-82f3648e8acc","ios":"levelo://app?vid=41a3dd54-69c8-4a8c-8cb4-82f3648e8acc"},"vehicle_type_id":"4","last_reported":1742995214,"current_range_meters":11200,"station_id":"ce4bhbh2rcd13ifvqeo0","pricing_plan_id":"cebpf4jnsgd1na2vs0mg"},{"bike_id":"6014c8c5-d179-414f-ba5e-6122a0b3b802","system_id":"levelo_inurba_marseille","lat":43.23145,"lon":5.43719,"is_reserved":false,"is_disabled":false,"rental_uris":{"android":"levelo://app?vid=6014c8c5-d179-414f-ba5e-6122a0b3b802","ios":"levelo://app?vid=6014c8c5-d179-414f-ba5e-6122a0b3b802"},"vehicle_type_id":"4","last_reported":1742995214,"current_range_meters":11200,"station_id":"ce4bhmp2rcd13ifvqgog","pricing_plan_id":"cebpf4jnsgd1na2vs0mg"},{"bike_id":"bd3fe5b9-e418-4e0c-8340-c9d8141a197d","system_id":"levelo_inurba_marseille","lat":43.26506,"lon":5.39555,"is_reserved":false,"is_disabled":false,"rental_uris":{"android":"levelo://app?vid=bd3fe5b9-e418-4e0c-8340-c9d8141a197d","ios":"levelo://app?vid=bd3fe5b9-e418-4e0c-8340-c9d8141a197d"},"vehicle_type_id":"4","last_reported":1742995214,"current_range_meters":11200,"station_id":"ce4bhi12rcd13ifvqfq0","pricing_plan_id":"cebpf4jnsgd1na2vs0mg"},{"bike_id":"a12e817a-14dc-4765-94f6-e20aced5e6f5","system_id":"levelo_inurba_marseille","lat":43.29796,"lon":5.38101,"is_reserved":false,"is_disabled":false,"rental_uris":{"android":"levelo://app?vid=a12e817a-14dc-4765-94f6-e20aced5e6f5","ios":"levelo://app?vid=a12e817a-14dc-4765-94f6-e20aced5e6f5"},"vehicle_type_id":"4","last_reported":1742995214,"current_range_meters":11600,"station_id":"ce4bgip2rcd13ifvqbb0","pricing_plan_id":"cebpf4jnsgd1na2vs0mg"},{"bike_id":"ef76315d-6f75-41fa-adf4-789f5dc0bd50","system_id":"levelo_inurba_marseille","lat":43.23152,"lon":5.43724,"is_reserved":false,"is_disabled":false,"rental_uris":{"android":"levelo://app?vid=ef76315d-6f75-41fa-adf4-789f5dc0bd50","ios":"levelo://app?vid=ef76315d-6f75-41fa-adf4-789f5dc0bd50"},"vehicle_type_id":"4","last_reported":1742995214,"current_range_meters":11600,"station_id":"ce4bhmp2rcd13ifvqgog","pricing_plan_id":"cebpf4jnsgd1na2vs0mg"},{"bike_id":"1a9154db-39ae-41d5-8208-c4dbb927e4d7","system_id":"levelo_inurba_marseille","lat":43.31708,"lon":5.37739,"is_reserved":false,"is_disabled":false,"rental_uris":{"android":"levelo://app?vid=1a9154db-39ae-41d5-8208-c4dbb927e4d7","ios":"levelo://app?vid=1a9154db-39ae-41d5-8208-c4dbb927e4d7"},"vehicle_type_id":"4","last_reported":1742995214,"current_range_meters":11600,"station_id":"ce4bgth2rcd13ifvqch0","pricing_plan_id":"cebpf4jnsgd1na2vs0mg"},{"bike_id":"7ce27c11-c446-4a3a-b794-4edc90447626","system_id":"levelo_inurba_marseille","lat":43.29071,"lon":5.37162,"is_reserved":false,"is_disabled":false,"rental_uris":{"android":"levelo://app?vid=7ce27c11-c446-4a3a-b794-4edc90447626","ios":"levelo://app?vid=7ce27c11-c446-4a3a-b794-4edc90447626"},"vehicle_type_id":"4","last_reported":1742995214,"current_range_meters":11600,"station_id":"ce4bh5p2rcd13ifvqe4g","pricing_plan_id":"cebpf4jnsgd1na2vs0mg"},{"bike_id":"55426801-f359-4d32-bc3d-7fca02b23ad1","system_id":"levelo_inurba_marseille","lat":43.27493,"lon":5.42453,"is_reserved":false,"is_disabled":false,"rental_uris":{"android":"levelo://app?vid=55426801-f359-4d32-bc3d-7fca02b23ad1","ios":"levelo://app?vid=55426801-f359-4d32-bc3d-7fca02b23ad1"},"vehicle_type_id":"4","last_reported":1742995214,"current_range_meters":11600,"station_id":"ce4bhn92rcd13ifvqgrg","pricing_plan_id":"cebpf4jnsgd1na2vs0mg"},{"bike_id":"ccdfac36-22da-4f2d-bd50-7bf147cc0fff","system_id":"levelo_inurba_marseille","lat":43.29899,"lon":5.43661,"is_reserved":false,"is_disabled":false,"rental_uris":{"android":"levelo://app?vid=ccdfac36-22da-4f2d-bd50-7bf147cc0fff","ios":"levelo://app?vid=ccdfac36-22da-4f2d-bd50-7bf147cc0fff"},"vehicle_type_id":"4","last_reported":1742995214,"current_range_meters":12000,"station_id":"ce4bhpp2rcd13ifvqhfg","pricing_plan_id":"cebpf4jnsgd1na2vs0mg"},{"bike_id":"7e4b498a-163b-450a-94ab-936e7be9c83c","system_id":"levelo_inurba_marseille","lat":43.32365,"lon":5.36748,"is_reserved":false,"is_disabled":false,"rental_uris":{"android":"levelo://app?vid=7e4b498a-163b-450a-94ab-936e7be9c83c","ios":"levelo://app?vid=7e4b498a-163b-450a-94ab-936e7be9c83c"},"vehicle_type_id":"4","last_reported":1742995214,"current_range_meters":12000,"station_id":"ce4bhsh2rcd13ifvqi2g","pricing_plan_id":"cebpf4jnsgd1na2vs0mg"},{"bike_id":"cbdb900f-e6eb-49aa-b009-c3234b5d6d76","system_id":"levelo_inurba_marseille","lat":43.23067,"lon":5.35492,"is_reserved":false,"is_disabled":false,"rental_uris":{"android":"levelo://app?vid=cbdb900f-e6eb-49aa-b009-c3234b5d6d76","ios":"levelo://app?vid=cbdb900f-e6eb-49aa-b009-c3234b5d6d76"},"vehicle_type_id":"4","last_reported":1742995214,"current_range_meters":12000,"station_id":"cpo3342slgdg3j2ifvpg","pricing_plan_id":"cebpf4jnsgd1na2vs0mg"},{"bike_id":"7ef91586-4937-42b5-b697-34758fd55a3b","system_id":"levelo_inurba_marseille","lat":43.28942,"lon":5.3964,"is_reserved":false,"is_disabled":false,"rental_uris":{"android":"levelo://app?vid=7ef91586-4937-42b5-b697-34758fd55a3b","ios":"levelo://app?vid=7ef91586-4937-42b5-b697-34758fd55a3b"},"vehicle_type_id":"4","last_reported":1742995214,"current_range_meters":12000,"station_id":"ce4bh3h2rcd13ifvqdn0","pricing_plan_id":"cebpf4jnsgd1na2vs0mg"},{"bike_id":"484928c8-8c60-48c3-a758-e3e274268153","system_id":"levelo_inurba_marseille","lat":43.24163,"lon":5.36398,"is_reserved":false,"is_disabled":false,"rental_uris":{"android":"levelo://app?vid=484928c8-8c60-48c3-a758-e3e274268153","ios":"levelo://app?vid=484928c8-8c60-48c3-a758-e3e274268153"},"vehicle_type_id":"4","last_reported":1742995214,"current_range_meters":12000,"station_id":"cpo36qri1sfpv3e86is0","pricing_plan_id":"cebpf4jnsgd1na2vs0mg"},{"bike_id":"42c46e69-8825-4881-b438-a13867fb15c8","system_id":"levelo_inurba_marseille","lat":43.27997,"lon":5.40023,"is_reserved":false,"is_disabled":false,"rental_uris":{"android":"levelo://app?vid=42c46e69-8825-4881-b438-a13867fb15c8","ios":"levelo://app?vid=42c46e69-8825-4881-b438-a13867fb15c8"},"vehicle_type_id":"4","last_reported":1742995214,"current_range_meters":12000,"station_id":"ce4bho92rcd13ifvqh4g","pricing_plan_id":"cebpf4jnsgd1na2vs0mg"},{"bike_id":"db2874fd-c484-47e0-81fa-ab6865652607","system_id":"levelo_inurba_marseille","lat":43.27208,"lon":5.39111,"is_reserved":false,"is_disabled":false,"rental_uris":{"android":"levelo://app?vid=db2874fd-c484-47e0-81fa-ab6865652607","ios":"levelo://app?vid=db2874fd-c484-47e0-81fa-ab6865652607"},"vehicle_type_id":"4","last_reported":1742995214,"current_range_meters":12000,"station_id":"ce4bhi12rcd13ifvqfo0","pricing_plan_id":"cebpf4jnsgd1na2vs0mg"},{"bike_id":"eeee9876-7a3d-43bc-9233-3b0d5bbbfb11","system_id":"levelo_inurba_marseille","lat":43.30887,"lon":5.37203,"is_reserved":false,"is_disabled":false,"rental_uris":{"android":"levelo://app?vid=eeee9876-7a3d-43bc-9233-3b0d5bbbfb11","ios":"levelo://app?vid=eeee9876-7a3d-43bc-9233-3b0d5bbbfb11"},"vehicle_type_id":"4","last_reported":1742995214,"current_range_meters":12400,"station_id":"ce4bguh2rcd13ifvqckg","pricing_plan_id":"cebpf4jnsgd1na2vs0mg"},{"bike_id":"1d386a8e-8d6c-4e60-ab59-c0e85c672baf","system_id":"levelo_inurba_marseille","lat":43.30914,"lon":5.3685,"is_reserved":false,"is_disabled":false,"rental_uris":{"android":"levelo://app?vid=1d386a8e-8d6c-4e60-ab59-c0e85c672baf","ios":"levelo://app?vid=1d386a8e-8d6c-4e60-ab59-c0e85c672baf"},"vehicle_type_id":"4","last_reported":1742995214,"current_range_meters":12400,"station_id":"ce4bgn92rcd13ifvqbvg","pricing_plan_id":"cebpf4jnsgd1na2vs0mg"},{"bike_id":"017c002d-6fc7-4d72-aa20-9c39c3888c25","system_id":"levelo_inurba_marseille","lat":43.25498,"lon":5.37676,"is_reserved":false,"is_disabled":false,"rental_uris":{"android":"levelo://app?vid=017c002d-6fc7-4d72-aa20-9c39c3888c25","ios":"levelo://app?vid=017c002d-6fc7-4d72-aa20-9c39c3888c25"},"vehicle_type_id":"4","last_reported":1742995214,"current_range_meters":12400,"station_id":"ce4bhh12rcd13ifvqff0","pricing_plan_id":"cebpf4jnsgd1na2vs0mg"},{"bike_id":"2623a753-dcde-4ffa-9bf1-3275e6037e7a","system_id":"levelo_inurba_marseille","lat":43.32464,"lon":5.36591,"is_reserved":false,"is_disabled":false,"rental_uris":{"android":"levelo://app?vid=2623a753-dcde-4ffa-9bf1-3275e6037e7a","ios":"levelo://app?vid=2623a753-dcde-4ffa-9bf1-3275e6037e7a"},"vehicle_type_id":"4","last_reported":1742995214,"current_range_meters":12400,"station_id":"ce4bhs12rcd13ifvqhvg","pricing_plan_id":"cebpf4jnsgd1na2vs0mg"},{"bike_id":"0465c961-68af-4153-929b-5fd5707a398a","system_id":"levelo_inurba_marseille","lat":43.23154,"lon":5.43705,"is_reserved":false,"is_disabled":false,"rental_uris":{"android":"levelo://app?vid=0465c961-68af-4153-929b-5fd5707a398a","ios":"levelo://app?vid=0465c961-68af-4153-929b-5fd5707a398a"},"vehicle_type_id":"4","last_reported":1742995214,"current_range_meters":12400,"station_id":"ce4bhmp2rcd13ifvqgog","pricing_plan_id":"cebpf4jnsgd1na2vs0mg"},{"bike_id":"1d165c56-236e-4374-8632-8a15f8f79471","system_id":"levelo_inurba_marseille","lat":43.31236,"lon":5.36854,"is_reserved":false,"is_disabled":false,"rental_uris":{"android":"levelo://app?vid=1d165c56-236e-4374-8632-8a15f8f79471","ios":"levelo://app?vid=1d165c56-236e-4374-8632-8a15f8f79471"},"vehicle_type_id":"4","last_reported":1742995214,"current_range_meters":12400,"station_id":"ce4bgl92rcd13ifvqbq0","pricing_plan_id":"cebpf4jnsgd1na2vs0mg"},{"bike_id":"5a803877-1983-48fb-9ecc-8096e5573f1c","system_id":"levelo_inurba_marseille","lat":43.2417,"lon":5.36398,"is_reserved":false,"is_disabled":false,"rental_uris":{"android":"levelo://app?vid=5a803877-1983-48fb-9ecc-8096e5573f1c","ios":"levelo://app?vid=5a803877-1983-48fb-9ecc-8096e5573f1c"},"vehicle_type_id":"4","last_reported":1742995214,"current_range_meters":12400,"station_id":"cpo36qri1sfpv3e86is0","pricing_plan_id":"cebpf4jnsgd1na2vs0mg"},{"bike_id":"03a31bde-c518-4f66-a2c8-cdb087874bc8","system_id":"levelo_inurba_marseille","lat":43.27067,"lon":5.42272,"is_reserved":false,"is_disabled":false,"rental_uris":{"android":"levelo://app?vid=03a31bde-c518-4f66-a2c8-cdb087874bc8","ios":"levelo://app?vid=03a31bde-c518-4f66-a2c8-cdb087874bc8"},"vehicle_type_id":"4","last_reported":1742995214,"current_range_meters":11600,"station_id":"ce4bhk92rcd13ifvqgb0","pricing_plan_id":"cebpf4jnsgd1na2vs0mg"},{"bike_id":"d5c4270d-4def-48aa-99a1-67e19a2d11a6","system_id":"levelo_inurba_marseille","lat":43.2418,"lon":5.36389,"is_reserved":false,"is_disabled":false,"rental_uris":{"android":"levelo://app?vid=d5c4270d-4def-48aa-99a1-67e19a2d11a6","ios":"levelo://app?vid=d5c4270d-4def-48aa-99a1-67e19a2d11a6"},"vehicle_type_id":"4","last_reported":1742995214,"current_range_meters":12400,"station_id":"cpo36qri1sfpv3e86is0","pricing_plan_id":"cebpf4jnsgd1na2vs0mg"},{"bike_id":"feb02021-c91c-4994-8c83-a0f717e424da","system_id":"levelo_inurba_marseille","lat":43.2502,"lon":5.38914,"is_reserved":false,"is_disabled":false,"rental_uris":{"android":"levelo://app?vid=feb02021-c91c-4994-8c83-a0f717e424da","ios":"levelo://app?vid=feb02021-c91c-4994-8c83-a0f717e424da"},"vehicle_type_id":"4","last_reported":1742995214,"current_range_meters":12400,"station_id":"ce4bhgp2rcd13ifvqfd0","pricing_plan_id":"cebpf4jnsgd1na2vs0mg"},{"bike_id":"a77cf6b3-201f-4242-997c-5fc068534a84","system_id":"levelo_inurba_marseille","lat":43.29273,"lon":5.38435,"is_reserved":false,"is_disabled":false,"rental_uris":{"android":"levelo://app?vid=a77cf6b3-201f-4242-997c-5fc068534a84","ios":"levelo://app?vid=a77cf6b3-201f-4242-997c-5fc068534a84"},"vehicle_type_id":"4","last_reported":1742995214,"current_range_meters":12000,"station_id":"ce4bh692rcd13ifvqea0","pricing_plan_id":"cebpf4jnsgd1na2vs0mg"},{"bike_id":"b993fda9-e005-40e6-b0e7-62fd9edd8461","system_id":"levelo_inurba_marseille","lat":43.273944,"lon":5.385031,"is_reserved":false,"is_disabled":false,"rental_uris":{"android":"levelo://app?vid=b993fda9-e005-40e6-b0e7-62fd9edd8461","ios":"levelo://app?vid=b993fda9-e005-40e6-b0e7-62fd9edd8461"},"vehicle_type_id":"4","last_reported":1742995214,"current_range_meters":12400,"station_id":"ce4bhgp2rcd13ifvqfe0","pricing_plan_id":"cebpf4jnsgd1na2vs0mg"},{"bike_id":"bb96378c-3fb5-4844-a658-80f9f7098e9f","system_id":"levelo_inurba_marseille","lat":43.27378,"lon":5.36258,"is_reserved":false,"is_disabled":false,"rental_uris":{"android":"levelo://app?vid=bb96378c-3fb5-4844-a658-80f9f7098e9f","ios":"levelo://app?vid=bb96378c-3fb5-4844-a658-80f9f7098e9f"},"vehicle_type_id":"4","last_reported":1742995214,"current_range_meters":12400,"station_id":"ce4bhbh2rcd13ifvqeo0","pricing_plan_id":"cebpf4jnsgd1na2vs0mg"},{"bike_id":"5b1f2bcc-7457-4e67-91ad-03cf5da24d43","system_id":"levelo_inurba_marseille","lat":43.31234,"lon":5.36868,"is_reserved":false,"is_disabled":false,"rental_uris":{"android":"levelo://app?vid=5b1f2bcc-7457-4e67-91ad-03cf5da24d43","ios":"levelo://app?vid=5b1f2bcc-7457-4e67-91ad-03cf5da24d43"},"vehicle_type_id":"4","last_reported":1742995214,"current_range_meters":12800,"station_id":"ce4bgl92rcd13ifvqbq0","pricing_plan_id":"cebpf4jnsgd1na2vs0mg"},{"bike_id":"5b830359-30b8-45d9-a902-126192112277","system_id":"levelo_inurba_marseille","lat":43.23196,"lon":5.35551,"is_reserved":false,"is_disabled":false,"rental_uris":{"android":"levelo://app?vid=5b830359-30b8-45d9-a902-126192112277","ios":"levelo://app?vid=5b830359-30b8-45d9-a902-126192112277"},"vehicle_type_id":"4","last_reported":1742995214,"current_range_meters":12800,"station_id":"ce4bhu92rcd13ifvqi70","pricing_plan_id":"cebpf4jnsgd1na2vs0mg"},{"bike_id":"f1414457-b578-4c46-b2bf-7e89a08e69ff","system_id":"levelo_inurba_marseille","lat":43.30537,"lon":5.36531,"is_reserved":false,"is_disabled":false,"rental_uris":{"android":"levelo://app?vid=f1414457-b578-4c46-b2bf-7e89a08e69ff","ios":"levelo://app?vid=f1414457-b578-4c46-b2bf-7e89a08e69ff"},"vehicle_type_id":"4","last_reported":1742995214,"current_range_meters":12800,"station_id":"ce4bgs12rcd13ifvqcag","pricing_plan_id":"cebpf4jnsgd1na2vs0mg"},{"bike_id":"b3279f87-2d05-49bc-8af7-5bda53a1f332","system_id":"levelo_inurba_marseille","lat":43.2397,"lon":5.36629,"is_reserved":false,"is_disabled":false,"rental_uris":{"android":"levelo://app?vid=b3279f87-2d05-49bc-8af7-5bda53a1f332","ios":"levelo://app?vid=b3279f87-2d05-49bc-8af7-5bda53a1f332"},"vehicle_type_id":"4","last_reported":1742995214,"current_range_meters":12800,"station_id":"ce4bhi12rcd13ifvqfp0","pricing_plan_id":"cebpf4jnsgd1na2vs0mg"},{"bike_id":"9490ab3f-b563-4312-b2ed-009944c7886e","system_id":"levelo_inurba_marseille","lat":43.3248,"lon":5.36554,"is_reserved":false,"is_disabled":false,"rental_uris":{"android":"levelo://app?vid=9490ab3f-b563-4312-b2ed-009944c7886e","ios":"levelo://app?vid=9490ab3f-b563-4312-b2ed-009944c7886e"},"vehicle_type_id":"4","last_reported":1742995214,"current_range_meters":12800,"station_id":"ce4bhs12rcd13ifvqhvg","pricing_plan_id":"cebpf4jnsgd1na2vs0mg"},{"bike_id":"9e4dae27-4c9b-4b7d-bc96-eb2a33a07992","system_id":"levelo_inurba_marseille","lat":43.25952,"lon":5.40922,"is_reserved":false,"is_disabled":false,"rental_uris":{"android":"levelo://app?vid=9e4dae27-4c9b-4b7d-bc96-eb2a33a07992","ios":"levelo://app?vid=9e4dae27-4c9b-4b7d-bc96-eb2a33a07992"},"vehicle_type_id":"4","last_reported":1742995214,"current_range_meters":12800,"station_id":"ce4bhm92rcd13ifvqglg","pricing_plan_id":"cebpf4jnsgd1na2vs0mg"},{"bike_id":"53342180-c148-436a-ad56-1c957642ec6a","system_id":"levelo_inurba_marseille","lat":43.23191,"lon":5.35562,"is_reserved":false,"is_disabled":false,"rental_uris":{"android":"levelo://app?vid=53342180-c148-436a-ad56-1c957642ec6a","ios":"levelo://app?vid=53342180-c148-436a-ad56-1c957642ec6a"},"vehicle_type_id":"4","last_reported":1742995214,"current_range_meters":12800,"station_id":"ce4bhu92rcd13ifvqi70","pricing_plan_id":"cebpf4jnsgd1na2vs0mg"},{"bike_id":"68216cb1-ee47-4ac9-8c58-e7a376ff7071","system_id":"levelo_inurba_marseille","lat":43.23194,"lon":5.35548,"is_reserved":false,"is_disabled":false,"rental_uris":{"android":"levelo://app?vid=68216cb1-ee47-4ac9-8c58-e7a376ff7071","ios":"levelo://app?vid=68216cb1-ee47-4ac9-8c58-e7a376ff7071"},"vehicle_type_id":"4","last_reported":1742995214,"current_range_meters":12800,"station_id":"ce4bhu92rcd13ifvqi70","pricing_plan_id":"cebpf4jnsgd1na2vs0mg"},{"bike_id":"ddb80a09-7364-48e1-b291-527dbdfef5d0","system_id":"levelo_inurba_marseille","lat":43.26813,"lon":5.4027,"is_reserved":false,"is_disabled":false,"rental_uris":{"android":"levelo://app?vid=ddb80a09-7364-48e1-b291-527dbdfef5d0","ios":"levelo://app?vid=ddb80a09-7364-48e1-b291-527dbdfef5d0"},"vehicle_type_id":"4","last_reported":1742995214,"current_range_meters":12800,"station_id":"ce501612rcd8frsf0b60","pricing_plan_id":"cebpf4jnsgd1na2vs0mg"},{"bike_id":"397f6537-8ee1-4e7d-8856-5c3028b7b8d3","system_id":"levelo_inurba_marseille","lat":43.31489,"lon":5.37312,"is_reserved":false,"is_disabled":false,"rental_uris":{"android":"levelo://app?vid=397f6537-8ee1-4e7d-8856-5c3028b7b8d3","ios":"levelo://app?vid=397f6537-8ee1-4e7d-8856-5c3028b7b8d3"},"vehicle_type_id":"4","last_reported":1742995214,"current_range_meters":12400,"station_id":"ce4bgt12rcd13ifvqcd0","pricing_plan_id":"cebpf4jnsgd1na2vs0mg"},{"bike_id":"68d42813-4eb5-41fe-a58d-c64b32f2b935","system_id":"levelo_inurba_marseille","lat":43.323597,"lon":5.367604,"is_reserved":false,"is_disabled":false,"rental_uris":{"android":"levelo://app?vid=68d42813-4eb5-41fe-a58d-c64b32f2b935","ios":"levelo://app?vid=68d42813-4eb5-41fe-a58d-c64b32f2b935"},"vehicle_type_id":"4","last_reported":1742995214,"current_range_meters":13600,"station_id":"ce4bhsh2rcd13ifvqi2g","pricing_plan_id":"cebpf4jnsgd1na2vs0mg"},{"bike_id":"32801816-2201-4874-aadf-00bf1eb21f17","system_id":"levelo_inurba_marseille","lat":43.24667,"lon":5.38166,"is_reserved":false,"is_disabled":false,"rental_uris":{"android":"levelo://app?vid=32801816-2201-4874-aadf-00bf1eb21f17","ios":"levelo://app?vid=32801816-2201-4874-aadf-00bf1eb21f17"},"vehicle_type_id":"4","last_reported":1742995214,"current_range_meters":13600,"station_id":"ce4bhih2rcd13ifvqfr0","pricing_plan_id":"cebpf4jnsgd1na2vs0mg"},{"bike_id":"0c57bed3-7fd2-47e5-a8f1-fd8a1b4bd5d6","system_id":"levelo_inurba_marseille","lat":43.22921,"lon":5.35375,"is_reserved":false,"is_disabled":false,"rental_uris":{"android":"levelo://app?vid=0c57bed3-7fd2-47e5-a8f1-fd8a1b4bd5d6","ios":"levelo://app?vid=0c57bed3-7fd2-47e5-a8f1-fd8a1b4bd5d6"},"vehicle_type_id":"4","last_reported":1742995214,"current_range_meters":12800,"station_id":"cpo3532slgdg3j2ikp40","pricing_plan_id":"cebpf4jnsgd1na2vs0mg"},{"bike_id":"46bc7627-5963-437b-83ed-b3f9497370e8","system_id":"levelo_inurba_marseille","lat":43.29886,"lon":5.4369,"is_reserved":false,"is_disabled":false,"rental_uris":{"android":"levelo://app?vid=46bc7627-5963-437b-83ed-b3f9497370e8","ios":"levelo://app?vid=46bc7627-5963-437b-83ed-b3f9497370e8"},"vehicle_type_id":"4","last_reported":1742995214,"current_range_meters":13600,"station_id":"ce4bhpp2rcd13ifvqhfg","pricing_plan_id":"cebpf4jnsgd1na2vs0mg"},{"bike_id":"90eb7e27-4960-4325-80fc-ae2a1cce4035","system_id":"levelo_inurba_marseille","lat":43.28004,"lon":5.40011,"is_reserved":false,"is_disabled":false,"rental_uris":{"android":"levelo://app?vid=90eb7e27-4960-4325-80fc-ae2a1cce4035","ios":"levelo://app?vid=90eb7e27-4960-4325-80fc-ae2a1cce4035"},"vehicle_type_id":"4","last_reported":1742995214,"current_range_meters":13600,"station_id":"ce4bho92rcd13ifvqh4g","pricing_plan_id":"cebpf4jnsgd1na2vs0mg"},{"bike_id":"086f8237-066d-4a5d-b169-847553806770","system_id":"levelo_inurba_marseille","lat":43.25116,"lon":5.40336,"is_reserved":false,"is_disabled":false,"rental_uris":{"android":"levelo://app?vid=086f8237-066d-4a5d-b169-847553806770","ios":"levelo://app?vid=086f8237-066d-4a5d-b169-847553806770"},"vehicle_type_id":"4","last_reported":1742995214,"current_range_meters":13600,"station_id":"ce4bhlh2rcd13ifvqgig","pricing_plan_id":"cebpf4jnsgd1na2vs0mg"},{"bike_id":"7dec9f81-dcd3-4e58-ae8f-e94a482e1b0e","system_id":"levelo_inurba_marseille","lat":43.25931,"lon":5.40903,"is_reserved":false,"is_disabled":false,"rental_uris":{"android":"levelo://app?vid=7dec9f81-dcd3-4e58-ae8f-e94a482e1b0e","ios":"levelo://app?vid=7dec9f81-dcd3-4e58-ae8f-e94a482e1b0e"},"vehicle_type_id":"4","last_reported":1742995214,"current_range_meters":14000,"station_id":"ce4bhm92rcd13ifvqglg","pricing_plan_id":"cebpf4jnsgd1na2vs0mg"},{"bike_id":"00a6566c-9629-4dce-b6c6-f9a859b388e2","system_id":"levelo_inurba_marseille","lat":43.29001,"lon":5.35614,"is_reserved":false,"is_disabled":false,"rental_uris":{"android":"levelo://app?vid=00a6566c-9629-4dce-b6c6-f9a859b388e2","ios":"levelo://app?vid=00a6566c-9629-4dce-b6c6-f9a859b388e2"},"vehicle_type_id":"4","last_reported":1742995214,"current_range_meters":14000,"station_id":"ce4bhb92rcd13ifvqen0","pricing_plan_id":"cebpf4jnsgd1na2vs0mg"},{"bike_id":"ce6fb305-2ce9-42a2-a222-e7a3d9e1b14e","system_id":"levelo_inurba_marseille","lat":43.3303,"lon":5.39039,"is_reserved":false,"is_disabled":false,"rental_uris":{"android":"levelo://app?vid=ce6fb305-2ce9-42a2-a222-e7a3d9e1b14e","ios":"levelo://app?vid=ce6fb305-2ce9-42a2-a222-e7a3d9e1b14e"},"vehicle_type_id":"4","last_reported":1742995214,"current_range_meters":14000,"station_id":"ce4bhr92rcd13ifvqhrg","pricing_plan_id":"cebpf4jnsgd1na2vs0mg"},{"bike_id":"0f9443e3-33eb-4c08-9852-439b28315704","system_id":"levelo_inurba_marseille","lat":43.30774,"lon":5.37642,"is_reserved":false,"is_disabled":false,"rental_uris":{"android":"levelo://app?vid=0f9443e3-33eb-4c08-9852-439b28315704","ios":"levelo://app?vid=0f9443e3-33eb-4c08-9852-439b28315704"},"vehicle_type_id":"4","last_reported":1742995214,"current_range_meters":14000,"station_id":"ce4bgv92rcd13ifvqcq0","pricing_plan_id":"cebpf4jnsgd1na2vs0mg"},{"bike_id":"d72b2321-ec34-48cf-868e-8c5e65afe96e","system_id":"levelo_inurba_marseille","lat":43.27912,"lon":5.39603,"is_reserved":false,"is_disabled":false,"rental_uris":{"android":"levelo://app?vid=d72b2321-ec34-48cf-868e-8c5e65afe96e","ios":"levelo://app?vid=d72b2321-ec34-48cf-868e-8c5e65afe96e"},"vehicle_type_id":"4","last_reported":1742995214,"current_range_meters":14400,"station_id":"ce4bhf92rcd13ifvqf40","pricing_plan_id":"cebpf4jnsgd1na2vs0mg"},{"bike_id":"a6b58489-46fb-41bb-bf75-39fd8bb7f6b6","system_id":"levelo_inurba_marseille","lat":43.2957,"lon":5.39981,"is_reserved":false,"is_disabled":false,"rental_uris":{"android":"levelo://app?vid=a6b58489-46fb-41bb-bf75-39fd8bb7f6b6","ios":"levelo://app?vid=a6b58489-46fb-41bb-bf75-39fd8bb7f6b6"},"vehicle_type_id":"4","last_reported":1742995214,"current_range_meters":14000,"station_id":"ce4bh312rcd13ifvqdj0","pricing_plan_id":"cebpf4jnsgd1na2vs0mg"},{"bike_id":"f294d69a-8637-46e9-95b8-3d82151d6376","system_id":"levelo_inurba_marseille","lat":43.28003,"lon":5.41671,"is_reserved":false,"is_disabled":false,"rental_uris":{"android":"levelo://app?vid=f294d69a-8637-46e9-95b8-3d82151d6376","ios":"levelo://app?vid=f294d69a-8637-46e9-95b8-3d82151d6376"},"vehicle_type_id":"4","last_reported":1742995214,"current_range_meters":14400,"station_id":"ce4bho12rcd13ifvqh1g","pricing_plan_id":"cebpf4jnsgd1na2vs0mg"},{"bike_id":"142cb07b-9b09-476e-bde4-e982203b2903","system_id":"levelo_inurba_marseille","lat":43.28615,"lon":5.35105,"is_reserved":false,"is_disabled":false,"rental_uris":{"android":"levelo://app?vid=142cb07b-9b09-476e-bde4-e982203b2903","ios":"levelo://app?vid=142cb07b-9b09-476e-bde4-e982203b2903"},"vehicle_type_id":"4","last_reported":1742995214,"current_range_meters":14400,"station_id":"ce4bhch2rcd13ifvqeug","pricing_plan_id":"cebpf4jnsgd1na2vs0mg"},{"bike_id":"0f6acde7-e713-4c5b-ade6-9ffb36cbf04b","system_id":"levelo_inurba_marseille","lat":43.28274,"lon":5.35069,"is_reserved":false,"is_disabled":false,"rental_uris":{"android":"levelo://app?vid=0f6acde7-e713-4c5b-ade6-9ffb36cbf04b","ios":"levelo://app?vid=0f6acde7-e713-4c5b-ade6-9ffb36cbf04b"},"vehicle_type_id":"4","last_reported":1742995214,"current_range_meters":14400,"station_id":"ce4bhbp2rcd13ifvqerg","pricing_plan_id":"cebpf4jnsgd1na2vs0mg"},{"bike_id":"a446a54f-4fbf-40df-b247-11c1431d2281","system_id":"levelo_inurba_marseille","lat":43.31235,"lon":5.36889,"is_reserved":false,"is_disabled":false,"rental_uris":{"android":"levelo://app?vid=a446a54f-4fbf-40df-b247-11c1431d2281","ios":"levelo://app?vid=a446a54f-4fbf-40df-b247-11c1431d2281"},"vehicle_type_id":"4","last_reported":1742995214,"current_range_meters":14400,"station_id":"ce4bgl92rcd13ifvqbq0","pricing_plan_id":"cebpf4jnsgd1na2vs0mg"},{"bike_id":"c6e3452b-f8d0-48b5-b208-01d642929070","system_id":"levelo_inurba_marseille","lat":43.30547,"lon":5.36713,"is_reserved":false,"is_disabled":false,"rental_uris":{"android":"levelo://app?vid=c6e3452b-f8d0-48b5-b208-01d642929070","ios":"levelo://app?vid=c6e3452b-f8d0-48b5-b208-01d642929070"},"vehicle_type_id":"4","last_reported":1742995214,"current_range_meters":14400,"station_id":"ce4bgrp2rcd13ifvqc9g","pricing_plan_id":"cebpf4jnsgd1na2vs0mg"},{"bike_id":"5a86a0ff-a812-42dc-84dd-dff8f4cf06da","system_id":"levelo_inurba_marseille","lat":43.28101,"lon":5.37825,"is_reserved":false,"is_disabled":false,"rental_uris":{"android":"levelo://app?vid=5a86a0ff-a812-42dc-84dd-dff8f4cf06da","ios":"levelo://app?vid=5a86a0ff-a812-42dc-84dd-dff8f4cf06da"},"vehicle_type_id":"4","last_reported":1742995214,"current_range_meters":14400,"station_id":"ce4bha12rcd13ifvqee0","pricing_plan_id":"cebpf4jnsgd1na2vs0mg"},{"bike_id":"18024043-5879-41d3-87ea-3db033e42a8f","system_id":"levelo_inurba_marseille","lat":43.28573,"lon":5.39501,"is_reserved":false,"is_disabled":false,"rental_uris":{"android":"levelo://app?vid=18024043-5879-41d3-87ea-3db033e42a8f","ios":"levelo://app?vid=18024043-5879-41d3-87ea-3db033e42a8f"},"vehicle_type_id":"4","last_reported":1742995214,"current_range_meters":14800,"station_id":"ce4bh292rcd13ifvqdg0","pricing_plan_id":"cebpf4jnsgd1na2vs0mg"},{"bike_id":"ab255577-419b-4b2c-b48f-5c6fb00afdfd","system_id":"levelo_inurba_marseille","lat":43.32357,"lon":5.36752,"is_reserved":false,"is_disabled":false,"rental_uris":{"android":"levelo://app?vid=ab255577-419b-4b2c-b48f-5c6fb00afdfd","ios":"levelo://app?vid=ab255577-419b-4b2c-b48f-5c6fb00afdfd"},"vehicle_type_id":"4","last_reported":1742995214,"current_range_meters":14800,"station_id":"ce4bhsh2rcd13ifvqi2g","pricing_plan_id":"cebpf4jnsgd1na2vs0mg"},{"bike_id":"94e79fc7-9367-4952-8689-794a28fc3d39","system_id":"levelo_inurba_marseille","lat":43.29893,"lon":5.43661,"is_reserved":false,"is_disabled":false,"rental_uris":{"android":"levelo://app?vid=94e79fc7-9367-4952-8689-794a28fc3d39","ios":"levelo://app?vid=94e79fc7-9367-4952-8689-794a28fc3d39"},"vehicle_type_id":"4","last_reported":1742995214,"current_range_meters":14800,"station_id":"ce4bhpp2rcd13ifvqhfg","pricing_plan_id":"cebpf4jnsgd1na2vs0mg"},{"bike_id":"d053dd27-d547-4fb2-912b-ae90933c464c","system_id":"levelo_inurba_marseille","lat":43.33185,"lon":5.38155,"is_reserved":false,"is_disabled":false,"rental_uris":{"android":"levelo://app?vid=d053dd27-d547-4fb2-912b-ae90933c464c","ios":"levelo://app?vid=d053dd27-d547-4fb2-912b-ae90933c464c"},"vehicle_type_id":"4","last_reported":1742995214,"current_range_meters":14800,"station_id":"","pricing_plan_id":"cebpf4jnsgd1na2vs0mg"},{"bike_id":"04bf78a2-aefc-489e-b9bc-b4b82d9e0fc4","system_id":"levelo_inurba_marseille","lat":43.25119,"lon":5.40336,"is_reserved":false,"is_disabled":false,"rental_uris":{"android":"levelo://app?vid=04bf78a2-aefc-489e-b9bc-b4b82d9e0fc4","ios":"levelo://app?vid=04bf78a2-aefc-489e-b9bc-b4b82d9e0fc4"},"vehicle_type_id":"4","last_reported":1742995214,"current_range_meters":14800,"station_id":"ce4bhlh2rcd13ifvqgig","pricing_plan_id":"cebpf4jnsgd1na2vs0mg"},{"bike_id":"c1e5d953-d0ba-49d0-bc6a-922af072e596","system_id":"levelo_inurba_marseille","lat":43.25504,"lon":5.37658,"is_reserved":false,"is_disabled":false,"rental_uris":{"android":"levelo://app?vid=c1e5d953-d0ba-49d0-bc6a-922af072e596","ios":"levelo://app?vid=c1e5d953-d0ba-49d0-bc6a-922af072e596"},"vehicle_type_id":"4","last_reported":1742995214,"current_range_meters":11200,"station_id":"ce4bhh12rcd13ifvqff0","pricing_plan_id":"cebpf4jnsgd1na2vs0mg"},{"bike_id":"3f6e65a1-5e11-471e-b3f8-cb3c7c84c93d","system_id":"levelo_inurba_marseille","lat":43.29005,"lon":5.35617,"is_reserved":false,"is_disabled":false,"rental_uris":{"android":"levelo://app?vid=3f6e65a1-5e11-471e-b3f8-cb3c7c84c93d","ios":"levelo://app?vid=3f6e65a1-5e11-471e-b3f8-cb3c7c84c93d"},"vehicle_type_id":"4","last_reported":1742995214,"current_range_meters":14800,"station_id":"ce4bhb92rcd13ifvqen0","pricing_plan_id":"cebpf4jnsgd1na2vs0mg"},{"bike_id":"e1f7ff18-6393-4620-ac48-88fecd210b01","system_id":"levelo_inurba_marseille","lat":43.31363,"lon":5.36691,"is_reserved":false,"is_disabled":false,"rental_uris":{"android":"levelo://app?vid=e1f7ff18-6393-4620-ac48-88fecd210b01","ios":"levelo://app?vid=e1f7ff18-6393-4620-ac48-88fecd210b01"},"vehicle_type_id":"4","last_reported":1742995214,"current_range_meters":14800,"station_id":"ce4bgr92rcd13ifvqc6g","pricing_plan_id":"cebpf4jnsgd1na2vs0mg"},{"bike_id":"d9cecafa-1f2a-4832-afe7-631fcc6f0a18","system_id":"levelo_inurba_marseille","lat":43.27811,"lon":5.40717,"is_reserved":false,"is_disabled":false,"rental_uris":{"android":"levelo://app?vid=d9cecafa-1f2a-4832-afe7-631fcc6f0a18","ios":"levelo://app?vid=d9cecafa-1f2a-4832-afe7-631fcc6f0a18"},"vehicle_type_id":"4","last_reported":1742995214,"current_range_meters":15200,"station_id":"ce4bhnh2rcd13ifvqgtg","pricing_plan_id":"cebpf4jnsgd1na2vs0mg"},{"bike_id":"7eb3242d-343e-481d-93af-31878df1fa92","system_id":"levelo_inurba_marseille","lat":43.33024,"lon":5.39048,"is_reserved":false,"is_disabled":false,"rental_uris":{"android":"levelo://app?vid=7eb3242d-343e-481d-93af-31878df1fa92","ios":"levelo://app?vid=7eb3242d-343e-481d-93af-31878df1fa92"},"vehicle_type_id":"4","last_reported":1742995214,"current_range_meters":16000,"station_id":"ce4bhr92rcd13ifvqhrg","pricing_plan_id":"cebpf4jnsgd1na2vs0mg"},{"bike_id":"75c7187b-7cb5-4136-b180-795a32bcbe1d","system_id":"levelo_inurba_marseille","lat":43.27974,"lon":5.38589,"is_reserved":false,"is_disabled":true,"rental_uris":{"android":"levelo://app?vid=75c7187b-7cb5-4136-b180-795a32bcbe1d","ios":"levelo://app?vid=75c7187b-7cb5-4136-b180-795a32bcbe1d"},"vehicle_type_id":"4","last_reported":1742995214,"current_range_meters":15200,"station_id":"","pricing_plan_id":"cebpf4jnsgd1na2vs0mg"},{"bike_id":"494bb9d0-768d-417c-a1ba-2a5eb9e3116f","system_id":"levelo_inurba_marseille","lat":43.31239,"lon":5.36878,"is_reserved":false,"is_disabled":false,"rental_uris":{"android":"levelo://app?vid=494bb9d0-768d-417c-a1ba-2a5eb9e3116f","ios":"levelo://app?vid=494bb9d0-768d-417c-a1ba-2a5eb9e3116f"},"vehicle_type_id":"4","last_reported":1742995214,"current_range_meters":15200,"station_id":"ce4bgl92rcd13ifvqbq0","pricing_plan_id":"cebpf4jnsgd1na2vs0mg"},{"bike_id":"a4e9e3fd-ebc7-468f-aaef-a21894efe6ce","system_id":"levelo_inurba_marseille","lat":43.28438,"lon":5.39183,"is_reserved":false,"is_disabled":false,"rental_uris":{"android":"levelo://app?vid=a4e9e3fd-ebc7-468f-aaef-a21894efe6ce","ios":"levelo://app?vid=a4e9e3fd-ebc7-468f-aaef-a21894efe6ce"},"vehicle_type_id":"4","last_reported":1742995214,"current_range_meters":15200,"station_id":"ce4bhoh2rcd13ifvqh5g","pricing_plan_id":"cebpf4jnsgd1na2vs0mg"},{"bike_id":"68413d4a-551c-48ad-b18f-6b07a03d7a99","system_id":"levelo_inurba_marseille","lat":43.278263,"lon":5.392469,"is_reserved":false,"is_disabled":false,"rental_uris":{"android":"levelo://app?vid=68413d4a-551c-48ad-b18f-6b07a03d7a99","ios":"levelo://app?vid=68413d4a-551c-48ad-b18f-6b07a03d7a99"},"vehicle_type_id":"4","last_reported":1742995214,"current_range_meters":16000,"station_id":"ce4bhjp2rcd13ifvqga0","pricing_plan_id":"cebpf4jnsgd1na2vs0mg"},{"bike_id":"24a1248f-5e8a-4578-9a89-a7ea39a78ae1","system_id":"levelo_inurba_marseille","lat":43.27959,"lon":5.41047,"is_reserved":false,"is_disabled":true,"rental_uris":{"android":"levelo://app?vid=24a1248f-5e8a-4578-9a89-a7ea39a78ae1","ios":"levelo://app?vid=24a1248f-5e8a-4578-9a89-a7ea39a78ae1"},"vehicle_type_id":"4","last_reported":1742995214,"current_range_meters":16000,"station_id":"ce4bhnp2rcd13ifvqh0g","pricing_plan_id":"cebpf4jnsgd1na2vs0mg"},{"bike_id":"c31d62d8-98e3-4257-bbfa-152eefb747f9","system_id":"levelo_inurba_marseille","lat":43.27813,"lon":5.40725,"is_reserved":false,"is_disabled":false,"rental_uris":{"android":"levelo://app?vid=c31d62d8-98e3-4257-bbfa-152eefb747f9","ios":"levelo://app?vid=c31d62d8-98e3-4257-bbfa-152eefb747f9"},"vehicle_type_id":"4","last_reported":1742995214,"current_range_meters":16000,"station_id":"ce4bhnh2rcd13ifvqgtg","pricing_plan_id":"cebpf4jnsgd1na2vs0mg"},{"bike_id":"235e2c24-a6a2-4d25-8e7f-4ad726cd25bb","system_id":"levelo_inurba_marseille","lat":43.29254,"lon":5.37626,"is_reserved":false,"is_disabled":false,"rental_uris":{"android":"levelo://app?vid=235e2c24-a6a2-4d25-8e7f-4ad726cd25bb","ios":"levelo://app?vid=235e2c24-a6a2-4d25-8e7f-4ad726cd25bb"},"vehicle_type_id":"4","last_reported":1742995214,"current_range_meters":16000,"station_id":"ce4bgi12rcd13ifvqb80","pricing_plan_id":"cebpf4jnsgd1na2vs0mg"},{"bike_id":"052ce1de-eb2f-4c90-9b57-27fec55e051a","system_id":"levelo_inurba_marseille","lat":43.30305,"lon":5.3688,"is_reserved":false,"is_disabled":false,"rental_uris":{"android":"levelo://app?vid=052ce1de-eb2f-4c90-9b57-27fec55e051a","ios":"levelo://app?vid=052ce1de-eb2f-4c90-9b57-27fec55e051a"},"vehicle_type_id":"4","last_reported":1742995214,"current_range_meters":16000,"station_id":"ce4bgqh2rcd13ifvqc5g","pricing_plan_id":"cebpf4jnsgd1na2vs0mg"},{"bike_id":"0ac88cdf-dd3a-494f-aaa5-2b24d1ce393f","system_id":"levelo_inurba_marseille","lat":43.23186,"lon":5.35561,"is_reserved":false,"is_disabled":false,"rental_uris":{"android":"levelo://app?vid=0ac88cdf-dd3a-494f-aaa5-2b24d1ce393f","ios":"levelo://app?vid=0ac88cdf-dd3a-494f-aaa5-2b24d1ce393f"},"vehicle_type_id":"4","last_reported":1742995214,"current_range_meters":16000,"station_id":"ce4bhu92rcd13ifvqi70","pricing_plan_id":"cebpf4jnsgd1na2vs0mg"},{"bike_id":"7f532646-0421-49d5-96f7-f295d19c3a47","system_id":"levelo_inurba_marseille","lat":43.28296,"lon":5.35098,"is_reserved":false,"is_disabled":false,"rental_uris":{"android":"levelo://app?vid=7f532646-0421-49d5-96f7-f295d19c3a47","ios":"levelo://app?vid=7f532646-0421-49d5-96f7-f295d19c3a47"},"vehicle_type_id":"4","last_reported":1742995214,"current_range_meters":16000,"station_id":"ce4bhbp2rcd13ifvqerg","pricing_plan_id":"cebpf4jnsgd1na2vs0mg"},{"bike_id":"c18155db-65c7-4d5a-8c5b-923eb75c675d","system_id":"levelo_inurba_marseille","lat":43.32108,"lon":5.36769,"is_reserved":false,"is_disabled":false,"rental_uris":{"android":"levelo://app?vid=c18155db-65c7-4d5a-8c5b-923eb75c675d","ios":"levelo://app?vid=c18155db-65c7-4d5a-8c5b-923eb75c675d"},"vehicle_type_id":"4","last_reported":1742995214,"current_range_meters":16000,"station_id":"ce4bhrh2rcd13ifvqhug","pricing_plan_id":"cebpf4jnsgd1na2vs0mg"},{"bike_id":"e19cf256-b09a-4323-9562-a5de5392797d","system_id":"levelo_inurba_marseille","lat":43.30141,"lon":5.3987,"is_reserved":false,"is_disabled":false,"rental_uris":{"android":"levelo://app?vid=e19cf256-b09a-4323-9562-a5de5392797d","ios":"levelo://app?vid=e19cf256-b09a-4323-9562-a5de5392797d"},"vehicle_type_id":"4","last_reported":1742995214,"current_range_meters":16000,"station_id":"ce4bh0h2rcd13ifvqd40","pricing_plan_id":"cebpf4jnsgd1na2vs0mg"},{"bike_id":"5ca9ac81-53c9-444a-ab66-71f3af25a779","system_id":"levelo_inurba_marseille","lat":43.28015,"lon":5.39987,"is_reserved":false,"is_disabled":false,"rental_uris":{"android":"levelo://app?vid=5ca9ac81-53c9-444a-ab66-71f3af25a779","ios":"levelo://app?vid=5ca9ac81-53c9-444a-ab66-71f3af25a779"},"vehicle_type_id":"4","last_reported":1742995214,"current_range_meters":16000,"station_id":"ce4bho92rcd13ifvqh4g","pricing_plan_id":"cebpf4jnsgd1na2vs0mg"},{"bike_id":"fc8e8371-f4e9-4721-bc19-563801e389dc","system_id":"levelo_inurba_marseille","lat":43.337444,"lon":5.374475,"is_reserved":false,"is_disabled":false,"rental_uris":{"android":"levelo://app?vid=fc8e8371-f4e9-4721-bc19-563801e389dc","ios":"levelo://app?vid=fc8e8371-f4e9-4721-bc19-563801e389dc"},"vehicle_type_id":"4","last_reported":1742995214,"current_range_meters":16000,"station_id":"","pricing_plan_id":"cebpf4jnsgd1na2vs0mg"},{"bike_id":"d27dee6f-38a4-4cd7-94d4-c5241662ed91","system_id":"levelo_inurba_marseille","lat":43.31481,"lon":5.37289,"is_reserved":false,"is_disabled":false,"rental_uris":{"android":"levelo://app?vid=d27dee6f-38a4-4cd7-94d4-c5241662ed91","ios":"levelo://app?vid=d27dee6f-38a4-4cd7-94d4-c5241662ed91"},"vehicle_type_id":"4","last_reported":1742995214,"current_range_meters":16400,"station_id":"ce4bgt12rcd13ifvqcd0","pricing_plan_id":"cebpf4jnsgd1na2vs0mg"},{"bike_id":"11a4c9a1-7351-4638-b993-f9787d92a71b","system_id":"levelo_inurba_marseille","lat":43.24182,"lon":5.3972,"is_reserved":false,"is_disabled":false,"rental_uris":{"android":"levelo://app?vid=11a4c9a1-7351-4638-b993-f9787d92a71b","ios":"levelo://app?vid=11a4c9a1-7351-4638-b993-f9787d92a71b"},"vehicle_type_id":"4","last_reported":1742995214,"current_range_meters":16400,"station_id":"ce4bhn12rcd13ifvqgpg","pricing_plan_id":"cebpf4jnsgd1na2vs0mg"},{"bike_id":"7e30d650-1a52-4429-9f28-359832fb3763","system_id":"levelo_inurba_marseille","lat":43.28439,"lon":5.392,"is_reserved":false,"is_disabled":false,"rental_uris":{"android":"levelo://app?vid=7e30d650-1a52-4429-9f28-359832fb3763","ios":"levelo://app?vid=7e30d650-1a52-4429-9f28-359832fb3763"},"vehicle_type_id":"4","last_reported":1742995214,"current_range_meters":16400,"station_id":"ce4bhoh2rcd13ifvqh5g","pricing_plan_id":"cebpf4jnsgd1na2vs0mg"},{"bike_id":"c8713961-ce92-42f0-be9d-e912ab14713e","system_id":"levelo_inurba_marseille","lat":43.28,"lon":5.39999,"is_reserved":false,"is_disabled":false,"rental_uris":{"android":"levelo://app?vid=c8713961-ce92-42f0-be9d-e912ab14713e","ios":"levelo://app?vid=c8713961-ce92-42f0-be9d-e912ab14713e"},"vehicle_type_id":"4","last_reported":1742995214,"current_range_meters":16400,"station_id":"ce4bho92rcd13ifvqh4g","pricing_plan_id":"cebpf4jnsgd1na2vs0mg"},{"bike_id":"379879bf-1f7f-45f5-9cac-b09d574b3620","system_id":"levelo_inurba_marseille","lat":43.27808,"lon":5.40714,"is_reserved":false,"is_disabled":false,"rental_uris":{"android":"levelo://app?vid=379879bf-1f7f-45f5-9cac-b09d574b3620","ios":"levelo://app?vid=379879bf-1f7f-45f5-9cac-b09d574b3620"},"vehicle_type_id":"4","last_reported":1742995214,"current_range_meters":16400,"station_id":"ce4bhnh2rcd13ifvqgtg","pricing_plan_id":"cebpf4jnsgd1na2vs0mg"},{"bike_id":"84c1f859-db2e-4d8d-840f-ed003910e2db","system_id":"levelo_inurba_marseille","lat":43.2603,"lon":5.37549,"is_reserved":false,"is_disabled":false,"rental_uris":{"android":"levelo://app?vid=84c1f859-db2e-4d8d-840f-ed003910e2db","ios":"levelo://app?vid=84c1f859-db2e-4d8d-840f-ed003910e2db"},"vehicle_type_id":"4","last_reported":1742995214,"current_range_meters":16400,"station_id":"ce4bhgh2rcd13ifvqfa0","pricing_plan_id":"cebpf4jnsgd1na2vs0mg"},{"bike_id":"64f0ea86-1180-4755-95e1-3cbc9c8d4cf5","system_id":"levelo_inurba_marseille","lat":43.330128,"lon":5.438622,"is_reserved":false,"is_disabled":true,"rental_uris":{"android":"levelo://app?vid=64f0ea86-1180-4755-95e1-3cbc9c8d4cf5","ios":"levelo://app?vid=64f0ea86-1180-4755-95e1-3cbc9c8d4cf5"},"vehicle_type_id":"4","last_reported":1742995214,"current_range_meters":16400,"station_id":"","pricing_plan_id":"cebpf4jnsgd1na2vs0mg"},{"bike_id":"a03834e5-fa97-4593-85e3-5e0409d08be7","system_id":"levelo_inurba_marseille","lat":43.30139,"lon":5.37407,"is_reserved":false,"is_disabled":false,"rental_uris":{"android":"levelo://app?vid=a03834e5-fa97-4593-85e3-5e0409d08be7","ios":"levelo://app?vid=a03834e5-fa97-4593-85e3-5e0409d08be7"},"vehicle_type_id":"4","last_reported":1742995214,"current_range_meters":16400,"station_id":"ce4bgs92rcd13ifvqcc0","pricing_plan_id":"cebpf4jnsgd1na2vs0mg"},{"bike_id":"5018a59b-b386-4e99-b26c-192a8f1ed783","system_id":"levelo_inurba_marseille","lat":43.33333,"lon":5.35929,"is_reserved":false,"is_disabled":false,"rental_uris":{"android":"levelo://app?vid=5018a59b-b386-4e99-b26c-192a8f1ed783","ios":"levelo://app?vid=5018a59b-b386-4e99-b26c-192a8f1ed783"},"vehicle_type_id":"4","last_reported":1742995214,"current_range_meters":16400,"station_id":"","pricing_plan_id":"cebpf4jnsgd1na2vs0mg"},{"bike_id":"338ef5ef-6ed0-4719-a7ea-82be458e61b4","system_id":"levelo_inurba_marseille","lat":43.24398,"lon":5.37049,"is_reserved":false,"is_disabled":false,"rental_uris":{"android":"levelo://app?vid=338ef5ef-6ed0-4719-a7ea-82be458e61b4","ios":"levelo://app?vid=338ef5ef-6ed0-4719-a7ea-82be458e61b4"},"vehicle_type_id":"4","last_reported":1742995214,"current_range_meters":16800,"station_id":"ce4bhhh2rcd13ifvqfk0","pricing_plan_id":"cebpf4jnsgd1na2vs0mg"},{"bike_id":"715d9e74-e33e-4226-8d11-7185f86232f0","system_id":"levelo_inurba_marseille","lat":43.28875,"lon":5.35868,"is_reserved":false,"is_disabled":false,"rental_uris":{"android":"levelo://app?vid=715d9e74-e33e-4226-8d11-7185f86232f0","ios":"levelo://app?vid=715d9e74-e33e-4226-8d11-7185f86232f0"},"vehicle_type_id":"4","last_reported":1742995214,"current_range_meters":16800,"station_id":"ce4bhb12rcd13ifvqem0","pricing_plan_id":"cebpf4jnsgd1na2vs0mg"},{"bike_id":"340a50b9-3993-44f7-a9f0-f00271ac3e91","system_id":"levelo_inurba_marseille","lat":43.29078,"lon":5.37172,"is_reserved":false,"is_disabled":false,"rental_uris":{"android":"levelo://app?vid=340a50b9-3993-44f7-a9f0-f00271ac3e91","ios":"levelo://app?vid=340a50b9-3993-44f7-a9f0-f00271ac3e91"},"vehicle_type_id":"4","last_reported":1742995214,"current_range_meters":16800,"station_id":"ce4bh5p2rcd13ifvqe4g","pricing_plan_id":"cebpf4jnsgd1na2vs0mg"},{"bike_id":"62cb10f2-81d6-4f03-8427-1ae2bf3a9244","system_id":"levelo_inurba_marseille","lat":43.29914,"lon":5.38146,"is_reserved":false,"is_disabled":false,"rental_uris":{"android":"levelo://app?vid=62cb10f2-81d6-4f03-8427-1ae2bf3a9244","ios":"levelo://app?vid=62cb10f2-81d6-4f03-8427-1ae2bf3a9244"},"vehicle_type_id":"4","last_reported":1742995214,"current_range_meters":16800,"station_id":"ce4bgj12rcd13ifvqbc0","pricing_plan_id":"cebpf4jnsgd1na2vs0mg"},{"bike_id":"c896a30e-408f-4fdc-aa97-dd0a7c5586b6","system_id":"levelo_inurba_marseille","lat":43.23197,"lon":5.39998,"is_reserved":false,"is_disabled":false,"rental_uris":{"android":"levelo://app?vid=c896a30e-408f-4fdc-aa97-dd0a7c5586b6","ios":"levelo://app?vid=c896a30e-408f-4fdc-aa97-dd0a7c5586b6"},"vehicle_type_id":"4","last_reported":1742995214,"current_range_meters":16800,"station_id":"ce4bhn12rcd13ifvqgqg","pricing_plan_id":"cebpf4jnsgd1na2vs0mg"},{"bike_id":"e1286bcb-31ee-4020-bfdf-b33e9a0bfa99","system_id":"levelo_inurba_marseille","lat":43.24661,"lon":5.38152,"is_reserved":false,"is_disabled":false,"rental_uris":{"android":"levelo://app?vid=e1286bcb-31ee-4020-bfdf-b33e9a0bfa99","ios":"levelo://app?vid=e1286bcb-31ee-4020-bfdf-b33e9a0bfa99"},"vehicle_type_id":"4","last_reported":1742995214,"current_range_meters":16800,"station_id":"ce4bhih2rcd13ifvqfr0","pricing_plan_id":"cebpf4jnsgd1na2vs0mg"},{"bike_id":"f8d5d4cf-bb4e-40d8-a779-a90949766a1f","system_id":"levelo_inurba_marseille","lat":43.28623,"lon":5.35092,"is_reserved":false,"is_disabled":false,"rental_uris":{"android":"levelo://app?vid=f8d5d4cf-bb4e-40d8-a779-a90949766a1f","ios":"levelo://app?vid=f8d5d4cf-bb4e-40d8-a779-a90949766a1f"},"vehicle_type_id":"4","last_reported":1742995214,"current_range_meters":17200,"station_id":"ce4bhch2rcd13ifvqeug","pricing_plan_id":"cebpf4jnsgd1na2vs0mg"},{"bike_id":"3d3320c0-48e3-4203-8444-1b84988b9048","system_id":"levelo_inurba_marseille","lat":43.23191,"lon":5.39957,"is_reserved":false,"is_disabled":false,"rental_uris":{"android":"levelo://app?vid=3d3320c0-48e3-4203-8444-1b84988b9048","ios":"levelo://app?vid=3d3320c0-48e3-4203-8444-1b84988b9048"},"vehicle_type_id":"4","last_reported":1742995214,"current_range_meters":17200,"station_id":"ce4bhn12rcd13ifvqgqg","pricing_plan_id":"cebpf4jnsgd1na2vs0mg"},{"bike_id":"a8dbe682-e779-4aba-b12a-ac122b396be6","system_id":"levelo_inurba_marseille","lat":43.30541,"lon":5.36519,"is_reserved":false,"is_disabled":false,"rental_uris":{"android":"levelo://app?vid=a8dbe682-e779-4aba-b12a-ac122b396be6","ios":"levelo://app?vid=a8dbe682-e779-4aba-b12a-ac122b396be6"},"vehicle_type_id":"4","last_reported":1742995214,"current_range_meters":17200,"station_id":"ce4bgs12rcd13ifvqcag","pricing_plan_id":"cebpf4jnsgd1na2vs0mg"},