{"last_updated":1773394160,"ttl":60,"version":"2.2","data":{"bikes":[{"bike_id":"19691a7e-d227-4f2f-9137-873d9a39eff4","system_id":"levelo_inurba_marseille","lat":43.23159,"lon":5.43725,"is_reserved":false,"is_disabled":false,"rental_uris":{"android":"levelo://app?vid=19691a7e-d227-4f2f-9137-873d9a39eff4","ios":"levelo://app?vid=19691a7e-d227-4f2f-9137-873d9a39eff4"},"vehicle_type_id":"4","last_reported":1773394161,"current_range_meters":38000,"station_id":"ce4bhmp2rcd13ifvqgog","pricing_plan_id":"cebpf4jnsgd1na2vs0mg"},{"bike_id":"ebf75af1-c1e1-4ab4-be7a-03ecdd2c2597","system_id":"levelo_inurba_marseille","lat":43.31023,"lon":5.37152,"is_reserved":false,"is_disabled":false,"rental_uris":{"android":"levelo://app?vid=ebf75af1-c1e1-4ab4-be7a-03ecdd2c2597","ios":"levelo://app?vid=ebf75af1-c1e1-4ab4-be7a-03ecdd2c2597"},"vehicle_type_id":"4","last_reported":1773394161,"current_range_meters":34800,"station_id":"st_d4kl2rp97mjs73e7tdfg","pricing_plan_id":"cebpf4jnsgd1na2vs0mg"},{"bike_id":"86416b53-51a0-4cbe-9ee2-dfe09b3bcc79","system_id":"levelo_inurba_marseille","lat":43.31032,"lon":5.37165,"is_reserved":false,"is_disabled":false,"rental_uris":{"android":"levelo://app?vid=86416b53-51a0-4cbe-9ee2-dfe09b3bcc79","ios":"levelo://app?vid=86416b53-51a0-4cbe-9ee2-dfe09b3bcc79"},"vehicle_type_id":"4","last_reported":1773394161,"current_range_meters":36000,"station_id":"st_d4kl2rp97mjs73e7tdfg","pricing_plan_id":"cebpf4jnsgd1na2vs0mg"},{"bike_id":"51d02c11-617e-4c73-a65d-561ee346ae17","system_id":"levelo_inurba_marseille","lat":43.23158,"lon":5.43715,"is_reserved":false,"is_disabled":false,"rental_uris":{"android":"levelo://app?vid=51d02c11-617e-4c73-a65d-561ee346ae17","ios":"levelo://app?vid=51d02c11-617e-4c73-a65d-561ee346ae17"},"vehicle_type_id":"4","last_reported":1773394161,"current_range_meters":36000,"station_id":"ce4bhmp2rcd13ifvqgog","pricing_plan_id":"cebpf4jnsgd1na2vs0mg"},{"bike_id":"fb0917ca-b860-4570-9fd5-06282ab6a937","system_id":"levelo_inurba_marseille","lat":43.2314,"lon":5.43722,"is_reserved":false,"is_disabled":false,"rental_uris":{"android":"levelo://app?vid=fb0917ca-b860-4570-9fd5-06282ab6a937","ios":"levelo://app?vid=fb0917ca-b860-4570-9fd5-06282ab6a937"},"vehicle_type_id":"4","last_reported":1773394161,"current_range_meters":35600,"station_id":"ce4bhmp2rcd13ifvqgog","pricing_plan_id":"cebpf4jnsgd1na2vs0mg"},{"bike_id":"dbcd0d5d-c925-42ce-8639-98c254a6f766","system_id":"levelo_inurba_marseille","lat":43.31034,"lon":5.37166,"is_reserved":false,"is_disabled":false,"rental_uris":{"android":"levelo://app?vid=dbcd0d5d-c925-42ce-8639-98c254a6f766","ios":"levelo://app?vid=dbcd0d5d-c925-42ce-8639-98c254a6f766"},"vehicle_type_id":"4","last_reported":1773394161,"current_range_meters":36000,"station_id":"st_d4kl2rp97mjs73e7tdfg","pricing_plan_id":"cebpf4jnsgd1na2vs0mg"},{"bike_id":"895e7cf9-4cb2-4dc3-aec9-fd7326baacbe","system_id":"levelo_inurba_marseille","lat":43.31015,"lon":5.37173,"is_reserved":false,"is_disabled":false,"rental_uris":{"android":"levelo://app?vid=895e7cf9-4cb2-4dc3-aec9-fd7326baacbe","ios":"levelo://app?vid=895e7cf9-4cb2-4dc3-aec9-fd7326baacbe"},"vehicle_type_id":"4","last_reported":1773394161,"current_range_meters":36000,"station_id":"st_d4kl2rp97mjs73e7tdfg","pricing_plan_id":"cebpf4jnsgd1na2vs0mg"},{"bike_id":"c1e18796-ccf6-47fb-9411-4f27272cf92b","system_id":"levelo_inurba_marseille","lat":43.31089,"lon":5.37135,"is_reserved":false,"is_disabled":false,"rental_uris":{"android":"levelo://app?vid=c1e18796-ccf6-47fb-9411-4f27272cf92b","ios":"levelo://app?vid=c1e18796-ccf6-47fb-9411-4f27272cf92b"},"vehicle_type_id":"4","last_reported":1773394161,"current_range_meters":36000,"station_id":"st_d4kl2rp97mjs73e7tdfg","pricing_plan_id":"cebpf4jnsgd1na2vs0mg"},{"bike_id":"3c9137a1-6c00-443f-ae3a-363e58035aa8","system_id":"levelo_inurba_marseille","lat":43.31049,"lon":5.37177,"is_reserved":false,"is_disabled":false,"rental_uris":{"android":"levelo://app?vid=3c9137a1-6c00-443f-ae3a-363e58035aa8","ios":"levelo://app?vid=3c9137a1-6c00-443f-ae3a-363e58035aa8"},"vehicle_type_id":"4","last_reported":1773394161,"current_range_meters":35200,"station_id":"st_d4kl2rp97mjs73e7tdfg","pricing_plan_id":"cebpf4jnsgd1na2vs0mg"},{"bike_id":"c5f8db76-81c5-4830-8fdb-99bfa9447012","system_id":"levelo_inurba_marseille","lat":43.31004,"lon":5.37186,"is_reserved":false,"is_disabled":false,"rental_uris":{"android":"levelo://app?vid=c5f8db76-81c5-4830-8fdb-99bfa9447012","ios":"levelo://app?vid=c5f8db76-81c5-4830-8fdb-99bfa9447012"},"vehicle_type_id":"4","last_reported":1773394161,"current_range_meters":34800,"station_id":"st_d4kl2rp97mjs73e7tdfg","pricing_plan_id":"cebpf4jnsgd1na2vs0mg"},{"bike_id":"304b29c4-8f44-41cf-bd09-f8fd0c552edb","system_id":"levelo_inurba_marseille","lat":43.31018,"lon":5.37177,"is_reserved":false,"is_disabled":false,"rental_uris":{"android":"levelo://app?vid=304b29c4-8f44-41cf-bd09-f8fd0c552edb","ios":"levelo://app?vid=304b29c4-8f44-41cf-bd09-f8fd0c552edb"},"vehicle_type_id":"4","last_reported":1773394161,"current_range_meters":38400,"station_id":"st_d4kl2rp97mjs73e7tdfg","pricing_plan_id":"cebpf4jnsgd1na2vs0mg"},{"bike_id":"590b0909-9802-40a2-9e13-833c2b2b0978","system_id":"levelo_inurba_marseille","lat":43.31039,"lon":5.37163,"is_reserved":false,"is_disabled":false,"rental_uris":{"android":"levelo://app?vid=590b0909-9802-40a2-9e13-833c2b2b0978","ios":"levelo://app?vid=590b0909-9802-40a2-9e13-833c2b2b0978"},"vehicle_type_id":"4","last_reported":1773394161,"current_range_meters":35600,"station_id":"st_d4kl2rp97mjs73e7tdfg","pricing_plan_id":"cebpf4jnsgd1na2vs0mg"},{"bike_id":"e4a85c6f-5e00-47db-bb03-492e95854bfe","system_id":"levelo_inurba_marseille","lat":43.31066,"lon":5.37153,"is_reserved":false,"is_disabled":false,"rental_uris":{"android":"levelo://app?vid=e4a85c6f-5e00-47db-bb03-492e95854bfe","ios":"levelo://app?vid=e4a85c6f-5e00-47db-bb03-492e95854bfe"},"vehicle_type_id":"4","last_reported":1773394161,"current_range_meters":38000,"station_id":"st_d4kl2rp97mjs73e7tdfg","pricing_plan_id":"cebpf4jnsgd1na2vs0mg"},{"bike_id":"f8859008-76ae-4d29-a566-36c686b68670","system_id":"levelo_inurba_marseille","lat":43.31034,"lon":5.37165,"is_reserved":false,"is_disabled":false,"rental_uris":{"android":"levelo://app?vid=f8859008-76ae-4d29-a566-36c686b68670","ios":"levelo://app?vid=f8859008-76ae-4d29-a566-36c686b68670"},"vehicle_type_id":"4","last_reported":1773394161,"current_range_meters":35200,"station_id":"st_d4kl2rp97mjs73e7tdfg","pricing_plan_id":"cebpf4jnsgd1na2vs0mg"},{"bike_id":"dd72790d-8792-4358-a59b-7a678d40fe17","system_id":"levelo_inurba_marseille","lat":43.29295,"lon":5.40182,"is_reserved":false,"is_disabled":true,"rental_uris":{"android":"levelo://app?vid=dd72790d-8792-4358-a59b-7a678d40fe17","ios":"levelo://app?vid=dd72790d-8792-4358-a59b-7a678d40fe17"},"vehicle_type_id":"4","last_reported":1773394161,"current_range_meters":0,"station_id":"ce4bh312rcd13ifvqdk0","pricing_plan_id":"cebpf4jnsgd1na2vs0mg"},{"bike_id":"84258842-b27c-44d2-a3e3-a8ab065af084","system_id":"levelo_inurba_marseille","lat":43.26041,"lon":5.39346,"is_reserved":false,"is_disabled":false,"rental_uris":{"android":"levelo://app?vid=84258842-b27c-44d2-a3e3-a8ab065af084","ios":"levelo://app?vid=84258842-b27c-44d2-a3e3-a8ab065af084"},"vehicle_type_id":"4","last_reported":1773394161,"current_range_meters":35200,"station_id":"","pricing_plan_id":"cebpf4jnsgd1na2vs0mg"},{"bike_id":"4c85c741-0ae5-49a8-a29b-65693ed0e962","system_id":"levelo_inurba_marseille","lat":43.29046,"lon":5.37577,"is_reserved":false,"is_disabled":false,"rental_uris":{"android":"levelo://app?vid=4c85c741-0ae5-49a8-a29b-65693ed0e962","ios":"levelo://app?vid=4c85c741-0ae5-49a8-a29b-65693ed0e962"},"vehicle_type_id":"4","last_reported":1773394161,"current_range_meters":28000,"station_id":"ce4bh692rcd13ifvqe90","pricing_plan_id":"cebpf4jnsgd1na2vs0mg"},{"bike_id":"0c0089e7-1a1e-46a0-9bbc-b3db79f60db5","system_id":"levelo_inurba_marseille","lat":43.27377,"lon":5.3622,"is_reserved":false,"is_disabled":false,"rental_uris":{"android":"levelo://app?vid=0c0089e7-1a1e-46a0-9bbc-b3db79f60db5","ios":"levelo://app?vid=0c0089e7-1a1e-46a0-9bbc-b3db79f60db5"},"vehicle_type_id":"4","last_reported":1773394161,"current_range_meters":39200,"station_id":"ce4bhbh2rcd13ifvqeo0","pricing_plan_id":"cebpf4jnsgd1na2vs0mg"},{"bike_id":"7ffa041c-bc7f-4159-90b7-8ee18db551ca","system_id":"levelo_inurba_marseille","lat":43.2995,"lon":5.3727,"is_reserved":false,"is_disabled":false,"rental_uris":{"android":"levelo://app?vid=7ffa041c-bc7f-4159-90b7-8ee18db551ca","ios":"levelo://app?vid=7ffa041c-bc7f-4159-90b7-8ee18db551ca"},"vehicle_type_id":"4","last_reported":1773394161,"current_range_meters":10800,"station_id":"","pricing_plan_id":"cebpf4jnsgd1na2vs0mg"},{"bike_id":"6a7c3f1d-0e67-49ff-920f-cde0f1d8c4ac","system_id":"levelo_inurba_marseille","lat":43.28623,"lon":5.35093,"is_reserved":false,"is_disabled":false,"rental_uris":{"android":"levelo://app?vid=6a7c3f1d-0e67-49ff-920f-cde0f1d8c4ac","ios":"levelo://app?vid=6a7c3f1d-0e67-49ff-920f-cde0f1d8c4ac"},"vehicle_type_id":"4","last_reported":1773394161,"current_range_meters":9200,"station_id":"ce4bhch2rcd13ifvqeug","pricing_plan_id":"cebpf4jnsgd1na2vs0mg"},{"bike_id":"8ba1bffe-13bd-4d1e-8ac0-8b9df0b06a3e","system_id":"levelo_inurba_marseille","lat":43.29799,"lon":5.381,"is_reserved":false,"is_disabled":false,"rental_uris":{"android":"levelo://app?vid=8ba1bffe-13bd-4d1e-8ac0-8b9df0b06a3e","ios":"levelo://app?vid=8ba1bffe-13bd-4d1e-8ac0-8b9df0b06a3e"},"vehicle_type_id":"4","last_reported":1773394161,"current_range_meters":19600,"station_id":"ce4bgip2rcd13ifvqbb0","pricing_plan_id":"cebpf4jnsgd1na2vs0mg"},{"bike_id":"f8752ee3-a186-49f5-9eb6-2d352a6260f7","system_id":"levelo_inurba_marseille","lat":43.32673,"lon":5.40995,"is_reserved":false,"is_disabled":true,"rental_uris":{"android":"levelo://app?vid=f8752ee3-a186-49f5-9eb6-2d352a6260f7","ios":"levelo://app?vid=f8752ee3-a186-49f5-9eb6-2d352a6260f7"},"vehicle_type_id":"4","last_reported":1773394161,"current_range_meters":38000,"station_id":"ce4bhpp2rcd13ifvqhgg","pricing_plan_id":"cebpf4jnsgd1na2vs0mg"},{"bike_id":"7f540cea-4fe6-43fd-89ad-1cc69f41725b","system_id":"levelo_inurba_marseille","lat":43.23209,"lon":5.40018,"is_reserved":false,"is_disabled":false,"rental_uris":{"android":"levelo://app?vid=7f540cea-4fe6-43fd-89ad-1cc69f41725b","ios":"levelo://app?vid=7f540cea-4fe6-43fd-89ad-1cc69f41725b"},"vehicle_type_id":"4","last_reported":1773394161,"current_range_meters":22800,"station_id":"ce4bhn12rcd13ifvqgqg","pricing_plan_id":"cebpf4jnsgd1na2vs0mg"},{"bike_id":"ae540bed-ed3b-4247-abad-fe29acd1fb3e","system_id":"levelo_inurba_marseille","lat":43.33012,"lon":5.3901,"is_reserved":false,"is_disabled":false,"rental_uris":{"android":"levelo://app?vid=ae540bed-ed3b-4247-abad-fe29acd1fb3e","ios":"levelo://app?vid=ae540bed-ed3b-4247-abad-fe29acd1fb3e"},"vehicle_type_id":"4","last_reported":1773394161,"current_range_meters":38800,"station_id":"ce4bhr92rcd13ifvqhrg","pricing_plan_id":"cebpf4jnsgd1na2vs0mg"},{"bike_id":"18f35d94-7133-4b4b-a629-0bec9d48af36","system_id":"levelo_inurba_marseille","lat":43.28476,"lon":5.48398,"is_reserved":false,"is_disabled":false,"rental_uris":{"android":"levelo://app?vid=18f35d94-7133-4b4b-a629-0bec9d48af36","ios":"levelo://app?vid=18f35d94-7133-4b4b-a629-0bec9d48af36"},"vehicle_type_id":"4","last_reported":1773394161,"current_range_meters":28400,"station_id":"","pricing_plan_id":"cebpf4jnsgd1na2vs0mg"},{"bike_id":"b2399a9f-a598-463b-80a6-f3cff6f3600d","system_id":"levelo_inurba_marseille","lat":43.29764,"lon":5.36525,"is_reserved":false,"is_disabled":false,"rental_uris":{"android":"levelo://app?vid=b2399a9f-a598-463b-80a6-f3cff6f3600d","ios":"levelo://app?vid=b2399a9f-a598-463b-80a6-f3cff6f3600d"},"vehicle_type_id":"4","last_reported":1773394161,"current_range_meters":27600,"station_id":"","pricing_plan_id":"cebpf4jnsgd1na2vs0mg"},{"bike_id":"fdcb6ca2-5507-4342-a4b8-cda91086e680","system_id":"levelo_inurba_marseille","lat":43.30607,"lon":5.37226,"is_reserved":false,"is_disabled":false,"rental_uris":{"android":"levelo://app?vid=fdcb6ca2-5507-4342-a4b8-cda91086e680","ios":"levelo://app?vid=fdcb6ca2-5507-4342-a4b8-cda91086e680"},"vehicle_type_id":"4","last_reported":1773394161,"current_range_meters":39200,"station_id":"ce4bgqh2rcd13ifvqc4g","pricing_plan_id":"cebpf4jnsgd1na2vs0mg"},{"bike_id":"0eb292e6-902d-4173-9e89-6359a0388417","system_id":"levelo_inurba_marseille","lat":43.28712,"lon":5.37938,"is_reserved":false,"is_disabled":false,"rental_uris":{"android":"levelo://app?vid=0eb292e6-902d-4173-9e89-6359a0388417","ios":"levelo://app?vid=0eb292e6-902d-4173-9e89-6359a0388417"},"vehicle_type_id":"4","last_reported":1773394161,"current_range_meters":36800,"station_id":"ce4bh9p2rcd13ifvqec0","pricing_plan_id":"cebpf4jnsgd1na2vs0mg"},{"bike_id":"7db92065-fd6e-4014-982f-daf9b3e1e88d","system_id":"levelo_inurba_marseille","lat":43.25832,"lon":5.39441,"is_reserved":false,"is_disabled":false,"rental_uris":{"android":"levelo://app?vid=7db92065-fd6e-4014-982f-daf9b3e1e88d","ios":"levelo://app?vid=7db92065-fd6e-4014-982f-daf9b3e1e88d"},"vehicle_type_id":"4","last_reported":1773394161,"current_range_meters":19600,"station_id":"ce4bhip2rcd13ifvqft0","pricing_plan_id":"cebpf4jnsgd1na2vs0mg"},{"bike_id":"6bad8123-d96b-46d8-998f-b074f8a93280","system_id":"levelo_inurba_marseille","lat":43.29285,"lon":5.37147,"is_reserved":false,"is_disabled":false,"rental_uris":{"android":"levelo://app?vid=6bad8123-d96b-46d8-998f-b074f8a93280","ios":"levelo://app?vid=6bad8123-d96b-46d8-998f-b074f8a93280"},"vehicle_type_id":"4","last_reported":1773394161,"current_range_meters":38800,"station_id":"ce4bgh92rcd13ifvqb40","pricing_plan_id":"cebpf4jnsgd1na2vs0mg"},{"bike_id":"bb59f437-04ce-472a-8259-f42eb5a79dcb","system_id":"levelo_inurba_marseille","lat":43.29885,"lon":5.37561,"is_reserved":false,"is_disabled":false,"rental_uris":{"android":"levelo://app?vid=bb59f437-04ce-472a-8259-f42eb5a79dcb","ios":"levelo://app?vid=bb59f437-04ce-472a-8259-f42eb5a79dcb"},"vehicle_type_id":"4","last_reported":1773394161,"current_range_meters":38000,"station_id":"","pricing_plan_id":"cebpf4jnsgd1na2vs0mg"},{"bike_id":"21ebfc21-6686-4f1f-ba42-dedc008b4317","system_id":"levelo_inurba_marseille","lat":43.29902,"lon":5.37398,"is_reserved":false,"is_disabled":false,"rental_uris":{"android":"levelo://app?vid=21ebfc21-6686-4f1f-ba42-dedc008b4317","ios":"levelo://app?vid=21ebfc21-6686-4f1f-ba42-dedc008b4317"},"vehicle_type_id":"4","last_reported":1773394161,"current_range_meters":32400,"station_id":"","pricing_plan_id":"cebpf4jnsgd1na2vs0mg"},{"bike_id":"d2c94da3-9e53-4eff-826f-e4aae2693ed0","system_id":"levelo_inurba_marseille","lat":43.29004,"lon":5.40004,"is_reserved":false,"is_disabled":false,"rental_uris":{"android":"levelo://app?vid=d2c94da3-9e53-4eff-826f-e4aae2693ed0","ios":"levelo://app?vid=d2c94da3-9e53-4eff-826f-e4aae2693ed0"},"vehicle_type_id":"4","last_reported":1773394161,"current_range_meters":38400,"station_id":"ce4bh392rcd13ifvqdm0","pricing_plan_id":"cebpf4jnsgd1na2vs0mg"},{"bike_id":"8a15c9fd-a2fb-4c10-b6dd-366aa92b1d08","system_id":"levelo_inurba_marseille","lat":43.29599,"lon":5.38103,"is_reserved":false,"is_disabled":false,"rental_uris":{"android":"levelo://app?vid=8a15c9fd-a2fb-4c10-b6dd-366aa92b1d08","ios":"levelo://app?vid=8a15c9fd-a2fb-4c10-b6dd-366aa92b1d08"},"vehicle_type_id":"4","last_reported":1773394161,"current_range_meters":12400,"station_id":"ce4bgl12rcd13ifvqbo0","pricing_plan_id":"cebpf4jnsgd1na2vs0mg"},{"bike_id":"6ce6bc7e-4959-45b9-bda0-88b32a35e3f9","system_id":"levelo_inurba_marseille","lat":43.25862,"lon":5.39892,"is_reserved":false,"is_disabled":false,"rental_uris":{"android":"levelo://app?vid=6ce6bc7e-4959-45b9-bda0-88b32a35e3f9","ios":"levelo://app?vid=6ce6bc7e-4959-45b9-bda0-88b32a35e3f9"},"vehicle_type_id":"4","last_reported":1773394161,"current_range_meters":22000,"station_id":"ce4bhl92rcd13ifvqghg","pricing_plan_id":"cebpf4jnsgd1na2vs0mg"},{"bike_id":"0e81feb6-9532-4ed6-99e4-9e1b06422676","system_id":"levelo_inurba_marseille","lat":43.30546,"lon":5.36696,"is_reserved":false,"is_disabled":false,"rental_uris":{"android":"levelo://app?vid=0e81feb6-9532-4ed6-99e4-9e1b06422676","ios":"levelo://app?vid=0e81feb6-9532-4ed6-99e4-9e1b06422676"},"vehicle_type_id":"4","last_reported":1773394161,"current_range_meters":28000,"station_id":"ce4bgrp2rcd13ifvqc9g","pricing_plan_id":"cebpf4jnsgd1na2vs0mg"},{"bike_id":"c61bd972-5337-4c67-ab1b-d532ad7c339c","system_id":"levelo_inurba_marseille","lat":43.25577,"lon":5.38242,"is_reserved":false,"is_disabled":false,"rental_uris":{"android":"levelo://app?vid=c61bd972-5337-4c67-ab1b-d532ad7c339c","ios":"levelo://app?vid=c61bd972-5337-4c67-ab1b-d532ad7c339c"},"vehicle_type_id":"4","last_reported":1773394161,"current_range_meters":8000,"station_id":"ce4bhih2rcd13ifvqfs0","pricing_plan_id":"cebpf4jnsgd1na2vs0mg"},{"bike_id":"dba1c7a1-d241-4ab4-87f1-83b87f2842ef","system_id":"levelo_inurba_marseille","lat":43.29793,"lon":5.38088,"is_reserved":false,"is_disabled":false,"rental_uris":{"android":"levelo://app?vid=dba1c7a1-d241-4ab4-87f1-83b87f2842ef","ios":"levelo://app?vid=dba1c7a1-d241-4ab4-87f1-83b87f2842ef"},"vehicle_type_id":"4","last_reported":1773394161,"current_range_meters":39200,"station_id":"ce4bgip2rcd13ifvqbb0","pricing_plan_id":"cebpf4jnsgd1na2vs0mg"},{"bike_id":"480a954f-db3c-4cd5-acb5-179ba9006c67","system_id":"levelo_inurba_marseille","lat":43.28545,"lon":5.44109,"is_reserved":false,"is_disabled":false,"rental_uris":{"android":"levelo://app?vid=480a954f-db3c-4cd5-acb5-179ba9006c67","ios":"levelo://app?vid=480a954f-db3c-4cd5-acb5-179ba9006c67"},"vehicle_type_id":"4","last_reported":1773394161,"current_range_meters":32400,"station_id":"st_d3j3df2ikq2c7380ej80","pricing_plan_id":"cebpf4jnsgd1na2vs0mg"},{"bike_id":"196cd20c-58cf-4336-8acd-ad13b5d67dbc","system_id":"levelo_inurba_marseille","lat":43.24153,"lon":5.36421,"is_reserved":false,"is_disabled":false,"rental_uris":{"android":"levelo://app?vid=196cd20c-58cf-4336-8acd-ad13b5d67dbc","ios":"levelo://app?vid=196cd20c-58cf-4336-8acd-ad13b5d67dbc"},"vehicle_type_id":"4","last_reported":1773394161,"current_range_meters":27600,"station_id":"cpo36qri1sfpv3e86is0","pricing_plan_id":"cebpf4jnsgd1na2vs0mg"},{"bike_id":"1cf06faf-0211-4a86-bffe-8e533567710b","system_id":"levelo_inurba_marseille","lat":43.24951,"lon":5.40502,"is_reserved":false,"is_disabled":true,"rental_uris":{"android":"levelo://app?vid=1cf06faf-0211-4a86-bffe-8e533567710b","ios":"levelo://app?vid=1cf06faf-0211-4a86-bffe-8e533567710b"},"vehicle_type_id":"4","last_reported":1773394161,"current_range_meters":21600,"station_id":"st_d2ngiaodas8pm72gd1h0","pricing_plan_id":"cebpf4jnsgd1na2vs0mg"},{"bike_id":"9ca6c9a2-4a89-4c8c-a971-f16198a5f9b4","system_id":"levelo_inurba_marseille","lat":43.30412,"lon":5.39732,"is_reserved":false,"is_disabled":false,"rental_uris":{"android":"levelo://app?vid=9ca6c9a2-4a89-4c8c-a971-f16198a5f9b4","ios":"levelo://app?vid=9ca6c9a2-4a89-4c8c-a971-f16198a5f9b4"},"vehicle_type_id":"4","last_reported":1773394161,"current_range_meters":7200,"station_id":"ce4bh092rcd13ifvqd20","pricing_plan_id":"cebpf4jnsgd1na2vs0mg"},{"bike_id":"25ccd1f4-28a1-4381-943b-f59e0018edf1","system_id":"levelo_inurba_marseille","lat":43.2678,"lon":5.39421,"is_reserved":false,"is_disabled":false,"rental_uris":{"android":"levelo://app?vid=25ccd1f4-28a1-4381-943b-f59e0018edf1","ios":"levelo://app?vid=25ccd1f4-28a1-4381-943b-f59e0018edf1"},"vehicle_type_id":"4","last_reported":1773394161,"current_range_meters":12400,"station_id":"ce4bhh12rcd13ifvqfg0","pricing_plan_id":"cebpf4jnsgd1na2vs0mg"},{"bike_id":"0250d5d1-3619-42b3-955a-0a937e09165f","system_id":"levelo_inurba_marseille","lat":43.23057,"lon":5.35484,"is_reserved":false,"is_disabled":false,"rental_uris":{"android":"levelo://app?vid=0250d5d1-3619-42b3-955a-0a937e09165f","ios":"levelo://app?vid=0250d5d1-3619-42b3-955a-0a937e09165f"},"vehicle_type_id":"4","last_reported":1773394161,"current_range_meters":32800,"station_id":"cpo3342slgdg3j2ifvpg","pricing_plan_id":"cebpf4jnsgd1na2vs0mg"},{"bike_id":"60562077-486f-4bee-9840-eaecc87a0906","system_id":"levelo_inurba_marseille","lat":43.29796,"lon":5.38089,"is_reserved":false,"is_disabled":false,"rental_uris":{"android":"levelo://app?vid=60562077-486f-4bee-9840-eaecc87a0906","ios":"levelo://app?vid=60562077-486f-4bee-9840-eaecc87a0906"},"vehicle_type_id":"4","last_reported":1773394161,"current_range_meters":24000,"station_id":"ce4bgip2rcd13ifvqbb0","pricing_plan_id":"cebpf4jnsgd1na2vs0mg"},{"bike_id":"1b8416df-3f6d-4c68-ac11-112b698b39c2","system_id":"levelo_inurba_marseille","lat":43.25849,"lon":5.3993,"is_reserved":false,"is_disabled":false,"rental_uris":{"android":"levelo://app?vid=1b8416df-3f6d-4c68-ac11-112b698b39c2","ios":"levelo://app?vid=1b8416df-3f6d-4c68-ac11-112b698b39c2"},"vehicle_type_id":"4","last_reported":1773394161,"current_range_meters":39200,"station_id":"ce4bhl92rcd13ifvqghg","pricing_plan_id":"cebpf4jnsgd1na2vs0mg"},{"bike_id":"b18c21a3-b898-415d-94b6-52acf60ebc54","system_id":"levelo_inurba_marseille","lat":43.26932,"lon":5.40268,"is_reserved":false,"is_disabled":false,"rental_uris":{"android":"levelo://app?vid=b18c21a3-b898-415d-94b6-52acf60ebc54","ios":"levelo://app?vid=b18c21a3-b898-415d-94b6-52acf60ebc54"},"vehicle_type_id":"4","last_reported":1773394161,"current_range_meters":40000,"station_id":"cjm6bp8fraef2m0cb0m0","pricing_plan_id":"cebpf4jnsgd1na2vs0mg"},{"bike_id":"0f3b3aa8-6f96-44fb-8620-3db50c6d6ad8","system_id":"levelo_inurba_marseille","lat":43.2971,"lon":5.36615,"is_reserved":false,"is_disabled":true,"rental_uris":{"android":"levelo://app?vid=0f3b3aa8-6f96-44fb-8620-3db50c6d6ad8","ios":"levelo://app?vid=0f3b3aa8-6f96-44fb-8620-3db50c6d6ad8"},"vehicle_type_id":"4","last_reported":1773394161,"current_range_meters":39200,"station_id":"ce4bgn12rcd13ifvqbt0","pricing_plan_id":"cebpf4jnsgd1na2vs0mg"},{"bike_id":"2d90a59f-b703-41f6-ab9e-396374884dbc","system_id":"levelo_inurba_marseille","lat":43.31383,"lon":5.36733,"is_reserved":false,"is_disabled":false,"rental_uris":{"android":"levelo://app?vid=2d90a59f-b703-41f6-ab9e-396374884dbc","ios":"levelo://app?vid=2d90a59f-b703-41f6-ab9e-396374884dbc"},"vehicle_type_id":"4","last_reported":1773394161,"current_range_meters":28400,"station_id":"","pricing_plan_id":"cebpf4jnsgd1na2vs0mg"},{"bike_id":"886bcfc7-63ee-4067-a44e-c7f27783757e","system_id":"levelo_inurba_marseille","lat":43.3092,"lon":5.38365,"is_reserved":false,"is_disabled":false,"rental_uris":{"android":"levelo://app?vid=886bcfc7-63ee-4067-a44e-c7f27783757e","ios":"levelo://app?vid=886bcfc7-63ee-4067-a44e-c7f27783757e"},"vehicle_type_id":"4","last_reported":1773394161,"current_range_meters":10800,"station_id":"","pricing_plan_id":"cebpf4jnsgd1na2vs0mg"},{"bike_id":"07a54b51-81cd-4521-85da-081a6ada865c","system_id":"levelo_inurba_marseille","lat":43.32551,"lon":5.41453,"is_reserved":false,"is_disabled":false,"rental_uris":{"android":"levelo://app?vid=07a54b51-81cd-4521-85da-081a6ada865c","ios":"levelo://app?vid=07a54b51-81cd-4521-85da-081a6ada865c"},"vehicle_type_id":"4","last_reported":1773394161,"current_range_meters":37600,"station_id":"ce4bhq12rcd13ifvqhhg","pricing_plan_id":"cebpf4jnsgd1na2vs0mg"},{"bike_id":"ba8d9ef5-6fd3-48fa-8d92-09e9ea63831d","system_id":"levelo_inurba_marseille","lat":43.29953,"lon":5.4132,"is_reserved":false,"is_disabled":true,"rental_uris":{"android":"levelo://app?vid=ba8d9ef5-6fd3-48fa-8d92-09e9ea63831d","ios":"levelo://app?vid=ba8d9ef5-6fd3-48fa-8d92-09e9ea63831d"},"vehicle_type_id":"4","last_reported":1773394161,"current_range_meters":0,"station_id":"ce4bhp12rcd13ifvqh9g","pricing_plan_id":"cebpf4jnsgd1na2vs0mg"},{"bike_id":"83d4cd3c-261b-46ff-b623-d5fa5eba2581","system_id":"levelo_inurba_marseille","lat":43.29199,"lon":5.35783,"is_reserved":false,"is_disabled":true,"rental_uris":{"android":"levelo://app?vid=83d4cd3c-261b-46ff-b623-d5fa5eba2581","ios":"levelo://app?vid=83d4cd3c-261b-46ff-b623-d5fa5eba2581"},"vehicle_type_id":"4","last_reported":1773394161,"current_range_meters":20800,"station_id":"ce4bhb12rcd13ifvqel0","pricing_plan_id":"cebpf4jnsgd1na2vs0mg"},{"bike_id":"2060968e-0463-429a-905f-1eb80fe6f17b","system_id":"levelo_inurba_marseille","lat":43.31044,"lon":5.37172,"is_reserved":false,"is_disabled":false,"rental_uris":{"android":"levelo://app?vid=2060968e-0463-429a-905f-1eb80fe6f17b","ios":"levelo://app?vid=2060968e-0463-429a-905f-1eb80fe6f17b"},"vehicle_type_id":"4","last_reported":1773394161,"current_range_meters":24400,"station_id":"st_d4kl2rp97mjs73e7tdfg","pricing_plan_id":"cebpf4jnsgd1na2vs0mg"},{"bike_id":"2fea8898-c7d1-4791-9dbc-2e6d862eb821","system_id":"levelo_inurba_marseille","lat":43.30216,"lon":5.3947,"is_reserved":false,"is_disabled":false,"rental_uris":{"android":"levelo://app?vid=2fea8898-c7d1-4791-9dbc-2e6d862eb821","ios":"levelo://app?vid=2fea8898-c7d1-4791-9dbc-2e6d862eb821"},"vehicle_type_id":"4","last_reported":1773394161,"current_range_meters":38400,"station_id":"ce4bh0p2rcd13ifvqd70","pricing_plan_id":"cebpf4jnsgd1na2vs0mg"},{"bike_id":"2dd51874-11a3-43a9-8809-5310bb1e8ead","system_id":"levelo_inurba_marseille","lat":43.24396,"lon":5.37066,"is_reserved":false,"is_disabled":false,"rental_uris":{"android":"levelo://app?vid=2dd51874-11a3-43a9-8809-5310bb1e8ead","ios":"levelo://app?vid=2dd51874-11a3-43a9-8809-5310bb1e8ead"},"vehicle_type_id":"4","last_reported":1773394161,"current_range_meters":39200,"station_id":"ce4bhhh2rcd13ifvqfk0","pricing_plan_id":"cebpf4jnsgd1na2vs0mg"},{"bike_id":"a449f941-65b3-406f-bcad-2f3e6cd3029b","system_id":"levelo_inurba_marseille","lat":43.24075,"lon":5.37727,"is_reserved":false,"is_disabled":false,"rental_uris":{"android":"levelo://app?vid=a449f941-65b3-406f-bcad-2f3e6cd3029b","ios":"levelo://app?vid=a449f941-65b3-406f-bcad-2f3e6cd3029b"},"vehicle_type_id":"4","last_reported":1773394161,"current_range_meters":34800,"station_id":"ce4bhnp2rcd13ifvqgvg","pricing_plan_id":"cebpf4jnsgd1na2vs0mg"},{"bike_id":"564b009c-433c-4689-8029-204de522a71f","system_id":"levelo_inurba_marseille","lat":43.2835,"lon":5.38105,"is_reserved":false,"is_disabled":false,"rental_uris":{"android":"levelo://app?vid=564b009c-433c-4689-8029-204de522a71f","ios":"levelo://app?vid=564b009c-433c-4689-8029-204de522a71f"},"vehicle_type_id":"4","last_reported":1773394161,"current_range_meters":6000,"station_id":"ce4bh412rcd13ifvqdr0","pricing_plan_id":"cebpf4jnsgd1na2vs0mg"},{"bike_id":"bd62e445-95dc-43ce-b4d8-48e3cdcba7ac","system_id":"levelo_inurba_marseille","lat":43.29178,"lon":5.35798,"is_reserved":false,"is_disabled":false,"rental_uris":{"android":"levelo://app?vid=bd62e445-95dc-43ce-b4d8-48e3cdcba7ac","ios":"levelo://app?vid=bd62e445-95dc-43ce-b4d8-48e3cdcba7ac"},"vehicle_type_id":"4","last_reported":1773394161,"current_range_meters":10800,"station_id":"ce4bhb12rcd13ifvqel0","pricing_plan_id":"cebpf4jnsgd1na2vs0mg"},{"bike_id":"107eaf49-0b8c-4b97-b025-129dee039626","system_id":"levelo_inurba_marseille","lat":43.29291,"lon":5.3762,"is_reserved":false,"is_disabled":false,"rental_uris":{"android":"levelo://app?vid=107eaf49-0b8c-4b97-b025-129dee039626","ios":"levelo://app?vid=107eaf49-0b8c-4b97-b025-129dee039626"},"vehicle_type_id":"4","last_reported":1773394161,"current_range_meters":40000,"station_id":"ce4bgi12rcd13ifvqb80","pricing_plan_id":"cebpf4jnsgd1na2vs0mg"},{"bike_id":"97ecf467-9bc2-4716-8380-618c7c7ef61e","system_id":"levelo_inurba_marseille","lat":43.31591,"lon":5.37365,"is_reserved":false,"is_disabled":false,"rental_uris":{"android":"levelo://app?vid=97ecf467-9bc2-4716-8380-618c7c7ef61e","ios":"levelo://app?vid=97ecf467-9bc2-4716-8380-618c7c7ef61e"},"vehicle_type_id":"4","last_reported":1773394161,"current_range_meters":6000,"station_id":"","pricing_plan_id":"cebpf4jnsgd1na2vs0mg"},{"bike_id":"aed41f63-b638-409e-b99f-5db7af0576eb","system_id":"levelo_inurba_marseille","lat":43.30454,"lon":5.37919,"is_reserved":false,"is_disabled":false,"rental_uris":{"android":"levelo://app?vid=aed41f63-b638-409e-b99f-5db7af0576eb","ios":"levelo://app?vid=aed41f63-b638-409e-b99f-5db7af0576eb"},"vehicle_type_id":"4","last_reported":1773394161,"current_range_meters":34800,"station_id":"ce4bgup2rcd13ifvqcn0","pricing_plan_id":"cebpf4jnsgd1na2vs0mg"},{"bike_id":"76380701-99f8-457b-a97b-1a613b6bafdd","system_id":"levelo_inurba_marseille","lat":43.30307,"lon":5.36926,"is_reserved":false,"is_disabled":false,"rental_uris":{"android":"levelo://app?vid=76380701-99f8-457b-a97b-1a613b6bafdd","ios":"levelo://app?vid=76380701-99f8-457b-a97b-1a613b6bafdd"},"vehicle_type_id":"4","last_reported":1773394161,"current_range_meters":16000,"station_id":"ce4bgqh2rcd13ifvqc5g","pricing_plan_id":"cebpf4jnsgd1na2vs0mg"},{"bike_id":"79483cf5-647d-48ac-aac7-04b4eee60681","system_id":"levelo_inurba_marseille","lat":43.337444,"lon":5.374475,"is_reserved":false,"is_disabled":true,"rental_uris":{"android":"levelo://app?vid=79483cf5-647d-48ac-aac7-04b4eee60681","ios":"levelo://app?vid=79483cf5-647d-48ac-aac7-04b4eee60681"},"vehicle_type_id":"4","last_reported":1773394161,"current_range_meters":35200,"station_id":"","pricing_plan_id":"cebpf4jnsgd1na2vs0mg"},{"bike_id":"d44b6ee3-1ea1-4dfe-94d1-7ba1c7670a44","system_id":"levelo_inurba_marseille","lat":43.28833,"lon":5.35857,"is_reserved":false,"is_disabled":true,"rental_uris":{"android":"levelo://app?vid=d44b6ee3-1ea1-4dfe-94d1-7ba1c7670a44","ios":"levelo://app?vid=d44b6ee3-1ea1-4dfe-94d1-7ba1c7670a44"},"vehicle_type_id":"4","last_reported":1773394161,"current_range_meters":17200,"station_id":"ce4bhb12rcd13ifvqem0","pricing_plan_id":"cebpf4jnsgd1na2vs0mg"},{"bike_id":"cedeb143-8ef5-4332-864c-2ee01e08ac10","system_id":"levelo_inurba_marseille","lat":43.29583,"lon":5.36738,"is_reserved":false,"is_disabled":false,"rental_uris":{"android":"levelo://app?vid=cedeb143-8ef5-4332-864c-2ee01e08ac10","ios":"levelo://app?vid=cedeb143-8ef5-4332-864c-2ee01e08ac10"},"vehicle_type_id":"4","last_reported":1773394161,"current_range_meters":27600,"station_id":"ce4bgph2rcd13ifvqc2g","pricing_plan_id":"cebpf4jnsgd1na2vs0mg"},{"bike_id":"f2223d48-976e-4a05-b385-8f32a53fe8f3","system_id":"levelo_inurba_marseille","lat":43.3046,"lon":5.37892,"is_reserved":false,"is_disabled":false,"rental_uris":{"android":"levelo://app?vid=f2223d48-976e-4a05-b385-8f32a53fe8f3","ios":"levelo://app?vid=f2223d48-976e-4a05-b385-8f32a53fe8f3"},"vehicle_type_id":"4","last_reported":1773394161,"current_range_meters":13600,"station_id":"ce4bgup2rcd13ifvqcn0","pricing_plan_id":"cebpf4jnsgd1na2vs0mg"},{"bike_id":"677c9647-2e87-43cf-b935-6aad0012e77e","system_id":"levelo_inurba_marseille","lat":43.30894,"lon":5.37191,"is_reserved":false,"is_disabled":false,"rental_uris":{"android":"levelo://app?vid=677c9647-2e87-43cf-b935-6aad0012e77e","ios":"levelo://app?vid=677c9647-2e87-43cf-b935-6aad0012e77e"},"vehicle_type_id":"4","last_reported":1773394161,"current_range_meters":29600,"station_id":"ce4bguh2rcd13ifvqckg","pricing_plan_id":"cebpf4jnsgd1na2vs0mg"},{"bike_id":"a29ef319-c201-4a0d-88b8-75666b991d70","system_id":"levelo_inurba_marseille","lat":43.30207,"lon":5.39438,"is_reserved":false,"is_disabled":false,"rental_uris":{"android":"levelo://app?vid=a29ef319-c201-4a0d-88b8-75666b991d70","ios":"levelo://app?vid=a29ef319-c201-4a0d-88b8-75666b991d70"},"vehicle_type_id":"4","last_reported":1773394161,"current_range_meters":16000,"station_id":"ce4bh0p2rcd13ifvqd70","pricing_plan_id":"cebpf4jnsgd1na2vs0mg"},{"bike_id":"b3eb5008-db77-4fa1-ad7e-4f507dde5179","system_id":"levelo_inurba_marseille","lat":43.30206,"lon":5.37034,"is_reserved":false,"is_disabled":false,"rental_uris":{"android":"levelo://app?vid=b3eb5008-db77-4fa1-ad7e-4f507dde5179","ios":"levelo://app?vid=b3eb5008-db77-4fa1-ad7e-4f507dde5179"},"vehicle_type_id":"4","last_reported":1773394161,"current_range_meters":30400,"station_id":"","pricing_plan_id":"cebpf4jnsgd1na2vs0mg"},{"bike_id":"73117817-c4fe-4626-aa2d-bdb3c13e57bc","system_id":"levelo_inurba_marseille","lat":43.27501,"lon":5.42456,"is_reserved":false,"is_disabled":false,"rental_uris":{"android":"levelo://app?vid=73117817-c4fe-4626-aa2d-bdb3c13e57bc","ios":"levelo://app?vid=73117817-c4fe-4626-aa2d-bdb3c13e57bc"},"vehicle_type_id":"4","last_reported":1773394161,"current_range_meters":37600,"station_id":"ce4bhn92rcd13ifvqgrg","pricing_plan_id":"cebpf4jnsgd1na2vs0mg"},{"bike_id":"724637b0-959e-4760-9f46-802abef39949","system_id":"levelo_inurba_marseille","lat":43.26065,"lon":5.39382,"is_reserved":false,"is_disabled":false,"rental_uris":{"android":"levelo://app?vid=724637b0-959e-4760-9f46-802abef39949","ios":"levelo://app?vid=724637b0-959e-4760-9f46-802abef39949"},"vehicle_type_id":"4","last_reported":1773394161,"current_range_meters":13600,"station_id":"ce4bhh92rcd13ifvqfj0","pricing_plan_id":"cebpf4jnsgd1na2vs0mg"},{"bike_id":"87ca40eb-3db1-4b44-b35b-eae37b8dfe41","system_id":"levelo_inurba_marseille","lat":43.31341,"lon":5.38512,"is_reserved":false,"is_disabled":false,"rental_uris":{"android":"levelo://app?vid=87ca40eb-3db1-4b44-b35b-eae37b8dfe41","ios":"levelo://app?vid=87ca40eb-3db1-4b44-b35b-eae37b8dfe41"},"vehicle_type_id":"4","last_reported":1773394161,"current_range_meters":8400,"station_id":"ce4bgt92rcd13ifvqcf0","pricing_plan_id":"cebpf4jnsgd1na2vs0mg"},{"bike_id":"012bb7fa-e4d0-4138-9c92-350c5c6b2640","system_id":"levelo_inurba_marseille","lat":43.28523,"lon":5.44108,"is_reserved":false,"is_disabled":false,"rental_uris":{"android":"levelo://app?vid=012bb7fa-e4d0-4138-9c92-350c5c6b2640","ios":"levelo://app?vid=012bb7fa-e4d0-4138-9c92-350c5c6b2640"},"vehicle_type_id":"4","last_reported":1773394161,"current_range_meters":30400,"station_id":"st_d3j3df2ikq2c7380ej80","pricing_plan_id":"cebpf4jnsgd1na2vs0mg"},{"bike_id":"0c4badb1-6a69-4d69-af70-3165db7cd8bb","system_id":"levelo_inurba_marseille","lat":43.29208,"lon":5.36087,"is_reserved":false,"is_disabled":false,"rental_uris":{"android":"levelo://app?vid=0c4badb1-6a69-4d69-af70-3165db7cd8bb","ios":"levelo://app?vid=0c4badb1-6a69-4d69-af70-3165db7cd8bb"},"vehicle_type_id":"4","last_reported":1773394161,"current_range_meters":37600,"station_id":"ce4bhbh2rcd13ifvqeqg","pricing_plan_id":"cebpf4jnsgd1na2vs0mg"},{"bike_id":"959cb468-adf5-492c-a8a7-a3170c99be64","system_id":"levelo_inurba_marseille","lat":43.27061,"lon":5.38299,"is_reserved":false,"is_disabled":false,"rental_uris":{"android":"levelo://app?vid=959cb468-adf5-492c-a8a7-a3170c99be64","ios":"levelo://app?vid=959cb468-adf5-492c-a8a7-a3170c99be64"},"vehicle_type_id":"4","last_reported":1773394161,"current_range_meters":14400,"station_id":"st_d3n2fo6cfp8s73cte1j0","pricing_plan_id":"cebpf4jnsgd1na2vs0mg"},{"bike_id":"cd00f2e2-1c1e-4a44-9bb7-d1f5b2ddfaba","system_id":"levelo_inurba_marseille","lat":43.3094,"lon":5.39025,"is_reserved":false,"is_disabled":false,"rental_uris":{"android":"levelo://app?vid=cd00f2e2-1c1e-4a44-9bb7-d1f5b2ddfaba","ios":"levelo://app?vid=cd00f2e2-1c1e-4a44-9bb7-d1f5b2ddfaba"},"vehicle_type_id":"4","last_reported":1773394161,"current_range_meters":30400,"station_id":"ce4bgup2rcd13ifvqco0","pricing_plan_id":"cebpf4jnsgd1na2vs0mg"},{"bike_id":"f32212cf-6d01-43e1-9d28-c332d31396c9","system_id":"levelo_inurba_marseille","lat":43.24681,"lon":5.43357,"is_reserved":false,"is_disabled":false,"rental_uris":{"android":"levelo://app?vid=f32212cf-6d01-43e1-9d28-c332d31396c9","ios":"levelo://app?vid=f32212cf-6d01-43e1-9d28-c332d31396c9"},"vehicle_type_id":"4","last_reported":1773394161,"current_range_meters":22800,"station_id":"","pricing_plan_id":"cebpf4jnsgd1na2vs0mg"},{"bike_id":"5960d5a2-dab3-4200-9c71-b05462e787dd","system_id":"levelo_inurba_marseille","lat":43.30153,"lon":5.38092,"is_reserved":false,"is_disabled":false,"rental_uris":{"android":"levelo://app?vid=5960d5a2-dab3-4200-9c71-b05462e787dd","ios":"levelo://app?vid=5960d5a2-dab3-4200-9c71-b05462e787dd"},"vehicle_type_id":"4","last_reported":1773394161,"current_range_meters":27200,"station_id":"ce4bgjp2rcd13ifvqbh0","pricing_plan_id":"cebpf4jnsgd1na2vs0mg"},{"bike_id":"6acc6294-778e-4389-ae09-ea37b9c06714","system_id":"levelo_inurba_marseille","lat":43.29727,"lon":5.41059,"is_reserved":false,"is_disabled":false,"rental_uris":{"android":"levelo://app?vid=6acc6294-778e-4389-ae09-ea37b9c06714","ios":"levelo://app?vid=6acc6294-778e-4389-ae09-ea37b9c06714"},"vehicle_type_id":"4","last_reported":1773394161,"current_range_meters":20400,"station_id":"","pricing_plan_id":"cebpf4jnsgd1na2vs0mg"},{"bike_id":"7b8fe4cb-4fd3-4a81-a3e2-4e05b02ff564","system_id":"levelo_inurba_marseille","lat":43.29068,"lon":5.40018,"is_reserved":false,"is_disabled":false,"rental_uris":{"android":"levelo://app?vid=7b8fe4cb-4fd3-4a81-a3e2-4e05b02ff564","ios":"levelo://app?vid=7b8fe4cb-4fd3-4a81-a3e2-4e05b02ff564"},"vehicle_type_id":"4","last_reported":1773394161,"current_range_meters":30000,"station_id":"","pricing_plan_id":"cebpf4jnsgd1na2vs0mg"},{"bike_id":"968e0752-94e3-4427-8693-dccfb2dc93c6","system_id":"levelo_inurba_marseille","lat":43.32339,"lon":5.38841,"is_reserved":false,"is_disabled":false,"rental_uris":{"android":"levelo://app?vid=968e0752-94e3-4427-8693-dccfb2dc93c6","ios":"levelo://app?vid=968e0752-94e3-4427-8693-dccfb2dc93c6"},"vehicle_type_id":"4","last_reported":1773394161,"current_range_meters":39200,"station_id":"ce4bhqp2rcd13ifvqhog","pricing_plan_id":"cebpf4jnsgd1na2vs0mg"},{"bike_id":"51f828e2-11c4-49f0-bea7-708c81d716b5","system_id":"levelo_inurba_marseille","lat":43.27406,"lon":5.42478,"is_reserved":false,"is_disabled":false,"rental_uris":{"android":"levelo://app?vid=51f828e2-11c4-49f0-bea7-708c81d716b5","ios":"levelo://app?vid=51f828e2-11c4-49f0-bea7-708c81d716b5"},"vehicle_type_id":"4","last_reported":1773394161,"current_range_meters":14800,"station_id":"","pricing_plan_id":"cebpf4jnsgd1na2vs0mg"},{"bike_id":"f9347597-5862-4691-9f11-64caea787242","system_id":"levelo_inurba_marseille","lat":43.25935,"lon":5.40907,"is_reserved":false,"is_disabled":false,"rental_uris":{"android":"levelo://app?vid=f9347597-5862-4691-9f11-64caea787242","ios":"levelo://app?vid=f9347597-5862-4691-9f11-64caea787242"},"vehicle_type_id":"4","last_reported":1773394161,"current_range_meters":17600,"station_id":"ce4bhm92rcd13ifvqglg","pricing_plan_id":"cebpf4jnsgd1na2vs0mg"},{"bike_id":"40cdf2e8-76b5-43fa-bd2e-1a8eb6026b51","system_id":"levelo_inurba_marseille","lat":43.28979,"lon":5.42582,"is_reserved":false,"is_disabled":false,"rental_uris":{"android":"levelo://app?vid=40cdf2e8-76b5-43fa-bd2e-1a8eb6026b51","ios":"levelo://app?vid=40cdf2e8-76b5-43fa-bd2e-1a8eb6026b51"},"vehicle_type_id":"4","last_reported":1773394161,"current_range_meters":27200,"station_id":"","pricing_plan_id":"cebpf4jnsgd1na2vs0mg"},{"bike_id":"c705bf6d-6b2d-4dfc-b2dc-335dd671ec66","system_id":"levelo_inurba_marseille","lat":43.29272,"lon":5.36848,"is_reserved":false,"is_disabled":false,"rental_uris":{"android":"levelo://app?vid=c705bf6d-6b2d-4dfc-b2dc-335dd671ec66","ios":"levelo://app?vid=c705bf6d-6b2d-4dfc-b2dc-335dd671ec66"},"vehicle_type_id":"4","last_reported":1773394161,"current_range_meters":3200,"station_id":"ce4bhbp2rcd13ifvqesg","pricing_plan_id":"cebpf4jnsgd1na2vs0mg"},{"bike_id":"c334c42b-6558-40ea-9aa2-a6d0ce2e63e9","system_id":"levelo_inurba_marseille","lat":43.32469,"lon":5.36598,"is_reserved":false,"is_disabled":false,"rental_uris":{"android":"levelo://app?vid=c334c42b-6558-40ea-9aa2-a6d0ce2e63e9","ios":"levelo://app?vid=c334c42b-6558-40ea-9aa2-a6d0ce2e63e9"},"vehicle_type_id":"4","last_reported":1773394161,"current_range_meters":33600,"station_id":"ce4bhs12rcd13ifvqhvg","pricing_plan_id":"cebpf4jnsgd1na2vs0mg"},{"bike_id":"de0a6a3b-52e8-4ae5-b2ae-a0757d56737c","system_id":"levelo_inurba_marseille","lat":43.28325,"lon":5.38093,"is_reserved":false,"is_disabled":false,"rental_uris":{"android":"levelo://app?vid=de0a6a3b-52e8-4ae5-b2ae-a0757d56737c","ios":"levelo://app?vid=de0a6a3b-52e8-4ae5-b2ae-a0757d56737c"},"vehicle_type_id":"4","last_reported":1773394161,"current_range_meters":17200,"station_id":"ce4bh412rcd13ifvqdr0","pricing_plan_id":"cebpf4jnsgd1na2vs0mg"},{"bike_id":"72e16886-e6be-40d7-9db6-717ac812c857","system_id":"levelo_inurba_marseille","lat":43.30191,"lon":5.40019,"is_reserved":false,"is_disabled":true,"rental_uris":{"android":"levelo://app?vid=72e16886-e6be-40d7-9db6-717ac812c857","ios":"levelo://app?vid=72e16886-e6be-40d7-9db6-717ac812c857"},"vehicle_type_id":"4","last_reported":1773394161,"current_range_meters":18800,"station_id":"","pricing_plan_id":"cebpf4jnsgd1na2vs0mg"},{"bike_id":"2d175e7b-a19c-4126-a7aa-f1cff5b6aef9","system_id":"levelo_inurba_marseille","lat":43.29045,"lon":5.39928,"is_reserved":false,"is_disabled":false,"rental_uris":{"android":"levelo://app?vid=2d175e7b-a19c-4126-a7aa-f1cff5b6aef9","ios":"levelo://app?vid=2d175e7b-a19c-4126-a7aa-f1cff5b6aef9"},"vehicle_type_id":"4","last_reported":1773394161,"current_range_meters":7200,"station_id":"ce4bh392rcd13ifvqdm0","pricing_plan_id":"cebpf4jnsgd1na2vs0mg"},{"bike_id":"3a668f46-b213-4f64-a88b-c0052717a3bd","system_id":"levelo_inurba_marseille","lat":43.309733,"lon":5.39042,"is_reserved":false,"is_disabled":false,"rental_uris":{"android":"levelo://app?vid=3a668f46-b213-4f64-a88b-c0052717a3bd","ios":"levelo://app?vid=3a668f46-b213-4f64-a88b-c0052717a3bd"},"vehicle_type_id":"4","last_reported":1773394161,"current_range_meters":33600,"station_id":"ce4bgup2rcd13ifvqco0","pricing_plan_id":"cebpf4jnsgd1na2vs0mg"},{"bike_id":"a310bf7c-b846-4f73-8825-c0041ee29512","system_id":"levelo_inurba_marseille","lat":43.28001,"lon":5.41627,"is_reserved":false,"is_disabled":false,"rental_uris":{"android":"levelo://app?vid=a310bf7c-b846-4f73-8825-c0041ee29512","ios":"levelo://app?vid=a310bf7c-b846-4f73-8825-c0041ee29512"},"vehicle_type_id":"4","last_reported":1773394161,"current_range_meters":10000,"station_id":"ce4bho12rcd13ifvqh1g","pricing_plan_id":"cebpf4jnsgd1na2vs0mg"},{"bike_id":"ea60c6e4-4382-4e15-84df-d8ab5b4c7ad6","system_id":"levelo_inurba_marseille","lat":43.28027,"lon":5.36945,"is_reserved":false,"is_disabled":false,"rental_uris":{"android":"levelo://app?vid=ea60c6e4-4382-4e15-84df-d8ab5b4c7ad6","ios":"levelo://app?vid=ea60c6e4-4382-4e15-84df-d8ab5b4c7ad6"},"vehicle_type_id":"4","last_reported":1773394161,"current_range_meters":32000,"station_id":"ce4bha12rcd13ifvqef0","pricing_plan_id":"cebpf4jnsgd1na2vs0mg"},{"bike_id":"049d0339-5799-4ade-8ff8-59295e8c39c6","system_id":"levelo_inurba_marseille","lat":43.3247,"lon":5.36581,"is_reserved":false,"is_disabled":false,"rental_uris":{"android":"levelo://app?vid=049d0339-5799-4ade-8ff8-59295e8c39c6","ios":"levelo://app?vid=049d0339-5799-4ade-8ff8-59295e8c39c6"},"vehicle_type_id":"4","last_reported":1773394161,"current_range_meters":37600,"station_id":"ce4bhs12rcd13ifvqhvg","pricing_plan_id":"cebpf4jnsgd1na2vs0mg"},{"bike_id":"3cc3d48e-07a9-4a61-9236-5775b902f6cd","system_id":"levelo_inurba_marseille","lat":43.2861,"lon":5.37064,"is_reserved":false,"is_disabled":false,"rental_uris":{"android":"levelo://app?vid=3cc3d48e-07a9-4a61-9236-5775b902f6cd","ios":"levelo://app?vid=3cc3d48e-07a9-4a61-9236-5775b902f6cd"},"vehicle_type_id":"4","last_reported":1773394161,"current_range_meters":38400,"station_id":"ce4bht12rcd13ifvqi60","pricing_plan_id":"cebpf4jnsgd1na2vs0mg"},{"bike_id":"8fd733ec-8b37-4836-b25f-a2b03118c105","system_id":"levelo_inurba_marseille","lat":43.29903,"lon":5.43658,"is_reserved":false,"is_disabled":false,"rental_uris":{"android":"levelo://app?vid=8fd733ec-8b37-4836-b25f-a2b03118c105","ios":"levelo://app?vid=8fd733ec-8b37-4836-b25f-a2b03118c105"},"vehicle_type_id":"4","last_reported":1773394161,"current_range_meters":26800,"station_id":"ce4bhpp2rcd13ifvqhfg","pricing_plan_id":"cebpf4jnsgd1na2vs0mg"},{"bike_id":"aa1ea814-effc-4a82-a7ce-fc6b0be25510","system_id":"levelo_inurba_marseille","lat":43.33574,"lon":5.36241,"is_reserved":false,"is_disabled":false,"rental_uris":{"android":"levelo://app?vid=aa1ea814-effc-4a82-a7ce-fc6b0be25510","ios":"levelo://app?vid=aa1ea814-effc-4a82-a7ce-fc6b0be25510"},"vehicle_type_id":"4","last_reported":1773394161,"current_range_meters":39200,"station_id":"","pricing_plan_id":"cebpf4jnsgd1na2vs0mg"},{"bike_id":"b26311b7-5bf2-473b-82c5-bcec838fe310","system_id":"levelo_inurba_marseille","lat":43.30506,"lon":5.39328,"is_reserved":false,"is_disabled":false,"rental_uris":{"android":"levelo://app?vid=b26311b7-5bf2-473b-82c5-bcec838fe310","ios":"levelo://app?vid=b26311b7-5bf2-473b-82c5-bcec838fe310"},"vehicle_type_id":"4","last_reported":1773394161,"current_range_meters":38000,"station_id":"","pricing_plan_id":"cebpf4jnsgd1na2vs0mg"},{"bike_id":"c9e5375c-ed69-4090-8e87-9cbfcd20bc36","system_id":"levelo_inurba_marseille","lat":43.2721,"lon":5.39191,"is_reserved":false,"is_disabled":false,"rental_uris":{"android":"levelo://app?vid=c9e5375c-ed69-4090-8e87-9cbfcd20bc36","ios":"levelo://app?vid=c9e5375c-ed69-4090-8e87-9cbfcd20bc36"},"vehicle_type_id":"4","last_reported":1773394161,"current_range_meters":39200,"station_id":"ce4bhhp2rcd13ifvqfm0","pricing_plan_id":"cebpf4jnsgd1na2vs0mg"},{"bike_id":"fc1f73ea-68ac-4ae0-8ae7-5c4e0160f252","system_id":"levelo_inurba_marseille","lat":43.26688,"lon":5.38266,"is_reserved":false,"is_disabled":false,"rental_uris":{"android":"levelo://app?vid=fc1f73ea-68ac-4ae0-8ae7-5c4e0160f252","ios":"levelo://app?vid=fc1f73ea-68ac-4ae0-8ae7-5c4e0160f252"},"vehicle_type_id":"4","last_reported":1773394161,"current_range_meters":30000,"station_id":"ce4bhg92rcd13ifvqf90","pricing_plan_id":"cebpf4jnsgd1na2vs0mg"},{"bike_id":"4fb0d3ac-74ff-440f-a7b2-19d232936e09","system_id":"levelo_inurba_marseille","lat":43.30125,"lon":5.37428,"is_reserved":false,"is_disabled":false,"rental_uris":{"android":"levelo://app?vid=4fb0d3ac-74ff-440f-a7b2-19d232936e09","ios":"levelo://app?vid=4fb0d3ac-74ff-440f-a7b2-19d232936e09"},"vehicle_type_id":"4","last_reported":1773394161,"current_range_meters":20800,"station_id":"ce4bgs92rcd13ifvqcc0","pricing_plan_id":"cebpf4jnsgd1na2vs0mg"},{"bike_id":"eb2f308c-8a12-4604-91b5-c6e7beca1962","system_id":"levelo_inurba_marseille","lat":43.25586,"lon":5.38255,"is_reserved":false,"is_disabled":false,"rental_uris":{"android":"levelo://app?vid=eb2f308c-8a12-4604-91b5-c6e7beca1962","ios":"levelo://app?vid=eb2f308c-8a12-4604-91b5-c6e7beca1962"},"vehicle_type_id":"4","last_reported":1773394161,"current_range_meters":28400,"station_id":"ce4bhih2rcd13ifvqfs0","pricing_plan_id":"cebpf4jnsgd1na2vs0mg"},{"bike_id":"9275d7e0-6f92-4728-99cc-26ef8f5159ad","system_id":"levelo_inurba_marseille","lat":43.29116,"lon":5.43276,"is_reserved":false,"is_disabled":false,"rental_uris":{"android":"levelo://app?vid=9275d7e0-6f92-4728-99cc-26ef8f5159ad","ios":"levelo://app?vid=9275d7e0-6f92-4728-99cc-26ef8f5159ad"},"vehicle_type_id":"4","last_reported":1773394161,"current_range_meters":36000,"station_id":"","pricing_plan_id":"cebpf4jnsgd1na2vs0mg"},{"bike_id":"ca6172bb-1bde-4c29-82ad-418bf4e991bb","system_id":"levelo_inurba_marseille","lat":43.28157,"lon":5.42629,"is_reserved":false,"is_disabled":false,"rental_uris":{"android":"levelo://app?vid=ca6172bb-1bde-4c29-82ad-418bf4e991bb","ios":"levelo://app?vid=ca6172bb-1bde-4c29-82ad-418bf4e991bb"},"vehicle_type_id":"4","last_reported":1773394161,"current_range_meters":20800,"station_id":"ce4bhnh2rcd13ifvqgug","pricing_plan_id":"cebpf4jnsgd1na2vs0mg"},{"bike_id":"be4b33f3-f666-4b28-9e53-550c3c6e8b23","system_id":"levelo_inurba_marseille","lat":43.28468,"lon":5.48393,"is_reserved":false,"is_disabled":false,"rental_uris":{"android":"levelo://app?vid=be4b33f3-f666-4b28-9e53-550c3c6e8b23","ios":"levelo://app?vid=be4b33f3-f666-4b28-9e53-550c3c6e8b23"},"vehicle_type_id":"4","last_reported":1773394161,"current_range_meters":23200,"station_id":"","pricing_plan_id":"cebpf4jnsgd1na2vs0mg"},{"bike_id":"03e319e8-ff92-40c4-a72d-c7542fee3036","system_id":"levelo_inurba_marseille","lat":43.3361,"lon":5.41032,"is_reserved":false,"is_disabled":false,"rental_uris":{"android":"levelo://app?vid=03e319e8-ff92-40c4-a72d-c7542fee3036","ios":"levelo://app?vid=03e319e8-ff92-40c4-a72d-c7542fee3036"},"vehicle_type_id":"4","last_reported":1773394161,"current_range_meters":39200,"station_id":"ce4bhqh2rcd13ifvqhmg","pricing_plan_id":"cebpf4jnsgd1na2vs0mg"},{"bike_id":"803372db-a7aa-4fbf-8572-49ca173e9b77","system_id":"levelo_inurba_marseille","lat":43.28342,"lon":5.38095,"is_reserved":false,"is_disabled":false,"rental_uris":{"android":"levelo://app?vid=803372db-a7aa-4fbf-8572-49ca173e9b77","ios":"levelo://app?vid=803372db-a7aa-4fbf-8572-49ca173e9b77"},"vehicle_type_id":"4","last_reported":1773394161,"current_range_meters":27200,"station_id":"ce4bh412rcd13ifvqdr0","pricing_plan_id":"cebpf4jnsgd1na2vs0mg"},{"bike_id":"7e93006e-36a2-465d-83ba-4c6c7efd21e7","system_id":"levelo_inurba_marseille","lat":43.28478,"lon":5.48396,"is_reserved":false,"is_disabled":false,"rental_uris":{"android":"levelo://app?vid=7e93006e-36a2-465d-83ba-4c6c7efd21e7","ios":"levelo://app?vid=7e93006e-36a2-465d-83ba-4c6c7efd21e7"},"vehicle_type_id":"4","last_reported":1773394161,"current_range_meters":9200,"station_id":"","pricing_plan_id":"cebpf4jnsgd1na2vs0mg"},{"bike_id":"ca023ede-959e-4411-943d-f9c615c571b1","system_id":"levelo_inurba_marseille","lat":43.31062,"lon":5.37174,"is_reserved":false,"is_disabled":false,"rental_uris":{"android":"levelo://app?vid=ca023ede-959e-4411-943d-f9c615c571b1","ios":"levelo://app?vid=ca023ede-959e-4411-943d-f9c615c571b1"},"vehicle_type_id":"4","last_reported":1773394161,"current_range_meters":37600,"station_id":"st_d4kl2rp97mjs73e7tdfg","pricing_plan_id":"cebpf4jnsgd1na2vs0mg"},{"bike_id":"193cbe9d-b7d2-421e-9f76-9c8c86aebb4a","system_id":"levelo_inurba_marseille","lat":43.33549,"lon":5.37469,"is_reserved":false,"is_disabled":false,"rental_uris":{"android":"levelo://app?vid=193cbe9d-b7d2-421e-9f76-9c8c86aebb4a","ios":"levelo://app?vid=193cbe9d-b7d2-421e-9f76-9c8c86aebb4a"},"vehicle_type_id":"4","last_reported":1773394161,"current_range_meters":13600,"station_id":"st_d46tts09ee8s73dlu43g","pricing_plan_id":"cebpf4jnsgd1na2vs0mg"},{"bike_id":"9f555977-ed84-4e25-9c81-1c0c6fccc8b6","system_id":"levelo_inurba_marseille","lat":43.24368,"lon":5.44093,"is_reserved":false,"is_disabled":true,"rental_uris":{"android":"levelo://app?vid=9f555977-ed84-4e25-9c81-1c0c6fccc8b6","ios":"levelo://app?vid=9f555977-ed84-4e25-9c81-1c0c6fccc8b6"},"vehicle_type_id":"4","last_reported":1773394161,"current_range_meters":6800,"station_id":"","pricing_plan_id":"cebpf4jnsgd1na2vs0mg"},{"bike_id":"880cbeba-95c2-4074-9011-0bdbf767792e","system_id":"levelo_inurba_marseille","lat":43.28432,"lon":5.39186,"is_reserved":false,"is_disabled":false,"rental_uris":{"android":"levelo://app?vid=880cbeba-95c2-4074-9011-0bdbf767792e","ios":"levelo://app?vid=880cbeba-95c2-4074-9011-0bdbf767792e"},"vehicle_type_id":"4","last_reported":1773394161,"current_range_meters":8400,"station_id":"ce4bhoh2rcd13ifvqh5g","pricing_plan_id":"cebpf4jnsgd1na2vs0mg"},{"bike_id":"c62d3042-ec95-48b5-aaab-c37562c36bdf","system_id":"levelo_inurba_marseille","lat":43.30675,"lon":5.37052,"is_reserved":false,"is_disabled":false,"rental_uris":{"android":"levelo://app?vid=c62d3042-ec95-48b5-aaab-c37562c36bdf","ios":"levelo://app?vid=c62d3042-ec95-48b5-aaab-c37562c36bdf"},"vehicle_type_id":"4","last_reported":1773394161,"current_range_meters":39200,"station_id":"","pricing_plan_id":"cebpf4jnsgd1na2vs0mg"},{"bike_id":"dc97e95c-153e-49f2-83e4-ef8b0074f6bd","system_id":"levelo_inurba_marseille","lat":43.31182,"lon":5.36873,"is_reserved":false,"is_disabled":false,"rental_uris":{"android":"levelo://app?vid=dc97e95c-153e-49f2-83e4-ef8b0074f6bd","ios":"levelo://app?vid=dc97e95c-153e-49f2-83e4-ef8b0074f6bd"},"vehicle_type_id":"4","last_reported":1773394161,"current_range_meters":28400,"station_id":"ce4bgl92rcd13ifvqbq0","pricing_plan_id":"cebpf4jnsgd1na2vs0mg"},{"bike_id":"89f31350-528f-4d37-afd0-3c115da62617","system_id":"levelo_inurba_marseille","lat":43.28698,"lon":5.39967,"is_reserved":false,"is_disabled":false,"rental_uris":{"android":"levelo://app?vid=89f31350-528f-4d37-afd0-3c115da62617","ios":"levelo://app?vid=89f31350-528f-4d37-afd0-3c115da62617"},"vehicle_type_id":"4","last_reported":1773394161,"current_range_meters":20400,"station_id":"ce4bho92rcd13ifvqh3g","pricing_plan_id":"cebpf4jnsgd1na2vs0mg"},{"bike_id":"35633058-1c8d-41f2-a2e3-e1101467a98c","system_id":"levelo_inurba_marseille","lat":43.23371,"lon":5.41139,"is_reserved":false,"is_disabled":false,"rental_uris":{"android":"levelo://app?vid=35633058-1c8d-41f2-a2e3-e1101467a98c","ios":"levelo://app?vid=35633058-1c8d-41f2-a2e3-e1101467a98c"},"vehicle_type_id":"4","last_reported":1773394161,"current_range_meters":12400,"station_id":"","pricing_plan_id":"cebpf4jnsgd1na2vs0mg"},{"bike_id":"e44ce07f-b4ba-4e55-8858-6faa78a5bb09","system_id":"levelo_inurba_marseille","lat":43.30164,"lon":5.38092,"is_reserved":false,"is_disabled":false,"rental_uris":{"android":"levelo://app?vid=e44ce07f-b4ba-4e55-8858-6faa78a5bb09","ios":"levelo://app?vid=e44ce07f-b4ba-4e55-8858-6faa78a5bb09"},"vehicle_type_id":"4","last_reported":1773394161,"current_range_meters":36800,"station_id":"ce4bgjp2rcd13ifvqbh0","pricing_plan_id":"cebpf4jnsgd1na2vs0mg"},{"bike_id":"e0dc2c97-f01f-403e-92b9-63eacabb08df","system_id":"levelo_inurba_marseille","lat":43.24667,"lon":5.38159,"is_reserved":false,"is_disabled":false,"rental_uris":{"android":"levelo://app?vid=e0dc2c97-f01f-403e-92b9-63eacabb08df","ios":"levelo://app?vid=e0dc2c97-f01f-403e-92b9-63eacabb08df"},"vehicle_type_id":"4","last_reported":1773394161,"current_range_meters":10000,"station_id":"ce4bhih2rcd13ifvqfr0","pricing_plan_id":"cebpf4jnsgd1na2vs0mg"},{"bike_id":"3115ec2c-0e1c-40e3-beba-8ab26217ce9f","system_id":"levelo_inurba_marseille","lat":43.28215,"lon":5.39059,"is_reserved":false,"is_disabled":true,"rental_uris":{"android":"levelo://app?vid=3115ec2c-0e1c-40e3-beba-8ab26217ce9f","ios":"levelo://app?vid=3115ec2c-0e1c-40e3-beba-8ab26217ce9f"},"vehicle_type_id":"4","last_reported":1773394161,"current_range_meters":36800,"station_id":"ce4bhn92rcd13ifvqgsg","pricing_plan_id":"cebpf4jnsgd1na2vs0mg"},{"bike_id":"dec7e136-8e46-49db-9f8c-f6ff1cf5ddff","system_id":"levelo_inurba_marseille","lat":43.21758,"lon":5.34594,"is_reserved":false,"is_disabled":false,"rental_uris":{"android":"levelo://app?vid=dec7e136-8e46-49db-9f8c-f6ff1cf5ddff","ios":"levelo://app?vid=dec7e136-8e46-49db-9f8c-f6ff1cf5ddff"},"vehicle_type_id":"4","last_reported":1773394161,"current_range_meters":9600,"station_id":"st_cvj6r9ubvosntc0bgbag","pricing_plan_id":"cebpf4jnsgd1na2vs0mg"},{"bike_id":"9c3f11b1-6c96-472d-acf9-a5ac4e6e8a32","system_id":"levelo_inurba_marseille","lat":43.2464,"lon":5.38917,"is_reserved":false,"is_disabled":false,"rental_uris":{"android":"levelo://app?vid=9c3f11b1-6c96-472d-acf9-a5ac4e6e8a32","ios":"levelo://app?vid=9c3f11b1-6c96-472d-acf9-a5ac4e6e8a32"},"vehicle_type_id":"4","last_reported":1773394161,"current_range_meters":38000,"station_id":"ce4bhg12rcd13ifvqf60","pricing_plan_id":"cebpf4jnsgd1na2vs0mg"},{"bike_id":"ddffd595-e4d6-4840-a075-89e0d98ad68d","system_id":"levelo_inurba_marseille","lat":43.2707,"lon":5.42274,"is_reserved":false,"is_disabled":false,"rental_uris":{"android":"levelo://app?vid=ddffd595-e4d6-4840-a075-89e0d98ad68d","ios":"levelo://app?vid=ddffd595-e4d6-4840-a075-89e0d98ad68d"},"vehicle_type_id":"4","last_reported":1773394161,"current_range_meters":11200,"station_id":"ce4bhk92rcd13ifvqgb0","pricing_plan_id":"cebpf4jnsgd1na2vs0mg"},{"bike_id":"483b51bc-13b6-4f8e-bf1c-b113cd698669","system_id":"levelo_inurba_marseille","lat":43.28275,"lon":5.35057,"is_reserved":false,"is_disabled":false,"rental_uris":{"android":"levelo://app?vid=483b51bc-13b6-4f8e-bf1c-b113cd698669","ios":"levelo://app?vid=483b51bc-13b6-4f8e-bf1c-b113cd698669"},"vehicle_type_id":"4","last_reported":1773394161,"current_range_meters":30800,"station_id":"ce4bhbp2rcd13ifvqerg","pricing_plan_id":"cebpf4jnsgd1na2vs0mg"},{"bike_id":"d4265320-4bdb-405e-aa89-ece42b3e0cb7","system_id":"levelo_inurba_marseille","lat":43.34142,"lon":5.40901,"is_reserved":false,"is_disabled":false,"rental_uris":{"android":"levelo://app?vid=d4265320-4bdb-405e-aa89-ece42b3e0cb7","ios":"levelo://app?vid=d4265320-4bdb-405e-aa89-ece42b3e0cb7"},"vehicle_type_id":"4","last_reported":1773394161,"current_range_meters":25200,"station_id":"ce4bhqh2rcd13ifvqhlg","pricing_plan_id":"cebpf4jnsgd1na2vs0mg"},{"bike_id":"02ead4dc-b645-4d56-ad65-ea6ca89e6836","system_id":"levelo_inurba_marseille","lat":43.28179,"lon":5.42649,"is_reserved":false,"is_disabled":false,"rental_uris":{"android":"levelo://app?vid=02ead4dc-b645-4d56-ad65-ea6ca89e6836","ios":"levelo://app?vid=02ead4dc-b645-4d56-ad65-ea6ca89e6836"},"vehicle_type_id":"4","last_reported":1773394161,"current_range_meters":38000,"station_id":"ce4bhnh2rcd13ifvqgug","pricing_plan_id":"cebpf4jnsgd1na2vs0mg"},{"bike_id":"6cd1dc49-4eec-4f18-9873-37dd3393346d","system_id":"levelo_inurba_marseille","lat":43.2791,"lon":5.38007,"is_reserved":false,"is_disabled":false,"rental_uris":{"android":"levelo://app?vid=6cd1dc49-4eec-4f18-9873-37dd3393346d","ios":"levelo://app?vid=6cd1dc49-4eec-4f18-9873-37dd3393346d"},"vehicle_type_id":"4","last_reported":1773394161,"current_range_meters":38800,"station_id":"ce4bhf92rcd13ifvqf50","pricing_plan_id":"cebpf4jnsgd1na2vs0mg"},{"bike_id":"48f7318f-42c7-4aa4-b62f-fc9ed340836e","system_id":"levelo_inurba_marseille","lat":43.28158,"lon":5.42645,"is_reserved":false,"is_disabled":false,"rental_uris":{"android":"levelo://app?vid=48f7318f-42c7-4aa4-b62f-fc9ed340836e","ios":"levelo://app?vid=48f7318f-42c7-4aa4-b62f-fc9ed340836e"},"vehicle_type_id":"4","last_reported":1773394161,"current_range_meters":9600,"station_id":"ce4bhnh2rcd13ifvqgug","pricing_plan_id":"cebpf4jnsgd1na2vs0mg"},{"bike_id":"3b3bb223-f64d-4999-9484-8389f1a83f8a","system_id":"levelo_inurba_marseille","lat":43.30169,"lon":5.38065,"is_reserved":false,"is_disabled":false,"rental_uris":{"android":"levelo://app?vid=3b3bb223-f64d-4999-9484-8389f1a83f8a","ios":"levelo://app?vid=3b3bb223-f64d-4999-9484-8389f1a83f8a"},"vehicle_type_id":"4","last_reported":1773394161,"current_range_meters":25200,"station_id":"ce4bgjp2rcd13ifvqbh0","pricing_plan_id":"cebpf4jnsgd1na2vs0mg"},{"bike_id":"085d9f80-e450-4ad6-81b9-46074072f150","system_id":"levelo_inurba_marseille","lat":43.31469,"lon":5.37313,"is_reserved":false,"is_disabled":false,"rental_uris":{"android":"levelo://app?vid=085d9f80-e450-4ad6-81b9-46074072f150","ios":"levelo://app?vid=085d9f80-e450-4ad6-81b9-46074072f150"},"vehicle_type_id":"4","last_reported":1773394161,"current_range_meters":39200,"station_id":"ce4bgt12rcd13ifvqcd0","pricing_plan_id":"cebpf4jnsgd1na2vs0mg"},{"bike_id":"785c672b-b04e-4d06-bd7e-7d7f6fe09d9f","system_id":"levelo_inurba_marseille","lat":43.29135,"lon":5.40061,"is_reserved":false,"is_disabled":false,"rental_uris":{"android":"levelo://app?vid=785c672b-b04e-4d06-bd7e-7d7f6fe09d9f","ios":"levelo://app?vid=785c672b-b04e-4d06-bd7e-7d7f6fe09d9f"},"vehicle_type_id":"4","last_reported":1773394161,"current_range_meters":10000,"station_id":"","pricing_plan_id":"cebpf4jnsgd1na2vs0mg"},{"bike_id":"64069c02-c977-4af0-a752-efe4502ec874","system_id":"levelo_inurba_marseille","lat":43.28481,"lon":5.4839,"is_reserved":false,"is_disabled":false,"rental_uris":{"android":"levelo://app?vid=64069c02-c977-4af0-a752-efe4502ec874","ios":"levelo://app?vid=64069c02-c977-4af0-a752-efe4502ec874"},"vehicle_type_id":"4","last_reported":1773394161,"current_range_meters":11200,"station_id":"","pricing_plan_id":"cebpf4jnsgd1na2vs0mg"},{"bike_id":"489b4cfb-fccc-4eb6-8d28-eb867a3bc809","system_id":"levelo_inurba_marseille","lat":43.29657,"lon":5.40586,"is_reserved":false,"is_disabled":true,"rental_uris":{"android":"levelo://app?vid=489b4cfb-fccc-4eb6-8d28-eb867a3bc809","ios":"levelo://app?vid=489b4cfb-fccc-4eb6-8d28-eb867a3bc809"},"vehicle_type_id":"4","last_reported":1773394161,"current_range_meters":36400,"station_id":"ce4bh0h2rcd13ifvqd60","pricing_plan_id":"cebpf4jnsgd1na2vs0mg"},{"bike_id":"5db6e19a-4369-4327-b7e4-06c2f961c22d","system_id":"levelo_inurba_marseille","lat":43.30893,"lon":5.36868,"is_reserved":false,"is_disabled":false,"rental_uris":{"android":"levelo://app?vid=5db6e19a-4369-4327-b7e4-06c2f961c22d","ios":"levelo://app?vid=5db6e19a-4369-4327-b7e4-06c2f961c22d"},"vehicle_type_id":"4","last_reported":1773394161,"current_range_meters":39200,"station_id":"ce4bgn92rcd13ifvqbvg","pricing_plan_id":"cebpf4jnsgd1na2vs0mg"},{"bike_id":"7bf0a830-d498-457c-a030-91c3bd84fed4","system_id":"levelo_inurba_marseille","lat":43.23178,"lon":5.35572,"is_reserved":false,"is_disabled":false,"rental_uris":{"android":"levelo://app?vid=7bf0a830-d498-457c-a030-91c3bd84fed4","ios":"levelo://app?vid=7bf0a830-d498-457c-a030-91c3bd84fed4"},"vehicle_type_id":"4","last_reported":1773394161,"current_range_meters":12000,"station_id":"ce4bhu92rcd13ifvqi70","pricing_plan_id":"cebpf4jnsgd1na2vs0mg"},{"bike_id":"db5fc025-f609-443b-b481-2f6cefb137d4","system_id":"levelo_inurba_marseille","lat":43.28477,"lon":5.4839,"is_reserved":false,"is_disabled":false,"rental_uris":{"android":"levelo://app?vid=db5fc025-f609-443b-b481-2f6cefb137d4","ios":"levelo://app?vid=db5fc025-f609-443b-b481-2f6cefb137d4"},"vehicle_type_id":"4","last_reported":1773394161,"current_range_meters":34000,"station_id":"","pricing_plan_id":"cebpf4jnsgd1na2vs0mg"},{"bike_id":"d5b94fb7-6ed2-4115-8925-47fdf09de149","system_id":"levelo_inurba_marseille","lat":43.30544,"lon":5.36724,"is_reserved":false,"is_disabled":false,"rental_uris":{"android":"levelo://app?vid=d5b94fb7-6ed2-4115-8925-47fdf09de149","ios":"levelo://app?vid=d5b94fb7-6ed2-4115-8925-47fdf09de149"},"vehicle_type_id":"4","last_reported":1773394161,"current_range_meters":36400,"station_id":"ce4bgrp2rcd13ifvqc9g","pricing_plan_id":"cebpf4jnsgd1na2vs0mg"},{"bike_id":"552db961-6ff4-4a02-9e5d-7a6056b861cd","system_id":"levelo_inurba_marseille","lat":43.3091,"lon":5.36862,"is_reserved":false,"is_disabled":false,"rental_uris":{"android":"levelo://app?vid=552db961-6ff4-4a02-9e5d-7a6056b861cd","ios":"levelo://app?vid=552db961-6ff4-4a02-9e5d-7a6056b861cd"},"vehicle_type_id":"4","last_reported":1773394161,"current_range_meters":38400,"station_id":"ce4bgn92rcd13ifvqbvg","pricing_plan_id":"cebpf4jnsgd1na2vs0mg"},{"bike_id":"9c2b5d2a-9cac-40e8-8612-2d62a5457827","system_id":"levelo_inurba_marseille","lat":43.27678,"lon":5.38908,"is_reserved":false,"is_disabled":false,"rental_uris":{"android":"levelo://app?vid=9c2b5d2a-9cac-40e8-8612-2d62a5457827","ios":"levelo://app?vid=9c2b5d2a-9cac-40e8-8612-2d62a5457827"},"vehicle_type_id":"4","last_reported":1773394161,"current_range_meters":36800,"station_id":"ce4bhi12rcd13ifvqfo0","pricing_plan_id":"cebpf4jnsgd1na2vs0mg"},{"bike_id":"ab7d9189-2568-4974-829e-49dee9a447d5","system_id":"levelo_inurba_marseille","lat":43.23206,"lon":5.35543,"is_reserved":false,"is_disabled":false,"rental_uris":{"android":"levelo://app?vid=ab7d9189-2568-4974-829e-49dee9a447d5","ios":"levelo://app?vid=ab7d9189-2568-4974-829e-49dee9a447d5"},"vehicle_type_id":"4","last_reported":1773394161,"current_range_meters":39200,"station_id":"ce4bhu92rcd13ifvqi70","pricing_plan_id":"cebpf4jnsgd1na2vs0mg"},{"bike_id":"571fd02e-f1c6-4150-b7f2-77d6744972b1","system_id":"levelo_inurba_marseille","lat":43.2822,"lon":5.39073,"is_reserved":false,"is_disabled":false,"rental_uris":{"android":"levelo://app?vid=571fd02e-f1c6-4150-b7f2-77d6744972b1","ios":"levelo://app?vid=571fd02e-f1c6-4150-b7f2-77d6744972b1"},"vehicle_type_id":"4","last_reported":1773394161,"current_range_meters":17600,"station_id":"ce4bhn92rcd13ifvqgsg","pricing_plan_id":"cebpf4jnsgd1na2vs0mg"},{"bike_id":"c0c5d9dc-928d-48b1-bc04-fe5d71707694","system_id":"levelo_inurba_marseille","lat":43.32367,"lon":5.36727,"is_reserved":false,"is_disabled":false,"rental_uris":{"android":"levelo://app?vid=c0c5d9dc-928d-48b1-bc04-fe5d71707694","ios":"levelo://app?vid=c0c5d9dc-928d-48b1-bc04-fe5d71707694"},"vehicle_type_id":"4","last_reported":1773394161,"current_range_meters":39200,"station_id":"ce4bhsh2rcd13ifvqi2g","pricing_plan_id":"cebpf4jnsgd1na2vs0mg"},{"bike_id":"34067b23-0c56-4b26-b659-525005b5345f","system_id":"levelo_inurba_marseille","lat":43.21834,"lon":5.34568,"is_reserved":false,"is_disabled":false,"rental_uris":{"android":"levelo://app?vid=34067b23-0c56-4b26-b659-525005b5345f","ios":"levelo://app?vid=34067b23-0c56-4b26-b659-525005b5345f"},"vehicle_type_id":"4","last_reported":1773394161,"current_range_meters":26800,"station_id":"","pricing_plan_id":"cebpf4jnsgd1na2vs0mg"},{"bike_id":"a243ae06-bdb1-4295-b949-9b571a79a0aa","system_id":"levelo_inurba_marseille","lat":43.27818,"lon":5.40719,"is_reserved":false,"is_disabled":false,"rental_uris":{"android":"levelo://app?vid=a243ae06-bdb1-4295-b949-9b571a79a0aa","ios":"levelo://app?vid=a243ae06-bdb1-4295-b949-9b571a79a0aa"},"vehicle_type_id":"4","last_reported":1773394161,"current_range_meters":20800,"station_id":"ce4bhnh2rcd13ifvqgtg","pricing_plan_id":"cebpf4jnsgd1na2vs0mg"},{"bike_id":"91ad5159-ee4f-4775-9e76-ea40758cdb2d","system_id":"levelo_inurba_marseille","lat":43.24148,"lon":5.36418,"is_reserved":false,"is_disabled":false,"rental_uris":{"android":"levelo://app?vid=91ad5159-ee4f-4775-9e76-ea40758cdb2d","ios":"levelo://app?vid=91ad5159-ee4f-4775-9e76-ea40758cdb2d"},"vehicle_type_id":"4","last_reported":1773394161,"current_range_meters":11200,"station_id":"cpo36qri1sfpv3e86is0","pricing_plan_id":"cebpf4jnsgd1na2vs0mg"},{"bike_id":"8de12fef-6359-4d70-a7e8-4ffdbc072df6","system_id":"levelo_inurba_marseille","lat":43.31689,"lon":5.40458,"is_reserved":false,"is_disabled":false,"rental_uris":{"android":"levelo://app?vid=8de12fef-6359-4d70-a7e8-4ffdbc072df6","ios":"levelo://app?vid=8de12fef-6359-4d70-a7e8-4ffdbc072df6"},"vehicle_type_id":"4","last_reported":1773394161,"current_range_meters":31200,"station_id":"ce4bh012rcd13ifvqd00","pricing_plan_id":"cebpf4jnsgd1na2vs0mg"},{"bike_id":"7ebd4fe4-bd51-4cb0-ad79-c4b5beaa245d","system_id":"levelo_inurba_marseille","lat":43.26207,"lon":5.37925,"is_reserved":false,"is_disabled":false,"rental_uris":{"android":"levelo://app?vid=7ebd4fe4-bd51-4cb0-ad79-c4b5beaa245d","ios":"levelo://app?vid=7ebd4fe4-bd51-4cb0-ad79-c4b5beaa245d"},"vehicle_type_id":"4","last_reported":1773394161,"current_range_meters":40000,"station_id":"ce4bhjp2rcd13ifvqg90","pricing_plan_id":"cebpf4jnsgd1na2vs0mg"},{"bike_id":"e369c24e-13b9-4c41-a343-6e717bc73c41","system_id":"levelo_inurba_marseille","lat":43.2894,"lon":5.39616,"is_reserved":false,"is_disabled":false,"rental_uris":{"android":"levelo://app?vid=e369c24e-13b9-4c41-a343-6e717bc73c41","ios":"levelo://app?vid=e369c24e-13b9-4c41-a343-6e717bc73c41"},"vehicle_type_id":"4","last_reported":1773394161,"current_range_meters":5600,"station_id":"ce4bh3h2rcd13ifvqdn0","pricing_plan_id":"cebpf4jnsgd1na2vs0mg"},{"bike_id":"6737ca02-2d43-49c4-a10a-3e68cea6b2e2","system_id":"levelo_inurba_marseille","lat":43.29779,"lon":5.42752,"is_reserved":false,"is_disabled":false,"rental_uris":{"android":"levelo://app?vid=6737ca02-2d43-49c4-a10a-3e68cea6b2e2","ios":"levelo://app?vid=6737ca02-2d43-49c4-a10a-3e68cea6b2e2"},"vehicle_type_id":"4","last_reported":1773394161,"current_range_meters":31200,"station_id":"st_d3md5207bmas73dh9klg","pricing_plan_id":"cebpf4jnsgd1na2vs0mg"},{"bike_id":"8538cacb-65ac-4661-8450-fd941a926a5b","system_id":"levelo_inurba_marseille","lat":43.3056,"lon":5.37857,"is_reserved":false,"is_disabled":false,"rental_uris":{"android":"levelo://app?vid=8538cacb-65ac-4661-8450-fd941a926a5b","ios":"levelo://app?vid=8538cacb-65ac-4661-8450-fd941a926a5b"},"vehicle_type_id":"4","last_reported":1773394161,"current_range_meters":14000,"station_id":"","pricing_plan_id":"cebpf4jnsgd1na2vs0mg"},{"bike_id":"61d17a9a-a13c-45e9-a277-495a8d0f82a3","system_id":"levelo_inurba_marseille","lat":43.24396,"lon":5.37053,"is_reserved":false,"is_disabled":false,"rental_uris":{"android":"levelo://app?vid=61d17a9a-a13c-45e9-a277-495a8d0f82a3","ios":"levelo://app?vid=61d17a9a-a13c-45e9-a277-495a8d0f82a3"},"vehicle_type_id":"4","last_reported":1773394161,"current_range_meters":39200,"station_id":"ce4bhhh2rcd13ifvqfk0","pricing_plan_id":"cebpf4jnsgd1na2vs0mg"},{"bike_id":"50251ffc-95ae-4419-96f2-c7a4d8e00c25","system_id":"levelo_inurba_marseille","lat":43.28685,"lon":5.40001,"is_reserved":false,"is_disabled":false,"rental_uris":{"android":"levelo://app?vid=50251ffc-95ae-4419-96f2-c7a4d8e00c25","ios":"levelo://app?vid=50251ffc-95ae-4419-96f2-c7a4d8e00c25"},"vehicle_type_id":"4","last_reported":1773394161,"current_range_meters":39200,"station_id":"ce4bho92rcd13ifvqh3g","pricing_plan_id":"cebpf4jnsgd1na2vs0mg"},{"bike_id":"78464a53-7de6-4a0b-b4d5-93414303e537","system_id":"levelo_inurba_marseille","lat":43.27674,"lon":5.38866,"is_reserved":false,"is_disabled":false,"rental_uris":{"android":"levelo://app?vid=78464a53-7de6-4a0b-b4d5-93414303e537","ios":"levelo://app?vid=78464a53-7de6-4a0b-b4d5-93414303e537"},"vehicle_type_id":"4","last_reported":1773394161,"current_range_meters":36000,"station_id":"ce4bhi12rcd13ifvqfo0","pricing_plan_id":"cebpf4jnsgd1na2vs0mg"},{"bike_id":"9769682f-7437-4429-a488-336659c4c35c","system_id":"levelo_inurba_marseille","lat":43.24173,"lon":5.39728,"is_reserved":false,"is_disabled":false,"rental_uris":{"android":"levelo://app?vid=9769682f-7437-4429-a488-336659c4c35c","ios":"levelo://app?vid=9769682f-7437-4429-a488-336659c4c35c"},"vehicle_type_id":"4","last_reported":1773394161,"current_range_meters":22800,"station_id":"ce4bhn12rcd13ifvqgpg","pricing_plan_id":"cebpf4jnsgd1na2vs0mg"},{"bike_id":"68e11dcd-1fc6-4315-b0f8-44e02470960c","system_id":"levelo_inurba_marseille","lat":43.28524,"lon":5.44097,"is_reserved":false,"is_disabled":false,"rental_uris":{"android":"levelo://app?vid=68e11dcd-1fc6-4315-b0f8-44e02470960c","ios":"levelo://app?vid=68e11dcd-1fc6-4315-b0f8-44e02470960c"},"vehicle_type_id":"4","last_reported":1773394161,"current_range_meters":35600,"station_id":"st_d3j3df2ikq2c7380ej80","pricing_plan_id":"cebpf4jnsgd1na2vs0mg"},{"bike_id":"6b04a07b-dff0-4570-b779-895cef5f817f","system_id":"levelo_inurba_marseille","lat":43.26214,"lon":5.38856,"is_reserved":false,"is_disabled":false,"rental_uris":{"android":"levelo://app?vid=6b04a07b-dff0-4570-b779-895cef5f817f","ios":"levelo://app?vid=6b04a07b-dff0-4570-b779-895cef5f817f"},"vehicle_type_id":"4","last_reported":1773394161,"current_range_meters":24800,"station_id":"","pricing_plan_id":"cebpf4jnsgd1na2vs0mg"},{"bike_id":"38c8a2aa-aaf2-42ca-bf6f-cbe44ad62d9a","system_id":"levelo_inurba_marseille","lat":43.29023,"lon":5.39971,"is_reserved":false,"is_disabled":false,"rental_uris":{"android":"levelo://app?vid=38c8a2aa-aaf2-42ca-bf6f-cbe44ad62d9a","ios":"levelo://app?vid=38c8a2aa-aaf2-42ca-bf6f-cbe44ad62d9a"},"vehicle_type_id":"4","last_reported":1773394161,"current_range_meters":38000,"station_id":"ce4bh392rcd13ifvqdm0","pricing_plan_id":"cebpf4jnsgd1na2vs0mg"},{"bike_id":"32358ead-44ff-491d-882b-0c4122b7d796","system_id":"levelo_inurba_marseille","lat":43.21184,"lon":5.35069,"is_reserved":false,"is_disabled":false,"rental_uris":{"android":"levelo://app?vid=32358ead-44ff-491d-882b-0c4122b7d796","ios":"levelo://app?vid=32358ead-44ff-491d-882b-0c4122b7d796"},"vehicle_type_id":"4","last_reported":1773394161,"current_range_meters":9200,"station_id":"st_cvj6sg6p6f1abm77japg","pricing_plan_id":"cebpf4jnsgd1na2vs0mg"},{"bike_id":"88baf1fe-4b9b-4c52-81f7-dd067c921a9f","system_id":"levelo_inurba_marseille","lat":43.29814,"lon":5.44072,"is_reserved":false,"is_disabled":false,"rental_uris":{"android":"levelo://app?vid=88baf1fe-4b9b-4c52-81f7-dd067c921a9f","ios":"levelo://app?vid=88baf1fe-4b9b-4c52-81f7-dd067c921a9f"},"vehicle_type_id":"4","last_reported":1773394161,"current_range_meters":17200,"station_id":"st_d3jp68qikq2c7381ktn0","pricing_plan_id":"cebpf4jnsgd1na2vs0mg"},{"bike_id":"3fe9ee8f-02f5-45ab-ab2f-88a189618cd0","system_id":"levelo_inurba_marseille","lat":43.3097,"lon":5.39044,"is_reserved":false,"is_disabled":false,"rental_uris":{"android":"levelo://app?vid=3fe9ee8f-02f5-45ab-ab2f-88a189618cd0","ios":"levelo://app?vid=3fe9ee8f-02f5-45ab-ab2f-88a189618cd0"},"vehicle_type_id":"4","last_reported":1773394161,"current_range_meters":37600,"station_id":"ce4bgup2rcd13ifvqco0","pricing_plan_id":"cebpf4jnsgd1na2vs0mg"},{"bike_id":"cf76cd83-21b4-4e98-ae5a-fd0ea800a53a","system_id":"levelo_inurba_marseille","lat":43.27429,"lon":5.39395,"is_reserved":false,"is_disabled":false,"rental_uris":{"android":"levelo://app?vid=cf76cd83-21b4-4e98-ae5a-fd0ea800a53a","ios":"levelo://app?vid=cf76cd83-21b4-4e98-ae5a-fd0ea800a53a"},"vehicle_type_id":"4","last_reported":1773394161,"current_range_meters":14000,"station_id":"ce4bhdp2rcd13ifvqf20","pricing_plan_id":"cebpf4jnsgd1na2vs0mg"},{"bike_id":"983af4e7-4f5c-408e-b401-4e12699b4ec2","system_id":"levelo_inurba_marseille","lat":43.27798,"lon":5.39239,"is_reserved":false,"is_disabled":false,"rental_uris":{"android":"levelo://app?vid=983af4e7-4f5c-408e-b401-4e12699b4ec2","ios":"levelo://app?vid=983af4e7-4f5c-408e-b401-4e12699b4ec2"},"vehicle_type_id":"4","last_reported":1773394161,"current_range_meters":13600,"station_id":"ce4bhjp2rcd13ifvqga0","pricing_plan_id":"cebpf4jnsgd1na2vs0mg"},{"bike_id":"ff072034-9b7d-4382-8324-f79c5ae34e4b","system_id":"levelo_inurba_marseille","lat":43.2408,"lon":5.37758,"is_reserved":false,"is_disabled":false,"rental_uris":{"android":"levelo://app?vid=ff072034-9b7d-4382-8324-f79c5ae34e4b","ios":"levelo://app?vid=ff072034-9b7d-4382-8324-f79c5ae34e4b"},"vehicle_type_id":"4","last_reported":1773394161,"current_range_meters":20400,"station_id":"ce4bhnp2rcd13ifvqgvg","pricing_plan_id":"cebpf4jnsgd1na2vs0mg"},{"bike_id":"cbf3c1c8-949f-47c5-8ffa-840c4c8920af","system_id":"levelo_inurba_marseille","lat":43.31342,"lon":5.36724,"is_reserved":false,"is_disabled":false,"rental_uris":{"android":"levelo://app?vid=cbf3c1c8-949f-47c5-8ffa-840c4c8920af","ios":"levelo://app?vid=cbf3c1c8-949f-47c5-8ffa-840c4c8920af"},"vehicle_type_id":"4","last_reported":1773394161,"current_range_meters":37600,"station_id":"ce4bgr92rcd13ifvqc6g","pricing_plan_id":"cebpf4jnsgd1na2vs0mg"},{"bike_id":"b9f80436-b025-4780-b392-7d89975f7b62","system_id":"levelo_inurba_marseille","lat":43.27406,"lon":5.42484,"is_reserved":false,"is_disabled":false,"rental_uris":{"android":"levelo://app?vid=b9f80436-b025-4780-b392-7d89975f7b62","ios":"levelo://app?vid=b9f80436-b025-4780-b392-7d89975f7b62"},"vehicle_type_id":"4","last_reported":1773394161,"current_range_meters":27200,"station_id":"","pricing_plan_id":"cebpf4jnsgd1na2vs0mg"},{"bike_id":"96be0bc3-e0a0-45ee-945d-9051b211608c","system_id":"levelo_inurba_marseille","lat":43.30128,"lon":5.43117,"is_reserved":false,"is_disabled":false,"rental_uris":{"android":"levelo://app?vid=96be0bc3-e0a0-45ee-945d-9051b211608c","ios":"levelo://app?vid=96be0bc3-e0a0-45ee-945d-9051b211608c"},"vehicle_type_id":"4","last_reported":1773394161,"current_range_meters":25200,"station_id":"st_d3js3co5814s73ftftug","pricing_plan_id":"cebpf4jnsgd1na2vs0mg"},{"bike_id":"5027bad3-e349-4f82-8455-86668ef30a4e","system_id":"levelo_inurba_marseille","lat":43.27061,"lon":5.40253,"is_reserved":false,"is_disabled":false,"rental_uris":{"android":"levelo://app?vid=5027bad3-e349-4f82-8455-86668ef30a4e","ios":"levelo://app?vid=5027bad3-e349-4f82-8455-86668ef30a4e"},"vehicle_type_id":"4","last_reported":1773394161,"current_range_meters":24400,"station_id":"ce4bhk92rcd13ifvqgc0","pricing_plan_id":"cebpf4jnsgd1na2vs0mg"},{"bike_id":"8c1214cb-4163-415d-a296-9078e784ee11","system_id":"levelo_inurba_marseille","lat":43.27315,"lon":5.39083,"is_reserved":false,"is_disabled":false,"rental_uris":{"android":"levelo://app?vid=8c1214cb-4163-415d-a296-9078e784ee11","ios":"levelo://app?vid=8c1214cb-4163-415d-a296-9078e784ee11"},"vehicle_type_id":"4","last_reported":1773394161,"current_range_meters":36000,"station_id":"ce4bhgp2rcd13ifvqfe0","pricing_plan_id":"cebpf4jnsgd1na2vs0mg"},{"bike_id":"ae5a0365-5ee5-4329-b395-b2e15774e64d","system_id":"levelo_inurba_marseille","lat":43.24181,"lon":5.39723,"is_reserved":false,"is_disabled":false,"rental_uris":{"android":"levelo://app?vid=ae5a0365-5ee5-4329-b395-b2e15774e64d","ios":"levelo://app?vid=ae5a0365-5ee5-4329-b395-b2e15774e64d"},"vehicle_type_id":"4","last_reported":1773394161,"current_range_meters":3200,"station_id":"ce4bhn12rcd13ifvqgpg","pricing_plan_id":"cebpf4jnsgd1na2vs0mg"},{"bike_id":"1682d056-fdab-4527-af67-8d06aa137368","system_id":"levelo_inurba_marseille","lat":43.2338,"lon":5.41243,"is_reserved":false,"is_disabled":false,"rental_uris":{"android":"levelo://app?vid=1682d056-fdab-4527-af67-8d06aa137368","ios":"levelo://app?vid=1682d056-fdab-4527-af67-8d06aa137368"},"vehicle_type_id":"4","last_reported":1773394161,"current_range_meters":27200,"station_id":"","pricing_plan_id":"cebpf4jnsgd1na2vs0mg"},{"bike_id":"d6020f80-4f12-4b16-9868-71a9b4fcf4bf","system_id":"levelo_inurba_marseille","lat":43.30466,"lon":5.37903,"is_reserved":false,"is_disabled":false,"rental_uris":{"android":"levelo://app?vid=d6020f80-4f12-4b16-9868-71a9b4fcf4bf","ios":"levelo://app?vid=d6020f80-4f12-4b16-9868-71a9b4fcf4bf"},"vehicle_type_id":"4","last_reported":1773394161,"current_range_meters":38800,"station_id":"ce4bgup2rcd13ifvqcn0","pricing_plan_id":"cebpf4jnsgd1na2vs0mg"},{"bike_id":"4ef83d71-82ec-4866-ba31-1fac4259f74f","system_id":"levelo_inurba_marseille","lat":43.3092,"lon":5.36814,"is_reserved":false,"is_disabled":false,"rental_uris":{"android":"levelo://app?vid=4ef83d71-82ec-4866-ba31-1fac4259f74f","ios":"levelo://app?vid=4ef83d71-82ec-4866-ba31-1fac4259f74f"},"vehicle_type_id":"4","last_reported":1773394161,"current_range_meters":23200,"station_id":"ce4bgn92rcd13ifvqbvg","pricing_plan_id":"cebpf4jnsgd1na2vs0mg"},{"bike_id":"77104936-f36f-4a1c-b5f6-9be1e7ca6ed3","system_id":"levelo_inurba_marseille","lat":43.33543,"lon":5.37435,"is_reserved":false,"is_disabled":false,"rental_uris":{"android":"levelo://app?vid=77104936-f36f-4a1c-b5f6-9be1e7ca6ed3","ios":"levelo://app?vid=77104936-f36f-4a1c-b5f6-9be1e7ca6ed3"},"vehicle_type_id":"4","last_reported":1773394161,"current_range_meters":30000,"station_id":"st_d46tts09ee8s73dlu43g","pricing_plan_id":"cebpf4jnsgd1na2vs0mg"},{"bike_id":"387f1c67-1aaa-4b0b-9537-1ec9dc1a02fe","system_id":"levelo_inurba_marseille","lat":43.30172,"lon":5.39775,"is_reserved":false,"is_disabled":false,"rental_uris":{"android":"levelo://app?vid=387f1c67-1aaa-4b0b-9537-1ec9dc1a02fe","ios":"levelo://app?vid=387f1c67-1aaa-4b0b-9537-1ec9dc1a02fe"},"vehicle_type_id":"4","last_reported":1773394161,"current_range_meters":28000,"station_id":"","pricing_plan_id":"cebpf4jnsgd1na2vs0mg"},{"bike_id":"57b036cb-9640-4994-9130-af549bbcf17d","system_id":"levelo_inurba_marseille","lat":43.27418,"lon":5.39427,"is_reserved":false,"is_disabled":false,"rental_uris":{"android":"levelo://app?vid=57b036cb-9640-4994-9130-af549bbcf17d","ios":"levelo://app?vid=57b036cb-9640-4994-9130-af549bbcf17d"},"vehicle_type_id":"4","last_reported":1773394161,"current_range_meters":28000,"station_id":"ce4bhdp2rcd13ifvqf20","pricing_plan_id":"cebpf4jnsgd1na2vs0mg"},{"bike_id":"69e05900-50f6-42b8-90dd-e1c9c6f8e7da","system_id":"levelo_inurba_marseille","lat":43.25812,"lon":5.3943,"is_reserved":false,"is_disabled":false,"rental_uris":{"android":"levelo://app?vid=69e05900-50f6-42b8-90dd-e1c9c6f8e7da","ios":"levelo://app?vid=69e05900-50f6-42b8-90dd-e1c9c6f8e7da"},"vehicle_type_id":"4","last_reported":1773394161,"current_range_meters":34000,"station_id":"ce4bhip2rcd13ifvqft0","pricing_plan_id":"cebpf4jnsgd1na2vs0mg"},{"bike_id":"ea304849-fd51-4961-bfc0-efabcbe3b6ad","system_id":"levelo_inurba_marseille","lat":43.23379,"lon":5.4122,"is_reserved":false,"is_disabled":false,"rental_uris":{"android":"levelo://app?vid=ea304849-fd51-4961-bfc0-efabcbe3b6ad","ios":"levelo://app?vid=ea304849-fd51-4961-bfc0-efabcbe3b6ad"},"vehicle_type_id":"4","last_reported":1773394161,"current_range_meters":20000,"station_id":"","pricing_plan_id":"cebpf4jnsgd1na2vs0mg"},{"bike_id":"c514af3d-99f3-462a-a5ff-b0c3a231404d","system_id":"levelo_inurba_marseille","lat":43.3137,"lon":5.36678,"is_reserved":false,"is_disabled":false,"rental_uris":{"android":"levelo://app?vid=c514af3d-99f3-462a-a5ff-b0c3a231404d","ios":"levelo://app?vid=c514af3d-99f3-462a-a5ff-b0c3a231404d"},"vehicle_type_id":"4","last_reported":1773394161,"current_range_meters":36800,"station_id":"ce4bgr92rcd13ifvqc6g","pricing_plan_id":"cebpf4jnsgd1na2vs0mg"},{"bike_id":"e1ecfde2-cf8b-4901-b3fd-fec56d50d524","system_id":"levelo_inurba_marseille","lat":43.32498,"lon":5.38282,"is_reserved":false,"is_disabled":false,"rental_uris":{"android":"levelo://app?vid=e1ecfde2-cf8b-4901-b3fd-fec56d50d524","ios":"levelo://app?vid=e1ecfde2-cf8b-4901-b3fd-fec56d50d524"},"vehicle_type_id":"4","last_reported":1773394161,"current_range_meters":24000,"station_id":"st_d4asgbiv49dc73anf9m0","pricing_plan_id":"cebpf4jnsgd1na2vs0mg"},{"bike_id":"52c0e189-e831-4c3c-a72a-ee2208e9bced","system_id":"levelo_inurba_marseille","lat":43.33152,"lon":5.37687,"is_reserved":false,"is_disabled":false,"rental_uris":{"android":"levelo://app?vid=52c0e189-e831-4c3c-a72a-ee2208e9bced","ios":"levelo://app?vid=52c0e189-e831-4c3c-a72a-ee2208e9bced"},"vehicle_type_id":"4","last_reported":1773394161,"current_range_meters":33200,"station_id":"st_d46cu089ee8s73dldbu0","pricing_plan_id":"cebpf4jnsgd1na2vs0mg"},{"bike_id":"8617b24d-bdd2-49e3-beda-5d74fc474252","system_id":"levelo_inurba_marseille","lat":43.28477,"lon":5.48404,"is_reserved":false,"is_disabled":false,"rental_uris":{"android":"levelo://app?vid=8617b24d-bdd2-49e3-beda-5d74fc474252","ios":"levelo://app?vid=8617b24d-bdd2-49e3-beda-5d74fc474252"},"vehicle_type_id":"4","last_reported":1773394161,"current_range_meters":30400,"station_id":"","pricing_plan_id":"cebpf4jnsgd1na2vs0mg"},{"bike_id":"fa2bba8a-18e3-4b70-aead-eb8340ccd9cb","system_id":"levelo_inurba_marseille","lat":43.23376,"lon":5.41223,"is_reserved":false,"is_disabled":false,"rental_uris":{"android":"levelo://app?vid=fa2bba8a-18e3-4b70-aead-eb8340ccd9cb","ios":"levelo://app?vid=fa2bba8a-18e3-4b70-aead-eb8340ccd9cb"},"vehicle_type_id":"4","last_reported":1773394161,"current_range_meters":28400,"station_id":"","pricing_plan_id":"cebpf4jnsgd1na2vs0mg"},{"bike_id":"86d6c4db-b62d-4582-baf3-08c0049a5c86","system_id":"levelo_inurba_marseille","lat":43.29582,"lon":5.38099,"is_reserved":false,"is_disabled":false,"rental_uris":{"android":"levelo://app?vid=86d6c4db-b62d-4582-baf3-08c0049a5c86","ios":"levelo://app?vid=86d6c4db-b62d-4582-baf3-08c0049a5c86"},"vehicle_type_id":"4","last_reported":1773394161,"current_range_meters":37600,"station_id":"ce4bgl12rcd13ifvqbo0","pricing_plan_id":"cebpf4jnsgd1na2vs0mg"},{"bike_id":"2c4b9baa-150c-43c0-9983-79477495e674","system_id":"levelo_inurba_marseille","lat":43.33017,"lon":5.39026,"is_reserved":false,"is_disabled":false,"rental_uris":{"android":"levelo://app?vid=2c4b9baa-150c-43c0-9983-79477495e674","ios":"levelo://app?vid=2c4b9baa-150c-43c0-9983-79477495e674"},"vehicle_type_id":"4","last_reported":1773394161,"current_range_meters":8000,"station_id":"ce4bhr92rcd13ifvqhrg","pricing_plan_id":"cebpf4jnsgd1na2vs0mg"},{"bike_id":"e2f07328-8d63-4898-a685-6824fc31e404","system_id":"levelo_inurba_marseille","lat":43.27081,"lon":5.40282,"is_reserved":false,"is_disabled":false,"rental_uris":{"android":"levelo://app?vid=e2f07328-8d63-4898-a685-6824fc31e404","ios":"levelo://app?vid=e2f07328-8d63-4898-a685-6824fc31e404"},"vehicle_type_id":"4","last_reported":1773394161,"current_range_meters":38000,"station_id":"ce4bhk92rcd13ifvqgc0","pricing_plan_id":"cebpf4jnsgd1na2vs0mg"},{"bike_id":"1ee0f09c-6516-424a-a235-2d6355757c43","system_id":"levelo_inurba_marseille","lat":43.25507,"lon":5.37652,"is_reserved":false,"is_disabled":false,"rental_uris":{"android":"levelo://app?vid=1ee0f09c-6516-424a-a235-2d6355757c43","ios":"levelo://app?vid=1ee0f09c-6516-424a-a235-2d6355757c43"},"vehicle_type_id":"4","last_reported":1773394161,"current_range_meters":39200,"station_id":"ce4bhh12rcd13ifvqff0","pricing_plan_id":"cebpf4jnsgd1na2vs0mg"},{"bike_id":"e0f4c726-c891-4b59-a727-5f7bf2fb4325","system_id":"levelo_inurba_marseille","lat":43.28536,"lon":5.44113,"is_reserved":false,"is_disabled":false,"rental_uris":{"android":"levelo://app?vid=e0f4c726-c891-4b59-a727-5f7bf2fb4325","ios":"levelo://app?vid=e0f4c726-c891-4b59-a727-5f7bf2fb4325"},"vehicle_type_id":"4","last_reported":1773394161,"current_range_meters":4800,"station_id":"st_d3j3df2ikq2c7380ej80","pricing_plan_id":"cebpf4jnsgd1na2vs0mg"},{"bike_id":"fea054e9-9687-462f-a721-42a34c23bbef","system_id":"levelo_inurba_marseille","lat":43.24672,"lon":5.3818,"is_reserved":false,"is_disabled":false,"rental_uris":{"android":"levelo://app?vid=fea054e9-9687-462f-a721-42a34c23bbef","ios":"levelo://app?vid=fea054e9-9687-462f-a721-42a34c23bbef"},"vehicle_type_id":"4","last_reported":1773394161,"current_range_meters":13600,"station_id":"ce4bhih2rcd13ifvqfr0","pricing_plan_id":"cebpf4jnsgd1na2vs0mg"},{"bike_id":"3d4208c2-815f-40bf-8bb0-f78b87ee07d6","system_id":"levelo_inurba_marseille","lat":43.28432,"lon":5.34958,"is_reserved":false,"is_disabled":false,"rental_uris":{"android":"levelo://app?vid=3d4208c2-815f-40bf-8bb0-f78b87ee07d6","ios":"levelo://app?vid=3d4208c2-815f-40bf-8bb0-f78b87ee07d6"},"vehicle_type_id":"4","last_reported":1773394161,"current_range_meters":38000,"station_id":"ce4bhbh2rcd13ifvqepg","pricing_plan_id":"cebpf4jnsgd1na2vs0mg"},{"bike_id":"f516d8f7-b497-4c5a-a65d-b7f43298643e","system_id":"levelo_inurba_marseille","lat":43.27615,"lon":5.36099,"is_reserved":false,"is_disabled":false,"rental_uris":{"android":"levelo://app?vid=f516d8f7-b497-4c5a-a65d-b7f43298643e","ios":"levelo://app?vid=f516d8f7-b497-4c5a-a65d-b7f43298643e"},"vehicle_type_id":"4","last_reported":1773394161,"current_range_meters":38000,"station_id":"ce4bgj92rcd13ifvqbe0","pricing_plan_id":"cebpf4jnsgd1na2vs0mg"},{"bike_id":"0ade407e-4211-4e89-8c0d-dbdf9b61948a","system_id":"levelo_inurba_marseille","lat":43.29022,"lon":5.39968,"is_reserved":false,"is_disabled":false,"rental_uris":{"android":"levelo://app?vid=0ade407e-4211-4e89-8c0d-dbdf9b61948a","ios":"levelo://app?vid=0ade407e-4211-4e89-8c0d-dbdf9b61948a"},"vehicle_type_id":"4","last_reported":1773394161,"current_range_meters":30800,"station_id":"ce4bh392rcd13ifvqdm0","pricing_plan_id":"cebpf4jnsgd1na2vs0mg"},{"bike_id":"86d6954c-af5f-42bc-9864-a64e80031904","system_id":"levelo_inurba_marseille","lat":43.30288,"lon":5.37717,"is_reserved":false,"is_disabled":false,"rental_uris":{"android":"levelo://app?vid=86d6954c-af5f-42bc-9864-a64e80031904","ios":"levelo://app?vid=86d6954c-af5f-42bc-9864-a64e80031904"},"vehicle_type_id":"4","last_reported":1773394161,"current_range_meters":16400,"station_id":"ce4bguh2rcd13ifvqcj0","pricing_plan_id":"cebpf4jnsgd1na2vs0mg"},{"bike_id":"04d16ef4-39d1-4e51-b75d-bfa218adb8ad","system_id":"levelo_inurba_marseille","lat":43.30895,"lon":5.37329,"is_reserved":false,"is_disabled":false,"rental_uris":{"android":"levelo://app?vid=04d16ef4-39d1-4e51-b75d-bfa218adb8ad","ios":"levelo://app?vid=04d16ef4-39d1-4e51-b75d-bfa218adb8ad"},"vehicle_type_id":"4","last_reported":1773394161,"current_range_meters":25600,"station_id":"","pricing_plan_id":"cebpf4jnsgd1na2vs0mg"},{"bike_id":"1503b783-1655-4152-bc5e-4f9af0176b0a","system_id":"levelo_inurba_marseille","lat":43.28934,"lon":5.3662,"is_reserved":false,"is_disabled":true,"rental_uris":{"android":"levelo://app?vid=1503b783-1655-4152-bc5e-4f9af0176b0a","ios":"levelo://app?vid=1503b783-1655-4152-bc5e-4f9af0176b0a"},"vehicle_type_id":"4","last_reported":1773394161,"current_range_meters":9600,"station_id":"ce4bhap2rcd13ifvqek0","pricing_plan_id":"cebpf4jnsgd1na2vs0mg"},{"bike_id":"08ec0bd7-db6c-4004-87ba-401b19a3211e","system_id":"levelo_inurba_marseille","lat":43.26563,"lon":5.39001,"is_reserved":false,"is_disabled":false,"rental_uris":{"android":"levelo://app?vid=08ec0bd7-db6c-4004-87ba-401b19a3211e","ios":"levelo://app?vid=08ec0bd7-db6c-4004-87ba-401b19a3211e"},"vehicle_type_id":"4","last_reported":1773394161,"current_range_meters":17600,"station_id":"ce4bhe12rcd13ifvqf30","pricing_plan_id":"cebpf4jnsgd1na2vs0mg"},{"bike_id":"11ccfc01-877a-4994-be98-f3ad4aeb1911","system_id":"levelo_inurba_marseille","lat":43.26699,"lon":5.38255,"is_reserved":false,"is_disabled":false,"rental_uris":{"android":"levelo://app?vid=11ccfc01-877a-4994-be98-f3ad4aeb1911","ios":"levelo://app?vid=11ccfc01-877a-4994-be98-f3ad4aeb1911"},"vehicle_type_id":"4","last_reported":1773394161,"current_range_meters":30800,"station_id":"ce4bhg92rcd13ifvqf90","pricing_plan_id":"cebpf4jnsgd1na2vs0mg"},{"bike_id":"5a390fd0-1a67-4363-9778-5fe8c3144f22","system_id":"levelo_inurba_marseille","lat":43.30372,"lon":5.42488,"is_reserved":false,"is_disabled":false,"rental_uris":{"android":"levelo://app?vid=5a390fd0-1a67-4363-9778-5fe8c3144f22","ios":"levelo://app?vid=5a390fd0-1a67-4363-9778-5fe8c3144f22"},"vehicle_type_id":"4","last_reported":1773394161,"current_range_meters":28800,"station_id":"ce4bhoh2rcd13ifvqh6g","pricing_plan_id":"cebpf4jnsgd1na2vs0mg"},{"bike_id":"042580e3-7a60-48a3-981d-e4b9f8bc5597","system_id":"levelo_inurba_marseille","lat":43.29195,"lon":5.35988,"is_reserved":false,"is_disabled":false,"rental_uris":{"android":"levelo://app?vid=042580e3-7a60-48a3-981d-e4b9f8bc5597","ios":"levelo://app?vid=042580e3-7a60-48a3-981d-e4b9f8bc5597"},"vehicle_type_id":"4","last_reported":1773394161,"current_range_meters":38800,"station_id":"ce4bhbh2rcd13ifvqeqg","pricing_plan_id":"cebpf4jnsgd1na2vs0mg"},{"bike_id":"9eceae6a-b55f-4b62-bff2-afc78a1dc311","system_id":"levelo_inurba_marseille","lat":43.29212,"lon":5.36081,"is_reserved":false,"is_disabled":false,"rental_uris":{"android":"levelo://app?vid=9eceae6a-b55f-4b62-bff2-afc78a1dc311","ios":"levelo://app?vid=9eceae6a-b55f-4b62-bff2-afc78a1dc311"},"vehicle_type_id":"4","last_reported":1773394161,"current_range_meters":39200,"station_id":"ce4bhbh2rcd13ifvqeqg","pricing_plan_id":"cebpf4jnsgd1na2vs0mg"},{"bike_id":"ef20f139-5308-449a-a8f1-979163f50765","system_id":"levelo_inurba_marseille","lat":43.23159,"lon":5.43704,"is_reserved":false,"is_disabled":false,"rental_uris":{"android":"levelo://app?vid=ef20f139-5308-449a-a8f1-979163f50765","ios":"levelo://app?vid=ef20f139-5308-449a-a8f1-979163f50765"},"vehicle_type_id":"4","last_reported":1773394161,"current_range_meters":11600,"station_id":"ce4bhmp2rcd13ifvqgog","pricing_plan_id":"cebpf4jnsgd1na2vs0mg"},{"bike_id":"af8e5322-ad2c-40a6-9013-24689af6ae06","system_id":"levelo_inurba_marseille","lat":43.27997,"lon":5.40023,"is_reserved":false,"is_disabled":false,"rental_uris":{"android":"levelo://app?vid=af8e5322-ad2c-40a6-9013-24689af6ae06","ios":"levelo://app?vid=af8e5322-ad2c-40a6-9013-24689af6ae06"},"vehicle_type_id":"4","last_reported":1773394161,"current_range_meters":25200,"station_id":"ce4bho92rcd13ifvqh4g","pricing_plan_id":"cebpf4jnsgd1na2vs0mg"},{"bike_id":"26cd541b-8bb9-44ab-a573-fc5d08927001","system_id":"levelo_inurba_marseille","lat":43.30469,"lon":5.37906,"is_reserved":false,"is_disabled":false,"rental_uris":{"android":"levelo://app?vid=26cd541b-8bb9-44ab-a573-fc5d08927001","ios":"levelo://app?vid=26cd541b-8bb9-44ab-a573-fc5d08927001"},"vehicle_type_id":"4","last_reported":1773394161,"current_range_meters":28400,"station_id":"ce4bgup2rcd13ifvqcn0","pricing_plan_id":"cebpf4jnsgd1na2vs0mg"},{"bike_id":"ef395d25-75e9-486e-be6c-e9dad339f80a","system_id":"levelo_inurba_marseille","lat":43.30147,"lon":5.37432,"is_reserved":false,"is_disabled":false,"rental_uris":{"android":"levelo://app?vid=ef395d25-75e9-486e-be6c-e9dad339f80a","ios":"levelo://app?vid=ef395d25-75e9-486e-be6c-e9dad339f80a"},"vehicle_type_id":"4","last_reported":1773394161,"current_range_meters":18000,"station_id":"ce4bgs92rcd13ifvqcc0","pricing_plan_id":"cebpf4jnsgd1na2vs0mg"},{"bike_id":"25646a06-8d7d-4ddc-89bc-d59a9e664009","system_id":"levelo_inurba_marseille","lat":43.27204,"lon":5.39179,"is_reserved":false,"is_disabled":false,"rental_uris":{"android":"levelo://app?vid=25646a06-8d7d-4ddc-89bc-d59a9e664009","ios":"levelo://app?vid=25646a06-8d7d-4ddc-89bc-d59a9e664009"},"vehicle_type_id":"4","last_reported":1773394161,"current_range_meters":8400,"station_id":"ce4bhhp2rcd13ifvqfm0","pricing_plan_id":"cebpf4jnsgd1na2vs0mg"},{"bike_id":"ef792dd5-8a22-4876-95cc-382dadfb381c","system_id":"levelo_inurba_marseille","lat":43.27968,"lon":5.3873,"is_reserved":false,"is_disabled":true,"rental_uris":{"android":"levelo://app?vid=ef792dd5-8a22-4876-95cc-382dadfb381c","ios":"levelo://app?vid=ef792dd5-8a22-4876-95cc-382dadfb381c"},"vehicle_type_id":"4","last_reported":1773394161,"current_range_meters":2000,"station_id":"ce4bhg12rcd13ifvqf80","pricing_plan_id":"cebpf4jnsgd1na2vs0mg"},{"bike_id":"d7300473-fe0c-4712-b685-29e2ff9116c4","system_id":"levelo_inurba_marseille","lat":43.30965,"lon":5.39033,"is_reserved":false,"is_disabled":false,"rental_uris":{"android":"levelo://app?vid=d7300473-fe0c-4712-b685-29e2ff9116c4","ios":"levelo://app?vid=d7300473-fe0c-4712-b685-29e2ff9116c4"},"vehicle_type_id":"4","last_reported":1773394161,"current_range_meters":29600,"station_id":"ce4bgup2rcd13ifvqco0","pricing_plan_id":"cebpf4jnsgd1na2vs0mg"},{"bike_id":"c2dc2457-5071-4b6c-815d-bae644c28cd7","system_id":"levelo_inurba_marseille","lat":43.28936,"lon":5.39621,"is_reserved":false,"is_disabled":false,"rental_uris":{"android":"levelo://app?vid=c2dc2457-5071-4b6c-815d-bae644c28cd7","ios":"levelo://app?vid=c2dc2457-5071-4b6c-815d-bae644c28cd7"},"vehicle_type_id":"4","last_reported":1773394161,"current_range_meters":38000,"station_id":"ce4bh3h2rcd13ifvqdn0","pricing_plan_id":"cebpf4jnsgd1na2vs0mg"},{"bike_id":"6840f6df-3461-42c8-98d7-357f6584e26f","system_id":"levelo_inurba_marseille","lat":43.27371,"lon":5.36248,"is_reserved":false,"is_disabled":false,"rental_uris":{"android":"levelo://app?vid=6840f6df-3461-42c8-98d7-357f6584e26f","ios":"levelo://app?vid=6840f6df-3461-42c8-98d7-357f6584e26f"},"vehicle_type_id":"4","last_reported":1773394161,"current_range_meters":38800,"station_id":"ce4bhbh2rcd13ifvqeo0","pricing_plan_id":"cebpf4jnsgd1na2vs0mg"},{"bike_id":"824fb975-1c56-48f8-a19c-aeedaf1c3bdb","system_id":"levelo_inurba_marseille","lat":43.23146,"lon":5.43739,"is_reserved":false,"is_disabled":false,"rental_uris":{"android":"levelo://app?vid=824fb975-1c56-48f8-a19c-aeedaf1c3bdb","ios":"levelo://app?vid=824fb975-1c56-48f8-a19c-aeedaf1c3bdb"},"vehicle_type_id":"4","last_reported":1773394161,"current_range_meters":20000,"station_id":"ce4bhmp2rcd13ifvqgog","pricing_plan_id":"cebpf4jnsgd1na2vs0mg"},{"bike_id":"5798be69-c424-41d0-a87f-b9e58f62bc12","system_id":"levelo_inurba_marseille","lat":43.3096,"lon":5.39044,"is_reserved":false,"is_disabled":false,"rental_uris":{"android":"levelo://app?vid=5798be69-c424-41d0-a87f-b9e58f62bc12","ios":"levelo://app?vid=5798be69-c424-41d0-a87f-b9e58f62bc12"},"vehicle_type_id":"4","last_reported":1773394161,"current_range_meters":38400,"station_id":"ce4bgup2rcd13ifvqco0","pricing_plan_id":"cebpf4jnsgd1na2vs0mg"},{"bike_id":"6a40ed30-475d-4797-afd3-3698b0279755","system_id":"levelo_inurba_marseille","lat":43.34147,"lon":5.40899,"is_reserved":false,"is_disabled":false,"rental_uris":{"android":"levelo://app?vid=6a40ed30-475d-4797-afd3-3698b0279755","ios":"levelo://app?vid=6a40ed30-475d-4797-afd3-3698b0279755"},"vehicle_type_id":"4","last_reported":1773394161,"current_range_meters":39200,"station_id":"ce4bhqh2rcd13ifvqhlg","pricing_plan_id":"cebpf4jnsgd1na2vs0mg"},{"bike_id":"7189398a-c44f-4c26-8898-ed1ba4a6cef9","system_id":"levelo_inurba_marseille","lat":43.28141,"lon":5.4263,"is_reserved":false,"is_disabled":false,"rental_uris":{"android":"levelo://app?vid=7189398a-c44f-4c26-8898-ed1ba4a6cef9","ios":"levelo://app?vid=7189398a-c44f-4c26-8898-ed1ba4a6cef9"},"vehicle_type_id":"4","last_reported":1773394161,"current_range_meters":38400,"station_id":"ce4bhnh2rcd13ifvqgug","pricing_plan_id":"cebpf4jnsgd1na2vs0mg"},{"bike_id":"54e5ab79-af7f-4958-b1e4-35efefa5e997","system_id":"levelo_inurba_marseille","lat":43.28147,"lon":5.37892,"is_reserved":false,"is_disabled":true,"rental_uris":{"android":"levelo://app?vid=54e5ab79-af7f-4958-b1e4-35efefa5e997","ios":"levelo://app?vid=54e5ab79-af7f-4958-b1e4-35efefa5e997"},"vehicle_type_id":"4","last_reported":1773394161,"current_range_meters":6800,"station_id":"","pricing_plan_id":"cebpf4jnsgd1na2vs0mg"},{"bike_id":"5b6dbda1-f5c9-4b57-8cbe-18e8d1853f0e","system_id":"levelo_inurba_marseille","lat":43.29,"lon":5.40183,"is_reserved":false,"is_disabled":false,"rental_uris":{"android":"levelo://app?vid=5b6dbda1-f5c9-4b57-8cbe-18e8d1853f0e","ios":"levelo://app?vid=5b6dbda1-f5c9-4b57-8cbe-18e8d1853f0e"},"vehicle_type_id":"4","last_reported":1773394161,"current_range_meters":31200,"station_id":"","pricing_plan_id":"cebpf4jnsgd1na2vs0mg"},{"bike_id":"4605d0eb-aef4-494c-b103-fe3cbd9a939f","system_id":"levelo_inurba_marseille","lat":43.26058,"lon":5.39378,"is_reserved":false,"is_disabled":false,"rental_uris":{"android":"levelo://app?vid=4605d0eb-aef4-494c-b103-fe3cbd9a939f","ios":"levelo://app?vid=4605d0eb-aef4-494c-b103-fe3cbd9a939f"},"vehicle_type_id":"4","last_reported":1773394161,"current_range_meters":24800,"station_id":"ce4bhh92rcd13ifvqfj0","pricing_plan_id":"cebpf4jnsgd1na2vs0mg"},{"bike_id":"2b387b15-cf89-443d-a57b-92898093eb01","system_id":"levelo_inurba_marseille","lat":43.30161,"lon":5.37419,"is_reserved":false,"is_disabled":false,"rental_uris":{"android":"levelo://app?vid=2b387b15-cf89-443d-a57b-92898093eb01","ios":"levelo://app?vid=2b387b15-cf89-443d-a57b-92898093eb01"},"vehicle_type_id":"4","last_reported":1773394161,"current_range_meters":24000,"station_id":"ce4bgs92rcd13ifvqcc0","pricing_plan_id":"cebpf4jnsgd1na2vs0mg"},{"bike_id":"b26a5b6f-c7d4-4ecb-a965-5f0df6878da3","system_id":"levelo_inurba_marseille","lat":43.30143,"lon":5.37423,"is_reserved":false,"is_disabled":false,"rental_uris":{"android":"levelo://app?vid=b26a5b6f-c7d4-4ecb-a965-5f0df6878da3","ios":"levelo://app?vid=b26a5b6f-c7d4-4ecb-a965-5f0df6878da3"},"vehicle_type_id":"4","last_reported":1773394161,"current_range_meters":16400,"station_id":"ce4bgs92rcd13ifvqcc0","pricing_plan_id":"cebpf4jnsgd1na2vs0mg"},{"bike_id":"c4bc4c4b-1b65-4f1c-9292-7dbc626f973c","system_id":"levelo_inurba_marseille","lat":43.33779,"lon":5.37461,"is_reserved":false,"is_disabled":false,"rental_uris":{"android":"levelo://app?vid=c4bc4c4b-1b65-4f1c-9292-7dbc626f973c","ios":"levelo://app?vid=c4bc4c4b-1b65-4f1c-9292-7dbc626f973c"},"vehicle_type_id":"4","last_reported":1773394161,"current_range_meters":39200,"station_id":"","pricing_plan_id":"cebpf4jnsgd1na2vs0mg"},{"bike_id":"4ca34fa1-d655-4e9a-9a4c-40464ac80323","system_id":"levelo_inurba_marseille","lat":43.28339,"lon":5.38087,"is_reserved":false,"is_disabled":false,"rental_uris":{"android":"levelo://app?vid=4ca34fa1-d655-4e9a-9a4c-40464ac80323","ios":"levelo://app?vid=4ca34fa1-d655-4e9a-9a4c-40464ac80323"},"vehicle_type_id":"4","last_reported":1773394161,"current_range_meters":38400,"station_id":"ce4bh412rcd13ifvqdr0","pricing_plan_id":"cebpf4jnsgd1na2vs0mg"},{"bike_id":"9727335e-b61a-4523-9101-aea877851cb8","system_id":"levelo_inurba_marseille","lat":43.2789,"lon":5.38028,"is_reserved":false,"is_disabled":false,"rental_uris":{"android":"levelo://app?vid=9727335e-b61a-4523-9101-aea877851cb8","ios":"levelo://app?vid=9727335e-b61a-4523-9101-aea877851cb8"},"vehicle_type_id":"4","last_reported":1773394161,"current_range_meters":30800,"station_id":"ce4bhf92rcd13ifvqf50","pricing_plan_id":"cebpf4jnsgd1na2vs0mg"},{"bike_id":"a407b0d4-25b5-43af-a5ba-5c3598518f40","system_id":"levelo_inurba_marseille","lat":43.30257,"lon":5.37728,"is_reserved":false,"is_disabled":false,"rental_uris":{"android":"levelo://app?vid=a407b0d4-25b5-43af-a5ba-5c3598518f40","ios":"levelo://app?vid=a407b0d4-25b5-43af-a5ba-5c3598518f40"},"vehicle_type_id":"4","last_reported":1773394161,"current_range_meters":35600,"station_id":"ce4bguh2rcd13ifvqcj0","pricing_plan_id":"cebpf4jnsgd1na2vs0mg"},