{"last_updated":1702407980,"ttl":30,"version":"2.2","data":{"bikes":[{"bike_id":"711e6a9c-ac81-4c98-a71f-8dc201ace560","system_id":"levelo_inurba_marseille","lat":43.308948,"lon":5.37184,"is_reserved":false,"is_disabled":false,"rental_uris":{"android":"levelo://app?vid=711e6a9c-ac81-4c98-a71f-8dc201ace560","ios":"levelo://app?vid=711e6a9c-ac81-4c98-a71f-8dc201ace560"},"vehicle_type_id":"4","last_reported":1702407980,"current_range_meters":9600,"station_id":"ce4bguh2rcd13ifvqckg","pricing_plan_id":"free"},{"bike_id":"fa71a62c-8ab2-44fc-853a-b7c2085191ea","system_id":"levelo_inurba_marseille","lat":43.30886,"lon":5.37193,"is_reserved":false,"is_disabled":false,"rental_uris":{"android":"levelo://app?vid=fa71a62c-8ab2-44fc-853a-b7c2085191ea","ios":"levelo://app?vid=fa71a62c-8ab2-44fc-853a-b7c2085191ea"},"vehicle_type_id":"4","last_reported":1702407980,"current_range_meters":0,"station_id":"ce4bguh2rcd13ifvqckg","pricing_plan_id":"free"},{"bike_id":"955e4ab2-16e5-44e8-a986-a2f50ff96c06","system_id":"levelo_inurba_marseille","lat":43.305382,"lon":5.365389,"is_reserved":false,"is_disabled":false,"rental_uris":{"android":"levelo://app?vid=955e4ab2-16e5-44e8-a986-a2f50ff96c06","ios":"levelo://app?vid=955e4ab2-16e5-44e8-a986-a2f50ff96c06"},"vehicle_type_id":"4","last_reported":1702407980,"current_range_meters":30000,"station_id":"","pricing_plan_id":"free"},{"bike_id":"792e805f-611e-4d7d-a738-f51e2c99a54d","system_id":"levelo_inurba_marseille","lat":43.311125,"lon":5.377624,"is_reserved":false,"is_disabled":false,"rental_uris":{"android":"levelo://app?vid=792e805f-611e-4d7d-a738-f51e2c99a54d","ios":"levelo://app?vid=792e805f-611e-4d7d-a738-f51e2c99a54d"},"vehicle_type_id":"4","last_reported":1702407980,"current_range_meters":14000,"station_id":"ce4bgt92rcd13ifvqcg0","pricing_plan_id":"free"},{"bike_id":"dc68debd-6203-4696-b9a5-55eea857c5a0","system_id":"levelo_inurba_marseille","lat":43.317158,"lon":5.376805,"is_reserved":false,"is_disabled":false,"rental_uris":{"android":"levelo://app?vid=dc68debd-6203-4696-b9a5-55eea857c5a0","ios":"levelo://app?vid=dc68debd-6203-4696-b9a5-55eea857c5a0"},"vehicle_type_id":"4","last_reported":1702407980,"current_range_meters":26800,"station_id":"","pricing_plan_id":"free"},{"bike_id":"09cdc52a-88e7-4ff5-a918-73a3f7a02152","system_id":"levelo_inurba_marseille","lat":43.30304,"lon":5.368987,"is_reserved":false,"is_disabled":false,"rental_uris":{"android":"levelo://app?vid=09cdc52a-88e7-4ff5-a918-73a3f7a02152","ios":"levelo://app?vid=09cdc52a-88e7-4ff5-a918-73a3f7a02152"},"vehicle_type_id":"4","last_reported":1702407980,"current_range_meters":0,"station_id":"ce4bgqh2rcd13ifvqc5g","pricing_plan_id":"free"},{"bike_id":"8f81567e-2bb9-4924-a767-22ab3d053b21","system_id":"levelo_inurba_marseille","lat":43.30314,"lon":5.37393,"is_reserved":false,"is_disabled":false,"rental_uris":{"android":"levelo://app?vid=8f81567e-2bb9-4924-a767-22ab3d053b21","ios":"levelo://app?vid=8f81567e-2bb9-4924-a767-22ab3d053b21"},"vehicle_type_id":"4","last_reported":1702407980,"current_range_meters":0,"station_id":"","pricing_plan_id":"free"},{"bike_id":"3a125050-7e66-4545-8089-071461f9132f","system_id":"levelo_inurba_marseille","lat":43.308012,"lon":5.381511,"is_reserved":false,"is_disabled":false,"rental_uris":{"android":"levelo://app?vid=3a125050-7e66-4545-8089-071461f9132f","ios":"levelo://app?vid=3a125050-7e66-4545-8089-071461f9132f"},"vehicle_type_id":"4","last_reported":1702407980,"current_range_meters":20400,"station_id":"ce4bgt12rcd13ifvqce0","pricing_plan_id":"free"},{"bike_id":"bb0e0e94-9404-4114-a1bd-0e1599a01773","system_id":"levelo_inurba_marseille","lat":43.308012,"lon":5.381511,"is_reserved":false,"is_disabled":false,"rental_uris":{"android":"levelo://app?vid=bb0e0e94-9404-4114-a1bd-0e1599a01773","ios":"levelo://app?vid=bb0e0e94-9404-4114-a1bd-0e1599a01773"},"vehicle_type_id":"4","last_reported":1702407980,"current_range_meters":10000,"station_id":"ce4bgt12rcd13ifvqce0","pricing_plan_id":"free"},{"bike_id":"63cbfe69-72a7-426e-8ae3-401a680a6583","system_id":"levelo_inurba_marseille","lat":43.313571,"lon":5.384829,"is_reserved":false,"is_disabled":false,"rental_uris":{"android":"levelo://app?vid=63cbfe69-72a7-426e-8ae3-401a680a6583","ios":"levelo://app?vid=63cbfe69-72a7-426e-8ae3-401a680a6583"},"vehicle_type_id":"4","last_reported":1702407980,"current_range_meters":22000,"station_id":"ce4bgt92rcd13ifvqcf0","pricing_plan_id":"free"},{"bike_id":"77a6c46d-d898-4e4f-8846-efa91689c7f0","system_id":"levelo_inurba_marseille","lat":43.302006,"lon":5.38065,"is_reserved":false,"is_disabled":false,"rental_uris":{"android":"levelo://app?vid=77a6c46d-d898-4e4f-8846-efa91689c7f0","ios":"levelo://app?vid=77a6c46d-d898-4e4f-8846-efa91689c7f0"},"vehicle_type_id":"4","last_reported":1702407980,"current_range_meters":0,"station_id":"","pricing_plan_id":"free"},{"bike_id":"b831371f-ea23-4edc-aced-217a20d87f64","system_id":"levelo_inurba_marseille","lat":43.311722,"lon":5.387247,"is_reserved":false,"is_disabled":false,"rental_uris":{"android":"levelo://app?vid=b831371f-ea23-4edc-aced-217a20d87f64","ios":"levelo://app?vid=b831371f-ea23-4edc-aced-217a20d87f64"},"vehicle_type_id":"4","last_reported":1702407980,"current_range_meters":10000,"station_id":"ce4bgv12rcd13ifvqcp0","pricing_plan_id":"free"},{"bike_id":"1af0fcde-fe57-49c7-9d4e-61f96da6889c","system_id":"levelo_inurba_marseille","lat":43.299243,"lon":5.374807,"is_reserved":false,"is_disabled":false,"rental_uris":{"android":"levelo://app?vid=1af0fcde-fe57-49c7-9d4e-61f96da6889c","ios":"levelo://app?vid=1af0fcde-fe57-49c7-9d4e-61f96da6889c"},"vehicle_type_id":"4","last_reported":1702407980,"current_range_meters":3200,"station_id":"ce4bgjh2rcd13ifvqbg0","pricing_plan_id":"free"},{"bike_id":"9a2735df-79b8-4f42-9d06-b4b38b2409e9","system_id":"levelo_inurba_marseille","lat":43.299243,"lon":5.37481,"is_reserved":false,"is_disabled":false,"rental_uris":{"android":"levelo://app?vid=9a2735df-79b8-4f42-9d06-b4b38b2409e9","ios":"levelo://app?vid=9a2735df-79b8-4f42-9d06-b4b38b2409e9"},"vehicle_type_id":"4","last_reported":1702407980,"current_range_meters":4800,"station_id":"ce4bgjh2rcd13ifvqbg0","pricing_plan_id":"free"},{"bike_id":"42b11291-ef70-458f-a02b-b9d9a775df69","system_id":"levelo_inurba_marseille","lat":43.311722,"lon":5.387247,"is_reserved":false,"is_disabled":false,"rental_uris":{"android":"levelo://app?vid=42b11291-ef70-458f-a02b-b9d9a775df69","ios":"levelo://app?vid=42b11291-ef70-458f-a02b-b9d9a775df69"},"vehicle_type_id":"4","last_reported":1702407980,"current_range_meters":20800,"station_id":"ce4bgv12rcd13ifvqcp0","pricing_plan_id":"free"},{"bike_id":"1e4314e6-e3df-4b61-9122-af11f75de16c","system_id":"levelo_inurba_marseille","lat":43.31161,"lon":5.38723,"is_reserved":false,"is_disabled":false,"rental_uris":{"android":"levelo://app?vid=1e4314e6-e3df-4b61-9122-af11f75de16c","ios":"levelo://app?vid=1e4314e6-e3df-4b61-9122-af11f75de16c"},"vehicle_type_id":"4","last_reported":1702407980,"current_range_meters":16400,"station_id":"","pricing_plan_id":"free"},{"bike_id":"fcc3a406-8219-4d19-a1b2-f9d5a2feeb13","system_id":"levelo_inurba_marseille","lat":43.32289,"lon":5.38252,"is_reserved":false,"is_disabled":false,"rental_uris":{"android":"levelo://app?vid=fcc3a406-8219-4d19-a1b2-f9d5a2feeb13","ios":"levelo://app?vid=fcc3a406-8219-4d19-a1b2-f9d5a2feeb13"},"vehicle_type_id":"4","last_reported":1702407980,"current_range_meters":28000,"station_id":"ce4bhr12rcd13ifvqhqg","pricing_plan_id":"free"},{"bike_id":"e4490579-0281-45ed-b1b1-9f40e3e9e266","system_id":"levelo_inurba_marseille","lat":43.29777,"lon":5.37087,"is_reserved":false,"is_disabled":false,"rental_uris":{"android":"levelo://app?vid=e4490579-0281-45ed-b1b1-9f40e3e9e266","ios":"levelo://app?vid=e4490579-0281-45ed-b1b1-9f40e3e9e266"},"vehicle_type_id":"4","last_reported":1702407980,"current_range_meters":1600,"station_id":"","pricing_plan_id":"free"},{"bike_id":"ef62d099-880c-48b4-a857-30e56a94bd16","system_id":"levelo_inurba_marseille","lat":43.32284,"lon":5.38263,"is_reserved":false,"is_disabled":false,"rental_uris":{"android":"levelo://app?vid=ef62d099-880c-48b4-a857-30e56a94bd16","ios":"levelo://app?vid=ef62d099-880c-48b4-a857-30e56a94bd16"},"vehicle_type_id":"4","last_reported":1702407980,"current_range_meters":6400,"station_id":"ce4bhr12rcd13ifvqhqg","pricing_plan_id":"free"},{"bike_id":"4e6dcc4f-3405-416d-8522-8318837508c0","system_id":"levelo_inurba_marseille","lat":43.32301,"lon":5.38251,"is_reserved":false,"is_disabled":false,"rental_uris":{"android":"levelo://app?vid=4e6dcc4f-3405-416d-8522-8318837508c0","ios":"levelo://app?vid=4e6dcc4f-3405-416d-8522-8318837508c0"},"vehicle_type_id":"4","last_reported":1702407980,"current_range_meters":7600,"station_id":"ce4bhr12rcd13ifvqhqg","pricing_plan_id":"free"},{"bike_id":"7c5c6212-95e6-412b-bba0-e6e1e8f7e4ca","system_id":"levelo_inurba_marseille","lat":43.322872,"lon":5.382756,"is_reserved":false,"is_disabled":false,"rental_uris":{"android":"levelo://app?vid=7c5c6212-95e6-412b-bba0-e6e1e8f7e4ca","ios":"levelo://app?vid=7c5c6212-95e6-412b-bba0-e6e1e8f7e4ca"},"vehicle_type_id":"4","last_reported":1702407980,"current_range_meters":10000,"station_id":"ce4bhr12rcd13ifvqhqg","pricing_plan_id":"free"},{"bike_id":"f6a62362-1831-4aa5-9227-c5f949743ee8","system_id":"levelo_inurba_marseille","lat":43.328371,"lon":5.366909,"is_reserved":false,"is_disabled":false,"rental_uris":{"android":"levelo://app?vid=f6a62362-1831-4aa5-9227-c5f949743ee8","ios":"levelo://app?vid=f6a62362-1831-4aa5-9227-c5f949743ee8"},"vehicle_type_id":"4","last_reported":1702407980,"current_range_meters":0,"station_id":"ce4bhs92rcd13ifvqi0g","pricing_plan_id":"free"},{"bike_id":"7a878ee5-6910-45dd-b3bd-722059d35da7","system_id":"levelo_inurba_marseille","lat":43.29787,"lon":5.37679,"is_reserved":false,"is_disabled":false,"rental_uris":{"android":"levelo://app?vid=7a878ee5-6910-45dd-b3bd-722059d35da7","ios":"levelo://app?vid=7a878ee5-6910-45dd-b3bd-722059d35da7"},"vehicle_type_id":"4","last_reported":1702407980,"current_range_meters":12000,"station_id":"","pricing_plan_id":"free"},{"bike_id":"9addb227-8936-4339-981e-5777a6f0f240","system_id":"levelo_inurba_marseille","lat":43.2968,"lon":5.37291,"is_reserved":false,"is_disabled":false,"rental_uris":{"android":"levelo://app?vid=9addb227-8936-4339-981e-5777a6f0f240","ios":"levelo://app?vid=9addb227-8936-4339-981e-5777a6f0f240"},"vehicle_type_id":"4","last_reported":1702407980,"current_range_meters":30000,"station_id":"ce4bgk12rcd13ifvqbj0","pricing_plan_id":"free"},{"bike_id":"e113e230-c3c3-49ea-a0f2-bad2a945b9f8","system_id":"levelo_inurba_marseille","lat":43.296323,"lon":5.371987,"is_reserved":false,"is_disabled":false,"rental_uris":{"android":"levelo://app?vid=e113e230-c3c3-49ea-a0f2-bad2a945b9f8","ios":"levelo://app?vid=e113e230-c3c3-49ea-a0f2-bad2a945b9f8"},"vehicle_type_id":"4","last_reported":1702407980,"current_range_meters":400,"station_id":"ce4bgnh2rcd13ifvqc0g","pricing_plan_id":"free"},{"bike_id":"e2031b13-9986-47d1-9ffd-03245570e018","system_id":"levelo_inurba_marseille","lat":43.296131,"lon":5.370773,"is_reserved":false,"is_disabled":false,"rental_uris":{"android":"levelo://app?vid=e2031b13-9986-47d1-9ffd-03245570e018","ios":"levelo://app?vid=e2031b13-9986-47d1-9ffd-03245570e018"},"vehicle_type_id":"4","last_reported":1702407980,"current_range_meters":27600,"station_id":"ce4bgnh2rcd13ifvqc0g","pricing_plan_id":"free"},{"bike_id":"0575767a-bb7d-4f97-b4ca-f779a9975777","system_id":"levelo_inurba_marseille","lat":43.309589,"lon":5.390258,"is_reserved":false,"is_disabled":false,"rental_uris":{"android":"levelo://app?vid=0575767a-bb7d-4f97-b4ca-f779a9975777","ios":"levelo://app?vid=0575767a-bb7d-4f97-b4ca-f779a9975777"},"vehicle_type_id":"4","last_reported":1702407980,"current_range_meters":6400,"station_id":"ce4bgup2rcd13ifvqco0","pricing_plan_id":"free"},{"bike_id":"5b6c319f-78e2-41ad-bb0c-725ae3475128","system_id":"levelo_inurba_marseille","lat":43.299028,"lon":5.381509,"is_reserved":false,"is_disabled":false,"rental_uris":{"android":"levelo://app?vid=5b6c319f-78e2-41ad-bb0c-725ae3475128","ios":"levelo://app?vid=5b6c319f-78e2-41ad-bb0c-725ae3475128"},"vehicle_type_id":"4","last_reported":1702407980,"current_range_meters":28000,"station_id":"ce4bgj12rcd13ifvqbc0","pricing_plan_id":"free"},{"bike_id":"757029a3-d094-4cf8-b651-3c933ae6def1","system_id":"levelo_inurba_marseille","lat":43.309589,"lon":5.390258,"is_reserved":false,"is_disabled":false,"rental_uris":{"android":"levelo://app?vid=757029a3-d094-4cf8-b651-3c933ae6def1","ios":"levelo://app?vid=757029a3-d094-4cf8-b651-3c933ae6def1"},"vehicle_type_id":"4","last_reported":1702407980,"current_range_meters":4400,"station_id":"ce4bgup2rcd13ifvqco0","pricing_plan_id":"free"},{"bike_id":"5d446f75-a5c4-4df7-a5f0-b5125fa87183","system_id":"levelo_inurba_marseille","lat":43.298037,"lon":5.381066,"is_reserved":false,"is_disabled":false,"rental_uris":{"android":"levelo://app?vid=5d446f75-a5c4-4df7-a5f0-b5125fa87183","ios":"levelo://app?vid=5d446f75-a5c4-4df7-a5f0-b5125fa87183"},"vehicle_type_id":"4","last_reported":1702407980,"current_range_meters":10400,"station_id":"ce4bgip2rcd13ifvqbb0","pricing_plan_id":"free"},{"bike_id":"8e222a0d-a6c2-407a-8f78-8071943404a6","system_id":"levelo_inurba_marseille","lat":43.297897,"lon":5.380873,"is_reserved":false,"is_disabled":false,"rental_uris":{"android":"levelo://app?vid=8e222a0d-a6c2-407a-8f78-8071943404a6","ios":"levelo://app?vid=8e222a0d-a6c2-407a-8f78-8071943404a6"},"vehicle_type_id":"4","last_reported":1702407980,"current_range_meters":0,"station_id":"ce4bgip2rcd13ifvqbb0","pricing_plan_id":"free"},{"bike_id":"ad3bfe70-5950-45e8-a62b-d82f67edd6d9","system_id":"levelo_inurba_marseille","lat":43.30433,"lon":5.38889,"is_reserved":false,"is_disabled":false,"rental_uris":{"android":"levelo://app?vid=ad3bfe70-5950-45e8-a62b-d82f67edd6d9","ios":"levelo://app?vid=ad3bfe70-5950-45e8-a62b-d82f67edd6d9"},"vehicle_type_id":"4","last_reported":1702407980,"current_range_meters":0,"station_id":"ce4bgk12rcd13ifvqbi0","pricing_plan_id":"free"},{"bike_id":"67694c4e-cf15-42ad-acd8-443af1d5ab99","system_id":"levelo_inurba_marseille","lat":43.299724,"lon":5.384848,"is_reserved":false,"is_disabled":false,"rental_uris":{"android":"levelo://app?vid=67694c4e-cf15-42ad-acd8-443af1d5ab99","ios":"levelo://app?vid=67694c4e-cf15-42ad-acd8-443af1d5ab99"},"vehicle_type_id":"4","last_reported":1702407980,"current_range_meters":0,"station_id":"ce4bgj92rcd13ifvqbd0","pricing_plan_id":"free"},{"bike_id":"bff9db26-45f0-4d89-be98-df76335b799a","system_id":"levelo_inurba_marseille","lat":43.32365,"lon":5.38883,"is_reserved":false,"is_disabled":false,"rental_uris":{"android":"levelo://app?vid=bff9db26-45f0-4d89-be98-df76335b799a","ios":"levelo://app?vid=bff9db26-45f0-4d89-be98-df76335b799a"},"vehicle_type_id":"4","last_reported":1702407980,"current_range_meters":21600,"station_id":"ce4bhqp2rcd13ifvqhog","pricing_plan_id":"free"},{"bike_id":"d822703c-e310-462a-b45f-fd2e3844ae0e","system_id":"levelo_inurba_marseille","lat":43.305994,"lon":5.393687,"is_reserved":false,"is_disabled":false,"rental_uris":{"android":"levelo://app?vid=d822703c-e310-462a-b45f-fd2e3844ae0e","ios":"levelo://app?vid=d822703c-e310-462a-b45f-fd2e3844ae0e"},"vehicle_type_id":"4","last_reported":1702407980,"current_range_meters":28800,"station_id":"ce4bh0p2rcd13ifvqd80","pricing_plan_id":"free"},{"bike_id":"66ea0dbe-09ee-4edb-8e80-8dbefa078241","system_id":"levelo_inurba_marseille","lat":43.292311,"lon":5.360731,"is_reserved":false,"is_disabled":false,"rental_uris":{"android":"levelo://app?vid=66ea0dbe-09ee-4edb-8e80-8dbefa078241","ios":"levelo://app?vid=66ea0dbe-09ee-4edb-8e80-8dbefa078241"},"vehicle_type_id":"4","last_reported":1702407980,"current_range_meters":24400,"station_id":"ce4bhbh2rcd13ifvqeqg","pricing_plan_id":"free"},{"bike_id":"034ed485-3ff6-4ce8-9fab-8c5c20ac4ebd","system_id":"levelo_inurba_marseille","lat":43.291671,"lon":5.371575,"is_reserved":false,"is_disabled":false,"rental_uris":{"android":"levelo://app?vid=034ed485-3ff6-4ce8-9fab-8c5c20ac4ebd","ios":"levelo://app?vid=034ed485-3ff6-4ce8-9fab-8c5c20ac4ebd"},"vehicle_type_id":"4","last_reported":1702407980,"current_range_meters":22400,"station_id":"ce4bha92rcd13ifvqeh0","pricing_plan_id":"free"},{"bike_id":"17e2decb-27c0-4cd1-8891-40fc8c350c13","system_id":"levelo_inurba_marseille","lat":43.29165,"lon":5.37143,"is_reserved":false,"is_disabled":false,"rental_uris":{"android":"levelo://app?vid=17e2decb-27c0-4cd1-8891-40fc8c350c13","ios":"levelo://app?vid=17e2decb-27c0-4cd1-8891-40fc8c350c13"},"vehicle_type_id":"4","last_reported":1702407980,"current_range_meters":23600,"station_id":"ce4bha92rcd13ifvqeh0","pricing_plan_id":"free"},{"bike_id":"f549a9a6-1fe4-4213-951d-0e18a49331f5","system_id":"levelo_inurba_marseille","lat":43.29164,"lon":5.37152,"is_reserved":false,"is_disabled":false,"rental_uris":{"android":"levelo://app?vid=f549a9a6-1fe4-4213-951d-0e18a49331f5","ios":"levelo://app?vid=f549a9a6-1fe4-4213-951d-0e18a49331f5"},"vehicle_type_id":"4","last_reported":1702407980,"current_range_meters":0,"station_id":"ce4bha92rcd13ifvqeh0","pricing_plan_id":"free"},{"bike_id":"b3bfc6d0-09e6-43ee-ad4f-cde0c87315a5","system_id":"levelo_inurba_marseille","lat":43.29873,"lon":5.38912,"is_reserved":false,"is_disabled":false,"rental_uris":{"android":"levelo://app?vid=b3bfc6d0-09e6-43ee-ad4f-cde0c87315a5","ios":"levelo://app?vid=b3bfc6d0-09e6-43ee-ad4f-cde0c87315a5"},"vehicle_type_id":"4","last_reported":1702407980,"current_range_meters":17200,"station_id":"","pricing_plan_id":"free"},{"bike_id":"e77f072b-0b66-4899-b9d2-2ad6a9c716c2","system_id":"levelo_inurba_marseille","lat":43.291994,"lon":5.357886,"is_reserved":false,"is_disabled":false,"rental_uris":{"android":"levelo://app?vid=e77f072b-0b66-4899-b9d2-2ad6a9c716c2","ios":"levelo://app?vid=e77f072b-0b66-4899-b9d2-2ad6a9c716c2"},"vehicle_type_id":"4","last_reported":1702407980,"current_range_meters":400,"station_id":"ce4bhb12rcd13ifvqel0","pricing_plan_id":"free"},{"bike_id":"d26174aa-83c9-4864-950d-e3c84cae543f","system_id":"levelo_inurba_marseille","lat":43.31326,"lon":5.3969,"is_reserved":false,"is_disabled":false,"rental_uris":{"android":"levelo://app?vid=d26174aa-83c9-4864-950d-e3c84cae543f","ios":"levelo://app?vid=d26174aa-83c9-4864-950d-e3c84cae543f"},"vehicle_type_id":"4","last_reported":1702407980,"current_range_meters":0,"station_id":"ce4bgvp2rcd13ifvqcu0","pricing_plan_id":"free"},{"bike_id":"6797680f-e303-4feb-915b-b5ca70eb746e","system_id":"levelo_inurba_marseille","lat":43.3133,"lon":5.39692,"is_reserved":false,"is_disabled":false,"rental_uris":{"android":"levelo://app?vid=6797680f-e303-4feb-915b-b5ca70eb746e","ios":"levelo://app?vid=6797680f-e303-4feb-915b-b5ca70eb746e"},"vehicle_type_id":"4","last_reported":1702407980,"current_range_meters":12000,"station_id":"ce4bgvp2rcd13ifvqcu0","pricing_plan_id":"free"},{"bike_id":"f89a14b0-0127-4916-abef-133628eccae4","system_id":"levelo_inurba_marseille","lat":43.3133,"lon":5.39693,"is_reserved":false,"is_disabled":false,"rental_uris":{"android":"levelo://app?vid=f89a14b0-0127-4916-abef-133628eccae4","ios":"levelo://app?vid=f89a14b0-0127-4916-abef-133628eccae4"},"vehicle_type_id":"4","last_reported":1702407980,"current_range_meters":31200,"station_id":"ce4bgvp2rcd13ifvqcu0","pricing_plan_id":"free"},{"bike_id":"6531a93b-e120-4690-b42b-56b4bbbd8a30","system_id":"levelo_inurba_marseille","lat":43.313291,"lon":5.396838,"is_reserved":false,"is_disabled":false,"rental_uris":{"android":"levelo://app?vid=6531a93b-e120-4690-b42b-56b4bbbd8a30","ios":"levelo://app?vid=6531a93b-e120-4690-b42b-56b4bbbd8a30"},"vehicle_type_id":"4","last_reported":1702407980,"current_range_meters":24400,"station_id":"ce4bgvp2rcd13ifvqcu0","pricing_plan_id":"free"},{"bike_id":"2b8fec7c-a73a-4227-967c-e7081aed5aa6","system_id":"levelo_inurba_marseille","lat":43.309038,"lon":5.396546,"is_reserved":false,"is_disabled":false,"rental_uris":{"android":"levelo://app?vid=2b8fec7c-a73a-4227-967c-e7081aed5aa6","ios":"levelo://app?vid=2b8fec7c-a73a-4227-967c-e7081aed5aa6"},"vehicle_type_id":"4","last_reported":1702407980,"current_range_meters":4000,"station_id":"ce4bh012rcd13ifvqcv0","pricing_plan_id":"free"},{"bike_id":"66a4a57f-3d4d-48e1-92d7-bb2e837f22d9","system_id":"levelo_inurba_marseille","lat":43.29529,"lon":5.385581,"is_reserved":false,"is_disabled":false,"rental_uris":{"android":"levelo://app?vid=66a4a57f-3d4d-48e1-92d7-bb2e837f22d9","ios":"levelo://app?vid=66a4a57f-3d4d-48e1-92d7-bb2e837f22d9"},"vehicle_type_id":"4","last_reported":1702407980,"current_range_meters":2000,"station_id":"ce4bgih2rcd13ifvqba0","pricing_plan_id":"free"},{"bike_id":"0b9e7985-1060-4006-b89c-82bf0f5e4303","system_id":"levelo_inurba_marseille","lat":43.302008,"lon":5.394694,"is_reserved":false,"is_disabled":false,"rental_uris":{"android":"levelo://app?vid=0b9e7985-1060-4006-b89c-82bf0f5e4303","ios":"levelo://app?vid=0b9e7985-1060-4006-b89c-82bf0f5e4303"},"vehicle_type_id":"4","last_reported":1702407980,"current_range_meters":18000,"station_id":"ce4bh0p2rcd13ifvqd70","pricing_plan_id":"free"},{"bike_id":"df5144d9-7f64-4d2d-a971-987520c7a1b1","system_id":"levelo_inurba_marseille","lat":43.290631,"lon":5.359244,"is_reserved":false,"is_disabled":false,"rental_uris":{"android":"levelo://app?vid=df5144d9-7f64-4d2d-a971-987520c7a1b1","ios":"levelo://app?vid=df5144d9-7f64-4d2d-a971-987520c7a1b1"},"vehicle_type_id":"4","last_reported":1702407980,"current_range_meters":7200,"station_id":"ce4bha92rcd13ifvqeg0","pricing_plan_id":"free"},{"bike_id":"15e7fa3d-63ec-4bd6-8a5c-552ff53fe990","system_id":"levelo_inurba_marseille","lat":43.290631,"lon":5.359244,"is_reserved":false,"is_disabled":false,"rental_uris":{"android":"levelo://app?vid=15e7fa3d-63ec-4bd6-8a5c-552ff53fe990","ios":"levelo://app?vid=15e7fa3d-63ec-4bd6-8a5c-552ff53fe990"},"vehicle_type_id":"4","last_reported":1702407980,"current_range_meters":2000,"station_id":"ce4bha92rcd13ifvqeg0","pricing_plan_id":"free"},{"bike_id":"071fc38e-4201-4c7c-9705-c2d91f4e9f76","system_id":"levelo_inurba_marseille","lat":43.294162,"lon":5.386292,"is_reserved":false,"is_disabled":false,"rental_uris":{"android":"levelo://app?vid=071fc38e-4201-4c7c-9705-c2d91f4e9f76","ios":"levelo://app?vid=071fc38e-4201-4c7c-9705-c2d91f4e9f76"},"vehicle_type_id":"4","last_reported":1702407980,"current_range_meters":18000,"station_id":"ce4bh2h2rcd13ifvqdh0","pricing_plan_id":"free"},{"bike_id":"fee78461-23d7-48dc-8810-c3b8e393e033","system_id":"levelo_inurba_marseille","lat":43.289184,"lon":5.366408,"is_reserved":false,"is_disabled":false,"rental_uris":{"android":"levelo://app?vid=fee78461-23d7-48dc-8810-c3b8e393e033","ios":"levelo://app?vid=fee78461-23d7-48dc-8810-c3b8e393e033"},"vehicle_type_id":"4","last_reported":1702407980,"current_range_meters":0,"station_id":"ce4bhap2rcd13ifvqek0","pricing_plan_id":"free"},{"bike_id":"90212e5a-f930-4ba5-ad39-37ea8f52571a","system_id":"levelo_inurba_marseille","lat":43.33041,"lon":5.38918,"is_reserved":false,"is_disabled":false,"rental_uris":{"android":"levelo://app?vid=90212e5a-f930-4ba5-ad39-37ea8f52571a","ios":"levelo://app?vid=90212e5a-f930-4ba5-ad39-37ea8f52571a"},"vehicle_type_id":"4","last_reported":1702407980,"current_range_meters":25600,"station_id":"ce4bhr92rcd13ifvqhrg","pricing_plan_id":"free"},{"bike_id":"b759538c-75fc-4ccb-9b73-2031bf78f0fa","system_id":"levelo_inurba_marseille","lat":43.33036,"lon":5.38928,"is_reserved":false,"is_disabled":false,"rental_uris":{"android":"levelo://app?vid=b759538c-75fc-4ccb-9b73-2031bf78f0fa","ios":"levelo://app?vid=b759538c-75fc-4ccb-9b73-2031bf78f0fa"},"vehicle_type_id":"4","last_reported":1702407980,"current_range_meters":17600,"station_id":"ce4bhr92rcd13ifvqhrg","pricing_plan_id":"free"},{"bike_id":"62e94a04-2220-4204-a03b-cf7d6d909360","system_id":"levelo_inurba_marseille","lat":43.330442,"lon":5.389148,"is_reserved":false,"is_disabled":false,"rental_uris":{"android":"levelo://app?vid=62e94a04-2220-4204-a03b-cf7d6d909360","ios":"levelo://app?vid=62e94a04-2220-4204-a03b-cf7d6d909360"},"vehicle_type_id":"4","last_reported":1702407980,"current_range_meters":30800,"station_id":"ce4bhr92rcd13ifvqhrg","pricing_plan_id":"free"},{"bike_id":"997e2bda-bf86-4c11-ad0e-8338ea4b7380","system_id":"levelo_inurba_marseille","lat":43.28857,"lon":5.35852,"is_reserved":false,"is_disabled":false,"rental_uris":{"android":"levelo://app?vid=997e2bda-bf86-4c11-ad0e-8338ea4b7380","ios":"levelo://app?vid=997e2bda-bf86-4c11-ad0e-8338ea4b7380"},"vehicle_type_id":"4","last_reported":1702407980,"current_range_meters":5600,"station_id":"ce4bhb12rcd13ifvqem0","pricing_plan_id":"free"},{"bike_id":"67a71298-f781-4402-8d03-cdb5dd11acae","system_id":"levelo_inurba_marseille","lat":43.33747,"lon":5.3745,"is_reserved":false,"is_disabled":false,"rental_uris":{"android":"levelo://app?vid=67a71298-f781-4402-8d03-cdb5dd11acae","ios":"levelo://app?vid=67a71298-f781-4402-8d03-cdb5dd11acae"},"vehicle_type_id":"4","last_reported":1702407980,"current_range_meters":27200,"station_id":"","pricing_plan_id":"free"},{"bike_id":"51f12294-7b3c-435b-9d96-88759acf79ad","system_id":"levelo_inurba_marseille","lat":43.31276,"lon":5.40176,"is_reserved":false,"is_disabled":false,"rental_uris":{"android":"levelo://app?vid=51f12294-7b3c-435b-9d96-88759acf79ad","ios":"levelo://app?vid=51f12294-7b3c-435b-9d96-88759acf79ad"},"vehicle_type_id":"4","last_reported":1702407980,"current_range_meters":26400,"station_id":"ce4bh092rcd13ifvqd30","pricing_plan_id":"free"},{"bike_id":"4b3aec2e-de4b-434a-b519-aa6a7c2e4cdd","system_id":"levelo_inurba_marseille","lat":43.30141,"lon":5.39867,"is_reserved":false,"is_disabled":false,"rental_uris":{"android":"levelo://app?vid=4b3aec2e-de4b-434a-b519-aa6a7c2e4cdd","ios":"levelo://app?vid=4b3aec2e-de4b-434a-b519-aa6a7c2e4cdd"},"vehicle_type_id":"4","last_reported":1702407980,"current_range_meters":27600,"station_id":"ce4bh0h2rcd13ifvqd40","pricing_plan_id":"free"},{"bike_id":"15df3c4b-f98b-4993-ad44-44a09d8bf86d","system_id":"levelo_inurba_marseille","lat":43.301117,"lon":5.398795,"is_reserved":false,"is_disabled":false,"rental_uris":{"android":"levelo://app?vid=15df3c4b-f98b-4993-ad44-44a09d8bf86d","ios":"levelo://app?vid=15df3c4b-f98b-4993-ad44-44a09d8bf86d"},"vehicle_type_id":"4","last_reported":1702407980,"current_range_meters":0,"station_id":"ce4bh0h2rcd13ifvqd40","pricing_plan_id":"free"},{"bike_id":"a69ca607-a11e-4577-bc5a-1d931c46c050","system_id":"levelo_inurba_marseille","lat":43.301117,"lon":5.398795,"is_reserved":false,"is_disabled":false,"rental_uris":{"android":"levelo://app?vid=a69ca607-a11e-4577-bc5a-1d931c46c050","ios":"levelo://app?vid=a69ca607-a11e-4577-bc5a-1d931c46c050"},"vehicle_type_id":"4","last_reported":1702407980,"current_range_meters":30800,"station_id":"ce4bh0h2rcd13ifvqd40","pricing_plan_id":"free"},{"bike_id":"93a059ad-5be2-41c5-a718-130044ce4ca0","system_id":"levelo_inurba_marseille","lat":43.301117,"lon":5.398795,"is_reserved":false,"is_disabled":false,"rental_uris":{"android":"levelo://app?vid=93a059ad-5be2-41c5-a718-130044ce4ca0","ios":"levelo://app?vid=93a059ad-5be2-41c5-a718-130044ce4ca0"},"vehicle_type_id":"4","last_reported":1702407980,"current_range_meters":31600,"station_id":"ce4bh0h2rcd13ifvqd40","pricing_plan_id":"free"},{"bike_id":"3d3ab01d-7662-45f3-97da-ca347020e48d","system_id":"levelo_inurba_marseille","lat":43.298681,"lon":5.397225,"is_reserved":false,"is_disabled":false,"rental_uris":{"android":"levelo://app?vid=3d3ab01d-7662-45f3-97da-ca347020e48d","ios":"levelo://app?vid=3d3ab01d-7662-45f3-97da-ca347020e48d"},"vehicle_type_id":"4","last_reported":1702407980,"current_range_meters":4800,"station_id":"ce4bh0h2rcd13ifvqd50","pricing_plan_id":"free"},{"bike_id":"322a53c4-cc1e-4a22-a671-1265027cdfb0","system_id":"levelo_inurba_marseille","lat":43.286593,"lon":5.363346,"is_reserved":false,"is_disabled":false,"rental_uris":{"android":"levelo://app?vid=322a53c4-cc1e-4a22-a671-1265027cdfb0","ios":"levelo://app?vid=322a53c4-cc1e-4a22-a671-1265027cdfb0"},"vehicle_type_id":"4","last_reported":1702407980,"current_range_meters":31200,"station_id":"ce4bhah2rcd13ifvqej0","pricing_plan_id":"free"},{"bike_id":"c3743603-a00b-49a1-8468-9d1a9c52f9dd","system_id":"levelo_inurba_marseille","lat":43.298681,"lon":5.397225,"is_reserved":false,"is_disabled":false,"rental_uris":{"android":"levelo://app?vid=c3743603-a00b-49a1-8468-9d1a9c52f9dd","ios":"levelo://app?vid=c3743603-a00b-49a1-8468-9d1a9c52f9dd"},"vehicle_type_id":"4","last_reported":1702407980,"current_range_meters":6000,"station_id":"ce4bh0h2rcd13ifvqd50","pricing_plan_id":"free"},{"bike_id":"a89681ea-07a5-461a-8872-2f2868d242df","system_id":"levelo_inurba_marseille","lat":43.298681,"lon":5.397225,"is_reserved":false,"is_disabled":false,"rental_uris":{"android":"levelo://app?vid=a89681ea-07a5-461a-8872-2f2868d242df","ios":"levelo://app?vid=a89681ea-07a5-461a-8872-2f2868d242df"},"vehicle_type_id":"4","last_reported":1702407980,"current_range_meters":24800,"station_id":"ce4bh0h2rcd13ifvqd50","pricing_plan_id":"free"},{"bike_id":"ed69b045-db2d-410f-8abb-d62ba76bb339","system_id":"levelo_inurba_marseille","lat":43.286591,"lon":5.363346,"is_reserved":false,"is_disabled":false,"rental_uris":{"android":"levelo://app?vid=ed69b045-db2d-410f-8abb-d62ba76bb339","ios":"levelo://app?vid=ed69b045-db2d-410f-8abb-d62ba76bb339"},"vehicle_type_id":"4","last_reported":1702407980,"current_range_meters":14800,"station_id":"ce4bhah2rcd13ifvqej0","pricing_plan_id":"free"},{"bike_id":"62475d59-24f4-4bc8-a141-b3eb59b9bb65","system_id":"levelo_inurba_marseille","lat":43.295194,"lon":5.39397,"is_reserved":false,"is_disabled":false,"rental_uris":{"android":"levelo://app?vid=62475d59-24f4-4bc8-a141-b3eb59b9bb65","ios":"levelo://app?vid=62475d59-24f4-4bc8-a141-b3eb59b9bb65"},"vehicle_type_id":"4","last_reported":1702407980,"current_range_meters":2400,"station_id":"ce4bh292rcd13ifvqdf0","pricing_plan_id":"free"},{"bike_id":"6dc3679a-d2fc-4b23-a0aa-e660a5d24f70","system_id":"levelo_inurba_marseille","lat":43.289307,"lon":5.38406,"is_reserved":false,"is_disabled":false,"rental_uris":{"android":"levelo://app?vid=6dc3679a-d2fc-4b23-a0aa-e660a5d24f70","ios":"levelo://app?vid=6dc3679a-d2fc-4b23-a0aa-e660a5d24f70"},"vehicle_type_id":"4","last_reported":1702407980,"current_range_meters":14000,"station_id":"ce4bh612rcd13ifvqe6g","pricing_plan_id":"free"},{"bike_id":"68aa0727-5ee5-460c-bfa2-5a1ee2853baa","system_id":"levelo_inurba_marseille","lat":43.29025,"lon":5.38646,"is_reserved":false,"is_disabled":false,"rental_uris":{"android":"levelo://app?vid=68aa0727-5ee5-460c-bfa2-5a1ee2853baa","ios":"levelo://app?vid=68aa0727-5ee5-460c-bfa2-5a1ee2853baa"},"vehicle_type_id":"4","last_reported":1702407980,"current_range_meters":0,"station_id":"ce4bh4p2rcd13ifvqe0g","pricing_plan_id":"free"},{"bike_id":"74a3a44d-720e-4323-b32a-e05563a71534","system_id":"levelo_inurba_marseille","lat":43.286039,"lon":5.370681,"is_reserved":false,"is_disabled":false,"rental_uris":{"android":"levelo://app?vid=74a3a44d-720e-4323-b32a-e05563a71534","ios":"levelo://app?vid=74a3a44d-720e-4323-b32a-e05563a71534"},"vehicle_type_id":"4","last_reported":1702407980,"current_range_meters":20400,"station_id":"ce4bht12rcd13ifvqi60","pricing_plan_id":"free"},{"bike_id":"01ec7af7-c4af-4a5d-92f3-652f24431ac6","system_id":"levelo_inurba_marseille","lat":43.287184,"lon":5.37937,"is_reserved":false,"is_disabled":false,"rental_uris":{"android":"levelo://app?vid=01ec7af7-c4af-4a5d-92f3-652f24431ac6","ios":"levelo://app?vid=01ec7af7-c4af-4a5d-92f3-652f24431ac6"},"vehicle_type_id":"4","last_reported":1702407980,"current_range_meters":1200,"station_id":"ce4bh9p2rcd13ifvqec0","pricing_plan_id":"free"},{"bike_id":"0e541205-988b-456c-9bf1-963c9f22608c","system_id":"levelo_inurba_marseille","lat":43.281044,"lon":5.378308,"is_reserved":false,"is_disabled":false,"rental_uris":{"android":"levelo://app?vid=0e541205-988b-456c-9bf1-963c9f22608c","ios":"levelo://app?vid=0e541205-988b-456c-9bf1-963c9f22608c"},"vehicle_type_id":"4","last_reported":1702407980,"current_range_meters":13200,"station_id":"ce4bha12rcd13ifvqee0","pricing_plan_id":"free"},{"bike_id":"ecb2a21a-8dcb-48c5-846b-fcc11a021b0b","system_id":"levelo_inurba_marseille","lat":43.31685,"lon":5.404696,"is_reserved":false,"is_disabled":false,"rental_uris":{"android":"levelo://app?vid=ecb2a21a-8dcb-48c5-846b-fcc11a021b0b","ios":"levelo://app?vid=ecb2a21a-8dcb-48c5-846b-fcc11a021b0b"},"vehicle_type_id":"4","last_reported":1702407980,"current_range_meters":25600,"station_id":"ce4bh012rcd13ifvqd00","pricing_plan_id":"free"},{"bike_id":"143c3276-e4d0-4871-93c0-c7e706c23ace","system_id":"levelo_inurba_marseille","lat":43.284538,"lon":5.358657,"is_reserved":false,"is_disabled":false,"rental_uris":{"android":"levelo://app?vid=143c3276-e4d0-4871-93c0-c7e706c23ace","ios":"levelo://app?vid=143c3276-e4d0-4871-93c0-c7e706c23ace"},"vehicle_type_id":"4","last_reported":1702407980,"current_range_meters":4400,"station_id":"ce4bhah2rcd13ifvqei0","pricing_plan_id":"free"},{"bike_id":"52ccb0a5-aba9-450a-97fd-20f35145eaff","system_id":"levelo_inurba_marseille","lat":43.284538,"lon":5.358657,"is_reserved":false,"is_disabled":false,"rental_uris":{"android":"levelo://app?vid=52ccb0a5-aba9-450a-97fd-20f35145eaff","ios":"levelo://app?vid=52ccb0a5-aba9-450a-97fd-20f35145eaff"},"vehicle_type_id":"4","last_reported":1702407980,"current_range_meters":0,"station_id":"ce4bhah2rcd13ifvqei0","pricing_plan_id":"free"},{"bike_id":"f9e78213-6b52-42ac-8b27-c72d0754bdcc","system_id":"levelo_inurba_marseille","lat":43.284538,"lon":5.358657,"is_reserved":false,"is_disabled":false,"rental_uris":{"android":"levelo://app?vid=f9e78213-6b52-42ac-8b27-c72d0754bdcc","ios":"levelo://app?vid=f9e78213-6b52-42ac-8b27-c72d0754bdcc"},"vehicle_type_id":"4","last_reported":1702407980,"current_range_meters":13600,"station_id":"ce4bhah2rcd13ifvqei0","pricing_plan_id":"free"},{"bike_id":"06593570-205f-450d-96f1-7c24c6da4a54","system_id":"levelo_inurba_marseille","lat":43.284534,"lon":5.358662,"is_reserved":false,"is_disabled":false,"rental_uris":{"android":"levelo://app?vid=06593570-205f-450d-96f1-7c24c6da4a54","ios":"levelo://app?vid=06593570-205f-450d-96f1-7c24c6da4a54"},"vehicle_type_id":"4","last_reported":1702407980,"current_range_meters":19600,"station_id":"ce4bhah2rcd13ifvqei0","pricing_plan_id":"free"},{"bike_id":"cc64d4e0-4992-4102-9019-9d51befddcdb","system_id":"levelo_inurba_marseille","lat":43.285856,"lon":5.350771,"is_reserved":false,"is_disabled":false,"rental_uris":{"android":"levelo://app?vid=cc64d4e0-4992-4102-9019-9d51befddcdb","ios":"levelo://app?vid=cc64d4e0-4992-4102-9019-9d51befddcdb"},"vehicle_type_id":"4","last_reported":1702407980,"current_range_meters":14800,"station_id":"ce4bhch2rcd13ifvqeug","pricing_plan_id":"free"},{"bike_id":"29aebe9f-06d8-42a5-8015-f0b3e6f4e20b","system_id":"levelo_inurba_marseille","lat":43.286595,"lon":5.386795,"is_reserved":false,"is_disabled":false,"rental_uris":{"android":"levelo://app?vid=29aebe9f-06d8-42a5-8015-f0b3e6f4e20b","ios":"levelo://app?vid=29aebe9f-06d8-42a5-8015-f0b3e6f4e20b"},"vehicle_type_id":"4","last_reported":1702407980,"current_range_meters":8800,"station_id":"ce4bh492rcd13ifvqdug","pricing_plan_id":"free"},{"bike_id":"a49c5c64-bff0-47bf-af2c-aa258506df4f","system_id":"levelo_inurba_marseille","lat":43.323464,"lon":5.406297,"is_reserved":false,"is_disabled":false,"rental_uris":{"android":"levelo://app?vid=a49c5c64-bff0-47bf-af2c-aa258506df4f","ios":"levelo://app?vid=a49c5c64-bff0-47bf-af2c-aa258506df4f"},"vehicle_type_id":"4","last_reported":1702407980,"current_range_meters":17200,"station_id":"ce4bhq92rcd13ifvqhjg","pricing_plan_id":"free"},{"bike_id":"992fa38c-ca6b-4a50-bb9c-20aa7a009749","system_id":"levelo_inurba_marseille","lat":43.323464,"lon":5.406297,"is_reserved":false,"is_disabled":false,"rental_uris":{"android":"levelo://app?vid=992fa38c-ca6b-4a50-bb9c-20aa7a009749","ios":"levelo://app?vid=992fa38c-ca6b-4a50-bb9c-20aa7a009749"},"vehicle_type_id":"4","last_reported":1702407980,"current_range_meters":24000,"station_id":"ce4bhq92rcd13ifvqhjg","pricing_plan_id":"free"},{"bike_id":"cf7ca54e-9bb8-433e-bc71-ca5915cdee40","system_id":"levelo_inurba_marseille","lat":43.323464,"lon":5.406297,"is_reserved":false,"is_disabled":false,"rental_uris":{"android":"levelo://app?vid=cf7ca54e-9bb8-433e-bc71-ca5915cdee40","ios":"levelo://app?vid=cf7ca54e-9bb8-433e-bc71-ca5915cdee40"},"vehicle_type_id":"4","last_reported":1702407980,"current_range_meters":25600,"station_id":"ce4bhq92rcd13ifvqhjg","pricing_plan_id":"free"},{"bike_id":"98b64fcc-1045-4033-b906-a49760adfb3b","system_id":"levelo_inurba_marseille","lat":43.284793,"lon":5.384113,"is_reserved":false,"is_disabled":false,"rental_uris":{"android":"levelo://app?vid=98b64fcc-1045-4033-b906-a49760adfb3b","ios":"levelo://app?vid=98b64fcc-1045-4033-b906-a49760adfb3b"},"vehicle_type_id":"4","last_reported":1702407980,"current_range_meters":1600,"station_id":"ce4bh512rcd13ifvqe3g","pricing_plan_id":"free"},{"bike_id":"5b96bb46-9a3a-422a-87ec-0526129e6244","system_id":"levelo_inurba_marseille","lat":43.297946,"lon":5.404063,"is_reserved":false,"is_disabled":false,"rental_uris":{"android":"levelo://app?vid=5b96bb46-9a3a-422a-87ec-0526129e6244","ios":"levelo://app?vid=5b96bb46-9a3a-422a-87ec-0526129e6244"},"vehicle_type_id":"4","last_reported":1702407980,"current_range_meters":13600,"station_id":"ce4bh112rcd13ifvqd90","pricing_plan_id":"free"},{"bike_id":"3ef6135c-b7e4-444b-9a01-cc9b2e5ee2e7","system_id":"levelo_inurba_marseille","lat":43.288501,"lon":5.393087,"is_reserved":false,"is_disabled":false,"rental_uris":{"android":"levelo://app?vid=3ef6135c-b7e4-444b-9a01-cc9b2e5ee2e7","ios":"levelo://app?vid=3ef6135c-b7e4-444b-9a01-cc9b2e5ee2e7"},"vehicle_type_id":"4","last_reported":1702407980,"current_range_meters":8000,"station_id":"ce4bh2p2rcd13ifvqdi0","pricing_plan_id":"free"},{"bike_id":"2931331c-7f33-41f0-b26c-61e107adc9dd","system_id":"levelo_inurba_marseille","lat":43.284217,"lon":5.349697,"is_reserved":false,"is_disabled":false,"rental_uris":{"android":"levelo://app?vid=2931331c-7f33-41f0-b26c-61e107adc9dd","ios":"levelo://app?vid=2931331c-7f33-41f0-b26c-61e107adc9dd"},"vehicle_type_id":"4","last_reported":1702407980,"current_range_meters":4800,"station_id":"ce4bhbh2rcd13ifvqepg","pricing_plan_id":"free"},{"bike_id":"af0631cd-ba31-474c-9e7e-6b0fa8ba9b9e","system_id":"levelo_inurba_marseille","lat":43.280375,"lon":5.36945,"is_reserved":false,"is_disabled":false,"rental_uris":{"android":"levelo://app?vid=af0631cd-ba31-474c-9e7e-6b0fa8ba9b9e","ios":"levelo://app?vid=af0631cd-ba31-474c-9e7e-6b0fa8ba9b9e"},"vehicle_type_id":"4","last_reported":1702407980,"current_range_meters":14400,"station_id":"ce4bha12rcd13ifvqef0","pricing_plan_id":"free"},{"bike_id":"3835d326-5a9f-480b-aac3-17abfdac3aed","system_id":"levelo_inurba_marseille","lat":43.280382,"lon":5.369291,"is_reserved":false,"is_disabled":false,"rental_uris":{"android":"levelo://app?vid=3835d326-5a9f-480b-aac3-17abfdac3aed","ios":"levelo://app?vid=3835d326-5a9f-480b-aac3-17abfdac3aed"},"vehicle_type_id":"4","last_reported":1702407980,"current_range_meters":12800,"station_id":"ce4bha12rcd13ifvqef0","pricing_plan_id":"free"},{"bike_id":"82169416-1237-4865-9afe-2c8700d0ddcf","system_id":"levelo_inurba_marseille","lat":43.284462,"lon":5.392121,"is_reserved":false,"is_disabled":false,"rental_uris":{"android":"levelo://app?vid=82169416-1237-4865-9afe-2c8700d0ddcf","ios":"levelo://app?vid=82169416-1237-4865-9afe-2c8700d0ddcf"},"vehicle_type_id":"4","last_reported":1702407980,"current_range_meters":12800,"station_id":"ce4bhoh2rcd13ifvqh5g","pricing_plan_id":"free"},{"bike_id":"73b82f76-1cea-4dd7-87b4-41e33d17a1a5","system_id":"levelo_inurba_marseille","lat":43.326605,"lon":5.409903,"is_reserved":false,"is_disabled":false,"rental_uris":{"android":"levelo://app?vid=73b82f76-1cea-4dd7-87b4-41e33d17a1a5","ios":"levelo://app?vid=73b82f76-1cea-4dd7-87b4-41e33d17a1a5"},"vehicle_type_id":"4","last_reported":1702407980,"current_range_meters":21600,"station_id":"ce4bhpp2rcd13ifvqhgg","pricing_plan_id":"free"},{"bike_id":"aa696b50-ef7f-4e76-baad-1d20cd652501","system_id":"levelo_inurba_marseille","lat":43.304188,"lon":5.412904,"is_reserved":false,"is_disabled":false,"rental_uris":{"android":"levelo://app?vid=aa696b50-ef7f-4e76-baad-1d20cd652501","ios":"levelo://app?vid=aa696b50-ef7f-4e76-baad-1d20cd652501"},"vehicle_type_id":"4","last_reported":1702407980,"current_range_meters":6000,"station_id":"ce4bhop2rcd13ifvqh8g","pricing_plan_id":"free"},{"bike_id":"63415800-551c-47b7-a2bc-23ffd1fe936a","system_id":"levelo_inurba_marseille","lat":43.304188,"lon":5.412904,"is_reserved":false,"is_disabled":false,"rental_uris":{"android":"levelo://app?vid=63415800-551c-47b7-a2bc-23ffd1fe936a","ios":"levelo://app?vid=63415800-551c-47b7-a2bc-23ffd1fe936a"},"vehicle_type_id":"4","last_reported":1702407980,"current_range_meters":800,"station_id":"ce4bhop2rcd13ifvqh8g","pricing_plan_id":"free"},{"bike_id":"4688c540-84d7-4b18-9a37-7f2c214105d0","system_id":"levelo_inurba_marseille","lat":43.287154,"lon":5.399979,"is_reserved":false,"is_disabled":false,"rental_uris":{"android":"levelo://app?vid=4688c540-84d7-4b18-9a37-7f2c214105d0","ios":"levelo://app?vid=4688c540-84d7-4b18-9a37-7f2c214105d0"},"vehicle_type_id":"4","last_reported":1702407980,"current_range_meters":5600,"station_id":"ce4bho92rcd13ifvqh3g","pricing_plan_id":"free"},{"bike_id":"255fb417-8bb2-4b71-8ad3-8f197d729c51","system_id":"levelo_inurba_marseille","lat":43.299577,"lon":5.413277,"is_reserved":false,"is_disabled":false,"rental_uris":{"android":"levelo://app?vid=255fb417-8bb2-4b71-8ad3-8f197d729c51","ios":"levelo://app?vid=255fb417-8bb2-4b71-8ad3-8f197d729c51"},"vehicle_type_id":"4","last_reported":1702407980,"current_range_meters":23200,"station_id":"ce4bhp12rcd13ifvqh9g","pricing_plan_id":"free"},{"bike_id":"8107737b-836e-48fb-8b4b-0bbb9d55b52b","system_id":"levelo_inurba_marseille","lat":43.299579,"lon":5.413255,"is_reserved":false,"is_disabled":false,"rental_uris":{"android":"levelo://app?vid=8107737b-836e-48fb-8b4b-0bbb9d55b52b","ios":"levelo://app?vid=8107737b-836e-48fb-8b4b-0bbb9d55b52b"},"vehicle_type_id":"4","last_reported":1702407980,"current_range_meters":28800,"station_id":"ce4bhp12rcd13ifvqh9g","pricing_plan_id":"free"},{"bike_id":"f59b2f94-1214-4d43-bac6-2fc1ed4a9052","system_id":"levelo_inurba_marseille","lat":43.279742,"lon":5.38744,"is_reserved":false,"is_disabled":false,"rental_uris":{"android":"levelo://app?vid=f59b2f94-1214-4d43-bac6-2fc1ed4a9052","ios":"levelo://app?vid=f59b2f94-1214-4d43-bac6-2fc1ed4a9052"},"vehicle_type_id":"4","last_reported":1702407980,"current_range_meters":16800,"station_id":"ce4bhg12rcd13ifvqf80","pricing_plan_id":"free"},{"bike_id":"5be5bf39-aef7-43be-8859-198152bf0bd8","system_id":"levelo_inurba_marseille","lat":43.292571,"lon":5.409107,"is_reserved":false,"is_disabled":false,"rental_uris":{"android":"levelo://app?vid=5be5bf39-aef7-43be-8859-198152bf0bd8","ios":"levelo://app?vid=5be5bf39-aef7-43be-8859-198152bf0bd8"},"vehicle_type_id":"4","last_reported":1702407980,"current_range_meters":0,"station_id":"ce4bh192rcd13ifvqdc0","pricing_plan_id":"free"},{"bike_id":"dd25e155-3199-4e78-909d-c7fde2851763","system_id":"levelo_inurba_marseille","lat":43.292571,"lon":5.409107,"is_reserved":false,"is_disabled":false,"rental_uris":{"android":"levelo://app?vid=dd25e155-3199-4e78-909d-c7fde2851763","ios":"levelo://app?vid=dd25e155-3199-4e78-909d-c7fde2851763"},"vehicle_type_id":"4","last_reported":1702407980,"current_range_meters":6800,"station_id":"ce4bh192rcd13ifvqdc0","pricing_plan_id":"free"},{"bike_id":"0a7e75c6-53c2-4e9e-9085-45163296873b","system_id":"levelo_inurba_marseille","lat":43.28085,"lon":5.39658,"is_reserved":false,"is_disabled":false,"rental_uris":{"android":"levelo://app?vid=0a7e75c6-53c2-4e9e-9085-45163296873b","ios":"levelo://app?vid=0a7e75c6-53c2-4e9e-9085-45163296873b"},"vehicle_type_id":"4","last_reported":1702407980,"current_range_meters":2800,"station_id":"ce4bho12rcd13ifvqh2g","pricing_plan_id":"free"},{"bike_id":"b1d31a80-70d5-438e-ac3b-02581ad7399e","system_id":"levelo_inurba_marseille","lat":43.303837,"lon":5.418724,"is_reserved":false,"is_disabled":false,"rental_uris":{"android":"levelo://app?vid=b1d31a80-70d5-438e-ac3b-02581ad7399e","ios":"levelo://app?vid=b1d31a80-70d5-438e-ac3b-02581ad7399e"},"vehicle_type_id":"4","last_reported":1702407980,"current_range_meters":19600,"station_id":"ce4bhop2rcd13ifvqh7g","pricing_plan_id":"free"},{"bike_id":"7efad1da-02f5-4d3a-bc1f-166af404abd3","system_id":"levelo_inurba_marseille","lat":43.303837,"lon":5.418724,"is_reserved":false,"is_disabled":false,"rental_uris":{"android":"levelo://app?vid=7efad1da-02f5-4d3a-bc1f-166af404abd3","ios":"levelo://app?vid=7efad1da-02f5-4d3a-bc1f-166af404abd3"},"vehicle_type_id":"4","last_reported":1702407980,"current_range_meters":18800,"station_id":"ce4bhop2rcd13ifvqh7g","pricing_plan_id":"free"},{"bike_id":"a06da422-70f5-4024-b34f-b1c5bb09c8c2","system_id":"levelo_inurba_marseille","lat":43.33606,"lon":5.41028,"is_reserved":false,"is_disabled":false,"rental_uris":{"android":"levelo://app?vid=a06da422-70f5-4024-b34f-b1c5bb09c8c2","ios":"levelo://app?vid=a06da422-70f5-4024-b34f-b1c5bb09c8c2"},"vehicle_type_id":"4","last_reported":1702407980,"current_range_meters":12400,"station_id":"ce4bhqh2rcd13ifvqhmg","pricing_plan_id":"free"},{"bike_id":"d4f33ce9-27ee-4db6-a579-5c607fcf8ec7","system_id":"levelo_inurba_marseille","lat":43.279952,"lon":5.400085,"is_reserved":false,"is_disabled":false,"rental_uris":{"android":"levelo://app?vid=d4f33ce9-27ee-4db6-a579-5c607fcf8ec7","ios":"levelo://app?vid=d4f33ce9-27ee-4db6-a579-5c607fcf8ec7"},"vehicle_type_id":"4","last_reported":1702407980,"current_range_meters":18000,"station_id":"ce4bho92rcd13ifvqh4g","pricing_plan_id":"free"},{"bike_id":"40221589-3415-4339-883a-46458a0ce18f","system_id":"levelo_inurba_marseille","lat":43.279952,"lon":5.400085,"is_reserved":false,"is_disabled":false,"rental_uris":{"android":"levelo://app?vid=40221589-3415-4339-883a-46458a0ce18f","ios":"levelo://app?vid=40221589-3415-4339-883a-46458a0ce18f"},"vehicle_type_id":"4","last_reported":1702407980,"current_range_meters":6000,"station_id":"ce4bho92rcd13ifvqh4g","pricing_plan_id":"free"},{"bike_id":"60d14e17-ede4-4c9e-966c-3f04c8e42a8b","system_id":"levelo_inurba_marseille","lat":43.310785,"lon":5.424305,"is_reserved":false,"is_disabled":false,"rental_uris":{"android":"levelo://app?vid=60d14e17-ede4-4c9e-966c-3f04c8e42a8b","ios":"levelo://app?vid=60d14e17-ede4-4c9e-966c-3f04c8e42a8b"},"vehicle_type_id":"4","last_reported":1702407980,"current_range_meters":9200,"station_id":"ce4bhp92rcd13ifvqhag","pricing_plan_id":"free"},{"bike_id":"4adef58e-1188-427d-930a-855c554f6d64","system_id":"levelo_inurba_marseille","lat":43.310785,"lon":5.424305,"is_reserved":false,"is_disabled":false,"rental_uris":{"android":"levelo://app?vid=4adef58e-1188-427d-930a-855c554f6d64","ios":"levelo://app?vid=4adef58e-1188-427d-930a-855c554f6d64"},"vehicle_type_id":"4","last_reported":1702407980,"current_range_meters":29200,"station_id":"ce4bhp92rcd13ifvqhag","pricing_plan_id":"free"},{"bike_id":"143548a7-347a-4846-990e-a7bddfa338e0","system_id":"levelo_inurba_marseille","lat":43.310785,"lon":5.424305,"is_reserved":false,"is_disabled":false,"rental_uris":{"android":"levelo://app?vid=143548a7-347a-4846-990e-a7bddfa338e0","ios":"levelo://app?vid=143548a7-347a-4846-990e-a7bddfa338e0"},"vehicle_type_id":"4","last_reported":1702407980,"current_range_meters":31200,"station_id":"ce4bhp92rcd13ifvqhag","pricing_plan_id":"free"},{"bike_id":"1d5ae7fc-d788-4e3b-9e50-c093618912d7","system_id":"levelo_inurba_marseille","lat":43.310785,"lon":5.424305,"is_reserved":false,"is_disabled":false,"rental_uris":{"android":"levelo://app?vid=1d5ae7fc-d788-4e3b-9e50-c093618912d7","ios":"levelo://app?vid=1d5ae7fc-d788-4e3b-9e50-c093618912d7"},"vehicle_type_id":"4","last_reported":1702407980,"current_range_meters":26000,"station_id":"ce4bhp92rcd13ifvqhag","pricing_plan_id":"free"},{"bike_id":"e15fcb76-150b-4e94-ba14-1765fbabad44","system_id":"levelo_inurba_marseille","lat":43.310785,"lon":5.424305,"is_reserved":false,"is_disabled":false,"rental_uris":{"android":"levelo://app?vid=e15fcb76-150b-4e94-ba14-1765fbabad44","ios":"levelo://app?vid=e15fcb76-150b-4e94-ba14-1765fbabad44"},"vehicle_type_id":"4","last_reported":1702407980,"current_range_meters":30800,"station_id":"ce4bhp92rcd13ifvqhag","pricing_plan_id":"free"},{"bike_id":"b1c028eb-0fe1-4afa-b35c-b9783a0e9537","system_id":"levelo_inurba_marseille","lat":43.31723,"lon":5.42405,"is_reserved":false,"is_disabled":false,"rental_uris":{"android":"levelo://app?vid=b1c028eb-0fe1-4afa-b35c-b9783a0e9537","ios":"levelo://app?vid=b1c028eb-0fe1-4afa-b35c-b9783a0e9537"},"vehicle_type_id":"4","last_reported":1702407980,"current_range_meters":4800,"station_id":"ce4bhp92rcd13ifvqhbg","pricing_plan_id":"free"},{"bike_id":"87b311f3-3f92-4325-83c4-03e0c9d7913b","system_id":"levelo_inurba_marseille","lat":43.30413,"lon":5.42537,"is_reserved":false,"is_disabled":false,"rental_uris":{"android":"levelo://app?vid=87b311f3-3f92-4325-83c4-03e0c9d7913b","ios":"levelo://app?vid=87b311f3-3f92-4325-83c4-03e0c9d7913b"},"vehicle_type_id":"4","last_reported":1702407980,"current_range_meters":18000,"station_id":"ce4bhoh2rcd13ifvqh6g","pricing_plan_id":"free"},{"bike_id":"d7a6c85d-a811-4fa8-800a-8c7d7fbad1e5","system_id":"levelo_inurba_marseille","lat":43.274926,"lon":5.397297,"is_reserved":false,"is_disabled":false,"rental_uris":{"android":"levelo://app?vid=d7a6c85d-a811-4fa8-800a-8c7d7fbad1e5","ios":"levelo://app?vid=d7a6c85d-a811-4fa8-800a-8c7d7fbad1e5"},"vehicle_type_id":"4","last_reported":1702407980,"current_range_meters":0,"station_id":"","pricing_plan_id":"free"},{"bike_id":"b906c64a-473f-40ee-8efc-a6728ca31ad3","system_id":"levelo_inurba_marseille","lat":43.295511,"lon":5.422926,"is_reserved":false,"is_disabled":false,"rental_uris":{"android":"levelo://app?vid=b906c64a-473f-40ee-8efc-a6728ca31ad3","ios":"levelo://app?vid=b906c64a-473f-40ee-8efc-a6728ca31ad3"},"vehicle_type_id":"4","last_reported":1702407980,"current_range_meters":30400,"station_id":"ce4bhph2rcd13ifvqhdg","pricing_plan_id":"free"},{"bike_id":"538aee69-386c-4892-8f01-ca374986373e","system_id":"levelo_inurba_marseille","lat":43.27945,"lon":5.41039,"is_reserved":false,"is_disabled":false,"rental_uris":{"android":"levelo://app?vid=538aee69-386c-4892-8f01-ca374986373e","ios":"levelo://app?vid=538aee69-386c-4892-8f01-ca374986373e"},"vehicle_type_id":"4","last_reported":1702407980,"current_range_meters":15200,"station_id":"ce4bhnp2rcd13ifvqh0g","pricing_plan_id":"free"},{"bike_id":"33566000-1e76-439c-bafd-e73bc3e16c5f","system_id":"levelo_inurba_marseille","lat":43.279441,"lon":5.410473,"is_reserved":false,"is_disabled":false,"rental_uris":{"android":"levelo://app?vid=33566000-1e76-439c-bafd-e73bc3e16c5f","ios":"levelo://app?vid=33566000-1e76-439c-bafd-e73bc3e16c5f"},"vehicle_type_id":"4","last_reported":1702407980,"current_range_meters":0,"station_id":"ce4bhnp2rcd13ifvqh0g","pricing_plan_id":"free"},{"bike_id":"4aa9640e-67cd-4cc9-a003-3e6c2c7ba207","system_id":"levelo_inurba_marseille","lat":43.26681,"lon":5.382694,"is_reserved":false,"is_disabled":false,"rental_uris":{"android":"levelo://app?vid=4aa9640e-67cd-4cc9-a003-3e6c2c7ba207","ios":"levelo://app?vid=4aa9640e-67cd-4cc9-a003-3e6c2c7ba207"},"vehicle_type_id":"4","last_reported":1702407980,"current_range_meters":0,"station_id":"ce4bhg92rcd13ifvqf90","pricing_plan_id":"free"},{"bike_id":"6b753950-7160-4db0-865b-fdc8b9120966","system_id":"levelo_inurba_marseille","lat":43.27996,"lon":5.416624,"is_reserved":false,"is_disabled":false,"rental_uris":{"android":"levelo://app?vid=6b753950-7160-4db0-865b-fdc8b9120966","ios":"levelo://app?vid=6b753950-7160-4db0-865b-fdc8b9120966"},"vehicle_type_id":"4","last_reported":1702407980,"current_range_meters":12400,"station_id":"ce4bho12rcd13ifvqh1g","pricing_plan_id":"free"},{"bike_id":"654fac4d-c1cc-4596-972e-7164904ba084","system_id":"levelo_inurba_marseille","lat":43.27998,"lon":5.416628,"is_reserved":false,"is_disabled":false,"rental_uris":{"android":"levelo://app?vid=654fac4d-c1cc-4596-972e-7164904ba084","ios":"levelo://app?vid=654fac4d-c1cc-4596-972e-7164904ba084"},"vehicle_type_id":"4","last_reported":1702407980,"current_range_meters":22000,"station_id":"ce4bho12rcd13ifvqh1g","pricing_plan_id":"free"},{"bike_id":"14d4e9ee-cd85-451d-a11e-d54497f7d46d","system_id":"levelo_inurba_marseille","lat":43.265714,"lon":5.372891,"is_reserved":false,"is_disabled":false,"rental_uris":{"android":"levelo://app?vid=14d4e9ee-cd85-451d-a11e-d54497f7d46d","ios":"levelo://app?vid=14d4e9ee-cd85-451d-a11e-d54497f7d46d"},"vehicle_type_id":"4","last_reported":1702407980,"current_range_meters":4800,"station_id":"ce4bhg12rcd13ifvqf70","pricing_plan_id":"free"},{"bike_id":"e5386c5c-5a93-4b2b-a4aa-7f666398c920","system_id":"levelo_inurba_marseille","lat":43.267966,"lon":5.393976,"is_reserved":false,"is_disabled":false,"rental_uris":{"android":"levelo://app?vid=e5386c5c-5a93-4b2b-a4aa-7f666398c920","ios":"levelo://app?vid=e5386c5c-5a93-4b2b-a4aa-7f666398c920"},"vehicle_type_id":"4","last_reported":1702407980,"current_range_meters":29200,"station_id":"ce4bhh12rcd13ifvqfg0","pricing_plan_id":"free"},{"bike_id":"7d0b0b8c-d611-4443-9015-d9de7d6b8fed","system_id":"levelo_inurba_marseille","lat":43.30807,"lon":5.43515,"is_reserved":false,"is_disabled":false,"rental_uris":{"android":"levelo://app?vid=7d0b0b8c-d611-4443-9015-d9de7d6b8fed","ios":"levelo://app?vid=7d0b0b8c-d611-4443-9015-d9de7d6b8fed"},"vehicle_type_id":"4","last_reported":1702407980,"current_range_meters":0,"station_id":"ce4bhph2rcd13ifvqheg","pricing_plan_id":"free"},{"bike_id":"14bc19f9-c5ac-4814-b202-5604c65f25d1","system_id":"levelo_inurba_marseille","lat":43.30797,"lon":5.43524,"is_reserved":false,"is_disabled":false,"rental_uris":{"android":"levelo://app?vid=14bc19f9-c5ac-4814-b202-5604c65f25d1","ios":"levelo://app?vid=14bc19f9-c5ac-4814-b202-5604c65f25d1"},"vehicle_type_id":"4","last_reported":1702407980,"current_range_meters":16400,"station_id":"ce4bhph2rcd13ifvqheg","pricing_plan_id":"free"},{"bike_id":"7b55d306-2871-4eea-a8f0-c1498403b888","system_id":"levelo_inurba_marseille","lat":43.308051,"lon":5.43527,"is_reserved":false,"is_disabled":false,"rental_uris":{"android":"levelo://app?vid=7b55d306-2871-4eea-a8f0-c1498403b888","ios":"levelo://app?vid=7b55d306-2871-4eea-a8f0-c1498403b888"},"vehicle_type_id":"4","last_reported":1702407980,"current_range_meters":23600,"station_id":"ce4bhph2rcd13ifvqheg","pricing_plan_id":"free"},{"bike_id":"eb9dd9fc-285d-4cf6-8cba-2a4362c58c9e","system_id":"levelo_inurba_marseille","lat":43.26945,"lon":5.40247,"is_reserved":false,"is_disabled":false,"rental_uris":{"android":"levelo://app?vid=eb9dd9fc-285d-4cf6-8cba-2a4362c58c9e","ios":"levelo://app?vid=eb9dd9fc-285d-4cf6-8cba-2a4362c58c9e"},"vehicle_type_id":"4","last_reported":1702407980,"current_range_meters":0,"station_id":"cjm6bp8fraef2m0cb0m0","pricing_plan_id":"free"},{"bike_id":"60e4e2f6-4390-4029-b71c-11414f373115","system_id":"levelo_inurba_marseille","lat":43.271388,"lon":5.409269,"is_reserved":false,"is_disabled":false,"rental_uris":{"android":"levelo://app?vid=60e4e2f6-4390-4029-b71c-11414f373115","ios":"levelo://app?vid=60e4e2f6-4390-4029-b71c-11414f373115"},"vehicle_type_id":"4","last_reported":1702407980,"current_range_meters":27200,"station_id":"ce4bhl12rcd13ifvqgf0","pricing_plan_id":"free"},{"bike_id":"7010811e-5d6a-4506-8f86-a2839f396acc","system_id":"levelo_inurba_marseille","lat":43.26202,"lon":5.379299,"is_reserved":false,"is_disabled":false,"rental_uris":{"android":"levelo://app?vid=7010811e-5d6a-4506-8f86-a2839f396acc","ios":"levelo://app?vid=7010811e-5d6a-4506-8f86-a2839f396acc"},"vehicle_type_id":"4","last_reported":1702407980,"current_range_meters":25200,"station_id":"ce4bhjp2rcd13ifvqg90","pricing_plan_id":"free"},{"bike_id":"c6fd12df-9f3a-4af6-97ac-045eea3df2d1","system_id":"levelo_inurba_marseille","lat":43.298768,"lon":5.43643,"is_reserved":false,"is_disabled":false,"rental_uris":{"android":"levelo://app?vid=c6fd12df-9f3a-4af6-97ac-045eea3df2d1","ios":"levelo://app?vid=c6fd12df-9f3a-4af6-97ac-045eea3df2d1"},"vehicle_type_id":"4","last_reported":1702407980,"current_range_meters":29600,"station_id":"ce4bhpp2rcd13ifvqhfg","pricing_plan_id":"free"},{"bike_id":"14fb5ba6-affc-4814-9729-4e5def4dd2eb","system_id":"levelo_inurba_marseille","lat":43.298768,"lon":5.43643,"is_reserved":false,"is_disabled":false,"rental_uris":{"android":"levelo://app?vid=14fb5ba6-affc-4814-9729-4e5def4dd2eb","ios":"levelo://app?vid=14fb5ba6-affc-4814-9729-4e5def4dd2eb"},"vehicle_type_id":"4","last_reported":1702407980,"current_range_meters":12000,"station_id":"ce4bhpp2rcd13ifvqhfg","pricing_plan_id":"free"},{"bike_id":"f192fe62-69c0-4d83-83b5-08a60a335cd9","system_id":"levelo_inurba_marseille","lat":43.2559,"lon":5.38233,"is_reserved":false,"is_disabled":false,"rental_uris":{"android":"levelo://app?vid=f192fe62-69c0-4d83-83b5-08a60a335cd9","ios":"levelo://app?vid=f192fe62-69c0-4d83-83b5-08a60a335cd9"},"vehicle_type_id":"4","last_reported":1702407980,"current_range_meters":21200,"station_id":"ce4bhih2rcd13ifvqfs0","pricing_plan_id":"free"},{"bike_id":"d0de0dd2-0f88-4b71-b1c0-e284021ddfcf","system_id":"levelo_inurba_marseille","lat":43.2558,"lon":5.38221,"is_reserved":false,"is_disabled":false,"rental_uris":{"android":"levelo://app?vid=d0de0dd2-0f88-4b71-b1c0-e284021ddfcf","ios":"levelo://app?vid=d0de0dd2-0f88-4b71-b1c0-e284021ddfcf"},"vehicle_type_id":"4","last_reported":1702407980,"current_range_meters":24400,"station_id":"ce4bhih2rcd13ifvqfs0","pricing_plan_id":"free"},{"bike_id":"625b57d9-03ec-421a-bb03-e551df1c4778","system_id":"levelo_inurba_marseille","lat":43.25581,"lon":5.38231,"is_reserved":false,"is_disabled":false,"rental_uris":{"android":"levelo://app?vid=625b57d9-03ec-421a-bb03-e551df1c4778","ios":"levelo://app?vid=625b57d9-03ec-421a-bb03-e551df1c4778"},"vehicle_type_id":"4","last_reported":1702407980,"current_range_meters":18400,"station_id":"ce4bhih2rcd13ifvqfs0","pricing_plan_id":"free"},{"bike_id":"d208a986-0d21-44f7-a968-4b4fc2c86cdd","system_id":"levelo_inurba_marseille","lat":43.25579,"lon":5.38225,"is_reserved":false,"is_disabled":false,"rental_uris":{"android":"levelo://app?vid=d208a986-0d21-44f7-a968-4b4fc2c86cdd","ios":"levelo://app?vid=d208a986-0d21-44f7-a968-4b4fc2c86cdd"},"vehicle_type_id":"4","last_reported":1702407980,"current_range_meters":26000,"station_id":"ce4bhih2rcd13ifvqfs0","pricing_plan_id":"free"},{"bike_id":"a5b4c153-21d2-4205-9e38-c256ad535a06","system_id":"levelo_inurba_marseille","lat":43.255776,"lon":5.382382,"is_reserved":false,"is_disabled":false,"rental_uris":{"android":"levelo://app?vid=a5b4c153-21d2-4205-9e38-c256ad535a06","ios":"levelo://app?vid=a5b4c153-21d2-4205-9e38-c256ad535a06"},"vehicle_type_id":"4","last_reported":1702407980,"current_range_meters":26000,"station_id":"ce4bhih2rcd13ifvqfs0","pricing_plan_id":"free"},{"bike_id":"b964cdc5-dd23-4310-b90d-63837f2982b0","system_id":"levelo_inurba_marseille","lat":43.258224,"lon":5.394369,"is_reserved":false,"is_disabled":false,"rental_uris":{"android":"levelo://app?vid=b964cdc5-dd23-4310-b90d-63837f2982b0","ios":"levelo://app?vid=b964cdc5-dd23-4310-b90d-63837f2982b0"},"vehicle_type_id":"4","last_reported":1702407980,"current_range_meters":6000,"station_id":"ce4bhip2rcd13ifvqft0","pricing_plan_id":"free"},{"bike_id":"d914df8f-b3f1-49c0-ad6f-290dbff49950","system_id":"levelo_inurba_marseille","lat":43.254947,"lon":5.376454,"is_reserved":false,"is_disabled":false,"rental_uris":{"android":"levelo://app?vid=d914df8f-b3f1-49c0-ad6f-290dbff49950","ios":"levelo://app?vid=d914df8f-b3f1-49c0-ad6f-290dbff49950"},"vehicle_type_id":"4","last_reported":1702407980,"current_range_meters":1600,"station_id":"ce4bhh12rcd13ifvqff0","pricing_plan_id":"free"},{"bike_id":"8bee575f-1ce6-4207-9d3e-11062018182f","system_id":"levelo_inurba_marseille","lat":43.25928,"lon":5.40908,"is_reserved":false,"is_disabled":false,"rental_uris":{"android":"levelo://app?vid=8bee575f-1ce6-4207-9d3e-11062018182f","ios":"levelo://app?vid=8bee575f-1ce6-4207-9d3e-11062018182f"},"vehicle_type_id":"4","last_reported":1702407980,"current_range_meters":0,"station_id":"ce4bhm92rcd13ifvqglg","pricing_plan_id":"free"},{"bike_id":"4ac1812d-c3df-4be6-8095-d79a276064b9","system_id":"levelo_inurba_marseille","lat":43.250009,"lon":5.389195,"is_reserved":false,"is_disabled":false,"rental_uris":{"android":"levelo://app?vid=4ac1812d-c3df-4be6-8095-d79a276064b9","ios":"levelo://app?vid=4ac1812d-c3df-4be6-8095-d79a276064b9"},"vehicle_type_id":"4","last_reported":1702407980,"current_range_meters":1600,"station_id":"ce4bhgp2rcd13ifvqfd0","pricing_plan_id":"free"},{"bike_id":"9d48d986-2988-4976-9fac-1e7c93edd5ab","system_id":"levelo_inurba_marseille","lat":43.2479,"lon":5.374457,"is_reserved":false,"is_disabled":false,"rental_uris":{"android":"levelo://app?vid=9d48d986-2988-4976-9fac-1e7c93edd5ab","ios":"levelo://app?vid=9d48d986-2988-4976-9fac-1e7c93edd5ab"},"vehicle_type_id":"4","last_reported":1702407980,"current_range_meters":7600,"station_id":"ce4bhgh2rcd13ifvqfb0","pricing_plan_id":"free"},{"bike_id":"40177492-25fa-4fba-a6a1-68146e8cc2d0","system_id":"levelo_inurba_marseille","lat":43.2479,"lon":5.374457,"is_reserved":false,"is_disabled":false,"rental_uris":{"android":"levelo://app?vid=40177492-25fa-4fba-a6a1-68146e8cc2d0","ios":"levelo://app?vid=40177492-25fa-4fba-a6a1-68146e8cc2d0"},"vehicle_type_id":"4","last_reported":1702407980,"current_range_meters":18000,"station_id":"ce4bhgh2rcd13ifvqfb0","pricing_plan_id":"free"},{"bike_id":"8378c66c-b377-4161-80a2-1545e302b374","system_id":"levelo_inurba_marseille","lat":43.2479,"lon":5.374457,"is_reserved":false,"is_disabled":false,"rental_uris":{"android":"levelo://app?vid=8378c66c-b377-4161-80a2-1545e302b374","ios":"levelo://app?vid=8378c66c-b377-4161-80a2-1545e302b374"},"vehicle_type_id":"4","last_reported":1702407980,"current_range_meters":4400,"station_id":"ce4bhgh2rcd13ifvqfb0","pricing_plan_id":"free"},{"bike_id":"89cd57c9-7161-4c72-96c1-ff91849bfc07","system_id":"levelo_inurba_marseille","lat":43.250966,"lon":5.395186,"is_reserved":false,"is_disabled":false,"rental_uris":{"android":"levelo://app?vid=89cd57c9-7161-4c72-96c1-ff91849bfc07","ios":"levelo://app?vid=89cd57c9-7161-4c72-96c1-ff91849bfc07"},"vehicle_type_id":"4","last_reported":1702407980,"current_range_meters":0,"station_id":"ce4bhm12rcd13ifvqgkg","pricing_plan_id":"free"},{"bike_id":"64f66d0c-09fe-4d4f-a850-ba65045d0583","system_id":"levelo_inurba_marseille","lat":43.25102,"lon":5.403214,"is_reserved":false,"is_disabled":false,"rental_uris":{"android":"levelo://app?vid=64f66d0c-09fe-4d4f-a850-ba65045d0583","ios":"levelo://app?vid=64f66d0c-09fe-4d4f-a850-ba65045d0583"},"vehicle_type_id":"4","last_reported":1702407980,"current_range_meters":17200,"station_id":"ce4bhlh2rcd13ifvqgig","pricing_plan_id":"free"},{"bike_id":"b7644562-ab82-45de-ae3b-0436066b691f","system_id":"levelo_inurba_marseille","lat":43.246467,"lon":5.388984,"is_reserved":false,"is_disabled":false,"rental_uris":{"android":"levelo://app?vid=b7644562-ab82-45de-ae3b-0436066b691f","ios":"levelo://app?vid=b7644562-ab82-45de-ae3b-0436066b691f"},"vehicle_type_id":"4","last_reported":1702407980,"current_range_meters":25200,"station_id":"ce4bhg12rcd13ifvqf60","pricing_plan_id":"free"},{"bike_id":"98be5ae6-2fa5-4ed0-b17e-d2ac063c89a7","system_id":"levelo_inurba_marseille","lat":43.23963,"lon":5.36625,"is_reserved":false,"is_disabled":false,"rental_uris":{"android":"levelo://app?vid=98be5ae6-2fa5-4ed0-b17e-d2ac063c89a7","ios":"levelo://app?vid=98be5ae6-2fa5-4ed0-b17e-d2ac063c89a7"},"vehicle_type_id":"4","last_reported":1702407980,"current_range_meters":1600,"station_id":"ce4bhi12rcd13ifvqfp0","pricing_plan_id":"free"},{"bike_id":"3dc095af-a885-44c9-b900-c7749334e677","system_id":"levelo_inurba_marseille","lat":43.239588,"lon":5.366238,"is_reserved":false,"is_disabled":false,"rental_uris":{"android":"levelo://app?vid=3dc095af-a885-44c9-b900-c7749334e677","ios":"levelo://app?vid=3dc095af-a885-44c9-b900-c7749334e677"},"vehicle_type_id":"4","last_reported":1702407980,"current_range_meters":9200,"station_id":"ce4bhi12rcd13ifvqfp0","pricing_plan_id":"free"},{"bike_id":"c617b3d2-7e97-4453-afeb-d1eeaadee0bd","system_id":"levelo_inurba_marseille","lat":43.239588,"lon":5.366238,"is_reserved":false,"is_disabled":false,"rental_uris":{"android":"levelo://app?vid=c617b3d2-7e97-4453-afeb-d1eeaadee0bd","ios":"levelo://app?vid=c617b3d2-7e97-4453-afeb-d1eeaadee0bd"},"vehicle_type_id":"4","last_reported":1702407980,"current_range_meters":7600,"station_id":"ce4bhi12rcd13ifvqfp0","pricing_plan_id":"free"},{"bike_id":"e944b70c-6cf0-4fb7-b340-5d638ab83c7f","system_id":"levelo_inurba_marseille","lat":43.241782,"lon":5.397261,"is_reserved":false,"is_disabled":false,"rental_uris":{"android":"levelo://app?vid=e944b70c-6cf0-4fb7-b340-5d638ab83c7f","ios":"levelo://app?vid=e944b70c-6cf0-4fb7-b340-5d638ab83c7f"},"vehicle_type_id":"4","last_reported":1702407980,"current_range_meters":4000,"station_id":"ce4bhn12rcd13ifvqgpg","pricing_plan_id":"free"},{"bike_id":"e5f8a3f9-ad33-4c96-8f80-c9bb436ceb1b","system_id":"levelo_inurba_marseille","lat":43.23583,"lon":5.41046,"is_reserved":false,"is_disabled":false,"rental_uris":{"android":"levelo://app?vid=e5f8a3f9-ad33-4c96-8f80-c9bb436ceb1b","ios":"levelo://app?vid=e5f8a3f9-ad33-4c96-8f80-c9bb436ceb1b"},"vehicle_type_id":"4","last_reported":1702407980,"current_range_meters":14800,"station_id":"","pricing_plan_id":"free"},{"bike_id":"ecc6b30e-afbb-430b-a8fd-f3e07403c9ad","system_id":"levelo_inurba_marseille","lat":43.231794,"lon":5.400052,"is_reserved":false,"is_disabled":false,"rental_uris":{"android":"levelo://app?vid=ecc6b30e-afbb-430b-a8fd-f3e07403c9ad","ios":"levelo://app?vid=ecc6b30e-afbb-430b-a8fd-f3e07403c9ad"},"vehicle_type_id":"4","last_reported":1702407980,"current_range_meters":17200,"station_id":"ce4bhn12rcd13ifvqgqg","pricing_plan_id":"free"},{"bike_id":"677eb956-4a51-4640-9904-41e76368959a","system_id":"levelo_inurba_marseille","lat":43.231794,"lon":5.400052,"is_reserved":false,"is_disabled":false,"rental_uris":{"android":"levelo://app?vid=677eb956-4a51-4640-9904-41e76368959a","ios":"levelo://app?vid=677eb956-4a51-4640-9904-41e76368959a"},"vehicle_type_id":"4","last_reported":1702407980,"current_range_meters":20400,"station_id":"ce4bhn12rcd13ifvqgqg","pricing_plan_id":"free"},{"bike_id":"3b6acbeb-fcf2-4d7f-83a0-ba4dc62f4887","system_id":"levelo_inurba_marseille","lat":43.231794,"lon":5.400052,"is_reserved":false,"is_disabled":false,"rental_uris":{"android":"levelo://app?vid=3b6acbeb-fcf2-4d7f-83a0-ba4dc62f4887","ios":"levelo://app?vid=3b6acbeb-fcf2-4d7f-83a0-ba4dc62f4887"},"vehicle_type_id":"4","last_reported":1702407980,"current_range_meters":10000,"station_id":"ce4bhn12rcd13ifvqgqg","pricing_plan_id":"free"},{"bike_id":"e6e78515-aff2-4fc4-80b5-70f36396b81a","system_id":"levelo_inurba_marseille","lat":43.231794,"lon":5.400052,"is_reserved":false,"is_disabled":false,"rental_uris":{"android":"levelo://app?vid=e6e78515-aff2-4fc4-80b5-70f36396b81a","ios":"levelo://app?vid=e6e78515-aff2-4fc4-80b5-70f36396b81a"},"vehicle_type_id":"4","last_reported":1702407980,"current_range_meters":20400,"station_id":"ce4bhn12rcd13ifvqgqg","pricing_plan_id":"free"},{"bike_id":"5b630b40-ff29-4dd6-a19d-40fab0f10db9","system_id":"levelo_inurba_marseille","lat":43.231794,"lon":5.400052,"is_reserved":false,"is_disabled":false,"rental_uris":{"android":"levelo://app?vid=5b630b40-ff29-4dd6-a19d-40fab0f10db9","ios":"levelo://app?vid=5b630b40-ff29-4dd6-a19d-40fab0f10db9"},"vehicle_type_id":"4","last_reported":1702407980,"current_range_meters":22400,"station_id":"ce4bhn12rcd13ifvqgqg","pricing_plan_id":"free"},{"bike_id":"20c0d9a4-1709-485b-9105-287bac4fabfc","system_id":"levelo_inurba_marseille","lat":43.231794,"lon":5.400052,"is_reserved":false,"is_disabled":false,"rental_uris":{"android":"levelo://app?vid=20c0d9a4-1709-485b-9105-287bac4fabfc","ios":"levelo://app?vid=20c0d9a4-1709-485b-9105-287bac4fabfc"},"vehicle_type_id":"4","last_reported":1702407980,"current_range_meters":16400,"station_id":"ce4bhn12rcd13ifvqgqg","pricing_plan_id":"free"},{"bike_id":"28a81c8f-eba8-456c-89c4-2281c172fec8","system_id":"levelo_inurba_marseille","lat":43.231794,"lon":5.400052,"is_reserved":false,"is_disabled":false,"rental_uris":{"android":"levelo://app?vid=28a81c8f-eba8-456c-89c4-2281c172fec8","ios":"levelo://app?vid=28a81c8f-eba8-456c-89c4-2281c172fec8"},"vehicle_type_id":"4","last_reported":1702407980,"current_range_meters":0,"station_id":"ce4bhn12rcd13ifvqgqg","pricing_plan_id":"free"},{"bike_id":"1be76f22-8444-4e2d-9afa-4afe0c0d59c6","system_id":"levelo_inurba_marseille","lat":43.231793,"lon":5.400044,"is_reserved":false,"is_disabled":false,"rental_uris":{"android":"levelo://app?vid=1be76f22-8444-4e2d-9afa-4afe0c0d59c6","ios":"levelo://app?vid=1be76f22-8444-4e2d-9afa-4afe0c0d59c6"},"vehicle_type_id":"4","last_reported":1702407980,"current_range_meters":10800,"station_id":"ce4bhn12rcd13ifvqgqg","pricing_plan_id":"free"}]}}