{"last_updated":1753294547,"ttl":60,"version":"2.2","data":{"bikes":[{"bike_id":"42413a25-16d1-4419-b44a-45580e0c6ac6","system_id":"levelo_inurba_marseille","lat":43.33775,"lon":5.37456,"is_reserved":false,"is_disabled":false,"rental_uris":{"android":"levelo://app?vid=42413a25-16d1-4419-b44a-45580e0c6ac6","ios":"levelo://app?vid=42413a25-16d1-4419-b44a-45580e0c6ac6"},"vehicle_type_id":"4","last_reported":1753294548,"current_range_meters":2800,"station_id":"","pricing_plan_id":"cebpf4jnsgd1na2vs0mg"},{"bike_id":"4c32811e-3d3b-4d73-bc5d-c29a94ecb6af","system_id":"levelo_inurba_marseille","lat":43.2668,"lon":5.38269,"is_reserved":false,"is_disabled":false,"rental_uris":{"android":"levelo://app?vid=4c32811e-3d3b-4d73-bc5d-c29a94ecb6af","ios":"levelo://app?vid=4c32811e-3d3b-4d73-bc5d-c29a94ecb6af"},"vehicle_type_id":"4","last_reported":1753294548,"current_range_meters":2000,"station_id":"ce4bhg92rcd13ifvqf90","pricing_plan_id":"cebpf4jnsgd1na2vs0mg"},{"bike_id":"338d5c8c-c201-4687-b356-7cfe48872beb","system_id":"levelo_inurba_marseille","lat":43.2861,"lon":5.35098,"is_reserved":false,"is_disabled":true,"rental_uris":{"android":"levelo://app?vid=338d5c8c-c201-4687-b356-7cfe48872beb","ios":"levelo://app?vid=338d5c8c-c201-4687-b356-7cfe48872beb"},"vehicle_type_id":"4","last_reported":1753294548,"current_range_meters":2800,"station_id":"ce4bhch2rcd13ifvqeug","pricing_plan_id":"cebpf4jnsgd1na2vs0mg"},{"bike_id":"88152fcb-31d8-4aa9-899e-097a36a5fd1a","system_id":"levelo_inurba_marseille","lat":43.28405,"lon":5.37503,"is_reserved":false,"is_disabled":false,"rental_uris":{"android":"levelo://app?vid=88152fcb-31d8-4aa9-899e-097a36a5fd1a","ios":"levelo://app?vid=88152fcb-31d8-4aa9-899e-097a36a5fd1a"},"vehicle_type_id":"4","last_reported":1753294548,"current_range_meters":2800,"station_id":"ce4bh412rcd13ifvqds0","pricing_plan_id":"cebpf4jnsgd1na2vs0mg"},{"bike_id":"793637c9-d921-41d8-8b13-684911df3b46","system_id":"levelo_inurba_marseille","lat":43.255,"lon":5.37646,"is_reserved":false,"is_disabled":false,"rental_uris":{"android":"levelo://app?vid=793637c9-d921-41d8-8b13-684911df3b46","ios":"levelo://app?vid=793637c9-d921-41d8-8b13-684911df3b46"},"vehicle_type_id":"4","last_reported":1753294548,"current_range_meters":2800,"station_id":"ce4bhh12rcd13ifvqff0","pricing_plan_id":"cebpf4jnsgd1na2vs0mg"},{"bike_id":"a35e0d3b-7b45-4544-b22a-dfb6ea3016e8","system_id":"levelo_inurba_marseille","lat":43.29498,"lon":5.3818,"is_reserved":false,"is_disabled":false,"rental_uris":{"android":"levelo://app?vid=a35e0d3b-7b45-4544-b22a-dfb6ea3016e8","ios":"levelo://app?vid=a35e0d3b-7b45-4544-b22a-dfb6ea3016e8"},"vehicle_type_id":"4","last_reported":1753294548,"current_range_meters":3200,"station_id":"","pricing_plan_id":"cebpf4jnsgd1na2vs0mg"},{"bike_id":"9cb726da-72d0-44e4-830c-69a1c23bdf3c","system_id":"levelo_inurba_marseille","lat":43.296436,"lon":5.371279,"is_reserved":false,"is_disabled":true,"rental_uris":{"android":"levelo://app?vid=9cb726da-72d0-44e4-830c-69a1c23bdf3c","ios":"levelo://app?vid=9cb726da-72d0-44e4-830c-69a1c23bdf3c"},"vehicle_type_id":"4","last_reported":1753294548,"current_range_meters":3200,"station_id":"ce4bgnh2rcd13ifvqc0g","pricing_plan_id":"cebpf4jnsgd1na2vs0mg"},{"bike_id":"1f7dd932-0791-4b9d-bcf9-e0dd51f9f5d9","system_id":"levelo_inurba_marseille","lat":43.29278,"lon":5.36844,"is_reserved":false,"is_disabled":false,"rental_uris":{"android":"levelo://app?vid=1f7dd932-0791-4b9d-bcf9-e0dd51f9f5d9","ios":"levelo://app?vid=1f7dd932-0791-4b9d-bcf9-e0dd51f9f5d9"},"vehicle_type_id":"4","last_reported":1753294548,"current_range_meters":3600,"station_id":"ce4bhbp2rcd13ifvqesg","pricing_plan_id":"cebpf4jnsgd1na2vs0mg"},{"bike_id":"e4200886-316e-41d4-87c8-1a4cb9b51d06","system_id":"levelo_inurba_marseille","lat":43.28107,"lon":5.37834,"is_reserved":false,"is_disabled":false,"rental_uris":{"android":"levelo://app?vid=e4200886-316e-41d4-87c8-1a4cb9b51d06","ios":"levelo://app?vid=e4200886-316e-41d4-87c8-1a4cb9b51d06"},"vehicle_type_id":"4","last_reported":1753294548,"current_range_meters":3600,"station_id":"ce4bha12rcd13ifvqee0","pricing_plan_id":"cebpf4jnsgd1na2vs0mg"},{"bike_id":"750e2067-b825-4a14-b693-761d574c56b8","system_id":"levelo_inurba_marseille","lat":43.27908,"lon":5.38007,"is_reserved":false,"is_disabled":false,"rental_uris":{"android":"levelo://app?vid=750e2067-b825-4a14-b693-761d574c56b8","ios":"levelo://app?vid=750e2067-b825-4a14-b693-761d574c56b8"},"vehicle_type_id":"4","last_reported":1753294548,"current_range_meters":3200,"station_id":"ce4bhf92rcd13ifvqf50","pricing_plan_id":"cebpf4jnsgd1na2vs0mg"},{"bike_id":"2d064cbe-e53f-4acd-9696-3e69e33ae0df","system_id":"levelo_inurba_marseille","lat":43.31249,"lon":5.36825,"is_reserved":false,"is_disabled":false,"rental_uris":{"android":"levelo://app?vid=2d064cbe-e53f-4acd-9696-3e69e33ae0df","ios":"levelo://app?vid=2d064cbe-e53f-4acd-9696-3e69e33ae0df"},"vehicle_type_id":"4","last_reported":1753294548,"current_range_meters":3200,"station_id":"ce4bgl92rcd13ifvqbq0","pricing_plan_id":"cebpf4jnsgd1na2vs0mg"},{"bike_id":"b41a9530-5211-4ccc-8bbf-3fd5aa2b9eb3","system_id":"levelo_inurba_marseille","lat":43.26219,"lon":5.37429,"is_reserved":false,"is_disabled":false,"rental_uris":{"android":"levelo://app?vid=b41a9530-5211-4ccc-8bbf-3fd5aa2b9eb3","ios":"levelo://app?vid=b41a9530-5211-4ccc-8bbf-3fd5aa2b9eb3"},"vehicle_type_id":"4","last_reported":1753294548,"current_range_meters":4000,"station_id":"ce4bhgp2rcd13ifvqfc0","pricing_plan_id":"cebpf4jnsgd1na2vs0mg"},{"bike_id":"25f80c9a-fada-4bb2-a561-8e2cac97974f","system_id":"levelo_inurba_marseille","lat":43.24165,"lon":5.36389,"is_reserved":false,"is_disabled":false,"rental_uris":{"android":"levelo://app?vid=25f80c9a-fada-4bb2-a561-8e2cac97974f","ios":"levelo://app?vid=25f80c9a-fada-4bb2-a561-8e2cac97974f"},"vehicle_type_id":"4","last_reported":1753294548,"current_range_meters":4000,"station_id":"cpo36qri1sfpv3e86is0","pricing_plan_id":"cebpf4jnsgd1na2vs0mg"},{"bike_id":"336926f1-25c5-43ea-876a-34a8de301c80","system_id":"levelo_inurba_marseille","lat":43.29601,"lon":5.38093,"is_reserved":false,"is_disabled":false,"rental_uris":{"android":"levelo://app?vid=336926f1-25c5-43ea-876a-34a8de301c80","ios":"levelo://app?vid=336926f1-25c5-43ea-876a-34a8de301c80"},"vehicle_type_id":"4","last_reported":1753294548,"current_range_meters":4400,"station_id":"ce4bgl12rcd13ifvqbo0","pricing_plan_id":"cebpf4jnsgd1na2vs0mg"},{"bike_id":"f423181d-3347-41e7-a32c-5c749b53880c","system_id":"levelo_inurba_marseille","lat":43.26554,"lon":5.37284,"is_reserved":false,"is_disabled":false,"rental_uris":{"android":"levelo://app?vid=f423181d-3347-41e7-a32c-5c749b53880c","ios":"levelo://app?vid=f423181d-3347-41e7-a32c-5c749b53880c"},"vehicle_type_id":"4","last_reported":1753294548,"current_range_meters":4400,"station_id":"ce4bhg12rcd13ifvqf70","pricing_plan_id":"cebpf4jnsgd1na2vs0mg"},{"bike_id":"83da38a8-6702-427a-b369-94cd1b7afea0","system_id":"levelo_inurba_marseille","lat":43.292687,"lon":5.384454,"is_reserved":false,"is_disabled":false,"rental_uris":{"android":"levelo://app?vid=83da38a8-6702-427a-b369-94cd1b7afea0","ios":"levelo://app?vid=83da38a8-6702-427a-b369-94cd1b7afea0"},"vehicle_type_id":"4","last_reported":1753294548,"current_range_meters":4400,"station_id":"ce4bh692rcd13ifvqea0","pricing_plan_id":"cebpf4jnsgd1na2vs0mg"},{"bike_id":"5cccb452-224d-486f-8f55-ab6f9fb0d289","system_id":"levelo_inurba_marseille","lat":43.30081,"lon":5.39759,"is_reserved":false,"is_disabled":false,"rental_uris":{"android":"levelo://app?vid=5cccb452-224d-486f-8f55-ab6f9fb0d289","ios":"levelo://app?vid=5cccb452-224d-486f-8f55-ab6f9fb0d289"},"vehicle_type_id":"4","last_reported":1753294548,"current_range_meters":4400,"station_id":"","pricing_plan_id":"cebpf4jnsgd1na2vs0mg"},{"bike_id":"9d99ffd1-6a3c-4e76-a6a1-3c3c0edbd84e","system_id":"levelo_inurba_marseille","lat":43.2781,"lon":5.40708,"is_reserved":false,"is_disabled":false,"rental_uris":{"android":"levelo://app?vid=9d99ffd1-6a3c-4e76-a6a1-3c3c0edbd84e","ios":"levelo://app?vid=9d99ffd1-6a3c-4e76-a6a1-3c3c0edbd84e"},"vehicle_type_id":"4","last_reported":1753294548,"current_range_meters":4000,"station_id":"ce4bhnh2rcd13ifvqgtg","pricing_plan_id":"cebpf4jnsgd1na2vs0mg"},{"bike_id":"a8d30eb7-0c75-4ead-a6e5-8bd00c839545","system_id":"levelo_inurba_marseille","lat":43.297319,"lon":5.365823,"is_reserved":false,"is_disabled":false,"rental_uris":{"android":"levelo://app?vid=a8d30eb7-0c75-4ead-a6e5-8bd00c839545","ios":"levelo://app?vid=a8d30eb7-0c75-4ead-a6e5-8bd00c839545"},"vehicle_type_id":"4","last_reported":1753294548,"current_range_meters":4800,"station_id":"","pricing_plan_id":"cebpf4jnsgd1na2vs0mg"},{"bike_id":"37f104c7-9133-4b7b-bf51-a0955f0218ed","system_id":"levelo_inurba_marseille","lat":43.29894,"lon":5.4367,"is_reserved":false,"is_disabled":false,"rental_uris":{"android":"levelo://app?vid=37f104c7-9133-4b7b-bf51-a0955f0218ed","ios":"levelo://app?vid=37f104c7-9133-4b7b-bf51-a0955f0218ed"},"vehicle_type_id":"4","last_reported":1753294548,"current_range_meters":4800,"station_id":"ce4bhpp2rcd13ifvqhfg","pricing_plan_id":"cebpf4jnsgd1na2vs0mg"},{"bike_id":"e1286f66-c7fa-47b8-ad70-1d84646dd67e","system_id":"levelo_inurba_marseille","lat":43.307288,"lon":5.424392,"is_reserved":false,"is_disabled":false,"rental_uris":{"android":"levelo://app?vid=e1286f66-c7fa-47b8-ad70-1d84646dd67e","ios":"levelo://app?vid=e1286f66-c7fa-47b8-ad70-1d84646dd67e"},"vehicle_type_id":"4","last_reported":1753294548,"current_range_meters":5600,"station_id":"st_cvj6ca6bvosntc0bfgr0","pricing_plan_id":"cebpf4jnsgd1na2vs0mg"},{"bike_id":"3e672a12-a06c-421d-8d90-001874a4fd84","system_id":"levelo_inurba_marseille","lat":43.30204,"lon":5.39448,"is_reserved":false,"is_disabled":true,"rental_uris":{"android":"levelo://app?vid=3e672a12-a06c-421d-8d90-001874a4fd84","ios":"levelo://app?vid=3e672a12-a06c-421d-8d90-001874a4fd84"},"vehicle_type_id":"4","last_reported":1753294548,"current_range_meters":6000,"station_id":"ce4bh0p2rcd13ifvqd70","pricing_plan_id":"cebpf4jnsgd1na2vs0mg"},{"bike_id":"864b44ae-c706-4d52-9eee-e3b4575ad0dd","system_id":"levelo_inurba_marseille","lat":43.255,"lon":5.37647,"is_reserved":false,"is_disabled":false,"rental_uris":{"android":"levelo://app?vid=864b44ae-c706-4d52-9eee-e3b4575ad0dd","ios":"levelo://app?vid=864b44ae-c706-4d52-9eee-e3b4575ad0dd"},"vehicle_type_id":"4","last_reported":1753294548,"current_range_meters":6000,"station_id":"ce4bhh12rcd13ifvqff0","pricing_plan_id":"cebpf4jnsgd1na2vs0mg"},{"bike_id":"643f0fb5-efa7-48ec-88d4-7171dc70915b","system_id":"levelo_inurba_marseille","lat":43.29252,"lon":5.37626,"is_reserved":false,"is_disabled":false,"rental_uris":{"android":"levelo://app?vid=643f0fb5-efa7-48ec-88d4-7171dc70915b","ios":"levelo://app?vid=643f0fb5-efa7-48ec-88d4-7171dc70915b"},"vehicle_type_id":"4","last_reported":1753294548,"current_range_meters":6000,"station_id":"ce4bgi12rcd13ifvqb80","pricing_plan_id":"cebpf4jnsgd1na2vs0mg"},{"bike_id":"80fcadf5-6bdb-45dd-9061-216176a488c2","system_id":"levelo_inurba_marseille","lat":43.29931,"lon":5.36544,"is_reserved":false,"is_disabled":false,"rental_uris":{"android":"levelo://app?vid=80fcadf5-6bdb-45dd-9061-216176a488c2","ios":"levelo://app?vid=80fcadf5-6bdb-45dd-9061-216176a488c2"},"vehicle_type_id":"4","last_reported":1753294548,"current_range_meters":6400,"station_id":"ce4bgm92rcd13ifvqbr0","pricing_plan_id":"cebpf4jnsgd1na2vs0mg"},{"bike_id":"8c3466f5-9e6b-42c6-8075-c37965fb4db6","system_id":"levelo_inurba_marseille","lat":43.29518,"lon":5.39392,"is_reserved":false,"is_disabled":true,"rental_uris":{"android":"levelo://app?vid=8c3466f5-9e6b-42c6-8075-c37965fb4db6","ios":"levelo://app?vid=8c3466f5-9e6b-42c6-8075-c37965fb4db6"},"vehicle_type_id":"4","last_reported":1753294548,"current_range_meters":6400,"station_id":"ce4bh292rcd13ifvqdf0","pricing_plan_id":"cebpf4jnsgd1na2vs0mg"},{"bike_id":"83766871-d64f-4fc8-9d3b-2ceaf03b1036","system_id":"levelo_inurba_marseille","lat":43.21189,"lon":5.35049,"is_reserved":false,"is_disabled":false,"rental_uris":{"android":"levelo://app?vid=83766871-d64f-4fc8-9d3b-2ceaf03b1036","ios":"levelo://app?vid=83766871-d64f-4fc8-9d3b-2ceaf03b1036"},"vehicle_type_id":"4","last_reported":1753294548,"current_range_meters":6400,"station_id":"st_cvj6sg6p6f1abm77japg","pricing_plan_id":"cebpf4jnsgd1na2vs0mg"},{"bike_id":"515210a5-884a-41de-969d-7e9369efb835","system_id":"levelo_inurba_marseille","lat":43.27988,"lon":5.41647,"is_reserved":false,"is_disabled":false,"rental_uris":{"android":"levelo://app?vid=515210a5-884a-41de-969d-7e9369efb835","ios":"levelo://app?vid=515210a5-884a-41de-969d-7e9369efb835"},"vehicle_type_id":"4","last_reported":1753294548,"current_range_meters":6400,"station_id":"ce4bho12rcd13ifvqh1g","pricing_plan_id":"cebpf4jnsgd1na2vs0mg"},{"bike_id":"84436960-8f61-46d2-982c-ab1f6790289f","system_id":"levelo_inurba_marseille","lat":43.29025,"lon":5.38631,"is_reserved":false,"is_disabled":false,"rental_uris":{"android":"levelo://app?vid=84436960-8f61-46d2-982c-ab1f6790289f","ios":"levelo://app?vid=84436960-8f61-46d2-982c-ab1f6790289f"},"vehicle_type_id":"4","last_reported":1753294548,"current_range_meters":6800,"station_id":"ce4bh4p2rcd13ifvqe0g","pricing_plan_id":"cebpf4jnsgd1na2vs0mg"},{"bike_id":"6664b110-6024-4d10-904c-70f0e732d65e","system_id":"levelo_inurba_marseille","lat":43.26212,"lon":5.37419,"is_reserved":false,"is_disabled":true,"rental_uris":{"android":"levelo://app?vid=6664b110-6024-4d10-904c-70f0e732d65e","ios":"levelo://app?vid=6664b110-6024-4d10-904c-70f0e732d65e"},"vehicle_type_id":"4","last_reported":1753294548,"current_range_meters":6800,"station_id":"ce4bhgp2rcd13ifvqfc0","pricing_plan_id":"cebpf4jnsgd1na2vs0mg"},{"bike_id":"648722b0-435f-4b7f-8979-9d8eec5a52d9","system_id":"levelo_inurba_marseille","lat":43.224807,"lon":5.347637,"is_reserved":false,"is_disabled":false,"rental_uris":{"android":"levelo://app?vid=648722b0-435f-4b7f-8979-9d8eec5a52d9","ios":"levelo://app?vid=648722b0-435f-4b7f-8979-9d8eec5a52d9"},"vehicle_type_id":"4","last_reported":1753294548,"current_range_meters":6800,"station_id":"st_cvj5dfep6f1abm77gieg","pricing_plan_id":"cebpf4jnsgd1na2vs0mg"},{"bike_id":"e8edd34f-dbef-48b9-a140-a809abb33f78","system_id":"levelo_inurba_marseille","lat":43.29846,"lon":5.36276,"is_reserved":false,"is_disabled":false,"rental_uris":{"android":"levelo://app?vid=e8edd34f-dbef-48b9-a140-a809abb33f78","ios":"levelo://app?vid=e8edd34f-dbef-48b9-a140-a809abb33f78"},"vehicle_type_id":"4","last_reported":1753294548,"current_range_meters":6800,"station_id":"ce4bgpp2rcd13ifvqc3g","pricing_plan_id":"cebpf4jnsgd1na2vs0mg"},{"bike_id":"f985bce5-57ad-464e-88e4-3089f34f7681","system_id":"levelo_inurba_marseille","lat":43.298469,"lon":5.362865,"is_reserved":false,"is_disabled":false,"rental_uris":{"android":"levelo://app?vid=f985bce5-57ad-464e-88e4-3089f34f7681","ios":"levelo://app?vid=f985bce5-57ad-464e-88e4-3089f34f7681"},"vehicle_type_id":"4","last_reported":1753294548,"current_range_meters":6800,"station_id":"","pricing_plan_id":"cebpf4jnsgd1na2vs0mg"},{"bike_id":"ec0adf83-6184-4d63-a8bd-8a4c46331101","system_id":"levelo_inurba_marseille","lat":43.26069,"lon":5.39384,"is_reserved":false,"is_disabled":true,"rental_uris":{"android":"levelo://app?vid=ec0adf83-6184-4d63-a8bd-8a4c46331101","ios":"levelo://app?vid=ec0adf83-6184-4d63-a8bd-8a4c46331101"},"vehicle_type_id":"4","last_reported":1753294548,"current_range_meters":6800,"station_id":"ce4bhh92rcd13ifvqfj0","pricing_plan_id":"cebpf4jnsgd1na2vs0mg"},{"bike_id":"13bff831-2cc5-482d-8db5-e2cd49eba06c","system_id":"levelo_inurba_marseille","lat":43.323443,"lon":5.406243,"is_reserved":false,"is_disabled":false,"rental_uris":{"android":"levelo://app?vid=13bff831-2cc5-482d-8db5-e2cd49eba06c","ios":"levelo://app?vid=13bff831-2cc5-482d-8db5-e2cd49eba06c"},"vehicle_type_id":"4","last_reported":1753294548,"current_range_meters":7200,"station_id":"ce4bhq92rcd13ifvqhjg","pricing_plan_id":"cebpf4jnsgd1na2vs0mg"},{"bike_id":"849da715-ac07-4d31-8a39-f675de33955e","system_id":"levelo_inurba_marseille","lat":43.29585,"lon":5.36751,"is_reserved":false,"is_disabled":false,"rental_uris":{"android":"levelo://app?vid=849da715-ac07-4d31-8a39-f675de33955e","ios":"levelo://app?vid=849da715-ac07-4d31-8a39-f675de33955e"},"vehicle_type_id":"4","last_reported":1753294548,"current_range_meters":7200,"station_id":"ce4bgph2rcd13ifvqc2g","pricing_plan_id":"cebpf4jnsgd1na2vs0mg"},{"bike_id":"81f48beb-cba8-4a10-929a-d7834448108c","system_id":"levelo_inurba_marseille","lat":43.33265,"lon":5.39892,"is_reserved":false,"is_disabled":false,"rental_uris":{"android":"levelo://app?vid=81f48beb-cba8-4a10-929a-d7834448108c","ios":"levelo://app?vid=81f48beb-cba8-4a10-929a-d7834448108c"},"vehicle_type_id":"4","last_reported":1753294548,"current_range_meters":7200,"station_id":"","pricing_plan_id":"cebpf4jnsgd1na2vs0mg"},{"bike_id":"99173897-32d2-4b73-8a19-37720a1da5d8","system_id":"levelo_inurba_marseille","lat":43.30246,"lon":5.40044,"is_reserved":false,"is_disabled":false,"rental_uris":{"android":"levelo://app?vid=99173897-32d2-4b73-8a19-37720a1da5d8","ios":"levelo://app?vid=99173897-32d2-4b73-8a19-37720a1da5d8"},"vehicle_type_id":"4","last_reported":1753294548,"current_range_meters":7200,"station_id":"ce4bgvh2rcd13ifvqcs0","pricing_plan_id":"cebpf4jnsgd1na2vs0mg"},{"bike_id":"97f010fe-5e02-4a28-bcb3-2c90c9ddd00a","system_id":"levelo_inurba_marseille","lat":43.29705,"lon":5.36606,"is_reserved":false,"is_disabled":false,"rental_uris":{"android":"levelo://app?vid=97f010fe-5e02-4a28-bcb3-2c90c9ddd00a","ios":"levelo://app?vid=97f010fe-5e02-4a28-bcb3-2c90c9ddd00a"},"vehicle_type_id":"4","last_reported":1753294548,"current_range_meters":6800,"station_id":"ce4bgn12rcd13ifvqbt0","pricing_plan_id":"cebpf4jnsgd1na2vs0mg"},{"bike_id":"497bee1f-7cc3-4834-9c86-e4654afa079b","system_id":"levelo_inurba_marseille","lat":43.245572,"lon":5.3734,"is_reserved":false,"is_disabled":false,"rental_uris":{"android":"levelo://app?vid=497bee1f-7cc3-4834-9c86-e4654afa079b","ios":"levelo://app?vid=497bee1f-7cc3-4834-9c86-e4654afa079b"},"vehicle_type_id":"4","last_reported":1753294548,"current_range_meters":8000,"station_id":"ce4bhlh2rcd13ifvqgig","pricing_plan_id":"cebpf4jnsgd1na2vs0mg"},{"bike_id":"d07f0755-aca6-4050-807e-9c5aaf0dd619","system_id":"levelo_inurba_marseille","lat":43.296823,"lon":5.372723,"is_reserved":false,"is_disabled":true,"rental_uris":{"android":"levelo://app?vid=d07f0755-aca6-4050-807e-9c5aaf0dd619","ios":"levelo://app?vid=d07f0755-aca6-4050-807e-9c5aaf0dd619"},"vehicle_type_id":"4","last_reported":1753294548,"current_range_meters":8000,"station_id":"ce4bgk12rcd13ifvqbj0","pricing_plan_id":"cebpf4jnsgd1na2vs0mg"},{"bike_id":"58694015-16d0-48b2-b43d-dabb7c04f577","system_id":"levelo_inurba_marseille","lat":43.29386,"lon":5.43347,"is_reserved":false,"is_disabled":false,"rental_uris":{"android":"levelo://app?vid=58694015-16d0-48b2-b43d-dabb7c04f577","ios":"levelo://app?vid=58694015-16d0-48b2-b43d-dabb7c04f577"},"vehicle_type_id":"4","last_reported":1753294548,"current_range_meters":8000,"station_id":"","pricing_plan_id":"cebpf4jnsgd1na2vs0mg"},{"bike_id":"64e8d229-46e1-4146-baaf-1c6bd6e0fa50","system_id":"levelo_inurba_marseille","lat":43.2984,"lon":5.36256,"is_reserved":false,"is_disabled":false,"rental_uris":{"android":"levelo://app?vid=64e8d229-46e1-4146-baaf-1c6bd6e0fa50","ios":"levelo://app?vid=64e8d229-46e1-4146-baaf-1c6bd6e0fa50"},"vehicle_type_id":"4","last_reported":1753294548,"current_range_meters":8000,"station_id":"ce4bgpp2rcd13ifvqc3g","pricing_plan_id":"cebpf4jnsgd1na2vs0mg"},{"bike_id":"601998bf-e6f6-494f-9dfd-8e6c02c083cf","system_id":"levelo_inurba_marseille","lat":43.29035,"lon":5.39952,"is_reserved":false,"is_disabled":false,"rental_uris":{"android":"levelo://app?vid=601998bf-e6f6-494f-9dfd-8e6c02c083cf","ios":"levelo://app?vid=601998bf-e6f6-494f-9dfd-8e6c02c083cf"},"vehicle_type_id":"4","last_reported":1753294548,"current_range_meters":7200,"station_id":"ce4bh392rcd13ifvqdm0","pricing_plan_id":"cebpf4jnsgd1na2vs0mg"},{"bike_id":"9ae7d50c-a3ea-4136-8080-315c191e000a","system_id":"levelo_inurba_marseille","lat":43.287694,"lon":5.384078,"is_reserved":false,"is_disabled":false,"rental_uris":{"android":"levelo://app?vid=9ae7d50c-a3ea-4136-8080-315c191e000a","ios":"levelo://app?vid=9ae7d50c-a3ea-4136-8080-315c191e000a"},"vehicle_type_id":"4","last_reported":1753294548,"current_range_meters":8000,"station_id":"","pricing_plan_id":"cebpf4jnsgd1na2vs0mg"},{"bike_id":"63551a1b-0c67-47ad-86d2-945ef86dda35","system_id":"levelo_inurba_marseille","lat":43.25866,"lon":5.39896,"is_reserved":false,"is_disabled":false,"rental_uris":{"android":"levelo://app?vid=63551a1b-0c67-47ad-86d2-945ef86dda35","ios":"levelo://app?vid=63551a1b-0c67-47ad-86d2-945ef86dda35"},"vehicle_type_id":"4","last_reported":1753294548,"current_range_meters":8000,"station_id":"ce4bhl92rcd13ifvqghg","pricing_plan_id":"cebpf4jnsgd1na2vs0mg"},{"bike_id":"b7d503ca-10ca-47f1-9a76-4f714692f0ed","system_id":"levelo_inurba_marseille","lat":43.29866,"lon":5.36254,"is_reserved":false,"is_disabled":false,"rental_uris":{"android":"levelo://app?vid=b7d503ca-10ca-47f1-9a76-4f714692f0ed","ios":"levelo://app?vid=b7d503ca-10ca-47f1-9a76-4f714692f0ed"},"vehicle_type_id":"4","last_reported":1753294548,"current_range_meters":8000,"station_id":"ce4bgpp2rcd13ifvqc3g","pricing_plan_id":"cebpf4jnsgd1na2vs0mg"},{"bike_id":"86ac495b-bee6-475d-b48d-1c894ff87bb8","system_id":"levelo_inurba_marseille","lat":43.28617,"lon":5.35104,"is_reserved":false,"is_disabled":false,"rental_uris":{"android":"levelo://app?vid=86ac495b-bee6-475d-b48d-1c894ff87bb8","ios":"levelo://app?vid=86ac495b-bee6-475d-b48d-1c894ff87bb8"},"vehicle_type_id":"4","last_reported":1753294548,"current_range_meters":8000,"station_id":"ce4bhch2rcd13ifvqeug","pricing_plan_id":"cebpf4jnsgd1na2vs0mg"},{"bike_id":"422d4c10-d1b3-4cb3-a65e-b68a9d838966","system_id":"levelo_inurba_marseille","lat":43.29931,"lon":5.36551,"is_reserved":false,"is_disabled":false,"rental_uris":{"android":"levelo://app?vid=422d4c10-d1b3-4cb3-a65e-b68a9d838966","ios":"levelo://app?vid=422d4c10-d1b3-4cb3-a65e-b68a9d838966"},"vehicle_type_id":"4","last_reported":1753294548,"current_range_meters":8000,"station_id":"ce4bgm92rcd13ifvqbr0","pricing_plan_id":"cebpf4jnsgd1na2vs0mg"},{"bike_id":"e3e1acfb-9e07-4893-ba9e-6683003ec134","system_id":"levelo_inurba_marseille","lat":43.30256,"lon":5.40098,"is_reserved":false,"is_disabled":false,"rental_uris":{"android":"levelo://app?vid=e3e1acfb-9e07-4893-ba9e-6683003ec134","ios":"levelo://app?vid=e3e1acfb-9e07-4893-ba9e-6683003ec134"},"vehicle_type_id":"4","last_reported":1753294548,"current_range_meters":8000,"station_id":"ce4bgvh2rcd13ifvqcs0","pricing_plan_id":"cebpf4jnsgd1na2vs0mg"},{"bike_id":"3c9678bd-8534-4cad-9adf-0a76d5e5d5cd","system_id":"levelo_inurba_marseille","lat":43.317517,"lon":5.390097,"is_reserved":false,"is_disabled":false,"rental_uris":{"android":"levelo://app?vid=3c9678bd-8534-4cad-9adf-0a76d5e5d5cd","ios":"levelo://app?vid=3c9678bd-8534-4cad-9adf-0a76d5e5d5cd"},"vehicle_type_id":"4","last_reported":1753294548,"current_range_meters":8400,"station_id":"ce4bhqp2rcd13ifvqhng","pricing_plan_id":"cebpf4jnsgd1na2vs0mg"},{"bike_id":"5e69064f-1cae-4de9-b747-e310f6871a51","system_id":"levelo_inurba_marseille","lat":43.26212,"lon":5.37924,"is_reserved":false,"is_disabled":false,"rental_uris":{"android":"levelo://app?vid=5e69064f-1cae-4de9-b747-e310f6871a51","ios":"levelo://app?vid=5e69064f-1cae-4de9-b747-e310f6871a51"},"vehicle_type_id":"4","last_reported":1753294548,"current_range_meters":8400,"station_id":"ce4bhjp2rcd13ifvqg90","pricing_plan_id":"cebpf4jnsgd1na2vs0mg"},{"bike_id":"166b1ba2-a316-4896-aea4-973416d13737","system_id":"levelo_inurba_marseille","lat":43.29851,"lon":5.36291,"is_reserved":false,"is_disabled":false,"rental_uris":{"android":"levelo://app?vid=166b1ba2-a316-4896-aea4-973416d13737","ios":"levelo://app?vid=166b1ba2-a316-4896-aea4-973416d13737"},"vehicle_type_id":"4","last_reported":1753294548,"current_range_meters":8400,"station_id":"ce4bgpp2rcd13ifvqc3g","pricing_plan_id":"cebpf4jnsgd1na2vs0mg"},{"bike_id":"9fb848e4-6b95-4c66-a449-f3c55be64ec1","system_id":"levelo_inurba_marseille","lat":43.29268,"lon":5.38434,"is_reserved":false,"is_disabled":false,"rental_uris":{"android":"levelo://app?vid=9fb848e4-6b95-4c66-a449-f3c55be64ec1","ios":"levelo://app?vid=9fb848e4-6b95-4c66-a449-f3c55be64ec1"},"vehicle_type_id":"4","last_reported":1753294548,"current_range_meters":8400,"station_id":"ce4bh692rcd13ifvqea0","pricing_plan_id":"cebpf4jnsgd1na2vs0mg"},{"bike_id":"900aa4aa-63b6-4eb6-aeb5-581c27a21b59","system_id":"levelo_inurba_marseille","lat":43.29623,"lon":5.37124,"is_reserved":false,"is_disabled":false,"rental_uris":{"android":"levelo://app?vid=900aa4aa-63b6-4eb6-aeb5-581c27a21b59","ios":"levelo://app?vid=900aa4aa-63b6-4eb6-aeb5-581c27a21b59"},"vehicle_type_id":"4","last_reported":1753294548,"current_range_meters":8400,"station_id":"ce4bgnh2rcd13ifvqc0g","pricing_plan_id":"cebpf4jnsgd1na2vs0mg"},{"bike_id":"59acf8ab-5058-43d4-acff-655a46c76235","system_id":"levelo_inurba_marseille","lat":43.28944,"lon":5.36397,"is_reserved":false,"is_disabled":false,"rental_uris":{"android":"levelo://app?vid=59acf8ab-5058-43d4-acff-655a46c76235","ios":"levelo://app?vid=59acf8ab-5058-43d4-acff-655a46c76235"},"vehicle_type_id":"4","last_reported":1753294548,"current_range_meters":8400,"station_id":"ce4bhc92rcd13ifvqetg","pricing_plan_id":"cebpf4jnsgd1na2vs0mg"},{"bike_id":"ba1dc6ef-1d4b-44a1-8663-5a62f769bab4","system_id":"levelo_inurba_marseille","lat":43.255,"lon":5.37648,"is_reserved":false,"is_disabled":false,"rental_uris":{"android":"levelo://app?vid=ba1dc6ef-1d4b-44a1-8663-5a62f769bab4","ios":"levelo://app?vid=ba1dc6ef-1d4b-44a1-8663-5a62f769bab4"},"vehicle_type_id":"4","last_reported":1753294548,"current_range_meters":8000,"station_id":"ce4bhh12rcd13ifvqff0","pricing_plan_id":"cebpf4jnsgd1na2vs0mg"},{"bike_id":"a5f1f0d6-c678-45f4-9b29-96eaa29a3e36","system_id":"levelo_inurba_marseille","lat":43.25154,"lon":5.37297,"is_reserved":false,"is_disabled":true,"rental_uris":{"android":"levelo://app?vid=a5f1f0d6-c678-45f4-9b29-96eaa29a3e36","ios":"levelo://app?vid=a5f1f0d6-c678-45f4-9b29-96eaa29a3e36"},"vehicle_type_id":"4","last_reported":1753294548,"current_range_meters":8400,"station_id":"","pricing_plan_id":"cebpf4jnsgd1na2vs0mg"},{"bike_id":"dc0fb100-c456-49d4-ad55-34b48d41d087","system_id":"levelo_inurba_marseille","lat":43.29581,"lon":5.36747,"is_reserved":false,"is_disabled":false,"rental_uris":{"android":"levelo://app?vid=dc0fb100-c456-49d4-ad55-34b48d41d087","ios":"levelo://app?vid=dc0fb100-c456-49d4-ad55-34b48d41d087"},"vehicle_type_id":"4","last_reported":1753294548,"current_range_meters":8800,"station_id":"ce4bgph2rcd13ifvqc2g","pricing_plan_id":"cebpf4jnsgd1na2vs0mg"},{"bike_id":"120c5a4e-be47-4a14-9914-a417224c2dc1","system_id":"levelo_inurba_marseille","lat":43.30815,"lon":5.38134,"is_reserved":false,"is_disabled":true,"rental_uris":{"android":"levelo://app?vid=120c5a4e-be47-4a14-9914-a417224c2dc1","ios":"levelo://app?vid=120c5a4e-be47-4a14-9914-a417224c2dc1"},"vehicle_type_id":"4","last_reported":1753294548,"current_range_meters":8800,"station_id":"ce4bgt12rcd13ifvqce0","pricing_plan_id":"cebpf4jnsgd1na2vs0mg"},{"bike_id":"dfae5232-62e9-4906-85be-a48d568d0d05","system_id":"levelo_inurba_marseille","lat":43.29581,"lon":5.36744,"is_reserved":false,"is_disabled":false,"rental_uris":{"android":"levelo://app?vid=dfae5232-62e9-4906-85be-a48d568d0d05","ios":"levelo://app?vid=dfae5232-62e9-4906-85be-a48d568d0d05"},"vehicle_type_id":"4","last_reported":1753294548,"current_range_meters":8800,"station_id":"ce4bgph2rcd13ifvqc2g","pricing_plan_id":"cebpf4jnsgd1na2vs0mg"},{"bike_id":"4ee2479e-796a-446b-b2fb-7175102bc3d2","system_id":"levelo_inurba_marseille","lat":43.29972,"lon":5.38486,"is_reserved":false,"is_disabled":false,"rental_uris":{"android":"levelo://app?vid=4ee2479e-796a-446b-b2fb-7175102bc3d2","ios":"levelo://app?vid=4ee2479e-796a-446b-b2fb-7175102bc3d2"},"vehicle_type_id":"4","last_reported":1753294548,"current_range_meters":8800,"station_id":"ce4bgj92rcd13ifvqbd0","pricing_plan_id":"cebpf4jnsgd1na2vs0mg"},{"bike_id":"2a7dd72f-bdf3-4547-90e6-34b8049722b6","system_id":"levelo_inurba_marseille","lat":43.22503,"lon":5.34773,"is_reserved":false,"is_disabled":false,"rental_uris":{"android":"levelo://app?vid=2a7dd72f-bdf3-4547-90e6-34b8049722b6","ios":"levelo://app?vid=2a7dd72f-bdf3-4547-90e6-34b8049722b6"},"vehicle_type_id":"4","last_reported":1753294548,"current_range_meters":8800,"station_id":"st_cvj5dfep6f1abm77gieg","pricing_plan_id":"cebpf4jnsgd1na2vs0mg"},{"bike_id":"73fee3d9-5b64-415e-9080-5af05b1bcbac","system_id":"levelo_inurba_marseille","lat":43.27471,"lon":5.42499,"is_reserved":false,"is_disabled":false,"rental_uris":{"android":"levelo://app?vid=73fee3d9-5b64-415e-9080-5af05b1bcbac","ios":"levelo://app?vid=73fee3d9-5b64-415e-9080-5af05b1bcbac"},"vehicle_type_id":"4","last_reported":1753294548,"current_range_meters":8800,"station_id":"ce4bhn92rcd13ifvqgrg","pricing_plan_id":"cebpf4jnsgd1na2vs0mg"},{"bike_id":"e4761578-ae86-4dfa-b146-0428e5d8cca7","system_id":"levelo_inurba_marseille","lat":43.241668,"lon":5.36412,"is_reserved":false,"is_disabled":true,"rental_uris":{"android":"levelo://app?vid=e4761578-ae86-4dfa-b146-0428e5d8cca7","ios":"levelo://app?vid=e4761578-ae86-4dfa-b146-0428e5d8cca7"},"vehicle_type_id":"4","last_reported":1753294548,"current_range_meters":9200,"station_id":"cpo36qri1sfpv3e86is0","pricing_plan_id":"cebpf4jnsgd1na2vs0mg"},{"bike_id":"02867a83-9392-470d-8c6a-a21bb14373ae","system_id":"levelo_inurba_marseille","lat":43.28569,"lon":5.39497,"is_reserved":false,"is_disabled":false,"rental_uris":{"android":"levelo://app?vid=02867a83-9392-470d-8c6a-a21bb14373ae","ios":"levelo://app?vid=02867a83-9392-470d-8c6a-a21bb14373ae"},"vehicle_type_id":"4","last_reported":1753294548,"current_range_meters":8800,"station_id":"ce4bh292rcd13ifvqdg0","pricing_plan_id":"cebpf4jnsgd1na2vs0mg"},{"bike_id":"2e00a6f2-0061-4be8-b21f-84f507be0d6c","system_id":"levelo_inurba_marseille","lat":43.29855,"lon":5.36241,"is_reserved":false,"is_disabled":false,"rental_uris":{"android":"levelo://app?vid=2e00a6f2-0061-4be8-b21f-84f507be0d6c","ios":"levelo://app?vid=2e00a6f2-0061-4be8-b21f-84f507be0d6c"},"vehicle_type_id":"4","last_reported":1753294548,"current_range_meters":9200,"station_id":"ce4bgpp2rcd13ifvqc3g","pricing_plan_id":"cebpf4jnsgd1na2vs0mg"},{"bike_id":"3c21b9e1-b296-4844-a6d5-b8d19c7f36c9","system_id":"levelo_inurba_marseille","lat":43.29173,"lon":5.38445,"is_reserved":false,"is_disabled":false,"rental_uris":{"android":"levelo://app?vid=3c21b9e1-b296-4844-a6d5-b8d19c7f36c9","ios":"levelo://app?vid=3c21b9e1-b296-4844-a6d5-b8d19c7f36c9"},"vehicle_type_id":"4","last_reported":1753294548,"current_range_meters":9200,"station_id":"","pricing_plan_id":"cebpf4jnsgd1na2vs0mg"},{"bike_id":"7a1ef1c2-c058-45b6-b788-86d261e4f088","system_id":"levelo_inurba_marseille","lat":43.29189,"lon":5.39291,"is_reserved":false,"is_disabled":true,"rental_uris":{"android":"levelo://app?vid=7a1ef1c2-c058-45b6-b788-86d261e4f088","ios":"levelo://app?vid=7a1ef1c2-c058-45b6-b788-86d261e4f088"},"vehicle_type_id":"4","last_reported":1753294548,"current_range_meters":9200,"station_id":"ce4bh192rcd13ifvqdd0","pricing_plan_id":"cebpf4jnsgd1na2vs0mg"},{"bike_id":"aa5097b6-6968-4aec-b711-e7780938924b","system_id":"levelo_inurba_marseille","lat":43.32952,"lon":5.359,"is_reserved":false,"is_disabled":false,"rental_uris":{"android":"levelo://app?vid=aa5097b6-6968-4aec-b711-e7780938924b","ios":"levelo://app?vid=aa5097b6-6968-4aec-b711-e7780938924b"},"vehicle_type_id":"4","last_reported":1753294548,"current_range_meters":9200,"station_id":"","pricing_plan_id":"cebpf4jnsgd1na2vs0mg"},{"bike_id":"67e6b061-1f5b-4f2c-8bb3-4cad2ae21cda","system_id":"levelo_inurba_marseille","lat":43.29579,"lon":5.36743,"is_reserved":false,"is_disabled":false,"rental_uris":{"android":"levelo://app?vid=67e6b061-1f5b-4f2c-8bb3-4cad2ae21cda","ios":"levelo://app?vid=67e6b061-1f5b-4f2c-8bb3-4cad2ae21cda"},"vehicle_type_id":"4","last_reported":1753294548,"current_range_meters":9600,"station_id":"ce4bgph2rcd13ifvqc2g","pricing_plan_id":"cebpf4jnsgd1na2vs0mg"},{"bike_id":"c9dbd36b-479c-4a5c-b200-3aa7673340d9","system_id":"levelo_inurba_marseille","lat":43.241448,"lon":5.363743,"is_reserved":false,"is_disabled":true,"rental_uris":{"android":"levelo://app?vid=c9dbd36b-479c-4a5c-b200-3aa7673340d9","ios":"levelo://app?vid=c9dbd36b-479c-4a5c-b200-3aa7673340d9"},"vehicle_type_id":"4","last_reported":1753294548,"current_range_meters":9600,"station_id":"","pricing_plan_id":"cebpf4jnsgd1na2vs0mg"},{"bike_id":"ef52f3dc-0950-4186-a067-bf2d31928734","system_id":"levelo_inurba_marseille","lat":43.29576,"lon":5.36738,"is_reserved":false,"is_disabled":false,"rental_uris":{"android":"levelo://app?vid=ef52f3dc-0950-4186-a067-bf2d31928734","ios":"levelo://app?vid=ef52f3dc-0950-4186-a067-bf2d31928734"},"vehicle_type_id":"4","last_reported":1753294548,"current_range_meters":9600,"station_id":"ce4bgph2rcd13ifvqc2g","pricing_plan_id":"cebpf4jnsgd1na2vs0mg"},{"bike_id":"baca8154-7e82-4bd8-a0cb-6a4d79f767f0","system_id":"levelo_inurba_marseille","lat":43.29058,"lon":5.3717,"is_reserved":false,"is_disabled":false,"rental_uris":{"android":"levelo://app?vid=baca8154-7e82-4bd8-a0cb-6a4d79f767f0","ios":"levelo://app?vid=baca8154-7e82-4bd8-a0cb-6a4d79f767f0"},"vehicle_type_id":"4","last_reported":1753294548,"current_range_meters":9600,"station_id":"ce4bgh92rcd13ifvqb40","pricing_plan_id":"cebpf4jnsgd1na2vs0mg"},{"bike_id":"535090bf-a035-44b2-bbc0-021419ba1d4d","system_id":"levelo_inurba_marseille","lat":43.30586,"lon":5.3935,"is_reserved":false,"is_disabled":false,"rental_uris":{"android":"levelo://app?vid=535090bf-a035-44b2-bbc0-021419ba1d4d","ios":"levelo://app?vid=535090bf-a035-44b2-bbc0-021419ba1d4d"},"vehicle_type_id":"4","last_reported":1753294548,"current_range_meters":9600,"station_id":"ce4bh0p2rcd13ifvqd80","pricing_plan_id":"cebpf4jnsgd1na2vs0mg"},{"bike_id":"914e4d2e-5377-4671-b7c7-0b8900a846fa","system_id":"levelo_inurba_marseille","lat":43.2886,"lon":5.35857,"is_reserved":false,"is_disabled":false,"rental_uris":{"android":"levelo://app?vid=914e4d2e-5377-4671-b7c7-0b8900a846fa","ios":"levelo://app?vid=914e4d2e-5377-4671-b7c7-0b8900a846fa"},"vehicle_type_id":"4","last_reported":1753294548,"current_range_meters":9600,"station_id":"ce4bhb12rcd13ifvqem0","pricing_plan_id":"cebpf4jnsgd1na2vs0mg"},{"bike_id":"98926446-80c4-4528-8755-3648798c1d08","system_id":"levelo_inurba_marseille","lat":43.29307,"lon":5.37469,"is_reserved":false,"is_disabled":false,"rental_uris":{"android":"levelo://app?vid=98926446-80c4-4528-8755-3648798c1d08","ios":"levelo://app?vid=98926446-80c4-4528-8755-3648798c1d08"},"vehicle_type_id":"4","last_reported":1753294548,"current_range_meters":9600,"station_id":"","pricing_plan_id":"cebpf4jnsgd1na2vs0mg"},{"bike_id":"c14d0563-25d1-46ee-8153-eba7ff8256fc","system_id":"levelo_inurba_marseille","lat":43.29934,"lon":5.36536,"is_reserved":false,"is_disabled":false,"rental_uris":{"android":"levelo://app?vid=c14d0563-25d1-46ee-8153-eba7ff8256fc","ios":"levelo://app?vid=c14d0563-25d1-46ee-8153-eba7ff8256fc"},"vehicle_type_id":"4","last_reported":1753294548,"current_range_meters":9600,"station_id":"ce4bgm92rcd13ifvqbr0","pricing_plan_id":"cebpf4jnsgd1na2vs0mg"},{"bike_id":"6b13b0cf-ae6f-4dd7-82b8-b5c1c49ede2d","system_id":"levelo_inurba_marseille","lat":43.27621,"lon":5.36104,"is_reserved":false,"is_disabled":false,"rental_uris":{"android":"levelo://app?vid=6b13b0cf-ae6f-4dd7-82b8-b5c1c49ede2d","ios":"levelo://app?vid=6b13b0cf-ae6f-4dd7-82b8-b5c1c49ede2d"},"vehicle_type_id":"4","last_reported":1753294548,"current_range_meters":10000,"station_id":"ce4bgj92rcd13ifvqbe0","pricing_plan_id":"cebpf4jnsgd1na2vs0mg"},{"bike_id":"9f1a1deb-2772-47d6-b317-8a27ee03677d","system_id":"levelo_inurba_marseille","lat":43.292501,"lon":5.376377,"is_reserved":false,"is_disabled":false,"rental_uris":{"android":"levelo://app?vid=9f1a1deb-2772-47d6-b317-8a27ee03677d","ios":"levelo://app?vid=9f1a1deb-2772-47d6-b317-8a27ee03677d"},"vehicle_type_id":"4","last_reported":1753294548,"current_range_meters":10000,"station_id":"ce4bgi12rcd13ifvqb80","pricing_plan_id":"cebpf4jnsgd1na2vs0mg"},{"bike_id":"20f42ca5-5863-47cf-b8cb-2d3e59c45ddb","system_id":"levelo_inurba_marseille","lat":43.28615,"lon":5.35106,"is_reserved":false,"is_disabled":false,"rental_uris":{"android":"levelo://app?vid=20f42ca5-5863-47cf-b8cb-2d3e59c45ddb","ios":"levelo://app?vid=20f42ca5-5863-47cf-b8cb-2d3e59c45ddb"},"vehicle_type_id":"4","last_reported":1753294548,"current_range_meters":10000,"station_id":"ce4bhch2rcd13ifvqeug","pricing_plan_id":"cebpf4jnsgd1na2vs0mg"},{"bike_id":"a2496396-52eb-4eda-ae93-04a447ea5027","system_id":"levelo_inurba_marseille","lat":43.28934,"lon":5.36623,"is_reserved":false,"is_disabled":false,"rental_uris":{"android":"levelo://app?vid=a2496396-52eb-4eda-ae93-04a447ea5027","ios":"levelo://app?vid=a2496396-52eb-4eda-ae93-04a447ea5027"},"vehicle_type_id":"4","last_reported":1753294548,"current_range_meters":10000,"station_id":"ce4bhap2rcd13ifvqek0","pricing_plan_id":"cebpf4jnsgd1na2vs0mg"},{"bike_id":"7b95d7dd-aa8b-4b8b-b0e4-9dd4719fc41d","system_id":"levelo_inurba_marseille","lat":43.29937,"lon":5.36532,"is_reserved":false,"is_disabled":false,"rental_uris":{"android":"levelo://app?vid=7b95d7dd-aa8b-4b8b-b0e4-9dd4719fc41d","ios":"levelo://app?vid=7b95d7dd-aa8b-4b8b-b0e4-9dd4719fc41d"},"vehicle_type_id":"4","last_reported":1753294548,"current_range_meters":10000,"station_id":"ce4bgm92rcd13ifvqbr0","pricing_plan_id":"cebpf4jnsgd1na2vs0mg"},{"bike_id":"da053e6a-15f2-492e-8bc1-42b1d66cc329","system_id":"levelo_inurba_marseille","lat":43.2835,"lon":5.4326,"is_reserved":false,"is_disabled":false,"rental_uris":{"android":"levelo://app?vid=da053e6a-15f2-492e-8bc1-42b1d66cc329","ios":"levelo://app?vid=da053e6a-15f2-492e-8bc1-42b1d66cc329"},"vehicle_type_id":"4","last_reported":1753294548,"current_range_meters":10000,"station_id":"","pricing_plan_id":"cebpf4jnsgd1na2vs0mg"},{"bike_id":"c4603661-acb1-4cdd-b34f-4a8d599b00ac","system_id":"levelo_inurba_marseille","lat":43.22932,"lon":5.3537,"is_reserved":false,"is_disabled":false,"rental_uris":{"android":"levelo://app?vid=c4603661-acb1-4cdd-b34f-4a8d599b00ac","ios":"levelo://app?vid=c4603661-acb1-4cdd-b34f-4a8d599b00ac"},"vehicle_type_id":"4","last_reported":1753294548,"current_range_meters":10000,"station_id":"cpo3532slgdg3j2ikp40","pricing_plan_id":"cebpf4jnsgd1na2vs0mg"},{"bike_id":"bb21bc65-87d9-44ee-9fa6-62d7e8672cc4","system_id":"levelo_inurba_marseille","lat":43.29584,"lon":5.36753,"is_reserved":false,"is_disabled":false,"rental_uris":{"android":"levelo://app?vid=bb21bc65-87d9-44ee-9fa6-62d7e8672cc4","ios":"levelo://app?vid=bb21bc65-87d9-44ee-9fa6-62d7e8672cc4"},"vehicle_type_id":"4","last_reported":1753294548,"current_range_meters":10000,"station_id":"ce4bgph2rcd13ifvqc2g","pricing_plan_id":"cebpf4jnsgd1na2vs0mg"},{"bike_id":"2da13ae6-8774-42be-8b44-4fc9f0fe9aac","system_id":"levelo_inurba_marseille","lat":43.30736,"lon":5.4244,"is_reserved":false,"is_disabled":false,"rental_uris":{"android":"levelo://app?vid=2da13ae6-8774-42be-8b44-4fc9f0fe9aac","ios":"levelo://app?vid=2da13ae6-8774-42be-8b44-4fc9f0fe9aac"},"vehicle_type_id":"4","last_reported":1753294548,"current_range_meters":10800,"station_id":"st_cvj6ca6bvosntc0bfgr0","pricing_plan_id":"cebpf4jnsgd1na2vs0mg"},{"bike_id":"412bb96f-d36e-4b15-a835-e078ce9ebf00","system_id":"levelo_inurba_marseille","lat":43.28852,"lon":5.393293,"is_reserved":false,"is_disabled":false,"rental_uris":{"android":"levelo://app?vid=412bb96f-d36e-4b15-a835-e078ce9ebf00","ios":"levelo://app?vid=412bb96f-d36e-4b15-a835-e078ce9ebf00"},"vehicle_type_id":"4","last_reported":1753294548,"current_range_meters":10800,"station_id":"ce4bh2p2rcd13ifvqdi0","pricing_plan_id":"cebpf4jnsgd1na2vs0mg"},{"bike_id":"b53c7e42-eac0-49e1-9882-97c44ca1ed56","system_id":"levelo_inurba_marseille","lat":43.30893,"lon":5.371969,"is_reserved":false,"is_disabled":false,"rental_uris":{"android":"levelo://app?vid=b53c7e42-eac0-49e1-9882-97c44ca1ed56","ios":"levelo://app?vid=b53c7e42-eac0-49e1-9882-97c44ca1ed56"},"vehicle_type_id":"4","last_reported":1753294548,"current_range_meters":10800,"station_id":"ce4bguh2rcd13ifvqckg","pricing_plan_id":"cebpf4jnsgd1na2vs0mg"},{"bike_id":"b3c1035d-d7f3-4cee-a873-f5abbdf0ffe8","system_id":"levelo_inurba_marseille","lat":43.324727,"lon":5.365669,"is_reserved":false,"is_disabled":false,"rental_uris":{"android":"levelo://app?vid=b3c1035d-d7f3-4cee-a873-f5abbdf0ffe8","ios":"levelo://app?vid=b3c1035d-d7f3-4cee-a873-f5abbdf0ffe8"},"vehicle_type_id":"4","last_reported":1753294548,"current_range_meters":10800,"station_id":"","pricing_plan_id":"cebpf4jnsgd1na2vs0mg"},{"bike_id":"b0237159-871b-42ea-bd54-a2d13b8f8188","system_id":"levelo_inurba_marseille","lat":43.2987,"lon":5.39719,"is_reserved":false,"is_disabled":false,"rental_uris":{"android":"levelo://app?vid=b0237159-871b-42ea-bd54-a2d13b8f8188","ios":"levelo://app?vid=b0237159-871b-42ea-bd54-a2d13b8f8188"},"vehicle_type_id":"4","last_reported":1753294548,"current_range_meters":10800,"station_id":"ce4bh0h2rcd13ifvqd50","pricing_plan_id":"cebpf4jnsgd1na2vs0mg"},{"bike_id":"ed7bba5f-8d53-4406-abcb-ec26b5a32198","system_id":"levelo_inurba_marseille","lat":43.296173,"lon":5.371515,"is_reserved":false,"is_disabled":false,"rental_uris":{"android":"levelo://app?vid=ed7bba5f-8d53-4406-abcb-ec26b5a32198","ios":"levelo://app?vid=ed7bba5f-8d53-4406-abcb-ec26b5a32198"},"vehicle_type_id":"4","last_reported":1753294548,"current_range_meters":10800,"station_id":"ce4bgnh2rcd13ifvqc0g","pricing_plan_id":"cebpf4jnsgd1na2vs0mg"},{"bike_id":"a2167b42-5557-4a97-baf9-ceaa81af4e45","system_id":"levelo_inurba_marseille","lat":43.29622,"lon":5.37114,"is_reserved":false,"is_disabled":false,"rental_uris":{"android":"levelo://app?vid=a2167b42-5557-4a97-baf9-ceaa81af4e45","ios":"levelo://app?vid=a2167b42-5557-4a97-baf9-ceaa81af4e45"},"vehicle_type_id":"4","last_reported":1753294548,"current_range_meters":11200,"station_id":"ce4bgnh2rcd13ifvqc0g","pricing_plan_id":"cebpf4jnsgd1na2vs0mg"},{"bike_id":"c3b4c842-89f1-49ff-abb9-fc4b30df4519","system_id":"levelo_inurba_marseille","lat":43.25578,"lon":5.38226,"is_reserved":false,"is_disabled":false,"rental_uris":{"android":"levelo://app?vid=c3b4c842-89f1-49ff-abb9-fc4b30df4519","ios":"levelo://app?vid=c3b4c842-89f1-49ff-abb9-fc4b30df4519"},"vehicle_type_id":"4","last_reported":1753294548,"current_range_meters":11200,"station_id":"ce4bhih2rcd13ifvqfs0","pricing_plan_id":"cebpf4jnsgd1na2vs0mg"},{"bike_id":"51b482d9-0ac8-4929-9722-5a8751e3c556","system_id":"levelo_inurba_marseille","lat":43.29593,"lon":5.380945,"is_reserved":false,"is_disabled":false,"rental_uris":{"android":"levelo://app?vid=51b482d9-0ac8-4929-9722-5a8751e3c556","ios":"levelo://app?vid=51b482d9-0ac8-4929-9722-5a8751e3c556"},"vehicle_type_id":"4","last_reported":1753294548,"current_range_meters":11200,"station_id":"ce4bgl12rcd13ifvqbo0","pricing_plan_id":"cebpf4jnsgd1na2vs0mg"},{"bike_id":"f1270ba8-c3be-4a79-9372-b7b72932da75","system_id":"levelo_inurba_marseille","lat":43.24179,"lon":5.39721,"is_reserved":false,"is_disabled":false,"rental_uris":{"android":"levelo://app?vid=f1270ba8-c3be-4a79-9372-b7b72932da75","ios":"levelo://app?vid=f1270ba8-c3be-4a79-9372-b7b72932da75"},"vehicle_type_id":"4","last_reported":1753294548,"current_range_meters":11200,"station_id":"ce4bhn12rcd13ifvqgpg","pricing_plan_id":"cebpf4jnsgd1na2vs0mg"},{"bike_id":"265012ac-1301-4b91-8401-42847d4fcdb9","system_id":"levelo_inurba_marseille","lat":43.295792,"lon":5.367239,"is_reserved":false,"is_disabled":false,"rental_uris":{"android":"levelo://app?vid=265012ac-1301-4b91-8401-42847d4fcdb9","ios":"levelo://app?vid=265012ac-1301-4b91-8401-42847d4fcdb9"},"vehicle_type_id":"4","last_reported":1753294548,"current_range_meters":11200,"station_id":"ce4bgph2rcd13ifvqc2g","pricing_plan_id":"cebpf4jnsgd1na2vs0mg"},{"bike_id":"77d276c4-073b-43d0-9c45-418693f1b7e0","system_id":"levelo_inurba_marseille","lat":43.2993,"lon":5.36498,"is_reserved":false,"is_disabled":false,"rental_uris":{"android":"levelo://app?vid=77d276c4-073b-43d0-9c45-418693f1b7e0","ios":"levelo://app?vid=77d276c4-073b-43d0-9c45-418693f1b7e0"},"vehicle_type_id":"4","last_reported":1753294548,"current_range_meters":11600,"station_id":"ce4bgm92rcd13ifvqbr0","pricing_plan_id":"cebpf4jnsgd1na2vs0mg"},{"bike_id":"f9062784-0417-4840-bb15-81c56a64826f","system_id":"levelo_inurba_marseille","lat":43.22504,"lon":5.3478,"is_reserved":false,"is_disabled":false,"rental_uris":{"android":"levelo://app?vid=f9062784-0417-4840-bb15-81c56a64826f","ios":"levelo://app?vid=f9062784-0417-4840-bb15-81c56a64826f"},"vehicle_type_id":"4","last_reported":1753294548,"current_range_meters":11600,"station_id":"","pricing_plan_id":"cebpf4jnsgd1na2vs0mg"},{"bike_id":"639f9b61-294b-46d9-9636-231da9ba8956","system_id":"levelo_inurba_marseille","lat":43.3042,"lon":5.41278,"is_reserved":false,"is_disabled":false,"rental_uris":{"android":"levelo://app?vid=639f9b61-294b-46d9-9636-231da9ba8956","ios":"levelo://app?vid=639f9b61-294b-46d9-9636-231da9ba8956"},"vehicle_type_id":"4","last_reported":1753294548,"current_range_meters":11600,"station_id":"ce4bhop2rcd13ifvqh8g","pricing_plan_id":"cebpf4jnsgd1na2vs0mg"},{"bike_id":"c4ab8b6f-b9e7-4d47-91c0-82fcf9196b75","system_id":"levelo_inurba_marseille","lat":43.301792,"lon":5.400674,"is_reserved":false,"is_disabled":true,"rental_uris":{"android":"levelo://app?vid=c4ab8b6f-b9e7-4d47-91c0-82fcf9196b75","ios":"levelo://app?vid=c4ab8b6f-b9e7-4d47-91c0-82fcf9196b75"},"vehicle_type_id":"4","last_reported":1753294548,"current_range_meters":11600,"station_id":"ce4bgvh2rcd13ifvqcs0","pricing_plan_id":"cebpf4jnsgd1na2vs0mg"},{"bike_id":"1eedde4a-43b2-4c9b-84d6-924e0504f20f","system_id":"levelo_inurba_marseille","lat":43.29017,"lon":5.38648,"is_reserved":false,"is_disabled":false,"rental_uris":{"android":"levelo://app?vid=1eedde4a-43b2-4c9b-84d6-924e0504f20f","ios":"levelo://app?vid=1eedde4a-43b2-4c9b-84d6-924e0504f20f"},"vehicle_type_id":"4","last_reported":1753294548,"current_range_meters":11600,"station_id":"ce4bh4p2rcd13ifvqe0g","pricing_plan_id":"cebpf4jnsgd1na2vs0mg"},{"bike_id":"eebcfecb-b2ca-4f00-8df7-3df00e2d877a","system_id":"levelo_inurba_marseille","lat":43.28098,"lon":5.37816,"is_reserved":false,"is_disabled":false,"rental_uris":{"android":"levelo://app?vid=eebcfecb-b2ca-4f00-8df7-3df00e2d877a","ios":"levelo://app?vid=eebcfecb-b2ca-4f00-8df7-3df00e2d877a"},"vehicle_type_id":"4","last_reported":1753294548,"current_range_meters":11600,"station_id":"ce4bha12rcd13ifvqee0","pricing_plan_id":"cebpf4jnsgd1na2vs0mg"},{"bike_id":"0ce4e0aa-f524-4798-a427-6202ea57827d","system_id":"levelo_inurba_marseille","lat":43.31523,"lon":5.38032,"is_reserved":false,"is_disabled":false,"rental_uris":{"android":"levelo://app?vid=0ce4e0aa-f524-4798-a427-6202ea57827d","ios":"levelo://app?vid=0ce4e0aa-f524-4798-a427-6202ea57827d"},"vehicle_type_id":"4","last_reported":1753294548,"current_range_meters":11200,"station_id":"ce4bhsp2rcd13ifvqi50","pricing_plan_id":"cebpf4jnsgd1na2vs0mg"},{"bike_id":"cc926983-7496-48df-9677-b8723ddc96b9","system_id":"levelo_inurba_marseille","lat":43.22953,"lon":5.35398,"is_reserved":false,"is_disabled":false,"rental_uris":{"android":"levelo://app?vid=cc926983-7496-48df-9677-b8723ddc96b9","ios":"levelo://app?vid=cc926983-7496-48df-9677-b8723ddc96b9"},"vehicle_type_id":"4","last_reported":1753294548,"current_range_meters":12000,"station_id":"cpo3532slgdg3j2ikp40","pricing_plan_id":"cebpf4jnsgd1na2vs0mg"},{"bike_id":"d82c29ad-6c9f-431d-95d3-a721d4a07cb6","system_id":"levelo_inurba_marseille","lat":43.29935,"lon":5.3653,"is_reserved":false,"is_disabled":false,"rental_uris":{"android":"levelo://app?vid=d82c29ad-6c9f-431d-95d3-a721d4a07cb6","ios":"levelo://app?vid=d82c29ad-6c9f-431d-95d3-a721d4a07cb6"},"vehicle_type_id":"4","last_reported":1753294548,"current_range_meters":12000,"station_id":"ce4bgm92rcd13ifvqbr0","pricing_plan_id":"cebpf4jnsgd1na2vs0mg"},{"bike_id":"b709f52b-b9aa-4bf0-8b86-6ee09b3f3b01","system_id":"levelo_inurba_marseille","lat":43.295288,"lon":5.385398,"is_reserved":false,"is_disabled":false,"rental_uris":{"android":"levelo://app?vid=b709f52b-b9aa-4bf0-8b86-6ee09b3f3b01","ios":"levelo://app?vid=b709f52b-b9aa-4bf0-8b86-6ee09b3f3b01"},"vehicle_type_id":"4","last_reported":1753294548,"current_range_meters":10000,"station_id":"ce4bgih2rcd13ifvqba0","pricing_plan_id":"cebpf4jnsgd1na2vs0mg"},{"bike_id":"db4f7d16-4447-4752-b9fa-314b60a317e8","system_id":"levelo_inurba_marseille","lat":43.29931,"lon":5.37928,"is_reserved":false,"is_disabled":false,"rental_uris":{"android":"levelo://app?vid=db4f7d16-4447-4752-b9fa-314b60a317e8","ios":"levelo://app?vid=db4f7d16-4447-4752-b9fa-314b60a317e8"},"vehicle_type_id":"4","last_reported":1753294548,"current_range_meters":12000,"station_id":"","pricing_plan_id":"cebpf4jnsgd1na2vs0mg"},{"bike_id":"c9cf96e5-777c-4cd0-a173-4c9051eb3cf1","system_id":"levelo_inurba_marseille","lat":43.30262,"lon":5.40119,"is_reserved":false,"is_disabled":false,"rental_uris":{"android":"levelo://app?vid=c9cf96e5-777c-4cd0-a173-4c9051eb3cf1","ios":"levelo://app?vid=c9cf96e5-777c-4cd0-a173-4c9051eb3cf1"},"vehicle_type_id":"4","last_reported":1753294548,"current_range_meters":12000,"station_id":"ce4bgvh2rcd13ifvqcs0","pricing_plan_id":"cebpf4jnsgd1na2vs0mg"},{"bike_id":"8ad11a72-99c9-456c-bd0f-1a17d81f682d","system_id":"levelo_inurba_marseille","lat":43.29718,"lon":5.36606,"is_reserved":false,"is_disabled":false,"rental_uris":{"android":"levelo://app?vid=8ad11a72-99c9-456c-bd0f-1a17d81f682d","ios":"levelo://app?vid=8ad11a72-99c9-456c-bd0f-1a17d81f682d"},"vehicle_type_id":"4","last_reported":1753294548,"current_range_meters":12000,"station_id":"ce4bgn12rcd13ifvqbt0","pricing_plan_id":"cebpf4jnsgd1na2vs0mg"},{"bike_id":"658bc35b-3cce-43c4-a7ba-18320ddc1bdc","system_id":"levelo_inurba_marseille","lat":43.29977,"lon":5.3848,"is_reserved":false,"is_disabled":false,"rental_uris":{"android":"levelo://app?vid=658bc35b-3cce-43c4-a7ba-18320ddc1bdc","ios":"levelo://app?vid=658bc35b-3cce-43c4-a7ba-18320ddc1bdc"},"vehicle_type_id":"4","last_reported":1753294548,"current_range_meters":12000,"station_id":"ce4bgj92rcd13ifvqbd0","pricing_plan_id":"cebpf4jnsgd1na2vs0mg"},{"bike_id":"5ea636b6-7db1-45f7-ab7b-2f73f0e49681","system_id":"levelo_inurba_marseille","lat":43.2119,"lon":5.35059,"is_reserved":false,"is_disabled":false,"rental_uris":{"android":"levelo://app?vid=5ea636b6-7db1-45f7-ab7b-2f73f0e49681","ios":"levelo://app?vid=5ea636b6-7db1-45f7-ab7b-2f73f0e49681"},"vehicle_type_id":"4","last_reported":1753294548,"current_range_meters":12000,"station_id":"st_cvj6sg6p6f1abm77japg","pricing_plan_id":"cebpf4jnsgd1na2vs0mg"},{"bike_id":"d8d96eac-8597-4b19-9d87-66881fe438d9","system_id":"levelo_inurba_marseille","lat":43.25576,"lon":5.3823,"is_reserved":false,"is_disabled":false,"rental_uris":{"android":"levelo://app?vid=d8d96eac-8597-4b19-9d87-66881fe438d9","ios":"levelo://app?vid=d8d96eac-8597-4b19-9d87-66881fe438d9"},"vehicle_type_id":"4","last_reported":1753294548,"current_range_meters":12400,"station_id":"ce4bhih2rcd13ifvqfs0","pricing_plan_id":"cebpf4jnsgd1na2vs0mg"},{"bike_id":"ee3b3679-934c-4b34-bd4a-c41001ff1c39","system_id":"levelo_inurba_marseille","lat":43.29632,"lon":5.40593,"is_reserved":false,"is_disabled":false,"rental_uris":{"android":"levelo://app?vid=ee3b3679-934c-4b34-bd4a-c41001ff1c39","ios":"levelo://app?vid=ee3b3679-934c-4b34-bd4a-c41001ff1c39"},"vehicle_type_id":"4","last_reported":1753294548,"current_range_meters":12400,"station_id":"ce4bh0h2rcd13ifvqd60","pricing_plan_id":"cebpf4jnsgd1na2vs0mg"},{"bike_id":"cea74219-6b4a-42a1-9ddb-291eafad4793","system_id":"levelo_inurba_marseille","lat":43.29699,"lon":5.36607,"is_reserved":false,"is_disabled":false,"rental_uris":{"android":"levelo://app?vid=cea74219-6b4a-42a1-9ddb-291eafad4793","ios":"levelo://app?vid=cea74219-6b4a-42a1-9ddb-291eafad4793"},"vehicle_type_id":"4","last_reported":1753294548,"current_range_meters":12400,"station_id":"ce4bgn12rcd13ifvqbt0","pricing_plan_id":"cebpf4jnsgd1na2vs0mg"},{"bike_id":"5bf5c270-47ff-48a2-9f38-7937a27d545b","system_id":"levelo_inurba_marseille","lat":43.297427,"lon":5.376611,"is_reserved":false,"is_disabled":false,"rental_uris":{"android":"levelo://app?vid=5bf5c270-47ff-48a2-9f38-7937a27d545b","ios":"levelo://app?vid=5bf5c270-47ff-48a2-9f38-7937a27d545b"},"vehicle_type_id":"4","last_reported":1753294548,"current_range_meters":12000,"station_id":"ce4bgkh2rcd13ifvqbl0","pricing_plan_id":"cebpf4jnsgd1na2vs0mg"},{"bike_id":"6b8f8b24-6a29-4ea3-86c9-2a8a22cc757b","system_id":"levelo_inurba_marseille","lat":43.25582,"lon":5.38225,"is_reserved":false,"is_disabled":false,"rental_uris":{"android":"levelo://app?vid=6b8f8b24-6a29-4ea3-86c9-2a8a22cc757b","ios":"levelo://app?vid=6b8f8b24-6a29-4ea3-86c9-2a8a22cc757b"},"vehicle_type_id":"4","last_reported":1753294548,"current_range_meters":12400,"station_id":"ce4bhih2rcd13ifvqfs0","pricing_plan_id":"cebpf4jnsgd1na2vs0mg"},{"bike_id":"538881e7-508b-4835-8d8f-abca964d69fa","system_id":"levelo_inurba_marseille","lat":43.29621,"lon":5.37168,"is_reserved":false,"is_disabled":false,"rental_uris":{"android":"levelo://app?vid=538881e7-508b-4835-8d8f-abca964d69fa","ios":"levelo://app?vid=538881e7-508b-4835-8d8f-abca964d69fa"},"vehicle_type_id":"4","last_reported":1753294548,"current_range_meters":12400,"station_id":"ce4bgnh2rcd13ifvqc0g","pricing_plan_id":"cebpf4jnsgd1na2vs0mg"},{"bike_id":"9f3ed220-9e9e-4bc8-a5f6-aeb6066011ca","system_id":"levelo_inurba_marseille","lat":43.2621,"lon":5.37443,"is_reserved":false,"is_disabled":false,"rental_uris":{"android":"levelo://app?vid=9f3ed220-9e9e-4bc8-a5f6-aeb6066011ca","ios":"levelo://app?vid=9f3ed220-9e9e-4bc8-a5f6-aeb6066011ca"},"vehicle_type_id":"4","last_reported":1753294548,"current_range_meters":12400,"station_id":"ce4bhgp2rcd13ifvqfc0","pricing_plan_id":"cebpf4jnsgd1na2vs0mg"},{"bike_id":"38a28b1f-e48d-4fb2-93dc-e80e1ec8bb1d","system_id":"levelo_inurba_marseille","lat":43.29845,"lon":5.36275,"is_reserved":false,"is_disabled":false,"rental_uris":{"android":"levelo://app?vid=38a28b1f-e48d-4fb2-93dc-e80e1ec8bb1d","ios":"levelo://app?vid=38a28b1f-e48d-4fb2-93dc-e80e1ec8bb1d"},"vehicle_type_id":"4","last_reported":1753294548,"current_range_meters":12800,"station_id":"ce4bgpp2rcd13ifvqc3g","pricing_plan_id":"cebpf4jnsgd1na2vs0mg"},{"bike_id":"6743bb28-6f7f-4316-bb57-887dcd4a41ce","system_id":"levelo_inurba_marseille","lat":43.31075,"lon":5.38353,"is_reserved":false,"is_disabled":false,"rental_uris":{"android":"levelo://app?vid=6743bb28-6f7f-4316-bb57-887dcd4a41ce","ios":"levelo://app?vid=6743bb28-6f7f-4316-bb57-887dcd4a41ce"},"vehicle_type_id":"4","last_reported":1753294548,"current_range_meters":12800,"station_id":"ce4bgv92rcd13ifvqcr0","pricing_plan_id":"cebpf4jnsgd1na2vs0mg"},{"bike_id":"bbc2b271-396f-4875-9f1d-0fcc163d87b6","system_id":"levelo_inurba_marseille","lat":43.29109,"lon":5.39884,"is_reserved":false,"is_disabled":false,"rental_uris":{"android":"levelo://app?vid=bbc2b271-396f-4875-9f1d-0fcc163d87b6","ios":"levelo://app?vid=bbc2b271-396f-4875-9f1d-0fcc163d87b6"},"vehicle_type_id":"4","last_reported":1753294548,"current_range_meters":12800,"station_id":"","pricing_plan_id":"cebpf4jnsgd1na2vs0mg"},{"bike_id":"3d8877c9-18e6-4365-a9d7-dc47828ccc41","system_id":"levelo_inurba_marseille","lat":43.29523,"lon":5.3751,"is_reserved":false,"is_disabled":false,"rental_uris":{"android":"levelo://app?vid=3d8877c9-18e6-4365-a9d7-dc47828ccc41","ios":"levelo://app?vid=3d8877c9-18e6-4365-a9d7-dc47828ccc41"},"vehicle_type_id":"4","last_reported":1753294548,"current_range_meters":14000,"station_id":"ce4bgkp2rcd13ifvqbmg","pricing_plan_id":"cebpf4jnsgd1na2vs0mg"},{"bike_id":"98c905f8-005f-409a-8ee5-f8a98fa81c9f","system_id":"levelo_inurba_marseille","lat":43.28925,"lon":5.38382,"is_reserved":false,"is_disabled":false,"rental_uris":{"android":"levelo://app?vid=98c905f8-005f-409a-8ee5-f8a98fa81c9f","ios":"levelo://app?vid=98c905f8-005f-409a-8ee5-f8a98fa81c9f"},"vehicle_type_id":"4","last_reported":1753294548,"current_range_meters":12800,"station_id":"ce4bh612rcd13ifvqe6g","pricing_plan_id":"cebpf4jnsgd1na2vs0mg"},{"bike_id":"ca6d9e17-def4-4be9-95db-8b059e6f5dae","system_id":"levelo_inurba_marseille","lat":43.306396,"lon":5.400989,"is_reserved":false,"is_disabled":false,"rental_uris":{"android":"levelo://app?vid=ca6d9e17-def4-4be9-95db-8b059e6f5dae","ios":"levelo://app?vid=ca6d9e17-def4-4be9-95db-8b059e6f5dae"},"vehicle_type_id":"4","last_reported":1753294548,"current_range_meters":12800,"station_id":"ce4bh112rcd13ifvqda0","pricing_plan_id":"cebpf4jnsgd1na2vs0mg"},{"bike_id":"ce48a911-4507-4b74-976c-1633ca96f1c2","system_id":"levelo_inurba_marseille","lat":43.29581,"lon":5.36743,"is_reserved":false,"is_disabled":false,"rental_uris":{"android":"levelo://app?vid=ce48a911-4507-4b74-976c-1633ca96f1c2","ios":"levelo://app?vid=ce48a911-4507-4b74-976c-1633ca96f1c2"},"vehicle_type_id":"4","last_reported":1753294548,"current_range_meters":13600,"station_id":"ce4bgph2rcd13ifvqc2g","pricing_plan_id":"cebpf4jnsgd1na2vs0mg"},{"bike_id":"774e0679-043d-4d3c-9e9b-4c399b8e945c","system_id":"levelo_inurba_marseille","lat":43.26188,"lon":5.37452,"is_reserved":false,"is_disabled":false,"rental_uris":{"android":"levelo://app?vid=774e0679-043d-4d3c-9e9b-4c399b8e945c","ios":"levelo://app?vid=774e0679-043d-4d3c-9e9b-4c399b8e945c"},"vehicle_type_id":"4","last_reported":1753294548,"current_range_meters":13600,"station_id":"ce4bhgp2rcd13ifvqfc0","pricing_plan_id":"cebpf4jnsgd1na2vs0mg"},{"bike_id":"a5c9707d-6935-4b90-a92e-0acaa7986ec6","system_id":"levelo_inurba_marseille","lat":43.26032,"lon":5.37546,"is_reserved":false,"is_disabled":false,"rental_uris":{"android":"levelo://app?vid=a5c9707d-6935-4b90-a92e-0acaa7986ec6","ios":"levelo://app?vid=a5c9707d-6935-4b90-a92e-0acaa7986ec6"},"vehicle_type_id":"4","last_reported":1753294548,"current_range_meters":12800,"station_id":"ce4bhgh2rcd13ifvqfa0","pricing_plan_id":"cebpf4jnsgd1na2vs0mg"},{"bike_id":"3c8c8450-a767-4a89-b895-39c7e1d469a3","system_id":"levelo_inurba_marseille","lat":43.25502,"lon":5.37641,"is_reserved":false,"is_disabled":false,"rental_uris":{"android":"levelo://app?vid=3c8c8450-a767-4a89-b895-39c7e1d469a3","ios":"levelo://app?vid=3c8c8450-a767-4a89-b895-39c7e1d469a3"},"vehicle_type_id":"4","last_reported":1753294548,"current_range_meters":13600,"station_id":"ce4bhh12rcd13ifvqff0","pricing_plan_id":"cebpf4jnsgd1na2vs0mg"},{"bike_id":"a55b0110-48c5-4f1c-bf3b-4e5329bfd385","system_id":"levelo_inurba_marseille","lat":43.29566,"lon":5.38537,"is_reserved":false,"is_disabled":false,"rental_uris":{"android":"levelo://app?vid=a55b0110-48c5-4f1c-bf3b-4e5329bfd385","ios":"levelo://app?vid=a55b0110-48c5-4f1c-bf3b-4e5329bfd385"},"vehicle_type_id":"4","last_reported":1753294548,"current_range_meters":13600,"station_id":"ce4bgih2rcd13ifvqba0","pricing_plan_id":"cebpf4jnsgd1na2vs0mg"},{"bike_id":"396dbd6b-bd12-4fba-a413-85741f08daa2","system_id":"levelo_inurba_marseille","lat":43.23063,"lon":5.35489,"is_reserved":false,"is_disabled":false,"rental_uris":{"android":"levelo://app?vid=396dbd6b-bd12-4fba-a413-85741f08daa2","ios":"levelo://app?vid=396dbd6b-bd12-4fba-a413-85741f08daa2"},"vehicle_type_id":"4","last_reported":1753294548,"current_range_meters":13600,"station_id":"cpo3342slgdg3j2ifvpg","pricing_plan_id":"cebpf4jnsgd1na2vs0mg"},{"bike_id":"5055da19-6222-4cdb-82d5-4be88f0cc834","system_id":"levelo_inurba_marseille","lat":43.29531,"lon":5.38523,"is_reserved":false,"is_disabled":false,"rental_uris":{"android":"levelo://app?vid=5055da19-6222-4cdb-82d5-4be88f0cc834","ios":"levelo://app?vid=5055da19-6222-4cdb-82d5-4be88f0cc834"},"vehicle_type_id":"4","last_reported":1753294548,"current_range_meters":14000,"station_id":"ce4bgih2rcd13ifvqba0","pricing_plan_id":"cebpf4jnsgd1na2vs0mg"},{"bike_id":"020edbcf-7dc7-4ba7-96dc-0bca94ebd9ed","system_id":"levelo_inurba_marseille","lat":43.31077,"lon":5.38352,"is_reserved":false,"is_disabled":false,"rental_uris":{"android":"levelo://app?vid=020edbcf-7dc7-4ba7-96dc-0bca94ebd9ed","ios":"levelo://app?vid=020edbcf-7dc7-4ba7-96dc-0bca94ebd9ed"},"vehicle_type_id":"4","last_reported":1753294548,"current_range_meters":14000,"station_id":"ce4bgv92rcd13ifvqcr0","pricing_plan_id":"cebpf4jnsgd1na2vs0mg"},{"bike_id":"22b9460e-b092-432c-9ba4-b5553b327bff","system_id":"levelo_inurba_marseille","lat":43.28436,"lon":5.39186,"is_reserved":false,"is_disabled":false,"rental_uris":{"android":"levelo://app?vid=22b9460e-b092-432c-9ba4-b5553b327bff","ios":"levelo://app?vid=22b9460e-b092-432c-9ba4-b5553b327bff"},"vehicle_type_id":"4","last_reported":1753294548,"current_range_meters":14000,"station_id":"ce4bhoh2rcd13ifvqh5g","pricing_plan_id":"cebpf4jnsgd1na2vs0mg"},{"bike_id":"e3e59472-6db4-42a7-8acc-a55ec5c4fdd6","system_id":"levelo_inurba_marseille","lat":43.29714,"lon":5.37696,"is_reserved":false,"is_disabled":false,"rental_uris":{"android":"levelo://app?vid=e3e59472-6db4-42a7-8acc-a55ec5c4fdd6","ios":"levelo://app?vid=e3e59472-6db4-42a7-8acc-a55ec5c4fdd6"},"vehicle_type_id":"4","last_reported":1753294548,"current_range_meters":13600,"station_id":"ce4bgkh2rcd13ifvqbl0","pricing_plan_id":"cebpf4jnsgd1na2vs0mg"},{"bike_id":"35c14987-3d71-4187-8b70-199e8ffb58d7","system_id":"levelo_inurba_marseille","lat":43.29577,"lon":5.36735,"is_reserved":false,"is_disabled":false,"rental_uris":{"android":"levelo://app?vid=35c14987-3d71-4187-8b70-199e8ffb58d7","ios":"levelo://app?vid=35c14987-3d71-4187-8b70-199e8ffb58d7"},"vehicle_type_id":"4","last_reported":1753294548,"current_range_meters":14000,"station_id":"ce4bgph2rcd13ifvqc2g","pricing_plan_id":"cebpf4jnsgd1na2vs0mg"},{"bike_id":"1291aa3e-24e4-4fc6-bba6-a1bf5ccaf1a3","system_id":"levelo_inurba_marseille","lat":43.292999,"lon":5.374693,"is_reserved":false,"is_disabled":false,"rental_uris":{"android":"levelo://app?vid=1291aa3e-24e4-4fc6-bba6-a1bf5ccaf1a3","ios":"levelo://app?vid=1291aa3e-24e4-4fc6-bba6-a1bf5ccaf1a3"},"vehicle_type_id":"4","last_reported":1753294548,"current_range_meters":13600,"station_id":"ce4bgi12rcd13ifvqb70","pricing_plan_id":"cebpf4jnsgd1na2vs0mg"},{"bike_id":"fec3b07e-037a-4fea-a191-679ee2b99950","system_id":"levelo_inurba_marseille","lat":43.24169,"lon":5.36381,"is_reserved":false,"is_disabled":false,"rental_uris":{"android":"levelo://app?vid=fec3b07e-037a-4fea-a191-679ee2b99950","ios":"levelo://app?vid=fec3b07e-037a-4fea-a191-679ee2b99950"},"vehicle_type_id":"4","last_reported":1753294548,"current_range_meters":14000,"station_id":"cpo36qri1sfpv3e86is0","pricing_plan_id":"cebpf4jnsgd1na2vs0mg"},{"bike_id":"bb49e83d-d41d-4ce2-bb79-0a528a1d343e","system_id":"levelo_inurba_marseille","lat":43.285727,"lon":5.394967,"is_reserved":false,"is_disabled":false,"rental_uris":{"android":"levelo://app?vid=bb49e83d-d41d-4ce2-bb79-0a528a1d343e","ios":"levelo://app?vid=bb49e83d-d41d-4ce2-bb79-0a528a1d343e"},"vehicle_type_id":"4","last_reported":1753294548,"current_range_meters":14000,"station_id":"ce4bh292rcd13ifvqdg0","pricing_plan_id":"cebpf4jnsgd1na2vs0mg"},{"bike_id":"e5547459-05ca-478c-8259-ee1c4d55abc6","system_id":"levelo_inurba_marseille","lat":43.29233,"lon":5.36058,"is_reserved":false,"is_disabled":false,"rental_uris":{"android":"levelo://app?vid=e5547459-05ca-478c-8259-ee1c4d55abc6","ios":"levelo://app?vid=e5547459-05ca-478c-8259-ee1c4d55abc6"},"vehicle_type_id":"4","last_reported":1753294548,"current_range_meters":14000,"station_id":"ce4bhbh2rcd13ifvqeqg","pricing_plan_id":"cebpf4jnsgd1na2vs0mg"},{"bike_id":"6ba8bf23-faf4-4e7f-a0da-6f0984da5df1","system_id":"levelo_inurba_marseille","lat":43.26212,"lon":5.37427,"is_reserved":false,"is_disabled":false,"rental_uris":{"android":"levelo://app?vid=6ba8bf23-faf4-4e7f-a0da-6f0984da5df1","ios":"levelo://app?vid=6ba8bf23-faf4-4e7f-a0da-6f0984da5df1"},"vehicle_type_id":"4","last_reported":1753294548,"current_range_meters":14400,"station_id":"ce4bhgp2rcd13ifvqfc0","pricing_plan_id":"cebpf4jnsgd1na2vs0mg"},{"bike_id":"8653745e-84f9-4064-b6e8-6e4e8bfce0ff","system_id":"levelo_inurba_marseille","lat":43.23962,"lon":5.36625,"is_reserved":false,"is_disabled":false,"rental_uris":{"android":"levelo://app?vid=8653745e-84f9-4064-b6e8-6e4e8bfce0ff","ios":"levelo://app?vid=8653745e-84f9-4064-b6e8-6e4e8bfce0ff"},"vehicle_type_id":"4","last_reported":1753294548,"current_range_meters":14400,"station_id":"ce4bhi12rcd13ifvqfp0","pricing_plan_id":"cebpf4jnsgd1na2vs0mg"},{"bike_id":"47fdeeef-961b-476a-af11-ef00a1f2d649","system_id":"levelo_inurba_marseille","lat":43.28471,"lon":5.38411,"is_reserved":false,"is_disabled":false,"rental_uris":{"android":"levelo://app?vid=47fdeeef-961b-476a-af11-ef00a1f2d649","ios":"levelo://app?vid=47fdeeef-961b-476a-af11-ef00a1f2d649"},"vehicle_type_id":"4","last_reported":1753294548,"current_range_meters":14000,"station_id":"ce4bh512rcd13ifvqe3g","pricing_plan_id":"cebpf4jnsgd1na2vs0mg"},{"bike_id":"40902f81-8d4b-4071-aa25-91bac3573b61","system_id":"levelo_inurba_marseille","lat":43.29704,"lon":5.36616,"is_reserved":false,"is_disabled":false,"rental_uris":{"android":"levelo://app?vid=40902f81-8d4b-4071-aa25-91bac3573b61","ios":"levelo://app?vid=40902f81-8d4b-4071-aa25-91bac3573b61"},"vehicle_type_id":"4","last_reported":1753294548,"current_range_meters":14400,"station_id":"ce4bgn12rcd13ifvqbt0","pricing_plan_id":"cebpf4jnsgd1na2vs0mg"},{"bike_id":"f9c9ff83-8548-4acb-a33b-495af4adeef4","system_id":"levelo_inurba_marseille","lat":43.323586,"lon":5.367541,"is_reserved":false,"is_disabled":false,"rental_uris":{"android":"levelo://app?vid=f9c9ff83-8548-4acb-a33b-495af4adeef4","ios":"levelo://app?vid=f9c9ff83-8548-4acb-a33b-495af4adeef4"},"vehicle_type_id":"4","last_reported":1753294548,"current_range_meters":14400,"station_id":"ce4bhsh2rcd13ifvqi2g","pricing_plan_id":"cebpf4jnsgd1na2vs0mg"},{"bike_id":"54565351-2225-417f-9c8c-9d8a706d6316","system_id":"levelo_inurba_marseille","lat":43.29985,"lon":5.38454,"is_reserved":false,"is_disabled":false,"rental_uris":{"android":"levelo://app?vid=54565351-2225-417f-9c8c-9d8a706d6316","ios":"levelo://app?vid=54565351-2225-417f-9c8c-9d8a706d6316"},"vehicle_type_id":"4","last_reported":1753294548,"current_range_meters":14400,"station_id":"ce4bgj92rcd13ifvqbd0","pricing_plan_id":"cebpf4jnsgd1na2vs0mg"},{"bike_id":"541e3f7a-640b-4d8c-977d-949ca2a087ab","system_id":"levelo_inurba_marseille","lat":43.30796,"lon":5.379577,"is_reserved":false,"is_disabled":true,"rental_uris":{"android":"levelo://app?vid=541e3f7a-640b-4d8c-977d-949ca2a087ab","ios":"levelo://app?vid=541e3f7a-640b-4d8c-977d-949ca2a087ab"},"vehicle_type_id":"4","last_reported":1753294548,"current_range_meters":14400,"station_id":"ce4bgt12rcd13ifvqce0","pricing_plan_id":"cebpf4jnsgd1na2vs0mg"},{"bike_id":"8ebe434f-5d79-4aab-96e5-a8436d434fd7","system_id":"levelo_inurba_marseille","lat":43.32338,"lon":5.40617,"is_reserved":false,"is_disabled":false,"rental_uris":{"android":"levelo://app?vid=8ebe434f-5d79-4aab-96e5-a8436d434fd7","ios":"levelo://app?vid=8ebe434f-5d79-4aab-96e5-a8436d434fd7"},"vehicle_type_id":"4","last_reported":1753294548,"current_range_meters":14400,"station_id":"ce4bhq92rcd13ifvqhjg","pricing_plan_id":"cebpf4jnsgd1na2vs0mg"},{"bike_id":"ba41c70d-58da-4ac8-b646-54004092a48b","system_id":"levelo_inurba_marseille","lat":43.29581,"lon":5.36743,"is_reserved":false,"is_disabled":false,"rental_uris":{"android":"levelo://app?vid=ba41c70d-58da-4ac8-b646-54004092a48b","ios":"levelo://app?vid=ba41c70d-58da-4ac8-b646-54004092a48b"},"vehicle_type_id":"4","last_reported":1753294548,"current_range_meters":14400,"station_id":"ce4bgph2rcd13ifvqc2g","pricing_plan_id":"cebpf4jnsgd1na2vs0mg"},{"bike_id":"aff59bf4-d41f-4814-855d-d8827fa9942f","system_id":"levelo_inurba_marseille","lat":43.29843,"lon":5.36266,"is_reserved":false,"is_disabled":false,"rental_uris":{"android":"levelo://app?vid=aff59bf4-d41f-4814-855d-d8827fa9942f","ios":"levelo://app?vid=aff59bf4-d41f-4814-855d-d8827fa9942f"},"vehicle_type_id":"4","last_reported":1753294548,"current_range_meters":14400,"station_id":"ce4bgpp2rcd13ifvqc3g","pricing_plan_id":"cebpf4jnsgd1na2vs0mg"},{"bike_id":"8da50daa-01e3-4f17-ab0c-8f1f061fcf2c","system_id":"levelo_inurba_marseille","lat":43.26211,"lon":5.37439,"is_reserved":false,"is_disabled":false,"rental_uris":{"android":"levelo://app?vid=8da50daa-01e3-4f17-ab0c-8f1f061fcf2c","ios":"levelo://app?vid=8da50daa-01e3-4f17-ab0c-8f1f061fcf2c"},"vehicle_type_id":"4","last_reported":1753294548,"current_range_meters":14400,"station_id":"ce4bhgp2rcd13ifvqfc0","pricing_plan_id":"cebpf4jnsgd1na2vs0mg"},{"bike_id":"c3b7093a-c6fc-4872-a465-95918521be48","system_id":"levelo_inurba_marseille","lat":43.31489,"lon":5.37317,"is_reserved":false,"is_disabled":false,"rental_uris":{"android":"levelo://app?vid=c3b7093a-c6fc-4872-a465-95918521be48","ios":"levelo://app?vid=c3b7093a-c6fc-4872-a465-95918521be48"},"vehicle_type_id":"4","last_reported":1753294548,"current_range_meters":14800,"station_id":"ce4bgt12rcd13ifvqcd0","pricing_plan_id":"cebpf4jnsgd1na2vs0mg"},{"bike_id":"9de6cfb0-c1e2-44e5-9167-d747be9c379c","system_id":"levelo_inurba_marseille","lat":43.29707,"lon":5.36605,"is_reserved":false,"is_disabled":false,"rental_uris":{"android":"levelo://app?vid=9de6cfb0-c1e2-44e5-9167-d747be9c379c","ios":"levelo://app?vid=9de6cfb0-c1e2-44e5-9167-d747be9c379c"},"vehicle_type_id":"4","last_reported":1753294548,"current_range_meters":14800,"station_id":"ce4bgn12rcd13ifvqbt0","pricing_plan_id":"cebpf4jnsgd1na2vs0mg"},{"bike_id":"d5a6c524-d271-4f57-a2f0-642fd942afc3","system_id":"levelo_inurba_marseille","lat":43.28607,"lon":5.37063,"is_reserved":false,"is_disabled":false,"rental_uris":{"android":"levelo://app?vid=d5a6c524-d271-4f57-a2f0-642fd942afc3","ios":"levelo://app?vid=d5a6c524-d271-4f57-a2f0-642fd942afc3"},"vehicle_type_id":"4","last_reported":1753294548,"current_range_meters":14800,"station_id":"ce4bht12rcd13ifvqi60","pricing_plan_id":"cebpf4jnsgd1na2vs0mg"},{"bike_id":"f3217e35-0bb5-43ab-beb0-dd5e233a7114","system_id":"levelo_inurba_marseille","lat":43.25584,"lon":5.3823,"is_reserved":false,"is_disabled":false,"rental_uris":{"android":"levelo://app?vid=f3217e35-0bb5-43ab-beb0-dd5e233a7114","ios":"levelo://app?vid=f3217e35-0bb5-43ab-beb0-dd5e233a7114"},"vehicle_type_id":"4","last_reported":1753294548,"current_range_meters":14800,"station_id":"ce4bhih2rcd13ifvqfs0","pricing_plan_id":"cebpf4jnsgd1na2vs0mg"},{"bike_id":"b5ce8d93-17c0-45a5-b2b1-eefce45c2d79","system_id":"levelo_inurba_marseille","lat":43.31815,"lon":5.43511,"is_reserved":false,"is_disabled":false,"rental_uris":{"android":"levelo://app?vid=b5ce8d93-17c0-45a5-b2b1-eefce45c2d79","ios":"levelo://app?vid=b5ce8d93-17c0-45a5-b2b1-eefce45c2d79"},"vehicle_type_id":"4","last_reported":1753294548,"current_range_meters":14800,"station_id":"","pricing_plan_id":"cebpf4jnsgd1na2vs0mg"},{"bike_id":"8c88448a-fb33-41bd-ae09-f0aac6cee4c1","system_id":"levelo_inurba_marseille","lat":43.26207,"lon":5.37443,"is_reserved":false,"is_disabled":false,"rental_uris":{"android":"levelo://app?vid=8c88448a-fb33-41bd-ae09-f0aac6cee4c1","ios":"levelo://app?vid=8c88448a-fb33-41bd-ae09-f0aac6cee4c1"},"vehicle_type_id":"4","last_reported":1753294548,"current_range_meters":14800,"station_id":"ce4bhgp2rcd13ifvqfc0","pricing_plan_id":"cebpf4jnsgd1na2vs0mg"},{"bike_id":"a0de01aa-cd68-4a4d-8bab-65fa167b8610","system_id":"levelo_inurba_marseille","lat":43.23188,"lon":5.35554,"is_reserved":false,"is_disabled":false,"rental_uris":{"android":"levelo://app?vid=a0de01aa-cd68-4a4d-8bab-65fa167b8610","ios":"levelo://app?vid=a0de01aa-cd68-4a4d-8bab-65fa167b8610"},"vehicle_type_id":"4","last_reported":1753294548,"current_range_meters":14800,"station_id":"ce4bhu92rcd13ifvqi70","pricing_plan_id":"cebpf4jnsgd1na2vs0mg"},{"bike_id":"05d5c66f-02bb-4064-a6c8-71cb8639f525","system_id":"levelo_inurba_marseille","lat":43.30333,"lon":5.4044,"is_reserved":false,"is_disabled":false,"rental_uris":{"android":"levelo://app?vid=05d5c66f-02bb-4064-a6c8-71cb8639f525","ios":"levelo://app?vid=05d5c66f-02bb-4064-a6c8-71cb8639f525"},"vehicle_type_id":"4","last_reported":1753294548,"current_range_meters":14800,"station_id":"ce4bh012rcd13ifvqd10","pricing_plan_id":"cebpf4jnsgd1na2vs0mg"},{"bike_id":"235d17f2-1160-4eec-b8d8-3e994fc8a01c","system_id":"levelo_inurba_marseille","lat":43.29208,"lon":5.39323,"is_reserved":false,"is_disabled":false,"rental_uris":{"android":"levelo://app?vid=235d17f2-1160-4eec-b8d8-3e994fc8a01c","ios":"levelo://app?vid=235d17f2-1160-4eec-b8d8-3e994fc8a01c"},"vehicle_type_id":"4","last_reported":1753294548,"current_range_meters":14400,"station_id":"ce4bh192rcd13ifvqdd0","pricing_plan_id":"cebpf4jnsgd1na2vs0mg"},{"bike_id":"9ce312f1-cb07-4159-91d6-c11a68a5ee71","system_id":"levelo_inurba_marseille","lat":43.2119,"lon":5.35082,"is_reserved":false,"is_disabled":false,"rental_uris":{"android":"levelo://app?vid=9ce312f1-cb07-4159-91d6-c11a68a5ee71","ios":"levelo://app?vid=9ce312f1-cb07-4159-91d6-c11a68a5ee71"},"vehicle_type_id":"4","last_reported":1753294548,"current_range_meters":14800,"station_id":"st_cvj6sg6p6f1abm77japg","pricing_plan_id":"cebpf4jnsgd1na2vs0mg"},{"bike_id":"4146a86d-1ed4-4812-9a5e-6ae6a5cae5b1","system_id":"levelo_inurba_marseille","lat":43.28625,"lon":5.35097,"is_reserved":false,"is_disabled":false,"rental_uris":{"android":"levelo://app?vid=4146a86d-1ed4-4812-9a5e-6ae6a5cae5b1","ios":"levelo://app?vid=4146a86d-1ed4-4812-9a5e-6ae6a5cae5b1"},"vehicle_type_id":"4","last_reported":1753294548,"current_range_meters":15200,"station_id":"ce4bhch2rcd13ifvqeug","pricing_plan_id":"cebpf4jnsgd1na2vs0mg"},{"bike_id":"b43e88a8-f987-49d6-a5e8-47e9a48de909","system_id":"levelo_inurba_marseille","lat":43.29682,"lon":5.37279,"is_reserved":false,"is_disabled":false,"rental_uris":{"android":"levelo://app?vid=b43e88a8-f987-49d6-a5e8-47e9a48de909","ios":"levelo://app?vid=b43e88a8-f987-49d6-a5e8-47e9a48de909"},"vehicle_type_id":"4","last_reported":1753294548,"current_range_meters":15200,"station_id":"ce4bgk12rcd13ifvqbj0","pricing_plan_id":"cebpf4jnsgd1na2vs0mg"},{"bike_id":"4221ea47-6576-470b-8868-b982e0a063b6","system_id":"levelo_inurba_marseille","lat":43.26934,"lon":5.40245,"is_reserved":false,"is_disabled":false,"rental_uris":{"android":"levelo://app?vid=4221ea47-6576-470b-8868-b982e0a063b6","ios":"levelo://app?vid=4221ea47-6576-470b-8868-b982e0a063b6"},"vehicle_type_id":"4","last_reported":1753294548,"current_range_meters":15200,"station_id":"cjm6bp8fraef2m0cb0m0","pricing_plan_id":"cebpf4jnsgd1na2vs0mg"},{"bike_id":"028b05be-ec4c-43ca-adc8-d551502182de","system_id":"levelo_inurba_marseille","lat":43.255805,"lon":5.382353,"is_reserved":false,"is_disabled":false,"rental_uris":{"android":"levelo://app?vid=028b05be-ec4c-43ca-adc8-d551502182de","ios":"levelo://app?vid=028b05be-ec4c-43ca-adc8-d551502182de"},"vehicle_type_id":"4","last_reported":1753294548,"current_range_meters":15200,"station_id":"ce4bhih2rcd13ifvqfs0","pricing_plan_id":"cebpf4jnsgd1na2vs0mg"},{"bike_id":"8cb533f0-6034-460b-90e0-0fbfd987312f","system_id":"levelo_inurba_marseille","lat":43.29846,"lon":5.36276,"is_reserved":false,"is_disabled":false,"rental_uris":{"android":"levelo://app?vid=8cb533f0-6034-460b-90e0-0fbfd987312f","ios":"levelo://app?vid=8cb533f0-6034-460b-90e0-0fbfd987312f"},"vehicle_type_id":"4","last_reported":1753294548,"current_range_meters":15200,"station_id":"ce4bgpp2rcd13ifvqc3g","pricing_plan_id":"cebpf4jnsgd1na2vs0mg"},{"bike_id":"8006020a-6cfe-4131-82ca-a6c8f07671d2","system_id":"levelo_inurba_marseille","lat":43.311849,"lon":5.377173,"is_reserved":false,"is_disabled":false,"rental_uris":{"android":"levelo://app?vid=8006020a-6cfe-4131-82ca-a6c8f07671d2","ios":"levelo://app?vid=8006020a-6cfe-4131-82ca-a6c8f07671d2"},"vehicle_type_id":"4","last_reported":1753294548,"current_range_meters":15200,"station_id":"","pricing_plan_id":"cebpf4jnsgd1na2vs0mg"},{"bike_id":"e9f5eb0b-095e-4dc2-b77c-57c16ce50130","system_id":"levelo_inurba_marseille","lat":43.295909,"lon":5.367507,"is_reserved":false,"is_disabled":false,"rental_uris":{"android":"levelo://app?vid=e9f5eb0b-095e-4dc2-b77c-57c16ce50130","ios":"levelo://app?vid=e9f5eb0b-095e-4dc2-b77c-57c16ce50130"},"vehicle_type_id":"4","last_reported":1753294548,"current_range_meters":15200,"station_id":"ce4bgph2rcd13ifvqc2g","pricing_plan_id":"cebpf4jnsgd1na2vs0mg"},{"bike_id":"7bcafd57-2b08-4740-a5cc-29e82d6d3cd7","system_id":"levelo_inurba_marseille","lat":43.31988,"lon":5.38153,"is_reserved":false,"is_disabled":false,"rental_uris":{"android":"levelo://app?vid=7bcafd57-2b08-4740-a5cc-29e82d6d3cd7","ios":"levelo://app?vid=7bcafd57-2b08-4740-a5cc-29e82d6d3cd7"},"vehicle_type_id":"4","last_reported":1753294548,"current_range_meters":15200,"station_id":"ce4bhr12rcd13ifvqhpg","pricing_plan_id":"cebpf4jnsgd1na2vs0mg"},{"bike_id":"a3640f8d-e562-4f12-8803-79ea76a806b7","system_id":"levelo_inurba_marseille","lat":43.26547,"lon":5.3728,"is_reserved":false,"is_disabled":false,"rental_uris":{"android":"levelo://app?vid=a3640f8d-e562-4f12-8803-79ea76a806b7","ios":"levelo://app?vid=a3640f8d-e562-4f12-8803-79ea76a806b7"},"vehicle_type_id":"4","last_reported":1753294548,"current_range_meters":15200,"station_id":"ce4bhg12rcd13ifvqf70","pricing_plan_id":"cebpf4jnsgd1na2vs0mg"},{"bike_id":"f8232130-db52-4ff5-b354-f78033a04c00","system_id":"levelo_inurba_marseille","lat":43.279537,"lon":5.410367,"is_reserved":false,"is_disabled":false,"rental_uris":{"android":"levelo://app?vid=f8232130-db52-4ff5-b354-f78033a04c00","ios":"levelo://app?vid=f8232130-db52-4ff5-b354-f78033a04c00"},"vehicle_type_id":"4","last_reported":1753294548,"current_range_meters":15200,"station_id":"ce4bhnp2rcd13ifvqh0g","pricing_plan_id":"cebpf4jnsgd1na2vs0mg"},{"bike_id":"92e197f5-5f7e-41ca-932d-2a3ff826c4fb","system_id":"levelo_inurba_marseille","lat":43.29708,"lon":5.36613,"is_reserved":false,"is_disabled":false,"rental_uris":{"android":"levelo://app?vid=92e197f5-5f7e-41ca-932d-2a3ff826c4fb","ios":"levelo://app?vid=92e197f5-5f7e-41ca-932d-2a3ff826c4fb"},"vehicle_type_id":"4","last_reported":1753294548,"current_range_meters":15200,"station_id":"ce4bgn12rcd13ifvqbt0","pricing_plan_id":"cebpf4jnsgd1na2vs0mg"},{"bike_id":"d4e5dd79-2b52-4d97-8cab-d2aa23e54cd3","system_id":"levelo_inurba_marseille","lat":43.29275,"lon":5.38412,"is_reserved":false,"is_disabled":false,"rental_uris":{"android":"levelo://app?vid=d4e5dd79-2b52-4d97-8cab-d2aa23e54cd3","ios":"levelo://app?vid=d4e5dd79-2b52-4d97-8cab-d2aa23e54cd3"},"vehicle_type_id":"4","last_reported":1753294548,"current_range_meters":16000,"station_id":"ce4bh692rcd13ifvqea0","pricing_plan_id":"cebpf4jnsgd1na2vs0mg"},{"bike_id":"3cd75047-aa00-4aaf-aea9-8cc2ab40feec","system_id":"levelo_inurba_marseille","lat":43.29029,"lon":5.38643,"is_reserved":false,"is_disabled":false,"rental_uris":{"android":"levelo://app?vid=3cd75047-aa00-4aaf-aea9-8cc2ab40feec","ios":"levelo://app?vid=3cd75047-aa00-4aaf-aea9-8cc2ab40feec"},"vehicle_type_id":"4","last_reported":1753294548,"current_range_meters":16000,"station_id":"ce4bh4p2rcd13ifvqe0g","pricing_plan_id":"cebpf4jnsgd1na2vs0mg"},{"bike_id":"3a34296d-1be3-479f-82c2-a5eaa8daf0d7","system_id":"levelo_inurba_marseille","lat":43.23182,"lon":5.39994,"is_reserved":false,"is_disabled":false,"rental_uris":{"android":"levelo://app?vid=3a34296d-1be3-479f-82c2-a5eaa8daf0d7","ios":"levelo://app?vid=3a34296d-1be3-479f-82c2-a5eaa8daf0d7"},"vehicle_type_id":"4","last_reported":1753294548,"current_range_meters":16000,"station_id":"ce4bhn12rcd13ifvqgqg","pricing_plan_id":"cebpf4jnsgd1na2vs0mg"},{"bike_id":"ccbcedb2-9dbc-4ee9-8baa-a4e195d13cdd","system_id":"levelo_inurba_marseille","lat":43.24154,"lon":5.3641,"is_reserved":false,"is_disabled":false,"rental_uris":{"android":"levelo://app?vid=ccbcedb2-9dbc-4ee9-8baa-a4e195d13cdd","ios":"levelo://app?vid=ccbcedb2-9dbc-4ee9-8baa-a4e195d13cdd"},"vehicle_type_id":"4","last_reported":1753294548,"current_range_meters":16000,"station_id":"cpo36qri1sfpv3e86is0","pricing_plan_id":"cebpf4jnsgd1na2vs0mg"},{"bike_id":"4fca153b-9dee-43e4-9d3d-784cffa27ce0","system_id":"levelo_inurba_marseille","lat":43.301319,"lon":5.39874,"is_reserved":false,"is_disabled":false,"rental_uris":{"android":"levelo://app?vid=4fca153b-9dee-43e4-9d3d-784cffa27ce0","ios":"levelo://app?vid=4fca153b-9dee-43e4-9d3d-784cffa27ce0"},"vehicle_type_id":"4","last_reported":1753294548,"current_range_meters":16000,"station_id":"","pricing_plan_id":"cebpf4jnsgd1na2vs0mg"},{"bike_id":"83f868a2-5d8e-48ef-ac82-40376bea65ae","system_id":"levelo_inurba_marseille","lat":43.25583,"lon":5.38217,"is_reserved":false,"is_disabled":false,"rental_uris":{"android":"levelo://app?vid=83f868a2-5d8e-48ef-ac82-40376bea65ae","ios":"levelo://app?vid=83f868a2-5d8e-48ef-ac82-40376bea65ae"},"vehicle_type_id":"4","last_reported":1753294548,"current_range_meters":16000,"station_id":"ce4bhih2rcd13ifvqfs0","pricing_plan_id":"cebpf4jnsgd1na2vs0mg"},{"bike_id":"0c1a2b41-8927-405d-88bc-502c9b38cec6","system_id":"levelo_inurba_marseille","lat":43.29233,"lon":5.38361,"is_reserved":false,"is_disabled":false,"rental_uris":{"android":"levelo://app?vid=0c1a2b41-8927-405d-88bc-502c9b38cec6","ios":"levelo://app?vid=0c1a2b41-8927-405d-88bc-502c9b38cec6"},"vehicle_type_id":"4","last_reported":1753294548,"current_range_meters":16000,"station_id":"","pricing_plan_id":"cebpf4jnsgd1na2vs0mg"},{"bike_id":"b2b7f5e4-9a64-46ef-9d20-104d4c275bfa","system_id":"levelo_inurba_marseille","lat":43.21191,"lon":5.350721,"is_reserved":false,"is_disabled":false,"rental_uris":{"android":"levelo://app?vid=b2b7f5e4-9a64-46ef-9d20-104d4c275bfa","ios":"levelo://app?vid=b2b7f5e4-9a64-46ef-9d20-104d4c275bfa"},"vehicle_type_id":"4","last_reported":1753294548,"current_range_meters":16000,"station_id":"st_cvj6sg6p6f1abm77japg","pricing_plan_id":"cebpf4jnsgd1na2vs0mg"},{"bike_id":"857088bc-25ce-44bf-8388-aaaeaeb5a8f7","system_id":"levelo_inurba_marseille","lat":43.295288,"lon":5.385382,"is_reserved":false,"is_disabled":false,"rental_uris":{"android":"levelo://app?vid=857088bc-25ce-44bf-8388-aaaeaeb5a8f7","ios":"levelo://app?vid=857088bc-25ce-44bf-8388-aaaeaeb5a8f7"},"vehicle_type_id":"4","last_reported":1753294548,"current_range_meters":16000,"station_id":"ce4bgih2rcd13ifvqba0","pricing_plan_id":"cebpf4jnsgd1na2vs0mg"},{"bike_id":"872d6688-34e9-4e87-9a71-30f9e710a775","system_id":"levelo_inurba_marseille","lat":43.26576,"lon":5.37304,"is_reserved":false,"is_disabled":false,"rental_uris":{"android":"levelo://app?vid=872d6688-34e9-4e87-9a71-30f9e710a775","ios":"levelo://app?vid=872d6688-34e9-4e87-9a71-30f9e710a775"},"vehicle_type_id":"4","last_reported":1753294548,"current_range_meters":16000,"station_id":"ce4bhg12rcd13ifvqf70","pricing_plan_id":"cebpf4jnsgd1na2vs0mg"},{"bike_id":"f493a3a9-7f6b-470e-bce7-7019418af039","system_id":"levelo_inurba_marseille","lat":43.27905,"lon":5.37993,"is_reserved":false,"is_disabled":false,"rental_uris":{"android":"levelo://app?vid=f493a3a9-7f6b-470e-bce7-7019418af039","ios":"levelo://app?vid=f493a3a9-7f6b-470e-bce7-7019418af039"},"vehicle_type_id":"4","last_reported":1753294548,"current_range_meters":16000,"station_id":"ce4bhf92rcd13ifvqf50","pricing_plan_id":"cebpf4jnsgd1na2vs0mg"},{"bike_id":"c5b6e4f9-7b58-468e-87dd-3b39b07fbb76","system_id":"levelo_inurba_marseille","lat":43.29579,"lon":5.36746,"is_reserved":false,"is_disabled":false,"rental_uris":{"android":"levelo://app?vid=c5b6e4f9-7b58-468e-87dd-3b39b07fbb76","ios":"levelo://app?vid=c5b6e4f9-7b58-468e-87dd-3b39b07fbb76"},"vehicle_type_id":"4","last_reported":1753294548,"current_range_meters":16000,"station_id":"ce4bgph2rcd13ifvqc2g","pricing_plan_id":"cebpf4jnsgd1na2vs0mg"},{"bike_id":"da02e45a-a7af-4ba3-a013-1f386c6cc032","system_id":"levelo_inurba_marseille","lat":43.29584,"lon":5.36746,"is_reserved":false,"is_disabled":false,"rental_uris":{"android":"levelo://app?vid=da02e45a-a7af-4ba3-a013-1f386c6cc032","ios":"levelo://app?vid=da02e45a-a7af-4ba3-a013-1f386c6cc032"},"vehicle_type_id":"4","last_reported":1753294548,"current_range_meters":16000,"station_id":"ce4bgph2rcd13ifvqc2g","pricing_plan_id":"cebpf4jnsgd1na2vs0mg"},{"bike_id":"75921511-23bf-408f-9470-1062209789d6","system_id":"levelo_inurba_marseille","lat":43.25578,"lon":5.38234,"is_reserved":false,"is_disabled":false,"rental_uris":{"android":"levelo://app?vid=75921511-23bf-408f-9470-1062209789d6","ios":"levelo://app?vid=75921511-23bf-408f-9470-1062209789d6"},"vehicle_type_id":"4","last_reported":1753294548,"current_range_meters":16400,"station_id":"ce4bhih2rcd13ifvqfs0","pricing_plan_id":"cebpf4jnsgd1na2vs0mg"},{"bike_id":"a1f4bb69-f088-4646-88e2-b0ed08b1320e","system_id":"levelo_inurba_marseille","lat":43.29267,"lon":5.38439,"is_reserved":false,"is_disabled":false,"rental_uris":{"android":"levelo://app?vid=a1f4bb69-f088-4646-88e2-b0ed08b1320e","ios":"levelo://app?vid=a1f4bb69-f088-4646-88e2-b0ed08b1320e"},"vehicle_type_id":"4","last_reported":1753294548,"current_range_meters":16400,"station_id":"ce4bh692rcd13ifvqea0","pricing_plan_id":"cebpf4jnsgd1na2vs0mg"},{"bike_id":"496cac02-0e91-4f64-97b9-cb34cf0ab931","system_id":"levelo_inurba_marseille","lat":43.22486,"lon":5.34822,"is_reserved":false,"is_disabled":false,"rental_uris":{"android":"levelo://app?vid=496cac02-0e91-4f64-97b9-cb34cf0ab931","ios":"levelo://app?vid=496cac02-0e91-4f64-97b9-cb34cf0ab931"},"vehicle_type_id":"4","last_reported":1753294548,"current_range_meters":16400,"station_id":"st_cvj5dfep6f1abm77gieg","pricing_plan_id":"cebpf4jnsgd1na2vs0mg"},{"bike_id":"6b2e2ed8-ffe2-4f89-a042-b1e685405d1b","system_id":"levelo_inurba_marseille","lat":43.292694,"lon":5.368584,"is_reserved":false,"is_disabled":false,"rental_uris":{"android":"levelo://app?vid=6b2e2ed8-ffe2-4f89-a042-b1e685405d1b","ios":"levelo://app?vid=6b2e2ed8-ffe2-4f89-a042-b1e685405d1b"},"vehicle_type_id":"4","last_reported":1753294548,"current_range_meters":16400,"station_id":"ce4bhbp2rcd13ifvqesg","pricing_plan_id":"cebpf4jnsgd1na2vs0mg"},{"bike_id":"30751c1d-3255-4dc7-8d53-863587d61fa3","system_id":"levelo_inurba_marseille","lat":43.30244,"lon":5.40039,"is_reserved":false,"is_disabled":false,"rental_uris":{"android":"levelo://app?vid=30751c1d-3255-4dc7-8d53-863587d61fa3","ios":"levelo://app?vid=30751c1d-3255-4dc7-8d53-863587d61fa3"},"vehicle_type_id":"4","last_reported":1753294548,"current_range_meters":16400,"station_id":"ce4bgvh2rcd13ifvqcs0","pricing_plan_id":"cebpf4jnsgd1na2vs0mg"},{"bike_id":"0648eb3b-38dc-45ba-994e-ffad74a620d8","system_id":"levelo_inurba_marseille","lat":43.29025,"lon":5.38642,"is_reserved":false,"is_disabled":true,"rental_uris":{"android":"levelo://app?vid=0648eb3b-38dc-45ba-994e-ffad74a620d8","ios":"levelo://app?vid=0648eb3b-38dc-45ba-994e-ffad74a620d8"},"vehicle_type_id":"4","last_reported":1753294548,"current_range_meters":16400,"station_id":"ce4bh4p2rcd13ifvqe0g","pricing_plan_id":"cebpf4jnsgd1na2vs0mg"},{"bike_id":"7e231082-ca80-484a-8170-64d2cde0d7a2","system_id":"levelo_inurba_marseille","lat":43.29027,"lon":5.38639,"is_reserved":false,"is_disabled":false,"rental_uris":{"android":"levelo://app?vid=7e231082-ca80-484a-8170-64d2cde0d7a2","ios":"levelo://app?vid=7e231082-ca80-484a-8170-64d2cde0d7a2"},"vehicle_type_id":"4","last_reported":1753294548,"current_range_meters":16400,"station_id":"ce4bh4p2rcd13ifvqe0g","pricing_plan_id":"cebpf4jnsgd1na2vs0mg"},{"bike_id":"3cd09fc8-9554-4236-8496-0931a7be09d1","system_id":"levelo_inurba_marseille","lat":43.21213,"lon":5.35048,"is_reserved":false,"is_disabled":false,"rental_uris":{"android":"levelo://app?vid=3cd09fc8-9554-4236-8496-0931a7be09d1","ios":"levelo://app?vid=3cd09fc8-9554-4236-8496-0931a7be09d1"},"vehicle_type_id":"4","last_reported":1753294548,"current_range_meters":16400,"station_id":"st_cvj6sg6p6f1abm77japg","pricing_plan_id":"cebpf4jnsgd1na2vs0mg"},{"bike_id":"244a5255-a8ca-4b60-99f0-8916a4312f1f","system_id":"levelo_inurba_marseille","lat":43.28629,"lon":5.35102,"is_reserved":false,"is_disabled":false,"rental_uris":{"android":"levelo://app?vid=244a5255-a8ca-4b60-99f0-8916a4312f1f","ios":"levelo://app?vid=244a5255-a8ca-4b60-99f0-8916a4312f1f"},"vehicle_type_id":"4","last_reported":1753294548,"current_range_meters":16400,"station_id":"ce4bhch2rcd13ifvqeug","pricing_plan_id":"cebpf4jnsgd1na2vs0mg"},{"bike_id":"f6419716-c272-46b5-b908-d91a04b2b53d","system_id":"levelo_inurba_marseille","lat":43.28043,"lon":5.36912,"is_reserved":false,"is_disabled":false,"rental_uris":{"android":"levelo://app?vid=f6419716-c272-46b5-b908-d91a04b2b53d","ios":"levelo://app?vid=f6419716-c272-46b5-b908-d91a04b2b53d"},"vehicle_type_id":"4","last_reported":1753294548,"current_range_meters":16400,"station_id":"ce4bha12rcd13ifvqef0","pricing_plan_id":"cebpf4jnsgd1na2vs0mg"},{"bike_id":"0f015389-098c-449f-91dd-7f77c61d6819","system_id":"levelo_inurba_marseille","lat":43.29272,"lon":5.38436,"is_reserved":false,"is_disabled":false,"rental_uris":{"android":"levelo://app?vid=0f015389-098c-449f-91dd-7f77c61d6819","ios":"levelo://app?vid=0f015389-098c-449f-91dd-7f77c61d6819"},"vehicle_type_id":"4","last_reported":1753294548,"current_range_meters":16000,"station_id":"ce4bh692rcd13ifvqea0","pricing_plan_id":"cebpf4jnsgd1na2vs0mg"},{"bike_id":"072249e0-6b31-4d65-814c-3886177b7a41","system_id":"levelo_inurba_marseille","lat":43.31766,"lon":5.39002,"is_reserved":false,"is_disabled":false,"rental_uris":{"android":"levelo://app?vid=072249e0-6b31-4d65-814c-3886177b7a41","ios":"levelo://app?vid=072249e0-6b31-4d65-814c-3886177b7a41"},"vehicle_type_id":"4","last_reported":1753294548,"current_range_meters":16400,"station_id":"ce4bhqp2rcd13ifvqhng","pricing_plan_id":"cebpf4jnsgd1na2vs0mg"},{"bike_id":"f9003d10-d9c2-4f36-aaab-0b06e5143ac9","system_id":"levelo_inurba_marseille","lat":43.30141,"lon":5.37414,"is_reserved":false,"is_disabled":true,"rental_uris":{"android":"levelo://app?vid=f9003d10-d9c2-4f36-aaab-0b06e5143ac9","ios":"levelo://app?vid=f9003d10-d9c2-4f36-aaab-0b06e5143ac9"},"vehicle_type_id":"4","last_reported":1753294548,"current_range_meters":16800,"station_id":"ce4bgs92rcd13ifvqcc0","pricing_plan_id":"cebpf4jnsgd1na2vs0mg"},{"bike_id":"59300e59-a91f-495e-a1a0-4bc27158b54b","system_id":"levelo_inurba_marseille","lat":43.30216,"lon":5.39474,"is_reserved":false,"is_disabled":false,"rental_uris":{"android":"levelo://app?vid=59300e59-a91f-495e-a1a0-4bc27158b54b","ios":"levelo://app?vid=59300e59-a91f-495e-a1a0-4bc27158b54b"},"vehicle_type_id":"4","last_reported":1753294548,"current_range_meters":16800,"station_id":"ce4bh0p2rcd13ifvqd70","pricing_plan_id":"cebpf4jnsgd1na2vs0mg"},{"bike_id":"5ac85406-65d0-4336-aa89-4b04b2e6689e","system_id":"levelo_inurba_marseille","lat":43.332784,"lon":5.419887,"is_reserved":false,"is_disabled":false,"rental_uris":{"android":"levelo://app?vid=5ac85406-65d0-4336-aa89-4b04b2e6689e","ios":"levelo://app?vid=5ac85406-65d0-4336-aa89-4b04b2e6689e"},"vehicle_type_id":"4","last_reported":1753294548,"current_range_meters":16800,"station_id":"","pricing_plan_id":"cebpf4jnsgd1na2vs0mg"},{"bike_id":"567226e1-1a13-47f3-8503-fd1183d7a942","system_id":"levelo_inurba_marseille","lat":43.30244,"lon":5.40037,"is_reserved":false,"is_disabled":false,"rental_uris":{"android":"levelo://app?vid=567226e1-1a13-47f3-8503-fd1183d7a942","ios":"levelo://app?vid=567226e1-1a13-47f3-8503-fd1183d7a942"},"vehicle_type_id":"4","last_reported":1753294548,"current_range_meters":16800,"station_id":"ce4bgvh2rcd13ifvqcs0","pricing_plan_id":"cebpf4jnsgd1na2vs0mg"},{"bike_id":"70737bad-8214-4681-8a7d-fa98042cf105","system_id":"levelo_inurba_marseille","lat":43.29015,"lon":5.39971,"is_reserved":false,"is_disabled":false,"rental_uris":{"android":"levelo://app?vid=70737bad-8214-4681-8a7d-fa98042cf105","ios":"levelo://app?vid=70737bad-8214-4681-8a7d-fa98042cf105"},"vehicle_type_id":"4","last_reported":1753294548,"current_range_meters":16800,"station_id":"ce4bh392rcd13ifvqdm0","pricing_plan_id":"cebpf4jnsgd1na2vs0mg"},{"bike_id":"ae131367-d818-44a0-9e1d-4aa65dcdb16a","system_id":"levelo_inurba_marseille","lat":43.27521,"lon":5.39651,"is_reserved":false,"is_disabled":false,"rental_uris":{"android":"levelo://app?vid=ae131367-d818-44a0-9e1d-4aa65dcdb16a","ios":"levelo://app?vid=ae131367-d818-44a0-9e1d-4aa65dcdb16a"},"vehicle_type_id":"4","last_reported":1753294548,"current_range_meters":16800,"station_id":"","pricing_plan_id":"cebpf4jnsgd1na2vs0mg"},{"bike_id":"6aea8d16-54a3-4201-b872-e37b8fce6325","system_id":"levelo_inurba_marseille","lat":43.28662,"lon":5.36358,"is_reserved":false,"is_disabled":false,"rental_uris":{"android":"levelo://app?vid=6aea8d16-54a3-4201-b872-e37b8fce6325","ios":"levelo://app?vid=6aea8d16-54a3-4201-b872-e37b8fce6325"},"vehicle_type_id":"4","last_reported":1753294548,"current_range_meters":16800,"station_id":"ce4bhah2rcd13ifvqej0","pricing_plan_id":"cebpf4jnsgd1na2vs0mg"},{"bike_id":"67911e6a-1ddb-4fb2-b0eb-b87b39e6fdd1","system_id":"levelo_inurba_marseille","lat":43.29584,"lon":5.36742,"is_reserved":false,"is_disabled":false,"rental_uris":{"android":"levelo://app?vid=67911e6a-1ddb-4fb2-b0eb-b87b39e6fdd1","ios":"levelo://app?vid=67911e6a-1ddb-4fb2-b0eb-b87b39e6fdd1"},"vehicle_type_id":"4","last_reported":1753294548,"current_range_meters":16800,"station_id":"ce4bgph2rcd13ifvqc2g","pricing_plan_id":"cebpf4jnsgd1na2vs0mg"},{"bike_id":"6bb1f31c-9335-4f39-9585-31374a4775f9","system_id":"levelo_inurba_marseille","lat":43.325583,"lon":5.379059,"is_reserved":false,"is_disabled":false,"rental_uris":{"android":"levelo://app?vid=6bb1f31c-9335-4f39-9585-31374a4775f9","ios":"levelo://app?vid=6bb1f31c-9335-4f39-9585-31374a4775f9"},"vehicle_type_id":"4","last_reported":1753294548,"current_range_meters":16800,"station_id":"","pricing_plan_id":"cebpf4jnsgd1na2vs0mg"},{"bike_id":"4f4f81f1-cbbd-431c-b831-1e9d34b51205","system_id":"levelo_inurba_marseille","lat":43.29622,"lon":5.37139,"is_reserved":false,"is_disabled":false,"rental_uris":{"android":"levelo://app?vid=4f4f81f1-cbbd-431c-b831-1e9d34b51205","ios":"levelo://app?vid=4f4f81f1-cbbd-431c-b831-1e9d34b51205"},"vehicle_type_id":"4","last_reported":1753294548,"current_range_meters":16800,"station_id":"ce4bgnh2rcd13ifvqc0g","pricing_plan_id":"cebpf4jnsgd1na2vs0mg"},{"bike_id":"53c15f3f-9f6a-4154-b61d-26bc49f1eab5","system_id":"levelo_inurba_marseille","lat":43.313633,"lon":5.38497,"is_reserved":false,"is_disabled":false,"rental_uris":{"android":"levelo://app?vid=53c15f3f-9f6a-4154-b61d-26bc49f1eab5","ios":"levelo://app?vid=53c15f3f-9f6a-4154-b61d-26bc49f1eab5"},"vehicle_type_id":"4","last_reported":1753294548,"current_range_meters":16800,"station_id":"ce4bgt92rcd13ifvqcf0","pricing_plan_id":"cebpf4jnsgd1na2vs0mg"},{"bike_id":"f2104320-fc33-4c2c-8c0d-c1304a66328b","system_id":"levelo_inurba_marseille","lat":43.31331,"lon":5.3972,"is_reserved":false,"is_disabled":false,"rental_uris":{"android":"levelo://app?vid=f2104320-fc33-4c2c-8c0d-c1304a66328b","ios":"levelo://app?vid=f2104320-fc33-4c2c-8c0d-c1304a66328b"},"vehicle_type_id":"4","last_reported":1753294548,"current_range_meters":16800,"station_id":"ce4bgvp2rcd13ifvqcu0","pricing_plan_id":"cebpf4jnsgd1na2vs0mg"},{"bike_id":"54943e91-61ee-496b-9667-a7c6c3a25bb5","system_id":"levelo_inurba_marseille","lat":43.26238,"lon":5.37433,"is_reserved":false,"is_disabled":false,"rental_uris":{"android":"levelo://app?vid=54943e91-61ee-496b-9667-a7c6c3a25bb5","ios":"levelo://app?vid=54943e91-61ee-496b-9667-a7c6c3a25bb5"},"vehicle_type_id":"4","last_reported":1753294548,"current_range_meters":16800,"station_id":"ce4bhgp2rcd13ifvqfc0","pricing_plan_id":"cebpf4jnsgd1na2vs0mg"},{"bike_id":"b1611388-74da-4bd8-aa35-2fd1ff7cb76e","system_id":"levelo_inurba_marseille","lat":43.27068,"lon":5.4228,"is_reserved":false,"is_disabled":false,"rental_uris":{"android":"levelo://app?vid=b1611388-74da-4bd8-aa35-2fd1ff7cb76e","ios":"levelo://app?vid=b1611388-74da-4bd8-aa35-2fd1ff7cb76e"},"vehicle_type_id":"4","last_reported":1753294548,"current_range_meters":17200,"station_id":"ce4bhk92rcd13ifvqgb0","pricing_plan_id":"cebpf4jnsgd1na2vs0mg"},{"bike_id":"d22f12e0-07b2-4f02-842e-fbb9e03823fd","system_id":"levelo_inurba_marseille","lat":43.31755,"lon":5.39009,"is_reserved":false,"is_disabled":false,"rental_uris":{"android":"levelo://app?vid=d22f12e0-07b2-4f02-842e-fbb9e03823fd","ios":"levelo://app?vid=d22f12e0-07b2-4f02-842e-fbb9e03823fd"},"vehicle_type_id":"4","last_reported":1753294548,"current_range_meters":17200,"station_id":"ce4bhqp2rcd13ifvqhng","pricing_plan_id":"cebpf4jnsgd1na2vs0mg"},{"bike_id":"c9c42728-477d-41f4-9073-dd9e5b90e393","system_id":"levelo_inurba_marseille","lat":43.29266,"lon":5.38436,"is_reserved":false,"is_disabled":false,"rental_uris":{"android":"levelo://app?vid=c9c42728-477d-41f4-9073-dd9e5b90e393","ios":"levelo://app?vid=c9c42728-477d-41f4-9073-dd9e5b90e393"},"vehicle_type_id":"4","last_reported":1753294548,"current_range_meters":17200,"station_id":"ce4bh692rcd13ifvqea0","pricing_plan_id":"cebpf4jnsgd1na2vs0mg"},{"bike_id":"c056311f-78c9-4e18-8685-91c659ddb125","system_id":"levelo_inurba_marseille","lat":43.31614,"lon":5.38964,"is_reserved":false,"is_disabled":false,"rental_uris":{"android":"levelo://app?vid=c056311f-78c9-4e18-8685-91c659ddb125","ios":"levelo://app?vid=c056311f-78c9-4e18-8685-91c659ddb125"},"vehicle_type_id":"4","last_reported":1753294548,"current_range_meters":17200,"station_id":"","pricing_plan_id":"cebpf4jnsgd1na2vs0mg"},{"bike_id":"133fd068-2781-44be-8ad3-990efe2351fa","system_id":"levelo_inurba_marseille","lat":43.262241,"lon":5.387718,"is_reserved":false,"is_disabled":false,"rental_uris":{"android":"levelo://app?vid=133fd068-2781-44be-8ad3-990efe2351fa","ios":"levelo://app?vid=133fd068-2781-44be-8ad3-990efe2351fa"},"vehicle_type_id":"4","last_reported":1753294548,"current_range_meters":16800,"station_id":"ce4bhih2rcd13ifvqfs0","pricing_plan_id":"cebpf4jnsgd1na2vs0mg"},{"bike_id":"1699da3b-157a-4d07-ba4d-8fe9df7d93c7","system_id":"levelo_inurba_marseille","lat":43.30375,"lon":5.41931,"is_reserved":false,"is_disabled":false,"rental_uris":{"android":"levelo://app?vid=1699da3b-157a-4d07-ba4d-8fe9df7d93c7","ios":"levelo://app?vid=1699da3b-157a-4d07-ba4d-8fe9df7d93c7"},"vehicle_type_id":"4","last_reported":1753294548,"current_range_meters":17200,"station_id":"","pricing_plan_id":"cebpf4jnsgd1na2vs0mg"},{"bike_id":"18b86593-4f21-41ed-81b3-f3a5b378dc91","system_id":"levelo_inurba_marseille","lat":43.312339,"lon":5.381309,"is_reserved":false,"is_disabled":false,"rental_uris":{"android":"levelo://app?vid=18b86593-4f21-41ed-81b3-f3a5b378dc91","ios":"levelo://app?vid=18b86593-4f21-41ed-81b3-f3a5b378dc91"},"vehicle_type_id":"4","last_reported":1753294548,"current_range_meters":17200,"station_id":"","pricing_plan_id":"cebpf4jnsgd1na2vs0mg"},{"bike_id":"e1671379-a98f-4108-b068-48ee460e55cb","system_id":"levelo_inurba_marseille","lat":43.29258,"lon":5.40906,"is_reserved":false,"is_disabled":false,"rental_uris":{"android":"levelo://app?vid=e1671379-a98f-4108-b068-48ee460e55cb","ios":"levelo://app?vid=e1671379-a98f-4108-b068-48ee460e55cb"},"vehicle_type_id":"4","last_reported":1753294548,"current_range_meters":17200,"station_id":"ce4bh192rcd13ifvqdc0","pricing_plan_id":"cebpf4jnsgd1na2vs0mg"},{"bike_id":"8b54e365-4494-4511-adcf-585b0a7647d5","system_id":"levelo_inurba_marseille","lat":43.2984,"lon":5.36265,"is_reserved":false,"is_disabled":false,"rental_uris":{"android":"levelo://app?vid=8b54e365-4494-4511-adcf-585b0a7647d5","ios":"levelo://app?vid=8b54e365-4494-4511-adcf-585b0a7647d5"},"vehicle_type_id":"4","last_reported":1753294548,"current_range_meters":17200,"station_id":"ce4bgpp2rcd13ifvqc3g","pricing_plan_id":"cebpf4jnsgd1na2vs0mg"},{"bike_id":"ec75ca64-c00c-48d7-b83f-73ee37d1d1a4","system_id":"levelo_inurba_marseille","lat":43.2993,"lon":5.36549,"is_reserved":false,"is_disabled":false,"rental_uris":{"android":"levelo://app?vid=ec75ca64-c00c-48d7-b83f-73ee37d1d1a4","ios":"levelo://app?vid=ec75ca64-c00c-48d7-b83f-73ee37d1d1a4"},