{"last_updated":1691312732,"ttl":30,"version":"2.2","data":{"bikes":[{"bike_id":"bf225d27-1b1c-4419-b36f-83ab9efab6fb","system_id":"levelo_inurba_marseille","lat":43.31341,"lon":5.367098,"is_reserved":false,"is_disabled":false,"rental_uris":{"android":"levelo://app?vid=bf225d27-1b1c-4419-b36f-83ab9efab6fb","ios":"levelo://app?vid=bf225d27-1b1c-4419-b36f-83ab9efab6fb"},"vehicle_type_id":"4","last_reported":1691312732,"current_range_meters":28400,"station_id":"ce4bgr92rcd13ifvqc6g","pricing_plan_id":"free"},{"bike_id":"c1b1be25-cd96-4083-be15-a488ef764a95","system_id":"levelo_inurba_marseille","lat":43.313391,"lon":5.36706,"is_reserved":false,"is_disabled":false,"rental_uris":{"android":"levelo://app?vid=c1b1be25-cd96-4083-be15-a488ef764a95","ios":"levelo://app?vid=c1b1be25-cd96-4083-be15-a488ef764a95"},"vehicle_type_id":"4","last_reported":1691312732,"current_range_meters":27600,"station_id":"ce4bgr92rcd13ifvqc6g","pricing_plan_id":"free"},{"bike_id":"62e36260-2422-4c4f-917b-693f29366b22","system_id":"levelo_inurba_marseille","lat":43.313391,"lon":5.36706,"is_reserved":false,"is_disabled":false,"rental_uris":{"android":"levelo://app?vid=62e36260-2422-4c4f-917b-693f29366b22","ios":"levelo://app?vid=62e36260-2422-4c4f-917b-693f29366b22"},"vehicle_type_id":"4","last_reported":1691312732,"current_range_meters":30000,"station_id":"ce4bgr92rcd13ifvqc6g","pricing_plan_id":"free"},{"bike_id":"58734183-fbb9-4227-8fe3-e6c489de409f","system_id":"levelo_inurba_marseille","lat":43.31341,"lon":5.367098,"is_reserved":false,"is_disabled":false,"rental_uris":{"android":"levelo://app?vid=58734183-fbb9-4227-8fe3-e6c489de409f","ios":"levelo://app?vid=58734183-fbb9-4227-8fe3-e6c489de409f"},"vehicle_type_id":"4","last_reported":1691312732,"current_range_meters":31600,"station_id":"ce4bgr92rcd13ifvqc6g","pricing_plan_id":"free"},{"bike_id":"d248b7df-946c-4e6a-af7e-0a3f02cb4872","system_id":"levelo_inurba_marseille","lat":43.31341,"lon":5.367098,"is_reserved":false,"is_disabled":false,"rental_uris":{"android":"levelo://app?vid=d248b7df-946c-4e6a-af7e-0a3f02cb4872","ios":"levelo://app?vid=d248b7df-946c-4e6a-af7e-0a3f02cb4872"},"vehicle_type_id":"4","last_reported":1691312732,"current_range_meters":16800,"station_id":"ce4bgr92rcd13ifvqc6g","pricing_plan_id":"free"},{"bike_id":"8ee750b7-bb17-42f8-8cd1-13fe11413758","system_id":"levelo_inurba_marseille","lat":43.31341,"lon":5.367098,"is_reserved":false,"is_disabled":false,"rental_uris":{"android":"levelo://app?vid=8ee750b7-bb17-42f8-8cd1-13fe11413758","ios":"levelo://app?vid=8ee750b7-bb17-42f8-8cd1-13fe11413758"},"vehicle_type_id":"4","last_reported":1691312732,"current_range_meters":28800,"station_id":"ce4bgr92rcd13ifvqc6g","pricing_plan_id":"free"},{"bike_id":"d31122e6-e65b-4e35-b9ad-0bae407fb5a5","system_id":"levelo_inurba_marseille","lat":43.3122,"lon":5.36857,"is_reserved":false,"is_disabled":false,"rental_uris":{"android":"levelo://app?vid=d31122e6-e65b-4e35-b9ad-0bae407fb5a5","ios":"levelo://app?vid=d31122e6-e65b-4e35-b9ad-0bae407fb5a5"},"vehicle_type_id":"4","last_reported":1691312732,"current_range_meters":13200,"station_id":"ce4bgl92rcd13ifvqbq0","pricing_plan_id":"free"},{"bike_id":"5bdf8c20-9c72-47ab-afc6-2b84567e0617","system_id":"levelo_inurba_marseille","lat":43.312239,"lon":5.368562,"is_reserved":false,"is_disabled":false,"rental_uris":{"android":"levelo://app?vid=5bdf8c20-9c72-47ab-afc6-2b84567e0617","ios":"levelo://app?vid=5bdf8c20-9c72-47ab-afc6-2b84567e0617"},"vehicle_type_id":"4","last_reported":1691312732,"current_range_meters":14400,"station_id":"ce4bgl92rcd13ifvqbq0","pricing_plan_id":"free"},{"bike_id":"63e4f977-31fa-440e-aaf1-ee59a505a3c3","system_id":"levelo_inurba_marseille","lat":43.31224,"lon":5.36862,"is_reserved":false,"is_disabled":false,"rental_uris":{"android":"levelo://app?vid=63e4f977-31fa-440e-aaf1-ee59a505a3c3","ios":"levelo://app?vid=63e4f977-31fa-440e-aaf1-ee59a505a3c3"},"vehicle_type_id":"4","last_reported":1691312732,"current_range_meters":5200,"station_id":"ce4bgl92rcd13ifvqbq0","pricing_plan_id":"free"},{"bike_id":"33951078-daff-46c4-9627-38f8bc17cb36","system_id":"levelo_inurba_marseille","lat":43.314811,"lon":5.373103,"is_reserved":false,"is_disabled":false,"rental_uris":{"android":"levelo://app?vid=33951078-daff-46c4-9627-38f8bc17cb36","ios":"levelo://app?vid=33951078-daff-46c4-9627-38f8bc17cb36"},"vehicle_type_id":"4","last_reported":1691312732,"current_range_meters":30000,"station_id":"ce4bgt12rcd13ifvqcd0","pricing_plan_id":"free"},{"bike_id":"2364cf7f-0315-4589-a199-670f96592df8","system_id":"levelo_inurba_marseille","lat":43.314811,"lon":5.373103,"is_reserved":false,"is_disabled":false,"rental_uris":{"android":"levelo://app?vid=2364cf7f-0315-4589-a199-670f96592df8","ios":"levelo://app?vid=2364cf7f-0315-4589-a199-670f96592df8"},"vehicle_type_id":"4","last_reported":1691312732,"current_range_meters":29200,"station_id":"ce4bgt12rcd13ifvqcd0","pricing_plan_id":"free"},{"bike_id":"1d34d82d-c264-4a80-aec0-e449b84e99c0","system_id":"levelo_inurba_marseille","lat":43.314811,"lon":5.373103,"is_reserved":false,"is_disabled":false,"rental_uris":{"android":"levelo://app?vid=1d34d82d-c264-4a80-aec0-e449b84e99c0","ios":"levelo://app?vid=1d34d82d-c264-4a80-aec0-e449b84e99c0"},"vehicle_type_id":"4","last_reported":1691312732,"current_range_meters":30800,"station_id":"ce4bgt12rcd13ifvqcd0","pricing_plan_id":"free"},{"bike_id":"eadf12d3-390e-4e80-af57-2dbbec3617cf","system_id":"levelo_inurba_marseille","lat":43.314811,"lon":5.373104,"is_reserved":false,"is_disabled":false,"rental_uris":{"android":"levelo://app?vid=eadf12d3-390e-4e80-af57-2dbbec3617cf","ios":"levelo://app?vid=eadf12d3-390e-4e80-af57-2dbbec3617cf"},"vehicle_type_id":"4","last_reported":1691312732,"current_range_meters":31200,"station_id":"ce4bgt12rcd13ifvqcd0","pricing_plan_id":"free"},{"bike_id":"d65f31fd-588e-4e32-b675-72af623a8dac","system_id":"levelo_inurba_marseille","lat":43.31538,"lon":5.37535,"is_reserved":false,"is_disabled":false,"rental_uris":{"android":"levelo://app?vid=d65f31fd-588e-4e32-b675-72af623a8dac","ios":"levelo://app?vid=d65f31fd-588e-4e32-b675-72af623a8dac"},"vehicle_type_id":"4","last_reported":1691312732,"current_range_meters":0,"station_id":"","pricing_plan_id":"free"},{"bike_id":"977af5cc-3361-494d-9371-c93faffa693e","system_id":"levelo_inurba_marseille","lat":43.305368,"lon":5.367343,"is_reserved":false,"is_disabled":false,"rental_uris":{"android":"levelo://app?vid=977af5cc-3361-494d-9371-c93faffa693e","ios":"levelo://app?vid=977af5cc-3361-494d-9371-c93faffa693e"},"vehicle_type_id":"4","last_reported":1691312732,"current_range_meters":11600,"station_id":"ce4bgrp2rcd13ifvqc9g","pricing_plan_id":"free"},{"bike_id":"981d1422-015a-4fb2-b1f8-9c394d94b57d","system_id":"levelo_inurba_marseille","lat":43.305714,"lon":5.365633,"is_reserved":false,"is_disabled":false,"rental_uris":{"android":"levelo://app?vid=981d1422-015a-4fb2-b1f8-9c394d94b57d","ios":"levelo://app?vid=981d1422-015a-4fb2-b1f8-9c394d94b57d"},"vehicle_type_id":"4","last_reported":1691312732,"current_range_meters":25200,"station_id":"ce4bgs12rcd13ifvqcag","pricing_plan_id":"free"},{"bike_id":"73f7b70f-fc29-4540-b670-cbd01e3ebe1a","system_id":"levelo_inurba_marseille","lat":43.305714,"lon":5.365633,"is_reserved":false,"is_disabled":false,"rental_uris":{"android":"levelo://app?vid=73f7b70f-fc29-4540-b670-cbd01e3ebe1a","ios":"levelo://app?vid=73f7b70f-fc29-4540-b670-cbd01e3ebe1a"},"vehicle_type_id":"4","last_reported":1691312732,"current_range_meters":800,"station_id":"ce4bgs12rcd13ifvqcag","pricing_plan_id":"free"},{"bike_id":"846d2b45-f98b-47dc-a4cc-fe7bce61002c","system_id":"levelo_inurba_marseille","lat":43.305714,"lon":5.365633,"is_reserved":false,"is_disabled":false,"rental_uris":{"android":"levelo://app?vid=846d2b45-f98b-47dc-a4cc-fe7bce61002c","ios":"levelo://app?vid=846d2b45-f98b-47dc-a4cc-fe7bce61002c"},"vehicle_type_id":"4","last_reported":1691312732,"current_range_meters":24400,"station_id":"ce4bgs12rcd13ifvqcag","pricing_plan_id":"free"},{"bike_id":"844d20d8-bbb2-4512-84f6-23356d8a3027","system_id":"levelo_inurba_marseille","lat":43.305714,"lon":5.365633,"is_reserved":false,"is_disabled":false,"rental_uris":{"android":"levelo://app?vid=844d20d8-bbb2-4512-84f6-23356d8a3027","ios":"levelo://app?vid=844d20d8-bbb2-4512-84f6-23356d8a3027"},"vehicle_type_id":"4","last_reported":1691312732,"current_range_meters":25200,"station_id":"ce4bgs12rcd13ifvqcag","pricing_plan_id":"free"},{"bike_id":"4e4d3dde-0a9d-402e-9a98-277b84024ea8","system_id":"levelo_inurba_marseille","lat":43.30524,"lon":5.36544,"is_reserved":false,"is_disabled":false,"rental_uris":{"android":"levelo://app?vid=4e4d3dde-0a9d-402e-9a98-277b84024ea8","ios":"levelo://app?vid=4e4d3dde-0a9d-402e-9a98-277b84024ea8"},"vehicle_type_id":"4","last_reported":1691312732,"current_range_meters":30400,"station_id":"ce4bgs12rcd13ifvqcag","pricing_plan_id":"free"},{"bike_id":"694c99e6-2a15-40f1-b444-f9f956fde505","system_id":"levelo_inurba_marseille","lat":43.305989,"lon":5.37225,"is_reserved":false,"is_disabled":false,"rental_uris":{"android":"levelo://app?vid=694c99e6-2a15-40f1-b444-f9f956fde505","ios":"levelo://app?vid=694c99e6-2a15-40f1-b444-f9f956fde505"},"vehicle_type_id":"4","last_reported":1691312732,"current_range_meters":31200,"station_id":"ce4bgqh2rcd13ifvqc4g","pricing_plan_id":"free"},{"bike_id":"f20ea888-8740-440b-bfeb-8eb2a7c1f652","system_id":"levelo_inurba_marseille","lat":43.305989,"lon":5.37225,"is_reserved":false,"is_disabled":false,"rental_uris":{"android":"levelo://app?vid=f20ea888-8740-440b-bfeb-8eb2a7c1f652","ios":"levelo://app?vid=f20ea888-8740-440b-bfeb-8eb2a7c1f652"},"vehicle_type_id":"4","last_reported":1691312732,"current_range_meters":31200,"station_id":"ce4bgqh2rcd13ifvqc4g","pricing_plan_id":"free"},{"bike_id":"be796c89-2bca-45a8-8cb4-1321a8e27343","system_id":"levelo_inurba_marseille","lat":43.30599,"lon":5.37229,"is_reserved":false,"is_disabled":false,"rental_uris":{"android":"levelo://app?vid=be796c89-2bca-45a8-8cb4-1321a8e27343","ios":"levelo://app?vid=be796c89-2bca-45a8-8cb4-1321a8e27343"},"vehicle_type_id":"4","last_reported":1691312732,"current_range_meters":20400,"station_id":"ce4bgqh2rcd13ifvqc4g","pricing_plan_id":"free"},{"bike_id":"f96b54ac-dfd6-4c96-9dd1-99d3c97ef6f9","system_id":"levelo_inurba_marseille","lat":43.305989,"lon":5.37225,"is_reserved":false,"is_disabled":false,"rental_uris":{"android":"levelo://app?vid=f96b54ac-dfd6-4c96-9dd1-99d3c97ef6f9","ios":"levelo://app?vid=f96b54ac-dfd6-4c96-9dd1-99d3c97ef6f9"},"vehicle_type_id":"4","last_reported":1691312732,"current_range_meters":31200,"station_id":"ce4bgqh2rcd13ifvqc4g","pricing_plan_id":"free"},{"bike_id":"b23ae0fa-3dbd-4138-97da-639d2b67295e","system_id":"levelo_inurba_marseille","lat":43.306,"lon":5.37239,"is_reserved":false,"is_disabled":false,"rental_uris":{"android":"levelo://app?vid=b23ae0fa-3dbd-4138-97da-639d2b67295e","ios":"levelo://app?vid=b23ae0fa-3dbd-4138-97da-639d2b67295e"},"vehicle_type_id":"4","last_reported":1691312732,"current_range_meters":20400,"station_id":"ce4bgqh2rcd13ifvqc4g","pricing_plan_id":"free"},{"bike_id":"adb8e2e2-937e-4d73-9186-d0f706f27e74","system_id":"levelo_inurba_marseille","lat":43.311125,"lon":5.377624,"is_reserved":false,"is_disabled":false,"rental_uris":{"android":"levelo://app?vid=adb8e2e2-937e-4d73-9186-d0f706f27e74","ios":"levelo://app?vid=adb8e2e2-937e-4d73-9186-d0f706f27e74"},"vehicle_type_id":"4","last_reported":1691312732,"current_range_meters":30400,"station_id":"ce4bgt92rcd13ifvqcg0","pricing_plan_id":"free"},{"bike_id":"fe516c60-3a10-4b39-9136-8571493a4aa8","system_id":"levelo_inurba_marseille","lat":43.30776,"lon":5.37641,"is_reserved":false,"is_disabled":false,"rental_uris":{"android":"levelo://app?vid=fe516c60-3a10-4b39-9136-8571493a4aa8","ios":"levelo://app?vid=fe516c60-3a10-4b39-9136-8571493a4aa8"},"vehicle_type_id":"4","last_reported":1691312732,"current_range_meters":0,"station_id":"ce4bgv92rcd13ifvqcq0","pricing_plan_id":"free"},{"bike_id":"27ff5d3a-47ea-4a6b-9da8-9e5ebe3ae4c3","system_id":"levelo_inurba_marseille","lat":43.317075,"lon":5.377367,"is_reserved":false,"is_disabled":false,"rental_uris":{"android":"levelo://app?vid=27ff5d3a-47ea-4a6b-9da8-9e5ebe3ae4c3","ios":"levelo://app?vid=27ff5d3a-47ea-4a6b-9da8-9e5ebe3ae4c3"},"vehicle_type_id":"4","last_reported":1691312732,"current_range_meters":31200,"station_id":"ce4bgth2rcd13ifvqch0","pricing_plan_id":"free"},{"bike_id":"bde33db4-7682-4d94-aef8-23640b144672","system_id":"levelo_inurba_marseille","lat":43.303046,"lon":5.368981,"is_reserved":false,"is_disabled":false,"rental_uris":{"android":"levelo://app?vid=bde33db4-7682-4d94-aef8-23640b144672","ios":"levelo://app?vid=bde33db4-7682-4d94-aef8-23640b144672"},"vehicle_type_id":"4","last_reported":1691312732,"current_range_meters":16000,"station_id":"ce4bgqh2rcd13ifvqc5g","pricing_plan_id":"free"},{"bike_id":"8c19fac9-0322-484f-8e7d-9982d5b54555","system_id":"levelo_inurba_marseille","lat":43.315289,"lon":5.380349,"is_reserved":false,"is_disabled":false,"rental_uris":{"android":"levelo://app?vid=8c19fac9-0322-484f-8e7d-9982d5b54555","ios":"levelo://app?vid=8c19fac9-0322-484f-8e7d-9982d5b54555"},"vehicle_type_id":"4","last_reported":1691312732,"current_range_meters":2400,"station_id":"ce4bhsp2rcd13ifvqi50","pricing_plan_id":"free"},{"bike_id":"979f1606-9dd4-4ecc-b0e2-9afc34129525","system_id":"levelo_inurba_marseille","lat":43.304606,"lon":5.379026,"is_reserved":false,"is_disabled":false,"rental_uris":{"android":"levelo://app?vid=979f1606-9dd4-4ecc-b0e2-9afc34129525","ios":"levelo://app?vid=979f1606-9dd4-4ecc-b0e2-9afc34129525"},"vehicle_type_id":"4","last_reported":1691312732,"current_range_meters":31200,"station_id":"ce4bgup2rcd13ifvqcn0","pricing_plan_id":"free"},{"bike_id":"04527312-1c3e-4d12-a204-55b6f23e6bd8","system_id":"levelo_inurba_marseille","lat":43.30465,"lon":5.37901,"is_reserved":false,"is_disabled":false,"rental_uris":{"android":"levelo://app?vid=04527312-1c3e-4d12-a204-55b6f23e6bd8","ios":"levelo://app?vid=04527312-1c3e-4d12-a204-55b6f23e6bd8"},"vehicle_type_id":"4","last_reported":1691312732,"current_range_meters":31200,"station_id":"","pricing_plan_id":"free"},{"bike_id":"19d07761-504d-4be3-84ab-51918b5ba3a3","system_id":"levelo_inurba_marseille","lat":43.304606,"lon":5.379026,"is_reserved":false,"is_disabled":false,"rental_uris":{"android":"levelo://app?vid=19d07761-504d-4be3-84ab-51918b5ba3a3","ios":"levelo://app?vid=19d07761-504d-4be3-84ab-51918b5ba3a3"},"vehicle_type_id":"4","last_reported":1691312732,"current_range_meters":31200,"station_id":"ce4bgup2rcd13ifvqcn0","pricing_plan_id":"free"},{"bike_id":"b156740c-7cde-4c6e-93d9-bbe3815b792d","system_id":"levelo_inurba_marseille","lat":43.304606,"lon":5.379026,"is_reserved":false,"is_disabled":false,"rental_uris":{"android":"levelo://app?vid=b156740c-7cde-4c6e-93d9-bbe3815b792d","ios":"levelo://app?vid=b156740c-7cde-4c6e-93d9-bbe3815b792d"},"vehicle_type_id":"4","last_reported":1691312732,"current_range_meters":25200,"station_id":"ce4bgup2rcd13ifvqcn0","pricing_plan_id":"free"},{"bike_id":"2757a471-ef70-4a5b-894a-2e06a2b01723","system_id":"levelo_inurba_marseille","lat":43.304606,"lon":5.379026,"is_reserved":false,"is_disabled":false,"rental_uris":{"android":"levelo://app?vid=2757a471-ef70-4a5b-894a-2e06a2b01723","ios":"levelo://app?vid=2757a471-ef70-4a5b-894a-2e06a2b01723"},"vehicle_type_id":"4","last_reported":1691312732,"current_range_meters":31200,"station_id":"ce4bgup2rcd13ifvqcn0","pricing_plan_id":"free"},{"bike_id":"65a9744f-f678-4c35-b2eb-8bbb67e0b5e6","system_id":"levelo_inurba_marseille","lat":43.304606,"lon":5.379026,"is_reserved":false,"is_disabled":false,"rental_uris":{"android":"levelo://app?vid=65a9744f-f678-4c35-b2eb-8bbb67e0b5e6","ios":"levelo://app?vid=65a9744f-f678-4c35-b2eb-8bbb67e0b5e6"},"vehicle_type_id":"4","last_reported":1691312732,"current_range_meters":14400,"station_id":"ce4bgup2rcd13ifvqcn0","pricing_plan_id":"free"},{"bike_id":"58362499-4b18-412b-bedf-0a397d2ed190","system_id":"levelo_inurba_marseille","lat":43.304606,"lon":5.379026,"is_reserved":false,"is_disabled":false,"rental_uris":{"android":"levelo://app?vid=58362499-4b18-412b-bedf-0a397d2ed190","ios":"levelo://app?vid=58362499-4b18-412b-bedf-0a397d2ed190"},"vehicle_type_id":"4","last_reported":1691312732,"current_range_meters":30000,"station_id":"ce4bgup2rcd13ifvqcn0","pricing_plan_id":"free"},{"bike_id":"fb85a957-917e-4118-8935-3d13dc37be46","system_id":"levelo_inurba_marseille","lat":43.304606,"lon":5.379026,"is_reserved":false,"is_disabled":false,"rental_uris":{"android":"levelo://app?vid=fb85a957-917e-4118-8935-3d13dc37be46","ios":"levelo://app?vid=fb85a957-917e-4118-8935-3d13dc37be46"},"vehicle_type_id":"4","last_reported":1691312732,"current_range_meters":26000,"station_id":"ce4bgup2rcd13ifvqcn0","pricing_plan_id":"free"},{"bike_id":"a336ccb5-0262-49ad-be66-776098a94248","system_id":"levelo_inurba_marseille","lat":43.30456,"lon":5.37904,"is_reserved":false,"is_disabled":false,"rental_uris":{"android":"levelo://app?vid=a336ccb5-0262-49ad-be66-776098a94248","ios":"levelo://app?vid=a336ccb5-0262-49ad-be66-776098a94248"},"vehicle_type_id":"4","last_reported":1691312732,"current_range_meters":30400,"station_id":"ce4bgup2rcd13ifvqcn0","pricing_plan_id":"free"},{"bike_id":"ce820944-de1b-4362-bcb2-bba6890d6d5a","system_id":"levelo_inurba_marseille","lat":43.302784,"lon":5.377158,"is_reserved":false,"is_disabled":false,"rental_uris":{"android":"levelo://app?vid=ce820944-de1b-4362-bcb2-bba6890d6d5a","ios":"levelo://app?vid=ce820944-de1b-4362-bcb2-bba6890d6d5a"},"vehicle_type_id":"4","last_reported":1691312732,"current_range_meters":31200,"station_id":"ce4bguh2rcd13ifvqcj0","pricing_plan_id":"free"},{"bike_id":"240424c5-b0f4-4443-9e01-79ace73464aa","system_id":"levelo_inurba_marseille","lat":43.302784,"lon":5.377158,"is_reserved":false,"is_disabled":false,"rental_uris":{"android":"levelo://app?vid=240424c5-b0f4-4443-9e01-79ace73464aa","ios":"levelo://app?vid=240424c5-b0f4-4443-9e01-79ace73464aa"},"vehicle_type_id":"4","last_reported":1691312732,"current_range_meters":30800,"station_id":"ce4bguh2rcd13ifvqcj0","pricing_plan_id":"free"},{"bike_id":"bf80654a-1d69-48c7-8fa0-647f9dc4b17c","system_id":"levelo_inurba_marseille","lat":43.302784,"lon":5.377158,"is_reserved":false,"is_disabled":false,"rental_uris":{"android":"levelo://app?vid=bf80654a-1d69-48c7-8fa0-647f9dc4b17c","ios":"levelo://app?vid=bf80654a-1d69-48c7-8fa0-647f9dc4b17c"},"vehicle_type_id":"4","last_reported":1691312732,"current_range_meters":28800,"station_id":"ce4bguh2rcd13ifvqcj0","pricing_plan_id":"free"},{"bike_id":"320d4aed-d34e-41ae-9b20-f54e786c5a51","system_id":"levelo_inurba_marseille","lat":43.301429,"lon":5.37413,"is_reserved":false,"is_disabled":false,"rental_uris":{"android":"levelo://app?vid=320d4aed-d34e-41ae-9b20-f54e786c5a51","ios":"levelo://app?vid=320d4aed-d34e-41ae-9b20-f54e786c5a51"},"vehicle_type_id":"4","last_reported":1691312732,"current_range_meters":31200,"station_id":"ce4bgs92rcd13ifvqcc0","pricing_plan_id":"free"},{"bike_id":"cb31e567-1f56-4c43-a0bd-9189e49b78a1","system_id":"levelo_inurba_marseille","lat":43.31989,"lon":5.38143,"is_reserved":false,"is_disabled":false,"rental_uris":{"android":"levelo://app?vid=cb31e567-1f56-4c43-a0bd-9189e49b78a1","ios":"levelo://app?vid=cb31e567-1f56-4c43-a0bd-9189e49b78a1"},"vehicle_type_id":"4","last_reported":1691312732,"current_range_meters":3600,"station_id":"ce4bhr12rcd13ifvqhpg","pricing_plan_id":"free"},{"bike_id":"91c1e68c-072c-41ed-ab7d-e40ec14976ba","system_id":"levelo_inurba_marseille","lat":43.31996,"lon":5.38149,"is_reserved":false,"is_disabled":false,"rental_uris":{"android":"levelo://app?vid=91c1e68c-072c-41ed-ab7d-e40ec14976ba","ios":"levelo://app?vid=91c1e68c-072c-41ed-ab7d-e40ec14976ba"},"vehicle_type_id":"4","last_reported":1691312732,"current_range_meters":0,"station_id":"ce4bhr12rcd13ifvqhpg","pricing_plan_id":"free"},{"bike_id":"0c74f8c6-24ac-401a-9193-d07e7518d57f","system_id":"levelo_inurba_marseille","lat":43.298433,"lon":5.362774,"is_reserved":false,"is_disabled":false,"rental_uris":{"android":"levelo://app?vid=0c74f8c6-24ac-401a-9193-d07e7518d57f","ios":"levelo://app?vid=0c74f8c6-24ac-401a-9193-d07e7518d57f"},"vehicle_type_id":"4","last_reported":1691312732,"current_range_meters":19600,"station_id":"ce4bgpp2rcd13ifvqc3g","pricing_plan_id":"free"},{"bike_id":"a80d1e1f-db47-439d-91b2-b4884267ac24","system_id":"levelo_inurba_marseille","lat":43.29851,"lon":5.36289,"is_reserved":false,"is_disabled":false,"rental_uris":{"android":"levelo://app?vid=a80d1e1f-db47-439d-91b2-b4884267ac24","ios":"levelo://app?vid=a80d1e1f-db47-439d-91b2-b4884267ac24"},"vehicle_type_id":"4","last_reported":1691312732,"current_range_meters":10000,"station_id":"ce4bgpp2rcd13ifvqc3g","pricing_plan_id":"free"},{"bike_id":"68daaaa7-fe81-4880-9e24-7d01f1ddd306","system_id":"levelo_inurba_marseille","lat":43.29849,"lon":5.3628,"is_reserved":false,"is_disabled":false,"rental_uris":{"android":"levelo://app?vid=68daaaa7-fe81-4880-9e24-7d01f1ddd306","ios":"levelo://app?vid=68daaaa7-fe81-4880-9e24-7d01f1ddd306"},"vehicle_type_id":"4","last_reported":1691312732,"current_range_meters":31200,"station_id":"ce4bgpp2rcd13ifvqc3g","pricing_plan_id":"free"},{"bike_id":"6ac3bf15-f738-4efb-aa46-1b695485822d","system_id":"levelo_inurba_marseille","lat":43.29848,"lon":5.36285,"is_reserved":false,"is_disabled":false,"rental_uris":{"android":"levelo://app?vid=6ac3bf15-f738-4efb-aa46-1b695485822d","ios":"levelo://app?vid=6ac3bf15-f738-4efb-aa46-1b695485822d"},"vehicle_type_id":"4","last_reported":1691312732,"current_range_meters":29600,"station_id":"ce4bgpp2rcd13ifvqc3g","pricing_plan_id":"free"},{"bike_id":"8df8abc4-b42f-413e-a51c-ec7bcdf0d16d","system_id":"levelo_inurba_marseille","lat":43.30538,"lon":5.38425,"is_reserved":false,"is_disabled":false,"rental_uris":{"android":"levelo://app?vid=8df8abc4-b42f-413e-a51c-ec7bcdf0d16d","ios":"levelo://app?vid=8df8abc4-b42f-413e-a51c-ec7bcdf0d16d"},"vehicle_type_id":"4","last_reported":1691312732,"current_range_meters":4400,"station_id":"ce4bgg92rcd13ifvqb30","pricing_plan_id":"free"},{"bike_id":"673cd14f-64c5-4fa2-9587-5963c343c814","system_id":"levelo_inurba_marseille","lat":43.3054,"lon":5.38429,"is_reserved":false,"is_disabled":false,"rental_uris":{"android":"levelo://app?vid=673cd14f-64c5-4fa2-9587-5963c343c814","ios":"levelo://app?vid=673cd14f-64c5-4fa2-9587-5963c343c814"},"vehicle_type_id":"4","last_reported":1691312732,"current_range_meters":30400,"station_id":"ce4bgg92rcd13ifvqb30","pricing_plan_id":"free"},{"bike_id":"480801d0-9d8d-4c31-9deb-287754a5a112","system_id":"levelo_inurba_marseille","lat":43.30537,"lon":5.38427,"is_reserved":false,"is_disabled":false,"rental_uris":{"android":"levelo://app?vid=480801d0-9d8d-4c31-9deb-287754a5a112","ios":"levelo://app?vid=480801d0-9d8d-4c31-9deb-287754a5a112"},"vehicle_type_id":"4","last_reported":1691312732,"current_range_meters":31200,"station_id":"ce4bgg92rcd13ifvqb30","pricing_plan_id":"free"},{"bike_id":"30537d43-af02-4a10-b928-7b9b8cf633d2","system_id":"levelo_inurba_marseille","lat":43.30533,"lon":5.38426,"is_reserved":false,"is_disabled":false,"rental_uris":{"android":"levelo://app?vid=30537d43-af02-4a10-b928-7b9b8cf633d2","ios":"levelo://app?vid=30537d43-af02-4a10-b928-7b9b8cf633d2"},"vehicle_type_id":"4","last_reported":1691312732,"current_range_meters":30400,"station_id":"ce4bgg92rcd13ifvqb30","pricing_plan_id":"free"},{"bike_id":"ee17bdb7-d8e1-402d-bb21-4b8d44eb1508","system_id":"levelo_inurba_marseille","lat":43.298433,"lon":5.362774,"is_reserved":false,"is_disabled":false,"rental_uris":{"android":"levelo://app?vid=ee17bdb7-d8e1-402d-bb21-4b8d44eb1508","ios":"levelo://app?vid=ee17bdb7-d8e1-402d-bb21-4b8d44eb1508"},"vehicle_type_id":"4","last_reported":1691312732,"current_range_meters":18400,"station_id":"ce4bgpp2rcd13ifvqc3g","pricing_plan_id":"free"},{"bike_id":"7e38a432-6ac9-49a4-9660-151a43ce99aa","system_id":"levelo_inurba_marseille","lat":43.30538,"lon":5.38433,"is_reserved":false,"is_disabled":false,"rental_uris":{"android":"levelo://app?vid=7e38a432-6ac9-49a4-9660-151a43ce99aa","ios":"levelo://app?vid=7e38a432-6ac9-49a4-9660-151a43ce99aa"},"vehicle_type_id":"4","last_reported":1691312732,"current_range_meters":31200,"station_id":"ce4bgg92rcd13ifvqb30","pricing_plan_id":"free"},{"bike_id":"db58e97a-0382-4e8d-a8bf-598fd944aa9a","system_id":"levelo_inurba_marseille","lat":43.298433,"lon":5.362774,"is_reserved":false,"is_disabled":false,"rental_uris":{"android":"levelo://app?vid=db58e97a-0382-4e8d-a8bf-598fd944aa9a","ios":"levelo://app?vid=db58e97a-0382-4e8d-a8bf-598fd944aa9a"},"vehicle_type_id":"4","last_reported":1691312732,"current_range_meters":16000,"station_id":"ce4bgpp2rcd13ifvqc3g","pricing_plan_id":"free"},{"bike_id":"18f146a9-0caa-4091-8d94-419a449a7ca5","system_id":"levelo_inurba_marseille","lat":43.300852,"lon":5.390859,"is_reserved":false,"is_disabled":false,"rental_uris":{"android":"levelo://app?vid=18f146a9-0caa-4091-8d94-419a449a7ca5","ios":"levelo://app?vid=18f146a9-0caa-4091-8d94-419a449a7ca5"},"vehicle_type_id":"4","last_reported":1691312732,"current_range_meters":31200,"station_id":"ce4bh192rcd13ifvqdb0","pricing_plan_id":"free"},{"bike_id":"ea01d5ca-46b8-4e12-9d73-863370000a06","system_id":"levelo_inurba_marseille","lat":43.311722,"lon":5.387247,"is_reserved":false,"is_disabled":false,"rental_uris":{"android":"levelo://app?vid=ea01d5ca-46b8-4e12-9d73-863370000a06","ios":"levelo://app?vid=ea01d5ca-46b8-4e12-9d73-863370000a06"},"vehicle_type_id":"4","last_reported":1691312732,"current_range_meters":31200,"station_id":"ce4bgv12rcd13ifvqcp0","pricing_plan_id":"free"},{"bike_id":"acc9f0ec-81ac-46ea-955c-105f44b9eedb","system_id":"levelo_inurba_marseille","lat":43.298433,"lon":5.362774,"is_reserved":false,"is_disabled":false,"rental_uris":{"android":"levelo://app?vid=acc9f0ec-81ac-46ea-955c-105f44b9eedb","ios":"levelo://app?vid=acc9f0ec-81ac-46ea-955c-105f44b9eedb"},"vehicle_type_id":"4","last_reported":1691312732,"current_range_meters":29600,"station_id":"ce4bgpp2rcd13ifvqc3g","pricing_plan_id":"free"},{"bike_id":"c2e85071-a393-45a8-ad95-bb4a2822a4ef","system_id":"levelo_inurba_marseille","lat":43.311722,"lon":5.387247,"is_reserved":false,"is_disabled":false,"rental_uris":{"android":"levelo://app?vid=c2e85071-a393-45a8-ad95-bb4a2822a4ef","ios":"levelo://app?vid=c2e85071-a393-45a8-ad95-bb4a2822a4ef"},"vehicle_type_id":"4","last_reported":1691312732,"current_range_meters":29200,"station_id":"ce4bgv12rcd13ifvqcp0","pricing_plan_id":"free"},{"bike_id":"7e9e4723-f88d-49b4-8ebe-b4ea20d2d5f8","system_id":"levelo_inurba_marseille","lat":43.311722,"lon":5.387247,"is_reserved":false,"is_disabled":false,"rental_uris":{"android":"levelo://app?vid=7e9e4723-f88d-49b4-8ebe-b4ea20d2d5f8","ios":"levelo://app?vid=7e9e4723-f88d-49b4-8ebe-b4ea20d2d5f8"},"vehicle_type_id":"4","last_reported":1691312732,"current_range_meters":31600,"station_id":"ce4bgv12rcd13ifvqcp0","pricing_plan_id":"free"},{"bike_id":"0d833c59-9d31-4c27-9424-d8b32358bf56","system_id":"levelo_inurba_marseille","lat":43.311722,"lon":5.387247,"is_reserved":false,"is_disabled":false,"rental_uris":{"android":"levelo://app?vid=0d833c59-9d31-4c27-9424-d8b32358bf56","ios":"levelo://app?vid=0d833c59-9d31-4c27-9424-d8b32358bf56"},"vehicle_type_id":"4","last_reported":1691312732,"current_range_meters":31200,"station_id":"ce4bgv12rcd13ifvqcp0","pricing_plan_id":"free"},{"bike_id":"703c849c-994f-4c60-8fe6-c0867c63edcd","system_id":"levelo_inurba_marseille","lat":43.311722,"lon":5.387247,"is_reserved":false,"is_disabled":false,"rental_uris":{"android":"levelo://app?vid=703c849c-994f-4c60-8fe6-c0867c63edcd","ios":"levelo://app?vid=703c849c-994f-4c60-8fe6-c0867c63edcd"},"vehicle_type_id":"4","last_reported":1691312732,"current_range_meters":31600,"station_id":"ce4bgv12rcd13ifvqcp0","pricing_plan_id":"free"},{"bike_id":"fa2682dc-1e97-461c-9952-66505205c5be","system_id":"levelo_inurba_marseille","lat":43.29908,"lon":5.37467,"is_reserved":false,"is_disabled":false,"rental_uris":{"android":"levelo://app?vid=fa2682dc-1e97-461c-9952-66505205c5be","ios":"levelo://app?vid=fa2682dc-1e97-461c-9952-66505205c5be"},"vehicle_type_id":"4","last_reported":1691312732,"current_range_meters":24800,"station_id":"ce4bgjh2rcd13ifvqbg0","pricing_plan_id":"free"},{"bike_id":"2238746c-29fa-4988-8a39-310dedd30da3","system_id":"levelo_inurba_marseille","lat":43.311722,"lon":5.387247,"is_reserved":false,"is_disabled":false,"rental_uris":{"android":"levelo://app?vid=2238746c-29fa-4988-8a39-310dedd30da3","ios":"levelo://app?vid=2238746c-29fa-4988-8a39-310dedd30da3"},"vehicle_type_id":"4","last_reported":1691312732,"current_range_meters":20000,"station_id":"ce4bgv12rcd13ifvqcp0","pricing_plan_id":"free"},{"bike_id":"734722ec-4c7a-4b88-8010-0ef9029bd32d","system_id":"levelo_inurba_marseille","lat":43.311722,"lon":5.387247,"is_reserved":false,"is_disabled":false,"rental_uris":{"android":"levelo://app?vid=734722ec-4c7a-4b88-8010-0ef9029bd32d","ios":"levelo://app?vid=734722ec-4c7a-4b88-8010-0ef9029bd32d"},"vehicle_type_id":"4","last_reported":1691312732,"current_range_meters":16800,"station_id":"ce4bgv12rcd13ifvqcp0","pricing_plan_id":"free"},{"bike_id":"c09b5daa-f708-45a8-b32c-23101564ac3a","system_id":"levelo_inurba_marseille","lat":43.30137,"lon":5.35377,"is_reserved":false,"is_disabled":false,"rental_uris":{"android":"levelo://app?vid=c09b5daa-f708-45a8-b32c-23101564ac3a","ios":"levelo://app?vid=c09b5daa-f708-45a8-b32c-23101564ac3a"},"vehicle_type_id":"4","last_reported":1691312732,"current_range_meters":26800,"station_id":"","pricing_plan_id":"free"},{"bike_id":"9b07c73a-43a5-4881-96a5-be41f6251138","system_id":"levelo_inurba_marseille","lat":43.30141,"lon":5.38076,"is_reserved":false,"is_disabled":false,"rental_uris":{"android":"levelo://app?vid=9b07c73a-43a5-4881-96a5-be41f6251138","ios":"levelo://app?vid=9b07c73a-43a5-4881-96a5-be41f6251138"},"vehicle_type_id":"4","last_reported":1691312732,"current_range_meters":30400,"station_id":"","pricing_plan_id":"free"},{"bike_id":"fbc3a92c-f948-48e9-a3fc-f0e8af1a9259","system_id":"levelo_inurba_marseille","lat":43.3228,"lon":5.38263,"is_reserved":false,"is_disabled":false,"rental_uris":{"android":"levelo://app?vid=fbc3a92c-f948-48e9-a3fc-f0e8af1a9259","ios":"levelo://app?vid=fbc3a92c-f948-48e9-a3fc-f0e8af1a9259"},"vehicle_type_id":"4","last_reported":1691312732,"current_range_meters":26800,"station_id":"ce4bhr12rcd13ifvqhqg","pricing_plan_id":"free"},{"bike_id":"2b46b559-1836-48b9-a6a2-624ad3d92c97","system_id":"levelo_inurba_marseille","lat":43.32287,"lon":5.38257,"is_reserved":false,"is_disabled":false,"rental_uris":{"android":"levelo://app?vid=2b46b559-1836-48b9-a6a2-624ad3d92c97","ios":"levelo://app?vid=2b46b559-1836-48b9-a6a2-624ad3d92c97"},"vehicle_type_id":"4","last_reported":1691312732,"current_range_meters":29200,"station_id":"ce4bhr12rcd13ifvqhqg","pricing_plan_id":"free"},{"bike_id":"3235488a-5abe-4f27-a56a-50e7b9989127","system_id":"levelo_inurba_marseille","lat":43.32284,"lon":5.38263,"is_reserved":false,"is_disabled":false,"rental_uris":{"android":"levelo://app?vid=3235488a-5abe-4f27-a56a-50e7b9989127","ios":"levelo://app?vid=3235488a-5abe-4f27-a56a-50e7b9989127"},"vehicle_type_id":"4","last_reported":1691312732,"current_range_meters":29600,"station_id":"ce4bhr12rcd13ifvqhqg","pricing_plan_id":"free"},{"bike_id":"54af0d74-1de2-450f-8445-78b5259f2d29","system_id":"levelo_inurba_marseille","lat":43.309589,"lon":5.390258,"is_reserved":false,"is_disabled":false,"rental_uris":{"android":"levelo://app?vid=54af0d74-1de2-450f-8445-78b5259f2d29","ios":"levelo://app?vid=54af0d74-1de2-450f-8445-78b5259f2d29"},"vehicle_type_id":"4","last_reported":1691312732,"current_range_meters":24400,"station_id":"ce4bgup2rcd13ifvqco0","pricing_plan_id":"free"},{"bike_id":"696ed9b6-9beb-423c-9d06-defcf66f30b9","system_id":"levelo_inurba_marseille","lat":43.322872,"lon":5.382756,"is_reserved":false,"is_disabled":false,"rental_uris":{"android":"levelo://app?vid=696ed9b6-9beb-423c-9d06-defcf66f30b9","ios":"levelo://app?vid=696ed9b6-9beb-423c-9d06-defcf66f30b9"},"vehicle_type_id":"4","last_reported":1691312732,"current_range_meters":6800,"station_id":"ce4bhr12rcd13ifvqhqg","pricing_plan_id":"free"},{"bike_id":"e126cdd5-7ee6-4ad9-8a7f-58b87ce5e19c","system_id":"levelo_inurba_marseille","lat":43.297774,"lon":5.370875,"is_reserved":false,"is_disabled":false,"rental_uris":{"android":"levelo://app?vid=e126cdd5-7ee6-4ad9-8a7f-58b87ce5e19c","ios":"levelo://app?vid=e126cdd5-7ee6-4ad9-8a7f-58b87ce5e19c"},"vehicle_type_id":"4","last_reported":1691312732,"current_range_meters":6000,"station_id":"ce4bgop2rcd13ifvqc1g","pricing_plan_id":"free"},{"bike_id":"f3a2ce3e-e2ec-4940-9eb3-9ecf5bedfd7e","system_id":"levelo_inurba_marseille","lat":43.32817,"lon":5.36687,"is_reserved":false,"is_disabled":false,"rental_uris":{"android":"levelo://app?vid=f3a2ce3e-e2ec-4940-9eb3-9ecf5bedfd7e","ios":"levelo://app?vid=f3a2ce3e-e2ec-4940-9eb3-9ecf5bedfd7e"},"vehicle_type_id":"4","last_reported":1691312732,"current_range_meters":12400,"station_id":"ce4bhs92rcd13ifvqi0g","pricing_plan_id":"free"},{"bike_id":"a9186102-1f32-4e64-902a-4d3ca2da5057","system_id":"levelo_inurba_marseille","lat":43.32821,"lon":5.36683,"is_reserved":false,"is_disabled":false,"rental_uris":{"android":"levelo://app?vid=a9186102-1f32-4e64-902a-4d3ca2da5057","ios":"levelo://app?vid=a9186102-1f32-4e64-902a-4d3ca2da5057"},"vehicle_type_id":"4","last_reported":1691312732,"current_range_meters":0,"station_id":"ce4bhs92rcd13ifvqi0g","pricing_plan_id":"free"},{"bike_id":"30844dde-f510-494c-bd2a-c12aff5bc09a","system_id":"levelo_inurba_marseille","lat":43.32823,"lon":5.36687,"is_reserved":false,"is_disabled":false,"rental_uris":{"android":"levelo://app?vid=30844dde-f510-494c-bd2a-c12aff5bc09a","ios":"levelo://app?vid=30844dde-f510-494c-bd2a-c12aff5bc09a"},"vehicle_type_id":"4","last_reported":1691312732,"current_range_meters":7200,"station_id":"ce4bhs92rcd13ifvqi0g","pricing_plan_id":"free"},{"bike_id":"6f02e09a-b26c-49fa-bf68-b76cd9d4ceff","system_id":"levelo_inurba_marseille","lat":43.32825,"lon":5.36684,"is_reserved":false,"is_disabled":false,"rental_uris":{"android":"levelo://app?vid=6f02e09a-b26c-49fa-bf68-b76cd9d4ceff","ios":"levelo://app?vid=6f02e09a-b26c-49fa-bf68-b76cd9d4ceff"},"vehicle_type_id":"4","last_reported":1691312732,"current_range_meters":30800,"station_id":"ce4bhs92rcd13ifvqi0g","pricing_plan_id":"free"},{"bike_id":"b817d5ed-7bfc-4b4f-ab91-d197cc36525d","system_id":"levelo_inurba_marseille","lat":43.32827,"lon":5.36683,"is_reserved":false,"is_disabled":false,"rental_uris":{"android":"levelo://app?vid=b817d5ed-7bfc-4b4f-ab91-d197cc36525d","ios":"levelo://app?vid=b817d5ed-7bfc-4b4f-ab91-d197cc36525d"},"vehicle_type_id":"4","last_reported":1691312732,"current_range_meters":24400,"station_id":"ce4bhs92rcd13ifvqi0g","pricing_plan_id":"free"},{"bike_id":"8a154c03-710d-4522-b7ce-26320b262233","system_id":"levelo_inurba_marseille","lat":43.32828,"lon":5.3669,"is_reserved":false,"is_disabled":false,"rental_uris":{"android":"levelo://app?vid=8a154c03-710d-4522-b7ce-26320b262233","ios":"levelo://app?vid=8a154c03-710d-4522-b7ce-26320b262233"},"vehicle_type_id":"4","last_reported":1691312732,"current_range_meters":6800,"station_id":"ce4bhs92rcd13ifvqi0g","pricing_plan_id":"free"},{"bike_id":"7b12ec14-bcac-40e0-a338-2999fa263c32","system_id":"levelo_inurba_marseille","lat":43.297163,"lon":5.365866,"is_reserved":false,"is_disabled":false,"rental_uris":{"android":"levelo://app?vid=7b12ec14-bcac-40e0-a338-2999fa263c32","ios":"levelo://app?vid=7b12ec14-bcac-40e0-a338-2999fa263c32"},"vehicle_type_id":"4","last_reported":1691312732,"current_range_meters":29600,"station_id":"ce4bgn12rcd13ifvqbt0","pricing_plan_id":"free"},{"bike_id":"cb53f4b9-75aa-4a7d-a489-11a5e9355a07","system_id":"levelo_inurba_marseille","lat":43.297163,"lon":5.365866,"is_reserved":false,"is_disabled":false,"rental_uris":{"android":"levelo://app?vid=cb53f4b9-75aa-4a7d-a489-11a5e9355a07","ios":"levelo://app?vid=cb53f4b9-75aa-4a7d-a489-11a5e9355a07"},"vehicle_type_id":"4","last_reported":1691312732,"current_range_meters":31200,"station_id":"ce4bgn12rcd13ifvqbt0","pricing_plan_id":"free"},{"bike_id":"dd789220-e7b5-42c1-b9dc-dc4243148021","system_id":"levelo_inurba_marseille","lat":43.297163,"lon":5.365866,"is_reserved":false,"is_disabled":false,"rental_uris":{"android":"levelo://app?vid=dd789220-e7b5-42c1-b9dc-dc4243148021","ios":"levelo://app?vid=dd789220-e7b5-42c1-b9dc-dc4243148021"},"vehicle_type_id":"4","last_reported":1691312732,"current_range_meters":31600,"station_id":"ce4bgn12rcd13ifvqbt0","pricing_plan_id":"free"},{"bike_id":"4419d85c-8be6-446f-8521-d64130e12f8a","system_id":"levelo_inurba_marseille","lat":43.297163,"lon":5.365866,"is_reserved":false,"is_disabled":false,"rental_uris":{"android":"levelo://app?vid=4419d85c-8be6-446f-8521-d64130e12f8a","ios":"levelo://app?vid=4419d85c-8be6-446f-8521-d64130e12f8a"},"vehicle_type_id":"4","last_reported":1691312732,"current_range_meters":25600,"station_id":"ce4bgn12rcd13ifvqbt0","pricing_plan_id":"free"},{"bike_id":"0ae91ea5-6e75-438a-a8ad-6ef388630f55","system_id":"levelo_inurba_marseille","lat":43.297163,"lon":5.365866,"is_reserved":false,"is_disabled":false,"rental_uris":{"android":"levelo://app?vid=0ae91ea5-6e75-438a-a8ad-6ef388630f55","ios":"levelo://app?vid=0ae91ea5-6e75-438a-a8ad-6ef388630f55"},"vehicle_type_id":"4","last_reported":1691312732,"current_range_meters":30400,"station_id":"ce4bgn12rcd13ifvqbt0","pricing_plan_id":"free"},{"bike_id":"17aed30c-641a-4f7e-b113-2fccf770a024","system_id":"levelo_inurba_marseille","lat":43.297163,"lon":5.365866,"is_reserved":false,"is_disabled":false,"rental_uris":{"android":"levelo://app?vid=17aed30c-641a-4f7e-b113-2fccf770a024","ios":"levelo://app?vid=17aed30c-641a-4f7e-b113-2fccf770a024"},"vehicle_type_id":"4","last_reported":1691312732,"current_range_meters":23200,"station_id":"ce4bgn12rcd13ifvqbt0","pricing_plan_id":"free"},{"bike_id":"be15bbe4-d56f-48f1-b15d-4f2df92168b4","system_id":"levelo_inurba_marseille","lat":43.2968,"lon":5.37291,"is_reserved":false,"is_disabled":false,"rental_uris":{"android":"levelo://app?vid=be15bbe4-d56f-48f1-b15d-4f2df92168b4","ios":"levelo://app?vid=be15bbe4-d56f-48f1-b15d-4f2df92168b4"},"vehicle_type_id":"4","last_reported":1691312732,"current_range_meters":27600,"station_id":"ce4bgk12rcd13ifvqbj0","pricing_plan_id":"free"},{"bike_id":"99db51ac-b7f8-4487-9989-3af93b9f20db","system_id":"levelo_inurba_marseille","lat":43.296131,"lon":5.370791,"is_reserved":false,"is_disabled":false,"rental_uris":{"android":"levelo://app?vid=99db51ac-b7f8-4487-9989-3af93b9f20db","ios":"levelo://app?vid=99db51ac-b7f8-4487-9989-3af93b9f20db"},"vehicle_type_id":"4","last_reported":1691312732,"current_range_meters":16000,"station_id":"ce4bgnh2rcd13ifvqc0g","pricing_plan_id":"free"},{"bike_id":"43ccea3b-1804-4457-9fe0-8c811ab88f14","system_id":"levelo_inurba_marseille","lat":43.29573,"lon":5.367355,"is_reserved":false,"is_disabled":false,"rental_uris":{"android":"levelo://app?vid=43ccea3b-1804-4457-9fe0-8c811ab88f14","ios":"levelo://app?vid=43ccea3b-1804-4457-9fe0-8c811ab88f14"},"vehicle_type_id":"4","last_reported":1691312732,"current_range_meters":30000,"station_id":"ce4bgph2rcd13ifvqc2g","pricing_plan_id":"free"},{"bike_id":"c0e15387-3109-4c4c-b17b-6d0a87aaea71","system_id":"levelo_inurba_marseille","lat":43.29573,"lon":5.367355,"is_reserved":false,"is_disabled":false,"rental_uris":{"android":"levelo://app?vid=c0e15387-3109-4c4c-b17b-6d0a87aaea71","ios":"levelo://app?vid=c0e15387-3109-4c4c-b17b-6d0a87aaea71"},"vehicle_type_id":"4","last_reported":1691312732,"current_range_meters":28800,"station_id":"ce4bgph2rcd13ifvqc2g","pricing_plan_id":"free"},{"bike_id":"171188bc-00c9-4dac-9668-c723e6187c51","system_id":"levelo_inurba_marseille","lat":43.296935,"lon":5.376544,"is_reserved":false,"is_disabled":false,"rental_uris":{"android":"levelo://app?vid=171188bc-00c9-4dac-9668-c723e6187c51","ios":"levelo://app?vid=171188bc-00c9-4dac-9668-c723e6187c51"},"vehicle_type_id":"4","last_reported":1691312732,"current_range_meters":19600,"station_id":"ce4bgkh2rcd13ifvqbl0","pricing_plan_id":"free"},{"bike_id":"aac0cd5f-07f2-4c31-a1e3-b04baa9f1638","system_id":"levelo_inurba_marseille","lat":43.299028,"lon":5.381509,"is_reserved":false,"is_disabled":false,"rental_uris":{"android":"levelo://app?vid=aac0cd5f-07f2-4c31-a1e3-b04baa9f1638","ios":"levelo://app?vid=aac0cd5f-07f2-4c31-a1e3-b04baa9f1638"},"vehicle_type_id":"4","last_reported":1691312732,"current_range_meters":28000,"station_id":"ce4bgj12rcd13ifvqbc0","pricing_plan_id":"free"},{"bike_id":"cd5c1ea8-acf4-457e-afa7-ebdd2a586deb","system_id":"levelo_inurba_marseille","lat":43.30958,"lon":5.39032,"is_reserved":false,"is_disabled":false,"rental_uris":{"android":"levelo://app?vid=cd5c1ea8-acf4-457e-afa7-ebdd2a586deb","ios":"levelo://app?vid=cd5c1ea8-acf4-457e-afa7-ebdd2a586deb"},"vehicle_type_id":"4","last_reported":1691312732,"current_range_meters":30800,"station_id":"ce4bgup2rcd13ifvqco0","pricing_plan_id":"free"},{"bike_id":"95c86baa-fb50-4182-aa06-bc509694af14","system_id":"levelo_inurba_marseille","lat":43.299028,"lon":5.381509,"is_reserved":false,"is_disabled":false,"rental_uris":{"android":"levelo://app?vid=95c86baa-fb50-4182-aa06-bc509694af14","ios":"levelo://app?vid=95c86baa-fb50-4182-aa06-bc509694af14"},"vehicle_type_id":"4","last_reported":1691312732,"current_range_meters":26800,"station_id":"ce4bgj12rcd13ifvqbc0","pricing_plan_id":"free"},{"bike_id":"90e2a87b-20e6-4bb8-a558-284431709b7a","system_id":"levelo_inurba_marseille","lat":43.29896,"lon":5.3815,"is_reserved":false,"is_disabled":false,"rental_uris":{"android":"levelo://app?vid=90e2a87b-20e6-4bb8-a558-284431709b7a","ios":"levelo://app?vid=90e2a87b-20e6-4bb8-a558-284431709b7a"},"vehicle_type_id":"4","last_reported":1691312732,"current_range_meters":29600,"station_id":"ce4bgj12rcd13ifvqbc0","pricing_plan_id":"free"},{"bike_id":"f0b1921d-8fc5-42f6-8214-26455e772ce5","system_id":"levelo_inurba_marseille","lat":43.309589,"lon":5.390258,"is_reserved":false,"is_disabled":false,"rental_uris":{"android":"levelo://app?vid=f0b1921d-8fc5-42f6-8214-26455e772ce5","ios":"levelo://app?vid=f0b1921d-8fc5-42f6-8214-26455e772ce5"},"vehicle_type_id":"4","last_reported":1691312732,"current_range_meters":25200,"station_id":"ce4bgup2rcd13ifvqco0","pricing_plan_id":"free"},{"bike_id":"c070a522-6c17-4333-a9ee-bbef4dc643ed","system_id":"levelo_inurba_marseille","lat":43.317557,"lon":5.390173,"is_reserved":false,"is_disabled":false,"rental_uris":{"android":"levelo://app?vid=c070a522-6c17-4333-a9ee-bbef4dc643ed","ios":"levelo://app?vid=c070a522-6c17-4333-a9ee-bbef4dc643ed"},"vehicle_type_id":"4","last_reported":1691312732,"current_range_meters":31200,"station_id":"ce4bhqp2rcd13ifvqhng","pricing_plan_id":"free"},{"bike_id":"fb5d1b63-b2f2-4d34-b700-b062bf6b4e69","system_id":"levelo_inurba_marseille","lat":43.317557,"lon":5.390173,"is_reserved":false,"is_disabled":false,"rental_uris":{"android":"levelo://app?vid=fb5d1b63-b2f2-4d34-b700-b062bf6b4e69","ios":"levelo://app?vid=fb5d1b63-b2f2-4d34-b700-b062bf6b4e69"},"vehicle_type_id":"4","last_reported":1691312732,"current_range_meters":31200,"station_id":"ce4bhqp2rcd13ifvqhng","pricing_plan_id":"free"},{"bike_id":"aeba4117-4324-492b-b05b-37bcc45b3f39","system_id":"levelo_inurba_marseille","lat":43.317557,"lon":5.390173,"is_reserved":false,"is_disabled":false,"rental_uris":{"android":"levelo://app?vid=aeba4117-4324-492b-b05b-37bcc45b3f39","ios":"levelo://app?vid=aeba4117-4324-492b-b05b-37bcc45b3f39"},"vehicle_type_id":"4","last_reported":1691312732,"current_range_meters":17600,"station_id":"ce4bhqp2rcd13ifvqhng","pricing_plan_id":"free"},{"bike_id":"4879b09e-5533-49cc-808c-be115b214b19","system_id":"levelo_inurba_marseille","lat":43.317557,"lon":5.390173,"is_reserved":false,"is_disabled":false,"rental_uris":{"android":"levelo://app?vid=4879b09e-5533-49cc-808c-be115b214b19","ios":"levelo://app?vid=4879b09e-5533-49cc-808c-be115b214b19"},"vehicle_type_id":"4","last_reported":1691312732,"current_range_meters":31200,"station_id":"ce4bhqp2rcd13ifvqhng","pricing_plan_id":"free"},{"bike_id":"90569ba5-8bb9-4d2d-b876-dc35e42f9a0c","system_id":"levelo_inurba_marseille","lat":43.317557,"lon":5.390173,"is_reserved":false,"is_disabled":false,"rental_uris":{"android":"levelo://app?vid=90569ba5-8bb9-4d2d-b876-dc35e42f9a0c","ios":"levelo://app?vid=90569ba5-8bb9-4d2d-b876-dc35e42f9a0c"},"vehicle_type_id":"4","last_reported":1691312732,"current_range_meters":31200,"station_id":"ce4bhqp2rcd13ifvqhng","pricing_plan_id":"free"},{"bike_id":"69c060c4-177d-456b-950f-d8b850a4003e","system_id":"levelo_inurba_marseille","lat":43.298037,"lon":5.381066,"is_reserved":false,"is_disabled":false,"rental_uris":{"android":"levelo://app?vid=69c060c4-177d-456b-950f-d8b850a4003e","ios":"levelo://app?vid=69c060c4-177d-456b-950f-d8b850a4003e"},"vehicle_type_id":"4","last_reported":1691312732,"current_range_meters":31200,"station_id":"ce4bgip2rcd13ifvqbb0","pricing_plan_id":"free"},{"bike_id":"83f139d1-76b6-427d-9484-02f9e5c08a0d","system_id":"levelo_inurba_marseille","lat":43.298037,"lon":5.381066,"is_reserved":false,"is_disabled":false,"rental_uris":{"android":"levelo://app?vid=83f139d1-76b6-427d-9484-02f9e5c08a0d","ios":"levelo://app?vid=83f139d1-76b6-427d-9484-02f9e5c08a0d"},"vehicle_type_id":"4","last_reported":1691312732,"current_range_meters":30400,"station_id":"ce4bgip2rcd13ifvqbb0","pricing_plan_id":"free"},{"bike_id":"961ed67c-7a45-49fa-9249-80cc1dfb9ab5","system_id":"levelo_inurba_marseille","lat":43.2979,"lon":5.38086,"is_reserved":false,"is_disabled":false,"rental_uris":{"android":"levelo://app?vid=961ed67c-7a45-49fa-9249-80cc1dfb9ab5","ios":"levelo://app?vid=961ed67c-7a45-49fa-9249-80cc1dfb9ab5"},"vehicle_type_id":"4","last_reported":1691312732,"current_range_meters":18800,"station_id":"ce4bgip2rcd13ifvqbb0","pricing_plan_id":"free"},{"bike_id":"a4df99ce-0488-49dd-a888-94686f562e88","system_id":"levelo_inurba_marseille","lat":43.295748,"lon":5.37522,"is_reserved":false,"is_disabled":false,"rental_uris":{"android":"levelo://app?vid=a4df99ce-0488-49dd-a888-94686f562e88","ios":"levelo://app?vid=a4df99ce-0488-49dd-a888-94686f562e88"},"vehicle_type_id":"4","last_reported":1691312732,"current_range_meters":31200,"station_id":"ce4bgh92rcd13ifvqb50","pricing_plan_id":"free"},{"bike_id":"dbfc54a1-01b1-4960-a638-82ff5654fb4c","system_id":"levelo_inurba_marseille","lat":43.30431,"lon":5.38881,"is_reserved":false,"is_disabled":false,"rental_uris":{"android":"levelo://app?vid=dbfc54a1-01b1-4960-a638-82ff5654fb4c","ios":"levelo://app?vid=dbfc54a1-01b1-4960-a638-82ff5654fb4c"},"vehicle_type_id":"4","last_reported":1691312732,"current_range_meters":31200,"station_id":"ce4bgk12rcd13ifvqbi0","pricing_plan_id":"free"},{"bike_id":"48a17eb9-dada-400d-a012-5aaa8751af3f","system_id":"levelo_inurba_marseille","lat":43.29785,"lon":5.38091,"is_reserved":false,"is_disabled":false,"rental_uris":{"android":"levelo://app?vid=48a17eb9-dada-400d-a012-5aaa8751af3f","ios":"levelo://app?vid=48a17eb9-dada-400d-a012-5aaa8751af3f"},"vehicle_type_id":"4","last_reported":1691312732,"current_range_meters":29200,"station_id":"ce4bgip2rcd13ifvqbb0","pricing_plan_id":"free"},{"bike_id":"f51bc843-e82b-4c82-9bb0-379ef29549ef","system_id":"levelo_inurba_marseille","lat":43.30428,"lon":5.38883,"is_reserved":false,"is_disabled":false,"rental_uris":{"android":"levelo://app?vid=f51bc843-e82b-4c82-9bb0-379ef29549ef","ios":"levelo://app?vid=f51bc843-e82b-4c82-9bb0-379ef29549ef"},"vehicle_type_id":"4","last_reported":1691312732,"current_range_meters":31200,"station_id":"ce4bgk12rcd13ifvqbi0","pricing_plan_id":"free"},{"bike_id":"fd65d7ee-5407-4a0b-81a2-e1c92a5b021b","system_id":"levelo_inurba_marseille","lat":43.30085,"lon":5.390856,"is_reserved":false,"is_disabled":false,"rental_uris":{"android":"levelo://app?vid=fd65d7ee-5407-4a0b-81a2-e1c92a5b021b","ios":"levelo://app?vid=fd65d7ee-5407-4a0b-81a2-e1c92a5b021b"},"vehicle_type_id":"4","last_reported":1691312732,"current_range_meters":25200,"station_id":"ce4bh192rcd13ifvqdb0","pricing_plan_id":"free"},{"bike_id":"2dcace02-bf79-43da-b079-2a61dc3e2828","system_id":"levelo_inurba_marseille","lat":43.29786,"lon":5.38103,"is_reserved":false,"is_disabled":false,"rental_uris":{"android":"levelo://app?vid=2dcace02-bf79-43da-b079-2a61dc3e2828","ios":"levelo://app?vid=2dcace02-bf79-43da-b079-2a61dc3e2828"},"vehicle_type_id":"4","last_reported":1691312732,"current_range_meters":31200,"station_id":"ce4bgip2rcd13ifvqbb0","pricing_plan_id":"free"},{"bike_id":"dcceb6a6-9fbd-4112-9cc5-c6df75b8ca17","system_id":"levelo_inurba_marseille","lat":43.298037,"lon":5.381066,"is_reserved":false,"is_disabled":false,"rental_uris":{"android":"levelo://app?vid=dcceb6a6-9fbd-4112-9cc5-c6df75b8ca17","ios":"levelo://app?vid=dcceb6a6-9fbd-4112-9cc5-c6df75b8ca17"},"vehicle_type_id":"4","last_reported":1691312732,"current_range_meters":29200,"station_id":"ce4bgip2rcd13ifvqbb0","pricing_plan_id":"free"},{"bike_id":"47be0c63-2b0d-4a61-8cbb-36bfa2b62390","system_id":"levelo_inurba_marseille","lat":43.30426,"lon":5.38893,"is_reserved":false,"is_disabled":false,"rental_uris":{"android":"levelo://app?vid=47be0c63-2b0d-4a61-8cbb-36bfa2b62390","ios":"levelo://app?vid=47be0c63-2b0d-4a61-8cbb-36bfa2b62390"},"vehicle_type_id":"4","last_reported":1691312732,"current_range_meters":28400,"station_id":"ce4bgk12rcd13ifvqbi0","pricing_plan_id":"free"},{"bike_id":"6f27ae85-55e5-4b47-a13f-ae76cb27cdb1","system_id":"levelo_inurba_marseille","lat":43.295279,"lon":5.375048,"is_reserved":false,"is_disabled":false,"rental_uris":{"android":"levelo://app?vid=6f27ae85-55e5-4b47-a13f-ae76cb27cdb1","ios":"levelo://app?vid=6f27ae85-55e5-4b47-a13f-ae76cb27cdb1"},"vehicle_type_id":"4","last_reported":1691312732,"current_range_meters":28800,"station_id":"ce4bgkp2rcd13ifvqbmg","pricing_plan_id":"free"},{"bike_id":"70129cea-ad2f-4f6d-962d-af0addb4e3dd","system_id":"levelo_inurba_marseille","lat":43.299707,"lon":5.384859,"is_reserved":false,"is_disabled":false,"rental_uris":{"android":"levelo://app?vid=70129cea-ad2f-4f6d-962d-af0addb4e3dd","ios":"levelo://app?vid=70129cea-ad2f-4f6d-962d-af0addb4e3dd"},"vehicle_type_id":"4","last_reported":1691312732,"current_range_meters":17200,"station_id":"ce4bgj92rcd13ifvqbd0","pricing_plan_id":"free"},{"bike_id":"a71dcb11-b30e-41fe-a3c7-7bdfdce17dda","system_id":"levelo_inurba_marseille","lat":43.295279,"lon":5.375048,"is_reserved":false,"is_disabled":false,"rental_uris":{"android":"levelo://app?vid=a71dcb11-b30e-41fe-a3c7-7bdfdce17dda","ios":"levelo://app?vid=a71dcb11-b30e-41fe-a3c7-7bdfdce17dda"},"vehicle_type_id":"4","last_reported":1691312732,"current_range_meters":13600,"station_id":"ce4bgkp2rcd13ifvqbmg","pricing_plan_id":"free"},{"bike_id":"34d03c91-c4ea-4a89-84f0-90a6767a042d","system_id":"levelo_inurba_marseille","lat":43.299707,"lon":5.384859,"is_reserved":false,"is_disabled":false,"rental_uris":{"android":"levelo://app?vid=34d03c91-c4ea-4a89-84f0-90a6767a042d","ios":"levelo://app?vid=34d03c91-c4ea-4a89-84f0-90a6767a042d"},"vehicle_type_id":"4","last_reported":1691312732,"current_range_meters":24000,"station_id":"ce4bgj92rcd13ifvqbd0","pricing_plan_id":"free"},{"bike_id":"82d09b95-c81a-4265-bc46-62c5fc405c91","system_id":"levelo_inurba_marseille","lat":43.299707,"lon":5.384859,"is_reserved":false,"is_disabled":false,"rental_uris":{"android":"levelo://app?vid=82d09b95-c81a-4265-bc46-62c5fc405c91","ios":"levelo://app?vid=82d09b95-c81a-4265-bc46-62c5fc405c91"},"vehicle_type_id":"4","last_reported":1691312732,"current_range_meters":27200,"station_id":"ce4bgj92rcd13ifvqbd0","pricing_plan_id":"free"},{"bike_id":"6f253636-3deb-4591-8786-a73581bbafdf","system_id":"levelo_inurba_marseille","lat":43.299717,"lon":5.384845,"is_reserved":false,"is_disabled":false,"rental_uris":{"android":"levelo://app?vid=6f253636-3deb-4591-8786-a73581bbafdf","ios":"levelo://app?vid=6f253636-3deb-4591-8786-a73581bbafdf"},"vehicle_type_id":"4","last_reported":1691312732,"current_range_meters":31200,"station_id":"ce4bgj92rcd13ifvqbd0","pricing_plan_id":"free"},{"bike_id":"cfd87ee9-ded0-4b80-b29e-4c2c40c3a844","system_id":"levelo_inurba_marseille","lat":43.295279,"lon":5.375048,"is_reserved":false,"is_disabled":false,"rental_uris":{"android":"levelo://app?vid=cfd87ee9-ded0-4b80-b29e-4c2c40c3a844","ios":"levelo://app?vid=cfd87ee9-ded0-4b80-b29e-4c2c40c3a844"},"vehicle_type_id":"4","last_reported":1691312732,"current_range_meters":30800,"station_id":"ce4bgkp2rcd13ifvqbmg","pricing_plan_id":"free"},{"bike_id":"38d8a4e6-5426-45c1-8a48-43cc010b1707","system_id":"levelo_inurba_marseille","lat":43.295279,"lon":5.375048,"is_reserved":false,"is_disabled":false,"rental_uris":{"android":"levelo://app?vid=38d8a4e6-5426-45c1-8a48-43cc010b1707","ios":"levelo://app?vid=38d8a4e6-5426-45c1-8a48-43cc010b1707"},"vehicle_type_id":"4","last_reported":1691312732,"current_range_meters":22000,"station_id":"ce4bgkp2rcd13ifvqbmg","pricing_plan_id":"free"},{"bike_id":"abdbe176-ef59-4f3a-afe2-f7625c07054c","system_id":"levelo_inurba_marseille","lat":43.295279,"lon":5.375048,"is_reserved":false,"is_disabled":false,"rental_uris":{"android":"levelo://app?vid=abdbe176-ef59-4f3a-afe2-f7625c07054c","ios":"levelo://app?vid=abdbe176-ef59-4f3a-afe2-f7625c07054c"},"vehicle_type_id":"4","last_reported":1691312732,"current_range_meters":29600,"station_id":"ce4bgkp2rcd13ifvqbmg","pricing_plan_id":"free"},{"bike_id":"6c0406b8-6475-4c47-97f2-80da64f6b90b","system_id":"levelo_inurba_marseille","lat":43.299717,"lon":5.384845,"is_reserved":false,"is_disabled":false,"rental_uris":{"android":"levelo://app?vid=6c0406b8-6475-4c47-97f2-80da64f6b90b","ios":"levelo://app?vid=6c0406b8-6475-4c47-97f2-80da64f6b90b"},"vehicle_type_id":"4","last_reported":1691312732,"current_range_meters":31200,"station_id":"ce4bgj92rcd13ifvqbd0","pricing_plan_id":"free"},{"bike_id":"ed5b971a-2b8a-4f89-9487-7e8342d0b66b","system_id":"levelo_inurba_marseille","lat":43.32367,"lon":5.388836,"is_reserved":false,"is_disabled":false,"rental_uris":{"android":"levelo://app?vid=ed5b971a-2b8a-4f89-9487-7e8342d0b66b","ios":"levelo://app?vid=ed5b971a-2b8a-4f89-9487-7e8342d0b66b"},"vehicle_type_id":"4","last_reported":1691312732,"current_range_meters":30800,"station_id":"ce4bhqp2rcd13ifvqhog","pricing_plan_id":"free"},{"bike_id":"660e75c8-af2c-4908-941b-1209dfdb6848","system_id":"levelo_inurba_marseille","lat":43.32367,"lon":5.388836,"is_reserved":false,"is_disabled":false,"rental_uris":{"android":"levelo://app?vid=660e75c8-af2c-4908-941b-1209dfdb6848","ios":"levelo://app?vid=660e75c8-af2c-4908-941b-1209dfdb6848"},"vehicle_type_id":"4","last_reported":1691312732,"current_range_meters":25600,"station_id":"ce4bhqp2rcd13ifvqhog","pricing_plan_id":"free"},{"bike_id":"31c4ebe8-2a4f-41b7-966a-7ad502ff3d8a","system_id":"levelo_inurba_marseille","lat":43.32364,"lon":5.38877,"is_reserved":false,"is_disabled":false,"rental_uris":{"android":"levelo://app?vid=31c4ebe8-2a4f-41b7-966a-7ad502ff3d8a","ios":"levelo://app?vid=31c4ebe8-2a4f-41b7-966a-7ad502ff3d8a"},"vehicle_type_id":"4","last_reported":1691312732,"current_range_meters":16000,"station_id":"ce4bhqp2rcd13ifvqhog","pricing_plan_id":"free"},{"bike_id":"34ef5601-8765-4b80-bdc1-e9818152ffab","system_id":"levelo_inurba_marseille","lat":43.32364,"lon":5.38879,"is_reserved":false,"is_disabled":false,"rental_uris":{"android":"levelo://app?vid=34ef5601-8765-4b80-bdc1-e9818152ffab","ios":"levelo://app?vid=34ef5601-8765-4b80-bdc1-e9818152ffab"},"vehicle_type_id":"4","last_reported":1691312732,"current_range_meters":21200,"station_id":"ce4bhqp2rcd13ifvqhog","pricing_plan_id":"free"},{"bike_id":"51a94a8b-791c-4738-b220-ee8689f99230","system_id":"levelo_inurba_marseille","lat":43.32362,"lon":5.38881,"is_reserved":false,"is_disabled":false,"rental_uris":{"android":"levelo://app?vid=51a94a8b-791c-4738-b220-ee8689f99230","ios":"levelo://app?vid=51a94a8b-791c-4738-b220-ee8689f99230"},"vehicle_type_id":"4","last_reported":1691312732,"current_range_meters":28800,"station_id":"ce4bhqp2rcd13ifvqhog","pricing_plan_id":"free"},{"bike_id":"5f1c231d-5549-420b-a974-1b1406435a60","system_id":"levelo_inurba_marseille","lat":43.32367,"lon":5.388836,"is_reserved":false,"is_disabled":false,"rental_uris":{"android":"levelo://app?vid=5f1c231d-5549-420b-a974-1b1406435a60","ios":"levelo://app?vid=5f1c231d-5549-420b-a974-1b1406435a60"},"vehicle_type_id":"4","last_reported":1691312732,"current_range_meters":18000,"station_id":"ce4bhqp2rcd13ifvqhog","pricing_plan_id":"free"},{"bike_id":"153806a9-c106-4acb-8efe-f81ba29b58d3","system_id":"levelo_inurba_marseille","lat":43.32364,"lon":5.3888,"is_reserved":false,"is_disabled":false,"rental_uris":{"android":"levelo://app?vid=153806a9-c106-4acb-8efe-f81ba29b58d3","ios":"levelo://app?vid=153806a9-c106-4acb-8efe-f81ba29b58d3"},"vehicle_type_id":"4","last_reported":1691312732,"current_range_meters":20400,"station_id":"ce4bhqp2rcd13ifvqhog","pricing_plan_id":"free"},{"bike_id":"6be534a9-96c6-4989-b3bb-e9dea76376c4","system_id":"levelo_inurba_marseille","lat":43.32365,"lon":5.38887,"is_reserved":false,"is_disabled":false,"rental_uris":{"android":"levelo://app?vid=6be534a9-96c6-4989-b3bb-e9dea76376c4","ios":"levelo://app?vid=6be534a9-96c6-4989-b3bb-e9dea76376c4"},"vehicle_type_id":"4","last_reported":1691312732,"current_range_meters":28400,"station_id":"ce4bhqp2rcd13ifvqhog","pricing_plan_id":"free"},{"bike_id":"ac4f06b2-1db5-4ff0-9bde-d3fbc89689ae","system_id":"levelo_inurba_marseille","lat":43.292749,"lon":5.368398,"is_reserved":false,"is_disabled":false,"rental_uris":{"android":"levelo://app?vid=ac4f06b2-1db5-4ff0-9bde-d3fbc89689ae","ios":"levelo://app?vid=ac4f06b2-1db5-4ff0-9bde-d3fbc89689ae"},"vehicle_type_id":"4","last_reported":1691312732,"current_range_meters":25200,"station_id":"ce4bhbp2rcd13ifvqesg","pricing_plan_id":"free"},{"bike_id":"4d80021c-6fec-4848-b441-a1dbde578ea1","system_id":"levelo_inurba_marseille","lat":43.292749,"lon":5.368402,"is_reserved":false,"is_disabled":false,"rental_uris":{"android":"levelo://app?vid=4d80021c-6fec-4848-b441-a1dbde578ea1","ios":"levelo://app?vid=4d80021c-6fec-4848-b441-a1dbde578ea1"},"vehicle_type_id":"4","last_reported":1691312732,"current_range_meters":29600,"station_id":"ce4bhbp2rcd13ifvqesg","pricing_plan_id":"free"},{"bike_id":"1382dceb-6a1a-455f-8890-f8403e04174e","system_id":"levelo_inurba_marseille","lat":43.305994,"lon":5.393687,"is_reserved":false,"is_disabled":false,"rental_uris":{"android":"levelo://app?vid=1382dceb-6a1a-455f-8890-f8403e04174e","ios":"levelo://app?vid=1382dceb-6a1a-455f-8890-f8403e04174e"},"vehicle_type_id":"4","last_reported":1691312732,"current_range_meters":22000,"station_id":"ce4bh0p2rcd13ifvqd80","pricing_plan_id":"free"},{"bike_id":"bd10b951-71aa-4140-b5ae-7adc8a467c98","system_id":"levelo_inurba_marseille","lat":43.293009,"lon":5.374584,"is_reserved":false,"is_disabled":false,"rental_uris":{"android":"levelo://app?vid=bd10b951-71aa-4140-b5ae-7adc8a467c98","ios":"levelo://app?vid=bd10b951-71aa-4140-b5ae-7adc8a467c98"},"vehicle_type_id":"4","last_reported":1691312732,"current_range_meters":31200,"station_id":"ce4bgi12rcd13ifvqb70","pricing_plan_id":"free"},{"bike_id":"e95c3d40-1350-44fd-9e9b-48e2bd4ce116","system_id":"levelo_inurba_marseille","lat":43.303,"lon":5.39209,"is_reserved":false,"is_disabled":false,"rental_uris":{"android":"levelo://app?vid=e95c3d40-1350-44fd-9e9b-48e2bd4ce116","ios":"levelo://app?vid=e95c3d40-1350-44fd-9e9b-48e2bd4ce116"},"vehicle_type_id":"4","last_reported":1691312732,"current_range_meters":31200,"station_id":"ce4bgkh2rcd13ifvqbk0","pricing_plan_id":"free"},{"bike_id":"fc62e57d-bbc9-40e1-9442-085ac461c838","system_id":"levelo_inurba_marseille","lat":43.30297,"lon":5.39208,"is_reserved":false,"is_disabled":false,"rental_uris":{"android":"levelo://app?vid=fc62e57d-bbc9-40e1-9442-085ac461c838","ios":"levelo://app?vid=fc62e57d-bbc9-40e1-9442-085ac461c838"},"vehicle_type_id":"4","last_reported":1691312732,"current_range_meters":24400,"station_id":"ce4bgkh2rcd13ifvqbk0","pricing_plan_id":"free"},{"bike_id":"24cbe1e9-85df-4276-af85-9e697106ddcd","system_id":"levelo_inurba_marseille","lat":43.30288,"lon":5.39206,"is_reserved":false,"is_disabled":false,"rental_uris":{"android":"levelo://app?vid=24cbe1e9-85df-4276-af85-9e697106ddcd","ios":"levelo://app?vid=24cbe1e9-85df-4276-af85-9e697106ddcd"},"vehicle_type_id":"4","last_reported":1691312732,"current_range_meters":30400,"station_id":"ce4bgkh2rcd13ifvqbk0","pricing_plan_id":"free"},{"bike_id":"f9253f79-3896-4003-883a-ac2e287b188b","system_id":"levelo_inurba_marseille","lat":43.2936,"lon":5.37835,"is_reserved":false,"is_disabled":false,"rental_uris":{"android":"levelo://app?vid=f9253f79-3896-4003-883a-ac2e287b188b","ios":"levelo://app?vid=f9253f79-3896-4003-883a-ac2e287b188b"},"vehicle_type_id":"4","last_reported":1691312732,"current_range_meters":30400,"station_id":"ce4bgjh2rcd13ifvqbf0","pricing_plan_id":"free"},{"bike_id":"c6d66e73-ecf9-4f75-9ae2-f168f71d5458","system_id":"levelo_inurba_marseille","lat":43.2936,"lon":5.37835,"is_reserved":false,"is_disabled":false,"rental_uris":{"android":"levelo://app?vid=c6d66e73-ecf9-4f75-9ae2-f168f71d5458","ios":"levelo://app?vid=c6d66e73-ecf9-4f75-9ae2-f168f71d5458"},"vehicle_type_id":"4","last_reported":1691312732,"current_range_meters":24000,"station_id":"ce4bgjh2rcd13ifvqbf0","pricing_plan_id":"free"},{"bike_id":"95dbec58-259f-4729-a003-2e259e48a1a5","system_id":"levelo_inurba_marseille","lat":43.30283,"lon":5.39208,"is_reserved":false,"is_disabled":false,"rental_uris":{"android":"levelo://app?vid=95dbec58-259f-4729-a003-2e259e48a1a5","ios":"levelo://app?vid=95dbec58-259f-4729-a003-2e259e48a1a5"},"vehicle_type_id":"4","last_reported":1691312732,"current_range_meters":29600,"station_id":"ce4bgkh2rcd13ifvqbk0","pricing_plan_id":"free"},{"bike_id":"01d8df7f-1905-4c10-982d-d60dc9fab8fe","system_id":"levelo_inurba_marseille","lat":43.2936,"lon":5.37835,"is_reserved":false,"is_disabled":false,"rental_uris":{"android":"levelo://app?vid=01d8df7f-1905-4c10-982d-d60dc9fab8fe","ios":"levelo://app?vid=01d8df7f-1905-4c10-982d-d60dc9fab8fe"},"vehicle_type_id":"4","last_reported":1691312732,"current_range_meters":4800,"station_id":"ce4bgjh2rcd13ifvqbf0","pricing_plan_id":"free"},{"bike_id":"c1a5c525-573d-44d8-a001-f1517186bfdb","system_id":"levelo_inurba_marseille","lat":43.300852,"lon":5.390859,"is_reserved":false,"is_disabled":false,"rental_uris":{"android":"levelo://app?vid=c1a5c525-573d-44d8-a001-f1517186bfdb","ios":"levelo://app?vid=c1a5c525-573d-44d8-a001-f1517186bfdb"},"vehicle_type_id":"4","last_reported":1691312732,"current_range_meters":30800,"station_id":"ce4bh192rcd13ifvqdb0","pricing_plan_id":"free"},{"bike_id":"88268657-f1ec-4fe7-80f3-a449fb5f0a6f","system_id":"levelo_inurba_marseille","lat":43.30085,"lon":5.390856,"is_reserved":false,"is_disabled":false,"rental_uris":{"android":"levelo://app?vid=88268657-f1ec-4fe7-80f3-a449fb5f0a6f","ios":"levelo://app?vid=88268657-f1ec-4fe7-80f3-a449fb5f0a6f"},"vehicle_type_id":"4","last_reported":1691312732,"current_range_meters":31200,"station_id":"ce4bh192rcd13ifvqdb0","pricing_plan_id":"free"},{"bike_id":"50f9f904-8ba0-497e-be2d-5d38b8eced8c","system_id":"levelo_inurba_marseille","lat":43.292663,"lon":5.376394,"is_reserved":false,"is_disabled":false,"rental_uris":{"android":"levelo://app?vid=50f9f904-8ba0-497e-be2d-5d38b8eced8c","ios":"levelo://app?vid=50f9f904-8ba0-497e-be2d-5d38b8eced8c"},"vehicle_type_id":"4","last_reported":1691312732,"current_range_meters":4400,"station_id":"ce4bgi12rcd13ifvqb80","pricing_plan_id":"free"},{"bike_id":"126096f3-a682-411c-9219-da8b3df9ad34","system_id":"levelo_inurba_marseille","lat":43.298764,"lon":5.388973,"is_reserved":false,"is_disabled":false,"rental_uris":{"android":"levelo://app?vid=126096f3-a682-411c-9219-da8b3df9ad34","ios":"levelo://app?vid=126096f3-a682-411c-9219-da8b3df9ad34"},"vehicle_type_id":"4","last_reported":1691312732,"current_range_meters":23200,"station_id":"ce4bh392rcd13ifvqdl0","pricing_plan_id":"free"},{"bike_id":"3dc0f7fb-391d-4f81-badb-3e4076ffe3ef","system_id":"levelo_inurba_marseille","lat":43.30879,"lon":5.39632,"is_reserved":false,"is_disabled":false,"rental_uris":{"android":"levelo://app?vid=3dc0f7fb-391d-4f81-badb-3e4076ffe3ef","ios":"levelo://app?vid=3dc0f7fb-391d-4f81-badb-3e4076ffe3ef"},"vehicle_type_id":"4","last_reported":1691312732,"current_range_meters":14000,"station_id":"ce4bh012rcd13ifvqcv0","pricing_plan_id":"free"},{"bike_id":"fed21c79-fa7d-4c11-9db6-385eb38d528c","system_id":"levelo_inurba_marseille","lat":43.30873,"lon":5.39635,"is_reserved":false,"is_disabled":false,"rental_uris":{"android":"levelo://app?vid=fed21c79-fa7d-4c11-9db6-385eb38d528c","ios":"levelo://app?vid=fed21c79-fa7d-4c11-9db6-385eb38d528c"},"vehicle_type_id":"4","last_reported":1691312732,"current_range_meters":31200,"station_id":"ce4bh012rcd13ifvqcv0","pricing_plan_id":"free"},{"bike_id":"e3b2f042-b825-41d2-847a-9aef8d29981e","system_id":"levelo_inurba_marseille","lat":43.29196,"lon":5.35787,"is_reserved":false,"is_disabled":false,"rental_uris":{"android":"levelo://app?vid=e3b2f042-b825-41d2-847a-9aef8d29981e","ios":"levelo://app?vid=e3b2f042-b825-41d2-847a-9aef8d29981e"},"vehicle_type_id":"4","last_reported":1691312732,"current_range_meters":0,"station_id":"ce4bhb12rcd13ifvqel0","pricing_plan_id":"free"},{"bike_id":"8e14d3b7-6225-4aa5-a192-27c9c015b332","system_id":"levelo_inurba_marseille","lat":43.31329,"lon":5.39692,"is_reserved":false,"is_disabled":false,"rental_uris":{"android":"levelo://app?vid=8e14d3b7-6225-4aa5-a192-27c9c015b332","ios":"levelo://app?vid=8e14d3b7-6225-4aa5-a192-27c9c015b332"},"vehicle_type_id":"4","last_reported":1691312732,"current_range_meters":30400,"station_id":"ce4bgvp2rcd13ifvqcu0","pricing_plan_id":"free"},{"bike_id":"ea7a9fbd-79bf-4fc5-9cf5-600ce47a3c6f","system_id":"levelo_inurba_marseille","lat":43.31327,"lon":5.39693,"is_reserved":false,"is_disabled":false,"rental_uris":{"android":"levelo://app?vid=ea7a9fbd-79bf-4fc5-9cf5-600ce47a3c6f","ios":"levelo://app?vid=ea7a9fbd-79bf-4fc5-9cf5-600ce47a3c6f"},"vehicle_type_id":"4","last_reported":1691312732,"current_range_meters":31200,"station_id":"ce4bgvp2rcd13ifvqcu0","pricing_plan_id":"free"},{"bike_id":"387ffa36-16d3-42bc-8f0b-389124140b97","system_id":"levelo_inurba_marseille","lat":43.30885,"lon":5.39646,"is_reserved":false,"is_disabled":false,"rental_uris":{"android":"levelo://app?vid=387ffa36-16d3-42bc-8f0b-389124140b97","ios":"levelo://app?vid=387ffa36-16d3-42bc-8f0b-389124140b97"},"vehicle_type_id":"4","last_reported":1691312732,"current_range_meters":18400,"station_id":"ce4bh012rcd13ifvqcv0","pricing_plan_id":"free"},{"bike_id":"5ab167f0-c260-4aae-bb12-daa82c076d39","system_id":"levelo_inurba_marseille","lat":43.29529,"lon":5.385581,"is_reserved":false,"is_disabled":false,"rental_uris":{"android":"levelo://app?vid=5ab167f0-c260-4aae-bb12-daa82c076d39","ios":"levelo://app?vid=5ab167f0-c260-4aae-bb12-daa82c076d39"},"vehicle_type_id":"4","last_reported":1691312732,"current_range_meters":30400,"station_id":"ce4bgih2rcd13ifvqba0","pricing_plan_id":"free"},{"bike_id":"d023017d-438c-4902-b510-527249db6136","system_id":"levelo_inurba_marseille","lat":43.29529,"lon":5.385581,"is_reserved":false,"is_disabled":false,"rental_uris":{"android":"levelo://app?vid=d023017d-438c-4902-b510-527249db6136","ios":"levelo://app?vid=d023017d-438c-4902-b510-527249db6136"},"vehicle_type_id":"4","last_reported":1691312732,"current_range_meters":20000,"station_id":"ce4bgih2rcd13ifvqba0","pricing_plan_id":"free"},{"bike_id":"fb78b4ef-e474-42d4-899b-ad51eea01c5d","system_id":"levelo_inurba_marseille","lat":43.29529,"lon":5.385581,"is_reserved":false,"is_disabled":false,"rental_uris":{"android":"levelo://app?vid=fb78b4ef-e474-42d4-899b-ad51eea01c5d","ios":"levelo://app?vid=fb78b4ef-e474-42d4-899b-ad51eea01c5d"},"vehicle_type_id":"4","last_reported":1691312732,"current_range_meters":21200,"station_id":"ce4bgih2rcd13ifvqba0","pricing_plan_id":"free"},{"bike_id":"a439ab69-6117-4c67-b5a8-29759dbd690f","system_id":"levelo_inurba_marseille","lat":43.290779,"lon":5.371482,"is_reserved":false,"is_disabled":false,"rental_uris":{"android":"levelo://app?vid=a439ab69-6117-4c67-b5a8-29759dbd690f","ios":"levelo://app?vid=a439ab69-6117-4c67-b5a8-29759dbd690f"},"vehicle_type_id":"4","last_reported":1691312732,"current_range_meters":30800,"station_id":"ce4bh5p2rcd13ifvqe4g","pricing_plan_id":"free"},{"bike_id":"45c37acf-7365-4098-a50b-760472467a44","system_id":"levelo_inurba_marseille","lat":43.290779,"lon":5.371482,"is_reserved":false,"is_disabled":false,"rental_uris":{"android":"levelo://app?vid=45c37acf-7365-4098-a50b-760472467a44","ios":"levelo://app?vid=45c37acf-7365-4098-a50b-760472467a44"},"vehicle_type_id":"4","last_reported":1691312732,"current_range_meters":30000,"station_id":"ce4bh5p2rcd13ifvqe4g","pricing_plan_id":"free"},{"bike_id":"61391ea9-40ea-4fbd-bf41-22705ff966bb","system_id":"levelo_inurba_marseille","lat":43.2906,"lon":5.37147,"is_reserved":false,"is_disabled":false,"rental_uris":{"android":"levelo://app?vid=61391ea9-40ea-4fbd-bf41-22705ff966bb","ios":"levelo://app?vid=61391ea9-40ea-4fbd-bf41-22705ff966bb"},"vehicle_type_id":"4","last_reported":1691312732,"current_range_meters":22400,"station_id":"ce4bh5p2rcd13ifvqe4g","pricing_plan_id":"free"},{"bike_id":"14879d66-3955-4fe8-b7ad-d57cc4e0ff46","system_id":"levelo_inurba_marseille","lat":43.29058,"lon":5.37169,"is_reserved":false,"is_disabled":false,"rental_uris":{"android":"levelo://app?vid=14879d66-3955-4fe8-b7ad-d57cc4e0ff46","ios":"levelo://app?vid=14879d66-3955-4fe8-b7ad-d57cc4e0ff46"},"vehicle_type_id":"4","last_reported":1691312732,"current_range_meters":31200,"station_id":"","pricing_plan_id":"free"},{"bike_id":"dc83581f-d63f-477c-9462-e941729284a5","system_id":"levelo_inurba_marseille","lat":43.29055,"lon":5.37156,"is_reserved":false,"is_disabled":false,"rental_uris":{"android":"levelo://app?vid=dc83581f-d63f-477c-9462-e941729284a5","ios":"levelo://app?vid=dc83581f-d63f-477c-9462-e941729284a5"},"vehicle_type_id":"4","last_reported":1691312732,"current_range_meters":19600,"station_id":"ce4bh5p2rcd13ifvqe4g","pricing_plan_id":"free"},{"bike_id":"69ef48ee-d132-421c-8069-9949f15b223e","system_id":"levelo_inurba_marseille","lat":43.290779,"lon":5.371482,"is_reserved":false,"is_disabled":false,"rental_uris":{"android":"levelo://app?vid=69ef48ee-d132-421c-8069-9949f15b223e","ios":"levelo://app?vid=69ef48ee-d132-421c-8069-9949f15b223e"},"vehicle_type_id":"4","last_reported":1691312732,"current_range_meters":29600,"station_id":"ce4bh5p2rcd13ifvqe4g","pricing_plan_id":"free"},{"bike_id":"9a71fa96-4f7e-4cfa-9c81-4c6d51dc2950","system_id":"levelo_inurba_marseille","lat":43.302008,"lon":5.394694,"is_reserved":false,"is_disabled":false,"rental_uris":{"android":"levelo://app?vid=9a71fa96-4f7e-4cfa-9c81-4c6d51dc2950","ios":"levelo://app?vid=9a71fa96-4f7e-4cfa-9c81-4c6d51dc2950"},"vehicle_type_id":"4","last_reported":1691312732,"current_range_meters":31200,"station_id":"ce4bh0p2rcd13ifvqd70","pricing_plan_id":"free"},{"bike_id":"d423ef12-3b23-48d0-92b7-a3bd5628ac91","system_id":"levelo_inurba_marseille","lat":43.302008,"lon":5.394694,"is_reserved":false,"is_disabled":false,"rental_uris":{"android":"levelo://app?vid=d423ef12-3b23-48d0-92b7-a3bd5628ac91","ios":"levelo://app?vid=d423ef12-3b23-48d0-92b7-a3bd5628ac91"},"vehicle_type_id":"4","last_reported":1691312732,"current_range_meters":31200,"station_id":"ce4bh0p2rcd13ifvqd70","pricing_plan_id":"free"},{"bike_id":"569296e0-d95f-4a79-9576-edd8762156fc","system_id":"levelo_inurba_marseille","lat":43.302008,"lon":5.394694,"is_reserved":false,"is_disabled":false,"rental_uris":{"android":"levelo://app?vid=569296e0-d95f-4a79-9576-edd8762156fc","ios":"levelo://app?vid=569296e0-d95f-4a79-9576-edd8762156fc"},"vehicle_type_id":"4","last_reported":1691312732,"current_range_meters":29200,"station_id":"ce4bh0p2rcd13ifvqd70","pricing_plan_id":"free"},{"bike_id":"9ed5c8cd-5716-467d-9a0b-e5002dcb5a2c","system_id":"levelo_inurba_marseille","lat":43.29115,"lon":5.35582,"is_reserved":false,"is_disabled":false,"rental_uris":{"android":"levelo://app?vid=9ed5c8cd-5716-467d-9a0b-e5002dcb5a2c","ios":"levelo://app?vid=9ed5c8cd-5716-467d-9a0b-e5002dcb5a2c"},"vehicle_type_id":"4","last_reported":1691312732,"current_range_meters":22000,"station_id":"ce4bhb92rcd13ifvqen0","pricing_plan_id":"free"},{"bike_id":"f772a6a0-16b4-418d-a7f5-fa516698365d","system_id":"levelo_inurba_marseille","lat":43.290631,"lon":5.359244,"is_reserved":false,"is_disabled":false,"rental_uris":{"android":"levelo://app?vid=f772a6a0-16b4-418d-a7f5-fa516698365d","ios":"levelo://app?vid=f772a6a0-16b4-418d-a7f5-fa516698365d"},"vehicle_type_id":"4","last_reported":1691312732,"current_range_meters":26400,"station_id":"ce4bha92rcd13ifvqeg0","pricing_plan_id":"free"},{"bike_id":"2a16bea7-7029-4a59-900d-4ebdd77d5243","system_id":"levelo_inurba_marseille","lat":43.294153,"lon":5.386305,"is_reserved":false,"is_disabled":false,"rental_uris":{"android":"levelo://app?vid=2a16bea7-7029-4a59-900d-4ebdd77d5243","ios":"levelo://app?vid=2a16bea7-7029-4a59-900d-4ebdd77d5243"},"vehicle_type_id":"4","last_reported":1691312732,"current_range_meters":4000,"station_id":"ce4bh2h2rcd13ifvqdh0","pricing_plan_id":"free"},{"bike_id":"923313f6-4b2c-470c-8d65-e578aa705a23","system_id":"levelo_inurba_marseille","lat":43.289184,"lon":5.366408,"is_reserved":false,"is_disabled":false,"rental_uris":{"android":"levelo://app?vid=923313f6-4b2c-470c-8d65-e578aa705a23","ios":"levelo://app?vid=923313f6-4b2c-470c-8d65-e578aa705a23"},"vehicle_type_id":"4","last_reported":1691312732,"current_range_meters":29600,"station_id":"ce4bhap2rcd13ifvqek0","pricing_plan_id":"free"},{"bike_id":"a239604f-cc42-4c05-a736-6384b6f3d721","system_id":"levelo_inurba_marseille","lat":43.289468,"lon":5.363719,"is_reserved":false,"is_disabled":false,"rental_uris":{"android":"levelo://app?vid=a239604f-cc42-4c05-a736-6384b6f3d721","ios":"levelo://app?vid=a239604f-cc42-4c05-a736-6384b6f3d721"},"vehicle_type_id":"4","last_reported":1691312732,"current_range_meters":6800,"station_id":"ce4bhc92rcd13ifvqetg","pricing_plan_id":"free"},{"bike_id":"b111e136-8942-4903-a7cf-a7bbc1c9cfc3","system_id":"levelo_inurba_marseille","lat":43.289468,"lon":5.363719,"is_reserved":false,"is_disabled":false,"rental_uris":{"android":"levelo://app?vid=b111e136-8942-4903-a7cf-a7bbc1c9cfc3","ios":"levelo://app?vid=b111e136-8942-4903-a7cf-a7bbc1c9cfc3"},"vehicle_type_id":"4","last_reported":1691312732,"current_range_meters":17200,"station_id":"ce4bhc92rcd13ifvqetg","pricing_plan_id":"free"},{"bike_id":"7eb9019d-e482-49f0-af38-7b0332ef5266","system_id":"levelo_inurba_marseille","lat":43.304296,"lon":5.397513,"is_reserved":false,"is_disabled":false,"rental_uris":{"android":"levelo://app?vid=7eb9019d-e482-49f0-af38-7b0332ef5266","ios":"levelo://app?vid=7eb9019d-e482-49f0-af38-7b0332ef5266"},"vehicle_type_id":"4","last_reported":1691312732,"current_range_meters":15200,"station_id":"ce4bh092rcd13ifvqd20","pricing_plan_id":"free"},{"bike_id":"5b0ed543-ed6c-4467-84d1-a28db28702b4","system_id":"levelo_inurba_marseille","lat":43.304296,"lon":5.397513,"is_reserved":false,"is_disabled":false,"rental_uris":{"android":"levelo://app?vid=5b0ed543-ed6c-4467-84d1-a28db28702b4","ios":"levelo://app?vid=5b0ed543-ed6c-4467-84d1-a28db28702b4"},"vehicle_type_id":"4","last_reported":1691312732,"current_range_meters":14800,"station_id":"ce4bh092rcd13ifvqd20","pricing_plan_id":"free"},{"bike_id":"2f2d42a2-8de0-405f-9429-d3eae654394c","system_id":"levelo_inurba_marseille","lat":43.33037,"lon":5.38914,"is_reserved":false,"is_disabled":false,"rental_uris":{"android":"levelo://app?vid=2f2d42a2-8de0-405f-9429-d3eae654394c","ios":"levelo://app?vid=2f2d42a2-8de0-405f-9429-d3eae654394c"},"vehicle_type_id":"4","last_reported":1691312732,"current_range_meters":12800,"station_id":"ce4bhr92rcd13ifvqhrg","pricing_plan_id":"free"},{"bike_id":"38c1adea-6867-4940-9699-a628b1958570","system_id":"levelo_inurba_marseille","lat":43.33038,"lon":5.38915,"is_reserved":false,"is_disabled":false,"rental_uris":{"android":"levelo://app?vid=38c1adea-6867-4940-9699-a628b1958570","ios":"levelo://app?vid=38c1adea-6867-4940-9699-a628b1958570"},"vehicle_type_id":"4","last_reported":1691312732,"current_range_meters":24400,"station_id":"ce4bhr92rcd13ifvqhrg","pricing_plan_id":"free"},{"bike_id":"aa4222fd-f0c2-4695-b97d-5f2ef476c423","system_id":"levelo_inurba_marseille","lat":43.33039,"lon":5.38915,"is_reserved":false,"is_disabled":false,"rental_uris":{"android":"levelo://app?vid=aa4222fd-f0c2-4695-b97d-5f2ef476c423","ios":"levelo://app?vid=aa4222fd-f0c2-4695-b97d-5f2ef476c423"},"vehicle_type_id":"4","last_reported":1691312732,"current_range_meters":30000,"station_id":"ce4bhr92rcd13ifvqhrg","pricing_plan_id":"free"},{"bike_id":"9ce62819-7d94-47c9-aff2-f56e39f0ba59","system_id":"levelo_inurba_marseille","lat":43.33039,"lon":5.38916,"is_reserved":false,"is_disabled":false,"rental_uris":{"android":"levelo://app?vid=9ce62819-7d94-47c9-aff2-f56e39f0ba59","ios":"levelo://app?vid=9ce62819-7d94-47c9-aff2-f56e39f0ba59"},"vehicle_type_id":"4","last_reported":1691312732,"current_range_meters":23600,"station_id":"ce4bhr92rcd13ifvqhrg","pricing_plan_id":"free"},{"bike_id":"20cf3f6d-acf4-4653-bf24-baa04253f77a","system_id":"levelo_inurba_marseille","lat":43.3304,"lon":5.38915,"is_reserved":false,"is_disabled":false,"rental_uris":{"android":"levelo://app?vid=20cf3f6d-acf4-4653-bf24-baa04253f77a","ios":"levelo://app?vid=20cf3f6d-acf4-4653-bf24-baa04253f77a"},"vehicle_type_id":"4","last_reported":1691312732,"current_range_meters":30000,"station_id":"ce4bhr92rcd13ifvqhrg","pricing_plan_id":"free"},{"bike_id":"a6bada1d-9bd5-4c5e-b66a-f1d8a9247bea","system_id":"levelo_inurba_marseille","lat":43.33041,"lon":5.38914,"is_reserved":false,"is_disabled":false,"rental_uris":{"android":"levelo://app?vid=a6bada1d-9bd5-4c5e-b66a-f1d8a9247bea","ios":"levelo://app?vid=a6bada1d-9bd5-4c5e-b66a-f1d8a9247bea"},"vehicle_type_id":"4","last_reported":1691312732,"current_range_meters":31200,"station_id":"ce4bhr92rcd13ifvqhrg","pricing_plan_id":"free"},{"bike_id":"8e4ab4c7-b2dc-4e74-b07d-1ff49a416721","system_id":"levelo_inurba_marseille","lat":43.29009,"lon":5.35618,"is_reserved":false,"is_disabled":false,"rental_uris":{"android":"levelo://app?vid=8e4ab4c7-b2dc-4e74-b07d-1ff49a416721","ios":"levelo://app?vid=8e4ab4c7-b2dc-4e74-b07d-1ff49a416721"},"vehicle_type_id":"4","last_reported":1691312732,"current_range_meters":31200,"station_id":"","pricing_plan_id":"free"},{"bike_id":"17d3a5cc-7192-4573-99c8-8b823ce005ff","system_id":"levelo_inurba_marseille","lat":43.3304,"lon":5.38919,"is_reserved":false,"is_disabled":false,"rental_uris":{"android":"levelo://app?vid=17d3a5cc-7192-4573-99c8-8b823ce005ff","ios":"levelo://app?vid=17d3a5cc-7192-4573-99c8-8b823ce005ff"},"vehicle_type_id":"4","last_reported":1691312732,"current_range_meters":31200,"station_id":"ce4bhr92rcd13ifvqhrg","pricing_plan_id":"free"},{"bike_id":"f67edc25-bcc7-41fb-8431-1add679b0933","system_id":"levelo_inurba_marseille","lat":43.33048,"lon":5.38908,"is_reserved":false,"is_disabled":false,"rental_uris":{"android":"levelo://app?vid=f67edc25-bcc7-41fb-8431-1add679b0933","ios":"levelo://app?vid=f67edc25-bcc7-41fb-8431-1add679b0933"},"vehicle_type_id":"4","last_reported":1691312732,"current_range_meters":12000,"station_id":"ce4bhr92rcd13ifvqhrg","pricing_plan_id":"free"},{"bike_id":"9cfb68fb-e653-4175-a543-0e9c1ea9f2bf","system_id":"levelo_inurba_marseille","lat":43.33039,"lon":5.38922,"is_reserved":false,"is_disabled":false,"rental_uris":{"android":"levelo://app?vid=9cfb68fb-e653-4175-a543-0e9c1ea9f2bf","ios":"levelo://app?vid=9cfb68fb-e653-4175-a543-0e9c1ea9f2bf"},"vehicle_type_id":"4","last_reported":1691312732,"current_range_meters":30400,"station_id":"ce4bhr92rcd13ifvqhrg","pricing_plan_id":"free"},{"bike_id":"0856f63e-1cff-478f-821e-b7ffab7f1302","system_id":"levelo_inurba_marseille","lat":43.33045,"lon":5.38917,"is_reserved":false,"is_disabled":false,"rental_uris":{"android":"levelo://app?vid=0856f63e-1cff-478f-821e-b7ffab7f1302","ios":"levelo://app?vid=0856f63e-1cff-478f-821e-b7ffab7f1302"},"vehicle_type_id":"4","last_reported":1691312732,"current_range_meters":20400,"station_id":"ce4bhr92rcd13ifvqhrg","pricing_plan_id":"free"},{"bike_id":"62a620e9-6381-443e-adfd-88c352a06ae8","system_id":"levelo_inurba_marseille","lat":43.290104,"lon":5.356111,"is_reserved":false,"is_disabled":false,"rental_uris":{"android":"levelo://app?vid=62a620e9-6381-443e-adfd-88c352a06ae8","ios":"levelo://app?vid=62a620e9-6381-443e-adfd-88c352a06ae8"},"vehicle_type_id":"4","last_reported":1691312732,"current_range_meters":25200,"station_id":"ce4bhb92rcd13ifvqen0","pricing_plan_id":"free"},{"bike_id":"0ad39b2d-5ea7-4993-88d6-88a772550ebb","system_id":"levelo_inurba_marseille","lat":43.33045,"lon":5.38918,"is_reserved":false,"is_disabled":false,"rental_uris":{"android":"levelo://app?vid=0ad39b2d-5ea7-4993-88d6-88a772550ebb","ios":"levelo://app?vid=0ad39b2d-5ea7-4993-88d6-88a772550ebb"},"vehicle_type_id":"4","last_reported":1691312732,"current_range_meters":13200,"station_id":"ce4bhr92rcd13ifvqhrg","pricing_plan_id":"free"},{"bike_id":"3021d629-4efc-4d46-b9ec-d1919aa94cb8","system_id":"levelo_inurba_marseille","lat":43.29003,"lon":5.35617,"is_reserved":false,"is_disabled":false,"rental_uris":{"android":"levelo://app?vid=3021d629-4efc-4d46-b9ec-d1919aa94cb8","ios":"levelo://app?vid=3021d629-4efc-4d46-b9ec-d1919aa94cb8"},"vehicle_type_id":"4","last_reported":1691312732,"current_range_meters":31200,"station_id":"ce4bhb92rcd13ifvqen0","pricing_plan_id":"free"},{"bike_id":"c59f30af-b7c9-4762-b544-56156d6a8a97","system_id":"levelo_inurba_marseille","lat":43.290104,"lon":5.356111,"is_reserved":false,"is_disabled":false,"rental_uris":{"android":"levelo://app?vid=c59f30af-b7c9-4762-b544-56156d6a8a97","ios":"levelo://app?vid=c59f30af-b7c9-4762-b544-56156d6a8a97"},"vehicle_type_id":"4","last_reported":1691312732,"current_range_meters":11200,"station_id":"ce4bhb92rcd13ifvqen0","pricing_plan_id":"free"},{"bike_id":"e6d47456-acf2-4aee-840a-792af1b27cc3","system_id":"levelo_inurba_marseille","lat":43.290103,"lon":5.356114,"is_reserved":false,"is_disabled":false,"rental_uris":{"android":"levelo://app?vid=e6d47456-acf2-4aee-840a-792af1b27cc3","ios":"levelo://app?vid=e6d47456-acf2-4aee-840a-792af1b27cc3"},"vehicle_type_id":"4","last_reported":1691312732,"current_range_meters":18000,"station_id":"ce4bhb92rcd13ifvqen0","pricing_plan_id":"free"},{"bike_id":"de69ae41-242d-442a-8cc7-f077154b27cb","system_id":"levelo_inurba_marseille","lat":43.290103,"lon":5.356114,"is_reserved":false,"is_disabled":false,"rental_uris":{"android":"levelo://app?vid=de69ae41-242d-442a-8cc7-f077154b27cb","ios":"levelo://app?vid=de69ae41-242d-442a-8cc7-f077154b27cb"},"vehicle_type_id":"4","last_reported":1691312732,"current_range_meters":31200,"station_id":"ce4bhb92rcd13ifvqen0","pricing_plan_id":"free"},{"bike_id":"eeacab57-2dee-4eeb-928f-9ece058d3c35","system_id":"levelo_inurba_marseille","lat":43.290103,"lon":5.356114,"is_reserved":false,"is_disabled":false,"rental_uris":{"android":"levelo://app?vid=eeacab57-2dee-4eeb-928f-9ece058d3c35","ios":"levelo://app?vid=eeacab57-2dee-4eeb-928f-9ece058d3c35"},"vehicle_type_id":"4","last_reported":1691312732,"current_range_meters":29600,"station_id":"ce4bhb92rcd13ifvqen0","pricing_plan_id":"free"},{"bike_id":"f18b4051-8145-4f33-aee1-6f539e29d721","system_id":"levelo_inurba_marseille","lat":43.28996,"lon":5.35623,"is_reserved":false,"is_disabled":false,"rental_uris":{"android":"levelo://app?vid=f18b4051-8145-4f33-aee1-6f539e29d721","ios":"levelo://app?vid=f18b4051-8145-4f33-aee1-6f539e29d721"},"vehicle_type_id":"4","last_reported":1691312732,"current_range_meters":26800,"station_id":"ce4bhb92rcd13ifvqen0","pricing_plan_id":"free"},{"bike_id":"c18f778a-412b-4e65-93bd-c84b43f31b06","system_id":"levelo_inurba_marseille","lat":43.28997,"lon":5.35607,"is_reserved":false,"is_disabled":false,"rental_uris":{"android":"levelo://app?vid=c18f778a-412b-4e65-93bd-c84b43f31b06","ios":"levelo://app?vid=c18f778a-412b-4e65-93bd-c84b43f31b06"},"vehicle_type_id":"4","last_reported":1691312732,"current_range_meters":28400,"station_id":"ce4bhb92rcd13ifvqen0","pricing_plan_id":"free"},{"bike_id":"a9671d69-2a62-4abb-9d98-78ee12b6b2d8","system_id":"levelo_inurba_marseille","lat":43.28998,"lon":5.35603,"is_reserved":false,"is_disabled":false,"rental_uris":{"android":"levelo://app?vid=a9671d69-2a62-4abb-9d98-78ee12b6b2d8","ios":"levelo://app?vid=a9671d69-2a62-4abb-9d98-78ee12b6b2d8"},"vehicle_type_id":"4","last_reported":1691312732,"current_range_meters":25600,"station_id":"","pricing_plan_id":"free"},{"bike_id":"05bf2cc0-c80b-4d3b-9303-5cea93148e89","system_id":"levelo_inurba_marseille","lat":43.290995,"lon":5.381361,"is_reserved":false,"is_disabled":false,"rental_uris":{"android":"levelo://app?vid=05bf2cc0-c80b-4d3b-9303-5cea93148e89","ios":"levelo://app?vid=05bf2cc0-c80b-4d3b-9303-5cea93148e89"},"vehicle_type_id":"4","last_reported":1691312732,"current_range_meters":31200,"station_id":"ce4bh512rcd13ifvqe2g","pricing_plan_id":"free"},{"bike_id":"953218fe-daf2-41af-907f-df3f2ac58d14","system_id":"levelo_inurba_marseille","lat":43.31274,"lon":5.40167,"is_reserved":false,"is_disabled":false,"rental_uris":{"android":"levelo://app?vid=953218fe-daf2-41af-907f-df3f2ac58d14","ios":"levelo://app?vid=953218fe-daf2-41af-907f-df3f2ac58d14"},"vehicle_type_id":"4","last_reported":1691312732,"current_range_meters":25600,"station_id":"ce4bh092rcd13ifvqd30","pricing_plan_id":"free"},{"bike_id":"b2fe0e94-62a8-41fd-a458-2756b18ea5a5","system_id":"levelo_inurba_marseille","lat":43.30936,"lon":5.40137,"is_reserved":false,"is_disabled":false,"rental_uris":{"android":"levelo://app?vid=b2fe0e94-62a8-41fd-a458-2756b18ea5a5","ios":"levelo://app?vid=b2fe0e94-62a8-41fd-a458-2756b18ea5a5"},"vehicle_type_id":"4","last_reported":1691312732,"current_range_meters":31200,"station_id":"ce4bgvp2rcd13ifvqct0","pricing_plan_id":"free"},{"bike_id":"51104f78-3d80-488e-8593-16c87e653c42","system_id":"levelo_inurba_marseille","lat":43.309371,"lon":5.401449,"is_reserved":false,"is_disabled":false,"rental_uris":{"android":"levelo://app?vid=51104f78-3d80-488e-8593-16c87e653c42","ios":"levelo://app?vid=51104f78-3d80-488e-8593-16c87e653c42"},"vehicle_type_id":"4","last_reported":1691312732,"current_range_meters":27600,"station_id":"ce4bgvp2rcd13ifvqct0","pricing_plan_id":"free"},{"bike_id":"59faea16-6e4b-4846-98d2-b1324adf1d76","system_id":"levelo_inurba_marseille","lat":43.3065,"lon":5.40062,"is_reserved":false,"is_disabled":false,"rental_uris":{"android":"levelo://app?vid=59faea16-6e4b-4846-98d2-b1324adf1d76","ios":"levelo://app?vid=59faea16-6e4b-4846-98d2-b1324adf1d76"},"vehicle_type_id":"4","last_reported":1691312732,"current_range_meters":31200,"station_id":"ce4bh112rcd13ifvqda0","pricing_plan_id":"free"},{"bike_id":"c7069878-3e01-42ac-a4c3-7b7a0eb893e7","system_id":"levelo_inurba_marseille","lat":43.30938,"lon":5.40143,"is_reserved":false,"is_disabled":false,"rental_uris":{"android":"levelo://app?vid=c7069878-3e01-42ac-a4c3-7b7a0eb893e7","ios":"levelo://app?vid=c7069878-3e01-42ac-a4c3-7b7a0eb893e7"},"vehicle_type_id":"4","last_reported":1691312732,"current_range_meters":31200,"station_id":"ce4bgvp2rcd13ifvqct0","pricing_plan_id":"free"},{"bike_id":"a3aecc07-28b1-4395-ad0a-347b148e25ef","system_id":"levelo_inurba_marseille","lat":43.30931,"lon":5.40147,"is_reserved":false,"is_disabled":false,"rental_uris":{"android":"levelo://app?vid=a3aecc07-28b1-4395-ad0a-347b148e25ef","ios":"levelo://app?vid=a3aecc07-28b1-4395-ad0a-347b148e25ef"},"vehicle_type_id":"4","last_reported":1691312732,"current_range_meters":31200,"station_id":"ce4bgvp2rcd13ifvqct0","pricing_plan_id":"free"},{"bike_id":"9c7d3d3e-2e03-438f-be41-bd2a25c3fb6d","system_id":"levelo_inurba_marseille","lat":43.309371,"lon":5.401449,"is_reserved":false,"is_disabled":false,"rental_uris":{"android":"levelo://app?vid=9c7d3d3e-2e03-438f-be41-bd2a25c3fb6d","ios":"levelo://app?vid=9c7d3d3e-2e03-438f-be41-bd2a25c3fb6d"},"vehicle_type_id":"4","last_reported":1691312732,"current_range_meters":0,"station_id":"ce4bgvp2rcd13ifvqct0","pricing_plan_id":"free"},{"bike_id":"ce995fb4-c872-42ed-b825-754290e055bc","system_id":"levelo_inurba_marseille","lat":43.30642,"lon":5.40083,"is_reserved":false,"is_disabled":false,"rental_uris":{"android":"levelo://app?vid=ce995fb4-c872-42ed-b825-754290e055bc","ios":"levelo://app?vid=ce995fb4-c872-42ed-b825-754290e055bc"},"vehicle_type_id":"4","last_reported":1691312732,"current_range_meters":25200,"station_id":"ce4bh112rcd13ifvqda0","pricing_plan_id":"free"},{"bike_id":"1788485e-1a33-4121-a5a6-93b261b27929","system_id":"levelo_inurba_marseille","lat":43.30658,"lon":5.40089,"is_reserved":false,"is_disabled":false,"rental_uris":{"android":"levelo://app?vid=1788485e-1a33-4121-a5a6-93b261b27929","ios":"levelo://app?vid=1788485e-1a33-4121-a5a6-93b261b27929"},"vehicle_type_id":"4","last_reported":1691312732,"current_range_meters":31200,"station_id":"ce4bh112rcd13ifvqda0","pricing_plan_id":"free"},{"bike_id":"60b33f9a-64e0-40dd-a2e6-49429b2c69d6","system_id":"levelo_inurba_marseille","lat":43.30643,"lon":5.4009,"is_reserved":false,"is_disabled":false,"rental_uris":{"android":"levelo://app?vid=60b33f9a-64e0-40dd-a2e6-49429b2c69d6","ios":"levelo://app?vid=60b33f9a-64e0-40dd-a2e6-49429b2c69d6"},"vehicle_type_id":"4","last_reported":1691312732,"current_range_meters":31200,"station_id":"ce4bh112rcd13ifvqda0","pricing_plan_id":"free"},{"bike_id":"33839deb-97bc-4dff-9158-c9f466361cec","system_id":"levelo_inurba_marseille","lat":43.306412,"lon":5.401035,"is_reserved":false,"is_disabled":false,"rental_uris":{"android":"levelo://app?vid=33839deb-97bc-4dff-9158-c9f466361cec","ios":"levelo://app?vid=33839deb-97bc-4dff-9158-c9f466361cec"},"vehicle_type_id":"4","last_reported":1691312732,"current_range_meters":24000,"station_id":"ce4bh112rcd13ifvqda0","pricing_plan_id":"free"},{"bike_id":"89ad3259-95a6-4dce-b561-4223f277fcb9","system_id":"levelo_inurba_marseille","lat":43.301117,"lon":5.398795,"is_reserved":false,"is_disabled":false,"rental_uris":{"android":"levelo://app?vid=89ad3259-95a6-4dce-b561-4223f277fcb9","ios":"levelo://app?vid=89ad3259-95a6-4dce-b561-4223f277fcb9"},"vehicle_type_id":"4","last_reported":1691312732,"current_range_meters":31200,"station_id":"ce4bh0h2rcd13ifvqd40","pricing_plan_id":"free"},{"bike_id":"31eb788d-9cc3-420b-a587-935337e6620a","system_id":"levelo_inurba_marseille","lat":43.301117,"lon":5.398795,"is_reserved":false,"is_disabled":false,"rental_uris":{"android":"levelo://app?vid=31eb788d-9cc3-420b-a587-935337e6620a","ios":"levelo://app?vid=31eb788d-9cc3-420b-a587-935337e6620a"},"vehicle_type_id":"4","last_reported":1691312732,"current_range_meters":29200,"station_id":"ce4bh0h2rcd13ifvqd40","pricing_plan_id":"free"},{"bike_id":"6456c8a9-5cfc-49f6-b6f0-d86d43c8f343","system_id":"levelo_inurba_marseille","lat":43.301117,"lon":5.398795,"is_reserved":false,"is_disabled":false,"rental_uris":{"android":"levelo://app?vid=6456c8a9-5cfc-49f6-b6f0-d86d43c8f343","ios":"levelo://app?vid=6456c8a9-5cfc-49f6-b6f0-d86d43c8f343"},"vehicle_type_id":"4","last_reported":1691312732,"current_range_meters":24400,"station_id":"ce4bh0h2rcd13ifvqd40","pricing_plan_id":"free"},{"bike_id":"d6d34a0a-d745-4638-a9b6-ff3d817da496","system_id":"levelo_inurba_marseille","lat":43.301117,"lon":5.398795,"is_reserved":false,"is_disabled":false,"rental_uris":{"android":"levelo://app?vid=d6d34a0a-d745-4638-a9b6-ff3d817da496","ios":"levelo://app?vid=d6d34a0a-d745-4638-a9b6-ff3d817da496"},"vehicle_type_id":"4","last_reported":1691312732,"current_range_meters":31200,"station_id":"ce4bh0h2rcd13ifvqd40","pricing_plan_id":"free"},{"bike_id":"7bc212ef-a667-4ac5-bd71-79d0bba51bff","system_id":"levelo_inurba_marseille","lat":43.286961,"lon":5.373785,"is_reserved":false,"is_disabled":false,"rental_uris":{"android":"levelo://app?vid=7bc212ef-a667-4ac5-bd71-79d0bba51bff","ios":"levelo://app?vid=7bc212ef-a667-4ac5-bd71-79d0bba51bff"},"vehicle_type_id":"4","last_reported":1691312732,"current_range_meters":19200,"station_id":"ce4bh3p2rcd13ifvqdq0","pricing_plan_id":"free"},{"bike_id":"75199276-b705-4ad7-b6a9-49aeaa84628a","system_id":"levelo_inurba_marseille","lat":43.286591,"lon":5.363346,"is_reserved":false,"is_disabled":false,"rental_uris":{"android":"levelo://app?vid=75199276-b705-4ad7-b6a9-49aeaa84628a","ios":"levelo://app?vid=75199276-b705-4ad7-b6a9-49aeaa84628a"},"vehicle_type_id":"4","last_reported":1691312732,"current_range_meters":31200,"station_id":"ce4bhah2rcd13ifvqej0","pricing_plan_id":"free"},{"bike_id":"7b9e2d57-7c2f-4652-8ec0-ee4d147afe24","system_id":"levelo_inurba_marseille","lat":43.302548,"lon":5.400568,"is_reserved":false,"is_disabled":false,"rental_uris":{"android":"levelo://app?vid=7b9e2d57-7c2f-4652-8ec0-ee4d147afe24","ios":"levelo://app?vid=7b9e2d57-7c2f-4652-8ec0-ee4d147afe24"},"vehicle_type_id":"4","last_reported":1691312732,"current_range_meters":7600,"station_id":"","pricing_plan_id":"free"},{"bike_id":"479e1fbf-5c9a-49eb-b3a1-f116c13a982b","system_id":"levelo_inurba_marseille","lat":43.290336,"lon":5.386425,"is_reserved":false,"is_disabled":false,"rental_uris":{"android":"levelo://app?vid=479e1fbf-5c9a-49eb-b3a1-f116c13a982b","ios":"levelo://app?vid=479e1fbf-5c9a-49eb-b3a1-f116c13a982b"},"vehicle_type_id":"4","last_reported":1691312732,"current_range_meters":29600,"station_id":"ce4bh4p2rcd13ifvqe0g","pricing_plan_id":"free"},{"bike_id":"fccd2445-3854-48f1-baf5-b5d2e48d3539","system_id":"levelo_inurba_marseille","lat":43.290336,"lon":5.386425,"is_reserved":false,"is_disabled":false,"rental_uris":{"android":"levelo://app?vid=fccd2445-3854-48f1-baf5-b5d2e48d3539","ios":"levelo://app?vid=fccd2445-3854-48f1-baf5-b5d2e48d3539"},"vehicle_type_id":"4","last_reported":1691312732,"current_range_meters":30000,"station_id":"ce4bh4p2rcd13ifvqe0g","pricing_plan_id":"free"},{"bike_id":"6871477e-5ab7-480b-a288-d469d4d5c7d1","system_id":"levelo_inurba_marseille","lat":43.302759,"lon":5.400793,"is_reserved":false,"is_disabled":false,"rental_uris":{"android":"levelo://app?vid=6871477e-5ab7-480b-a288-d469d4d5c7d1","ios":"levelo://app?vid=6871477e-5ab7-480b-a288-d469d4d5c7d1"},"vehicle_type_id":"4","last_reported":1691312732,"current_range_meters":31200,"station_id":"ce4bgvh2rcd13ifvqcs0","pricing_plan_id":"free"},{"bike_id":"cea4dd12-7fae-46c5-b522-020559cb49f4","system_id":"levelo_inurba_marseille","lat":43.31641,"lon":5.4043,"is_reserved":false,"is_disabled":false,"rental_uris":{"android":"levelo://app?vid=cea4dd12-7fae-46c5-b522-020559cb49f4","ios":"levelo://app?vid=cea4dd12-7fae-46c5-b522-020559cb49f4"},"vehicle_type_id":"4","last_reported":1691312732,"current_range_meters":10000,"station_id":"ce4bh012rcd13ifvqd00","pricing_plan_id":"free"},{"bike_id":"b6bff6cd-d3fd-430b-b5ed-f37b7ce47a82","system_id":"levelo_inurba_marseille","lat":43.316517,"lon":5.404375,"is_reserved":false,"is_disabled":false,"rental_uris":{"android":"levelo://app?vid=b6bff6cd-d3fd-430b-b5ed-f37b7ce47a82","ios":"levelo://app?vid=b6bff6cd-d3fd-430b-b5ed-f37b7ce47a82"},"vehicle_type_id":"4","last_reported":1691312732,"current_range_meters":30800,"station_id":"ce4bh012rcd13ifvqd00","pricing_plan_id":"free"},{"bike_id":"a051a954-23df-448a-ac89-91756d10610f","system_id":"levelo_inurba_marseille","lat":43.316517,"lon":5.404375,"is_reserved":false,"is_disabled":false,"rental_uris":{"android":"levelo://app?vid=a051a954-23df-448a-ac89-91756d10610f","ios":"levelo://app?vid=a051a954-23df-448a-ac89-91756d10610f"},"vehicle_type_id":"4","last_reported":1691312732,"current_range_meters":31200,"station_id":"ce4bh012rcd13ifvqd00","pricing_plan_id":"free"},{"bike_id":"2474596e-5cfb-4973-b069-2f6c7ac9766e","system_id":"levelo_inurba_marseille","lat":43.291994,"lon":5.392907,"is_reserved":false,"is_disabled":false,"rental_uris":{"android":"levelo://app?vid=2474596e-5cfb-4973-b069-2f6c7ac9766e","ios":"levelo://app?vid=2474596e-5cfb-4973-b069-2f6c7ac9766e"},"vehicle_type_id":"4","last_reported":1691312732,"current_range_meters":13200,"station_id":"ce4bh192rcd13ifvqdd0","pricing_plan_id":"free"},{"bike_id":"f13c1d68-c9ee-4cf0-b786-38eaf32a5152","system_id":"levelo_inurba_marseille","lat":43.291994,"lon":5.392907,"is_reserved":false,"is_disabled":false,"rental_uris":{"android":"levelo://app?vid=f13c1d68-c9ee-4cf0-b786-38eaf32a5152","ios":"levelo://app?vid=f13c1d68-c9ee-4cf0-b786-38eaf32a5152"},"vehicle_type_id":"4","last_reported":1691312732,"current_range_meters":31200,"station_id":"ce4bh192rcd13ifvqdd0","pricing_plan_id":"free"},{"bike_id":"e38507b1-c65f-412e-8c7d-3ae28dfcf60f","system_id":"levelo_inurba_marseille","lat":43.28464,"lon":5.35888,"is_reserved":false,"is_disabled":false,"rental_uris":{"android":"levelo://app?vid=e38507b1-c65f-412e-8c7d-3ae28dfcf60f","ios":"levelo://app?vid=e38507b1-c65f-412e-8c7d-3ae28dfcf60f"},"vehicle_type_id":"4","last_reported":1691312732,"current_range_meters":6400,"station_id":"ce4bhah2rcd13ifvqei0","pricing_plan_id":"free"},{"bike_id":"d7bbe8d8-a096-47c3-8f45-c668e648a13d","system_id":"levelo_inurba_marseille","lat":43.28461,"lon":5.35884,"is_reserved":false,"is_disabled":false,"rental_uris":{"android":"levelo://app?vid=d7bbe8d8-a096-47c3-8f45-c668e648a13d","ios":"levelo://app?vid=d7bbe8d8-a096-47c3-8f45-c668e648a13d"},"vehicle_type_id":"4","last_reported":1691312732,"current_range_meters":6800,"station_id":"ce4bhah2rcd13ifvqei0","pricing_plan_id":"free"},{"bike_id":"e948c2c6-e84d-4839-a971-b5a2a8ccbc59","system_id":"levelo_inurba_marseille","lat":43.28458,"lon":5.35892,"is_reserved":false,"is_disabled":false,"rental_uris":{"android":"levelo://app?vid=e948c2c6-e84d-4839-a971-b5a2a8ccbc59","ios":"levelo://app?vid=e948c2c6-e84d-4839-a971-b5a2a8ccbc59"},"vehicle_type_id":"4","last_reported":1691312732,"current_range_meters":4000,"station_id":"ce4bhah2rcd13ifvqei0","pricing_plan_id":"free"},{"bike_id":"6a7856ec-29c2-448c-bfa7-e8e68cc32669","system_id":"levelo_inurba_marseille","lat":43.28457,"lon":5.35894,"is_reserved":false,"is_disabled":false,"rental_uris":{"android":"levelo://app?vid=6a7856ec-29c2-448c-bfa7-e8e68cc32669","ios":"levelo://app?vid=6a7856ec-29c2-448c-bfa7-e8e68cc32669"},"vehicle_type_id":"4","last_reported":1691312732,"current_range_meters":14400,"station_id":"ce4bhah2rcd13ifvqei0","pricing_plan_id":"free"},{"bike_id":"7b78d55e-e99c-4fa7-968a-c672d6912f00","system_id":"levelo_inurba_marseille","lat":43.284534,"lon":5.358662,"is_reserved":false,"is_disabled":false,"rental_uris":{"android":"levelo://app?vid=7b78d55e-e99c-4fa7-968a-c672d6912f00","ios":"levelo://app?vid=7b78d55e-e99c-4fa7-968a-c672d6912f00"},"vehicle_type_id":"4","last_reported":1691312732,"current_range_meters":31200,"station_id":"ce4bhah2rcd13ifvqei0","pricing_plan_id":"free"},{"bike_id":"d2255df3-7d7b-42b4-af7a-b01fe2f9282f","system_id":"levelo_inurba_marseille","lat":43.294314,"lon":5.397498,"is_reserved":false,"is_disabled":false,"rental_uris":{"android":"levelo://app?vid=d2255df3-7d7b-42b4-af7a-b01fe2f9282f","ios":"levelo://app?vid=d2255df3-7d7b-42b4-af7a-b01fe2f9282f"},"vehicle_type_id":"4","last_reported":1691312732,"current_range_meters":30800,"station_id":"ce4bh3h2rcd13ifvqdo0","pricing_plan_id":"free"},{"bike_id":"8159a308-ea9a-403c-8fe7-3066222743c4","system_id":"levelo_inurba_marseille","lat":43.28617,"lon":5.35105,"is_reserved":false,"is_disabled":false,"rental_uris":{"android":"levelo://app?vid=8159a308-ea9a-403c-8fe7-3066222743c4","ios":"levelo://app?vid=8159a308-ea9a-403c-8fe7-3066222743c4"},"vehicle_type_id":"4","last_reported":1691312732,"current_range_meters":23600,"station_id":"ce4bhch2rcd13ifvqeug","pricing_plan_id":"free"},