{"last_updated":1727607974,"ttl":60,"version":"2.2","data":{"bikes":[{"bike_id":"84a29585-be20-4cce-acaa-942447e26927","system_id":"levelo_inurba_marseille","lat":43.24806,"lon":5.37452,"is_reserved":false,"is_disabled":false,"rental_uris":{"android":"levelo://app?vid=84a29585-be20-4cce-acaa-942447e26927","ios":"levelo://app?vid=84a29585-be20-4cce-acaa-942447e26927"},"vehicle_type_id":"4","last_reported":1727607975,"current_range_meters":17600,"station_id":"ce4bhgh2rcd13ifvqfb0","pricing_plan_id":"cebpf4jnsgd1na2vs0mg"},{"bike_id":"629dd003-5419-41e5-967e-25eaeb140f35","system_id":"levelo_inurba_marseille","lat":43.2997,"lon":5.41317,"is_reserved":false,"is_disabled":false,"rental_uris":{"android":"levelo://app?vid=629dd003-5419-41e5-967e-25eaeb140f35","ios":"levelo://app?vid=629dd003-5419-41e5-967e-25eaeb140f35"},"vehicle_type_id":"4","last_reported":1727607975,"current_range_meters":26800,"station_id":"ce4bhp12rcd13ifvqh9g","pricing_plan_id":"cebpf4jnsgd1na2vs0mg"},{"bike_id":"0661aa09-fb1d-4ff9-b386-aa4f61dacd5a","system_id":"levelo_inurba_marseille","lat":43.309762,"lon":5.375193,"is_reserved":false,"is_disabled":false,"rental_uris":{"android":"levelo://app?vid=0661aa09-fb1d-4ff9-b386-aa4f61dacd5a","ios":"levelo://app?vid=0661aa09-fb1d-4ff9-b386-aa4f61dacd5a"},"vehicle_type_id":"4","last_reported":1727607975,"current_range_meters":27200,"station_id":"ce4bgt92rcd13ifvqcg0","pricing_plan_id":"cebpf4jnsgd1na2vs0mg"},{"bike_id":"5a1deebc-5154-4bdf-ae54-0207ef82ad5f","system_id":"levelo_inurba_marseille","lat":43.29907,"lon":5.37471,"is_reserved":false,"is_disabled":false,"rental_uris":{"android":"levelo://app?vid=5a1deebc-5154-4bdf-ae54-0207ef82ad5f","ios":"levelo://app?vid=5a1deebc-5154-4bdf-ae54-0207ef82ad5f"},"vehicle_type_id":"4","last_reported":1727607975,"current_range_meters":28800,"station_id":"ce4bgjh2rcd13ifvqbg0","pricing_plan_id":"cebpf4jnsgd1na2vs0mg"},{"bike_id":"c2439c4a-876d-489b-bf5b-a60f9d94cb91","system_id":"levelo_inurba_marseille","lat":43.2619,"lon":5.37455,"is_reserved":false,"is_disabled":false,"rental_uris":{"android":"levelo://app?vid=c2439c4a-876d-489b-bf5b-a60f9d94cb91","ios":"levelo://app?vid=c2439c4a-876d-489b-bf5b-a60f9d94cb91"},"vehicle_type_id":"4","last_reported":1727607975,"current_range_meters":28400,"station_id":"ce4bhgp2rcd13ifvqfc0","pricing_plan_id":"cebpf4jnsgd1na2vs0mg"},{"bike_id":"d3c2fe0e-3f4e-4303-ae23-7f25f368fade","system_id":"levelo_inurba_marseille","lat":43.32367,"lon":5.38884,"is_reserved":false,"is_disabled":false,"rental_uris":{"android":"levelo://app?vid=d3c2fe0e-3f4e-4303-ae23-7f25f368fade","ios":"levelo://app?vid=d3c2fe0e-3f4e-4303-ae23-7f25f368fade"},"vehicle_type_id":"4","last_reported":1727607975,"current_range_meters":8000,"station_id":"ce4bhqp2rcd13ifvqhog","pricing_plan_id":"cebpf4jnsgd1na2vs0mg"},{"bike_id":"acf0da7d-e6b3-48a2-8905-5de8bc3b795a","system_id":"levelo_inurba_marseille","lat":43.319973,"lon":5.381467,"is_reserved":false,"is_disabled":false,"rental_uris":{"android":"levelo://app?vid=acf0da7d-e6b3-48a2-8905-5de8bc3b795a","ios":"levelo://app?vid=acf0da7d-e6b3-48a2-8905-5de8bc3b795a"},"vehicle_type_id":"4","last_reported":1727607975,"current_range_meters":9600,"station_id":"ce4bhr12rcd13ifvqhpg","pricing_plan_id":"cebpf4jnsgd1na2vs0mg"},{"bike_id":"0ea9e4c4-cc08-41d9-862d-a80f7d54740c","system_id":"levelo_inurba_marseille","lat":43.3229,"lon":5.3827,"is_reserved":false,"is_disabled":false,"rental_uris":{"android":"levelo://app?vid=0ea9e4c4-cc08-41d9-862d-a80f7d54740c","ios":"levelo://app?vid=0ea9e4c4-cc08-41d9-862d-a80f7d54740c"},"vehicle_type_id":"4","last_reported":1727607975,"current_range_meters":37600,"station_id":"ce4bhr12rcd13ifvqhqg","pricing_plan_id":"cebpf4jnsgd1na2vs0mg"},{"bike_id":"61d2ac86-dd9c-46d1-86f5-897af05c5375","system_id":"levelo_inurba_marseille","lat":43.30417,"lon":5.41283,"is_reserved":false,"is_disabled":false,"rental_uris":{"android":"levelo://app?vid=61d2ac86-dd9c-46d1-86f5-897af05c5375","ios":"levelo://app?vid=61d2ac86-dd9c-46d1-86f5-897af05c5375"},"vehicle_type_id":"4","last_reported":1727607975,"current_range_meters":30000,"station_id":"ce4bhop2rcd13ifvqh8g","pricing_plan_id":"cebpf4jnsgd1na2vs0mg"},{"bike_id":"a7f78ba6-f302-4191-9898-adba7098a8f9","system_id":"levelo_inurba_marseille","lat":43.25007,"lon":5.38927,"is_reserved":false,"is_disabled":false,"rental_uris":{"android":"levelo://app?vid=a7f78ba6-f302-4191-9898-adba7098a8f9","ios":"levelo://app?vid=a7f78ba6-f302-4191-9898-adba7098a8f9"},"vehicle_type_id":"4","last_reported":1727607975,"current_range_meters":12400,"station_id":"ce4bhgp2rcd13ifvqfd0","pricing_plan_id":"cebpf4jnsgd1na2vs0mg"},{"bike_id":"2d3249f7-ef4c-4fe0-ab5a-b79d1f9efe86","system_id":"levelo_inurba_marseille","lat":43.29189,"lon":5.35803,"is_reserved":false,"is_disabled":false,"rental_uris":{"android":"levelo://app?vid=2d3249f7-ef4c-4fe0-ab5a-b79d1f9efe86","ios":"levelo://app?vid=2d3249f7-ef4c-4fe0-ab5a-b79d1f9efe86"},"vehicle_type_id":"4","last_reported":1727607975,"current_range_meters":38000,"station_id":"ce4bhb12rcd13ifvqel0","pricing_plan_id":"cebpf4jnsgd1na2vs0mg"},{"bike_id":"30267a5c-36b3-47f8-be66-a3c926903716","system_id":"levelo_inurba_marseille","lat":43.27619,"lon":5.36118,"is_reserved":false,"is_disabled":false,"rental_uris":{"android":"levelo://app?vid=30267a5c-36b3-47f8-be66-a3c926903716","ios":"levelo://app?vid=30267a5c-36b3-47f8-be66-a3c926903716"},"vehicle_type_id":"4","last_reported":1727607975,"current_range_meters":40000,"station_id":"ce4bgj92rcd13ifvqbe0","pricing_plan_id":"cebpf4jnsgd1na2vs0mg"},{"bike_id":"e8f339a7-5e65-4275-8576-718fc09f5e43","system_id":"levelo_inurba_marseille","lat":43.27612,"lon":5.36114,"is_reserved":false,"is_disabled":false,"rental_uris":{"android":"levelo://app?vid=e8f339a7-5e65-4275-8576-718fc09f5e43","ios":"levelo://app?vid=e8f339a7-5e65-4275-8576-718fc09f5e43"},"vehicle_type_id":"4","last_reported":1727607975,"current_range_meters":38000,"station_id":"ce4bgj92rcd13ifvqbe0","pricing_plan_id":"cebpf4jnsgd1na2vs0mg"},{"bike_id":"d843e2e7-e3ed-4209-b66b-b3c4139c8028","system_id":"levelo_inurba_marseille","lat":43.29905,"lon":5.43678,"is_reserved":false,"is_disabled":false,"rental_uris":{"android":"levelo://app?vid=d843e2e7-e3ed-4209-b66b-b3c4139c8028","ios":"levelo://app?vid=d843e2e7-e3ed-4209-b66b-b3c4139c8028"},"vehicle_type_id":"4","last_reported":1727607975,"current_range_meters":39200,"station_id":"ce4bhpp2rcd13ifvqhfg","pricing_plan_id":"cebpf4jnsgd1na2vs0mg"},{"bike_id":"4351b103-3370-42e5-9e7b-43a6d21c6992","system_id":"levelo_inurba_marseille","lat":43.33024,"lon":5.39043,"is_reserved":false,"is_disabled":false,"rental_uris":{"android":"levelo://app?vid=4351b103-3370-42e5-9e7b-43a6d21c6992","ios":"levelo://app?vid=4351b103-3370-42e5-9e7b-43a6d21c6992"},"vehicle_type_id":"4","last_reported":1727607975,"current_range_meters":38800,"station_id":"ce4bhr92rcd13ifvqhrg","pricing_plan_id":"cebpf4jnsgd1na2vs0mg"},{"bike_id":"9b5f5642-2491-4749-8ae4-e6530ea426af","system_id":"levelo_inurba_marseille","lat":43.24386,"lon":5.37059,"is_reserved":false,"is_disabled":false,"rental_uris":{"android":"levelo://app?vid=9b5f5642-2491-4749-8ae4-e6530ea426af","ios":"levelo://app?vid=9b5f5642-2491-4749-8ae4-e6530ea426af"},"vehicle_type_id":"4","last_reported":1727607975,"current_range_meters":39200,"station_id":"ce4bhhh2rcd13ifvqfk0","pricing_plan_id":"cebpf4jnsgd1na2vs0mg"},{"bike_id":"5a9badbe-b08c-4c6b-8435-26afa7e1077e","system_id":"levelo_inurba_marseille","lat":43.2396,"lon":5.36631,"is_reserved":false,"is_disabled":false,"rental_uris":{"android":"levelo://app?vid=5a9badbe-b08c-4c6b-8435-26afa7e1077e","ios":"levelo://app?vid=5a9badbe-b08c-4c6b-8435-26afa7e1077e"},"vehicle_type_id":"4","last_reported":1727607975,"current_range_meters":23200,"station_id":"ce4bhi12rcd13ifvqfp0","pricing_plan_id":"cebpf4jnsgd1na2vs0mg"},{"bike_id":"9a47dcb1-61bb-411f-affb-55731480b4cc","system_id":"levelo_inurba_marseille","lat":43.2396,"lon":5.36628,"is_reserved":false,"is_disabled":false,"rental_uris":{"android":"levelo://app?vid=9a47dcb1-61bb-411f-affb-55731480b4cc","ios":"levelo://app?vid=9a47dcb1-61bb-411f-affb-55731480b4cc"},"vehicle_type_id":"4","last_reported":1727607975,"current_range_meters":37600,"station_id":"ce4bhi12rcd13ifvqfp0","pricing_plan_id":"cebpf4jnsgd1na2vs0mg"},{"bike_id":"c00eb5ce-fc6f-4c34-85cc-1ea0d4832d11","system_id":"levelo_inurba_marseille","lat":43.28946,"lon":5.36636,"is_reserved":false,"is_disabled":false,"rental_uris":{"android":"levelo://app?vid=c00eb5ce-fc6f-4c34-85cc-1ea0d4832d11","ios":"levelo://app?vid=c00eb5ce-fc6f-4c34-85cc-1ea0d4832d11"},"vehicle_type_id":"4","last_reported":1727607975,"current_range_meters":14000,"station_id":"ce4bhap2rcd13ifvqek0","pricing_plan_id":"cebpf4jnsgd1na2vs0mg"},{"bike_id":"6c497d99-8532-4f7f-8d5d-779ea355478d","system_id":"levelo_inurba_marseille","lat":43.26193,"lon":5.37449,"is_reserved":false,"is_disabled":false,"rental_uris":{"android":"levelo://app?vid=6c497d99-8532-4f7f-8d5d-779ea355478d","ios":"levelo://app?vid=6c497d99-8532-4f7f-8d5d-779ea355478d"},"vehicle_type_id":"4","last_reported":1727607975,"current_range_meters":10000,"station_id":"ce4bhgp2rcd13ifvqfc0","pricing_plan_id":"cebpf4jnsgd1na2vs0mg"},{"bike_id":"efb21e2e-5c82-417c-ab4e-ff8afd90868f","system_id":"levelo_inurba_marseille","lat":43.30797,"lon":5.43519,"is_reserved":false,"is_disabled":false,"rental_uris":{"android":"levelo://app?vid=efb21e2e-5c82-417c-ab4e-ff8afd90868f","ios":"levelo://app?vid=efb21e2e-5c82-417c-ab4e-ff8afd90868f"},"vehicle_type_id":"4","last_reported":1727607975,"current_range_meters":38800,"station_id":"ce4bhph2rcd13ifvqheg","pricing_plan_id":"cebpf4jnsgd1na2vs0mg"},{"bike_id":"1684a122-e9b9-43c7-8a5d-beeeede3f175","system_id":"levelo_inurba_marseille","lat":43.32055,"lon":5.4157,"is_reserved":false,"is_disabled":false,"rental_uris":{"android":"levelo://app?vid=1684a122-e9b9-43c7-8a5d-beeeede3f175","ios":"levelo://app?vid=1684a122-e9b9-43c7-8a5d-beeeede3f175"},"vehicle_type_id":"4","last_reported":1727607975,"current_range_meters":9600,"station_id":"ce4bhq92rcd13ifvqhkg","pricing_plan_id":"cebpf4jnsgd1na2vs0mg"},{"bike_id":"65b9b958-16f1-411c-a2c7-3c2353d4d07c","system_id":"levelo_inurba_marseille","lat":43.31763,"lon":5.39009,"is_reserved":false,"is_disabled":false,"rental_uris":{"android":"levelo://app?vid=65b9b958-16f1-411c-a2c7-3c2353d4d07c","ios":"levelo://app?vid=65b9b958-16f1-411c-a2c7-3c2353d4d07c"},"vehicle_type_id":"4","last_reported":1727607975,"current_range_meters":38800,"station_id":"ce4bhqp2rcd13ifvqhng","pricing_plan_id":"cebpf4jnsgd1na2vs0mg"},{"bike_id":"59f133c9-c0d7-4b8b-8777-63f0ec56c467","system_id":"levelo_inurba_marseille","lat":43.27613,"lon":5.36116,"is_reserved":false,"is_disabled":false,"rental_uris":{"android":"levelo://app?vid=59f133c9-c0d7-4b8b-8777-63f0ec56c467","ios":"levelo://app?vid=59f133c9-c0d7-4b8b-8777-63f0ec56c467"},"vehicle_type_id":"4","last_reported":1727607975,"current_range_meters":38800,"station_id":"ce4bgj92rcd13ifvqbe0","pricing_plan_id":"cebpf4jnsgd1na2vs0mg"},{"bike_id":"644ee41c-1e32-4b56-b578-5a1da3b3cb8b","system_id":"levelo_inurba_marseille","lat":43.30648,"lon":5.40084,"is_reserved":false,"is_disabled":false,"rental_uris":{"android":"levelo://app?vid=644ee41c-1e32-4b56-b578-5a1da3b3cb8b","ios":"levelo://app?vid=644ee41c-1e32-4b56-b578-5a1da3b3cb8b"},"vehicle_type_id":"4","last_reported":1727607975,"current_range_meters":16400,"station_id":"ce4bh112rcd13ifvqda0","pricing_plan_id":"cebpf4jnsgd1na2vs0mg"},{"bike_id":"4c9b421a-adfa-47ab-93b3-76c3ec2f0fa5","system_id":"levelo_inurba_marseille","lat":43.2694,"lon":5.38921,"is_reserved":false,"is_disabled":false,"rental_uris":{"android":"levelo://app?vid=4c9b421a-adfa-47ab-93b3-76c3ec2f0fa5","ios":"levelo://app?vid=4c9b421a-adfa-47ab-93b3-76c3ec2f0fa5"},"vehicle_type_id":"4","last_reported":1727607975,"current_range_meters":24400,"station_id":"ce4bhhh2rcd13ifvqfl0","pricing_plan_id":"cebpf4jnsgd1na2vs0mg"},{"bike_id":"0521cc37-3a0f-4bc8-964a-96f026706e98","system_id":"levelo_inurba_marseille","lat":43.2802,"lon":5.36096,"is_reserved":false,"is_disabled":false,"rental_uris":{"android":"levelo://app?vid=0521cc37-3a0f-4bc8-964a-96f026706e98","ios":"levelo://app?vid=0521cc37-3a0f-4bc8-964a-96f026706e98"},"vehicle_type_id":"4","last_reported":1727607975,"current_range_meters":24400,"station_id":"","pricing_plan_id":"cebpf4jnsgd1na2vs0mg"},{"bike_id":"16ec8307-385e-405a-9539-99931243da4a","system_id":"levelo_inurba_marseille","lat":43.2955,"lon":5.42282,"is_reserved":false,"is_disabled":false,"rental_uris":{"android":"levelo://app?vid=16ec8307-385e-405a-9539-99931243da4a","ios":"levelo://app?vid=16ec8307-385e-405a-9539-99931243da4a"},"vehicle_type_id":"4","last_reported":1727607975,"current_range_meters":38800,"station_id":"ce4bhph2rcd13ifvqhdg","pricing_plan_id":"cebpf4jnsgd1na2vs0mg"},{"bike_id":"4d09047e-455a-4de7-8a77-1363c0b80407","system_id":"levelo_inurba_marseille","lat":43.28606,"lon":5.3707,"is_reserved":false,"is_disabled":false,"rental_uris":{"android":"levelo://app?vid=4d09047e-455a-4de7-8a77-1363c0b80407","ios":"levelo://app?vid=4d09047e-455a-4de7-8a77-1363c0b80407"},"vehicle_type_id":"4","last_reported":1727607975,"current_range_meters":35200,"station_id":"ce4bht12rcd13ifvqi60","pricing_plan_id":"cebpf4jnsgd1na2vs0mg"},{"bike_id":"c529090c-5370-45e9-ba3f-f55585b5289b","system_id":"levelo_inurba_marseille","lat":43.25005,"lon":5.38924,"is_reserved":false,"is_disabled":false,"rental_uris":{"android":"levelo://app?vid=c529090c-5370-45e9-ba3f-f55585b5289b","ios":"levelo://app?vid=c529090c-5370-45e9-ba3f-f55585b5289b"},"vehicle_type_id":"4","last_reported":1727607975,"current_range_meters":27600,"station_id":"ce4bhgp2rcd13ifvqfd0","pricing_plan_id":"cebpf4jnsgd1na2vs0mg"},{"bike_id":"0490b898-1b74-4218-a165-96b00aca9a07","system_id":"levelo_inurba_marseille","lat":43.28413,"lon":5.34985,"is_reserved":false,"is_disabled":false,"rental_uris":{"android":"levelo://app?vid=0490b898-1b74-4218-a165-96b00aca9a07","ios":"levelo://app?vid=0490b898-1b74-4218-a165-96b00aca9a07"},"vehicle_type_id":"4","last_reported":1727607975,"current_range_meters":14800,"station_id":"ce4bhbh2rcd13ifvqepg","pricing_plan_id":"cebpf4jnsgd1na2vs0mg"},{"bike_id":"73b102c9-3443-4606-9a6f-e36d2c51c791","system_id":"levelo_inurba_marseille","lat":43.28267,"lon":5.35064,"is_reserved":false,"is_disabled":false,"rental_uris":{"android":"levelo://app?vid=73b102c9-3443-4606-9a6f-e36d2c51c791","ios":"levelo://app?vid=73b102c9-3443-4606-9a6f-e36d2c51c791"},"vehicle_type_id":"4","last_reported":1727607975,"current_range_meters":34800,"station_id":"ce4bhbp2rcd13ifvqerg","pricing_plan_id":"cebpf4jnsgd1na2vs0mg"},{"bike_id":"eabf7857-1538-4880-b29b-8a8addbf37e7","system_id":"levelo_inurba_marseille","lat":43.30638,"lon":5.40081,"is_reserved":false,"is_disabled":false,"rental_uris":{"android":"levelo://app?vid=eabf7857-1538-4880-b29b-8a8addbf37e7","ios":"levelo://app?vid=eabf7857-1538-4880-b29b-8a8addbf37e7"},"vehicle_type_id":"4","last_reported":1727607975,"current_range_meters":20000,"station_id":"ce4bh112rcd13ifvqda0","pricing_plan_id":"cebpf4jnsgd1na2vs0mg"},{"bike_id":"48082b38-e38c-49a5-b3e5-b6cb1ad1c1a3","system_id":"levelo_inurba_marseille","lat":43.23192,"lon":5.35544,"is_reserved":false,"is_disabled":false,"rental_uris":{"android":"levelo://app?vid=48082b38-e38c-49a5-b3e5-b6cb1ad1c1a3","ios":"levelo://app?vid=48082b38-e38c-49a5-b3e5-b6cb1ad1c1a3"},"vehicle_type_id":"4","last_reported":1727607975,"current_range_meters":30400,"station_id":"ce4bhu92rcd13ifvqi70","pricing_plan_id":"cebpf4jnsgd1na2vs0mg"},{"bike_id":"1ce7c25b-6bd2-4b64-b4ae-543ea784fc5d","system_id":"levelo_inurba_marseille","lat":43.337444,"lon":5.374475,"is_reserved":false,"is_disabled":false,"rental_uris":{"android":"levelo://app?vid=1ce7c25b-6bd2-4b64-b4ae-543ea784fc5d","ios":"levelo://app?vid=1ce7c25b-6bd2-4b64-b4ae-543ea784fc5d"},"vehicle_type_id":"4","last_reported":1727607975,"current_range_meters":32800,"station_id":"","pricing_plan_id":"cebpf4jnsgd1na2vs0mg"},{"bike_id":"a1c3dd20-86c0-4dad-a795-b2047bec3f5b","system_id":"levelo_inurba_marseille","lat":43.31756,"lon":5.39019,"is_reserved":false,"is_disabled":false,"rental_uris":{"android":"levelo://app?vid=a1c3dd20-86c0-4dad-a795-b2047bec3f5b","ios":"levelo://app?vid=a1c3dd20-86c0-4dad-a795-b2047bec3f5b"},"vehicle_type_id":"4","last_reported":1727607975,"current_range_meters":36800,"station_id":"ce4bhqp2rcd13ifvqhng","pricing_plan_id":"cebpf4jnsgd1na2vs0mg"},{"bike_id":"eeb4b54b-284a-4a51-af38-bfe005d55c3e","system_id":"levelo_inurba_marseille","lat":43.24812,"lon":5.37463,"is_reserved":false,"is_disabled":false,"rental_uris":{"android":"levelo://app?vid=eeb4b54b-284a-4a51-af38-bfe005d55c3e","ios":"levelo://app?vid=eeb4b54b-284a-4a51-af38-bfe005d55c3e"},"vehicle_type_id":"4","last_reported":1727607975,"current_range_meters":38800,"station_id":"ce4bhgh2rcd13ifvqfb0","pricing_plan_id":"cebpf4jnsgd1na2vs0mg"},{"bike_id":"0c6a3edd-0259-43fd-a8d1-3d4bb6023605","system_id":"levelo_inurba_marseille","lat":43.2439,"lon":5.37053,"is_reserved":false,"is_disabled":false,"rental_uris":{"android":"levelo://app?vid=0c6a3edd-0259-43fd-a8d1-3d4bb6023605","ios":"levelo://app?vid=0c6a3edd-0259-43fd-a8d1-3d4bb6023605"},"vehicle_type_id":"4","last_reported":1727607975,"current_range_meters":38800,"station_id":"ce4bhhh2rcd13ifvqfk0","pricing_plan_id":"cebpf4jnsgd1na2vs0mg"},{"bike_id":"c14f59f8-b185-4805-bedb-dfffc1b863b6","system_id":"levelo_inurba_marseille","lat":43.24996,"lon":5.38929,"is_reserved":false,"is_disabled":false,"rental_uris":{"android":"levelo://app?vid=c14f59f8-b185-4805-bedb-dfffc1b863b6","ios":"levelo://app?vid=c14f59f8-b185-4805-bedb-dfffc1b863b6"},"vehicle_type_id":"4","last_reported":1727607975,"current_range_meters":24400,"station_id":"ce4bhgp2rcd13ifvqfd0","pricing_plan_id":"cebpf4jnsgd1na2vs0mg"},{"bike_id":"f061cdd6-9791-4111-948e-b93209a03ad2","system_id":"levelo_inurba_marseille","lat":43.30353,"lon":5.4188,"is_reserved":false,"is_disabled":false,"rental_uris":{"android":"levelo://app?vid=f061cdd6-9791-4111-948e-b93209a03ad2","ios":"levelo://app?vid=f061cdd6-9791-4111-948e-b93209a03ad2"},"vehicle_type_id":"4","last_reported":1727607975,"current_range_meters":12400,"station_id":"ce4bhop2rcd13ifvqh7g","pricing_plan_id":"cebpf4jnsgd1na2vs0mg"},{"bike_id":"3bef9067-adb6-4329-8f91-5b89c86bbe2a","system_id":"levelo_inurba_marseille","lat":43.29485,"lon":5.40088,"is_reserved":false,"is_disabled":false,"rental_uris":{"android":"levelo://app?vid=3bef9067-adb6-4329-8f91-5b89c86bbe2a","ios":"levelo://app?vid=3bef9067-adb6-4329-8f91-5b89c86bbe2a"},"vehicle_type_id":"4","last_reported":1727607975,"current_range_meters":32000,"station_id":"","pricing_plan_id":"cebpf4jnsgd1na2vs0mg"},{"bike_id":"9a36c6e3-2013-4145-b91c-1db7840a7819","system_id":"levelo_inurba_marseille","lat":43.29975,"lon":5.37194,"is_reserved":false,"is_disabled":false,"rental_uris":{"android":"levelo://app?vid=9a36c6e3-2013-4145-b91c-1db7840a7819","ios":"levelo://app?vid=9a36c6e3-2013-4145-b91c-1db7840a7819"},"vehicle_type_id":"4","last_reported":1727607975,"current_range_meters":19200,"station_id":"ce4bgr92rcd13ifvqc7g","pricing_plan_id":"cebpf4jnsgd1na2vs0mg"},{"bike_id":"5eb748cc-ac30-44ad-8e83-1da7c5ae5ef7","system_id":"levelo_inurba_marseille","lat":43.25723,"lon":5.41108,"is_reserved":false,"is_disabled":false,"rental_uris":{"android":"levelo://app?vid=5eb748cc-ac30-44ad-8e83-1da7c5ae5ef7","ios":"levelo://app?vid=5eb748cc-ac30-44ad-8e83-1da7c5ae5ef7"},"vehicle_type_id":"4","last_reported":1727607975,"current_range_meters":6800,"station_id":"ce4bhkp2rcd13ifvqgd0","pricing_plan_id":"cebpf4jnsgd1na2vs0mg"},{"bike_id":"6a52f468-9bf5-46c2-819d-2c732c18128e","system_id":"levelo_inurba_marseille","lat":43.23959,"lon":5.36626,"is_reserved":false,"is_disabled":false,"rental_uris":{"android":"levelo://app?vid=6a52f468-9bf5-46c2-819d-2c732c18128e","ios":"levelo://app?vid=6a52f468-9bf5-46c2-819d-2c732c18128e"},"vehicle_type_id":"4","last_reported":1727607975,"current_range_meters":36400,"station_id":"ce4bhi12rcd13ifvqfp0","pricing_plan_id":"cebpf4jnsgd1na2vs0mg"},{"bike_id":"68f95a61-e701-4da5-a0c3-58758648f9c2","system_id":"levelo_inurba_marseille","lat":43.32482,"lon":5.36564,"is_reserved":false,"is_disabled":false,"rental_uris":{"android":"levelo://app?vid=68f95a61-e701-4da5-a0c3-58758648f9c2","ios":"levelo://app?vid=68f95a61-e701-4da5-a0c3-58758648f9c2"},"vehicle_type_id":"4","last_reported":1727607975,"current_range_meters":21600,"station_id":"ce4bhs12rcd13ifvqhvg","pricing_plan_id":"cebpf4jnsgd1na2vs0mg"},{"bike_id":"67b9eb05-c36e-4582-9b61-98d56d57348d","system_id":"levelo_inurba_marseille","lat":43.26059,"lon":5.394,"is_reserved":false,"is_disabled":false,"rental_uris":{"android":"levelo://app?vid=67b9eb05-c36e-4582-9b61-98d56d57348d","ios":"levelo://app?vid=67b9eb05-c36e-4582-9b61-98d56d57348d"},"vehicle_type_id":"4","last_reported":1727607975,"current_range_meters":38800,"station_id":"ce4bhh92rcd13ifvqfj0","pricing_plan_id":"cebpf4jnsgd1na2vs0mg"},{"bike_id":"0d8c20b1-a2e8-4e8b-b550-37b2370b38b1","system_id":"levelo_inurba_marseille","lat":43.30419,"lon":5.41289,"is_reserved":false,"is_disabled":false,"rental_uris":{"android":"levelo://app?vid=0d8c20b1-a2e8-4e8b-b550-37b2370b38b1","ios":"levelo://app?vid=0d8c20b1-a2e8-4e8b-b550-37b2370b38b1"},"vehicle_type_id":"4","last_reported":1727607975,"current_range_meters":25200,"station_id":"ce4bhop2rcd13ifvqh8g","pricing_plan_id":"cebpf4jnsgd1na2vs0mg"},{"bike_id":"2c597611-dddc-4eb9-9407-5a27b71156b3","system_id":"levelo_inurba_marseille","lat":43.2315,"lon":5.43718,"is_reserved":false,"is_disabled":false,"rental_uris":{"android":"levelo://app?vid=2c597611-dddc-4eb9-9407-5a27b71156b3","ios":"levelo://app?vid=2c597611-dddc-4eb9-9407-5a27b71156b3"},"vehicle_type_id":"4","last_reported":1727607975,"current_range_meters":38800,"station_id":"ce4bhmp2rcd13ifvqgog","pricing_plan_id":"cebpf4jnsgd1na2vs0mg"},{"bike_id":"5832bc9c-4ef1-4cfd-911a-7a5e0aaccfdd","system_id":"levelo_inurba_marseille","lat":43.30533,"lon":5.38436,"is_reserved":false,"is_disabled":false,"rental_uris":{"android":"levelo://app?vid=5832bc9c-4ef1-4cfd-911a-7a5e0aaccfdd","ios":"levelo://app?vid=5832bc9c-4ef1-4cfd-911a-7a5e0aaccfdd"},"vehicle_type_id":"4","last_reported":1727607975,"current_range_meters":37600,"station_id":"ce4bgg92rcd13ifvqb30","pricing_plan_id":"cebpf4jnsgd1na2vs0mg"},{"bike_id":"240b6ed0-de28-4b78-b2af-b6ff5eb271e9","system_id":"levelo_inurba_marseille","lat":43.23595,"lon":5.36624,"is_reserved":false,"is_disabled":false,"rental_uris":{"android":"levelo://app?vid=240b6ed0-de28-4b78-b2af-b6ff5eb271e9","ios":"levelo://app?vid=240b6ed0-de28-4b78-b2af-b6ff5eb271e9"},"vehicle_type_id":"4","last_reported":1727607975,"current_range_meters":30800,"station_id":"","pricing_plan_id":"cebpf4jnsgd1na2vs0mg"},{"bike_id":"9cab4b77-e73b-485b-9196-05681379298d","system_id":"levelo_inurba_marseille","lat":43.322895,"lon":5.3827,"is_reserved":false,"is_disabled":false,"rental_uris":{"android":"levelo://app?vid=9cab4b77-e73b-485b-9196-05681379298d","ios":"levelo://app?vid=9cab4b77-e73b-485b-9196-05681379298d"},"vehicle_type_id":"4","last_reported":1727607975,"current_range_meters":37600,"station_id":"ce4bhr12rcd13ifvqhqg","pricing_plan_id":"cebpf4jnsgd1na2vs0mg"},{"bike_id":"ec79265c-889d-4330-a005-d8fba96f8dca","system_id":"levelo_inurba_marseille","lat":43.25936,"lon":5.40899,"is_reserved":false,"is_disabled":false,"rental_uris":{"android":"levelo://app?vid=ec79265c-889d-4330-a005-d8fba96f8dca","ios":"levelo://app?vid=ec79265c-889d-4330-a005-d8fba96f8dca"},"vehicle_type_id":"4","last_reported":1727607975,"current_range_meters":35600,"station_id":"ce4bhm92rcd13ifvqglg","pricing_plan_id":"cebpf4jnsgd1na2vs0mg"},{"bike_id":"8052f078-4e20-41b6-b408-0331d8013a67","system_id":"levelo_inurba_marseille","lat":43.23959,"lon":5.36625,"is_reserved":false,"is_disabled":false,"rental_uris":{"android":"levelo://app?vid=8052f078-4e20-41b6-b408-0331d8013a67","ios":"levelo://app?vid=8052f078-4e20-41b6-b408-0331d8013a67"},"vehicle_type_id":"4","last_reported":1727607975,"current_range_meters":19600,"station_id":"ce4bhi12rcd13ifvqfp0","pricing_plan_id":"cebpf4jnsgd1na2vs0mg"},{"bike_id":"7884623b-3b8d-4be9-b413-357465c619ca","system_id":"levelo_inurba_marseille","lat":43.30147,"lon":5.39852,"is_reserved":false,"is_disabled":false,"rental_uris":{"android":"levelo://app?vid=7884623b-3b8d-4be9-b413-357465c619ca","ios":"levelo://app?vid=7884623b-3b8d-4be9-b413-357465c619ca"},"vehicle_type_id":"4","last_reported":1727607975,"current_range_meters":21600,"station_id":"ce4bh0h2rcd13ifvqd40","pricing_plan_id":"cebpf4jnsgd1na2vs0mg"},{"bike_id":"6620a30a-5732-452d-b84a-ee064066c79c","system_id":"levelo_inurba_marseille","lat":43.26208,"lon":5.37443,"is_reserved":false,"is_disabled":false,"rental_uris":{"android":"levelo://app?vid=6620a30a-5732-452d-b84a-ee064066c79c","ios":"levelo://app?vid=6620a30a-5732-452d-b84a-ee064066c79c"},"vehicle_type_id":"4","last_reported":1727607975,"current_range_meters":20000,"station_id":"ce4bhgp2rcd13ifvqfc0","pricing_plan_id":"cebpf4jnsgd1na2vs0mg"},{"bike_id":"633a32d6-f9a8-467f-8be6-998003b0bcf0","system_id":"levelo_inurba_marseille","lat":43.26191,"lon":5.37448,"is_reserved":false,"is_disabled":false,"rental_uris":{"android":"levelo://app?vid=633a32d6-f9a8-467f-8be6-998003b0bcf0","ios":"levelo://app?vid=633a32d6-f9a8-467f-8be6-998003b0bcf0"},"vehicle_type_id":"4","last_reported":1727607975,"current_range_meters":28000,"station_id":"ce4bhgp2rcd13ifvqfc0","pricing_plan_id":"cebpf4jnsgd1na2vs0mg"},{"bike_id":"d38269a6-f2f2-4db5-ab83-c75f736df238","system_id":"levelo_inurba_marseille","lat":43.31715,"lon":5.37753,"is_reserved":false,"is_disabled":false,"rental_uris":{"android":"levelo://app?vid=d38269a6-f2f2-4db5-ab83-c75f736df238","ios":"levelo://app?vid=d38269a6-f2f2-4db5-ab83-c75f736df238"},"vehicle_type_id":"4","last_reported":1727607975,"current_range_meters":28800,"station_id":"ce4bgth2rcd13ifvqch0","pricing_plan_id":"cebpf4jnsgd1na2vs0mg"},{"bike_id":"883dbd06-c2fc-4488-9b5e-ef4f05339f9b","system_id":"levelo_inurba_marseille","lat":43.30208,"lon":5.36618,"is_reserved":false,"is_disabled":false,"rental_uris":{"android":"levelo://app?vid=883dbd06-c2fc-4488-9b5e-ef4f05339f9b","ios":"levelo://app?vid=883dbd06-c2fc-4488-9b5e-ef4f05339f9b"},"vehicle_type_id":"4","last_reported":1727607975,"current_range_meters":30000,"station_id":"ce4bgrh2rcd13ifvqc8g","pricing_plan_id":"cebpf4jnsgd1na2vs0mg"},{"bike_id":"e29042fa-5ea1-44f8-ac61-373c2039fb6b","system_id":"levelo_inurba_marseille","lat":43.23967,"lon":5.3663,"is_reserved":false,"is_disabled":false,"rental_uris":{"android":"levelo://app?vid=e29042fa-5ea1-44f8-ac61-373c2039fb6b","ios":"levelo://app?vid=e29042fa-5ea1-44f8-ac61-373c2039fb6b"},"vehicle_type_id":"4","last_reported":1727607975,"current_range_meters":18000,"station_id":"ce4bhi12rcd13ifvqfp0","pricing_plan_id":"cebpf4jnsgd1na2vs0mg"},{"bike_id":"7140e453-f332-495d-81d8-84ebfd05d324","system_id":"levelo_inurba_marseille","lat":43.25577,"lon":5.38246,"is_reserved":false,"is_disabled":false,"rental_uris":{"android":"levelo://app?vid=7140e453-f332-495d-81d8-84ebfd05d324","ios":"levelo://app?vid=7140e453-f332-495d-81d8-84ebfd05d324"},"vehicle_type_id":"4","last_reported":1727607975,"current_range_meters":39200,"station_id":"ce4bhih2rcd13ifvqfs0","pricing_plan_id":"cebpf4jnsgd1na2vs0mg"},{"bike_id":"cf2a99f0-171d-46e2-b5f9-b8e518581e33","system_id":"levelo_inurba_marseille","lat":43.23958,"lon":5.36639,"is_reserved":false,"is_disabled":false,"rental_uris":{"android":"levelo://app?vid=cf2a99f0-171d-46e2-b5f9-b8e518581e33","ios":"levelo://app?vid=cf2a99f0-171d-46e2-b5f9-b8e518581e33"},"vehicle_type_id":"4","last_reported":1727607975,"current_range_meters":33200,"station_id":"ce4bhi12rcd13ifvqfp0","pricing_plan_id":"cebpf4jnsgd1na2vs0mg"},{"bike_id":"5566361a-b347-4042-87d5-b7f85faf3918","system_id":"levelo_inurba_marseille","lat":43.27841,"lon":5.38488,"is_reserved":false,"is_disabled":false,"rental_uris":{"android":"levelo://app?vid=5566361a-b347-4042-87d5-b7f85faf3918","ios":"levelo://app?vid=5566361a-b347-4042-87d5-b7f85faf3918"},"vehicle_type_id":"4","last_reported":1727607975,"current_range_meters":7200,"station_id":"","pricing_plan_id":"cebpf4jnsgd1na2vs0mg"},{"bike_id":"a1585792-a705-409d-93a4-c31da8100088","system_id":"levelo_inurba_marseille","lat":43.23188,"lon":5.35556,"is_reserved":false,"is_disabled":false,"rental_uris":{"android":"levelo://app?vid=a1585792-a705-409d-93a4-c31da8100088","ios":"levelo://app?vid=a1585792-a705-409d-93a4-c31da8100088"},"vehicle_type_id":"4","last_reported":1727607975,"current_range_meters":10800,"station_id":"ce4bhu92rcd13ifvqi70","pricing_plan_id":"cebpf4jnsgd1na2vs0mg"},{"bike_id":"b8e2d9f3-2bfa-4db2-9db3-10638d12c8e0","system_id":"levelo_inurba_marseille","lat":43.27376,"lon":5.3625,"is_reserved":false,"is_disabled":false,"rental_uris":{"android":"levelo://app?vid=b8e2d9f3-2bfa-4db2-9db3-10638d12c8e0","ios":"levelo://app?vid=b8e2d9f3-2bfa-4db2-9db3-10638d12c8e0"},"vehicle_type_id":"4","last_reported":1727607975,"current_range_meters":38000,"station_id":"ce4bhbh2rcd13ifvqeo0","pricing_plan_id":"cebpf4jnsgd1na2vs0mg"},{"bike_id":"fdb61897-97d0-4689-adc4-02e79ee31d57","system_id":"levelo_inurba_marseille","lat":43.23957,"lon":5.36629,"is_reserved":false,"is_disabled":false,"rental_uris":{"android":"levelo://app?vid=fdb61897-97d0-4689-adc4-02e79ee31d57","ios":"levelo://app?vid=fdb61897-97d0-4689-adc4-02e79ee31d57"},"vehicle_type_id":"4","last_reported":1727607975,"current_range_meters":36800,"station_id":"ce4bhi12rcd13ifvqfp0","pricing_plan_id":"cebpf4jnsgd1na2vs0mg"},{"bike_id":"52f17877-110a-422d-89ae-fdeda162e6f3","system_id":"levelo_inurba_marseille","lat":43.23956,"lon":5.36635,"is_reserved":false,"is_disabled":false,"rental_uris":{"android":"levelo://app?vid=52f17877-110a-422d-89ae-fdeda162e6f3","ios":"levelo://app?vid=52f17877-110a-422d-89ae-fdeda162e6f3"},"vehicle_type_id":"4","last_reported":1727607975,"current_range_meters":8000,"station_id":"ce4bhi12rcd13ifvqfp0","pricing_plan_id":"cebpf4jnsgd1na2vs0mg"},{"bike_id":"635ca334-d837-4c80-9808-1fbb2c1a23ce","system_id":"levelo_inurba_marseille","lat":43.24389,"lon":5.37051,"is_reserved":false,"is_disabled":false,"rental_uris":{"android":"levelo://app?vid=635ca334-d837-4c80-9808-1fbb2c1a23ce","ios":"levelo://app?vid=635ca334-d837-4c80-9808-1fbb2c1a23ce"},"vehicle_type_id":"4","last_reported":1727607975,"current_range_meters":38800,"station_id":"ce4bhhh2rcd13ifvqfk0","pricing_plan_id":"cebpf4jnsgd1na2vs0mg"},{"bike_id":"61bfd186-0f27-4fc9-b2b6-ffff2e6b74f7","system_id":"levelo_inurba_marseille","lat":43.27374,"lon":5.36267,"is_reserved":false,"is_disabled":false,"rental_uris":{"android":"levelo://app?vid=61bfd186-0f27-4fc9-b2b6-ffff2e6b74f7","ios":"levelo://app?vid=61bfd186-0f27-4fc9-b2b6-ffff2e6b74f7"},"vehicle_type_id":"4","last_reported":1727607975,"current_range_meters":38400,"station_id":"ce4bhbh2rcd13ifvqeo0","pricing_plan_id":"cebpf4jnsgd1na2vs0mg"},{"bike_id":"ff3b23e1-df21-4954-8859-4e4bd0c9122a","system_id":"levelo_inurba_marseille","lat":43.275848,"lon":5.389141,"is_reserved":false,"is_disabled":false,"rental_uris":{"android":"levelo://app?vid=ff3b23e1-df21-4954-8859-4e4bd0c9122a","ios":"levelo://app?vid=ff3b23e1-df21-4954-8859-4e4bd0c9122a"},"vehicle_type_id":"4","last_reported":1727607975,"current_range_meters":23200,"station_id":"","pricing_plan_id":"cebpf4jnsgd1na2vs0mg"},{"bike_id":"8706dbad-74a1-4401-bd4a-b4ae01455ac4","system_id":"levelo_inurba_marseille","lat":43.27617,"lon":5.36119,"is_reserved":false,"is_disabled":false,"rental_uris":{"android":"levelo://app?vid=8706dbad-74a1-4401-bd4a-b4ae01455ac4","ios":"levelo://app?vid=8706dbad-74a1-4401-bd4a-b4ae01455ac4"},"vehicle_type_id":"4","last_reported":1727607975,"current_range_meters":14400,"station_id":"ce4bgj92rcd13ifvqbe0","pricing_plan_id":"cebpf4jnsgd1na2vs0mg"},{"bike_id":"87338c1f-f69b-4a70-b906-14af9e9c148a","system_id":"levelo_inurba_marseille","lat":43.32547,"lon":5.41436,"is_reserved":false,"is_disabled":false,"rental_uris":{"android":"levelo://app?vid=87338c1f-f69b-4a70-b906-14af9e9c148a","ios":"levelo://app?vid=87338c1f-f69b-4a70-b906-14af9e9c148a"},"vehicle_type_id":"4","last_reported":1727607975,"current_range_meters":38800,"station_id":"ce4bhq12rcd13ifvqhhg","pricing_plan_id":"cebpf4jnsgd1na2vs0mg"},{"bike_id":"cc010478-1a20-428d-90be-e96cbd47a9fd","system_id":"levelo_inurba_marseille","lat":43.32476,"lon":5.36574,"is_reserved":false,"is_disabled":false,"rental_uris":{"android":"levelo://app?vid=cc010478-1a20-428d-90be-e96cbd47a9fd","ios":"levelo://app?vid=cc010478-1a20-428d-90be-e96cbd47a9fd"},"vehicle_type_id":"4","last_reported":1727607975,"current_range_meters":32400,"station_id":"ce4bhs12rcd13ifvqhvg","pricing_plan_id":"cebpf4jnsgd1na2vs0mg"},{"bike_id":"9e0e602a-711e-4e75-a4b3-f0d70db8f823","system_id":"levelo_inurba_marseille","lat":43.23958,"lon":5.36632,"is_reserved":false,"is_disabled":false,"rental_uris":{"android":"levelo://app?vid=9e0e602a-711e-4e75-a4b3-f0d70db8f823","ios":"levelo://app?vid=9e0e602a-711e-4e75-a4b3-f0d70db8f823"},"vehicle_type_id":"4","last_reported":1727607975,"current_range_meters":15200,"station_id":"ce4bhi12rcd13ifvqfp0","pricing_plan_id":"cebpf4jnsgd1na2vs0mg"},{"bike_id":"58b58b43-76ff-4884-be8c-4b2b181e1260","system_id":"levelo_inurba_marseille","lat":43.30147,"lon":5.39851,"is_reserved":false,"is_disabled":false,"rental_uris":{"android":"levelo://app?vid=58b58b43-76ff-4884-be8c-4b2b181e1260","ios":"levelo://app?vid=58b58b43-76ff-4884-be8c-4b2b181e1260"},"vehicle_type_id":"4","last_reported":1727607975,"current_range_meters":37600,"station_id":"ce4bh0h2rcd13ifvqd40","pricing_plan_id":"cebpf4jnsgd1na2vs0mg"},{"bike_id":"e15fc624-10d4-48c6-8836-d53a871a2c45","system_id":"levelo_inurba_marseille","lat":43.28149,"lon":5.42642,"is_reserved":false,"is_disabled":false,"rental_uris":{"android":"levelo://app?vid=e15fc624-10d4-48c6-8836-d53a871a2c45","ios":"levelo://app?vid=e15fc624-10d4-48c6-8836-d53a871a2c45"},"vehicle_type_id":"4","last_reported":1727607975,"current_range_meters":38400,"station_id":"ce4bhnh2rcd13ifvqgug","pricing_plan_id":"cebpf4jnsgd1na2vs0mg"},{"bike_id":"87ded1f5-2e7e-41de-8934-5d83c38d3488","system_id":"levelo_inurba_marseille","lat":43.29892,"lon":5.43668,"is_reserved":false,"is_disabled":false,"rental_uris":{"android":"levelo://app?vid=87ded1f5-2e7e-41de-8934-5d83c38d3488","ios":"levelo://app?vid=87ded1f5-2e7e-41de-8934-5d83c38d3488"},"vehicle_type_id":"4","last_reported":1727607975,"current_range_meters":39200,"station_id":"ce4bhpp2rcd13ifvqhfg","pricing_plan_id":"cebpf4jnsgd1na2vs0mg"},{"bike_id":"fd96d6c3-9a66-4c28-be27-8379d933dce2","system_id":"levelo_inurba_marseille","lat":43.26197,"lon":5.37447,"is_reserved":false,"is_disabled":false,"rental_uris":{"android":"levelo://app?vid=fd96d6c3-9a66-4c28-be27-8379d933dce2","ios":"levelo://app?vid=fd96d6c3-9a66-4c28-be27-8379d933dce2"},"vehicle_type_id":"4","last_reported":1727607975,"current_range_meters":21600,"station_id":"ce4bhgp2rcd13ifvqfc0","pricing_plan_id":"cebpf4jnsgd1na2vs0mg"},{"bike_id":"4b66f5f2-c486-47ac-bf11-139e5b2e7872","system_id":"levelo_inurba_marseille","lat":43.31085,"lon":5.42431,"is_reserved":false,"is_disabled":false,"rental_uris":{"android":"levelo://app?vid=4b66f5f2-c486-47ac-bf11-139e5b2e7872","ios":"levelo://app?vid=4b66f5f2-c486-47ac-bf11-139e5b2e7872"},"vehicle_type_id":"4","last_reported":1727607975,"current_range_meters":38800,"station_id":"ce4bhp92rcd13ifvqhag","pricing_plan_id":"cebpf4jnsgd1na2vs0mg"},{"bike_id":"286a38be-9a17-42ac-b216-07a9e5a83131","system_id":"levelo_inurba_marseille","lat":43.23188,"lon":5.35546,"is_reserved":false,"is_disabled":false,"rental_uris":{"android":"levelo://app?vid=286a38be-9a17-42ac-b216-07a9e5a83131","ios":"levelo://app?vid=286a38be-9a17-42ac-b216-07a9e5a83131"},"vehicle_type_id":"4","last_reported":1727607975,"current_range_meters":18000,"station_id":"ce4bhu92rcd13ifvqi70","pricing_plan_id":"cebpf4jnsgd1na2vs0mg"},{"bike_id":"9116828f-d560-4357-84f5-0b8af952d459","system_id":"levelo_inurba_marseille","lat":43.23194,"lon":5.35556,"is_reserved":false,"is_disabled":false,"rental_uris":{"android":"levelo://app?vid=9116828f-d560-4357-84f5-0b8af952d459","ios":"levelo://app?vid=9116828f-d560-4357-84f5-0b8af952d459"},"vehicle_type_id":"4","last_reported":1727607975,"current_range_meters":22800,"station_id":"ce4bhu92rcd13ifvqi70","pricing_plan_id":"cebpf4jnsgd1na2vs0mg"},{"bike_id":"801dee94-6df9-4ac7-b8ff-19b18de3acb6","system_id":"levelo_inurba_marseille","lat":43.31999,"lon":5.38149,"is_reserved":false,"is_disabled":false,"rental_uris":{"android":"levelo://app?vid=801dee94-6df9-4ac7-b8ff-19b18de3acb6","ios":"levelo://app?vid=801dee94-6df9-4ac7-b8ff-19b18de3acb6"},"vehicle_type_id":"4","last_reported":1727607975,"current_range_meters":22800,"station_id":"ce4bhr12rcd13ifvqhpg","pricing_plan_id":"cebpf4jnsgd1na2vs0mg"},{"bike_id":"07ab11cd-dbaf-44b3-96fc-9f1de1d31415","system_id":"levelo_inurba_marseille","lat":43.2319,"lon":5.35547,"is_reserved":false,"is_disabled":false,"rental_uris":{"android":"levelo://app?vid=07ab11cd-dbaf-44b3-96fc-9f1de1d31415","ios":"levelo://app?vid=07ab11cd-dbaf-44b3-96fc-9f1de1d31415"},"vehicle_type_id":"4","last_reported":1727607975,"current_range_meters":24800,"station_id":"ce4bhu92rcd13ifvqi70","pricing_plan_id":"cebpf4jnsgd1na2vs0mg"},{"bike_id":"83d5ca91-58e7-437b-afcb-0ff7994505f3","system_id":"levelo_inurba_marseille","lat":43.27072,"lon":5.42277,"is_reserved":false,"is_disabled":false,"rental_uris":{"android":"levelo://app?vid=83d5ca91-58e7-437b-afcb-0ff7994505f3","ios":"levelo://app?vid=83d5ca91-58e7-437b-afcb-0ff7994505f3"},"vehicle_type_id":"4","last_reported":1727607975,"current_range_meters":26800,"station_id":"ce4bhk92rcd13ifvqgb0","pricing_plan_id":"cebpf4jnsgd1na2vs0mg"},{"bike_id":"408d9401-5194-45b1-948e-a2c15040c41f","system_id":"levelo_inurba_marseille","lat":43.23198,"lon":5.35547,"is_reserved":false,"is_disabled":false,"rental_uris":{"android":"levelo://app?vid=408d9401-5194-45b1-948e-a2c15040c41f","ios":"levelo://app?vid=408d9401-5194-45b1-948e-a2c15040c41f"},"vehicle_type_id":"4","last_reported":1727607975,"current_range_meters":17200,"station_id":"ce4bhu92rcd13ifvqi70","pricing_plan_id":"cebpf4jnsgd1na2vs0mg"},{"bike_id":"258e025d-f605-4338-84a0-17f713af0b8d","system_id":"levelo_inurba_marseille","lat":43.24805,"lon":5.37455,"is_reserved":false,"is_disabled":false,"rental_uris":{"android":"levelo://app?vid=258e025d-f605-4338-84a0-17f713af0b8d","ios":"levelo://app?vid=258e025d-f605-4338-84a0-17f713af0b8d"},"vehicle_type_id":"4","last_reported":1727607975,"current_range_meters":36400,"station_id":"ce4bhgh2rcd13ifvqfb0","pricing_plan_id":"cebpf4jnsgd1na2vs0mg"},{"bike_id":"c07564fa-1a7f-45a5-853b-31b17f66dbfa","system_id":"levelo_inurba_marseille","lat":43.25829,"lon":5.39436,"is_reserved":false,"is_disabled":false,"rental_uris":{"android":"levelo://app?vid=c07564fa-1a7f-45a5-853b-31b17f66dbfa","ios":"levelo://app?vid=c07564fa-1a7f-45a5-853b-31b17f66dbfa"},"vehicle_type_id":"4","last_reported":1727607975,"current_range_meters":12000,"station_id":"ce4bhip2rcd13ifvqft0","pricing_plan_id":"cebpf4jnsgd1na2vs0mg"},{"bike_id":"48ac0a00-7daa-4c12-9a4d-5dab28220f2e","system_id":"levelo_inurba_marseille","lat":43.32364,"lon":5.38877,"is_reserved":false,"is_disabled":false,"rental_uris":{"android":"levelo://app?vid=48ac0a00-7daa-4c12-9a4d-5dab28220f2e","ios":"levelo://app?vid=48ac0a00-7daa-4c12-9a4d-5dab28220f2e"},"vehicle_type_id":"4","last_reported":1727607975,"current_range_meters":8000,"station_id":"ce4bhqp2rcd13ifvqhog","pricing_plan_id":"cebpf4jnsgd1na2vs0mg"},{"bike_id":"696d20ce-7af7-4e1e-8c08-7f73a23b0229","system_id":"levelo_inurba_marseille","lat":43.2418,"lon":5.39725,"is_reserved":false,"is_disabled":false,"rental_uris":{"android":"levelo://app?vid=696d20ce-7af7-4e1e-8c08-7f73a23b0229","ios":"levelo://app?vid=696d20ce-7af7-4e1e-8c08-7f73a23b0229"},"vehicle_type_id":"4","last_reported":1727607975,"current_range_meters":25600,"station_id":"ce4bhn12rcd13ifvqgpg","pricing_plan_id":"cebpf4jnsgd1na2vs0mg"},{"bike_id":"f254a84b-b193-4a77-b0af-a1766254b37a","system_id":"levelo_inurba_marseille","lat":43.30417,"lon":5.41284,"is_reserved":false,"is_disabled":false,"rental_uris":{"android":"levelo://app?vid=f254a84b-b193-4a77-b0af-a1766254b37a","ios":"levelo://app?vid=f254a84b-b193-4a77-b0af-a1766254b37a"},"vehicle_type_id":"4","last_reported":1727607975,"current_range_meters":38800,"station_id":"ce4bhop2rcd13ifvqh8g","pricing_plan_id":"cebpf4jnsgd1na2vs0mg"},{"bike_id":"ab1d1002-6018-407c-bad9-49dfd673f681","system_id":"levelo_inurba_marseille","lat":43.30462,"lon":5.37901,"is_reserved":false,"is_disabled":false,"rental_uris":{"android":"levelo://app?vid=ab1d1002-6018-407c-bad9-49dfd673f681","ios":"levelo://app?vid=ab1d1002-6018-407c-bad9-49dfd673f681"},"vehicle_type_id":"4","last_reported":1727607975,"current_range_meters":20000,"station_id":"ce4bgup2rcd13ifvqcn0","pricing_plan_id":"cebpf4jnsgd1na2vs0mg"},{"bike_id":"b01722db-de21-4423-b59e-8a95ab7d80c6","system_id":"levelo_inurba_marseille","lat":43.28422,"lon":5.34979,"is_reserved":false,"is_disabled":false,"rental_uris":{"android":"levelo://app?vid=b01722db-de21-4423-b59e-8a95ab7d80c6","ios":"levelo://app?vid=b01722db-de21-4423-b59e-8a95ab7d80c6"},"vehicle_type_id":"4","last_reported":1727607975,"current_range_meters":14800,"station_id":"ce4bhbh2rcd13ifvqepg","pricing_plan_id":"cebpf4jnsgd1na2vs0mg"},{"bike_id":"1f313afb-1cf8-4bb7-8831-2c9f193c2d0c","system_id":"levelo_inurba_marseille","lat":43.24812,"lon":5.37461,"is_reserved":false,"is_disabled":false,"rental_uris":{"android":"levelo://app?vid=1f313afb-1cf8-4bb7-8831-2c9f193c2d0c","ios":"levelo://app?vid=1f313afb-1cf8-4bb7-8831-2c9f193c2d0c"},"vehicle_type_id":"4","last_reported":1727607975,"current_range_meters":39200,"station_id":"ce4bhgh2rcd13ifvqfb0","pricing_plan_id":"cebpf4jnsgd1na2vs0mg"},{"bike_id":"a63d4449-4f5a-4f1c-9a3c-27c8d74bd2a3","system_id":"levelo_inurba_marseille","lat":43.24395,"lon":5.37063,"is_reserved":false,"is_disabled":false,"rental_uris":{"android":"levelo://app?vid=a63d4449-4f5a-4f1c-9a3c-27c8d74bd2a3","ios":"levelo://app?vid=a63d4449-4f5a-4f1c-9a3c-27c8d74bd2a3"},"vehicle_type_id":"4","last_reported":1727607975,"current_range_meters":10000,"station_id":"ce4bhhh2rcd13ifvqfk0","pricing_plan_id":"cebpf4jnsgd1na2vs0mg"},{"bike_id":"753a1312-cc83-4dbb-b4d8-e99db2608b2e","system_id":"levelo_inurba_marseille","lat":43.29524,"lon":5.37504,"is_reserved":false,"is_disabled":false,"rental_uris":{"android":"levelo://app?vid=753a1312-cc83-4dbb-b4d8-e99db2608b2e","ios":"levelo://app?vid=753a1312-cc83-4dbb-b4d8-e99db2608b2e"},"vehicle_type_id":"4","last_reported":1727607975,"current_range_meters":38000,"station_id":"ce4bgkp2rcd13ifvqbmg","pricing_plan_id":"cebpf4jnsgd1na2vs0mg"},{"bike_id":"afa9f674-137b-4294-9d87-6ce44e0a23c5","system_id":"levelo_inurba_marseille","lat":43.30899,"lon":5.37203,"is_reserved":false,"is_disabled":false,"rental_uris":{"android":"levelo://app?vid=afa9f674-137b-4294-9d87-6ce44e0a23c5","ios":"levelo://app?vid=afa9f674-137b-4294-9d87-6ce44e0a23c5"},"vehicle_type_id":"4","last_reported":1727607975,"current_range_meters":38800,"station_id":"ce4bguh2rcd13ifvqckg","pricing_plan_id":"cebpf4jnsgd1na2vs0mg"},{"bike_id":"78f5300f-e156-4212-b537-15a7d1f7ff68","system_id":"levelo_inurba_marseille","lat":43.27838,"lon":5.39212,"is_reserved":false,"is_disabled":false,"rental_uris":{"android":"levelo://app?vid=78f5300f-e156-4212-b537-15a7d1f7ff68","ios":"levelo://app?vid=78f5300f-e156-4212-b537-15a7d1f7ff68"},"vehicle_type_id":"4","last_reported":1727607975,"current_range_meters":25200,"station_id":"ce4bhjp2rcd13ifvqga0","pricing_plan_id":"cebpf4jnsgd1na2vs0mg"},{"bike_id":"9cd727d2-b3a8-4d83-89fd-661fb659a8f1","system_id":"levelo_inurba_marseille","lat":43.23149,"lon":5.43723,"is_reserved":false,"is_disabled":false,"rental_uris":{"android":"levelo://app?vid=9cd727d2-b3a8-4d83-89fd-661fb659a8f1","ios":"levelo://app?vid=9cd727d2-b3a8-4d83-89fd-661fb659a8f1"},"vehicle_type_id":"4","last_reported":1727607975,"current_range_meters":30000,"station_id":"ce4bhmp2rcd13ifvqgog","pricing_plan_id":"cebpf4jnsgd1na2vs0mg"},{"bike_id":"a6d7246a-2eff-4df1-9bf3-4db9ebdca495","system_id":"levelo_inurba_marseille","lat":43.32474,"lon":5.36574,"is_reserved":false,"is_disabled":false,"rental_uris":{"android":"levelo://app?vid=a6d7246a-2eff-4df1-9bf3-4db9ebdca495","ios":"levelo://app?vid=a6d7246a-2eff-4df1-9bf3-4db9ebdca495"},"vehicle_type_id":"4","last_reported":1727607975,"current_range_meters":26800,"station_id":"ce4bhs12rcd13ifvqhvg","pricing_plan_id":"cebpf4jnsgd1na2vs0mg"},{"bike_id":"bc7dc6a9-589f-4649-9e06-6ce7434d3293","system_id":"levelo_inurba_marseille","lat":43.29057,"lon":5.3695,"is_reserved":false,"is_disabled":false,"rental_uris":{"android":"levelo://app?vid=bc7dc6a9-589f-4649-9e06-6ce7434d3293","ios":"levelo://app?vid=bc7dc6a9-589f-4649-9e06-6ce7434d3293"},"vehicle_type_id":"4","last_reported":1727607975,"current_range_meters":26000,"station_id":"ce4bhah2rcd13ifvqej0","pricing_plan_id":"cebpf4jnsgd1na2vs0mg"},{"bike_id":"f8cd1665-2182-42bb-993d-799437deb95c","system_id":"levelo_inurba_marseille","lat":43.23188,"lon":5.35572,"is_reserved":false,"is_disabled":false,"rental_uris":{"android":"levelo://app?vid=f8cd1665-2182-42bb-993d-799437deb95c","ios":"levelo://app?vid=f8cd1665-2182-42bb-993d-799437deb95c"},"vehicle_type_id":"4","last_reported":1727607975,"current_range_meters":38800,"station_id":"ce4bhu92rcd13ifvqi70","pricing_plan_id":"cebpf4jnsgd1na2vs0mg"},{"bike_id":"6bd89fb8-8c07-44ac-a355-6213d8744e84","system_id":"levelo_inurba_marseille","lat":43.32049,"lon":5.41573,"is_reserved":false,"is_disabled":false,"rental_uris":{"android":"levelo://app?vid=6bd89fb8-8c07-44ac-a355-6213d8744e84","ios":"levelo://app?vid=6bd89fb8-8c07-44ac-a355-6213d8744e84"},"vehicle_type_id":"4","last_reported":1727607975,"current_range_meters":36800,"station_id":"ce4bhq92rcd13ifvqhkg","pricing_plan_id":"cebpf4jnsgd1na2vs0mg"},{"bike_id":"0bce318d-0597-4d04-aacf-d3481de5d0c2","system_id":"levelo_inurba_marseille","lat":43.28265,"lon":5.35063,"is_reserved":false,"is_disabled":false,"rental_uris":{"android":"levelo://app?vid=0bce318d-0597-4d04-aacf-d3481de5d0c2","ios":"levelo://app?vid=0bce318d-0597-4d04-aacf-d3481de5d0c2"},"vehicle_type_id":"4","last_reported":1727607975,"current_range_meters":27600,"station_id":"ce4bhbp2rcd13ifvqerg","pricing_plan_id":"cebpf4jnsgd1na2vs0mg"},{"bike_id":"80edfc27-d4fd-4611-8ecc-f5b352a52e13","system_id":"levelo_inurba_marseille","lat":43.30331,"lon":5.40438,"is_reserved":false,"is_disabled":false,"rental_uris":{"android":"levelo://app?vid=80edfc27-d4fd-4611-8ecc-f5b352a52e13","ios":"levelo://app?vid=80edfc27-d4fd-4611-8ecc-f5b352a52e13"},"vehicle_type_id":"4","last_reported":1727607975,"current_range_meters":28400,"station_id":"ce4bh012rcd13ifvqd10","pricing_plan_id":"cebpf4jnsgd1na2vs0mg"},{"bike_id":"822e70a6-8a18-4c11-b1f3-48b58fc904f3","system_id":"levelo_inurba_marseille","lat":43.26776,"lon":5.3942,"is_reserved":false,"is_disabled":false,"rental_uris":{"android":"levelo://app?vid=822e70a6-8a18-4c11-b1f3-48b58fc904f3","ios":"levelo://app?vid=822e70a6-8a18-4c11-b1f3-48b58fc904f3"},"vehicle_type_id":"4","last_reported":1727607975,"current_range_meters":29600,"station_id":"ce4bhh12rcd13ifvqfg0","pricing_plan_id":"cebpf4jnsgd1na2vs0mg"},{"bike_id":"08fbc494-b36c-4c7a-b0ee-9cdd3b66f9c6","system_id":"levelo_inurba_marseille","lat":43.29045,"lon":5.35921,"is_reserved":false,"is_disabled":false,"rental_uris":{"android":"levelo://app?vid=08fbc494-b36c-4c7a-b0ee-9cdd3b66f9c6","ios":"levelo://app?vid=08fbc494-b36c-4c7a-b0ee-9cdd3b66f9c6"},"vehicle_type_id":"4","last_reported":1727607975,"current_range_meters":14800,"station_id":"ce4bha92rcd13ifvqeg0","pricing_plan_id":"cebpf4jnsgd1na2vs0mg"},{"bike_id":"bd2a8bf3-0401-47d1-b538-d7bb60c8e1ac","system_id":"levelo_inurba_marseille","lat":43.26188,"lon":5.37454,"is_reserved":false,"is_disabled":false,"rental_uris":{"android":"levelo://app?vid=bd2a8bf3-0401-47d1-b538-d7bb60c8e1ac","ios":"levelo://app?vid=bd2a8bf3-0401-47d1-b538-d7bb60c8e1ac"},"vehicle_type_id":"4","last_reported":1727607975,"current_range_meters":27200,"station_id":"ce4bhgp2rcd13ifvqfc0","pricing_plan_id":"cebpf4jnsgd1na2vs0mg"},{"bike_id":"ed84faff-17c5-48fb-8753-c2f883b40c1d","system_id":"levelo_inurba_marseille","lat":43.23966,"lon":5.36635,"is_reserved":false,"is_disabled":false,"rental_uris":{"android":"levelo://app?vid=ed84faff-17c5-48fb-8753-c2f883b40c1d","ios":"levelo://app?vid=ed84faff-17c5-48fb-8753-c2f883b40c1d"},"vehicle_type_id":"4","last_reported":1727607975,"current_range_meters":38400,"station_id":"ce4bhi12rcd13ifvqfp0","pricing_plan_id":"cebpf4jnsgd1na2vs0mg"},{"bike_id":"e6920b9d-370b-4848-ae17-a354e9a6e01c","system_id":"levelo_inurba_marseille","lat":43.31995,"lon":5.38143,"is_reserved":false,"is_disabled":false,"rental_uris":{"android":"levelo://app?vid=e6920b9d-370b-4848-ae17-a354e9a6e01c","ios":"levelo://app?vid=e6920b9d-370b-4848-ae17-a354e9a6e01c"},"vehicle_type_id":"4","last_reported":1727607975,"current_range_meters":9600,"station_id":"ce4bhr12rcd13ifvqhpg","pricing_plan_id":"cebpf4jnsgd1na2vs0mg"},{"bike_id":"3b170ecf-4bbb-421f-886d-94818fba1de8","system_id":"levelo_inurba_marseille","lat":43.28483,"lon":5.40024,"is_reserved":false,"is_disabled":false,"rental_uris":{"android":"levelo://app?vid=3b170ecf-4bbb-421f-886d-94818fba1de8","ios":"levelo://app?vid=3b170ecf-4bbb-421f-886d-94818fba1de8"},"vehicle_type_id":"4","last_reported":1727607975,"current_range_meters":31200,"station_id":"ce4bh2h2rcd13ifvqdh0","pricing_plan_id":"cebpf4jnsgd1na2vs0mg"},{"bike_id":"b818a14e-3e0e-4e17-b62c-d53194b54ac1","system_id":"levelo_inurba_marseille","lat":43.23117,"lon":5.354841,"is_reserved":false,"is_disabled":false,"rental_uris":{"android":"levelo://app?vid=b818a14e-3e0e-4e17-b62c-d53194b54ac1","ios":"levelo://app?vid=b818a14e-3e0e-4e17-b62c-d53194b54ac1"},"vehicle_type_id":"4","last_reported":1727607975,"current_range_meters":27200,"station_id":"cpo3342slgdg3j2ifvpg","pricing_plan_id":"cebpf4jnsgd1na2vs0mg"},{"bike_id":"b1e0d147-0ca1-4f31-bec4-2d0e212a3150","system_id":"levelo_inurba_marseille","lat":43.32043,"lon":5.41568,"is_reserved":false,"is_disabled":false,"rental_uris":{"android":"levelo://app?vid=b1e0d147-0ca1-4f31-bec4-2d0e212a3150","ios":"levelo://app?vid=b1e0d147-0ca1-4f31-bec4-2d0e212a3150"},"vehicle_type_id":"4","last_reported":1727607975,"current_range_meters":39200,"station_id":"ce4bhq92rcd13ifvqhkg","pricing_plan_id":"cebpf4jnsgd1na2vs0mg"},{"bike_id":"8305699a-75f9-439a-81bd-d1c449382e18","system_id":"levelo_inurba_marseille","lat":43.23181,"lon":5.39989,"is_reserved":false,"is_disabled":false,"rental_uris":{"android":"levelo://app?vid=8305699a-75f9-439a-81bd-d1c449382e18","ios":"levelo://app?vid=8305699a-75f9-439a-81bd-d1c449382e18"},"vehicle_type_id":"4","last_reported":1727607975,"current_range_meters":32000,"station_id":"ce4bhn12rcd13ifvqgqg","pricing_plan_id":"cebpf4jnsgd1na2vs0mg"},{"bike_id":"7497ada0-4e52-442c-9aa1-86afe522b93f","system_id":"levelo_inurba_marseille","lat":43.29906,"lon":5.43677,"is_reserved":false,"is_disabled":false,"rental_uris":{"android":"levelo://app?vid=7497ada0-4e52-442c-9aa1-86afe522b93f","ios":"levelo://app?vid=7497ada0-4e52-442c-9aa1-86afe522b93f"},"vehicle_type_id":"4","last_reported":1727607975,"current_range_meters":25600,"station_id":"ce4bhpp2rcd13ifvqhfg","pricing_plan_id":"cebpf4jnsgd1na2vs0mg"},{"bike_id":"8a2141b5-4ed1-48ef-bcb9-2550c31a6897","system_id":"levelo_inurba_marseille","lat":43.23952,"lon":5.36632,"is_reserved":false,"is_disabled":false,"rental_uris":{"android":"levelo://app?vid=8a2141b5-4ed1-48ef-bcb9-2550c31a6897","ios":"levelo://app?vid=8a2141b5-4ed1-48ef-bcb9-2550c31a6897"},"vehicle_type_id":"4","last_reported":1727607975,"current_range_meters":18800,"station_id":"ce4bhi12rcd13ifvqfp0","pricing_plan_id":"cebpf4jnsgd1na2vs0mg"},{"bike_id":"c6d59b59-26b3-47ad-ae8f-1d791c0e40fa","system_id":"levelo_inurba_marseille","lat":43.32046,"lon":5.41567,"is_reserved":false,"is_disabled":false,"rental_uris":{"android":"levelo://app?vid=c6d59b59-26b3-47ad-ae8f-1d791c0e40fa","ios":"levelo://app?vid=c6d59b59-26b3-47ad-ae8f-1d791c0e40fa"},"vehicle_type_id":"4","last_reported":1727607975,"current_range_meters":38800,"station_id":"ce4bhq92rcd13ifvqhkg","pricing_plan_id":"cebpf4jnsgd1na2vs0mg"},{"bike_id":"c51e285c-8141-4023-9ee3-49bcc68cf98c","system_id":"levelo_inurba_marseille","lat":43.25092,"lon":5.3951,"is_reserved":false,"is_disabled":false,"rental_uris":{"android":"levelo://app?vid=c51e285c-8141-4023-9ee3-49bcc68cf98c","ios":"levelo://app?vid=c51e285c-8141-4023-9ee3-49bcc68cf98c"},"vehicle_type_id":"4","last_reported":1727607975,"current_range_meters":38400,"station_id":"ce4bhm12rcd13ifvqgkg","pricing_plan_id":"cebpf4jnsgd1na2vs0mg"},{"bike_id":"0c416e66-ad31-4759-bc3c-0b1b429329d4","system_id":"levelo_inurba_marseille","lat":43.2923,"lon":5.36056,"is_reserved":false,"is_disabled":false,"rental_uris":{"android":"levelo://app?vid=0c416e66-ad31-4759-bc3c-0b1b429329d4","ios":"levelo://app?vid=0c416e66-ad31-4759-bc3c-0b1b429329d4"},"vehicle_type_id":"4","last_reported":1727607975,"current_range_meters":36400,"station_id":"ce4bhbh2rcd13ifvqeqg","pricing_plan_id":"cebpf4jnsgd1na2vs0mg"},{"bike_id":"eccbf9a2-09c0-40f7-8df1-c282462a0114","system_id":"levelo_inurba_marseille","lat":43.31494,"lon":5.37307,"is_reserved":false,"is_disabled":false,"rental_uris":{"android":"levelo://app?vid=eccbf9a2-09c0-40f7-8df1-c282462a0114","ios":"levelo://app?vid=eccbf9a2-09c0-40f7-8df1-c282462a0114"},"vehicle_type_id":"4","last_reported":1727607975,"current_range_meters":12400,"station_id":"ce4bgt12rcd13ifvqcd0","pricing_plan_id":"cebpf4jnsgd1na2vs0mg"},{"bike_id":"f511609e-26a1-49de-abb1-0985c092af8a","system_id":"levelo_inurba_marseille","lat":43.29578,"lon":5.37511,"is_reserved":false,"is_disabled":false,"rental_uris":{"android":"levelo://app?vid=f511609e-26a1-49de-abb1-0985c092af8a","ios":"levelo://app?vid=f511609e-26a1-49de-abb1-0985c092af8a"},"vehicle_type_id":"4","last_reported":1727607975,"current_range_meters":36800,"station_id":"ce4bgh92rcd13ifvqb50","pricing_plan_id":"cebpf4jnsgd1na2vs0mg"},{"bike_id":"31b96e55-8755-4ad3-9eff-ab1e7c9573a3","system_id":"levelo_inurba_marseille","lat":43.26193,"lon":5.37452,"is_reserved":false,"is_disabled":false,"rental_uris":{"android":"levelo://app?vid=31b96e55-8755-4ad3-9eff-ab1e7c9573a3","ios":"levelo://app?vid=31b96e55-8755-4ad3-9eff-ab1e7c9573a3"},"vehicle_type_id":"4","last_reported":1727607975,"current_range_meters":6000,"station_id":"ce4bhgp2rcd13ifvqfc0","pricing_plan_id":"cebpf4jnsgd1na2vs0mg"},{"bike_id":"eb35b74a-e100-4849-baf8-86135e114bef","system_id":"levelo_inurba_marseille","lat":43.23152,"lon":5.43702,"is_reserved":false,"is_disabled":false,"rental_uris":{"android":"levelo://app?vid=eb35b74a-e100-4849-baf8-86135e114bef","ios":"levelo://app?vid=eb35b74a-e100-4849-baf8-86135e114bef"},"vehicle_type_id":"4","last_reported":1727607975,"current_range_meters":31200,"station_id":"ce4bhmp2rcd13ifvqgog","pricing_plan_id":"cebpf4jnsgd1na2vs0mg"},{"bike_id":"71d8eb6d-10ed-4e3c-8c25-b1af84d4781a","system_id":"levelo_inurba_marseille","lat":43.29895,"lon":5.4367,"is_reserved":false,"is_disabled":false,"rental_uris":{"android":"levelo://app?vid=71d8eb6d-10ed-4e3c-8c25-b1af84d4781a","ios":"levelo://app?vid=71d8eb6d-10ed-4e3c-8c25-b1af84d4781a"},"vehicle_type_id":"4","last_reported":1727607975,"current_range_meters":32000,"station_id":"ce4bhpp2rcd13ifvqhfg","pricing_plan_id":"cebpf4jnsgd1na2vs0mg"},{"bike_id":"0ba6d779-3fe8-4aa4-a51e-1fab1b54ad7c","system_id":"levelo_inurba_marseille","lat":43.31116,"lon":5.37779,"is_reserved":false,"is_disabled":false,"rental_uris":{"android":"levelo://app?vid=0ba6d779-3fe8-4aa4-a51e-1fab1b54ad7c","ios":"levelo://app?vid=0ba6d779-3fe8-4aa4-a51e-1fab1b54ad7c"},"vehicle_type_id":"4","last_reported":1727607975,"current_range_meters":19600,"station_id":"ce4bgt92rcd13ifvqcg0","pricing_plan_id":"cebpf4jnsgd1na2vs0mg"},{"bike_id":"a549912a-390c-4a4b-9532-a4a0e001da22","system_id":"levelo_inurba_marseille","lat":43.29215,"lon":5.36057,"is_reserved":false,"is_disabled":false,"rental_uris":{"android":"levelo://app?vid=a549912a-390c-4a4b-9532-a4a0e001da22","ios":"levelo://app?vid=a549912a-390c-4a4b-9532-a4a0e001da22"},"vehicle_type_id":"4","last_reported":1727607975,"current_range_meters":38000,"station_id":"ce4bhbh2rcd13ifvqeqg","pricing_plan_id":"cebpf4jnsgd1na2vs0mg"},{"bike_id":"d681df63-17c6-47eb-99e3-b163ba4e0eb5","system_id":"levelo_inurba_marseille","lat":43.32334,"lon":5.40621,"is_reserved":false,"is_disabled":false,"rental_uris":{"android":"levelo://app?vid=d681df63-17c6-47eb-99e3-b163ba4e0eb5","ios":"levelo://app?vid=d681df63-17c6-47eb-99e3-b163ba4e0eb5"},"vehicle_type_id":"4","last_reported":1727607975,"current_range_meters":34000,"station_id":"ce4bhq92rcd13ifvqhjg","pricing_plan_id":"cebpf4jnsgd1na2vs0mg"},{"bike_id":"0a9db6a3-6f2a-435c-801c-8333c7a53f0c","system_id":"levelo_inurba_marseille","lat":43.23191,"lon":5.35542,"is_reserved":false,"is_disabled":false,"rental_uris":{"android":"levelo://app?vid=0a9db6a3-6f2a-435c-801c-8333c7a53f0c","ios":"levelo://app?vid=0a9db6a3-6f2a-435c-801c-8333c7a53f0c"},"vehicle_type_id":"4","last_reported":1727607975,"current_range_meters":38800,"station_id":"ce4bhu92rcd13ifvqi70","pricing_plan_id":"cebpf4jnsgd1na2vs0mg"},{"bike_id":"b9ed55b9-f31f-48ad-956d-b25ff03dfc46","system_id":"levelo_inurba_marseille","lat":43.260568,"lon":5.393996,"is_reserved":false,"is_disabled":false,"rental_uris":{"android":"levelo://app?vid=b9ed55b9-f31f-48ad-956d-b25ff03dfc46","ios":"levelo://app?vid=b9ed55b9-f31f-48ad-956d-b25ff03dfc46"},"vehicle_type_id":"4","last_reported":1727607975,"current_range_meters":10800,"station_id":"ce4bhh92rcd13ifvqfj0","pricing_plan_id":"cebpf4jnsgd1na2vs0mg"},{"bike_id":"5380acb6-70a9-4bdc-88de-f97cf7b2d553","system_id":"levelo_inurba_marseille","lat":43.33021,"lon":5.39042,"is_reserved":false,"is_disabled":false,"rental_uris":{"android":"levelo://app?vid=5380acb6-70a9-4bdc-88de-f97cf7b2d553","ios":"levelo://app?vid=5380acb6-70a9-4bdc-88de-f97cf7b2d553"},"vehicle_type_id":"4","last_reported":1727607975,"current_range_meters":25200,"station_id":"ce4bhr92rcd13ifvqhrg","pricing_plan_id":"cebpf4jnsgd1na2vs0mg"},{"bike_id":"3b837002-4991-4c22-98cf-34434e11bb9a","system_id":"levelo_inurba_marseille","lat":43.30411,"lon":5.41295,"is_reserved":false,"is_disabled":false,"rental_uris":{"android":"levelo://app?vid=3b837002-4991-4c22-98cf-34434e11bb9a","ios":"levelo://app?vid=3b837002-4991-4c22-98cf-34434e11bb9a"},"vehicle_type_id":"4","last_reported":1727607975,"current_range_meters":33200,"station_id":"ce4bhop2rcd13ifvqh8g","pricing_plan_id":"cebpf4jnsgd1na2vs0mg"},{"bike_id":"0a55ec6a-58c0-443d-bad1-31f6b3c3feec","system_id":"levelo_inurba_marseille","lat":43.29844,"lon":5.36269,"is_reserved":false,"is_disabled":false,"rental_uris":{"android":"levelo://app?vid=0a55ec6a-58c0-443d-bad1-31f6b3c3feec","ios":"levelo://app?vid=0a55ec6a-58c0-443d-bad1-31f6b3c3feec"},"vehicle_type_id":"4","last_reported":1727607975,"current_range_meters":34000,"station_id":"ce4bgpp2rcd13ifvqc3g","pricing_plan_id":"cebpf4jnsgd1na2vs0mg"},{"bike_id":"ae7e6143-3c75-4314-888e-afa1302351aa","system_id":"levelo_inurba_marseille","lat":43.32475,"lon":5.36551,"is_reserved":false,"is_disabled":false,"rental_uris":{"android":"levelo://app?vid=ae7e6143-3c75-4314-888e-afa1302351aa","ios":"levelo://app?vid=ae7e6143-3c75-4314-888e-afa1302351aa"},"vehicle_type_id":"4","last_reported":1727607975,"current_range_meters":38800,"station_id":"ce4bhs12rcd13ifvqhvg","pricing_plan_id":"cebpf4jnsgd1na2vs0mg"},{"bike_id":"cff181f9-8616-4616-aa84-3dbafde351b2","system_id":"levelo_inurba_marseille","lat":43.26507,"lon":5.38353,"is_reserved":false,"is_disabled":false,"rental_uris":{"android":"levelo://app?vid=cff181f9-8616-4616-aa84-3dbafde351b2","ios":"levelo://app?vid=cff181f9-8616-4616-aa84-3dbafde351b2"},"vehicle_type_id":"4","last_reported":1727607975,"current_range_meters":12800,"station_id":"ce4bh512rcd13ifvqe3g","pricing_plan_id":"cebpf4jnsgd1na2vs0mg"},{"bike_id":"d55a965c-f2f8-43bf-917d-fccc8fb8c428","system_id":"levelo_inurba_marseille","lat":43.28811,"lon":5.3926,"is_reserved":false,"is_disabled":false,"rental_uris":{"android":"levelo://app?vid=d55a965c-f2f8-43bf-917d-fccc8fb8c428","ios":"levelo://app?vid=d55a965c-f2f8-43bf-917d-fccc8fb8c428"},"vehicle_type_id":"4","last_reported":1727607975,"current_range_meters":6400,"station_id":"ce4bgrp2rcd13ifvqc9g","pricing_plan_id":"cebpf4jnsgd1na2vs0mg"},{"bike_id":"a59c5b0c-c30a-4c7b-9de5-fe82e21e0651","system_id":"levelo_inurba_marseille","lat":43.25584,"lon":5.38231,"is_reserved":false,"is_disabled":false,"rental_uris":{"android":"levelo://app?vid=a59c5b0c-c30a-4c7b-9de5-fe82e21e0651","ios":"levelo://app?vid=a59c5b0c-c30a-4c7b-9de5-fe82e21e0651"},"vehicle_type_id":"4","last_reported":1727607975,"current_range_meters":8000,"station_id":"ce4bhih2rcd13ifvqfs0","pricing_plan_id":"cebpf4jnsgd1na2vs0mg"},{"bike_id":"cf1c57f3-40b6-419d-ae67-ef1fdc3976b8","system_id":"levelo_inurba_marseille","lat":43.29622,"lon":5.37169,"is_reserved":false,"is_disabled":false,"rental_uris":{"android":"levelo://app?vid=cf1c57f3-40b6-419d-ae67-ef1fdc3976b8","ios":"levelo://app?vid=cf1c57f3-40b6-419d-ae67-ef1fdc3976b8"},"vehicle_type_id":"4","last_reported":1727607975,"current_range_meters":30000,"station_id":"ce4bgnh2rcd13ifvqc0g","pricing_plan_id":"cebpf4jnsgd1na2vs0mg"},{"bike_id":"2a240667-b2ae-420a-9ea2-339f21d78809","system_id":"levelo_inurba_marseille","lat":43.29621,"lon":5.37155,"is_reserved":false,"is_disabled":false,"rental_uris":{"android":"levelo://app?vid=2a240667-b2ae-420a-9ea2-339f21d78809","ios":"levelo://app?vid=2a240667-b2ae-420a-9ea2-339f21d78809"},"vehicle_type_id":"4","last_reported":1727607975,"current_range_meters":39200,"station_id":"ce4bgnh2rcd13ifvqc0g","pricing_plan_id":"cebpf4jnsgd1na2vs0mg"},{"bike_id":"e374ac23-5f47-4e7f-bd4a-8af04bee879f","system_id":"levelo_inurba_marseille","lat":43.31218,"lon":5.41847,"is_reserved":false,"is_disabled":false,"rental_uris":{"android":"levelo://app?vid=e374ac23-5f47-4e7f-bd4a-8af04bee879f","ios":"levelo://app?vid=e374ac23-5f47-4e7f-bd4a-8af04bee879f"},"vehicle_type_id":"4","last_reported":1727607975,"current_range_meters":22400,"station_id":"","pricing_plan_id":"cebpf4jnsgd1na2vs0mg"},{"bike_id":"a974d009-942e-477b-b4db-19f84bd48313","system_id":"levelo_inurba_marseille","lat":43.3237,"lon":5.38885,"is_reserved":false,"is_disabled":false,"rental_uris":{"android":"levelo://app?vid=a974d009-942e-477b-b4db-19f84bd48313","ios":"levelo://app?vid=a974d009-942e-477b-b4db-19f84bd48313"},"vehicle_type_id":"4","last_reported":1727607975,"current_range_meters":6000,"station_id":"ce4bhqp2rcd13ifvqhog","pricing_plan_id":"cebpf4jnsgd1na2vs0mg"},{"bike_id":"6a66b30d-b7e8-4317-88c5-fb9f52bf2878","system_id":"levelo_inurba_marseille","lat":43.23954,"lon":5.36626,"is_reserved":false,"is_disabled":false,"rental_uris":{"android":"levelo://app?vid=6a66b30d-b7e8-4317-88c5-fb9f52bf2878","ios":"levelo://app?vid=6a66b30d-b7e8-4317-88c5-fb9f52bf2878"},"vehicle_type_id":"4","last_reported":1727607975,"current_range_meters":38000,"station_id":"ce4bhi12rcd13ifvqfp0","pricing_plan_id":"cebpf4jnsgd1na2vs0mg"},{"bike_id":"ea66c852-2304-4351-b250-26caf723787c","system_id":"levelo_inurba_marseille","lat":43.26194,"lon":5.37449,"is_reserved":false,"is_disabled":false,"rental_uris":{"android":"levelo://app?vid=ea66c852-2304-4351-b250-26caf723787c","ios":"levelo://app?vid=ea66c852-2304-4351-b250-26caf723787c"},"vehicle_type_id":"4","last_reported":1727607975,"current_range_meters":12400,"station_id":"ce4bhgp2rcd13ifvqfc0","pricing_plan_id":"cebpf4jnsgd1na2vs0mg"},{"bike_id":"69b327c3-065b-4b55-a212-d00109383c42","system_id":"levelo_inurba_marseille","lat":43.28483,"lon":5.35943,"is_reserved":false,"is_disabled":false,"rental_uris":{"android":"levelo://app?vid=69b327c3-065b-4b55-a212-d00109383c42","ios":"levelo://app?vid=69b327c3-065b-4b55-a212-d00109383c42"},"vehicle_type_id":"4","last_reported":1727607975,"current_range_meters":27600,"station_id":"ce4bhah2rcd13ifvqei0","pricing_plan_id":"cebpf4jnsgd1na2vs0mg"},{"bike_id":"36e28af7-ddee-4540-a244-b5691f735fa0","system_id":"levelo_inurba_marseille","lat":43.31705,"lon":5.37725,"is_reserved":false,"is_disabled":false,"rental_uris":{"android":"levelo://app?vid=36e28af7-ddee-4540-a244-b5691f735fa0","ios":"levelo://app?vid=36e28af7-ddee-4540-a244-b5691f735fa0"},"vehicle_type_id":"4","last_reported":1727607975,"current_range_meters":8000,"station_id":"ce4bgth2rcd13ifvqch0","pricing_plan_id":"cebpf4jnsgd1na2vs0mg"},{"bike_id":"c63c77e6-79a8-4cd6-942a-d55d52d9edda","system_id":"levelo_inurba_marseille","lat":43.28614,"lon":5.35105,"is_reserved":false,"is_disabled":false,"rental_uris":{"android":"levelo://app?vid=c63c77e6-79a8-4cd6-942a-d55d52d9edda","ios":"levelo://app?vid=c63c77e6-79a8-4cd6-942a-d55d52d9edda"},"vehicle_type_id":"4","last_reported":1727607975,"current_range_meters":4800,"station_id":"ce4bhch2rcd13ifvqeug","pricing_plan_id":"cebpf4jnsgd1na2vs0mg"},{"bike_id":"6483db33-2bcb-47ee-8fe5-586d58fac21a","system_id":"levelo_inurba_marseille","lat":43.28153,"lon":5.42648,"is_reserved":false,"is_disabled":false,"rental_uris":{"android":"levelo://app?vid=6483db33-2bcb-47ee-8fe5-586d58fac21a","ios":"levelo://app?vid=6483db33-2bcb-47ee-8fe5-586d58fac21a"},"vehicle_type_id":"4","last_reported":1727607975,"current_range_meters":28800,"station_id":"ce4bhnh2rcd13ifvqgug","pricing_plan_id":"cebpf4jnsgd1na2vs0mg"},{"bike_id":"8537bd26-c143-480b-ac7c-86d2b5338011","system_id":"levelo_inurba_marseille","lat":43.26205,"lon":5.37446,"is_reserved":false,"is_disabled":false,"rental_uris":{"android":"levelo://app?vid=8537bd26-c143-480b-ac7c-86d2b5338011","ios":"levelo://app?vid=8537bd26-c143-480b-ac7c-86d2b5338011"},"vehicle_type_id":"4","last_reported":1727607975,"current_range_meters":37600,"station_id":"ce4bhgp2rcd13ifvqfc0","pricing_plan_id":"cebpf4jnsgd1na2vs0mg"},{"bike_id":"199f764e-7942-4511-a407-33ff4a7dc457","system_id":"levelo_inurba_marseille","lat":43.26025,"lon":5.3755,"is_reserved":false,"is_disabled":false,"rental_uris":{"android":"levelo://app?vid=199f764e-7942-4511-a407-33ff4a7dc457","ios":"levelo://app?vid=199f764e-7942-4511-a407-33ff4a7dc457"},"vehicle_type_id":"4","last_reported":1727607975,"current_range_meters":37600,"station_id":"ce4bhgh2rcd13ifvqfa0","pricing_plan_id":"cebpf4jnsgd1na2vs0mg"},{"bike_id":"0701cf2a-674c-4c9d-af1e-6650acbaaf74","system_id":"levelo_inurba_marseille","lat":43.28384,"lon":5.37293,"is_reserved":false,"is_disabled":false,"rental_uris":{"android":"levelo://app?vid=0701cf2a-674c-4c9d-af1e-6650acbaaf74","ios":"levelo://app?vid=0701cf2a-674c-4c9d-af1e-6650acbaaf74"},"vehicle_type_id":"4","last_reported":1727607975,"current_range_meters":10000,"station_id":"","pricing_plan_id":"cebpf4jnsgd1na2vs0mg"},{"bike_id":"46340b57-cc64-40d7-959a-03e4671d23ca","system_id":"levelo_inurba_marseille","lat":43.26197,"lon":5.37449,"is_reserved":false,"is_disabled":false,"rental_uris":{"android":"levelo://app?vid=46340b57-cc64-40d7-959a-03e4671d23ca","ios":"levelo://app?vid=46340b57-cc64-40d7-959a-03e4671d23ca"},"vehicle_type_id":"4","last_reported":1727607975,"current_range_meters":4000,"station_id":"ce4bhgp2rcd13ifvqfc0","pricing_plan_id":"cebpf4jnsgd1na2vs0mg"},{"bike_id":"a48460e4-d4da-4877-ad08-62dca9d34780","system_id":"levelo_inurba_marseille","lat":43.24165,"lon":5.36395,"is_reserved":false,"is_disabled":false,"rental_uris":{"android":"levelo://app?vid=a48460e4-d4da-4877-ad08-62dca9d34780","ios":"levelo://app?vid=a48460e4-d4da-4877-ad08-62dca9d34780"},"vehicle_type_id":"4","last_reported":1727607975,"current_range_meters":34800,"station_id":"cpo36qri1sfpv3e86is0","pricing_plan_id":"cebpf4jnsgd1na2vs0mg"},{"bike_id":"b300900a-4227-4094-a33a-c841682b4070","system_id":"levelo_inurba_marseille","lat":43.29223,"lon":5.36054,"is_reserved":false,"is_disabled":false,"rental_uris":{"android":"levelo://app?vid=b300900a-4227-4094-a33a-c841682b4070","ios":"levelo://app?vid=b300900a-4227-4094-a33a-c841682b4070"},"vehicle_type_id":"4","last_reported":1727607975,"current_range_meters":32800,"station_id":"ce4bhbh2rcd13ifvqeqg","pricing_plan_id":"cebpf4jnsgd1na2vs0mg"},{"bike_id":"d141aad6-7147-40a3-b3b7-440b7b51003f","system_id":"levelo_inurba_marseille","lat":43.33025,"lon":5.39034,"is_reserved":false,"is_disabled":false,"rental_uris":{"android":"levelo://app?vid=d141aad6-7147-40a3-b3b7-440b7b51003f","ios":"levelo://app?vid=d141aad6-7147-40a3-b3b7-440b7b51003f"},"vehicle_type_id":"4","last_reported":1727607975,"current_range_meters":38000,"station_id":"ce4bhr92rcd13ifvqhrg","pricing_plan_id":"cebpf4jnsgd1na2vs0mg"},{"bike_id":"dda4c635-dc83-4979-aef8-be5f06eb330c","system_id":"levelo_inurba_marseille","lat":43.30929,"lon":5.40147,"is_reserved":false,"is_disabled":false,"rental_uris":{"android":"levelo://app?vid=dda4c635-dc83-4979-aef8-be5f06eb330c","ios":"levelo://app?vid=dda4c635-dc83-4979-aef8-be5f06eb330c"},"vehicle_type_id":"4","last_reported":1727607975,"current_range_meters":23200,"station_id":"ce4bgvp2rcd13ifvqct0","pricing_plan_id":"cebpf4jnsgd1na2vs0mg"},{"bike_id":"6cdca13d-24d1-4302-912a-54d18c748242","system_id":"levelo_inurba_marseille","lat":43.31083,"lon":5.40132,"is_reserved":false,"is_disabled":false,"rental_uris":{"android":"levelo://app?vid=6cdca13d-24d1-4302-912a-54d18c748242","ios":"levelo://app?vid=6cdca13d-24d1-4302-912a-54d18c748242"},"vehicle_type_id":"4","last_reported":1727607975,"current_range_meters":4800,"station_id":"","pricing_plan_id":"cebpf4jnsgd1na2vs0mg"},{"bike_id":"05bbd932-0215-46a5-8652-6980487a0b3f","system_id":"levelo_inurba_marseille","lat":43.292816,"lon":5.384806,"is_reserved":false,"is_disabled":false,"rental_uris":{"android":"levelo://app?vid=05bbd932-0215-46a5-8652-6980487a0b3f","ios":"levelo://app?vid=05bbd932-0215-46a5-8652-6980487a0b3f"},"vehicle_type_id":"4","last_reported":1727607975,"current_range_meters":15200,"station_id":"ce4bh692rcd13ifvqea0","pricing_plan_id":"cebpf4jnsgd1na2vs0mg"},{"bike_id":"4e18414a-fbcb-4a21-8487-b2847fe27460","system_id":"levelo_inurba_marseille","lat":43.26057,"lon":5.39399,"is_reserved":false,"is_disabled":false,"rental_uris":{"android":"levelo://app?vid=4e18414a-fbcb-4a21-8487-b2847fe27460","ios":"levelo://app?vid=4e18414a-fbcb-4a21-8487-b2847fe27460"},"vehicle_type_id":"4","last_reported":1727607975,"current_range_meters":38000,"station_id":"ce4bhh92rcd13ifvqfj0","pricing_plan_id":"cebpf4jnsgd1na2vs0mg"},{"bike_id":"56c70bcf-7a5d-4d3c-ad73-dbf912d90a7f","system_id":"levelo_inurba_marseille","lat":43.25109,"lon":5.40323,"is_reserved":false,"is_disabled":false,"rental_uris":{"android":"levelo://app?vid=56c70bcf-7a5d-4d3c-ad73-dbf912d90a7f","ios":"levelo://app?vid=56c70bcf-7a5d-4d3c-ad73-dbf912d90a7f"},"vehicle_type_id":"4","last_reported":1727607975,"current_range_meters":38400,"station_id":"ce4bhlh2rcd13ifvqgig","pricing_plan_id":"cebpf4jnsgd1na2vs0mg"},{"bike_id":"241986e7-ab99-4a77-a0b2-fab5619e3016","system_id":"levelo_inurba_marseille","lat":43.27996,"lon":5.40012,"is_reserved":false,"is_disabled":false,"rental_uris":{"android":"levelo://app?vid=241986e7-ab99-4a77-a0b2-fab5619e3016","ios":"levelo://app?vid=241986e7-ab99-4a77-a0b2-fab5619e3016"},"vehicle_type_id":"4","last_reported":1727607975,"current_range_meters":38800,"station_id":"ce4bho92rcd13ifvqh4g","pricing_plan_id":"cebpf4jnsgd1na2vs0mg"},{"bike_id":"2739f21a-7d48-4a2c-8180-69d444e34103","system_id":"levelo_inurba_marseille","lat":43.26684,"lon":5.38276,"is_reserved":false,"is_disabled":false,"rental_uris":{"android":"levelo://app?vid=2739f21a-7d48-4a2c-8180-69d444e34103","ios":"levelo://app?vid=2739f21a-7d48-4a2c-8180-69d444e34103"},"vehicle_type_id":"4","last_reported":1727607975,"current_range_meters":33200,"station_id":"ce4bhg92rcd13ifvqf90","pricing_plan_id":"cebpf4jnsgd1na2vs0mg"},{"bike_id":"f7531614-5f6b-42a5-8f8c-1def99fe8745","system_id":"levelo_inurba_marseille","lat":43.2558,"lon":5.38243,"is_reserved":false,"is_disabled":false,"rental_uris":{"android":"levelo://app?vid=f7531614-5f6b-42a5-8f8c-1def99fe8745","ios":"levelo://app?vid=f7531614-5f6b-42a5-8f8c-1def99fe8745"},"vehicle_type_id":"4","last_reported":1727607975,"current_range_meters":8800,"station_id":"ce4bhih2rcd13ifvqfs0","pricing_plan_id":"cebpf4jnsgd1na2vs0mg"},{"bike_id":"b6045711-fac2-4bbf-b0fa-19eb855105f7","system_id":"levelo_inurba_marseille","lat":43.28267,"lon":5.35068,"is_reserved":false,"is_disabled":false,"rental_uris":{"android":"levelo://app?vid=b6045711-fac2-4bbf-b0fa-19eb855105f7","ios":"levelo://app?vid=b6045711-fac2-4bbf-b0fa-19eb855105f7"},"vehicle_type_id":"4","last_reported":1727607975,"current_range_meters":8000,"station_id":"ce4bhbp2rcd13ifvqerg","pricing_plan_id":"cebpf4jnsgd1na2vs0mg"},{"bike_id":"eed3389b-a071-427c-a2c0-4401ca8c411e","system_id":"levelo_inurba_marseille","lat":43.27617,"lon":5.36108,"is_reserved":false,"is_disabled":false,"rental_uris":{"android":"levelo://app?vid=eed3389b-a071-427c-a2c0-4401ca8c411e","ios":"levelo://app?vid=eed3389b-a071-427c-a2c0-4401ca8c411e"},"vehicle_type_id":"4","last_reported":1727607975,"current_range_meters":28000,"station_id":"ce4bgj92rcd13ifvqbe0","pricing_plan_id":"cebpf4jnsgd1na2vs0mg"},{"bike_id":"5220e7ba-5183-450c-986e-1a09b217d618","system_id":"levelo_inurba_marseille","lat":43.28267,"lon":5.35065,"is_reserved":false,"is_disabled":false,"rental_uris":{"android":"levelo://app?vid=5220e7ba-5183-450c-986e-1a09b217d618","ios":"levelo://app?vid=5220e7ba-5183-450c-986e-1a09b217d618"},"vehicle_type_id":"4","last_reported":1727607975,"current_range_meters":38000,"station_id":"ce4bhbp2rcd13ifvqerg","pricing_plan_id":"cebpf4jnsgd1na2vs0mg"},{"bike_id":"d7bd876d-8a98-4407-a40b-1e889505c9b6","system_id":"levelo_inurba_marseille","lat":43.29169,"lon":5.37161,"is_reserved":false,"is_disabled":false,"rental_uris":{"android":"levelo://app?vid=d7bd876d-8a98-4407-a40b-1e889505c9b6","ios":"levelo://app?vid=d7bd876d-8a98-4407-a40b-1e889505c9b6"},"vehicle_type_id":"4","last_reported":1727607975,"current_range_meters":26000,"station_id":"ce4bha92rcd13ifvqeh0","pricing_plan_id":"cebpf4jnsgd1na2vs0mg"},{"bike_id":"2002ed66-522f-4647-b366-7956a8d593c3","system_id":"levelo_inurba_marseille","lat":43.289435,"lon":5.366359,"is_reserved":false,"is_disabled":false,"rental_uris":{"android":"levelo://app?vid=2002ed66-522f-4647-b366-7956a8d593c3","ios":"levelo://app?vid=2002ed66-522f-4647-b366-7956a8d593c3"},"vehicle_type_id":"4","last_reported":1727607975,"current_range_meters":22800,"station_id":"ce4bhap2rcd13ifvqek0","pricing_plan_id":"cebpf4jnsgd1na2vs0mg"},{"bike_id":"7dad3a58-67e8-4e41-a4ff-66ade5c62965","system_id":"levelo_inurba_marseille","lat":43.25577,"lon":5.38232,"is_reserved":false,"is_disabled":false,"rental_uris":{"android":"levelo://app?vid=7dad3a58-67e8-4e41-a4ff-66ade5c62965","ios":"levelo://app?vid=7dad3a58-67e8-4e41-a4ff-66ade5c62965"},"vehicle_type_id":"4","last_reported":1727607975,"current_range_meters":26000,"station_id":"ce4bhih2rcd13ifvqfs0","pricing_plan_id":"cebpf4jnsgd1na2vs0mg"},{"bike_id":"ba1a4c98-548c-4467-9903-a34cd6f6e5d2","system_id":"levelo_inurba_marseille","lat":43.2678,"lon":5.39422,"is_reserved":false,"is_disabled":false,"rental_uris":{"android":"levelo://app?vid=ba1a4c98-548c-4467-9903-a34cd6f6e5d2","ios":"levelo://app?vid=ba1a4c98-548c-4467-9903-a34cd6f6e5d2"},"vehicle_type_id":"4","last_reported":1727607975,"current_range_meters":27200,"station_id":"ce4bhh12rcd13ifvqfg0","pricing_plan_id":"cebpf4jnsgd1na2vs0mg"},{"bike_id":"0e434049-1ea7-4678-bd3c-e4c7038da2f2","system_id":"levelo_inurba_marseille","lat":43.2842,"lon":5.34983,"is_reserved":false,"is_disabled":false,"rental_uris":{"android":"levelo://app?vid=0e434049-1ea7-4678-bd3c-e4c7038da2f2","ios":"levelo://app?vid=0e434049-1ea7-4678-bd3c-e4c7038da2f2"},"vehicle_type_id":"4","last_reported":1727607975,"current_range_meters":20400,"station_id":"ce4bhbh2rcd13ifvqepg","pricing_plan_id":"cebpf4jnsgd1na2vs0mg"},{"bike_id":"f46ba497-4d2c-4e85-8316-f4b61f940e13","system_id":"levelo_inurba_marseille","lat":43.31759,"lon":5.39021,"is_reserved":false,"is_disabled":false,"rental_uris":{"android":"levelo://app?vid=f46ba497-4d2c-4e85-8316-f4b61f940e13","ios":"levelo://app?vid=f46ba497-4d2c-4e85-8316-f4b61f940e13"},"vehicle_type_id":"4","last_reported":1727607975,"current_range_meters":6400,"station_id":"ce4bhqp2rcd13ifvqhng","pricing_plan_id":"cebpf4jnsgd1na2vs0mg"},{"bike_id":"b418d1ac-8a84-4c27-88a4-c7bf23f9d2d4","system_id":"levelo_inurba_marseille","lat":43.27372,"lon":5.36272,"is_reserved":false,"is_disabled":false,"rental_uris":{"android":"levelo://app?vid=b418d1ac-8a84-4c27-88a4-c7bf23f9d2d4","ios":"levelo://app?vid=b418d1ac-8a84-4c27-88a4-c7bf23f9d2d4"},"vehicle_type_id":"4","last_reported":1727607975,"current_range_meters":25600,"station_id":"ce4bhbh2rcd13ifvqeo0","pricing_plan_id":"cebpf4jnsgd1na2vs0mg"},{"bike_id":"41ca4c63-8def-4c31-9103-fc1045ebe4a5","system_id":"levelo_inurba_marseille","lat":43.23195,"lon":5.3555,"is_reserved":false,"is_disabled":false,"rental_uris":{"android":"levelo://app?vid=41ca4c63-8def-4c31-9103-fc1045ebe4a5","ios":"levelo://app?vid=41ca4c63-8def-4c31-9103-fc1045ebe4a5"},"vehicle_type_id":"4","last_reported":1727607975,"current_range_meters":25200,"station_id":"ce4bhu92rcd13ifvqi70","pricing_plan_id":"cebpf4jnsgd1na2vs0mg"},{"bike_id":"1915b929-f39d-40c8-a49b-0f69cdc26e73","system_id":"levelo_inurba_marseille","lat":43.28421,"lon":5.34976,"is_reserved":false,"is_disabled":false,"rental_uris":{"android":"levelo://app?vid=1915b929-f39d-40c8-a49b-0f69cdc26e73","ios":"levelo://app?vid=1915b929-f39d-40c8-a49b-0f69cdc26e73"},"vehicle_type_id":"4","last_reported":1727607975,"current_range_meters":20000,"station_id":"ce4bhbh2rcd13ifvqepg","pricing_plan_id":"cebpf4jnsgd1na2vs0mg"},{"bike_id":"16aef7bc-6e34-4da1-be38-669be00420e2","system_id":"levelo_inurba_marseille","lat":43.29894,"lon":5.43678,"is_reserved":false,"is_disabled":false,"rental_uris":{"android":"levelo://app?vid=16aef7bc-6e34-4da1-be38-669be00420e2","ios":"levelo://app?vid=16aef7bc-6e34-4da1-be38-669be00420e2"},"vehicle_type_id":"4","last_reported":1727607975,"current_range_meters":28800,"station_id":"ce4bhpp2rcd13ifvqhfg","pricing_plan_id":"cebpf4jnsgd1na2vs0mg"},{"bike_id":"39e46ce5-1c50-4f65-9529-d0ac01b50547","system_id":"levelo_inurba_marseille","lat":43.2721,"lon":5.39177,"is_reserved":false,"is_disabled":false,"rental_uris":{"android":"levelo://app?vid=39e46ce5-1c50-4f65-9529-d0ac01b50547","ios":"levelo://app?vid=39e46ce5-1c50-4f65-9529-d0ac01b50547"},"vehicle_type_id":"4","last_reported":1727607975,"current_range_meters":24400,"station_id":"ce4bhhp2rcd13ifvqfm0","pricing_plan_id":"cebpf4jnsgd1na2vs0mg"},{"bike_id":"d506f765-7389-4724-a7e4-a15c05a4de75","system_id":"levelo_inurba_marseille","lat":43.232,"lon":5.35544,"is_reserved":false,"is_disabled":false,"rental_uris":{"android":"levelo://app?vid=d506f765-7389-4724-a7e4-a15c05a4de75","ios":"levelo://app?vid=d506f765-7389-4724-a7e4-a15c05a4de75"},"vehicle_type_id":"4","last_reported":1727607975,"current_range_meters":22800,"station_id":"ce4bhu92rcd13ifvqi70","pricing_plan_id":"cebpf4jnsgd1na2vs0mg"},{"bike_id":"275b0a25-1a9f-498c-9202-be550b06c3de","system_id":"levelo_inurba_marseille","lat":43.3229,"lon":5.38281,"is_reserved":false,"is_disabled":false,"rental_uris":{"android":"levelo://app?vid=275b0a25-1a9f-498c-9202-be550b06c3de","ios":"levelo://app?vid=275b0a25-1a9f-498c-9202-be550b06c3de"},"vehicle_type_id":"4","last_reported":1727607975,"current_range_meters":38800,"station_id":"ce4bhr12rcd13ifvqhqg","pricing_plan_id":"cebpf4jnsgd1na2vs0mg"},{"bike_id":"8a714b29-a9a4-4078-bdcb-18d364145bbe","system_id":"levelo_inurba_marseille","lat":43.31709,"lon":5.37742,"is_reserved":false,"is_disabled":false,"rental_uris":{"android":"levelo://app?vid=8a714b29-a9a4-4078-bdcb-18d364145bbe","ios":"levelo://app?vid=8a714b29-a9a4-4078-bdcb-18d364145bbe"},"vehicle_type_id":"4","last_reported":1727607975,"current_range_meters":27200,"station_id":"ce4bgth2rcd13ifvqch0","pricing_plan_id":"cebpf4jnsgd1na2vs0mg"},{"bike_id":"e0448498-1923-4013-96e2-5aec4fc93af7","system_id":"levelo_inurba_marseille","lat":43.24808,"lon":5.37454,"is_reserved":false,"is_disabled":false,"rental_uris":{"android":"levelo://app?vid=e0448498-1923-4013-96e2-5aec4fc93af7","ios":"levelo://app?vid=e0448498-1923-4013-96e2-5aec4fc93af7"},"vehicle_type_id":"4","last_reported":1727607975,"current_range_meters":35600,"station_id":"ce4bhgh2rcd13ifvqfb0","pricing_plan_id":"cebpf4jnsgd1na2vs0mg"},{"bike_id":"90bd98a8-64e4-485e-ae20-a830b64e6d1f","system_id":"levelo_inurba_marseille","lat":43.26209,"lon":5.37444,"is_reserved":false,"is_disabled":false,"rental_uris":{"android":"levelo://app?vid=90bd98a8-64e4-485e-ae20-a830b64e6d1f","ios":"levelo://app?vid=90bd98a8-64e4-485e-ae20-a830b64e6d1f"},"vehicle_type_id":"4","last_reported":1727607975,"current_range_meters":28400,"station_id":"ce4bhgp2rcd13ifvqfc0","pricing_plan_id":"cebpf4jnsgd1na2vs0mg"},{"bike_id":"34a5ea0a-624d-4116-9185-b8cc0665a894","system_id":"levelo_inurba_marseille","lat":43.27212,"lon":5.3919,"is_reserved":false,"is_disabled":false,"rental_uris":{"android":"levelo://app?vid=34a5ea0a-624d-4116-9185-b8cc0665a894","ios":"levelo://app?vid=34a5ea0a-624d-4116-9185-b8cc0665a894"},"vehicle_type_id":"4","last_reported":1727607975,"current_range_meters":38000,"station_id":"ce4bhhp2rcd13ifvqfm0","pricing_plan_id":"cebpf4jnsgd1na2vs0mg"},{"bike_id":"0c3f0369-7cdf-4cba-a0db-09435ab8c8da","system_id":"levelo_inurba_marseille","lat":43.23185,"lon":5.39996,"is_reserved":false,"is_disabled":false,"rental_uris":{"android":"levelo://app?vid=0c3f0369-7cdf-4cba-a0db-09435ab8c8da","ios":"levelo://app?vid=0c3f0369-7cdf-4cba-a0db-09435ab8c8da"},"vehicle_type_id":"4","last_reported":1727607975,"current_range_meters":26800,"station_id":"ce4bhn12rcd13ifvqgqg","pricing_plan_id":"cebpf4jnsgd1na2vs0mg"},{"bike_id":"ab27cdf1-3589-4587-9c82-d8e8cc80b808","system_id":"levelo_inurba_marseille","lat":43.2827,"lon":5.35076,"is_reserved":false,"is_disabled":false,"rental_uris":{"android":"levelo://app?vid=ab27cdf1-3589-4587-9c82-d8e8cc80b808","ios":"levelo://app?vid=ab27cdf1-3589-4587-9c82-d8e8cc80b808"},"vehicle_type_id":"4","last_reported":1727607975,"current_range_meters":19600,"station_id":"ce4bhbp2rcd13ifvqerg","pricing_plan_id":"cebpf4jnsgd1na2vs0mg"},{"bike_id":"795a78bc-cd58-4416-bc36-4b5949ab34b5","system_id":"levelo_inurba_marseille","lat":43.29258,"lon":5.40131,"is_reserved":false,"is_disabled":false,"rental_uris":{"android":"levelo://app?vid=795a78bc-cd58-4416-bc36-4b5949ab34b5","ios":"levelo://app?vid=795a78bc-cd58-4416-bc36-4b5949ab34b5"},"vehicle_type_id":"4","last_reported":1727607975,"current_range_meters":36800,"station_id":"ce4bh312rcd13ifvqdk0","pricing_plan_id":"cebpf4jnsgd1na2vs0mg"},{"bike_id":"1b89fa20-6646-4f25-9318-35703e24f767","system_id":"levelo_inurba_marseille","lat":43.25493,"lon":5.37651,"is_reserved":false,"is_disabled":false,"rental_uris":{"android":"levelo://app?vid=1b89fa20-6646-4f25-9318-35703e24f767","ios":"levelo://app?vid=1b89fa20-6646-4f25-9318-35703e24f767"},"vehicle_type_id":"4","last_reported":1727607975,"current_range_meters":38800,"station_id":"ce4bhh12rcd13ifvqff0","pricing_plan_id":"cebpf4jnsgd1na2vs0mg"},{"bike_id":"578ce527-fa82-4bc5-9233-45e69a86eb22","system_id":"levelo_inurba_marseille","lat":43.31993,"lon":5.38142,"is_reserved":false,"is_disabled":false,"rental_uris":{"android":"levelo://app?vid=578ce527-fa82-4bc5-9233-45e69a86eb22","ios":"levelo://app?vid=578ce527-fa82-4bc5-9233-45e69a86eb22"},"vehicle_type_id":"4","last_reported":1727607975,"current_range_meters":38000,"station_id":"ce4bhr12rcd13ifvqhpg","pricing_plan_id":"cebpf4jnsgd1na2vs0mg"},{"bike_id":"f9544fb1-c02e-4ef0-828d-b520c9bc1616","system_id":"levelo_inurba_marseille","lat":43.2439,"lon":5.37064,"is_reserved":false,"is_disabled":false,"rental_uris":{"android":"levelo://app?vid=f9544fb1-c02e-4ef0-828d-b520c9bc1616","ios":"levelo://app?vid=f9544fb1-c02e-4ef0-828d-b520c9bc1616"},"vehicle_type_id":"4","last_reported":1727607975,"current_range_meters":8400,"station_id":"ce4bhhh2rcd13ifvqfk0","pricing_plan_id":"cebpf4jnsgd1na2vs0mg"},{"bike_id":"d8e32f1c-4c32-4777-922d-4d90b15b71c7","system_id":"levelo_inurba_marseille","lat":43.30863,"lon":5.3685,"is_reserved":false,"is_disabled":false,"rental_uris":{"android":"levelo://app?vid=d8e32f1c-4c32-4777-922d-4d90b15b71c7","ios":"levelo://app?vid=d8e32f1c-4c32-4777-922d-4d90b15b71c7"},"vehicle_type_id":"4","last_reported":1727607975,"current_range_meters":4800,"station_id":"ce4bgn92rcd13ifvqbvg","pricing_plan_id":"cebpf4jnsgd1na2vs0mg"},{"bike_id":"47d1545d-5ccf-4b29-b332-e4bfd2de0a90","system_id":"levelo_inurba_marseille","lat":43.231813,"lon":5.39978,"is_reserved":false,"is_disabled":false,"rental_uris":{"android":"levelo://app?vid=47d1545d-5ccf-4b29-b332-e4bfd2de0a90","ios":"levelo://app?vid=47d1545d-5ccf-4b29-b332-e4bfd2de0a90"},"vehicle_type_id":"4","last_reported":1727607975,"current_range_meters":39200,"station_id":"ce4bhn12rcd13ifvqgqg","pricing_plan_id":"cebpf4jnsgd1na2vs0mg"},{"bike_id":"b470945e-f45c-4291-ac95-d7061c9aab44","system_id":"levelo_inurba_marseille","lat":43.27383,"lon":5.41222,"is_reserved":false,"is_disabled":false,"rental_uris":{"android":"levelo://app?vid=b470945e-f45c-4291-ac95-d7061c9aab44","ios":"levelo://app?vid=b470945e-f45c-4291-ac95-d7061c9aab44"},"vehicle_type_id":"4","last_reported":1727607975,"current_range_meters":24800,"station_id":"","pricing_plan_id":"cebpf4jnsgd1na2vs0mg"},{"bike_id":"87d1f0c2-fdc0-46eb-b239-1853d7e63022","system_id":"levelo_inurba_marseille","lat":43.23153,"lon":5.43715,"is_reserved":false,"is_disabled":false,"rental_uris":{"android":"levelo://app?vid=87d1f0c2-fdc0-46eb-b239-1853d7e63022","ios":"levelo://app?vid=87d1f0c2-fdc0-46eb-b239-1853d7e63022"},"vehicle_type_id":"4","last_reported":1727607975,"current_range_meters":37600,"station_id":"ce4bhmp2rcd13ifvqgog","pricing_plan_id":"cebpf4jnsgd1na2vs0mg"},{"bike_id":"31552421-58c2-42f5-aeeb-efc97a1f3415","system_id":"levelo_inurba_marseille","lat":43.28413,"lon":5.34987,"is_reserved":false,"is_disabled":false,"rental_uris":{"android":"levelo://app?vid=31552421-58c2-42f5-aeeb-efc97a1f3415","ios":"levelo://app?vid=31552421-58c2-42f5-aeeb-efc97a1f3415"},"vehicle_type_id":"4","last_reported":1727607975,"current_range_meters":38800,"station_id":"ce4bhbh2rcd13ifvqepg","pricing_plan_id":"cebpf4jnsgd1na2vs0mg"},{"bike_id":"40f372a6-0fbb-41e7-9458-773957806223","system_id":"levelo_inurba_marseille","lat":43.28708,"lon":5.39986,"is_reserved":false,"is_disabled":false,"rental_uris":{"android":"levelo://app?vid=40f372a6-0fbb-41e7-9458-773957806223","ios":"levelo://app?vid=40f372a6-0fbb-41e7-9458-773957806223"},"vehicle_type_id":"4","last_reported":1727607975,"current_range_meters":36800,"station_id":"ce4bho92rcd13ifvqh3g","pricing_plan_id":"cebpf4jnsgd1na2vs0mg"},{"bike_id":"e4361fa2-90d9-45ff-9d8a-e7b112f4e011","system_id":"levelo_inurba_marseille","lat":43.28509,"lon":5.39138,"is_reserved":false,"is_disabled":false,"rental_uris":{"android":"levelo://app?vid=e4361fa2-90d9-45ff-9d8a-e7b112f4e011","ios":"levelo://app?vid=e4361fa2-90d9-45ff-9d8a-e7b112f4e011"},"vehicle_type_id":"4","last_reported":1727607975,"current_range_meters":28400,"station_id":"ce4bh3p2rcd13ifvqdp0","pricing_plan_id":"cebpf4jnsgd1na2vs0mg"},{"bike_id":"784e9aa3-8d20-4b7c-8c0b-ace8237159c3","system_id":"levelo_inurba_marseille","lat":43.24168,"lon":5.36395,"is_reserved":false,"is_disabled":false,"rental_uris":{"android":"levelo://app?vid=784e9aa3-8d20-4b7c-8c0b-ace8237159c3","ios":"levelo://app?vid=784e9aa3-8d20-4b7c-8c0b-ace8237159c3"},"vehicle_type_id":"4","last_reported":1727607975,"current_range_meters":31200,"station_id":"cpo36qri1sfpv3e86is0","pricing_plan_id":"cebpf4jnsgd1na2vs0mg"},{"bike_id":"80819b60-8f79-4737-88f6-347632ea17b6","system_id":"levelo_inurba_marseille","lat":43.231903,"lon":5.355358,"is_reserved":false,"is_disabled":false,"rental_uris":{"android":"levelo://app?vid=80819b60-8f79-4737-88f6-347632ea17b6","ios":"levelo://app?vid=80819b60-8f79-4737-88f6-347632ea17b6"},"vehicle_type_id":"4","last_reported":1727607975,"current_range_meters":10000,"station_id":"ce4bhu92rcd13ifvqi70","pricing_plan_id":"cebpf4jnsgd1na2vs0mg"},{"bike_id":"367aa2cf-9ea5-4be7-9ba8-25c728f2309b","system_id":"levelo_inurba_marseille","lat":43.28711,"lon":5.3739,"is_reserved":false,"is_disabled":false,"rental_uris":{"android":"levelo://app?vid=367aa2cf-9ea5-4be7-9ba8-25c728f2309b","ios":"levelo://app?vid=367aa2cf-9ea5-4be7-9ba8-25c728f2309b"},"vehicle_type_id":"4","last_reported":1727607975,"current_range_meters":37600,"station_id":"ce4bh3p2rcd13ifvqdq0","pricing_plan_id":"cebpf4jnsgd1na2vs0mg"},{"bike_id":"60bdccac-9159-4846-86bb-6e345922127c","system_id":"levelo_inurba_marseille","lat":43.24081,"lon":5.37769,"is_reserved":false,"is_disabled":false,"rental_uris":{"android":"levelo://app?vid=60bdccac-9159-4846-86bb-6e345922127c","ios":"levelo://app?vid=60bdccac-9159-4846-86bb-6e345922127c"},"vehicle_type_id":"4","last_reported":1727607975,"current_range_meters":38000,"station_id":"ce4bhnp2rcd13ifvqgvg","pricing_plan_id":"cebpf4jnsgd1na2vs0mg"},{"bike_id":"882ba506-1a08-4072-8320-b36e698224c5","system_id":"levelo_inurba_marseille","lat":43.24171,"lon":5.36396,"is_reserved":false,"is_disabled":false,"rental_uris":{"android":"levelo://app?vid=882ba506-1a08-4072-8320-b36e698224c5","ios":"levelo://app?vid=882ba506-1a08-4072-8320-b36e698224c5"},"vehicle_type_id":"4","last_reported":1727607975,"current_range_meters":29600,"station_id":"cpo36qri1sfpv3e86is0","pricing_plan_id":"cebpf4jnsgd1na2vs0mg"},{"bike_id":"6eff8d2d-61fa-4715-9388-b30a052d3e98","system_id":"levelo_inurba_marseille","lat":43.337444,"lon":5.374475,"is_reserved":false,"is_disabled":false,"rental_uris":{"android":"levelo://app?vid=6eff8d2d-61fa-4715-9388-b30a052d3e98","ios":"levelo://app?vid=6eff8d2d-61fa-4715-9388-b30a052d3e98"},"vehicle_type_id":"4","last_reported":1727607975,"current_range_meters":28400,"station_id":"","pricing_plan_id":"cebpf4jnsgd1na2vs0mg"},{"bike_id":"008608c3-4ed6-421f-8543-daf51d61c54f","system_id":"levelo_inurba_marseille","lat":43.28152,"lon":5.42637,"is_reserved":false,"is_disabled":false,"rental_uris":{"android":"levelo://app?vid=008608c3-4ed6-421f-8543-daf51d61c54f","ios":"levelo://app?vid=008608c3-4ed6-421f-8543-daf51d61c54f"},"vehicle_type_id":"4","last_reported":1727607975,"current_range_meters":38000,"station_id":"ce4bhnh2rcd13ifvqgug","pricing_plan_id":"cebpf4jnsgd1na2vs0mg"},{"bike_id":"3fbe2bcb-7d20-4523-aec1-1148610f9d0a","system_id":"levelo_inurba_marseille","lat":43.28458,"lon":5.35883,"is_reserved":false,"is_disabled":false,"rental_uris":{"android":"levelo://app?vid=3fbe2bcb-7d20-4523-aec1-1148610f9d0a","ios":"levelo://app?vid=3fbe2bcb-7d20-4523-aec1-1148610f9d0a"},"vehicle_type_id":"4","last_reported":1727607975,"current_range_meters":15200,"station_id":"ce4bhah2rcd13ifvqei0","pricing_plan_id":"cebpf4jnsgd1na2vs0mg"},{"bike_id":"c97fd38a-bc70-43f2-8a77-8d2b4dfe59a8","system_id":"levelo_inurba_marseille","lat":43.264892,"lon":5.3954,"is_reserved":false,"is_disabled":false,"rental_uris":{"android":"levelo://app?vid=c97fd38a-bc70-43f2-8a77-8d2b4dfe59a8","ios":"levelo://app?vid=c97fd38a-bc70-43f2-8a77-8d2b4dfe59a8"},"vehicle_type_id":"4","last_reported":1727607975,"current_range_meters":26000,"station_id":"ce4bhi12rcd13ifvqfq0","pricing_plan_id":"cebpf4jnsgd1na2vs0mg"},{"bike_id":"c877c8e1-c413-45c5-88e9-3945d4d033c1","system_id":"levelo_inurba_marseille","lat":43.30477,"lon":5.37913,"is_reserved":false,"is_disabled":false,"rental_uris":{"android":"levelo://app?vid=c877c8e1-c413-45c5-88e9-3945d4d033c1","ios":"levelo://app?vid=c877c8e1-c413-45c5-88e9-3945d4d033c1"},"vehicle_type_id":"4","last_reported":1727607975,"current_range_meters":31200,"station_id":"ce4bgup2rcd13ifvqcn0","pricing_plan_id":"cebpf4jnsgd1na2vs0mg"},{"bike_id":"778169e3-eff4-4106-b677-301e2a61b516","system_id":"levelo_inurba_marseille","lat":43.27612,"lon":5.36116,"is_reserved":false,"is_disabled":false,"rental_uris":{"android":"levelo://app?vid=778169e3-eff4-4106-b677-301e2a61b516","ios":"levelo://app?vid=778169e3-eff4-4106-b677-301e2a61b516"},"vehicle_type_id":"4","last_reported":1727607975,"current_range_meters":29600,"station_id":"ce4bgj92rcd13ifvqbe0","pricing_plan_id":"cebpf4jnsgd1na2vs0mg"},{"bike_id":"4134e220-84ab-40b8-a9b6-3b004d205007","system_id":"levelo_inurba_marseille","lat":43.3361,"lon":5.41026,"is_reserved":false,"is_disabled":false,"rental_uris":{"android":"levelo://app?vid=4134e220-84ab-40b8-a9b6-3b004d205007","ios":"levelo://app?vid=4134e220-84ab-40b8-a9b6-3b004d205007"},"vehicle_type_id":"4","last_reported":1727607975,"current_range_meters":4800,"station_id":"ce4bhqh2rcd13ifvqhmg","pricing_plan_id":"cebpf4jnsgd1na2vs0mg"},{"bike_id":"49103c36-092f-43a6-a665-96ac4218adb8","system_id":"levelo_inurba_marseille","lat":43.32282,"lon":5.38272,"is_reserved":false,"is_disabled":false,"rental_uris":{"android":"levelo://app?vid=49103c36-092f-43a6-a665-96ac4218adb8","ios":"levelo://app?vid=49103c36-092f-43a6-a665-96ac4218adb8"},"vehicle_type_id":"4","last_reported":1727607975,"current_range_meters":38800,"station_id":"ce4bhr12rcd13ifvqhqg","pricing_plan_id":"cebpf4jnsgd1na2vs0mg"},{"bike_id":"42c9a8df-d1cf-43c5-a8f3-8c299fb29a8e","system_id":"levelo_inurba_marseille","lat":43.29853,"lon":5.36283,"is_reserved":false,"is_disabled":false,"rental_uris":{"android":"levelo://app?vid=42c9a8df-d1cf-43c5-a8f3-8c299fb29a8e","ios":"levelo://app?vid=42c9a8df-d1cf-43c5-a8f3-8c299fb29a8e"},"vehicle_type_id":"4","last_reported":1727607975,"current_range_meters":15200,"station_id":"ce4bgpp2rcd13ifvqc3g","pricing_plan_id":"cebpf4jnsgd1na2vs0mg"},{"bike_id":"4b1f50dd-cb8e-4519-98d8-cde4101de809","system_id":"levelo_inurba_marseille","lat":43.28438,"lon":5.39188,"is_reserved":false,"is_disabled":false,"rental_uris":{"android":"levelo://app?vid=4b1f50dd-cb8e-4519-98d8-cde4101de809","ios":"levelo://app?vid=4b1f50dd-cb8e-4519-98d8-cde4101de809"},"vehicle_type_id":"4","last_reported":1727607975,"current_range_meters":40000,"station_id":"ce4bhoh2rcd13ifvqh5g","pricing_plan_id":"cebpf4jnsgd1na2vs0mg"},{"bike_id":"3070f7f5-87d1-48c6-9d6a-4058e10eb929","system_id":"levelo_inurba_marseille","lat":43.255686,"lon":5.40704,"is_reserved":false,"is_disabled":false,"rental_uris":{"android":"levelo://app?vid=3070f7f5-87d1-48c6-9d6a-4058e10eb929","ios":"levelo://app?vid=3070f7f5-87d1-48c6-9d6a-4058e10eb929"},"vehicle_type_id":"4","last_reported":1727607975,"current_range_meters":25200,"station_id":"","pricing_plan_id":"cebpf4jnsgd1na2vs0mg"},{"bike_id":"6f0f9c32-de70-4574-9b89-cca29ab0554e","system_id":"levelo_inurba_marseille","lat":43.337444,"lon":5.374475,"is_reserved":false,"is_disabled":false,"rental_uris":{"android":"levelo://app?vid=6f0f9c32-de70-4574-9b89-cca29ab0554e","ios":"levelo://app?vid=6f0f9c32-de70-4574-9b89-cca29ab0554e"},"vehicle_type_id":"4","last_reported":1727607975,"current_range_meters":26800,"station_id":"","pricing_plan_id":"cebpf4jnsgd1na2vs0mg"},{"bike_id":"74b1582b-aa9c-40f4-a41e-d47b28f4fab4","system_id":"levelo_inurba_marseille","lat":43.23171,"lon":5.39999,"is_reserved":false,"is_disabled":false,"rental_uris":{"android":"levelo://app?vid=74b1582b-aa9c-40f4-a41e-d47b28f4fab4","ios":"levelo://app?vid=74b1582b-aa9c-40f4-a41e-d47b28f4fab4"},"vehicle_type_id":"4","last_reported":1727607975,"current_range_meters":38800,"station_id":"ce4bhn12rcd13ifvqgqg","pricing_plan_id":"cebpf4jnsgd1na2vs0mg"},{"bike_id":"44839918-e841-4578-a34d-4d8014b09bc8","system_id":"levelo_inurba_marseille","lat":43.3124,"lon":5.36868,"is_reserved":false,"is_disabled":false,"rental_uris":{"android":"levelo://app?vid=44839918-e841-4578-a34d-4d8014b09bc8","ios":"levelo://app?vid=44839918-e841-4578-a34d-4d8014b09bc8"},"vehicle_type_id":"4","last_reported":1727607975,"current_range_meters":38000,"station_id":"ce4bgl92rcd13ifvqbq0","pricing_plan_id":"cebpf4jnsgd1na2vs0mg"},{"bike_id":"b9897cf6-b27e-4987-8a36-ce737823aa7b","system_id":"levelo_inurba_marseille","lat":43.32288,"lon":5.38265,"is_reserved":false,"is_disabled":false,"rental_uris":{"android":"levelo://app?vid=b9897cf6-b27e-4987-8a36-ce737823aa7b","ios":"levelo://app?vid=b9897cf6-b27e-4987-8a36-ce737823aa7b"},"vehicle_type_id":"4","last_reported":1727607975,"current_range_meters":38800,"station_id":"ce4bhr12rcd13ifvqhqg","pricing_plan_id":"cebpf4jnsgd1na2vs0mg"},{"bike_id":"0687a646-be72-47a3-8907-22e0afb02a46","system_id":"levelo_inurba_marseille","lat":43.23954,"lon":5.36633,"is_reserved":false,"is_disabled":false,"rental_uris":{"android":"levelo://app?vid=0687a646-be72-47a3-8907-22e0afb02a46","ios":"levelo://app?vid=0687a646-be72-47a3-8907-22e0afb02a46"},"vehicle_type_id":"4","last_reported":1727607975,"current_range_meters":30400,"station_id":"ce4bhi12rcd13ifvqfp0","pricing_plan_id":"cebpf4jnsgd1na2vs0mg"},{"bike_id":"b6447ecc-99f1-4162-b827-bd67ee6b9636","system_id":"levelo_inurba_marseille","lat":43.23062,"lon":5.35487,"is_reserved":false,"is_disabled":false,"rental_uris":{"android":"levelo://app?vid=b6447ecc-99f1-4162-b827-bd67ee6b9636","ios":"levelo://app?vid=b6447ecc-99f1-4162-b827-bd67ee6b9636"},"vehicle_type_id":"4","last_reported":1727607975,"current_range_meters":24800,"station_id":"cpo3342slgdg3j2ifvpg","pricing_plan_id":"cebpf4jnsgd1na2vs0mg"},{"bike_id":"a42a0e90-05bf-4689-823a-4687937d4342","system_id":"levelo_inurba_marseille","lat":43.323384,"lon":5.406249,"is_reserved":false,"is_disabled":false,"rental_uris":{"android":"levelo://app?vid=a42a0e90-05bf-4689-823a-4687937d4342","ios":"levelo://app?vid=a42a0e90-05bf-4689-823a-4687937d4342"},"vehicle_type_id":"4","last_reported":1727607975,"current_range_meters":36000,"station_id":"ce4bhq92rcd13ifvqhjg","pricing_plan_id":"cebpf4jnsgd1na2vs0mg"},{"bike_id":"7f78eaba-c1e7-4b49-b277-b9f053bd9b7f","system_id":"levelo_inurba_marseille","lat":43.24667,"lon":5.38158,"is_reserved":false,"is_disabled":false,"rental_uris":{"android":"levelo://app?vid=7f78eaba-c1e7-4b49-b277-b9f053bd9b7f","ios":"levelo://app?vid=7f78eaba-c1e7-4b49-b277-b9f053bd9b7f"},"vehicle_type_id":"4","last_reported":1727607975,"current_range_meters":38800,"station_id":"ce4bhih2rcd13ifvqfr0","pricing_plan_id":"cebpf4jnsgd1na2vs0mg"},{"bike_id":"90c05d40-f5db-4a12-95b3-f8d41ae2e51b","system_id":"levelo_inurba_marseille","lat":43.32377,"lon":5.3892,"is_reserved":false,"is_disabled":false,"rental_uris":{"android":"levelo://app?vid=90c05d40-f5db-4a12-95b3-f8d41ae2e51b","ios":"levelo://app?vid=90c05d40-f5db-4a12-95b3-f8d41ae2e51b"},"vehicle_type_id":"4","last_reported":1727607975,"current_range_meters":30400,"station_id":"ce4bhqp2rcd13ifvqhog","pricing_plan_id":"cebpf4jnsgd1na2vs0mg"},{"bike_id":"33b75244-6d6c-4c14-8270-23cb959974d6","system_id":"levelo_inurba_marseille","lat":43.299687,"lon":5.384922,"is_reserved":false,"is_disabled":false,"rental_uris":{"android":"levelo://app?vid=33b75244-6d6c-4c14-8270-23cb959974d6","ios":"levelo://app?vid=33b75244-6d6c-4c14-8270-23cb959974d6"},"vehicle_type_id":"4","last_reported":1727607975,"current_range_meters":10800,"station_id":"ce4bhgp2rcd13ifvqfe0","pricing_plan_id":"cebpf4jnsgd1na2vs0mg"},{"bike_id":"b7d8bc6d-21b4-411f-98e2-7dcf133852e7","system_id":"levelo_inurba_marseille","lat":43.28271,"lon":5.35071,"is_reserved":false,"is_disabled":false,"rental_uris":{"android":"levelo://app?vid=b7d8bc6d-21b4-411f-98e2-7dcf133852e7","ios":"levelo://app?vid=b7d8bc6d-21b4-411f-98e2-7dcf133852e7"},"vehicle_type_id":"4","last_reported":1727607975,"current_range_meters":27600,"station_id":"ce4bhbp2rcd13ifvqerg","pricing_plan_id":"cebpf4jnsgd1na2vs0mg"},