{"last_updated":1701414402,"ttl":30,"version":"2.2","data":{"bikes":[{"bike_id":"43209ecc-ad5a-4d7c-b7f8-760c175fe4ac","system_id":"levelo_inurba_marseille","lat":43.313391,"lon":5.36706,"is_reserved":false,"is_disabled":false,"rental_uris":{"android":"levelo://app?vid=43209ecc-ad5a-4d7c-b7f8-760c175fe4ac","ios":"levelo://app?vid=43209ecc-ad5a-4d7c-b7f8-760c175fe4ac"},"vehicle_type_id":"4","last_reported":1701414402,"current_range_meters":24800,"station_id":"ce4bgr92rcd13ifvqc6g","pricing_plan_id":"free"},{"bike_id":"f7c86f2e-3d0c-4539-be9d-3162ed85a55c","system_id":"levelo_inurba_marseille","lat":43.313391,"lon":5.36706,"is_reserved":false,"is_disabled":false,"rental_uris":{"android":"levelo://app?vid=f7c86f2e-3d0c-4539-be9d-3162ed85a55c","ios":"levelo://app?vid=f7c86f2e-3d0c-4539-be9d-3162ed85a55c"},"vehicle_type_id":"4","last_reported":1701414402,"current_range_meters":31200,"station_id":"ce4bgr92rcd13ifvqc6g","pricing_plan_id":"free"},{"bike_id":"e225695c-6b0c-488a-96f7-746d030677d0","system_id":"levelo_inurba_marseille","lat":43.313391,"lon":5.36706,"is_reserved":false,"is_disabled":false,"rental_uris":{"android":"levelo://app?vid=e225695c-6b0c-488a-96f7-746d030677d0","ios":"levelo://app?vid=e225695c-6b0c-488a-96f7-746d030677d0"},"vehicle_type_id":"4","last_reported":1701414402,"current_range_meters":27600,"station_id":"ce4bgr92rcd13ifvqc6g","pricing_plan_id":"free"},{"bike_id":"84424b3c-f0af-42cc-8f27-8c2b7b783829","system_id":"levelo_inurba_marseille","lat":43.312239,"lon":5.368562,"is_reserved":false,"is_disabled":false,"rental_uris":{"android":"levelo://app?vid=84424b3c-f0af-42cc-8f27-8c2b7b783829","ios":"levelo://app?vid=84424b3c-f0af-42cc-8f27-8c2b7b783829"},"vehicle_type_id":"4","last_reported":1701414402,"current_range_meters":4400,"station_id":"ce4bgl92rcd13ifvqbq0","pricing_plan_id":"free"},{"bike_id":"fb94f8bb-8f58-458e-95ff-ee39f180726d","system_id":"levelo_inurba_marseille","lat":43.309076,"lon":5.368465,"is_reserved":false,"is_disabled":false,"rental_uris":{"android":"levelo://app?vid=fb94f8bb-8f58-458e-95ff-ee39f180726d","ios":"levelo://app?vid=fb94f8bb-8f58-458e-95ff-ee39f180726d"},"vehicle_type_id":"4","last_reported":1701414402,"current_range_meters":2000,"station_id":"ce4bgn92rcd13ifvqbvg","pricing_plan_id":"free"},{"bike_id":"8f16ac6f-a8d7-4472-8174-fdf1a7e66d17","system_id":"levelo_inurba_marseille","lat":43.309076,"lon":5.368465,"is_reserved":false,"is_disabled":false,"rental_uris":{"android":"levelo://app?vid=8f16ac6f-a8d7-4472-8174-fdf1a7e66d17","ios":"levelo://app?vid=8f16ac6f-a8d7-4472-8174-fdf1a7e66d17"},"vehicle_type_id":"4","last_reported":1701414402,"current_range_meters":27600,"station_id":"ce4bgn92rcd13ifvqbvg","pricing_plan_id":"free"},{"bike_id":"f09210a7-6334-41ab-a040-25a644ecaeab","system_id":"levelo_inurba_marseille","lat":43.309076,"lon":5.368465,"is_reserved":false,"is_disabled":false,"rental_uris":{"android":"levelo://app?vid=f09210a7-6334-41ab-a040-25a644ecaeab","ios":"levelo://app?vid=f09210a7-6334-41ab-a040-25a644ecaeab"},"vehicle_type_id":"4","last_reported":1701414402,"current_range_meters":31200,"station_id":"ce4bgn92rcd13ifvqbvg","pricing_plan_id":"free"},{"bike_id":"85ebfaaa-3017-45f3-906e-a6c2319c069c","system_id":"levelo_inurba_marseille","lat":43.308714,"lon":5.368598,"is_reserved":false,"is_disabled":false,"rental_uris":{"android":"levelo://app?vid=85ebfaaa-3017-45f3-906e-a6c2319c069c","ios":"levelo://app?vid=85ebfaaa-3017-45f3-906e-a6c2319c069c"},"vehicle_type_id":"4","last_reported":1701414402,"current_range_meters":11600,"station_id":"ce4bgn92rcd13ifvqbvg","pricing_plan_id":"free"},{"bike_id":"4b6258a8-2402-4797-b77b-3e183b380b2c","system_id":"levelo_inurba_marseille","lat":43.314811,"lon":5.373104,"is_reserved":false,"is_disabled":false,"rental_uris":{"android":"levelo://app?vid=4b6258a8-2402-4797-b77b-3e183b380b2c","ios":"levelo://app?vid=4b6258a8-2402-4797-b77b-3e183b380b2c"},"vehicle_type_id":"4","last_reported":1701414402,"current_range_meters":23200,"station_id":"ce4bgt12rcd13ifvqcd0","pricing_plan_id":"free"},{"bike_id":"93aede24-d704-4214-8acd-6209c9d60e25","system_id":"levelo_inurba_marseille","lat":43.30542,"lon":5.36717,"is_reserved":false,"is_disabled":false,"rental_uris":{"android":"levelo://app?vid=93aede24-d704-4214-8acd-6209c9d60e25","ios":"levelo://app?vid=93aede24-d704-4214-8acd-6209c9d60e25"},"vehicle_type_id":"4","last_reported":1701414402,"current_range_meters":4800,"station_id":"ce4bgrp2rcd13ifvqc9g","pricing_plan_id":"free"},{"bike_id":"38ac72cf-81da-4b9d-8ab8-ea080484fa2f","system_id":"levelo_inurba_marseille","lat":43.305394,"lon":5.367062,"is_reserved":false,"is_disabled":false,"rental_uris":{"android":"levelo://app?vid=38ac72cf-81da-4b9d-8ab8-ea080484fa2f","ios":"levelo://app?vid=38ac72cf-81da-4b9d-8ab8-ea080484fa2f"},"vehicle_type_id":"4","last_reported":1701414402,"current_range_meters":25600,"station_id":"ce4bgrp2rcd13ifvqc9g","pricing_plan_id":"free"},{"bike_id":"3b24f21f-f1f7-4d99-afea-2fa584e3d664","system_id":"levelo_inurba_marseille","lat":43.305706,"lon":5.365654,"is_reserved":false,"is_disabled":false,"rental_uris":{"android":"levelo://app?vid=3b24f21f-f1f7-4d99-afea-2fa584e3d664","ios":"levelo://app?vid=3b24f21f-f1f7-4d99-afea-2fa584e3d664"},"vehicle_type_id":"4","last_reported":1701414402,"current_range_meters":30000,"station_id":"ce4bgs12rcd13ifvqcag","pricing_plan_id":"free"},{"bike_id":"c73c99f3-f756-453d-952f-fd84f833d28b","system_id":"levelo_inurba_marseille","lat":43.305368,"lon":5.367343,"is_reserved":false,"is_disabled":false,"rental_uris":{"android":"levelo://app?vid=c73c99f3-f756-453d-952f-fd84f833d28b","ios":"levelo://app?vid=c73c99f3-f756-453d-952f-fd84f833d28b"},"vehicle_type_id":"4","last_reported":1701414402,"current_range_meters":25200,"station_id":"ce4bgrp2rcd13ifvqc9g","pricing_plan_id":"free"},{"bike_id":"081fc797-391d-4f24-9d91-ced3a512d87e","system_id":"levelo_inurba_marseille","lat":43.305706,"lon":5.365654,"is_reserved":false,"is_disabled":false,"rental_uris":{"android":"levelo://app?vid=081fc797-391d-4f24-9d91-ced3a512d87e","ios":"levelo://app?vid=081fc797-391d-4f24-9d91-ced3a512d87e"},"vehicle_type_id":"4","last_reported":1701414402,"current_range_meters":28000,"station_id":"ce4bgs12rcd13ifvqcag","pricing_plan_id":"free"},{"bike_id":"755aad5e-a352-4e7f-bd3a-c984d7ba6e7b","system_id":"levelo_inurba_marseille","lat":43.30534,"lon":5.36536,"is_reserved":false,"is_disabled":false,"rental_uris":{"android":"levelo://app?vid=755aad5e-a352-4e7f-bd3a-c984d7ba6e7b","ios":"levelo://app?vid=755aad5e-a352-4e7f-bd3a-c984d7ba6e7b"},"vehicle_type_id":"4","last_reported":1701414402,"current_range_meters":6000,"station_id":"ce4bgs12rcd13ifvqcag","pricing_plan_id":"free"},{"bike_id":"9204e4e9-9259-4b00-af32-cf1621761ebb","system_id":"levelo_inurba_marseille","lat":43.305706,"lon":5.365654,"is_reserved":false,"is_disabled":false,"rental_uris":{"android":"levelo://app?vid=9204e4e9-9259-4b00-af32-cf1621761ebb","ios":"levelo://app?vid=9204e4e9-9259-4b00-af32-cf1621761ebb"},"vehicle_type_id":"4","last_reported":1701414402,"current_range_meters":28400,"station_id":"ce4bgs12rcd13ifvqcag","pricing_plan_id":"free"},{"bike_id":"d7ce8719-5c14-4298-a2cb-186ffb506732","system_id":"levelo_inurba_marseille","lat":43.305368,"lon":5.367343,"is_reserved":false,"is_disabled":false,"rental_uris":{"android":"levelo://app?vid=d7ce8719-5c14-4298-a2cb-186ffb506732","ios":"levelo://app?vid=d7ce8719-5c14-4298-a2cb-186ffb506732"},"vehicle_type_id":"4","last_reported":1701414402,"current_range_meters":23200,"station_id":"ce4bgrp2rcd13ifvqc9g","pricing_plan_id":"free"},{"bike_id":"727d231a-d425-4d8f-ad3f-99b5a47572e8","system_id":"levelo_inurba_marseille","lat":43.30439,"lon":5.36753,"is_reserved":false,"is_disabled":false,"rental_uris":{"android":"levelo://app?vid=727d231a-d425-4d8f-ad3f-99b5a47572e8","ios":"levelo://app?vid=727d231a-d425-4d8f-ad3f-99b5a47572e8"},"vehicle_type_id":"4","last_reported":1701414402,"current_range_meters":29200,"station_id":"","pricing_plan_id":"free"},{"bike_id":"f427a2c3-6e4a-446b-ae2f-9be8aa7f4122","system_id":"levelo_inurba_marseille","lat":43.31719,"lon":5.376813,"is_reserved":false,"is_disabled":false,"rental_uris":{"android":"levelo://app?vid=f427a2c3-6e4a-446b-ae2f-9be8aa7f4122","ios":"levelo://app?vid=f427a2c3-6e4a-446b-ae2f-9be8aa7f4122"},"vehicle_type_id":"4","last_reported":1701414402,"current_range_meters":2800,"station_id":"","pricing_plan_id":"free"},{"bike_id":"e913f328-1e31-4c22-bd87-f809ea246de4","system_id":"levelo_inurba_marseille","lat":43.317168,"lon":5.376883,"is_reserved":false,"is_disabled":false,"rental_uris":{"android":"levelo://app?vid=e913f328-1e31-4c22-bd87-f809ea246de4","ios":"levelo://app?vid=e913f328-1e31-4c22-bd87-f809ea246de4"},"vehicle_type_id":"4","last_reported":1701414402,"current_range_meters":5200,"station_id":"","pricing_plan_id":"free"},{"bike_id":"1472dd3c-318e-4705-9847-d319e44e24ac","system_id":"levelo_inurba_marseille","lat":43.307945,"lon":5.376487,"is_reserved":false,"is_disabled":false,"rental_uris":{"android":"levelo://app?vid=1472dd3c-318e-4705-9847-d319e44e24ac","ios":"levelo://app?vid=1472dd3c-318e-4705-9847-d319e44e24ac"},"vehicle_type_id":"4","last_reported":1701414402,"current_range_meters":30800,"station_id":"ce4bgv92rcd13ifvqcq0","pricing_plan_id":"free"},{"bike_id":"9e5cd5bb-9665-43e5-a324-ea1a7ec8b6f8","system_id":"levelo_inurba_marseille","lat":43.307945,"lon":5.376487,"is_reserved":false,"is_disabled":false,"rental_uris":{"android":"levelo://app?vid=9e5cd5bb-9665-43e5-a324-ea1a7ec8b6f8","ios":"levelo://app?vid=9e5cd5bb-9665-43e5-a324-ea1a7ec8b6f8"},"vehicle_type_id":"4","last_reported":1701414402,"current_range_meters":31200,"station_id":"ce4bgv92rcd13ifvqcq0","pricing_plan_id":"free"},{"bike_id":"10fef5e5-3b10-49d6-abda-7e0064656bbb","system_id":"levelo_inurba_marseille","lat":43.317075,"lon":5.377367,"is_reserved":false,"is_disabled":false,"rental_uris":{"android":"levelo://app?vid=10fef5e5-3b10-49d6-abda-7e0064656bbb","ios":"levelo://app?vid=10fef5e5-3b10-49d6-abda-7e0064656bbb"},"vehicle_type_id":"4","last_reported":1701414402,"current_range_meters":27200,"station_id":"ce4bgth2rcd13ifvqch0","pricing_plan_id":"free"},{"bike_id":"914d24a3-f3d8-4a31-be66-aa0f8f7dfec9","system_id":"levelo_inurba_marseille","lat":43.303046,"lon":5.368981,"is_reserved":false,"is_disabled":false,"rental_uris":{"android":"levelo://app?vid=914d24a3-f3d8-4a31-be66-aa0f8f7dfec9","ios":"levelo://app?vid=914d24a3-f3d8-4a31-be66-aa0f8f7dfec9"},"vehicle_type_id":"4","last_reported":1701414402,"current_range_meters":26400,"station_id":"ce4bgqh2rcd13ifvqc5g","pricing_plan_id":"free"},{"bike_id":"b5e464c1-519d-485b-9f81-ccdb2aadafcb","system_id":"levelo_inurba_marseille","lat":43.30311,"lon":5.36903,"is_reserved":false,"is_disabled":false,"rental_uris":{"android":"levelo://app?vid=b5e464c1-519d-485b-9f81-ccdb2aadafcb","ios":"levelo://app?vid=b5e464c1-519d-485b-9f81-ccdb2aadafcb"},"vehicle_type_id":"4","last_reported":1701414402,"current_range_meters":28000,"station_id":"ce4bgqh2rcd13ifvqc5g","pricing_plan_id":"free"},{"bike_id":"5ed41bf5-a294-49c7-a24a-2849db411927","system_id":"levelo_inurba_marseille","lat":43.30304,"lon":5.368987,"is_reserved":false,"is_disabled":false,"rental_uris":{"android":"levelo://app?vid=5ed41bf5-a294-49c7-a24a-2849db411927","ios":"levelo://app?vid=5ed41bf5-a294-49c7-a24a-2849db411927"},"vehicle_type_id":"4","last_reported":1701414402,"current_range_meters":28000,"station_id":"ce4bgqh2rcd13ifvqc5g","pricing_plan_id":"free"},{"bike_id":"a353da53-2844-47b1-b7b8-563a86bb4f14","system_id":"levelo_inurba_marseille","lat":43.31539,"lon":5.380352,"is_reserved":false,"is_disabled":false,"rental_uris":{"android":"levelo://app?vid=a353da53-2844-47b1-b7b8-563a86bb4f14","ios":"levelo://app?vid=a353da53-2844-47b1-b7b8-563a86bb4f14"},"vehicle_type_id":"4","last_reported":1701414402,"current_range_meters":21600,"station_id":"ce4bhsp2rcd13ifvqi50","pricing_plan_id":"free"},{"bike_id":"2b0ef648-da9d-4706-857e-8fcf22593a79","system_id":"levelo_inurba_marseille","lat":43.30797,"lon":5.3816,"is_reserved":false,"is_disabled":false,"rental_uris":{"android":"levelo://app?vid=2b0ef648-da9d-4706-857e-8fcf22593a79","ios":"levelo://app?vid=2b0ef648-da9d-4706-857e-8fcf22593a79"},"vehicle_type_id":"4","last_reported":1701414402,"current_range_meters":25200,"station_id":"ce4bgt12rcd13ifvqce0","pricing_plan_id":"free"},{"bike_id":"4ff7e3bd-24b6-41b0-8c5a-3e31a2e92f90","system_id":"levelo_inurba_marseille","lat":43.30467,"lon":5.37899,"is_reserved":false,"is_disabled":false,"rental_uris":{"android":"levelo://app?vid=4ff7e3bd-24b6-41b0-8c5a-3e31a2e92f90","ios":"levelo://app?vid=4ff7e3bd-24b6-41b0-8c5a-3e31a2e92f90"},"vehicle_type_id":"4","last_reported":1701414402,"current_range_meters":31200,"station_id":"ce4bgup2rcd13ifvqcn0","pricing_plan_id":"free"},{"bike_id":"126f41ec-e91f-45bb-a3d6-771304ba64a8","system_id":"levelo_inurba_marseille","lat":43.304606,"lon":5.379026,"is_reserved":false,"is_disabled":false,"rental_uris":{"android":"levelo://app?vid=126f41ec-e91f-45bb-a3d6-771304ba64a8","ios":"levelo://app?vid=126f41ec-e91f-45bb-a3d6-771304ba64a8"},"vehicle_type_id":"4","last_reported":1701414402,"current_range_meters":4000,"station_id":"ce4bgup2rcd13ifvqcn0","pricing_plan_id":"free"},{"bike_id":"1c720aff-5e25-471c-b405-5764b99c9dc3","system_id":"levelo_inurba_marseille","lat":43.3047,"lon":5.37906,"is_reserved":false,"is_disabled":false,"rental_uris":{"android":"levelo://app?vid=1c720aff-5e25-471c-b405-5764b99c9dc3","ios":"levelo://app?vid=1c720aff-5e25-471c-b405-5764b99c9dc3"},"vehicle_type_id":"4","last_reported":1701414402,"current_range_meters":20400,"station_id":"ce4bgup2rcd13ifvqcn0","pricing_plan_id":"free"},{"bike_id":"f7adb753-1a14-40b9-9a57-926a5bae68e2","system_id":"levelo_inurba_marseille","lat":43.30469,"lon":5.37908,"is_reserved":false,"is_disabled":false,"rental_uris":{"android":"levelo://app?vid=f7adb753-1a14-40b9-9a57-926a5bae68e2","ios":"levelo://app?vid=f7adb753-1a14-40b9-9a57-926a5bae68e2"},"vehicle_type_id":"4","last_reported":1701414402,"current_range_meters":7600,"station_id":"ce4bgup2rcd13ifvqcn0","pricing_plan_id":"free"},{"bike_id":"6bff53ad-6daa-481c-a036-63fbfa5d5eac","system_id":"levelo_inurba_marseille","lat":43.304606,"lon":5.379026,"is_reserved":false,"is_disabled":false,"rental_uris":{"android":"levelo://app?vid=6bff53ad-6daa-481c-a036-63fbfa5d5eac","ios":"levelo://app?vid=6bff53ad-6daa-481c-a036-63fbfa5d5eac"},"vehicle_type_id":"4","last_reported":1701414402,"current_range_meters":18000,"station_id":"ce4bgup2rcd13ifvqcn0","pricing_plan_id":"free"},{"bike_id":"54102709-d40a-4a07-be13-4e690f637306","system_id":"levelo_inurba_marseille","lat":43.304606,"lon":5.379026,"is_reserved":false,"is_disabled":false,"rental_uris":{"android":"levelo://app?vid=54102709-d40a-4a07-be13-4e690f637306","ios":"levelo://app?vid=54102709-d40a-4a07-be13-4e690f637306"},"vehicle_type_id":"4","last_reported":1701414402,"current_range_meters":22000,"station_id":"ce4bgup2rcd13ifvqcn0","pricing_plan_id":"free"},{"bike_id":"8a16f0ce-9760-4f48-afee-eb1c791b3821","system_id":"levelo_inurba_marseille","lat":43.304606,"lon":5.379026,"is_reserved":false,"is_disabled":false,"rental_uris":{"android":"levelo://app?vid=8a16f0ce-9760-4f48-afee-eb1c791b3821","ios":"levelo://app?vid=8a16f0ce-9760-4f48-afee-eb1c791b3821"},"vehicle_type_id":"4","last_reported":1701414402,"current_range_meters":19200,"station_id":"ce4bgup2rcd13ifvqcn0","pricing_plan_id":"free"},{"bike_id":"e7849a79-33d7-4299-a52c-7564a8e92d24","system_id":"levelo_inurba_marseille","lat":43.304606,"lon":5.379026,"is_reserved":false,"is_disabled":false,"rental_uris":{"android":"levelo://app?vid=e7849a79-33d7-4299-a52c-7564a8e92d24","ios":"levelo://app?vid=e7849a79-33d7-4299-a52c-7564a8e92d24"},"vehicle_type_id":"4","last_reported":1701414402,"current_range_meters":26000,"station_id":"ce4bgup2rcd13ifvqcn0","pricing_plan_id":"free"},{"bike_id":"880d7e97-4f0c-410e-b29d-2668887708e3","system_id":"levelo_inurba_marseille","lat":43.30462,"lon":5.37907,"is_reserved":false,"is_disabled":false,"rental_uris":{"android":"levelo://app?vid=880d7e97-4f0c-410e-b29d-2668887708e3","ios":"levelo://app?vid=880d7e97-4f0c-410e-b29d-2668887708e3"},"vehicle_type_id":"4","last_reported":1701414402,"current_range_meters":30400,"station_id":"ce4bgup2rcd13ifvqcn0","pricing_plan_id":"free"},{"bike_id":"31dac493-d0d9-4c82-8c7e-d0b5c001f2f3","system_id":"levelo_inurba_marseille","lat":43.30462,"lon":5.37907,"is_reserved":false,"is_disabled":false,"rental_uris":{"android":"levelo://app?vid=31dac493-d0d9-4c82-8c7e-d0b5c001f2f3","ios":"levelo://app?vid=31dac493-d0d9-4c82-8c7e-d0b5c001f2f3"},"vehicle_type_id":"4","last_reported":1701414402,"current_range_meters":29200,"station_id":"ce4bgup2rcd13ifvqcn0","pricing_plan_id":"free"},{"bike_id":"2ce9b3ab-5b69-49a9-94c7-0364ab72961f","system_id":"levelo_inurba_marseille","lat":43.304606,"lon":5.379026,"is_reserved":false,"is_disabled":false,"rental_uris":{"android":"levelo://app?vid=2ce9b3ab-5b69-49a9-94c7-0364ab72961f","ios":"levelo://app?vid=2ce9b3ab-5b69-49a9-94c7-0364ab72961f"},"vehicle_type_id":"4","last_reported":1701414402,"current_range_meters":18800,"station_id":"ce4bgup2rcd13ifvqcn0","pricing_plan_id":"free"},{"bike_id":"68bd1b8e-0810-439e-bf52-cbf75242ae67","system_id":"levelo_inurba_marseille","lat":43.304613,"lon":5.37911,"is_reserved":false,"is_disabled":false,"rental_uris":{"android":"levelo://app?vid=68bd1b8e-0810-439e-bf52-cbf75242ae67","ios":"levelo://app?vid=68bd1b8e-0810-439e-bf52-cbf75242ae67"},"vehicle_type_id":"4","last_reported":1701414402,"current_range_meters":22800,"station_id":"ce4bgup2rcd13ifvqcn0","pricing_plan_id":"free"},{"bike_id":"94363c90-84bc-4415-a00d-9dc71a46942f","system_id":"levelo_inurba_marseille","lat":43.3046,"lon":5.3791,"is_reserved":false,"is_disabled":false,"rental_uris":{"android":"levelo://app?vid=94363c90-84bc-4415-a00d-9dc71a46942f","ios":"levelo://app?vid=94363c90-84bc-4415-a00d-9dc71a46942f"},"vehicle_type_id":"4","last_reported":1701414402,"current_range_meters":12000,"station_id":"ce4bgup2rcd13ifvqcn0","pricing_plan_id":"free"},{"bike_id":"13ab5075-5053-4a81-a27f-7147931c11fd","system_id":"levelo_inurba_marseille","lat":43.3046,"lon":5.379108,"is_reserved":false,"is_disabled":false,"rental_uris":{"android":"levelo://app?vid=13ab5075-5053-4a81-a27f-7147931c11fd","ios":"levelo://app?vid=13ab5075-5053-4a81-a27f-7147931c11fd"},"vehicle_type_id":"4","last_reported":1701414402,"current_range_meters":28400,"station_id":"ce4bgup2rcd13ifvqcn0","pricing_plan_id":"free"},{"bike_id":"46e16261-ae34-4ef3-bf0e-485782405f26","system_id":"levelo_inurba_marseille","lat":43.304606,"lon":5.379026,"is_reserved":false,"is_disabled":false,"rental_uris":{"android":"levelo://app?vid=46e16261-ae34-4ef3-bf0e-485782405f26","ios":"levelo://app?vid=46e16261-ae34-4ef3-bf0e-485782405f26"},"vehicle_type_id":"4","last_reported":1701414402,"current_range_meters":24800,"station_id":"ce4bgup2rcd13ifvqcn0","pricing_plan_id":"free"},{"bike_id":"169b9e0a-b5bd-4c90-b024-989cea584d2d","system_id":"levelo_inurba_marseille","lat":43.304601,"lon":5.37914,"is_reserved":false,"is_disabled":false,"rental_uris":{"android":"levelo://app?vid=169b9e0a-b5bd-4c90-b024-989cea584d2d","ios":"levelo://app?vid=169b9e0a-b5bd-4c90-b024-989cea584d2d"},"vehicle_type_id":"4","last_reported":1701414402,"current_range_meters":26400,"station_id":"ce4bgup2rcd13ifvqcn0","pricing_plan_id":"free"},{"bike_id":"7d29b552-0814-46c5-ab50-ed9c785b7d82","system_id":"levelo_inurba_marseille","lat":43.304606,"lon":5.379026,"is_reserved":false,"is_disabled":false,"rental_uris":{"android":"levelo://app?vid=7d29b552-0814-46c5-ab50-ed9c785b7d82","ios":"levelo://app?vid=7d29b552-0814-46c5-ab50-ed9c785b7d82"},"vehicle_type_id":"4","last_reported":1701414402,"current_range_meters":24800,"station_id":"ce4bgup2rcd13ifvqcn0","pricing_plan_id":"free"},{"bike_id":"7de4fb38-989e-45d8-a91f-2c5f9ae7481c","system_id":"levelo_inurba_marseille","lat":43.304606,"lon":5.379026,"is_reserved":false,"is_disabled":false,"rental_uris":{"android":"levelo://app?vid=7de4fb38-989e-45d8-a91f-2c5f9ae7481c","ios":"levelo://app?vid=7de4fb38-989e-45d8-a91f-2c5f9ae7481c"},"vehicle_type_id":"4","last_reported":1701414402,"current_range_meters":20400,"station_id":"ce4bgup2rcd13ifvqcn0","pricing_plan_id":"free"},{"bike_id":"549b6845-b50f-4b40-a9b2-732246af7221","system_id":"levelo_inurba_marseille","lat":43.304606,"lon":5.379026,"is_reserved":false,"is_disabled":false,"rental_uris":{"android":"levelo://app?vid=549b6845-b50f-4b40-a9b2-732246af7221","ios":"levelo://app?vid=549b6845-b50f-4b40-a9b2-732246af7221"},"vehicle_type_id":"4","last_reported":1701414402,"current_range_meters":30000,"station_id":"ce4bgup2rcd13ifvqcn0","pricing_plan_id":"free"},{"bike_id":"940d4650-04f8-468d-8a39-3f6e7d3a7490","system_id":"levelo_inurba_marseille","lat":43.299222,"lon":5.365554,"is_reserved":false,"is_disabled":false,"rental_uris":{"android":"levelo://app?vid=940d4650-04f8-468d-8a39-3f6e7d3a7490","ios":"levelo://app?vid=940d4650-04f8-468d-8a39-3f6e7d3a7490"},"vehicle_type_id":"4","last_reported":1701414402,"current_range_meters":18400,"station_id":"ce4bgm92rcd13ifvqbr0","pricing_plan_id":"free"},{"bike_id":"da8fdc14-b135-47aa-8f95-a944e5040e6f","system_id":"levelo_inurba_marseille","lat":43.302784,"lon":5.377158,"is_reserved":false,"is_disabled":false,"rental_uris":{"android":"levelo://app?vid=da8fdc14-b135-47aa-8f95-a944e5040e6f","ios":"levelo://app?vid=da8fdc14-b135-47aa-8f95-a944e5040e6f"},"vehicle_type_id":"4","last_reported":1701414402,"current_range_meters":4400,"station_id":"ce4bguh2rcd13ifvqcj0","pricing_plan_id":"free"},{"bike_id":"a7ca3d4c-28e3-48b3-bafa-5cc2ba79900d","system_id":"levelo_inurba_marseille","lat":43.31993,"lon":5.381462,"is_reserved":false,"is_disabled":false,"rental_uris":{"android":"levelo://app?vid=a7ca3d4c-28e3-48b3-bafa-5cc2ba79900d","ios":"levelo://app?vid=a7ca3d4c-28e3-48b3-bafa-5cc2ba79900d"},"vehicle_type_id":"4","last_reported":1701414402,"current_range_meters":14800,"station_id":"ce4bhr12rcd13ifvqhpg","pricing_plan_id":"free"},{"bike_id":"9a8c326a-2956-42d0-9bce-9c1da7b272ea","system_id":"levelo_inurba_marseille","lat":43.3199,"lon":5.38149,"is_reserved":false,"is_disabled":false,"rental_uris":{"android":"levelo://app?vid=9a8c326a-2956-42d0-9bce-9c1da7b272ea","ios":"levelo://app?vid=9a8c326a-2956-42d0-9bce-9c1da7b272ea"},"vehicle_type_id":"4","last_reported":1701414402,"current_range_meters":20000,"station_id":"ce4bhr12rcd13ifvqhpg","pricing_plan_id":"free"},{"bike_id":"be07e654-b565-424d-a729-0a9f3925cc3f","system_id":"levelo_inurba_marseille","lat":43.320001,"lon":5.381494,"is_reserved":false,"is_disabled":false,"rental_uris":{"android":"levelo://app?vid=be07e654-b565-424d-a729-0a9f3925cc3f","ios":"levelo://app?vid=be07e654-b565-424d-a729-0a9f3925cc3f"},"vehicle_type_id":"4","last_reported":1701414402,"current_range_meters":31200,"station_id":"ce4bhr12rcd13ifvqhpg","pricing_plan_id":"free"},{"bike_id":"2275aca5-3158-4c2c-8022-ca5d2714bc86","system_id":"levelo_inurba_marseille","lat":43.319997,"lon":5.381594,"is_reserved":false,"is_disabled":false,"rental_uris":{"android":"levelo://app?vid=2275aca5-3158-4c2c-8022-ca5d2714bc86","ios":"levelo://app?vid=2275aca5-3158-4c2c-8022-ca5d2714bc86"},"vehicle_type_id":"4","last_reported":1701414402,"current_range_meters":20000,"station_id":"ce4bhr12rcd13ifvqhpg","pricing_plan_id":"free"},{"bike_id":"72dcacfb-91e1-4c51-81ed-e191326091e3","system_id":"levelo_inurba_marseille","lat":43.313571,"lon":5.384829,"is_reserved":false,"is_disabled":false,"rental_uris":{"android":"levelo://app?vid=72dcacfb-91e1-4c51-81ed-e191326091e3","ios":"levelo://app?vid=72dcacfb-91e1-4c51-81ed-e191326091e3"},"vehicle_type_id":"4","last_reported":1701414402,"current_range_meters":28400,"station_id":"ce4bgt92rcd13ifvqcf0","pricing_plan_id":"free"},{"bike_id":"4c06f9be-7b97-4bdb-a530-fa10b066c687","system_id":"levelo_inurba_marseille","lat":43.298433,"lon":5.362774,"is_reserved":false,"is_disabled":false,"rental_uris":{"android":"levelo://app?vid=4c06f9be-7b97-4bdb-a530-fa10b066c687","ios":"levelo://app?vid=4c06f9be-7b97-4bdb-a530-fa10b066c687"},"vehicle_type_id":"4","last_reported":1701414402,"current_range_meters":25600,"station_id":"ce4bgpp2rcd13ifvqc3g","pricing_plan_id":"free"},{"bike_id":"aebb5f1f-3a1e-4323-a4f0-ae83e0b78d14","system_id":"levelo_inurba_marseille","lat":43.327603,"lon":5.36705,"is_reserved":false,"is_disabled":false,"rental_uris":{"android":"levelo://app?vid=aebb5f1f-3a1e-4323-a4f0-ae83e0b78d14","ios":"levelo://app?vid=aebb5f1f-3a1e-4323-a4f0-ae83e0b78d14"},"vehicle_type_id":"4","last_reported":1701414402,"current_range_meters":21600,"station_id":"","pricing_plan_id":"free"},{"bike_id":"b9c37d57-83f1-4b58-a5a8-25929728c821","system_id":"levelo_inurba_marseille","lat":43.297794,"lon":5.370888,"is_reserved":false,"is_disabled":false,"rental_uris":{"android":"levelo://app?vid=b9c37d57-83f1-4b58-a5a8-25929728c821","ios":"levelo://app?vid=b9c37d57-83f1-4b58-a5a8-25929728c821"},"vehicle_type_id":"4","last_reported":1701414402,"current_range_meters":31200,"station_id":"ce4bgop2rcd13ifvqc1g","pricing_plan_id":"free"},{"bike_id":"2484d89c-f06b-463b-bfb4-4415361ed078","system_id":"levelo_inurba_marseille","lat":43.328371,"lon":5.366909,"is_reserved":false,"is_disabled":false,"rental_uris":{"android":"levelo://app?vid=2484d89c-f06b-463b-bfb4-4415361ed078","ios":"levelo://app?vid=2484d89c-f06b-463b-bfb4-4415361ed078"},"vehicle_type_id":"4","last_reported":1701414402,"current_range_meters":20800,"station_id":"ce4bhs92rcd13ifvqi0g","pricing_plan_id":"free"},{"bike_id":"5983625d-69f5-485f-a399-daec2999c965","system_id":"levelo_inurba_marseille","lat":43.321543,"lon":5.385703,"is_reserved":false,"is_disabled":false,"rental_uris":{"android":"levelo://app?vid=5983625d-69f5-485f-a399-daec2999c965","ios":"levelo://app?vid=5983625d-69f5-485f-a399-daec2999c965"},"vehicle_type_id":"4","last_reported":1701414402,"current_range_meters":7200,"station_id":"","pricing_plan_id":"free"},{"bike_id":"d068864e-3768-4cb7-8f2c-e01febcf4d60","system_id":"levelo_inurba_marseille","lat":43.29622,"lon":5.3651,"is_reserved":false,"is_disabled":false,"rental_uris":{"android":"levelo://app?vid=d068864e-3768-4cb7-8f2c-e01febcf4d60","ios":"levelo://app?vid=d068864e-3768-4cb7-8f2c-e01febcf4d60"},"vehicle_type_id":"4","last_reported":1701414402,"current_range_meters":8800,"station_id":"","pricing_plan_id":"free"},{"bike_id":"93a47a4c-da94-4640-9ce0-c7dac066aa0a","system_id":"levelo_inurba_marseille","lat":43.295748,"lon":5.37522,"is_reserved":false,"is_disabled":false,"rental_uris":{"android":"levelo://app?vid=93a47a4c-da94-4640-9ce0-c7dac066aa0a","ios":"levelo://app?vid=93a47a4c-da94-4640-9ce0-c7dac066aa0a"},"vehicle_type_id":"4","last_reported":1701414402,"current_range_meters":24400,"station_id":"ce4bgh92rcd13ifvqb50","pricing_plan_id":"free"},{"bike_id":"68bc37ee-3d18-426f-9e55-ee7e44e1f1d6","system_id":"levelo_inurba_marseille","lat":43.298037,"lon":5.381066,"is_reserved":false,"is_disabled":false,"rental_uris":{"android":"levelo://app?vid=68bc37ee-3d18-426f-9e55-ee7e44e1f1d6","ios":"levelo://app?vid=68bc37ee-3d18-426f-9e55-ee7e44e1f1d6"},"vehicle_type_id":"4","last_reported":1701414402,"current_range_meters":26000,"station_id":"ce4bgip2rcd13ifvqbb0","pricing_plan_id":"free"},{"bike_id":"fc9b8af2-3e4d-4ad2-ac48-08a9e9433a1e","system_id":"levelo_inurba_marseille","lat":43.298037,"lon":5.381066,"is_reserved":false,"is_disabled":false,"rental_uris":{"android":"levelo://app?vid=fc9b8af2-3e4d-4ad2-ac48-08a9e9433a1e","ios":"levelo://app?vid=fc9b8af2-3e4d-4ad2-ac48-08a9e9433a1e"},"vehicle_type_id":"4","last_reported":1701414402,"current_range_meters":24400,"station_id":"ce4bgip2rcd13ifvqbb0","pricing_plan_id":"free"},{"bike_id":"3fbb6ba2-39d9-414d-9ed1-5ce1de0e42e1","system_id":"levelo_inurba_marseille","lat":43.298037,"lon":5.381066,"is_reserved":false,"is_disabled":false,"rental_uris":{"android":"levelo://app?vid=3fbb6ba2-39d9-414d-9ed1-5ce1de0e42e1","ios":"levelo://app?vid=3fbb6ba2-39d9-414d-9ed1-5ce1de0e42e1"},"vehicle_type_id":"4","last_reported":1701414402,"current_range_meters":22400,"station_id":"ce4bgip2rcd13ifvqbb0","pricing_plan_id":"free"},{"bike_id":"ecfccdfa-5e9a-4baf-af09-7c9bd80f39d4","system_id":"levelo_inurba_marseille","lat":43.298037,"lon":5.381066,"is_reserved":false,"is_disabled":false,"rental_uris":{"android":"levelo://app?vid=ecfccdfa-5e9a-4baf-af09-7c9bd80f39d4","ios":"levelo://app?vid=ecfccdfa-5e9a-4baf-af09-7c9bd80f39d4"},"vehicle_type_id":"4","last_reported":1701414402,"current_range_meters":9600,"station_id":"ce4bgip2rcd13ifvqbb0","pricing_plan_id":"free"},{"bike_id":"9ba88fe0-d56f-4706-a678-c899c5da9d1f","system_id":"levelo_inurba_marseille","lat":43.29596,"lon":5.37709,"is_reserved":false,"is_disabled":false,"rental_uris":{"android":"levelo://app?vid=9ba88fe0-d56f-4706-a678-c899c5da9d1f","ios":"levelo://app?vid=9ba88fe0-d56f-4706-a678-c899c5da9d1f"},"vehicle_type_id":"4","last_reported":1701414402,"current_range_meters":12800,"station_id":"ce4bgi92rcd13ifvqb90","pricing_plan_id":"free"},{"bike_id":"6c35799e-bdd3-4d2e-b90f-b36dc2143953","system_id":"levelo_inurba_marseille","lat":43.299717,"lon":5.384845,"is_reserved":false,"is_disabled":false,"rental_uris":{"android":"levelo://app?vid=6c35799e-bdd3-4d2e-b90f-b36dc2143953","ios":"levelo://app?vid=6c35799e-bdd3-4d2e-b90f-b36dc2143953"},"vehicle_type_id":"4","last_reported":1701414402,"current_range_meters":26000,"station_id":"ce4bgj92rcd13ifvqbd0","pricing_plan_id":"free"},{"bike_id":"eaa0e7e7-2390-47fa-909b-7b240952cbef","system_id":"levelo_inurba_marseille","lat":43.319466,"lon":5.392133,"is_reserved":false,"is_disabled":false,"rental_uris":{"android":"levelo://app?vid=eaa0e7e7-2390-47fa-909b-7b240952cbef","ios":"levelo://app?vid=eaa0e7e7-2390-47fa-909b-7b240952cbef"},"vehicle_type_id":"4","last_reported":1701414402,"current_range_meters":19200,"station_id":"","pricing_plan_id":"free"},{"bike_id":"0b50aa5b-e443-4f51-8754-c79e52e21384","system_id":"levelo_inurba_marseille","lat":43.296007,"lon":5.381077,"is_reserved":false,"is_disabled":false,"rental_uris":{"android":"levelo://app?vid=0b50aa5b-e443-4f51-8754-c79e52e21384","ios":"levelo://app?vid=0b50aa5b-e443-4f51-8754-c79e52e21384"},"vehicle_type_id":"4","last_reported":1701414402,"current_range_meters":28400,"station_id":"ce4bgl12rcd13ifvqbo0","pricing_plan_id":"free"},{"bike_id":"0cf73c37-adad-4db6-8f28-2d64e8ad63fc","system_id":"levelo_inurba_marseille","lat":43.29274,"lon":5.36851,"is_reserved":false,"is_disabled":false,"rental_uris":{"android":"levelo://app?vid=0cf73c37-adad-4db6-8f28-2d64e8ad63fc","ios":"levelo://app?vid=0cf73c37-adad-4db6-8f28-2d64e8ad63fc"},"vehicle_type_id":"4","last_reported":1701414402,"current_range_meters":30000,"station_id":"ce4bhbp2rcd13ifvqesg","pricing_plan_id":"free"},{"bike_id":"28dc62d3-af5e-4b65-bc4e-257064bbf30f","system_id":"levelo_inurba_marseille","lat":43.29273,"lon":5.36849,"is_reserved":false,"is_disabled":false,"rental_uris":{"android":"levelo://app?vid=28dc62d3-af5e-4b65-bc4e-257064bbf30f","ios":"levelo://app?vid=28dc62d3-af5e-4b65-bc4e-257064bbf30f"},"vehicle_type_id":"4","last_reported":1701414402,"current_range_meters":14000,"station_id":"","pricing_plan_id":"free"},{"bike_id":"9eb12e9e-fadd-4138-a16d-916fa5b8f9f5","system_id":"levelo_inurba_marseille","lat":43.305994,"lon":5.393687,"is_reserved":false,"is_disabled":false,"rental_uris":{"android":"levelo://app?vid=9eb12e9e-fadd-4138-a16d-916fa5b8f9f5","ios":"levelo://app?vid=9eb12e9e-fadd-4138-a16d-916fa5b8f9f5"},"vehicle_type_id":"4","last_reported":1701414402,"current_range_meters":22000,"station_id":"ce4bh0p2rcd13ifvqd80","pricing_plan_id":"free"},{"bike_id":"bfc5e6f2-11d4-444c-9c0a-2631e2f56f24","system_id":"levelo_inurba_marseille","lat":43.305994,"lon":5.393687,"is_reserved":false,"is_disabled":false,"rental_uris":{"android":"levelo://app?vid=bfc5e6f2-11d4-444c-9c0a-2631e2f56f24","ios":"levelo://app?vid=bfc5e6f2-11d4-444c-9c0a-2631e2f56f24"},"vehicle_type_id":"4","last_reported":1701414402,"current_range_meters":26000,"station_id":"ce4bh0p2rcd13ifvqd80","pricing_plan_id":"free"},{"bike_id":"4f9da175-52e8-4b0f-90fb-069fe8ac73e2","system_id":"levelo_inurba_marseille","lat":43.305994,"lon":5.393687,"is_reserved":false,"is_disabled":false,"rental_uris":{"android":"levelo://app?vid=4f9da175-52e8-4b0f-90fb-069fe8ac73e2","ios":"levelo://app?vid=4f9da175-52e8-4b0f-90fb-069fe8ac73e2"},"vehicle_type_id":"4","last_reported":1701414402,"current_range_meters":20400,"station_id":"ce4bh0p2rcd13ifvqd80","pricing_plan_id":"free"},{"bike_id":"0bc616f1-3965-4e6a-a28d-6884c2090eef","system_id":"levelo_inurba_marseille","lat":43.305994,"lon":5.393687,"is_reserved":false,"is_disabled":false,"rental_uris":{"android":"levelo://app?vid=0bc616f1-3965-4e6a-a28d-6884c2090eef","ios":"levelo://app?vid=0bc616f1-3965-4e6a-a28d-6884c2090eef"},"vehicle_type_id":"4","last_reported":1701414402,"current_range_meters":30800,"station_id":"ce4bh0p2rcd13ifvqd80","pricing_plan_id":"free"},{"bike_id":"6eaecade-4a49-4885-b8ea-43100472dd84","system_id":"levelo_inurba_marseille","lat":43.305994,"lon":5.393687,"is_reserved":false,"is_disabled":false,"rental_uris":{"android":"levelo://app?vid=6eaecade-4a49-4885-b8ea-43100472dd84","ios":"levelo://app?vid=6eaecade-4a49-4885-b8ea-43100472dd84"},"vehicle_type_id":"4","last_reported":1701414402,"current_range_meters":16400,"station_id":"ce4bh0p2rcd13ifvqd80","pricing_plan_id":"free"},{"bike_id":"eb87ebe4-d24d-45e1-9c7f-af807913bae1","system_id":"levelo_inurba_marseille","lat":43.305994,"lon":5.393687,"is_reserved":false,"is_disabled":false,"rental_uris":{"android":"levelo://app?vid=eb87ebe4-d24d-45e1-9c7f-af807913bae1","ios":"levelo://app?vid=eb87ebe4-d24d-45e1-9c7f-af807913bae1"},"vehicle_type_id":"4","last_reported":1701414402,"current_range_meters":27600,"station_id":"ce4bh0p2rcd13ifvqd80","pricing_plan_id":"free"},{"bike_id":"8fb5f779-4976-4174-b3b7-31768d6c8c90","system_id":"levelo_inurba_marseille","lat":43.305994,"lon":5.393687,"is_reserved":false,"is_disabled":false,"rental_uris":{"android":"levelo://app?vid=8fb5f779-4976-4174-b3b7-31768d6c8c90","ios":"levelo://app?vid=8fb5f779-4976-4174-b3b7-31768d6c8c90"},"vehicle_type_id":"4","last_reported":1701414402,"current_range_meters":11200,"station_id":"ce4bh0p2rcd13ifvqd80","pricing_plan_id":"free"},{"bike_id":"dcbd8cbf-dba9-4196-bfa4-fe4f73feb61e","system_id":"levelo_inurba_marseille","lat":43.305994,"lon":5.393687,"is_reserved":false,"is_disabled":false,"rental_uris":{"android":"levelo://app?vid=dcbd8cbf-dba9-4196-bfa4-fe4f73feb61e","ios":"levelo://app?vid=dcbd8cbf-dba9-4196-bfa4-fe4f73feb61e"},"vehicle_type_id":"4","last_reported":1701414402,"current_range_meters":15600,"station_id":"ce4bh0p2rcd13ifvqd80","pricing_plan_id":"free"},{"bike_id":"cb1222c0-1cf6-4c89-9526-31b0a8404144","system_id":"levelo_inurba_marseille","lat":43.2936,"lon":5.37835,"is_reserved":false,"is_disabled":false,"rental_uris":{"android":"levelo://app?vid=cb1222c0-1cf6-4c89-9526-31b0a8404144","ios":"levelo://app?vid=cb1222c0-1cf6-4c89-9526-31b0a8404144"},"vehicle_type_id":"4","last_reported":1701414402,"current_range_meters":31200,"station_id":"ce4bgjh2rcd13ifvqbf0","pricing_plan_id":"free"},{"bike_id":"fb95f99c-b71a-444d-a272-314c83ffa4b3","system_id":"levelo_inurba_marseille","lat":43.291675,"lon":5.371583,"is_reserved":false,"is_disabled":false,"rental_uris":{"android":"levelo://app?vid=fb95f99c-b71a-444d-a272-314c83ffa4b3","ios":"levelo://app?vid=fb95f99c-b71a-444d-a272-314c83ffa4b3"},"vehicle_type_id":"4","last_reported":1701414402,"current_range_meters":28400,"station_id":"ce4bha92rcd13ifvqeh0","pricing_plan_id":"free"},{"bike_id":"44fea5db-6020-4359-b6e7-19b5cd9dc896","system_id":"levelo_inurba_marseille","lat":43.292663,"lon":5.376394,"is_reserved":false,"is_disabled":false,"rental_uris":{"android":"levelo://app?vid=44fea5db-6020-4359-b6e7-19b5cd9dc896","ios":"levelo://app?vid=44fea5db-6020-4359-b6e7-19b5cd9dc896"},"vehicle_type_id":"4","last_reported":1701414402,"current_range_meters":23600,"station_id":"ce4bgi12rcd13ifvqb80","pricing_plan_id":"free"},{"bike_id":"39c172a7-89a2-4eed-a555-62b5bb19a35c","system_id":"levelo_inurba_marseille","lat":43.309038,"lon":5.396546,"is_reserved":false,"is_disabled":false,"rental_uris":{"android":"levelo://app?vid=39c172a7-89a2-4eed-a555-62b5bb19a35c","ios":"levelo://app?vid=39c172a7-89a2-4eed-a555-62b5bb19a35c"},"vehicle_type_id":"4","last_reported":1701414402,"current_range_meters":20400,"station_id":"ce4bh012rcd13ifvqcv0","pricing_plan_id":"free"},{"bike_id":"003e3848-9a2d-4a03-b685-53c7efbce624","system_id":"levelo_inurba_marseille","lat":43.313291,"lon":5.396838,"is_reserved":false,"is_disabled":false,"rental_uris":{"android":"levelo://app?vid=003e3848-9a2d-4a03-b685-53c7efbce624","ios":"levelo://app?vid=003e3848-9a2d-4a03-b685-53c7efbce624"},"vehicle_type_id":"4","last_reported":1701414402,"current_range_meters":28000,"station_id":"ce4bgvp2rcd13ifvqcu0","pricing_plan_id":"free"},{"bike_id":"9f2eb428-88a8-4f43-a17d-59e0b197ccca","system_id":"levelo_inurba_marseille","lat":43.289184,"lon":5.366408,"is_reserved":false,"is_disabled":false,"rental_uris":{"android":"levelo://app?vid=9f2eb428-88a8-4f43-a17d-59e0b197ccca","ios":"levelo://app?vid=9f2eb428-88a8-4f43-a17d-59e0b197ccca"},"vehicle_type_id":"4","last_reported":1701414402,"current_range_meters":20400,"station_id":"ce4bhap2rcd13ifvqek0","pricing_plan_id":"free"},{"bike_id":"4a0a7d53-884c-4dff-98e7-c88332d90929","system_id":"levelo_inurba_marseille","lat":43.289184,"lon":5.366408,"is_reserved":false,"is_disabled":false,"rental_uris":{"android":"levelo://app?vid=4a0a7d53-884c-4dff-98e7-c88332d90929","ios":"levelo://app?vid=4a0a7d53-884c-4dff-98e7-c88332d90929"},"vehicle_type_id":"4","last_reported":1701414402,"current_range_meters":25200,"station_id":"ce4bhap2rcd13ifvqek0","pricing_plan_id":"free"},{"bike_id":"d7c55ba6-0ad0-4bf6-b574-8c3b7464c2d7","system_id":"levelo_inurba_marseille","lat":43.330442,"lon":5.389148,"is_reserved":false,"is_disabled":false,"rental_uris":{"android":"levelo://app?vid=d7c55ba6-0ad0-4bf6-b574-8c3b7464c2d7","ios":"levelo://app?vid=d7c55ba6-0ad0-4bf6-b574-8c3b7464c2d7"},"vehicle_type_id":"4","last_reported":1701414402,"current_range_meters":28800,"station_id":"ce4bhr92rcd13ifvqhrg","pricing_plan_id":"free"},{"bike_id":"433c11ae-8306-4bbf-850d-086e9b9b8b2e","system_id":"levelo_inurba_marseille","lat":43.2909,"lon":5.381212,"is_reserved":false,"is_disabled":false,"rental_uris":{"android":"levelo://app?vid=433c11ae-8306-4bbf-850d-086e9b9b8b2e","ios":"levelo://app?vid=433c11ae-8306-4bbf-850d-086e9b9b8b2e"},"vehicle_type_id":"4","last_reported":1701414402,"current_range_meters":15600,"station_id":"ce4bh512rcd13ifvqe2g","pricing_plan_id":"free"},{"bike_id":"58ec4d0e-af7f-439c-afb1-5e36d8979a70","system_id":"levelo_inurba_marseille","lat":43.289743,"lon":5.378304,"is_reserved":false,"is_disabled":false,"rental_uris":{"android":"levelo://app?vid=58ec4d0e-af7f-439c-afb1-5e36d8979a70","ios":"levelo://app?vid=58ec4d0e-af7f-439c-afb1-5e36d8979a70"},"vehicle_type_id":"4","last_reported":1701414402,"current_range_meters":13600,"station_id":"ce4bh9p2rcd13ifvqed0","pricing_plan_id":"free"},{"bike_id":"6f880022-1421-4533-9c90-4930d6c26dfa","system_id":"levelo_inurba_marseille","lat":43.289743,"lon":5.378304,"is_reserved":false,"is_disabled":false,"rental_uris":{"android":"levelo://app?vid=6f880022-1421-4533-9c90-4930d6c26dfa","ios":"levelo://app?vid=6f880022-1421-4533-9c90-4930d6c26dfa"},"vehicle_type_id":"4","last_reported":1701414402,"current_range_meters":16400,"station_id":"ce4bh9p2rcd13ifvqed0","pricing_plan_id":"free"},{"bike_id":"feb01c55-0c85-4e99-846c-5ac8b9409648","system_id":"levelo_inurba_marseille","lat":43.289743,"lon":5.378304,"is_reserved":false,"is_disabled":false,"rental_uris":{"android":"levelo://app?vid=feb01c55-0c85-4e99-846c-5ac8b9409648","ios":"levelo://app?vid=feb01c55-0c85-4e99-846c-5ac8b9409648"},"vehicle_type_id":"4","last_reported":1701414402,"current_range_meters":27200,"station_id":"ce4bh9p2rcd13ifvqed0","pricing_plan_id":"free"},{"bike_id":"cd53260d-ed06-4ca6-9837-e110295b7e10","system_id":"levelo_inurba_marseille","lat":43.286961,"lon":5.373785,"is_reserved":false,"is_disabled":false,"rental_uris":{"android":"levelo://app?vid=cd53260d-ed06-4ca6-9837-e110295b7e10","ios":"levelo://app?vid=cd53260d-ed06-4ca6-9837-e110295b7e10"},"vehicle_type_id":"4","last_reported":1701414402,"current_range_meters":23200,"station_id":"ce4bh3p2rcd13ifvqdq0","pricing_plan_id":"free"},{"bike_id":"a2c112a6-58e1-4e8b-8be8-80d2c9d8d3d7","system_id":"levelo_inurba_marseille","lat":43.31265,"lon":5.401699,"is_reserved":false,"is_disabled":false,"rental_uris":{"android":"levelo://app?vid=a2c112a6-58e1-4e8b-8be8-80d2c9d8d3d7","ios":"levelo://app?vid=a2c112a6-58e1-4e8b-8be8-80d2c9d8d3d7"},"vehicle_type_id":"4","last_reported":1701414402,"current_range_meters":15600,"station_id":"","pricing_plan_id":"free"},{"bike_id":"893909e0-073b-4941-8588-c74be12a8858","system_id":"levelo_inurba_marseille","lat":43.287271,"lon":5.360837,"is_reserved":false,"is_disabled":false,"rental_uris":{"android":"levelo://app?vid=893909e0-073b-4941-8588-c74be12a8858","ios":"levelo://app?vid=893909e0-073b-4941-8588-c74be12a8858"},"vehicle_type_id":"4","last_reported":1701414402,"current_range_meters":11600,"station_id":"cki0cbj6b192h4jlfktg","pricing_plan_id":"free"},{"bike_id":"f950ad11-18dd-44f1-b288-cb9023e1b65f","system_id":"levelo_inurba_marseille","lat":43.28722,"lon":5.3608,"is_reserved":false,"is_disabled":false,"rental_uris":{"android":"levelo://app?vid=f950ad11-18dd-44f1-b288-cb9023e1b65f","ios":"levelo://app?vid=f950ad11-18dd-44f1-b288-cb9023e1b65f"},"vehicle_type_id":"4","last_reported":1701414402,"current_range_meters":24000,"station_id":"cki0cbj6b192h4jlfktg","pricing_plan_id":"free"},{"bike_id":"246292a8-49c4-4e1d-913d-f78fdc8f52ea","system_id":"levelo_inurba_marseille","lat":43.287213,"lon":5.36079,"is_reserved":false,"is_disabled":false,"rental_uris":{"android":"levelo://app?vid=246292a8-49c4-4e1d-913d-f78fdc8f52ea","ios":"levelo://app?vid=246292a8-49c4-4e1d-913d-f78fdc8f52ea"},"vehicle_type_id":"4","last_reported":1701414402,"current_range_meters":24800,"station_id":"cki0cbj6b192h4jlfktg","pricing_plan_id":"free"},{"bike_id":"8ac6422c-03ba-4141-8748-0a8c97adcc87","system_id":"levelo_inurba_marseille","lat":43.302759,"lon":5.400793,"is_reserved":false,"is_disabled":false,"rental_uris":{"android":"levelo://app?vid=8ac6422c-03ba-4141-8748-0a8c97adcc87","ios":"levelo://app?vid=8ac6422c-03ba-4141-8748-0a8c97adcc87"},"vehicle_type_id":"4","last_reported":1701414402,"current_range_meters":22400,"station_id":"ce4bgvh2rcd13ifvqcs0","pricing_plan_id":"free"},{"bike_id":"a1767352-1806-41e7-bbf6-288860a51627","system_id":"levelo_inurba_marseille","lat":43.290345,"lon":5.38646,"is_reserved":false,"is_disabled":false,"rental_uris":{"android":"levelo://app?vid=a1767352-1806-41e7-bbf6-288860a51627","ios":"levelo://app?vid=a1767352-1806-41e7-bbf6-288860a51627"},"vehicle_type_id":"4","last_reported":1701414402,"current_range_meters":10800,"station_id":"ce4bh4p2rcd13ifvqe0g","pricing_plan_id":"free"},{"bike_id":"51e80092-f709-463a-96a2-8b25587b914d","system_id":"levelo_inurba_marseille","lat":43.286039,"lon":5.370681,"is_reserved":false,"is_disabled":false,"rental_uris":{"android":"levelo://app?vid=51e80092-f709-463a-96a2-8b25587b914d","ios":"levelo://app?vid=51e80092-f709-463a-96a2-8b25587b914d"},"vehicle_type_id":"4","last_reported":1701414402,"current_range_meters":3200,"station_id":"ce4bht12rcd13ifvqi60","pricing_plan_id":"free"},{"bike_id":"748a4b12-b668-4fae-bf1a-b7df0017758a","system_id":"levelo_inurba_marseille","lat":43.28609,"lon":5.37057,"is_reserved":false,"is_disabled":false,"rental_uris":{"android":"levelo://app?vid=748a4b12-b668-4fae-bf1a-b7df0017758a","ios":"levelo://app?vid=748a4b12-b668-4fae-bf1a-b7df0017758a"},"vehicle_type_id":"4","last_reported":1701414402,"current_range_meters":31200,"station_id":"ce4bht12rcd13ifvqi60","pricing_plan_id":"free"},{"bike_id":"fb16c442-ef84-4544-844b-721657780160","system_id":"levelo_inurba_marseille","lat":43.283998,"lon":5.375062,"is_reserved":false,"is_disabled":false,"rental_uris":{"android":"levelo://app?vid=fb16c442-ef84-4544-844b-721657780160","ios":"levelo://app?vid=fb16c442-ef84-4544-844b-721657780160"},"vehicle_type_id":"4","last_reported":1701414402,"current_range_meters":22400,"station_id":"ce4bh412rcd13ifvqds0","pricing_plan_id":"free"},{"bike_id":"ffb59b9d-cb52-4119-9f4c-4c986f44b7a8","system_id":"levelo_inurba_marseille","lat":43.283998,"lon":5.375062,"is_reserved":false,"is_disabled":false,"rental_uris":{"android":"levelo://app?vid=ffb59b9d-cb52-4119-9f4c-4c986f44b7a8","ios":"levelo://app?vid=ffb59b9d-cb52-4119-9f4c-4c986f44b7a8"},"vehicle_type_id":"4","last_reported":1701414402,"current_range_meters":25200,"station_id":"ce4bh412rcd13ifvqds0","pricing_plan_id":"free"},{"bike_id":"f4780736-9fd8-485a-811a-40cacf1d0bdd","system_id":"levelo_inurba_marseille","lat":43.319179,"lon":5.407725,"is_reserved":false,"is_disabled":false,"rental_uris":{"android":"levelo://app?vid=f4780736-9fd8-485a-811a-40cacf1d0bdd","ios":"levelo://app?vid=f4780736-9fd8-485a-811a-40cacf1d0bdd"},"vehicle_type_id":"4","last_reported":1701414402,"current_range_meters":22000,"station_id":"ce4bhq12rcd13ifvqhig","pricing_plan_id":"free"},{"bike_id":"fd6b434b-9b46-4558-a5fd-d644933197b6","system_id":"levelo_inurba_marseille","lat":43.289363,"lon":5.396322,"is_reserved":false,"is_disabled":false,"rental_uris":{"android":"levelo://app?vid=fd6b434b-9b46-4558-a5fd-d644933197b6","ios":"levelo://app?vid=fd6b434b-9b46-4558-a5fd-d644933197b6"},"vehicle_type_id":"4","last_reported":1701414402,"current_range_meters":24800,"station_id":"ce4bh3h2rcd13ifvqdn0","pricing_plan_id":"free"},{"bike_id":"81648665-044d-4dde-856d-1f161502ef5f","system_id":"levelo_inurba_marseille","lat":43.292724,"lon":5.401131,"is_reserved":false,"is_disabled":false,"rental_uris":{"android":"levelo://app?vid=81648665-044d-4dde-856d-1f161502ef5f","ios":"levelo://app?vid=81648665-044d-4dde-856d-1f161502ef5f"},"vehicle_type_id":"4","last_reported":1701414402,"current_range_meters":0,"station_id":"ce4bh312rcd13ifvqdk0","pricing_plan_id":"free"},{"bike_id":"2e8ab19a-b7aa-4719-ba7b-bfd41be3bb3a","system_id":"levelo_inurba_marseille","lat":43.283502,"lon":5.386471,"is_reserved":false,"is_disabled":false,"rental_uris":{"android":"levelo://app?vid=2e8ab19a-b7aa-4719-ba7b-bfd41be3bb3a","ios":"levelo://app?vid=2e8ab19a-b7aa-4719-ba7b-bfd41be3bb3a"},"vehicle_type_id":"4","last_reported":1701414402,"current_range_meters":24000,"station_id":"ce4bh492rcd13ifvqdvg","pricing_plan_id":"free"},{"bike_id":"29c5ec00-3385-4c71-ae27-e3bd80849d77","system_id":"levelo_inurba_marseille","lat":43.283502,"lon":5.386471,"is_reserved":false,"is_disabled":false,"rental_uris":{"android":"levelo://app?vid=29c5ec00-3385-4c71-ae27-e3bd80849d77","ios":"levelo://app?vid=29c5ec00-3385-4c71-ae27-e3bd80849d77"},"vehicle_type_id":"4","last_reported":1701414402,"current_range_meters":19600,"station_id":"ce4bh492rcd13ifvqdvg","pricing_plan_id":"free"},{"bike_id":"26a7e2cb-fc49-4f09-bf51-53aab98ab10f","system_id":"levelo_inurba_marseille","lat":43.282754,"lon":5.350519,"is_reserved":false,"is_disabled":false,"rental_uris":{"android":"levelo://app?vid=26a7e2cb-fc49-4f09-bf51-53aab98ab10f","ios":"levelo://app?vid=26a7e2cb-fc49-4f09-bf51-53aab98ab10f"},"vehicle_type_id":"4","last_reported":1701414402,"current_range_meters":27600,"station_id":"ce4bhbp2rcd13ifvqerg","pricing_plan_id":"free"},{"bike_id":"ee2737ab-6095-4c4f-87f6-7615b0c552eb","system_id":"levelo_inurba_marseille","lat":43.283502,"lon":5.386471,"is_reserved":false,"is_disabled":false,"rental_uris":{"android":"levelo://app?vid=ee2737ab-6095-4c4f-87f6-7615b0c552eb","ios":"levelo://app?vid=ee2737ab-6095-4c4f-87f6-7615b0c552eb"},"vehicle_type_id":"4","last_reported":1701414402,"current_range_meters":18800,"station_id":"ce4bh492rcd13ifvqdvg","pricing_plan_id":"free"},{"bike_id":"edccd163-f6e1-4e7d-bc68-768d7ebe881c","system_id":"levelo_inurba_marseille","lat":43.326605,"lon":5.409903,"is_reserved":false,"is_disabled":false,"rental_uris":{"android":"levelo://app?vid=edccd163-f6e1-4e7d-bc68-768d7ebe881c","ios":"levelo://app?vid=edccd163-f6e1-4e7d-bc68-768d7ebe881c"},"vehicle_type_id":"4","last_reported":1701414402,"current_range_meters":27200,"station_id":"ce4bhpp2rcd13ifvqhgg","pricing_plan_id":"free"},{"bike_id":"3230dcc1-f3ee-4453-b03d-aafe18b409d9","system_id":"levelo_inurba_marseille","lat":43.320045,"lon":5.415046,"is_reserved":false,"is_disabled":false,"rental_uris":{"android":"levelo://app?vid=3230dcc1-f3ee-4453-b03d-aafe18b409d9","ios":"levelo://app?vid=3230dcc1-f3ee-4453-b03d-aafe18b409d9"},"vehicle_type_id":"4","last_reported":1701414402,"current_range_meters":28000,"station_id":"ce4bhq92rcd13ifvqhkg","pricing_plan_id":"free"},{"bike_id":"ae559b92-2011-4830-8579-dc624d6ffdd0","system_id":"levelo_inurba_marseille","lat":43.320045,"lon":5.415048,"is_reserved":false,"is_disabled":false,"rental_uris":{"android":"levelo://app?vid=ae559b92-2011-4830-8579-dc624d6ffdd0","ios":"levelo://app?vid=ae559b92-2011-4830-8579-dc624d6ffdd0"},"vehicle_type_id":"4","last_reported":1701414402,"current_range_meters":5200,"station_id":"ce4bhq92rcd13ifvqhkg","pricing_plan_id":"free"},{"bike_id":"0933293b-7d31-4268-8ec7-1f2188b3567c","system_id":"levelo_inurba_marseille","lat":43.320045,"lon":5.415046,"is_reserved":false,"is_disabled":false,"rental_uris":{"android":"levelo://app?vid=0933293b-7d31-4268-8ec7-1f2188b3567c","ios":"levelo://app?vid=0933293b-7d31-4268-8ec7-1f2188b3567c"},"vehicle_type_id":"4","last_reported":1701414402,"current_range_meters":22000,"station_id":"ce4bhq92rcd13ifvqhkg","pricing_plan_id":"free"},{"bike_id":"653b6458-acb1-43e0-8582-745533c52049","system_id":"levelo_inurba_marseille","lat":43.279742,"lon":5.38744,"is_reserved":false,"is_disabled":false,"rental_uris":{"android":"levelo://app?vid=653b6458-acb1-43e0-8582-745533c52049","ios":"levelo://app?vid=653b6458-acb1-43e0-8582-745533c52049"},"vehicle_type_id":"4","last_reported":1701414402,"current_range_meters":22400,"station_id":"ce4bhg12rcd13ifvqf80","pricing_plan_id":"free"},{"bike_id":"992c4ed4-c714-4f89-abb8-7ba59f83bc0b","system_id":"levelo_inurba_marseille","lat":43.325233,"lon":5.414318,"is_reserved":false,"is_disabled":false,"rental_uris":{"android":"levelo://app?vid=992c4ed4-c714-4f89-abb8-7ba59f83bc0b","ios":"levelo://app?vid=992c4ed4-c714-4f89-abb8-7ba59f83bc0b"},"vehicle_type_id":"4","last_reported":1701414402,"current_range_meters":19600,"station_id":"ce4bhq12rcd13ifvqhhg","pricing_plan_id":"free"},{"bike_id":"b733fb37-a63f-44e3-a557-fb3456feeea0","system_id":"levelo_inurba_marseille","lat":43.325233,"lon":5.414318,"is_reserved":false,"is_disabled":false,"rental_uris":{"android":"levelo://app?vid=b733fb37-a63f-44e3-a557-fb3456feeea0","ios":"levelo://app?vid=b733fb37-a63f-44e3-a557-fb3456feeea0"},"vehicle_type_id":"4","last_reported":1701414402,"current_range_meters":5600,"station_id":"ce4bhq12rcd13ifvqhhg","pricing_plan_id":"free"},{"bike_id":"ce731c0a-a769-41a0-af12-a21b87ce2ef8","system_id":"levelo_inurba_marseille","lat":43.325243,"lon":5.414326,"is_reserved":false,"is_disabled":false,"rental_uris":{"android":"levelo://app?vid=ce731c0a-a769-41a0-af12-a21b87ce2ef8","ios":"levelo://app?vid=ce731c0a-a769-41a0-af12-a21b87ce2ef8"},"vehicle_type_id":"4","last_reported":1701414402,"current_range_meters":30000,"station_id":"ce4bhq12rcd13ifvqhhg","pricing_plan_id":"free"},{"bike_id":"378c3e67-0c7b-45f5-b855-8e0b1409d9e2","system_id":"levelo_inurba_marseille","lat":43.303837,"lon":5.418724,"is_reserved":false,"is_disabled":false,"rental_uris":{"android":"levelo://app?vid=378c3e67-0c7b-45f5-b855-8e0b1409d9e2","ios":"levelo://app?vid=378c3e67-0c7b-45f5-b855-8e0b1409d9e2"},"vehicle_type_id":"4","last_reported":1701414402,"current_range_meters":26000,"station_id":"ce4bhop2rcd13ifvqh7g","pricing_plan_id":"free"},{"bike_id":"23bf67d6-e15e-4509-a09f-e26491bf0f2b","system_id":"levelo_inurba_marseille","lat":43.278401,"lon":5.392152,"is_reserved":false,"is_disabled":false,"rental_uris":{"android":"levelo://app?vid=23bf67d6-e15e-4509-a09f-e26491bf0f2b","ios":"levelo://app?vid=23bf67d6-e15e-4509-a09f-e26491bf0f2b"},"vehicle_type_id":"4","last_reported":1701414402,"current_range_meters":14000,"station_id":"ce4bhjp2rcd13ifvqga0","pricing_plan_id":"free"},{"bike_id":"c5c26c84-8be9-4a07-aa39-51467fb0ae90","system_id":"levelo_inurba_marseille","lat":43.278401,"lon":5.392152,"is_reserved":false,"is_disabled":false,"rental_uris":{"android":"levelo://app?vid=c5c26c84-8be9-4a07-aa39-51467fb0ae90","ios":"levelo://app?vid=c5c26c84-8be9-4a07-aa39-51467fb0ae90"},"vehicle_type_id":"4","last_reported":1701414402,"current_range_meters":24800,"station_id":"ce4bhjp2rcd13ifvqga0","pricing_plan_id":"free"},{"bike_id":"a0ba15a3-d12e-4ea4-b1d7-15f758773042","system_id":"levelo_inurba_marseille","lat":43.27386,"lon":5.36259,"is_reserved":false,"is_disabled":false,"rental_uris":{"android":"levelo://app?vid=a0ba15a3-d12e-4ea4-b1d7-15f758773042","ios":"levelo://app?vid=a0ba15a3-d12e-4ea4-b1d7-15f758773042"},"vehicle_type_id":"4","last_reported":1701414402,"current_range_meters":20400,"station_id":"ce4bhbh2rcd13ifvqeo0","pricing_plan_id":"free"},{"bike_id":"199163ea-e077-4a75-8cec-018934d4206e","system_id":"levelo_inurba_marseille","lat":43.335837,"lon":5.410358,"is_reserved":false,"is_disabled":false,"rental_uris":{"android":"levelo://app?vid=199163ea-e077-4a75-8cec-018934d4206e","ios":"levelo://app?vid=199163ea-e077-4a75-8cec-018934d4206e"},"vehicle_type_id":"4","last_reported":1701414402,"current_range_meters":13600,"station_id":"","pricing_plan_id":"free"},{"bike_id":"4105c0c2-28ef-4989-8112-480de19fb62f","system_id":"levelo_inurba_marseille","lat":43.33613,"lon":5.41013,"is_reserved":false,"is_disabled":false,"rental_uris":{"android":"levelo://app?vid=4105c0c2-28ef-4989-8112-480de19fb62f","ios":"levelo://app?vid=4105c0c2-28ef-4989-8112-480de19fb62f"},"vehicle_type_id":"4","last_reported":1701414402,"current_range_meters":400,"station_id":"ce4bhqh2rcd13ifvqhmg","pricing_plan_id":"free"},{"bike_id":"9be4d6d8-8ac2-423a-a8c4-fe0f5230e53f","system_id":"levelo_inurba_marseille","lat":43.336134,"lon":5.410341,"is_reserved":false,"is_disabled":false,"rental_uris":{"android":"levelo://app?vid=9be4d6d8-8ac2-423a-a8c4-fe0f5230e53f","ios":"levelo://app?vid=9be4d6d8-8ac2-423a-a8c4-fe0f5230e53f"},"vehicle_type_id":"4","last_reported":1701414402,"current_range_meters":30000,"station_id":"ce4bhqh2rcd13ifvqhmg","pricing_plan_id":"free"},{"bike_id":"039f567e-ffa6-4c01-bfef-99a8bf1643b7","system_id":"levelo_inurba_marseille","lat":43.336134,"lon":5.410341,"is_reserved":false,"is_disabled":false,"rental_uris":{"android":"levelo://app?vid=039f567e-ffa6-4c01-bfef-99a8bf1643b7","ios":"levelo://app?vid=039f567e-ffa6-4c01-bfef-99a8bf1643b7"},"vehicle_type_id":"4","last_reported":1701414402,"current_range_meters":22000,"station_id":"ce4bhqh2rcd13ifvqhmg","pricing_plan_id":"free"},{"bike_id":"92d19249-5811-4c97-81ed-3feeea633ac0","system_id":"levelo_inurba_marseille","lat":43.276769,"lon":5.388787,"is_reserved":false,"is_disabled":false,"rental_uris":{"android":"levelo://app?vid=92d19249-5811-4c97-81ed-3feeea633ac0","ios":"levelo://app?vid=92d19249-5811-4c97-81ed-3feeea633ac0"},"vehicle_type_id":"4","last_reported":1701414402,"current_range_meters":28800,"station_id":"ce4bhi12rcd13ifvqfo0","pricing_plan_id":"free"},{"bike_id":"2f711f01-b9ab-4fa4-b7ee-42fd5a353234","system_id":"levelo_inurba_marseille","lat":43.310785,"lon":5.424305,"is_reserved":false,"is_disabled":false,"rental_uris":{"android":"levelo://app?vid=2f711f01-b9ab-4fa4-b7ee-42fd5a353234","ios":"levelo://app?vid=2f711f01-b9ab-4fa4-b7ee-42fd5a353234"},"vehicle_type_id":"4","last_reported":1701414402,"current_range_meters":30800,"station_id":"ce4bhp92rcd13ifvqhag","pricing_plan_id":"free"},{"bike_id":"d6cd08ef-c934-44a0-a330-510b886d15f8","system_id":"levelo_inurba_marseille","lat":43.310785,"lon":5.424305,"is_reserved":false,"is_disabled":false,"rental_uris":{"android":"levelo://app?vid=d6cd08ef-c934-44a0-a330-510b886d15f8","ios":"levelo://app?vid=d6cd08ef-c934-44a0-a330-510b886d15f8"},"vehicle_type_id":"4","last_reported":1701414402,"current_range_meters":31200,"station_id":"ce4bhp92rcd13ifvqhag","pricing_plan_id":"free"},{"bike_id":"a862f8d3-9c65-4e03-8387-7b9d5fb1832b","system_id":"levelo_inurba_marseille","lat":43.310785,"lon":5.424305,"is_reserved":false,"is_disabled":false,"rental_uris":{"android":"levelo://app?vid=a862f8d3-9c65-4e03-8387-7b9d5fb1832b","ios":"levelo://app?vid=a862f8d3-9c65-4e03-8387-7b9d5fb1832b"},"vehicle_type_id":"4","last_reported":1701414402,"current_range_meters":28000,"station_id":"ce4bhp92rcd13ifvqhag","pricing_plan_id":"free"},{"bike_id":"86719305-f7f3-4319-9d78-57f0031ff8dc","system_id":"levelo_inurba_marseille","lat":43.340804,"lon":5.410219,"is_reserved":false,"is_disabled":false,"rental_uris":{"android":"levelo://app?vid=86719305-f7f3-4319-9d78-57f0031ff8dc","ios":"levelo://app?vid=86719305-f7f3-4319-9d78-57f0031ff8dc"},"vehicle_type_id":"4","last_reported":1701414402,"current_range_meters":16800,"station_id":"ce4bhqh2rcd13ifvqhlg","pricing_plan_id":"free"},{"bike_id":"d4026725-dd25-4c54-b587-ef51a846128e","system_id":"levelo_inurba_marseille","lat":43.340804,"lon":5.410219,"is_reserved":false,"is_disabled":false,"rental_uris":{"android":"levelo://app?vid=d4026725-dd25-4c54-b587-ef51a846128e","ios":"levelo://app?vid=d4026725-dd25-4c54-b587-ef51a846128e"},"vehicle_type_id":"4","last_reported":1701414402,"current_range_meters":30400,"station_id":"ce4bhqh2rcd13ifvqhlg","pricing_plan_id":"free"},{"bike_id":"de3e8642-1450-4df2-80c0-78076ea97a99","system_id":"levelo_inurba_marseille","lat":43.340804,"lon":5.410219,"is_reserved":false,"is_disabled":false,"rental_uris":{"android":"levelo://app?vid=de3e8642-1450-4df2-80c0-78076ea97a99","ios":"levelo://app?vid=de3e8642-1450-4df2-80c0-78076ea97a99"},"vehicle_type_id":"4","last_reported":1701414402,"current_range_meters":28400,"station_id":"ce4bhqh2rcd13ifvqhlg","pricing_plan_id":"free"},{"bike_id":"5e913ccf-f23c-4bc5-bdba-303e9199a49b","system_id":"levelo_inurba_marseille","lat":43.273129,"lon":5.390725,"is_reserved":false,"is_disabled":false,"rental_uris":{"android":"levelo://app?vid=5e913ccf-f23c-4bc5-bdba-303e9199a49b","ios":"levelo://app?vid=5e913ccf-f23c-4bc5-bdba-303e9199a49b"},"vehicle_type_id":"4","last_reported":1701414402,"current_range_meters":30000,"station_id":"ce4bhgp2rcd13ifvqfe0","pricing_plan_id":"free"},{"bike_id":"5122c02a-835c-42f1-908a-a82f1a0a5c82","system_id":"levelo_inurba_marseille","lat":43.274099,"lon":5.394019,"is_reserved":false,"is_disabled":false,"rental_uris":{"android":"levelo://app?vid=5122c02a-835c-42f1-908a-a82f1a0a5c82","ios":"levelo://app?vid=5122c02a-835c-42f1-908a-a82f1a0a5c82"},"vehicle_type_id":"4","last_reported":1701414402,"current_range_meters":11200,"station_id":"ce4bhdp2rcd13ifvqf20","pricing_plan_id":"free"},{"bike_id":"eff3e467-b6de-457a-b6cd-4671a56a96b0","system_id":"levelo_inurba_marseille","lat":43.295511,"lon":5.422926,"is_reserved":false,"is_disabled":false,"rental_uris":{"android":"levelo://app?vid=eff3e467-b6de-457a-b6cd-4671a56a96b0","ios":"levelo://app?vid=eff3e467-b6de-457a-b6cd-4671a56a96b0"},"vehicle_type_id":"4","last_reported":1701414402,"current_range_meters":22000,"station_id":"ce4bhph2rcd13ifvqhdg","pricing_plan_id":"free"},{"bike_id":"5b6343e8-86d5-410c-97f8-bb820dc75554","system_id":"levelo_inurba_marseille","lat":43.269467,"lon":5.386439,"is_reserved":false,"is_disabled":false,"rental_uris":{"android":"levelo://app?vid=5b6343e8-86d5-410c-97f8-bb820dc75554","ios":"levelo://app?vid=5b6343e8-86d5-410c-97f8-bb820dc75554"},"vehicle_type_id":"4","last_reported":1701414402,"current_range_meters":25600,"station_id":"ce4bhh92rcd13ifvqfh0","pricing_plan_id":"free"},{"bike_id":"3aea9a3a-ca44-4b46-82e5-362152f3e8fc","system_id":"levelo_inurba_marseille","lat":43.27812,"lon":5.40719,"is_reserved":false,"is_disabled":false,"rental_uris":{"android":"levelo://app?vid=3aea9a3a-ca44-4b46-82e5-362152f3e8fc","ios":"levelo://app?vid=3aea9a3a-ca44-4b46-82e5-362152f3e8fc"},"vehicle_type_id":"4","last_reported":1701414402,"current_range_meters":5200,"station_id":"ce4bhnh2rcd13ifvqgtg","pricing_plan_id":"free"},{"bike_id":"84569535-c63d-465f-b6fc-9870c04590a0","system_id":"levelo_inurba_marseille","lat":43.269467,"lon":5.386439,"is_reserved":false,"is_disabled":false,"rental_uris":{"android":"levelo://app?vid=84569535-c63d-465f-b6fc-9870c04590a0","ios":"levelo://app?vid=84569535-c63d-465f-b6fc-9870c04590a0"},"vehicle_type_id":"4","last_reported":1701414402,"current_range_meters":27600,"station_id":"ce4bhh92rcd13ifvqfh0","pricing_plan_id":"free"},{"bike_id":"9d068098-9ecc-4f8a-a78b-29cf2c5e780d","system_id":"levelo_inurba_marseille","lat":43.269467,"lon":5.386439,"is_reserved":false,"is_disabled":false,"rental_uris":{"android":"levelo://app?vid=9d068098-9ecc-4f8a-a78b-29cf2c5e780d","ios":"levelo://app?vid=9d068098-9ecc-4f8a-a78b-29cf2c5e780d"},"vehicle_type_id":"4","last_reported":1701414402,"current_range_meters":23200,"station_id":"ce4bhh92rcd13ifvqfh0","pricing_plan_id":"free"},{"bike_id":"50ba8b12-6acf-4dad-ad77-ccdfab9c2ab8","system_id":"levelo_inurba_marseille","lat":43.269467,"lon":5.386439,"is_reserved":false,"is_disabled":false,"rental_uris":{"android":"levelo://app?vid=50ba8b12-6acf-4dad-ad77-ccdfab9c2ab8","ios":"levelo://app?vid=50ba8b12-6acf-4dad-ad77-ccdfab9c2ab8"},"vehicle_type_id":"4","last_reported":1701414402,"current_range_meters":27600,"station_id":"ce4bhh92rcd13ifvqfh0","pricing_plan_id":"free"},{"bike_id":"428fce31-0282-4a75-9650-51f2eafb5e69","system_id":"levelo_inurba_marseille","lat":43.269467,"lon":5.386439,"is_reserved":false,"is_disabled":false,"rental_uris":{"android":"levelo://app?vid=428fce31-0282-4a75-9650-51f2eafb5e69","ios":"levelo://app?vid=428fce31-0282-4a75-9650-51f2eafb5e69"},"vehicle_type_id":"4","last_reported":1701414402,"current_range_meters":28800,"station_id":"ce4bhh92rcd13ifvqfh0","pricing_plan_id":"free"},{"bike_id":"e6c62632-61b5-4193-b984-7effead9c1c9","system_id":"levelo_inurba_marseille","lat":43.269467,"lon":5.386439,"is_reserved":false,"is_disabled":false,"rental_uris":{"android":"levelo://app?vid=e6c62632-61b5-4193-b984-7effead9c1c9","ios":"levelo://app?vid=e6c62632-61b5-4193-b984-7effead9c1c9"},"vehicle_type_id":"4","last_reported":1701414402,"current_range_meters":28000,"station_id":"ce4bhh92rcd13ifvqfh0","pricing_plan_id":"free"},{"bike_id":"af2e4ae8-50c4-4f5d-b142-5c158c2789fa","system_id":"levelo_inurba_marseille","lat":43.269467,"lon":5.386439,"is_reserved":false,"is_disabled":false,"rental_uris":{"android":"levelo://app?vid=af2e4ae8-50c4-4f5d-b142-5c158c2789fa","ios":"levelo://app?vid=af2e4ae8-50c4-4f5d-b142-5c158c2789fa"},"vehicle_type_id":"4","last_reported":1701414402,"current_range_meters":22800,"station_id":"ce4bhh92rcd13ifvqfh0","pricing_plan_id":"free"},{"bike_id":"499e8912-4eae-48de-a40f-aadf273cd7c0","system_id":"levelo_inurba_marseille","lat":43.269467,"lon":5.386439,"is_reserved":false,"is_disabled":false,"rental_uris":{"android":"levelo://app?vid=499e8912-4eae-48de-a40f-aadf273cd7c0","ios":"levelo://app?vid=499e8912-4eae-48de-a40f-aadf273cd7c0"},"vehicle_type_id":"4","last_reported":1701414402,"current_range_meters":18800,"station_id":"ce4bhh92rcd13ifvqfh0","pricing_plan_id":"free"},{"bike_id":"14f8f730-2410-4ff3-b8e9-463bf298232a","system_id":"levelo_inurba_marseille","lat":43.27996,"lon":5.416624,"is_reserved":false,"is_disabled":false,"rental_uris":{"android":"levelo://app?vid=14f8f730-2410-4ff3-b8e9-463bf298232a","ios":"levelo://app?vid=14f8f730-2410-4ff3-b8e9-463bf298232a"},"vehicle_type_id":"4","last_reported":1701414402,"current_range_meters":26400,"station_id":"ce4bho12rcd13ifvqh1g","pricing_plan_id":"free"},{"bike_id":"2d1bc294-434c-46f8-a45d-611241015a09","system_id":"levelo_inurba_marseille","lat":43.27996,"lon":5.416624,"is_reserved":false,"is_disabled":false,"rental_uris":{"android":"levelo://app?vid=2d1bc294-434c-46f8-a45d-611241015a09","ios":"levelo://app?vid=2d1bc294-434c-46f8-a45d-611241015a09"},"vehicle_type_id":"4","last_reported":1701414402,"current_range_meters":31200,"station_id":"ce4bho12rcd13ifvqh1g","pricing_plan_id":"free"},{"bike_id":"69d6e763-e8d9-4025-ae92-74b8bda4380e","system_id":"levelo_inurba_marseille","lat":43.27984,"lon":5.41658,"is_reserved":false,"is_disabled":false,"rental_uris":{"android":"levelo://app?vid=69d6e763-e8d9-4025-ae92-74b8bda4380e","ios":"levelo://app?vid=69d6e763-e8d9-4025-ae92-74b8bda4380e"},"vehicle_type_id":"4","last_reported":1701414402,"current_range_meters":14800,"station_id":"ce4bho12rcd13ifvqh1g","pricing_plan_id":"free"},{"bike_id":"ea6aee98-2dc1-4f96-94f9-bf0615122b5c","system_id":"levelo_inurba_marseille","lat":43.269467,"lon":5.386439,"is_reserved":false,"is_disabled":false,"rental_uris":{"android":"levelo://app?vid=ea6aee98-2dc1-4f96-94f9-bf0615122b5c","ios":"levelo://app?vid=ea6aee98-2dc1-4f96-94f9-bf0615122b5c"},"vehicle_type_id":"4","last_reported":1701414402,"current_range_meters":18000,"station_id":"ce4bhh92rcd13ifvqfh0","pricing_plan_id":"free"},{"bike_id":"b31b894a-0728-45f7-8a58-3aafd311cdec","system_id":"levelo_inurba_marseille","lat":43.265569,"lon":5.390047,"is_reserved":false,"is_disabled":false,"rental_uris":{"android":"levelo://app?vid=b31b894a-0728-45f7-8a58-3aafd311cdec","ios":"levelo://app?vid=b31b894a-0728-45f7-8a58-3aafd311cdec"},"vehicle_type_id":"4","last_reported":1701414402,"current_range_meters":24400,"station_id":"ce4bhe12rcd13ifvqf30","pricing_plan_id":"free"},{"bike_id":"a575b55e-cddf-457d-aa98-d31f78af4746","system_id":"levelo_inurba_marseille","lat":43.265569,"lon":5.390047,"is_reserved":false,"is_disabled":false,"rental_uris":{"android":"levelo://app?vid=a575b55e-cddf-457d-aa98-d31f78af4746","ios":"levelo://app?vid=a575b55e-cddf-457d-aa98-d31f78af4746"},"vehicle_type_id":"4","last_reported":1701414402,"current_range_meters":31200,"station_id":"ce4bhe12rcd13ifvqf30","pricing_plan_id":"free"},{"bike_id":"89ab69b3-eeb7-44b9-940b-213e1587327e","system_id":"levelo_inurba_marseille","lat":43.265569,"lon":5.390047,"is_reserved":false,"is_disabled":false,"rental_uris":{"android":"levelo://app?vid=89ab69b3-eeb7-44b9-940b-213e1587327e","ios":"levelo://app?vid=89ab69b3-eeb7-44b9-940b-213e1587327e"},"vehicle_type_id":"4","last_reported":1701414402,"current_range_meters":16000,"station_id":"ce4bhe12rcd13ifvqf30","pricing_plan_id":"free"},{"bike_id":"97651392-0be8-4e9f-90c2-919808dab849","system_id":"levelo_inurba_marseille","lat":43.2656,"lon":5.39007,"is_reserved":false,"is_disabled":false,"rental_uris":{"android":"levelo://app?vid=97651392-0be8-4e9f-90c2-919808dab849","ios":"levelo://app?vid=97651392-0be8-4e9f-90c2-919808dab849"},"vehicle_type_id":"4","last_reported":1701414402,"current_range_meters":30000,"station_id":"ce4bhe12rcd13ifvqf30","pricing_plan_id":"free"},{"bike_id":"e8da4f02-85ae-461a-b44f-8b22ebc9c848","system_id":"levelo_inurba_marseille","lat":43.26561,"lon":5.39021,"is_reserved":false,"is_disabled":false,"rental_uris":{"android":"levelo://app?vid=e8da4f02-85ae-461a-b44f-8b22ebc9c848","ios":"levelo://app?vid=e8da4f02-85ae-461a-b44f-8b22ebc9c848"},"vehicle_type_id":"4","last_reported":1701414402,"current_range_meters":25200,"station_id":"ce4bhe12rcd13ifvqf30","pricing_plan_id":"free"},{"bike_id":"87eb8af7-6366-40ba-93a6-35622aeae6b4","system_id":"levelo_inurba_marseille","lat":43.26546,"lon":5.39032,"is_reserved":false,"is_disabled":false,"rental_uris":{"android":"levelo://app?vid=87eb8af7-6366-40ba-93a6-35622aeae6b4","ios":"levelo://app?vid=87eb8af7-6366-40ba-93a6-35622aeae6b4"},"vehicle_type_id":"4","last_reported":1701414402,"current_range_meters":31200,"station_id":"ce4bhe12rcd13ifvqf30","pricing_plan_id":"free"},{"bike_id":"44d51874-045e-4906-a2f9-909193d67e63","system_id":"levelo_inurba_marseille","lat":43.31713,"lon":5.43707,"is_reserved":false,"is_disabled":false,"rental_uris":{"android":"levelo://app?vid=44d51874-045e-4906-a2f9-909193d67e63","ios":"levelo://app?vid=44d51874-045e-4906-a2f9-909193d67e63"},"vehicle_type_id":"4","last_reported":1701414402,"current_range_meters":27600,"station_id":"ce4bhp92rcd13ifvqhcg","pricing_plan_id":"free"},{"bike_id":"a265f57d-2203-4406-8278-bc194922c399","system_id":"levelo_inurba_marseille","lat":43.281523,"lon":5.42631,"is_reserved":false,"is_disabled":false,"rental_uris":{"android":"levelo://app?vid=a265f57d-2203-4406-8278-bc194922c399","ios":"levelo://app?vid=a265f57d-2203-4406-8278-bc194922c399"},"vehicle_type_id":"4","last_reported":1701414402,"current_range_meters":31200,"station_id":"ce4bhnh2rcd13ifvqgug","pricing_plan_id":"free"},{"bike_id":"3e4fb47e-33e8-4ee2-bfc1-1bd948cfa529","system_id":"levelo_inurba_marseille","lat":43.281548,"lon":5.42643,"is_reserved":false,"is_disabled":false,"rental_uris":{"android":"levelo://app?vid=3e4fb47e-33e8-4ee2-bfc1-1bd948cfa529","ios":"levelo://app?vid=3e4fb47e-33e8-4ee2-bfc1-1bd948cfa529"},"vehicle_type_id":"4","last_reported":1701414402,"current_range_meters":31200,"station_id":"ce4bhnh2rcd13ifvqgug","pricing_plan_id":"free"},{"bike_id":"cb609a7b-f9ee-4981-a18f-2f84ebe6425d","system_id":"levelo_inurba_marseille","lat":43.281548,"lon":5.42643,"is_reserved":false,"is_disabled":false,"rental_uris":{"android":"levelo://app?vid=cb609a7b-f9ee-4981-a18f-2f84ebe6425d","ios":"levelo://app?vid=cb609a7b-f9ee-4981-a18f-2f84ebe6425d"},"vehicle_type_id":"4","last_reported":1701414402,"current_range_meters":29600,"station_id":"ce4bhnh2rcd13ifvqgug","pricing_plan_id":"free"},{"bike_id":"08ee9831-e27a-4de6-b434-68bc147048ef","system_id":"levelo_inurba_marseille","lat":43.281548,"lon":5.42643,"is_reserved":false,"is_disabled":false,"rental_uris":{"android":"levelo://app?vid=08ee9831-e27a-4de6-b434-68bc147048ef","ios":"levelo://app?vid=08ee9831-e27a-4de6-b434-68bc147048ef"},"vehicle_type_id":"4","last_reported":1701414402,"current_range_meters":31200,"station_id":"ce4bhnh2rcd13ifvqgug","pricing_plan_id":"free"},{"bike_id":"3532a786-7312-4db1-88be-2e5e8a274941","system_id":"levelo_inurba_marseille","lat":43.281548,"lon":5.42643,"is_reserved":false,"is_disabled":false,"rental_uris":{"android":"levelo://app?vid=3532a786-7312-4db1-88be-2e5e8a274941","ios":"levelo://app?vid=3532a786-7312-4db1-88be-2e5e8a274941"},"vehicle_type_id":"4","last_reported":1701414402,"current_range_meters":26400,"station_id":"ce4bhnh2rcd13ifvqgug","pricing_plan_id":"free"},{"bike_id":"816fffb3-bc00-4aaa-b22a-5b406defe073","system_id":"levelo_inurba_marseille","lat":43.275028,"lon":5.424534,"is_reserved":false,"is_disabled":false,"rental_uris":{"android":"levelo://app?vid=816fffb3-bc00-4aaa-b22a-5b406defe073","ios":"levelo://app?vid=816fffb3-bc00-4aaa-b22a-5b406defe073"},"vehicle_type_id":"4","last_reported":1701414402,"current_range_meters":19600,"station_id":"ce4bhn92rcd13ifvqgrg","pricing_plan_id":"free"},{"bike_id":"f94c20d4-3562-46b8-8195-f928c37ce2ee","system_id":"levelo_inurba_marseille","lat":43.275028,"lon":5.424534,"is_reserved":false,"is_disabled":false,"rental_uris":{"android":"levelo://app?vid=f94c20d4-3562-46b8-8195-f928c37ce2ee","ios":"levelo://app?vid=f94c20d4-3562-46b8-8195-f928c37ce2ee"},"vehicle_type_id":"4","last_reported":1701414402,"current_range_meters":18000,"station_id":"ce4bhn92rcd13ifvqgrg","pricing_plan_id":"free"},{"bike_id":"6bbcacf2-a6d1-4158-9d19-4d2d8f33555b","system_id":"levelo_inurba_marseille","lat":43.275028,"lon":5.424534,"is_reserved":false,"is_disabled":false,"rental_uris":{"android":"levelo://app?vid=6bbcacf2-a6d1-4158-9d19-4d2d8f33555b","ios":"levelo://app?vid=6bbcacf2-a6d1-4158-9d19-4d2d8f33555b"},"vehicle_type_id":"4","last_reported":1701414402,"current_range_meters":11600,"station_id":"ce4bhn92rcd13ifvqgrg","pricing_plan_id":"free"},{"bike_id":"85fb527f-e2f8-4f30-b4cd-aae1e0869d40","system_id":"levelo_inurba_marseille","lat":43.275028,"lon":5.424534,"is_reserved":false,"is_disabled":false,"rental_uris":{"android":"levelo://app?vid=85fb527f-e2f8-4f30-b4cd-aae1e0869d40","ios":"levelo://app?vid=85fb527f-e2f8-4f30-b4cd-aae1e0869d40"},"vehicle_type_id":"4","last_reported":1701414402,"current_range_meters":30000,"station_id":"ce4bhn92rcd13ifvqgrg","pricing_plan_id":"free"},{"bike_id":"bf392b75-7a44-49b1-8423-0f4e1810e42e","system_id":"levelo_inurba_marseille","lat":43.275028,"lon":5.424534,"is_reserved":false,"is_disabled":false,"rental_uris":{"android":"levelo://app?vid=bf392b75-7a44-49b1-8423-0f4e1810e42e","ios":"levelo://app?vid=bf392b75-7a44-49b1-8423-0f4e1810e42e"},"vehicle_type_id":"4","last_reported":1701414402,"current_range_meters":18000,"station_id":"ce4bhn92rcd13ifvqgrg","pricing_plan_id":"free"},{"bike_id":"2439b834-5f68-4270-bc56-f53ff23adca1","system_id":"levelo_inurba_marseille","lat":43.27493,"lon":5.42453,"is_reserved":false,"is_disabled":false,"rental_uris":{"android":"levelo://app?vid=2439b834-5f68-4270-bc56-f53ff23adca1","ios":"levelo://app?vid=2439b834-5f68-4270-bc56-f53ff23adca1"},"vehicle_type_id":"4","last_reported":1701414402,"current_range_meters":18000,"station_id":"ce4bhn92rcd13ifvqgrg","pricing_plan_id":"free"},{"bike_id":"19334c9e-7103-42c2-a7d4-13dba60e41f8","system_id":"levelo_inurba_marseille","lat":43.275028,"lon":5.424534,"is_reserved":false,"is_disabled":false,"rental_uris":{"android":"levelo://app?vid=19334c9e-7103-42c2-a7d4-13dba60e41f8","ios":"levelo://app?vid=19334c9e-7103-42c2-a7d4-13dba60e41f8"},"vehicle_type_id":"4","last_reported":1701414402,"current_range_meters":14000,"station_id":"ce4bhn92rcd13ifvqgrg","pricing_plan_id":"free"},{"bike_id":"9a9f4e80-13a8-404b-a799-b8a8ed1cc6b2","system_id":"levelo_inurba_marseille","lat":43.275028,"lon":5.424534,"is_reserved":false,"is_disabled":false,"rental_uris":{"android":"levelo://app?vid=9a9f4e80-13a8-404b-a799-b8a8ed1cc6b2","ios":"levelo://app?vid=9a9f4e80-13a8-404b-a799-b8a8ed1cc6b2"},"vehicle_type_id":"4","last_reported":1701414402,"current_range_meters":22800,"station_id":"ce4bhn92rcd13ifvqgrg","pricing_plan_id":"free"},{"bike_id":"5a23ed04-56f2-46ed-9f03-07836b6b06de","system_id":"levelo_inurba_marseille","lat":43.275028,"lon":5.424534,"is_reserved":false,"is_disabled":false,"rental_uris":{"android":"levelo://app?vid=5a23ed04-56f2-46ed-9f03-07836b6b06de","ios":"levelo://app?vid=5a23ed04-56f2-46ed-9f03-07836b6b06de"},"vehicle_type_id":"4","last_reported":1701414402,"current_range_meters":20000,"station_id":"ce4bhn92rcd13ifvqgrg","pricing_plan_id":"free"},{"bike_id":"643db03f-58f9-4f76-9719-edb52584c73d","system_id":"levelo_inurba_marseille","lat":43.258224,"lon":5.394369,"is_reserved":false,"is_disabled":false,"rental_uris":{"android":"levelo://app?vid=643db03f-58f9-4f76-9719-edb52584c73d","ios":"levelo://app?vid=643db03f-58f9-4f76-9719-edb52584c73d"},"vehicle_type_id":"4","last_reported":1701414402,"current_range_meters":25600,"station_id":"ce4bhip2rcd13ifvqft0","pricing_plan_id":"free"},{"bike_id":"6f4d8d10-7211-4871-8807-a66397aa3a0c","system_id":"levelo_inurba_marseille","lat":43.258224,"lon":5.394369,"is_reserved":false,"is_disabled":false,"rental_uris":{"android":"levelo://app?vid=6f4d8d10-7211-4871-8807-a66397aa3a0c","ios":"levelo://app?vid=6f4d8d10-7211-4871-8807-a66397aa3a0c"},"vehicle_type_id":"4","last_reported":1701414402,"current_range_meters":28800,"station_id":"ce4bhip2rcd13ifvqft0","pricing_plan_id":"free"},{"bike_id":"f9f6b31c-384b-4b8d-9aa9-1cb17909bb6b","system_id":"levelo_inurba_marseille","lat":43.270721,"lon":5.422764,"is_reserved":false,"is_disabled":false,"rental_uris":{"android":"levelo://app?vid=f9f6b31c-384b-4b8d-9aa9-1cb17909bb6b","ios":"levelo://app?vid=f9f6b31c-384b-4b8d-9aa9-1cb17909bb6b"},"vehicle_type_id":"4","last_reported":1701414402,"current_range_meters":19600,"station_id":"ce4bhk92rcd13ifvqgb0","pricing_plan_id":"free"},{"bike_id":"2c794cda-e1ba-4030-acff-649085b058d6","system_id":"levelo_inurba_marseille","lat":43.270721,"lon":5.422764,"is_reserved":false,"is_disabled":false,"rental_uris":{"android":"levelo://app?vid=2c794cda-e1ba-4030-acff-649085b058d6","ios":"levelo://app?vid=2c794cda-e1ba-4030-acff-649085b058d6"},"vehicle_type_id":"4","last_reported":1701414402,"current_range_meters":21600,"station_id":"ce4bhk92rcd13ifvqgb0","pricing_plan_id":"free"},{"bike_id":"fac0e422-c37f-421d-8e1b-a25ffb37ce17","system_id":"levelo_inurba_marseille","lat":43.270721,"lon":5.422764,"is_reserved":false,"is_disabled":false,"rental_uris":{"android":"levelo://app?vid=fac0e422-c37f-421d-8e1b-a25ffb37ce17","ios":"levelo://app?vid=fac0e422-c37f-421d-8e1b-a25ffb37ce17"},"vehicle_type_id":"4","last_reported":1701414402,"current_range_meters":29600,"station_id":"ce4bhk92rcd13ifvqgb0","pricing_plan_id":"free"},{"bike_id":"c31d6f97-d623-4262-9b94-0580c155f5d1","system_id":"levelo_inurba_marseille","lat":43.2707,"lon":5.42276,"is_reserved":false,"is_disabled":false,"rental_uris":{"android":"levelo://app?vid=c31d6f97-d623-4262-9b94-0580c155f5d1","ios":"levelo://app?vid=c31d6f97-d623-4262-9b94-0580c155f5d1"},"vehicle_type_id":"4","last_reported":1701414402,"current_range_meters":8800,"station_id":"ce4bhk92rcd13ifvqgb0","pricing_plan_id":"free"},{"bike_id":"39a41fc6-fb12-4304-b9bd-c12fd73ba948","system_id":"levelo_inurba_marseille","lat":43.270721,"lon":5.422764,"is_reserved":false,"is_disabled":false,"rental_uris":{"android":"levelo://app?vid=39a41fc6-fb12-4304-b9bd-c12fd73ba948","ios":"levelo://app?vid=39a41fc6-fb12-4304-b9bd-c12fd73ba948"},"vehicle_type_id":"4","last_reported":1701414402,"current_range_meters":31600,"station_id":"ce4bhk92rcd13ifvqgb0","pricing_plan_id":"free"},{"bike_id":"d28c2101-138c-4829-a4d2-de1aa91912ed","system_id":"levelo_inurba_marseille","lat":43.27068,"lon":5.4228,"is_reserved":false,"is_disabled":false,"rental_uris":{"android":"levelo://app?vid=d28c2101-138c-4829-a4d2-de1aa91912ed","ios":"levelo://app?vid=d28c2101-138c-4829-a4d2-de1aa91912ed"},"vehicle_type_id":"4","last_reported":1701414402,"current_range_meters":10800,"station_id":"ce4bhk92rcd13ifvqgb0","pricing_plan_id":"free"},{"bike_id":"4d59b31b-4bbe-4cae-9958-461aa522b696","system_id":"levelo_inurba_marseille","lat":43.258658,"lon":5.398935,"is_reserved":false,"is_disabled":false,"rental_uris":{"android":"levelo://app?vid=4d59b31b-4bbe-4cae-9958-461aa522b696","ios":"levelo://app?vid=4d59b31b-4bbe-4cae-9958-461aa522b696"},"vehicle_type_id":"4","last_reported":1701414402,"current_range_meters":26000,"station_id":"ce4bhl92rcd13ifvqghg","pricing_plan_id":"free"},{"bike_id":"2c66474a-544b-4420-b64a-749c3ef9d9df","system_id":"levelo_inurba_marseille","lat":43.25933,"lon":5.40915,"is_reserved":false,"is_disabled":false,"rental_uris":{"android":"levelo://app?vid=2c66474a-544b-4420-b64a-749c3ef9d9df","ios":"levelo://app?vid=2c66474a-544b-4420-b64a-749c3ef9d9df"},"vehicle_type_id":"4","last_reported":1701414402,"current_range_meters":22000,"station_id":"ce4bhm92rcd13ifvqglg","pricing_plan_id":"free"},{"bike_id":"ce92fad5-db92-45e2-9fd5-07b92c8faaa1","system_id":"levelo_inurba_marseille","lat":43.250009,"lon":5.389195,"is_reserved":false,"is_disabled":false,"rental_uris":{"android":"levelo://app?vid=ce92fad5-db92-45e2-9fd5-07b92c8faaa1","ios":"levelo://app?vid=ce92fad5-db92-45e2-9fd5-07b92c8faaa1"},"vehicle_type_id":"4","last_reported":1701414402,"current_range_meters":30800,"station_id":"ce4bhgp2rcd13ifvqfd0","pricing_plan_id":"free"},{"bike_id":"916d861b-8ef3-478f-9026-b3b0e98dccc9","system_id":"levelo_inurba_marseille","lat":43.25102,"lon":5.403214,"is_reserved":false,"is_disabled":false,"rental_uris":{"android":"levelo://app?vid=916d861b-8ef3-478f-9026-b3b0e98dccc9","ios":"levelo://app?vid=916d861b-8ef3-478f-9026-b3b0e98dccc9"},"vehicle_type_id":"4","last_reported":1701414402,"current_range_meters":20400,"station_id":"ce4bhlh2rcd13ifvqgig","pricing_plan_id":"free"},{"bike_id":"44d981c1-fabb-4ace-b7f6-17987d32842e","system_id":"levelo_inurba_marseille","lat":43.25102,"lon":5.403214,"is_reserved":false,"is_disabled":false,"rental_uris":{"android":"levelo://app?vid=44d981c1-fabb-4ace-b7f6-17987d32842e","ios":"levelo://app?vid=44d981c1-fabb-4ace-b7f6-17987d32842e"},"vehicle_type_id":"4","last_reported":1701414402,"current_range_meters":18000,"station_id":"ce4bhlh2rcd13ifvqgig","pricing_plan_id":"free"},{"bike_id":"f5d12203-a36e-4d6c-a2e2-c16f524fcfd9","system_id":"levelo_inurba_marseille","lat":43.246461,"lon":5.389014,"is_reserved":false,"is_disabled":false,"rental_uris":{"android":"levelo://app?vid=f5d12203-a36e-4d6c-a2e2-c16f524fcfd9","ios":"levelo://app?vid=f5d12203-a36e-4d6c-a2e2-c16f524fcfd9"},"vehicle_type_id":"4","last_reported":1701414402,"current_range_meters":27200,"station_id":"ce4bhg12rcd13ifvqf60","pricing_plan_id":"free"},{"bike_id":"77f5e536-1601-4623-b028-457504d450c3","system_id":"levelo_inurba_marseille","lat":43.246461,"lon":5.389014,"is_reserved":false,"is_disabled":false,"rental_uris":{"android":"levelo://app?vid=77f5e536-1601-4623-b028-457504d450c3","ios":"levelo://app?vid=77f5e536-1601-4623-b028-457504d450c3"},"vehicle_type_id":"4","last_reported":1701414402,"current_range_meters":30000,"station_id":"ce4bhg12rcd13ifvqf60","pricing_plan_id":"free"},{"bike_id":"7b2f8029-4f54-4df8-892d-e0449dc04fb8","system_id":"levelo_inurba_marseille","lat":43.24646,"lon":5.38892,"is_reserved":false,"is_disabled":false,"rental_uris":{"android":"levelo://app?vid=7b2f8029-4f54-4df8-892d-e0449dc04fb8","ios":"levelo://app?vid=7b2f8029-4f54-4df8-892d-e0449dc04fb8"},"vehicle_type_id":"4","last_reported":1701414402,"current_range_meters":28400,"station_id":"ce4bhg12rcd13ifvqf60","pricing_plan_id":"free"},{"bike_id":"60cd860b-c770-4c5d-8565-56c13a9b52d5","system_id":"levelo_inurba_marseille","lat":43.243883,"lon":5.370578,"is_reserved":false,"is_disabled":false,"rental_uris":{"android":"levelo://app?vid=60cd860b-c770-4c5d-8565-56c13a9b52d5","ios":"levelo://app?vid=60cd860b-c770-4c5d-8565-56c13a9b52d5"},"vehicle_type_id":"4","last_reported":1701414402,"current_range_meters":27600,"station_id":"ce4bhnp2rcd13ifvqgvg","pricing_plan_id":"free"},{"bike_id":"df0d8a26-31ad-4c9a-9e80-7743b03eaf24","system_id":"levelo_inurba_marseille","lat":43.240623,"lon":5.377642,"is_reserved":false,"is_disabled":false,"rental_uris":{"android":"levelo://app?vid=df0d8a26-31ad-4c9a-9e80-7743b03eaf24","ios":"levelo://app?vid=df0d8a26-31ad-4c9a-9e80-7743b03eaf24"},"vehicle_type_id":"4","last_reported":1701414402,"current_range_meters":20400,"station_id":"ce4bhnp2rcd13ifvqgvg","pricing_plan_id":"free"},{"bike_id":"973b3db1-6e56-41e5-aa86-9a576de460be","system_id":"levelo_inurba_marseille","lat":43.24076,"lon":5.377523,"is_reserved":false,"is_disabled":false,"rental_uris":{"android":"levelo://app?vid=973b3db1-6e56-41e5-aa86-9a576de460be","ios":"levelo://app?vid=973b3db1-6e56-41e5-aa86-9a576de460be"},"vehicle_type_id":"4","last_reported":1701414402,"current_range_meters":18400,"station_id":"ce4bhnp2rcd13ifvqgvg","pricing_plan_id":"free"},{"bike_id":"da2c7a8c-76d4-4d96-9cc0-dd7ac3cc02c3","system_id":"levelo_inurba_marseille","lat":43.24076,"lon":5.3776,"is_reserved":false,"is_disabled":false,"rental_uris":{"android":"levelo://app?vid=da2c7a8c-76d4-4d96-9cc0-dd7ac3cc02c3","ios":"levelo://app?vid=da2c7a8c-76d4-4d96-9cc0-dd7ac3cc02c3"},"vehicle_type_id":"4","last_reported":1701414402,"current_range_meters":11200,"station_id":"ce4bhnp2rcd13ifvqgvg","pricing_plan_id":"free"},{"bike_id":"22af8a33-5d19-4f58-a48b-393cf5164aa7","system_id":"levelo_inurba_marseille","lat":43.240623,"lon":5.377642,"is_reserved":false,"is_disabled":false,"rental_uris":{"android":"levelo://app?vid=22af8a33-5d19-4f58-a48b-393cf5164aa7","ios":"levelo://app?vid=22af8a33-5d19-4f58-a48b-393cf5164aa7"},"vehicle_type_id":"4","last_reported":1701414402,"current_range_meters":26400,"station_id":"ce4bhnp2rcd13ifvqgvg","pricing_plan_id":"free"},{"bike_id":"168c9a65-5caf-4575-a261-728005b57a26","system_id":"levelo_inurba_marseille","lat":43.24075,"lon":5.3776,"is_reserved":false,"is_disabled":false,"rental_uris":{"android":"levelo://app?vid=168c9a65-5caf-4575-a261-728005b57a26","ios":"levelo://app?vid=168c9a65-5caf-4575-a261-728005b57a26"},"vehicle_type_id":"4","last_reported":1701414402,"current_range_meters":17600,"station_id":"ce4bhnp2rcd13ifvqgvg","pricing_plan_id":"free"},{"bike_id":"1ff49f5f-c774-4946-b848-51862abc125d","system_id":"levelo_inurba_marseille","lat":43.240623,"lon":5.377642,"is_reserved":false,"is_disabled":false,"rental_uris":{"android":"levelo://app?vid=1ff49f5f-c774-4946-b848-51862abc125d","ios":"levelo://app?vid=1ff49f5f-c774-4946-b848-51862abc125d"},"vehicle_type_id":"4","last_reported":1701414402,"current_range_meters":27200,"station_id":"ce4bhnp2rcd13ifvqgvg","pricing_plan_id":"free"},{"bike_id":"397cfeeb-d1ee-48f7-a8de-062693bea79f","system_id":"levelo_inurba_marseille","lat":43.240623,"lon":5.377642,"is_reserved":false,"is_disabled":false,"rental_uris":{"android":"levelo://app?vid=397cfeeb-d1ee-48f7-a8de-062693bea79f","ios":"levelo://app?vid=397cfeeb-d1ee-48f7-a8de-062693bea79f"},"vehicle_type_id":"4","last_reported":1701414402,"current_range_meters":26400,"station_id":"ce4bhnp2rcd13ifvqgvg","pricing_plan_id":"free"},{"bike_id":"3d27939c-c0b8-496e-adbb-2f99216c2220","system_id":"levelo_inurba_marseille","lat":43.24074,"lon":5.37759,"is_reserved":false,"is_disabled":false,"rental_uris":{"android":"levelo://app?vid=3d27939c-c0b8-496e-adbb-2f99216c2220","ios":"levelo://app?vid=3d27939c-c0b8-496e-adbb-2f99216c2220"},"vehicle_type_id":"4","last_reported":1701414402,"current_range_meters":27600,"station_id":"ce4bhnp2rcd13ifvqgvg","pricing_plan_id":"free"},{"bike_id":"99fe24b8-9eff-45db-a967-9c89872d3c9a","system_id":"levelo_inurba_marseille","lat":43.24074,"lon":5.37762,"is_reserved":false,"is_disabled":false,"rental_uris":{"android":"levelo://app?vid=99fe24b8-9eff-45db-a967-9c89872d3c9a","ios":"levelo://app?vid=99fe24b8-9eff-45db-a967-9c89872d3c9a"},"vehicle_type_id":"4","last_reported":1701414402,"current_range_meters":26800,"station_id":"ce4bhnp2rcd13ifvqgvg","pricing_plan_id":"free"},{"bike_id":"e3c78006-5ac2-4c7b-9373-b1a04f04badf","system_id":"levelo_inurba_marseille","lat":43.24073,"lon":5.37756,"is_reserved":false,"is_disabled":false,"rental_uris":{"android":"levelo://app?vid=e3c78006-5ac2-4c7b-9373-b1a04f04badf","ios":"levelo://app?vid=e3c78006-5ac2-4c7b-9373-b1a04f04badf"},"vehicle_type_id":"4","last_reported":1701414402,"current_range_meters":8000,"station_id":"ce4bhnp2rcd13ifvqgvg","pricing_plan_id":"free"},{"bike_id":"55b3cd81-3102-42ac-9a78-9cee9df53b8f","system_id":"levelo_inurba_marseille","lat":43.240623,"lon":5.377642,"is_reserved":false,"is_disabled":false,"rental_uris":{"android":"levelo://app?vid=55b3cd81-3102-42ac-9a78-9cee9df53b8f","ios":"levelo://app?vid=55b3cd81-3102-42ac-9a78-9cee9df53b8f"},"vehicle_type_id":"4","last_reported":1701414402,"current_range_meters":28800,"station_id":"ce4bhnp2rcd13ifvqgvg","pricing_plan_id":"free"},{"bike_id":"c7a4e119-a725-4d8e-b2b5-b0b67991847d","system_id":"levelo_inurba_marseille","lat":43.24072,"lon":5.3776,"is_reserved":false,"is_disabled":false,"rental_uris":{"android":"levelo://app?vid=c7a4e119-a725-4d8e-b2b5-b0b67991847d","ios":"levelo://app?vid=c7a4e119-a725-4d8e-b2b5-b0b67991847d"},"vehicle_type_id":"4","last_reported":1701414402,"current_range_meters":17600,"station_id":"ce4bhnp2rcd13ifvqgvg","pricing_plan_id":"free"},{"bike_id":"982850b4-843c-4268-89cf-df8a8f8a4f6c","system_id":"levelo_inurba_marseille","lat":43.240623,"lon":5.377642,"is_reserved":false,"is_disabled":false,"rental_uris":{"android":"levelo://app?vid=982850b4-843c-4268-89cf-df8a8f8a4f6c","ios":"levelo://app?vid=982850b4-843c-4268-89cf-df8a8f8a4f6c"},"vehicle_type_id":"4","last_reported":1701414402,"current_range_meters":14000,"station_id":"ce4bhnp2rcd13ifvqgvg","pricing_plan_id":"free"},{"bike_id":"7f9bb360-bcdd-4fb5-83db-c5a5bbc3e4bb","system_id":"levelo_inurba_marseille","lat":43.240623,"lon":5.377642,"is_reserved":false,"is_disabled":false,"rental_uris":{"android":"levelo://app?vid=7f9bb360-bcdd-4fb5-83db-c5a5bbc3e4bb","ios":"levelo://app?vid=7f9bb360-bcdd-4fb5-83db-c5a5bbc3e4bb"},"vehicle_type_id":"4","last_reported":1701414402,"current_range_meters":19600,"station_id":"ce4bhnp2rcd13ifvqgvg","pricing_plan_id":"free"},{"bike_id":"68283d8a-85d0-468f-893c-1ec33ead4c72","system_id":"levelo_inurba_marseille","lat":43.240623,"lon":5.377642,"is_reserved":false,"is_disabled":false,"rental_uris":{"android":"levelo://app?vid=68283d8a-85d0-468f-893c-1ec33ead4c72","ios":"levelo://app?vid=68283d8a-85d0-468f-893c-1ec33ead4c72"},"vehicle_type_id":"4","last_reported":1701414402,"current_range_meters":28400,"station_id":"ce4bhnp2rcd13ifvqgvg","pricing_plan_id":"free"},{"bike_id":"aeccdc95-2abc-4c4c-84cc-de036b1e6846","system_id":"levelo_inurba_marseille","lat":43.24071,"lon":5.37763,"is_reserved":false,"is_disabled":false,"rental_uris":{"android":"levelo://app?vid=aeccdc95-2abc-4c4c-84cc-de036b1e6846","ios":"levelo://app?vid=aeccdc95-2abc-4c4c-84cc-de036b1e6846"},"vehicle_type_id":"4","last_reported":1701414402,"current_range_meters":17600,"station_id":"ce4bhnp2rcd13ifvqgvg","pricing_plan_id":"free"},{"bike_id":"3d54e59c-bc47-4924-ac20-98760540093b","system_id":"levelo_inurba_marseille","lat":43.240623,"lon":5.377642,"is_reserved":false,"is_disabled":false,"rental_uris":{"android":"levelo://app?vid=3d54e59c-bc47-4924-ac20-98760540093b","ios":"levelo://app?vid=3d54e59c-bc47-4924-ac20-98760540093b"},"vehicle_type_id":"4","last_reported":1701414402,"current_range_meters":14400,"station_id":"ce4bhnp2rcd13ifvqgvg","pricing_plan_id":"free"},{"bike_id":"c4294243-9247-480c-8ace-6895488fd199","system_id":"levelo_inurba_marseille","lat":43.240623,"lon":5.377642,"is_reserved":false,"is_disabled":false,"rental_uris":{"android":"levelo://app?vid=c4294243-9247-480c-8ace-6895488fd199","ios":"levelo://app?vid=c4294243-9247-480c-8ace-6895488fd199"},"vehicle_type_id":"4","last_reported":1701414402,"current_range_meters":0,"station_id":"ce4bhnp2rcd13ifvqgvg","pricing_plan_id":"free"},{"bike_id":"cfbbe273-a2fc-4fa7-ad22-d2160c539044","system_id":"levelo_inurba_marseille","lat":43.240623,"lon":5.377642,"is_reserved":false,"is_disabled":false,"rental_uris":{"android":"levelo://app?vid=cfbbe273-a2fc-4fa7-ad22-d2160c539044","ios":"levelo://app?vid=cfbbe273-a2fc-4fa7-ad22-d2160c539044"},"vehicle_type_id":"4","last_reported":1701414402,"current_range_meters":28800,"station_id":"ce4bhnp2rcd13ifvqgvg","pricing_plan_id":"free"},{"bike_id":"f7fd60b8-713a-4f69-9a5a-dd4fe5e71815","system_id":"levelo_inurba_marseille","lat":43.240623,"lon":5.377642,"is_reserved":false,"is_disabled":false,"rental_uris":{"android":"levelo://app?vid=f7fd60b8-713a-4f69-9a5a-dd4fe5e71815","ios":"levelo://app?vid=f7fd60b8-713a-4f69-9a5a-dd4fe5e71815"},"vehicle_type_id":"4","last_reported":1701414402,"current_range_meters":30400,"station_id":"ce4bhnp2rcd13ifvqgvg","pricing_plan_id":"free"},{"bike_id":"c0d1ff7b-8424-4190-b143-8989c86900e5","system_id":"levelo_inurba_marseille","lat":43.240623,"lon":5.377642,"is_reserved":false,"is_disabled":false,"rental_uris":{"android":"levelo://app?vid=c0d1ff7b-8424-4190-b143-8989c86900e5","ios":"levelo://app?vid=c0d1ff7b-8424-4190-b143-8989c86900e5"},"vehicle_type_id":"4","last_reported":1701414402,"current_range_meters":20400,"station_id":"ce4bhnp2rcd13ifvqgvg","pricing_plan_id":"free"},{"bike_id":"e47d7064-1951-4979-b605-3fd7f7608f13","system_id":"levelo_inurba_marseille","lat":43.240623,"lon":5.377642,"is_reserved":false,"is_disabled":false,"rental_uris":{"android":"levelo://app?vid=e47d7064-1951-4979-b605-3fd7f7608f13","ios":"levelo://app?vid=e47d7064-1951-4979-b605-3fd7f7608f13"},"vehicle_type_id":"4","last_reported":1701414402,"current_range_meters":28800,"station_id":"ce4bhnp2rcd13ifvqgvg","pricing_plan_id":"free"},{"bike_id":"e6c87bb9-749c-4183-a309-7aedddc29015","system_id":"levelo_inurba_marseille","lat":43.240623,"lon":5.377642,"is_reserved":false,"is_disabled":false,"rental_uris":{"android":"levelo://app?vid=e6c87bb9-749c-4183-a309-7aedddc29015","ios":"levelo://app?vid=e6c87bb9-749c-4183-a309-7aedddc29015"},"vehicle_type_id":"4","last_reported":1701414402,"current_range_meters":29200,"station_id":"ce4bhnp2rcd13ifvqgvg","pricing_plan_id":"free"},{"bike_id":"a517b7b3-e439-4e17-9498-8c7862bdde7e","system_id":"levelo_inurba_marseille","lat":43.240623,"lon":5.377642,"is_reserved":false,"is_disabled":false,"rental_uris":{"android":"levelo://app?vid=a517b7b3-e439-4e17-9498-8c7862bdde7e","ios":"levelo://app?vid=a517b7b3-e439-4e17-9498-8c7862bdde7e"},"vehicle_type_id":"4","last_reported":1701414402,"current_range_meters":30000,"station_id":"ce4bhnp2rcd13ifvqgvg","pricing_plan_id":"free"},{"bike_id":"3ecf9bd9-273b-44cb-bcf5-e6a8b3379dfc","system_id":"levelo_inurba_marseille","lat":43.241782,"lon":5.397264,"is_reserved":false,"is_disabled":false,"rental_uris":{"android":"levelo://app?vid=3ecf9bd9-273b-44cb-bcf5-e6a8b3379dfc","ios":"levelo://app?vid=3ecf9bd9-273b-44cb-bcf5-e6a8b3379dfc"},"vehicle_type_id":"4","last_reported":1701414402,"current_range_meters":22400,"station_id":"ce4bhn12rcd13ifvqgpg","pricing_plan_id":"free"},{"bike_id":"cf3102c4-88e0-4a41-86b7-69a76932d3e6","system_id":"levelo_inurba_marseille","lat":43.231923,"lon":5.355545,"is_reserved":false,"is_disabled":false,"rental_uris":{"android":"levelo://app?vid=cf3102c4-88e0-4a41-86b7-69a76932d3e6","ios":"levelo://app?vid=cf3102c4-88e0-4a41-86b7-69a76932d3e6"},"vehicle_type_id":"4","last_reported":1701414402,"current_range_meters":31200,"station_id":"ce4bhu92rcd13ifvqi70","pricing_plan_id":"free"},{"bike_id":"e24daac6-4c93-40f9-8f65-68e5542d6c98","system_id":"levelo_inurba_marseille","lat":43.231923,"lon":5.355545,"is_reserved":false,"is_disabled":false,"rental_uris":{"android":"levelo://app?vid=e24daac6-4c93-40f9-8f65-68e5542d6c98","ios":"levelo://app?vid=e24daac6-4c93-40f9-8f65-68e5542d6c98"},"vehicle_type_id":"4","last_reported":1701414402,"current_range_meters":20400,"station_id":"ce4bhu92rcd13ifvqi70","pricing_plan_id":"free"},{"bike_id":"bd1317ba-108f-4c18-a717-47abe8ebd761","system_id":"levelo_inurba_marseille","lat":43.231919,"lon":5.355532,"is_reserved":false,"is_disabled":false,"rental_uris":{"android":"levelo://app?vid=bd1317ba-108f-4c18-a717-47abe8ebd761","ios":"levelo://app?vid=bd1317ba-108f-4c18-a717-47abe8ebd761"},"vehicle_type_id":"4","last_reported":1701414402,"current_range_meters":21600,"station_id":"ce4bhu92rcd13ifvqi70","pricing_plan_id":"free"},{"bike_id":"d1703505-b125-4a98-a807-11024241bc04","system_id":"levelo_inurba_marseille","lat":43.231923,"lon":5.355545,"is_reserved":false,"is_disabled":false,"rental_uris":{"android":"levelo://app?vid=d1703505-b125-4a98-a807-11024241bc04","ios":"levelo://app?vid=d1703505-b125-4a98-a807-11024241bc04"},"vehicle_type_id":"4","last_reported":1701414402,"current_range_meters":31200,"station_id":"ce4bhu92rcd13ifvqi70","pricing_plan_id":"free"},{"bike_id":"d1dfe326-9244-4159-86ca-6dcc5e36ada8","system_id":"levelo_inurba_marseille","lat":43.231923,"lon":5.355545,"is_reserved":false,"is_disabled":false,"rental_uris":{"android":"levelo://app?vid=d1dfe326-9244-4159-86ca-6dcc5e36ada8","ios":"levelo://app?vid=d1dfe326-9244-4159-86ca-6dcc5e36ada8"},"vehicle_type_id":"4","last_reported":1701414402,"current_range_meters":10800,"station_id":"ce4bhu92rcd13ifvqi70","pricing_plan_id":"free"},{"bike_id":"afb85293-b2b9-4066-96a9-a697486041c8","system_id":"levelo_inurba_marseille","lat":43.231919,"lon":5.355532,"is_reserved":false,"is_disabled":false,"rental_uris":{"android":"levelo://app?vid=afb85293-b2b9-4066-96a9-a697486041c8","ios":"levelo://app?vid=afb85293-b2b9-4066-96a9-a697486041c8"},"vehicle_type_id":"4","last_reported":1701414402,"current_range_meters":8800,"station_id":"ce4bhu92rcd13ifvqi70","pricing_plan_id":"free"},{"bike_id":"6a5023e2-2488-45ca-994d-66608d985b97","system_id":"levelo_inurba_marseille","lat":43.231793,"lon":5.400044,"is_reserved":false,"is_disabled":false,"rental_uris":{"android":"levelo://app?vid=6a5023e2-2488-45ca-994d-66608d985b97","ios":"levelo://app?vid=6a5023e2-2488-45ca-994d-66608d985b97"},"vehicle_type_id":"4","last_reported":1701414402,"current_range_meters":30000,"station_id":"ce4bhn12rcd13ifvqgqg","pricing_plan_id":"free"},{"bike_id":"e4238cd3-66a8-491a-b9bc-f1a43eaa4222","system_id":"levelo_inurba_marseille","lat":43.231794,"lon":5.400052,"is_reserved":false,"is_disabled":false,"rental_uris":{"android":"levelo://app?vid=e4238cd3-66a8-491a-b9bc-f1a43eaa4222","ios":"levelo://app?vid=e4238cd3-66a8-491a-b9bc-f1a43eaa4222"},"vehicle_type_id":"4","last_reported":1701414402,"current_range_meters":31200,"station_id":"ce4bhn12rcd13ifvqgqg","pricing_plan_id":"free"},{"bike_id":"cdfcf9d8-5b42-40a1-9c86-605bac4b94e5","system_id":"levelo_inurba_marseille","lat":43.23189,"lon":5.39987,"is_reserved":false,"is_disabled":false,"rental_uris":{"android":"levelo://app?vid=cdfcf9d8-5b42-40a1-9c86-605bac4b94e5","ios":"levelo://app?vid=cdfcf9d8-5b42-40a1-9c86-605bac4b94e5"},"vehicle_type_id":"4","last_reported":1701414402,"current_range_meters":18000,"station_id":"ce4bhn12rcd13ifvqgqg","pricing_plan_id":"free"},{"bike_id":"0877e5b2-e6cf-4fa4-a987-f057e3aebebf","system_id":"levelo_inurba_marseille","lat":43.231883,"lon":5.399936,"is_reserved":false,"is_disabled":false,"rental_uris":{"android":"levelo://app?vid=0877e5b2-e6cf-4fa4-a987-f057e3aebebf","ios":"levelo://app?vid=0877e5b2-e6cf-4fa4-a987-f057e3aebebf"},"vehicle_type_id":"4","last_reported":1701414402,"current_range_meters":30000,"station_id":"ce4bhn12rcd13ifvqgqg","pricing_plan_id":"free"},{"bike_id":"42335cd1-7845-453d-a240-a54527ead2ee","system_id":"levelo_inurba_marseille","lat":43.231793,"lon":5.400044,"is_reserved":false,"is_disabled":false,"rental_uris":{"android":"levelo://app?vid=42335cd1-7845-453d-a240-a54527ead2ee","ios":"levelo://app?vid=42335cd1-7845-453d-a240-a54527ead2ee"},"vehicle_type_id":"4","last_reported":1701414402,"current_range_meters":31200,"station_id":"ce4bhn12rcd13ifvqgqg","pricing_plan_id":"free"},{"bike_id":"1eeab9a5-d341-4bc8-8d21-ee151ff9d9b2","system_id":"levelo_inurba_marseille","lat":43.231858,"lon":5.399855,"is_reserved":false,"is_disabled":false,"rental_uris":{"android":"levelo://app?vid=1eeab9a5-d341-4bc8-8d21-ee151ff9d9b2","ios":"levelo://app?vid=1eeab9a5-d341-4bc8-8d21-ee151ff9d9b2"},"vehicle_type_id":"4","last_reported":1701414402,"current_range_meters":25200,"station_id":"ce4bhn12rcd13ifvqgqg","pricing_plan_id":"free"},{"bike_id":"8eb0ca37-48be-46c0-a9a9-f5b046dc44f1","system_id":"levelo_inurba_marseille","lat":43.231794,"lon":5.400052,"is_reserved":false,"is_disabled":false,"rental_uris":{"android":"levelo://app?vid=8eb0ca37-48be-46c0-a9a9-f5b046dc44f1","ios":"levelo://app?vid=8eb0ca37-48be-46c0-a9a9-f5b046dc44f1"},"vehicle_type_id":"4","last_reported":1701414402,"current_range_meters":31200,"station_id":"ce4bhn12rcd13ifvqgqg","pricing_plan_id":"free"},{"bike_id":"a0a14c22-c846-4739-b265-abe428872134","system_id":"levelo_inurba_marseille","lat":43.231793,"lon":5.400044,"is_reserved":false,"is_disabled":false,"rental_uris":{"android":"levelo://app?vid=a0a14c22-c846-4739-b265-abe428872134","ios":"levelo://app?vid=a0a14c22-c846-4739-b265-abe428872134"},"vehicle_type_id":"4","last_reported":1701414402,"current_range_meters":11200,"station_id":"ce4bhn12rcd13ifvqgqg","pricing_plan_id":"free"},{"bike_id":"e0e24483-9bcf-45d9-bbfa-46e4151a6b36","system_id":"levelo_inurba_marseille","lat":43.23154,"lon":5.436987,"is_reserved":false,"is_disabled":false,"rental_uris":{"android":"levelo://app?vid=e0e24483-9bcf-45d9-bbfa-46e4151a6b36","ios":"levelo://app?vid=e0e24483-9bcf-45d9-bbfa-46e4151a6b36"},"vehicle_type_id":"4","last_reported":1701414402,"current_range_meters":31200,"station_id":"ce4bhmp2rcd13ifvqgog","pricing_plan_id":"free"},