{"last_updated":1735679270,"ttl":60,"version":"2.2","data":{"bikes":[{"bike_id":"2f56c5dc-0755-4629-adf9-4349a3b8ebb1","system_id":"levelo_inurba_marseille","lat":43.28157,"lon":5.4264,"is_reserved":false,"is_disabled":false,"rental_uris":{"android":"levelo://app?vid=2f56c5dc-0755-4629-adf9-4349a3b8ebb1","ios":"levelo://app?vid=2f56c5dc-0755-4629-adf9-4349a3b8ebb1"},"vehicle_type_id":"4","last_reported":1735679270,"current_range_meters":26000,"station_id":"ce4bhnh2rcd13ifvqgug","pricing_plan_id":"cebpf4jnsgd1na2vs0mg"},{"bike_id":"7e7ea298-a0f1-43f6-ad61-33f7bfccc079","system_id":"levelo_inurba_marseille","lat":43.24805,"lon":5.37459,"is_reserved":false,"is_disabled":false,"rental_uris":{"android":"levelo://app?vid=7e7ea298-a0f1-43f6-ad61-33f7bfccc079","ios":"levelo://app?vid=7e7ea298-a0f1-43f6-ad61-33f7bfccc079"},"vehicle_type_id":"4","last_reported":1735679270,"current_range_meters":38800,"station_id":"ce4bhgh2rcd13ifvqfb0","pricing_plan_id":"cebpf4jnsgd1na2vs0mg"},{"bike_id":"eebc4850-6ef9-46e6-b48b-57b8c062b998","system_id":"levelo_inurba_marseille","lat":43.28708,"lon":5.3794,"is_reserved":false,"is_disabled":true,"rental_uris":{"android":"levelo://app?vid=eebc4850-6ef9-46e6-b48b-57b8c062b998","ios":"levelo://app?vid=eebc4850-6ef9-46e6-b48b-57b8c062b998"},"vehicle_type_id":"4","last_reported":1735679270,"current_range_meters":20800,"station_id":"ce4bh9p2rcd13ifvqec0","pricing_plan_id":"cebpf4jnsgd1na2vs0mg"},{"bike_id":"67fad499-4eaa-4874-a203-48f61708ae07","system_id":"levelo_inurba_marseille","lat":43.27829,"lon":5.39197,"is_reserved":false,"is_disabled":false,"rental_uris":{"android":"levelo://app?vid=67fad499-4eaa-4874-a203-48f61708ae07","ios":"levelo://app?vid=67fad499-4eaa-4874-a203-48f61708ae07"},"vehicle_type_id":"4","last_reported":1735679270,"current_range_meters":39200,"station_id":"ce4bhjp2rcd13ifvqga0","pricing_plan_id":"cebpf4jnsgd1na2vs0mg"},{"bike_id":"db04c164-40e3-4c2c-950a-78c15a8b32e6","system_id":"levelo_inurba_marseille","lat":43.298951,"lon":5.436679,"is_reserved":false,"is_disabled":false,"rental_uris":{"android":"levelo://app?vid=db04c164-40e3-4c2c-950a-78c15a8b32e6","ios":"levelo://app?vid=db04c164-40e3-4c2c-950a-78c15a8b32e6"},"vehicle_type_id":"4","last_reported":1735679270,"current_range_meters":3600,"station_id":"ce4bhpp2rcd13ifvqhfg","pricing_plan_id":"cebpf4jnsgd1na2vs0mg"},{"bike_id":"30675ccc-9ef1-40b1-963e-228cee2b4741","system_id":"levelo_inurba_marseille","lat":43.27943,"lon":5.41034,"is_reserved":false,"is_disabled":true,"rental_uris":{"android":"levelo://app?vid=30675ccc-9ef1-40b1-963e-228cee2b4741","ios":"levelo://app?vid=30675ccc-9ef1-40b1-963e-228cee2b4741"},"vehicle_type_id":"4","last_reported":1735679270,"current_range_meters":24000,"station_id":"ce4bhnp2rcd13ifvqh0g","pricing_plan_id":"cebpf4jnsgd1na2vs0mg"},{"bike_id":"a911ad56-f075-4daa-a2af-dfa20e116258","system_id":"levelo_inurba_marseille","lat":43.27418,"lon":5.38385,"is_reserved":false,"is_disabled":false,"rental_uris":{"android":"levelo://app?vid=a911ad56-f075-4daa-a2af-dfa20e116258","ios":"levelo://app?vid=a911ad56-f075-4daa-a2af-dfa20e116258"},"vehicle_type_id":"4","last_reported":1735679270,"current_range_meters":12800,"station_id":"ce4bhh92rcd13ifvqfi0","pricing_plan_id":"cebpf4jnsgd1na2vs0mg"},{"bike_id":"9f45f6aa-df3d-43dd-affd-1fb08c33b108","system_id":"levelo_inurba_marseille","lat":43.27615,"lon":5.36106,"is_reserved":false,"is_disabled":true,"rental_uris":{"android":"levelo://app?vid=9f45f6aa-df3d-43dd-affd-1fb08c33b108","ios":"levelo://app?vid=9f45f6aa-df3d-43dd-affd-1fb08c33b108"},"vehicle_type_id":"4","last_reported":1735679270,"current_range_meters":0,"station_id":"ce4bgj92rcd13ifvqbe0","pricing_plan_id":"cebpf4jnsgd1na2vs0mg"},{"bike_id":"3991aac2-ec7f-43c8-801f-23e11845f2d6","system_id":"levelo_inurba_marseille","lat":43.28148,"lon":5.42633,"is_reserved":false,"is_disabled":false,"rental_uris":{"android":"levelo://app?vid=3991aac2-ec7f-43c8-801f-23e11845f2d6","ios":"levelo://app?vid=3991aac2-ec7f-43c8-801f-23e11845f2d6"},"vehicle_type_id":"4","last_reported":1735679270,"current_range_meters":38800,"station_id":"ce4bhnh2rcd13ifvqgug","pricing_plan_id":"cebpf4jnsgd1na2vs0mg"},{"bike_id":"a84c903a-16f0-44ed-becd-c6849674ff70","system_id":"levelo_inurba_marseille","lat":43.22917,"lon":5.35382,"is_reserved":false,"is_disabled":false,"rental_uris":{"android":"levelo://app?vid=a84c903a-16f0-44ed-becd-c6849674ff70","ios":"levelo://app?vid=a84c903a-16f0-44ed-becd-c6849674ff70"},"vehicle_type_id":"4","last_reported":1735679270,"current_range_meters":8000,"station_id":"cpo3532slgdg3j2ikp40","pricing_plan_id":"cebpf4jnsgd1na2vs0mg"},{"bike_id":"8d025c11-b5b4-4d30-94be-1950a10e6712","system_id":"levelo_inurba_marseille","lat":43.28682,"lon":5.38688,"is_reserved":false,"is_disabled":false,"rental_uris":{"android":"levelo://app?vid=8d025c11-b5b4-4d30-94be-1950a10e6712","ios":"levelo://app?vid=8d025c11-b5b4-4d30-94be-1950a10e6712"},"vehicle_type_id":"4","last_reported":1735679270,"current_range_meters":38800,"station_id":"ce4bh492rcd13ifvqdug","pricing_plan_id":"cebpf4jnsgd1na2vs0mg"},{"bike_id":"fd8f4633-afe2-4be6-b0e9-8ae7cf81f111","system_id":"levelo_inurba_marseille","lat":43.28822,"lon":5.35877,"is_reserved":false,"is_disabled":false,"rental_uris":{"android":"levelo://app?vid=fd8f4633-afe2-4be6-b0e9-8ae7cf81f111","ios":"levelo://app?vid=fd8f4633-afe2-4be6-b0e9-8ae7cf81f111"},"vehicle_type_id":"4","last_reported":1735679270,"current_range_meters":35600,"station_id":"ce4bhb12rcd13ifvqem0","pricing_plan_id":"cebpf4jnsgd1na2vs0mg"},{"bike_id":"2883c41c-39eb-4845-acae-69dc461c442a","system_id":"levelo_inurba_marseille","lat":43.29754,"lon":5.37671,"is_reserved":false,"is_disabled":false,"rental_uris":{"android":"levelo://app?vid=2883c41c-39eb-4845-acae-69dc461c442a","ios":"levelo://app?vid=2883c41c-39eb-4845-acae-69dc461c442a"},"vehicle_type_id":"4","last_reported":1735679270,"current_range_meters":38800,"station_id":"ce4bgkh2rcd13ifvqbl0","pricing_plan_id":"cebpf4jnsgd1na2vs0mg"},{"bike_id":"8ad09b60-3a79-4fc1-9f8d-63dc687108f3","system_id":"levelo_inurba_marseille","lat":43.337444,"lon":5.374475,"is_reserved":false,"is_disabled":false,"rental_uris":{"android":"levelo://app?vid=8ad09b60-3a79-4fc1-9f8d-63dc687108f3","ios":"levelo://app?vid=8ad09b60-3a79-4fc1-9f8d-63dc687108f3"},"vehicle_type_id":"4","last_reported":1735679270,"current_range_meters":38000,"station_id":"","pricing_plan_id":"cebpf4jnsgd1na2vs0mg"},{"bike_id":"aaf2847c-1c33-449a-8a3d-243e799ec2b1","system_id":"levelo_inurba_marseille","lat":43.23966,"lon":5.36631,"is_reserved":false,"is_disabled":false,"rental_uris":{"android":"levelo://app?vid=aaf2847c-1c33-449a-8a3d-243e799ec2b1","ios":"levelo://app?vid=aaf2847c-1c33-449a-8a3d-243e799ec2b1"},"vehicle_type_id":"4","last_reported":1735679270,"current_range_meters":38800,"station_id":"ce4bhi12rcd13ifvqfp0","pricing_plan_id":"cebpf4jnsgd1na2vs0mg"},{"bike_id":"58ed0d8b-f84c-45b4-bfb5-d53028993fff","system_id":"levelo_inurba_marseille","lat":43.29511,"lon":5.38529,"is_reserved":false,"is_disabled":false,"rental_uris":{"android":"levelo://app?vid=58ed0d8b-f84c-45b4-bfb5-d53028993fff","ios":"levelo://app?vid=58ed0d8b-f84c-45b4-bfb5-d53028993fff"},"vehicle_type_id":"4","last_reported":1735679270,"current_range_meters":11600,"station_id":"ce4bgih2rcd13ifvqba0","pricing_plan_id":"cebpf4jnsgd1na2vs0mg"},{"bike_id":"5430a545-a0f1-45ad-a500-b4193006fdcf","system_id":"levelo_inurba_marseille","lat":43.23202,"lon":5.35557,"is_reserved":false,"is_disabled":false,"rental_uris":{"android":"levelo://app?vid=5430a545-a0f1-45ad-a500-b4193006fdcf","ios":"levelo://app?vid=5430a545-a0f1-45ad-a500-b4193006fdcf"},"vehicle_type_id":"4","last_reported":1735679270,"current_range_meters":28800,"station_id":"ce4bhu92rcd13ifvqi70","pricing_plan_id":"cebpf4jnsgd1na2vs0mg"},{"bike_id":"21499bf6-ca47-470a-84a2-678535dbe40a","system_id":"levelo_inurba_marseille","lat":43.24545,"lon":5.3952,"is_reserved":false,"is_disabled":false,"rental_uris":{"android":"levelo://app?vid=21499bf6-ca47-470a-84a2-678535dbe40a","ios":"levelo://app?vid=21499bf6-ca47-470a-84a2-678535dbe40a"},"vehicle_type_id":"4","last_reported":1735679270,"current_range_meters":27600,"station_id":"ce4bhlp2rcd13ifvqgjg","pricing_plan_id":"cebpf4jnsgd1na2vs0mg"},{"bike_id":"6e1c4718-254a-4d40-8026-73892ae658db","system_id":"levelo_inurba_marseille","lat":43.28593,"lon":5.37084,"is_reserved":false,"is_disabled":false,"rental_uris":{"android":"levelo://app?vid=6e1c4718-254a-4d40-8026-73892ae658db","ios":"levelo://app?vid=6e1c4718-254a-4d40-8026-73892ae658db"},"vehicle_type_id":"4","last_reported":1735679270,"current_range_meters":37600,"station_id":"ce4bht12rcd13ifvqi60","pricing_plan_id":"cebpf4jnsgd1na2vs0mg"},{"bike_id":"68e39612-ffc4-4e9c-a28d-8d678cad2545","system_id":"levelo_inurba_marseille","lat":43.27988,"lon":5.41654,"is_reserved":false,"is_disabled":false,"rental_uris":{"android":"levelo://app?vid=68e39612-ffc4-4e9c-a28d-8d678cad2545","ios":"levelo://app?vid=68e39612-ffc4-4e9c-a28d-8d678cad2545"},"vehicle_type_id":"4","last_reported":1735679270,"current_range_meters":9600,"station_id":"ce4bho12rcd13ifvqh1g","pricing_plan_id":"cebpf4jnsgd1na2vs0mg"},{"bike_id":"824dff05-92e2-41ca-b397-8ce5eeeb8764","system_id":"levelo_inurba_marseille","lat":43.29271,"lon":5.38451,"is_reserved":false,"is_disabled":false,"rental_uris":{"android":"levelo://app?vid=824dff05-92e2-41ca-b397-8ce5eeeb8764","ios":"levelo://app?vid=824dff05-92e2-41ca-b397-8ce5eeeb8764"},"vehicle_type_id":"4","last_reported":1735679270,"current_range_meters":22000,"station_id":"ce4bh692rcd13ifvqea0","pricing_plan_id":"cebpf4jnsgd1na2vs0mg"},{"bike_id":"d1b43656-444a-4c4e-9bbc-6942224e2fdb","system_id":"levelo_inurba_marseille","lat":43.29255,"lon":5.38429,"is_reserved":false,"is_disabled":false,"rental_uris":{"android":"levelo://app?vid=d1b43656-444a-4c4e-9bbc-6942224e2fdb","ios":"levelo://app?vid=d1b43656-444a-4c4e-9bbc-6942224e2fdb"},"vehicle_type_id":"4","last_reported":1735679270,"current_range_meters":25200,"station_id":"ce4bh692rcd13ifvqea0","pricing_plan_id":"cebpf4jnsgd1na2vs0mg"},{"bike_id":"406c72fc-c815-4840-861a-36d7f7f2fd01","system_id":"levelo_inurba_marseille","lat":43.25505,"lon":5.37646,"is_reserved":false,"is_disabled":false,"rental_uris":{"android":"levelo://app?vid=406c72fc-c815-4840-861a-36d7f7f2fd01","ios":"levelo://app?vid=406c72fc-c815-4840-861a-36d7f7f2fd01"},"vehicle_type_id":"4","last_reported":1735679270,"current_range_meters":25600,"station_id":"ce4bhh12rcd13ifvqff0","pricing_plan_id":"cebpf4jnsgd1na2vs0mg"},{"bike_id":"dfa4c1c3-3888-4ef7-8b55-ce266d021f7a","system_id":"levelo_inurba_marseille","lat":43.30274,"lon":5.37717,"is_reserved":false,"is_disabled":true,"rental_uris":{"android":"levelo://app?vid=dfa4c1c3-3888-4ef7-8b55-ce266d021f7a","ios":"levelo://app?vid=dfa4c1c3-3888-4ef7-8b55-ce266d021f7a"},"vehicle_type_id":"4","last_reported":1735679270,"current_range_meters":1600,"station_id":"ce4bguh2rcd13ifvqcj0","pricing_plan_id":"cebpf4jnsgd1na2vs0mg"},{"bike_id":"d08aed72-c4aa-4b14-9e94-1554d28646fc","system_id":"levelo_inurba_marseille","lat":43.23967,"lon":5.36624,"is_reserved":false,"is_disabled":false,"rental_uris":{"android":"levelo://app?vid=d08aed72-c4aa-4b14-9e94-1554d28646fc","ios":"levelo://app?vid=d08aed72-c4aa-4b14-9e94-1554d28646fc"},"vehicle_type_id":"4","last_reported":1735679270,"current_range_meters":38800,"station_id":"ce4bhi12rcd13ifvqfp0","pricing_plan_id":"cebpf4jnsgd1na2vs0mg"},{"bike_id":"1e9e3505-f98d-4ac7-b45c-e821968c5506","system_id":"levelo_inurba_marseille","lat":43.231955,"lon":5.355592,"is_reserved":false,"is_disabled":false,"rental_uris":{"android":"levelo://app?vid=1e9e3505-f98d-4ac7-b45c-e821968c5506","ios":"levelo://app?vid=1e9e3505-f98d-4ac7-b45c-e821968c5506"},"vehicle_type_id":"4","last_reported":1735679270,"current_range_meters":14800,"station_id":"ce4bhu92rcd13ifvqi70","pricing_plan_id":"cebpf4jnsgd1na2vs0mg"},{"bike_id":"aca64c73-3970-4d23-8a6c-6e2006ffd322","system_id":"levelo_inurba_marseille","lat":43.30641,"lon":5.40038,"is_reserved":false,"is_disabled":false,"rental_uris":{"android":"levelo://app?vid=aca64c73-3970-4d23-8a6c-6e2006ffd322","ios":"levelo://app?vid=aca64c73-3970-4d23-8a6c-6e2006ffd322"},"vehicle_type_id":"4","last_reported":1735679270,"current_range_meters":38800,"station_id":"ce4bh112rcd13ifvqda0","pricing_plan_id":"cebpf4jnsgd1na2vs0mg"},{"bike_id":"cfe106c9-317a-4dfe-a370-65e124f77347","system_id":"levelo_inurba_marseille","lat":43.26141,"lon":5.39732,"is_reserved":false,"is_disabled":false,"rental_uris":{"android":"levelo://app?vid=cfe106c9-317a-4dfe-a370-65e124f77347","ios":"levelo://app?vid=cfe106c9-317a-4dfe-a370-65e124f77347"},"vehicle_type_id":"4","last_reported":1735679270,"current_range_meters":5600,"station_id":"ce4bhkp2rcd13ifvqgd0","pricing_plan_id":"cebpf4jnsgd1na2vs0mg"},{"bike_id":"29e41b02-be52-4633-b267-4292f5ed1d1a","system_id":"levelo_inurba_marseille","lat":43.25866,"lon":5.39895,"is_reserved":false,"is_disabled":false,"rental_uris":{"android":"levelo://app?vid=29e41b02-be52-4633-b267-4292f5ed1d1a","ios":"levelo://app?vid=29e41b02-be52-4633-b267-4292f5ed1d1a"},"vehicle_type_id":"4","last_reported":1735679270,"current_range_meters":7200,"station_id":"ce4bhl92rcd13ifvqghg","pricing_plan_id":"cebpf4jnsgd1na2vs0mg"},{"bike_id":"b0928a81-61c8-44a5-9776-8fe493d1a25a","system_id":"levelo_inurba_marseille","lat":43.30359,"lon":5.41857,"is_reserved":false,"is_disabled":false,"rental_uris":{"android":"levelo://app?vid=b0928a81-61c8-44a5-9776-8fe493d1a25a","ios":"levelo://app?vid=b0928a81-61c8-44a5-9776-8fe493d1a25a"},"vehicle_type_id":"4","last_reported":1735679270,"current_range_meters":19600,"station_id":"ce4bhop2rcd13ifvqh7g","pricing_plan_id":"cebpf4jnsgd1na2vs0mg"},{"bike_id":"b4a4c706-c98e-42b6-adbd-460e5a59b03f","system_id":"levelo_inurba_marseille","lat":43.296888,"lon":5.367203,"is_reserved":false,"is_disabled":false,"rental_uris":{"android":"levelo://app?vid=b4a4c706-c98e-42b6-adbd-460e5a59b03f","ios":"levelo://app?vid=b4a4c706-c98e-42b6-adbd-460e5a59b03f"},"vehicle_type_id":"4","last_reported":1735679270,"current_range_meters":25200,"station_id":"","pricing_plan_id":"cebpf4jnsgd1na2vs0mg"},{"bike_id":"4b312642-a9fb-4e5b-bdfb-f8db303b358a","system_id":"levelo_inurba_marseille","lat":43.29621,"lon":5.37704,"is_reserved":false,"is_disabled":false,"rental_uris":{"android":"levelo://app?vid=4b312642-a9fb-4e5b-bdfb-f8db303b358a","ios":"levelo://app?vid=4b312642-a9fb-4e5b-bdfb-f8db303b358a"},"vehicle_type_id":"4","last_reported":1735679270,"current_range_meters":30000,"station_id":"ce4bgi92rcd13ifvqb90","pricing_plan_id":"cebpf4jnsgd1na2vs0mg"},{"bike_id":"dd006384-15fd-4933-aa71-736562a193fd","system_id":"levelo_inurba_marseille","lat":43.29279,"lon":5.36842,"is_reserved":false,"is_disabled":false,"rental_uris":{"android":"levelo://app?vid=dd006384-15fd-4933-aa71-736562a193fd","ios":"levelo://app?vid=dd006384-15fd-4933-aa71-736562a193fd"},"vehicle_type_id":"4","last_reported":1735679270,"current_range_meters":27600,"station_id":"ce4bhbp2rcd13ifvqesg","pricing_plan_id":"cebpf4jnsgd1na2vs0mg"},{"bike_id":"ff49d49a-53c3-499a-b296-89a67f332a8a","system_id":"levelo_inurba_marseille","lat":43.24169,"lon":5.36397,"is_reserved":false,"is_disabled":false,"rental_uris":{"android":"levelo://app?vid=ff49d49a-53c3-499a-b296-89a67f332a8a","ios":"levelo://app?vid=ff49d49a-53c3-499a-b296-89a67f332a8a"},"vehicle_type_id":"4","last_reported":1735679270,"current_range_meters":35200,"station_id":"cpo36qri1sfpv3e86is0","pricing_plan_id":"cebpf4jnsgd1na2vs0mg"},{"bike_id":"b15ffaf6-1df7-4b7f-835b-f51035d09dbd","system_id":"levelo_inurba_marseille","lat":43.27615,"lon":5.36116,"is_reserved":false,"is_disabled":false,"rental_uris":{"android":"levelo://app?vid=b15ffaf6-1df7-4b7f-835b-f51035d09dbd","ios":"levelo://app?vid=b15ffaf6-1df7-4b7f-835b-f51035d09dbd"},"vehicle_type_id":"4","last_reported":1735679270,"current_range_meters":19200,"station_id":"ce4bgj92rcd13ifvqbe0","pricing_plan_id":"cebpf4jnsgd1na2vs0mg"},{"bike_id":"02d2eda8-b085-4082-b401-09ae9b253c16","system_id":"levelo_inurba_marseille","lat":43.303,"lon":5.39213,"is_reserved":false,"is_disabled":false,"rental_uris":{"android":"levelo://app?vid=02d2eda8-b085-4082-b401-09ae9b253c16","ios":"levelo://app?vid=02d2eda8-b085-4082-b401-09ae9b253c16"},"vehicle_type_id":"4","last_reported":1735679270,"current_range_meters":37600,"station_id":"ce4bgkh2rcd13ifvqbk0","pricing_plan_id":"cebpf4jnsgd1na2vs0mg"},{"bike_id":"d841d641-2f56-46e3-be38-87db9829533f","system_id":"levelo_inurba_marseille","lat":43.27845,"lon":5.40719,"is_reserved":false,"is_disabled":false,"rental_uris":{"android":"levelo://app?vid=d841d641-2f56-46e3-be38-87db9829533f","ios":"levelo://app?vid=d841d641-2f56-46e3-be38-87db9829533f"},"vehicle_type_id":"4","last_reported":1735679270,"current_range_meters":25600,"station_id":"ce4bhnh2rcd13ifvqgtg","pricing_plan_id":"cebpf4jnsgd1na2vs0mg"},{"bike_id":"c3ba5b5b-015c-4689-95a9-abcb1279b90e","system_id":"levelo_inurba_marseille","lat":43.24647,"lon":5.38888,"is_reserved":false,"is_disabled":false,"rental_uris":{"android":"levelo://app?vid=c3ba5b5b-015c-4689-95a9-abcb1279b90e","ios":"levelo://app?vid=c3ba5b5b-015c-4689-95a9-abcb1279b90e"},"vehicle_type_id":"4","last_reported":1735679270,"current_range_meters":39200,"station_id":"ce4bhg12rcd13ifvqf60","pricing_plan_id":"cebpf4jnsgd1na2vs0mg"},{"bike_id":"027085de-3c06-4c90-8099-b9537f78e863","system_id":"levelo_inurba_marseille","lat":43.23189,"lon":5.43645,"is_reserved":false,"is_disabled":false,"rental_uris":{"android":"levelo://app?vid=027085de-3c06-4c90-8099-b9537f78e863","ios":"levelo://app?vid=027085de-3c06-4c90-8099-b9537f78e863"},"vehicle_type_id":"4","last_reported":1735679270,"current_range_meters":37600,"station_id":"","pricing_plan_id":"cebpf4jnsgd1na2vs0mg"},{"bike_id":"d8f753da-bb1d-460e-9b5c-f17ba3b2167d","system_id":"levelo_inurba_marseille","lat":43.31325,"lon":5.39683,"is_reserved":false,"is_disabled":false,"rental_uris":{"android":"levelo://app?vid=d8f753da-bb1d-460e-9b5c-f17ba3b2167d","ios":"levelo://app?vid=d8f753da-bb1d-460e-9b5c-f17ba3b2167d"},"vehicle_type_id":"4","last_reported":1735679270,"current_range_meters":36800,"station_id":"ce4bgvp2rcd13ifvqcu0","pricing_plan_id":"cebpf4jnsgd1na2vs0mg"},{"bike_id":"317bbece-85f5-4709-8e50-643ba25a75ff","system_id":"levelo_inurba_marseille","lat":43.33797,"lon":5.37425,"is_reserved":false,"is_disabled":false,"rental_uris":{"android":"levelo://app?vid=317bbece-85f5-4709-8e50-643ba25a75ff","ios":"levelo://app?vid=317bbece-85f5-4709-8e50-643ba25a75ff"},"vehicle_type_id":"4","last_reported":1735679270,"current_range_meters":34800,"station_id":"","pricing_plan_id":"cebpf4jnsgd1na2vs0mg"},{"bike_id":"e7774da4-c308-4bfa-aba8-31efca07b3a0","system_id":"levelo_inurba_marseille","lat":43.33741,"lon":5.37467,"is_reserved":false,"is_disabled":false,"rental_uris":{"android":"levelo://app?vid=e7774da4-c308-4bfa-aba8-31efca07b3a0","ios":"levelo://app?vid=e7774da4-c308-4bfa-aba8-31efca07b3a0"},"vehicle_type_id":"4","last_reported":1735679270,"current_range_meters":11200,"station_id":"","pricing_plan_id":"cebpf4jnsgd1na2vs0mg"},{"bike_id":"73b91e80-0533-4be2-b5bd-7b363f8b278e","system_id":"levelo_inurba_marseille","lat":43.29527,"lon":5.39034,"is_reserved":false,"is_disabled":false,"rental_uris":{"android":"levelo://app?vid=73b91e80-0533-4be2-b5bd-7b363f8b278e","ios":"levelo://app?vid=73b91e80-0533-4be2-b5bd-7b363f8b278e"},"vehicle_type_id":"4","last_reported":1735679270,"current_range_meters":33200,"station_id":"ce4bh3p2rcd13ifvqdp0","pricing_plan_id":"cebpf4jnsgd1na2vs0mg"},{"bike_id":"e074dd58-3991-4a27-a276-a38933ae7f9e","system_id":"levelo_inurba_marseille","lat":43.30236,"lon":5.40058,"is_reserved":false,"is_disabled":false,"rental_uris":{"android":"levelo://app?vid=e074dd58-3991-4a27-a276-a38933ae7f9e","ios":"levelo://app?vid=e074dd58-3991-4a27-a276-a38933ae7f9e"},"vehicle_type_id":"4","last_reported":1735679270,"current_range_meters":24800,"station_id":"ce4bgvh2rcd13ifvqcs0","pricing_plan_id":"cebpf4jnsgd1na2vs0mg"},{"bike_id":"ad09079b-2a66-443a-a13d-b1f84ab569d5","system_id":"levelo_inurba_marseille","lat":43.25016,"lon":5.38935,"is_reserved":false,"is_disabled":false,"rental_uris":{"android":"levelo://app?vid=ad09079b-2a66-443a-a13d-b1f84ab569d5","ios":"levelo://app?vid=ad09079b-2a66-443a-a13d-b1f84ab569d5"},"vehicle_type_id":"4","last_reported":1735679270,"current_range_meters":38800,"station_id":"ce4bhgp2rcd13ifvqfd0","pricing_plan_id":"cebpf4jnsgd1na2vs0mg"},{"bike_id":"55cdd24f-9e2e-41e5-9590-d69333b5dd4a","system_id":"levelo_inurba_marseille","lat":43.28844,"lon":5.35875,"is_reserved":false,"is_disabled":false,"rental_uris":{"android":"levelo://app?vid=55cdd24f-9e2e-41e5-9590-d69333b5dd4a","ios":"levelo://app?vid=55cdd24f-9e2e-41e5-9590-d69333b5dd4a"},"vehicle_type_id":"4","last_reported":1735679270,"current_range_meters":12400,"station_id":"ce4bhb12rcd13ifvqem0","pricing_plan_id":"cebpf4jnsgd1na2vs0mg"},{"bike_id":"1d38c632-f230-4f97-863c-d4275b1efe0a","system_id":"levelo_inurba_marseille","lat":43.29522,"lon":5.38521,"is_reserved":false,"is_disabled":false,"rental_uris":{"android":"levelo://app?vid=1d38c632-f230-4f97-863c-d4275b1efe0a","ios":"levelo://app?vid=1d38c632-f230-4f97-863c-d4275b1efe0a"},"vehicle_type_id":"4","last_reported":1735679270,"current_range_meters":8000,"station_id":"ce4bgih2rcd13ifvqba0","pricing_plan_id":"cebpf4jnsgd1na2vs0mg"},{"bike_id":"c278032b-df77-488d-af3e-52fd8e42875a","system_id":"levelo_inurba_marseille","lat":43.29285,"lon":5.36848,"is_reserved":false,"is_disabled":false,"rental_uris":{"android":"levelo://app?vid=c278032b-df77-488d-af3e-52fd8e42875a","ios":"levelo://app?vid=c278032b-df77-488d-af3e-52fd8e42875a"},"vehicle_type_id":"4","last_reported":1735679270,"current_range_meters":28800,"station_id":"ce4bhbp2rcd13ifvqesg","pricing_plan_id":"cebpf4jnsgd1na2vs0mg"},{"bike_id":"499f5cd4-fd3e-4768-a2cc-fed7ec670e29","system_id":"levelo_inurba_marseille","lat":43.27812,"lon":5.40701,"is_reserved":false,"is_disabled":false,"rental_uris":{"android":"levelo://app?vid=499f5cd4-fd3e-4768-a2cc-fed7ec670e29","ios":"levelo://app?vid=499f5cd4-fd3e-4768-a2cc-fed7ec670e29"},"vehicle_type_id":"4","last_reported":1735679270,"current_range_meters":28800,"station_id":"ce4bhnh2rcd13ifvqgtg","pricing_plan_id":"cebpf4jnsgd1na2vs0mg"},{"bike_id":"6d0f719e-24d6-441b-8a4c-292713b0c930","system_id":"levelo_inurba_marseille","lat":43.3064,"lon":5.40066,"is_reserved":false,"is_disabled":false,"rental_uris":{"android":"levelo://app?vid=6d0f719e-24d6-441b-8a4c-292713b0c930","ios":"levelo://app?vid=6d0f719e-24d6-441b-8a4c-292713b0c930"},"vehicle_type_id":"4","last_reported":1735679270,"current_range_meters":3200,"station_id":"ce4bh112rcd13ifvqda0","pricing_plan_id":"cebpf4jnsgd1na2vs0mg"},{"bike_id":"8aee6e51-ec03-4d1e-a7f9-0bc033449db3","system_id":"levelo_inurba_marseille","lat":43.28411,"lon":5.3751,"is_reserved":false,"is_disabled":false,"rental_uris":{"android":"levelo://app?vid=8aee6e51-ec03-4d1e-a7f9-0bc033449db3","ios":"levelo://app?vid=8aee6e51-ec03-4d1e-a7f9-0bc033449db3"},"vehicle_type_id":"4","last_reported":1735679270,"current_range_meters":35600,"station_id":"ce4bh412rcd13ifvqds0","pricing_plan_id":"cebpf4jnsgd1na2vs0mg"},{"bike_id":"50e564c6-bac6-4676-b23d-37a9b174709c","system_id":"levelo_inurba_marseille","lat":43.2896,"lon":5.37838,"is_reserved":false,"is_disabled":false,"rental_uris":{"android":"levelo://app?vid=50e564c6-bac6-4676-b23d-37a9b174709c","ios":"levelo://app?vid=50e564c6-bac6-4676-b23d-37a9b174709c"},"vehicle_type_id":"4","last_reported":1735679270,"current_range_meters":10000,"station_id":"ce4bh9p2rcd13ifvqed0","pricing_plan_id":"cebpf4jnsgd1na2vs0mg"},{"bike_id":"da3075ee-8070-42f9-8350-58e475a60c82","system_id":"levelo_inurba_marseille","lat":43.2757,"lon":5.38385,"is_reserved":false,"is_disabled":false,"rental_uris":{"android":"levelo://app?vid=da3075ee-8070-42f9-8350-58e475a60c82","ios":"levelo://app?vid=da3075ee-8070-42f9-8350-58e475a60c82"},"vehicle_type_id":"4","last_reported":1735679270,"current_range_meters":38800,"station_id":"ce4bhh92rcd13ifvqfi0","pricing_plan_id":"cebpf4jnsgd1na2vs0mg"},{"bike_id":"201d3095-2daa-41b3-a3b9-f477b54ffd04","system_id":"levelo_inurba_marseille","lat":43.30879,"lon":5.39637,"is_reserved":false,"is_disabled":false,"rental_uris":{"android":"levelo://app?vid=201d3095-2daa-41b3-a3b9-f477b54ffd04","ios":"levelo://app?vid=201d3095-2daa-41b3-a3b9-f477b54ffd04"},"vehicle_type_id":"4","last_reported":1735679270,"current_range_meters":32000,"station_id":"ce4bh012rcd13ifvqcv0","pricing_plan_id":"cebpf4jnsgd1na2vs0mg"},{"bike_id":"975380f4-c5df-4cfd-9b61-420a13d3179a","system_id":"levelo_inurba_marseille","lat":43.29007,"lon":5.35609,"is_reserved":false,"is_disabled":false,"rental_uris":{"android":"levelo://app?vid=975380f4-c5df-4cfd-9b61-420a13d3179a","ios":"levelo://app?vid=975380f4-c5df-4cfd-9b61-420a13d3179a"},"vehicle_type_id":"4","last_reported":1735679270,"current_range_meters":2800,"station_id":"ce4bhb92rcd13ifvqen0","pricing_plan_id":"cebpf4jnsgd1na2vs0mg"},{"bike_id":"8fe2fae1-7672-40ff-b176-ca71ff746e96","system_id":"levelo_inurba_marseille","lat":43.29581,"lon":5.39959,"is_reserved":false,"is_disabled":false,"rental_uris":{"android":"levelo://app?vid=8fe2fae1-7672-40ff-b176-ca71ff746e96","ios":"levelo://app?vid=8fe2fae1-7672-40ff-b176-ca71ff746e96"},"vehicle_type_id":"4","last_reported":1735679270,"current_range_meters":37600,"station_id":"ce4bh312rcd13ifvqdj0","pricing_plan_id":"cebpf4jnsgd1na2vs0mg"},{"bike_id":"c754264e-2257-42b1-89f9-0bf9a740ba42","system_id":"levelo_inurba_marseille","lat":43.27565,"lon":5.38422,"is_reserved":false,"is_disabled":false,"rental_uris":{"android":"levelo://app?vid=c754264e-2257-42b1-89f9-0bf9a740ba42","ios":"levelo://app?vid=c754264e-2257-42b1-89f9-0bf9a740ba42"},"vehicle_type_id":"4","last_reported":1735679270,"current_range_meters":28800,"station_id":"ce4bhh92rcd13ifvqfi0","pricing_plan_id":"cebpf4jnsgd1na2vs0mg"},{"bike_id":"176079e7-a6a0-459b-a3e0-964f2267d6d3","system_id":"levelo_inurba_marseille","lat":43.3065,"lon":5.40059,"is_reserved":false,"is_disabled":false,"rental_uris":{"android":"levelo://app?vid=176079e7-a6a0-459b-a3e0-964f2267d6d3","ios":"levelo://app?vid=176079e7-a6a0-459b-a3e0-964f2267d6d3"},"vehicle_type_id":"4","last_reported":1735679270,"current_range_meters":17600,"station_id":"ce4bh112rcd13ifvqda0","pricing_plan_id":"cebpf4jnsgd1na2vs0mg"},{"bike_id":"4f7aa6e0-3d8e-4c80-8003-70d1bf2f97b1","system_id":"levelo_inurba_marseille","lat":43.29888,"lon":5.39745,"is_reserved":false,"is_disabled":false,"rental_uris":{"android":"levelo://app?vid=4f7aa6e0-3d8e-4c80-8003-70d1bf2f97b1","ios":"levelo://app?vid=4f7aa6e0-3d8e-4c80-8003-70d1bf2f97b1"},"vehicle_type_id":"4","last_reported":1735679270,"current_range_meters":9600,"station_id":"ce4bh0h2rcd13ifvqd50","pricing_plan_id":"cebpf4jnsgd1na2vs0mg"},{"bike_id":"63d3d27f-f4c2-4cfa-99f6-359012ea8eb1","system_id":"levelo_inurba_marseille","lat":43.29568,"lon":5.37511,"is_reserved":false,"is_disabled":false,"rental_uris":{"android":"levelo://app?vid=63d3d27f-f4c2-4cfa-99f6-359012ea8eb1","ios":"levelo://app?vid=63d3d27f-f4c2-4cfa-99f6-359012ea8eb1"},"vehicle_type_id":"4","last_reported":1735679270,"current_range_meters":21600,"station_id":"ce4bgh92rcd13ifvqb50","pricing_plan_id":"cebpf4jnsgd1na2vs0mg"},{"bike_id":"b6c8d252-a8ce-43b1-a60c-c58406833311","system_id":"levelo_inurba_marseille","lat":43.27191,"lon":5.40956,"is_reserved":false,"is_disabled":false,"rental_uris":{"android":"levelo://app?vid=b6c8d252-a8ce-43b1-a60c-c58406833311","ios":"levelo://app?vid=b6c8d252-a8ce-43b1-a60c-c58406833311"},"vehicle_type_id":"4","last_reported":1735679270,"current_range_meters":16000,"station_id":"ce4bhl12rcd13ifvqgf0","pricing_plan_id":"cebpf4jnsgd1na2vs0mg"},{"bike_id":"dba8a92c-2275-4093-99da-0983fec95827","system_id":"levelo_inurba_marseille","lat":43.29307,"lon":5.37165,"is_reserved":false,"is_disabled":false,"rental_uris":{"android":"levelo://app?vid=dba8a92c-2275-4093-99da-0983fec95827","ios":"levelo://app?vid=dba8a92c-2275-4093-99da-0983fec95827"},"vehicle_type_id":"4","last_reported":1735679270,"current_range_meters":22800,"station_id":"ce4bgh92rcd13ifvqb40","pricing_plan_id":"cebpf4jnsgd1na2vs0mg"},{"bike_id":"6611339c-c6f1-4ce8-9613-d42f5088a636","system_id":"levelo_inurba_marseille","lat":43.26801,"lon":5.40268,"is_reserved":false,"is_disabled":false,"rental_uris":{"android":"levelo://app?vid=6611339c-c6f1-4ce8-9613-d42f5088a636","ios":"levelo://app?vid=6611339c-c6f1-4ce8-9613-d42f5088a636"},"vehicle_type_id":"4","last_reported":1735679270,"current_range_meters":38800,"station_id":"ce501612rcd8frsf0b60","pricing_plan_id":"cebpf4jnsgd1na2vs0mg"},{"bike_id":"ff774cb1-0eba-40f9-85a7-0efb7ac703ab","system_id":"levelo_inurba_marseille","lat":43.29077,"lon":5.3717,"is_reserved":false,"is_disabled":false,"rental_uris":{"android":"levelo://app?vid=ff774cb1-0eba-40f9-85a7-0efb7ac703ab","ios":"levelo://app?vid=ff774cb1-0eba-40f9-85a7-0efb7ac703ab"},"vehicle_type_id":"4","last_reported":1735679270,"current_range_meters":37600,"station_id":"ce4bh5p2rcd13ifvqe4g","pricing_plan_id":"cebpf4jnsgd1na2vs0mg"},{"bike_id":"f1ae0bf8-0350-41dd-95ca-65a425c0e4b6","system_id":"levelo_inurba_marseille","lat":43.30306,"lon":5.36888,"is_reserved":false,"is_disabled":false,"rental_uris":{"android":"levelo://app?vid=f1ae0bf8-0350-41dd-95ca-65a425c0e4b6","ios":"levelo://app?vid=f1ae0bf8-0350-41dd-95ca-65a425c0e4b6"},"vehicle_type_id":"4","last_reported":1735679270,"current_range_meters":38800,"station_id":"ce4bgqh2rcd13ifvqc5g","pricing_plan_id":"cebpf4jnsgd1na2vs0mg"},{"bike_id":"4b27b836-d8fb-4e3f-8fe5-e8c3aa40e817","system_id":"levelo_inurba_marseille","lat":43.29169,"lon":5.3715,"is_reserved":false,"is_disabled":false,"rental_uris":{"android":"levelo://app?vid=4b27b836-d8fb-4e3f-8fe5-e8c3aa40e817","ios":"levelo://app?vid=4b27b836-d8fb-4e3f-8fe5-e8c3aa40e817"},"vehicle_type_id":"4","last_reported":1735679270,"current_range_meters":38000,"station_id":"ce4bha92rcd13ifvqeh0","pricing_plan_id":"cebpf4jnsgd1na2vs0mg"},{"bike_id":"a871e8bb-4f17-4f79-8bac-42efdc696fa0","system_id":"levelo_inurba_marseille","lat":43.28992,"lon":5.35622,"is_reserved":false,"is_disabled":false,"rental_uris":{"android":"levelo://app?vid=a871e8bb-4f17-4f79-8bac-42efdc696fa0","ios":"levelo://app?vid=a871e8bb-4f17-4f79-8bac-42efdc696fa0"},"vehicle_type_id":"4","last_reported":1735679270,"current_range_meters":39200,"station_id":"ce4bhb92rcd13ifvqen0","pricing_plan_id":"cebpf4jnsgd1na2vs0mg"},{"bike_id":"532baaee-dfa1-4600-a177-557e58ed7910","system_id":"levelo_inurba_marseille","lat":43.28857,"lon":5.39293,"is_reserved":false,"is_disabled":false,"rental_uris":{"android":"levelo://app?vid=532baaee-dfa1-4600-a177-557e58ed7910","ios":"levelo://app?vid=532baaee-dfa1-4600-a177-557e58ed7910"},"vehicle_type_id":"4","last_reported":1735679270,"current_range_meters":36000,"station_id":"ce4bh2p2rcd13ifvqdi0","pricing_plan_id":"cebpf4jnsgd1na2vs0mg"},{"bike_id":"3be0bc94-db7c-4400-beb5-4a471725096e","system_id":"levelo_inurba_marseille","lat":43.30297,"lon":5.39206,"is_reserved":false,"is_disabled":false,"rental_uris":{"android":"levelo://app?vid=3be0bc94-db7c-4400-beb5-4a471725096e","ios":"levelo://app?vid=3be0bc94-db7c-4400-beb5-4a471725096e"},"vehicle_type_id":"4","last_reported":1735679270,"current_range_meters":27200,"station_id":"ce4bgkh2rcd13ifvqbk0","pricing_plan_id":"cebpf4jnsgd1na2vs0mg"},{"bike_id":"0418ffe4-86d3-4790-b0ba-c3190cc8edc3","system_id":"levelo_inurba_marseille","lat":43.30308,"lon":5.36878,"is_reserved":false,"is_disabled":false,"rental_uris":{"android":"levelo://app?vid=0418ffe4-86d3-4790-b0ba-c3190cc8edc3","ios":"levelo://app?vid=0418ffe4-86d3-4790-b0ba-c3190cc8edc3"},"vehicle_type_id":"4","last_reported":1735679270,"current_range_meters":28000,"station_id":"ce4bgqh2rcd13ifvqc5g","pricing_plan_id":"cebpf4jnsgd1na2vs0mg"},{"bike_id":"f3257fa9-0330-4e2f-a145-1a344643d1bd","system_id":"levelo_inurba_marseille","lat":43.29033,"lon":5.38651,"is_reserved":false,"is_disabled":false,"rental_uris":{"android":"levelo://app?vid=f3257fa9-0330-4e2f-a145-1a344643d1bd","ios":"levelo://app?vid=f3257fa9-0330-4e2f-a145-1a344643d1bd"},"vehicle_type_id":"4","last_reported":1735679270,"current_range_meters":32400,"station_id":"ce4bh4p2rcd13ifvqe0g","pricing_plan_id":"cebpf4jnsgd1na2vs0mg"},{"bike_id":"edc4275d-5591-4bbe-8f28-4c856b8c851d","system_id":"levelo_inurba_marseille","lat":43.29802,"lon":5.38089,"is_reserved":false,"is_disabled":false,"rental_uris":{"android":"levelo://app?vid=edc4275d-5591-4bbe-8f28-4c856b8c851d","ios":"levelo://app?vid=edc4275d-5591-4bbe-8f28-4c856b8c851d"},"vehicle_type_id":"4","last_reported":1735679270,"current_range_meters":39200,"station_id":"ce4bgip2rcd13ifvqbb0","pricing_plan_id":"cebpf4jnsgd1na2vs0mg"},{"bike_id":"2f46ed5f-d621-4960-be21-137d8f9ca518","system_id":"levelo_inurba_marseille","lat":43.29273,"lon":5.38429,"is_reserved":false,"is_disabled":true,"rental_uris":{"android":"levelo://app?vid=2f46ed5f-d621-4960-be21-137d8f9ca518","ios":"levelo://app?vid=2f46ed5f-d621-4960-be21-137d8f9ca518"},"vehicle_type_id":"4","last_reported":1735679270,"current_range_meters":38800,"station_id":"ce4bh692rcd13ifvqea0","pricing_plan_id":"cebpf4jnsgd1na2vs0mg"},{"bike_id":"cc5ab863-37a3-4d9c-87e5-b15150741dee","system_id":"levelo_inurba_marseille","lat":43.29529,"lon":5.38521,"is_reserved":false,"is_disabled":false,"rental_uris":{"android":"levelo://app?vid=cc5ab863-37a3-4d9c-87e5-b15150741dee","ios":"levelo://app?vid=cc5ab863-37a3-4d9c-87e5-b15150741dee"},"vehicle_type_id":"4","last_reported":1735679270,"current_range_meters":38800,"station_id":"ce4bgih2rcd13ifvqba0","pricing_plan_id":"cebpf4jnsgd1na2vs0mg"},{"bike_id":"a87e4111-653d-4c79-b009-b173a2dd1186","system_id":"levelo_inurba_marseille","lat":43.29019,"lon":5.3862,"is_reserved":false,"is_disabled":false,"rental_uris":{"android":"levelo://app?vid=a87e4111-653d-4c79-b009-b173a2dd1186","ios":"levelo://app?vid=a87e4111-653d-4c79-b009-b173a2dd1186"},"vehicle_type_id":"4","last_reported":1735679270,"current_range_meters":12800,"station_id":"ce4bh4p2rcd13ifvqe0g","pricing_plan_id":"cebpf4jnsgd1na2vs0mg"},{"bike_id":"57103b12-06fc-494b-9a1a-1903f8f245d5","system_id":"levelo_inurba_marseille","lat":43.27988,"lon":5.41643,"is_reserved":false,"is_disabled":false,"rental_uris":{"android":"levelo://app?vid=57103b12-06fc-494b-9a1a-1903f8f245d5","ios":"levelo://app?vid=57103b12-06fc-494b-9a1a-1903f8f245d5"},"vehicle_type_id":"4","last_reported":1735679270,"current_range_meters":6800,"station_id":"ce4bho12rcd13ifvqh1g","pricing_plan_id":"cebpf4jnsgd1na2vs0mg"},{"bike_id":"039b1909-5f5a-4f17-8242-0dfd70dd1f93","system_id":"levelo_inurba_marseille","lat":43.27807,"lon":5.40702,"is_reserved":false,"is_disabled":false,"rental_uris":{"android":"levelo://app?vid=039b1909-5f5a-4f17-8242-0dfd70dd1f93","ios":"levelo://app?vid=039b1909-5f5a-4f17-8242-0dfd70dd1f93"},"vehicle_type_id":"4","last_reported":1735679270,"current_range_meters":14800,"station_id":"ce4bhnh2rcd13ifvqgtg","pricing_plan_id":"cebpf4jnsgd1na2vs0mg"},{"bike_id":"21348762-b24d-4b2d-bc68-84e9f0125c38","system_id":"levelo_inurba_marseille","lat":43.22929,"lon":5.3538,"is_reserved":false,"is_disabled":false,"rental_uris":{"android":"levelo://app?vid=21348762-b24d-4b2d-bc68-84e9f0125c38","ios":"levelo://app?vid=21348762-b24d-4b2d-bc68-84e9f0125c38"},"vehicle_type_id":"4","last_reported":1735679270,"current_range_meters":38000,"station_id":"cpo3532slgdg3j2ikp40","pricing_plan_id":"cebpf4jnsgd1na2vs0mg"},{"bike_id":"659fcdb8-563f-4ff5-a17b-210fddf7e920","system_id":"levelo_inurba_marseille","lat":43.28726,"lon":5.37917,"is_reserved":false,"is_disabled":false,"rental_uris":{"android":"levelo://app?vid=659fcdb8-563f-4ff5-a17b-210fddf7e920","ios":"levelo://app?vid=659fcdb8-563f-4ff5-a17b-210fddf7e920"},"vehicle_type_id":"4","last_reported":1735679270,"current_range_meters":39200,"station_id":"ce4bh9p2rcd13ifvqec0","pricing_plan_id":"cebpf4jnsgd1na2vs0mg"},{"bike_id":"19b34b0e-0e8d-4b60-826d-62465923fb52","system_id":"levelo_inurba_marseille","lat":43.31683,"lon":5.40478,"is_reserved":false,"is_disabled":false,"rental_uris":{"android":"levelo://app?vid=19b34b0e-0e8d-4b60-826d-62465923fb52","ios":"levelo://app?vid=19b34b0e-0e8d-4b60-826d-62465923fb52"},"vehicle_type_id":"4","last_reported":1735679270,"current_range_meters":28400,"station_id":"ce4bh012rcd13ifvqd00","pricing_plan_id":"cebpf4jnsgd1na2vs0mg"},{"bike_id":"e90ff62a-b783-4dff-ae9b-69f5871bcf03","system_id":"levelo_inurba_marseille","lat":43.28717,"lon":5.37921,"is_reserved":false,"is_disabled":false,"rental_uris":{"android":"levelo://app?vid=e90ff62a-b783-4dff-ae9b-69f5871bcf03","ios":"levelo://app?vid=e90ff62a-b783-4dff-ae9b-69f5871bcf03"},"vehicle_type_id":"4","last_reported":1735679270,"current_range_meters":38800,"station_id":"ce4bh9p2rcd13ifvqec0","pricing_plan_id":"cebpf4jnsgd1na2vs0mg"},{"bike_id":"30a49652-d136-44e4-a4d9-d7c1b83f0627","system_id":"levelo_inurba_marseille","lat":43.337444,"lon":5.374475,"is_reserved":false,"is_disabled":false,"rental_uris":{"android":"levelo://app?vid=30a49652-d136-44e4-a4d9-d7c1b83f0627","ios":"levelo://app?vid=30a49652-d136-44e4-a4d9-d7c1b83f0627"},"vehicle_type_id":"4","last_reported":1735679270,"current_range_meters":17200,"station_id":"","pricing_plan_id":"cebpf4jnsgd1na2vs0mg"},{"bike_id":"1683a6ff-78df-47d7-8bd3-e1c7b6de1a98","system_id":"levelo_inurba_marseille","lat":43.31711,"lon":5.40437,"is_reserved":false,"is_disabled":false,"rental_uris":{"android":"levelo://app?vid=1683a6ff-78df-47d7-8bd3-e1c7b6de1a98","ios":"levelo://app?vid=1683a6ff-78df-47d7-8bd3-e1c7b6de1a98"},"vehicle_type_id":"4","last_reported":1735679270,"current_range_meters":22800,"station_id":"ce4bh012rcd13ifvqd00","pricing_plan_id":"cebpf4jnsgd1na2vs0mg"},{"bike_id":"98651e87-d243-465a-b816-7124618b6560","system_id":"levelo_inurba_marseille","lat":43.29525,"lon":5.3904,"is_reserved":false,"is_disabled":false,"rental_uris":{"android":"levelo://app?vid=98651e87-d243-465a-b816-7124618b6560","ios":"levelo://app?vid=98651e87-d243-465a-b816-7124618b6560"},"vehicle_type_id":"4","last_reported":1735679270,"current_range_meters":36800,"station_id":"ce4bh3p2rcd13ifvqdp0","pricing_plan_id":"cebpf4jnsgd1na2vs0mg"},{"bike_id":"2676340b-f0e7-46cc-816e-ea1e5bd7a3c4","system_id":"levelo_inurba_marseille","lat":43.28452,"lon":5.39269,"is_reserved":false,"is_disabled":false,"rental_uris":{"android":"levelo://app?vid=2676340b-f0e7-46cc-816e-ea1e5bd7a3c4","ios":"levelo://app?vid=2676340b-f0e7-46cc-816e-ea1e5bd7a3c4"},"vehicle_type_id":"4","last_reported":1735679270,"current_range_meters":38800,"station_id":"ce4bhoh2rcd13ifvqh5g","pricing_plan_id":"cebpf4jnsgd1na2vs0mg"},{"bike_id":"5b744b90-1060-437b-b3d1-3a60c6232327","system_id":"levelo_inurba_marseille","lat":43.27914,"lon":5.39583,"is_reserved":false,"is_disabled":false,"rental_uris":{"android":"levelo://app?vid=5b744b90-1060-437b-b3d1-3a60c6232327","ios":"levelo://app?vid=5b744b90-1060-437b-b3d1-3a60c6232327"},"vehicle_type_id":"4","last_reported":1735679270,"current_range_meters":18800,"station_id":"ce4bhf92rcd13ifvqf40","pricing_plan_id":"cebpf4jnsgd1na2vs0mg"},{"bike_id":"4e00cad2-8807-4e3d-a3db-e5cf9909c143","system_id":"levelo_inurba_marseille","lat":43.249977,"lon":5.389294,"is_reserved":false,"is_disabled":false,"rental_uris":{"android":"levelo://app?vid=4e00cad2-8807-4e3d-a3db-e5cf9909c143","ios":"levelo://app?vid=4e00cad2-8807-4e3d-a3db-e5cf9909c143"},"vehicle_type_id":"4","last_reported":1735679270,"current_range_meters":28800,"station_id":"ce4bhh92rcd13ifvqfj0","pricing_plan_id":"cebpf4jnsgd1na2vs0mg"},{"bike_id":"dc1ed8b8-c631-4f8f-943c-6b95478fef90","system_id":"levelo_inurba_marseille","lat":43.289736,"lon":5.37832,"is_reserved":false,"is_disabled":false,"rental_uris":{"android":"levelo://app?vid=dc1ed8b8-c631-4f8f-943c-6b95478fef90","ios":"levelo://app?vid=dc1ed8b8-c631-4f8f-943c-6b95478fef90"},"vehicle_type_id":"4","last_reported":1735679270,"current_range_meters":27200,"station_id":"ce4bh9p2rcd13ifvqed0","pricing_plan_id":"cebpf4jnsgd1na2vs0mg"},{"bike_id":"121ed049-1e17-4de4-96db-abaaf3e440dc","system_id":"levelo_inurba_marseille","lat":43.2724,"lon":5.39183,"is_reserved":false,"is_disabled":false,"rental_uris":{"android":"levelo://app?vid=121ed049-1e17-4de4-96db-abaaf3e440dc","ios":"levelo://app?vid=121ed049-1e17-4de4-96db-abaaf3e440dc"},"vehicle_type_id":"4","last_reported":1735679270,"current_range_meters":27600,"station_id":"ce4bhhp2rcd13ifvqfm0","pricing_plan_id":"cebpf4jnsgd1na2vs0mg"},{"bike_id":"cd74a333-9a1d-4930-b287-4902bed467c1","system_id":"levelo_inurba_marseille","lat":43.30834,"lon":5.38119,"is_reserved":false,"is_disabled":false,"rental_uris":{"android":"levelo://app?vid=cd74a333-9a1d-4930-b287-4902bed467c1","ios":"levelo://app?vid=cd74a333-9a1d-4930-b287-4902bed467c1"},"vehicle_type_id":"4","last_reported":1735679270,"current_range_meters":6800,"station_id":"ce4bgt12rcd13ifvqce0","pricing_plan_id":"cebpf4jnsgd1na2vs0mg"},{"bike_id":"1ce05690-65ba-4e15-b28c-5fd535e467f0","system_id":"levelo_inurba_marseille","lat":43.32052,"lon":5.41523,"is_reserved":false,"is_disabled":false,"rental_uris":{"android":"levelo://app?vid=1ce05690-65ba-4e15-b28c-5fd535e467f0","ios":"levelo://app?vid=1ce05690-65ba-4e15-b28c-5fd535e467f0"},"vehicle_type_id":"4","last_reported":1735679270,"current_range_meters":10800,"station_id":"ce4bhq92rcd13ifvqhkg","pricing_plan_id":"cebpf4jnsgd1na2vs0mg"},{"bike_id":"d996ebe6-a085-4671-8aef-57e91ba860dc","system_id":"levelo_inurba_marseille","lat":43.26806,"lon":5.4026,"is_reserved":false,"is_disabled":false,"rental_uris":{"android":"levelo://app?vid=d996ebe6-a085-4671-8aef-57e91ba860dc","ios":"levelo://app?vid=d996ebe6-a085-4671-8aef-57e91ba860dc"},"vehicle_type_id":"4","last_reported":1735679270,"current_range_meters":31200,"station_id":"ce501612rcd8frsf0b60","pricing_plan_id":"cebpf4jnsgd1na2vs0mg"},{"bike_id":"1fa11319-427d-42b2-8f07-2d78d11bd9fa","system_id":"levelo_inurba_marseille","lat":43.31137,"lon":5.42305,"is_reserved":false,"is_disabled":false,"rental_uris":{"android":"levelo://app?vid=1fa11319-427d-42b2-8f07-2d78d11bd9fa","ios":"levelo://app?vid=1fa11319-427d-42b2-8f07-2d78d11bd9fa"},"vehicle_type_id":"4","last_reported":1735679270,"current_range_meters":26800,"station_id":"","pricing_plan_id":"cebpf4jnsgd1na2vs0mg"},{"bike_id":"f0759b16-cb79-495c-88bb-e0de73383a8f","system_id":"levelo_inurba_marseille","lat":43.25076,"lon":5.39507,"is_reserved":false,"is_disabled":false,"rental_uris":{"android":"levelo://app?vid=f0759b16-cb79-495c-88bb-e0de73383a8f","ios":"levelo://app?vid=f0759b16-cb79-495c-88bb-e0de73383a8f"},"vehicle_type_id":"4","last_reported":1735679270,"current_range_meters":22800,"station_id":"ce4bhm12rcd13ifvqgkg","pricing_plan_id":"cebpf4jnsgd1na2vs0mg"},{"bike_id":"261f84eb-7209-4691-ba89-1395784a623f","system_id":"levelo_inurba_marseille","lat":43.2757,"lon":5.38402,"is_reserved":false,"is_disabled":false,"rental_uris":{"android":"levelo://app?vid=261f84eb-7209-4691-ba89-1395784a623f","ios":"levelo://app?vid=261f84eb-7209-4691-ba89-1395784a623f"},"vehicle_type_id":"4","last_reported":1735679270,"current_range_meters":32000,"station_id":"ce4bhh92rcd13ifvqfi0","pricing_plan_id":"cebpf4jnsgd1na2vs0mg"},{"bike_id":"82bc6ce3-92f0-427c-bfc4-aefd6e86b62f","system_id":"levelo_inurba_marseille","lat":43.29261,"lon":5.38426,"is_reserved":false,"is_disabled":false,"rental_uris":{"android":"levelo://app?vid=82bc6ce3-92f0-427c-bfc4-aefd6e86b62f","ios":"levelo://app?vid=82bc6ce3-92f0-427c-bfc4-aefd6e86b62f"},"vehicle_type_id":"4","last_reported":1735679270,"current_range_meters":6400,"station_id":"ce4bh692rcd13ifvqea0","pricing_plan_id":"cebpf4jnsgd1na2vs0mg"},{"bike_id":"756884b6-7a0a-45ee-97d8-8f500cdcaaa6","system_id":"levelo_inurba_marseille","lat":43.30538,"lon":5.3842,"is_reserved":false,"is_disabled":false,"rental_uris":{"android":"levelo://app?vid=756884b6-7a0a-45ee-97d8-8f500cdcaaa6","ios":"levelo://app?vid=756884b6-7a0a-45ee-97d8-8f500cdcaaa6"},"vehicle_type_id":"4","last_reported":1735679270,"current_range_meters":21600,"station_id":"ce4bgg92rcd13ifvqb30","pricing_plan_id":"cebpf4jnsgd1na2vs0mg"},{"bike_id":"c7c981b5-1236-4bcc-8a35-b374d77e3a9f","system_id":"levelo_inurba_marseille","lat":43.28487,"lon":5.38421,"is_reserved":false,"is_disabled":false,"rental_uris":{"android":"levelo://app?vid=c7c981b5-1236-4bcc-8a35-b374d77e3a9f","ios":"levelo://app?vid=c7c981b5-1236-4bcc-8a35-b374d77e3a9f"},"vehicle_type_id":"4","last_reported":1735679270,"current_range_meters":33200,"station_id":"ce4bh512rcd13ifvqe3g","pricing_plan_id":"cebpf4jnsgd1na2vs0mg"},{"bike_id":"ea990fc9-5f95-4acd-a2be-29105099e24e","system_id":"levelo_inurba_marseille","lat":43.23063,"lon":5.35489,"is_reserved":false,"is_disabled":false,"rental_uris":{"android":"levelo://app?vid=ea990fc9-5f95-4acd-a2be-29105099e24e","ios":"levelo://app?vid=ea990fc9-5f95-4acd-a2be-29105099e24e"},"vehicle_type_id":"4","last_reported":1735679270,"current_range_meters":33600,"station_id":"cpo3342slgdg3j2ifvpg","pricing_plan_id":"cebpf4jnsgd1na2vs0mg"},{"bike_id":"9c969c7e-74bc-4e10-a4da-07b7bc4fad80","system_id":"levelo_inurba_marseille","lat":43.3248,"lon":5.36561,"is_reserved":false,"is_disabled":false,"rental_uris":{"android":"levelo://app?vid=9c969c7e-74bc-4e10-a4da-07b7bc4fad80","ios":"levelo://app?vid=9c969c7e-74bc-4e10-a4da-07b7bc4fad80"},"vehicle_type_id":"4","last_reported":1735679270,"current_range_meters":20800,"station_id":"ce4bhs12rcd13ifvqhvg","pricing_plan_id":"cebpf4jnsgd1na2vs0mg"},{"bike_id":"8d3ea513-8ac1-43a3-a4c8-98896e32b590","system_id":"levelo_inurba_marseille","lat":43.29576,"lon":5.3811,"is_reserved":false,"is_disabled":false,"rental_uris":{"android":"levelo://app?vid=8d3ea513-8ac1-43a3-a4c8-98896e32b590","ios":"levelo://app?vid=8d3ea513-8ac1-43a3-a4c8-98896e32b590"},"vehicle_type_id":"4","last_reported":1735679270,"current_range_meters":38800,"station_id":"ce4bgl12rcd13ifvqbo0","pricing_plan_id":"cebpf4jnsgd1na2vs0mg"},{"bike_id":"88865c8a-b743-456a-b37b-fe9599706cea","system_id":"levelo_inurba_marseille","lat":43.31478,"lon":5.3731,"is_reserved":false,"is_disabled":false,"rental_uris":{"android":"levelo://app?vid=88865c8a-b743-456a-b37b-fe9599706cea","ios":"levelo://app?vid=88865c8a-b743-456a-b37b-fe9599706cea"},"vehicle_type_id":"4","last_reported":1735679270,"current_range_meters":38800,"station_id":"ce4bgt12rcd13ifvqcd0","pricing_plan_id":"cebpf4jnsgd1na2vs0mg"},{"bike_id":"ccc7e2c5-7636-439e-9869-7fb5f4662b92","system_id":"levelo_inurba_marseille","lat":43.26498,"lon":5.39548,"is_reserved":false,"is_disabled":false,"rental_uris":{"android":"levelo://app?vid=ccc7e2c5-7636-439e-9869-7fb5f4662b92","ios":"levelo://app?vid=ccc7e2c5-7636-439e-9869-7fb5f4662b92"},"vehicle_type_id":"4","last_reported":1735679270,"current_range_meters":38800,"station_id":"ce4bhi12rcd13ifvqfq0","pricing_plan_id":"cebpf4jnsgd1na2vs0mg"},{"bike_id":"d13b199e-e620-4f52-ae43-9a360f46ed32","system_id":"levelo_inurba_marseille","lat":43.27995,"lon":5.39998,"is_reserved":false,"is_disabled":false,"rental_uris":{"android":"levelo://app?vid=d13b199e-e620-4f52-ae43-9a360f46ed32","ios":"levelo://app?vid=d13b199e-e620-4f52-ae43-9a360f46ed32"},"vehicle_type_id":"4","last_reported":1735679270,"current_range_meters":8800,"station_id":"ce4bho92rcd13ifvqh4g","pricing_plan_id":"cebpf4jnsgd1na2vs0mg"},{"bike_id":"a7e99453-ebf0-4439-81a4-e7bfd1c225f8","system_id":"levelo_inurba_marseille","lat":43.296,"lon":5.38109,"is_reserved":false,"is_disabled":true,"rental_uris":{"android":"levelo://app?vid=a7e99453-ebf0-4439-81a4-e7bfd1c225f8","ios":"levelo://app?vid=a7e99453-ebf0-4439-81a4-e7bfd1c225f8"},"vehicle_type_id":"4","last_reported":1735679270,"current_range_meters":0,"station_id":"ce4bgl12rcd13ifvqbo0","pricing_plan_id":"cebpf4jnsgd1na2vs0mg"},{"bike_id":"b7ee6319-ea54-40bb-84a4-649f34cc34f7","system_id":"levelo_inurba_marseille","lat":43.31372,"lon":5.38503,"is_reserved":false,"is_disabled":false,"rental_uris":{"android":"levelo://app?vid=b7ee6319-ea54-40bb-84a4-649f34cc34f7","ios":"levelo://app?vid=b7ee6319-ea54-40bb-84a4-649f34cc34f7"},"vehicle_type_id":"4","last_reported":1735679270,"current_range_meters":32400,"station_id":"ce4bgt92rcd13ifvqcf0","pricing_plan_id":"cebpf4jnsgd1na2vs0mg"},{"bike_id":"dc7c97b8-e0a0-47f2-ae65-b2b40958eec3","system_id":"levelo_inurba_marseille","lat":43.29303,"lon":5.37444,"is_reserved":false,"is_disabled":false,"rental_uris":{"android":"levelo://app?vid=dc7c97b8-e0a0-47f2-ae65-b2b40958eec3","ios":"levelo://app?vid=dc7c97b8-e0a0-47f2-ae65-b2b40958eec3"},"vehicle_type_id":"4","last_reported":1735679270,"current_range_meters":36800,"station_id":"ce4bgi12rcd13ifvqb70","pricing_plan_id":"cebpf4jnsgd1na2vs0mg"},{"bike_id":"32afc6cc-1544-4f88-ab5c-34496cc35b04","system_id":"levelo_inurba_marseille","lat":43.23063,"lon":5.35487,"is_reserved":false,"is_disabled":false,"rental_uris":{"android":"levelo://app?vid=32afc6cc-1544-4f88-ab5c-34496cc35b04","ios":"levelo://app?vid=32afc6cc-1544-4f88-ab5c-34496cc35b04"},"vehicle_type_id":"4","last_reported":1735679270,"current_range_meters":16000,"station_id":"cpo3342slgdg3j2ifvpg","pricing_plan_id":"cebpf4jnsgd1na2vs0mg"},{"bike_id":"e544bb68-45c2-4f21-896a-f4f1c1cd54b0","system_id":"levelo_inurba_marseille","lat":43.27799,"lon":5.40715,"is_reserved":false,"is_disabled":false,"rental_uris":{"android":"levelo://app?vid=e544bb68-45c2-4f21-896a-f4f1c1cd54b0","ios":"levelo://app?vid=e544bb68-45c2-4f21-896a-f4f1c1cd54b0"},"vehicle_type_id":"4","last_reported":1735679270,"current_range_meters":39200,"station_id":"ce4bhnh2rcd13ifvqgtg","pricing_plan_id":"cebpf4jnsgd1na2vs0mg"},{"bike_id":"5be1b31f-dfe5-4e9e-9157-5a3c3ea30403","system_id":"levelo_inurba_marseille","lat":43.286078,"lon":5.370672,"is_reserved":false,"is_disabled":false,"rental_uris":{"android":"levelo://app?vid=5be1b31f-dfe5-4e9e-9157-5a3c3ea30403","ios":"levelo://app?vid=5be1b31f-dfe5-4e9e-9157-5a3c3ea30403"},"vehicle_type_id":"4","last_reported":1735679270,"current_range_meters":36800,"station_id":"ce4bht12rcd13ifvqi60","pricing_plan_id":"cebpf4jnsgd1na2vs0mg"},{"bike_id":"8cb2d0be-8e3a-4672-baca-e037af3f3e32","system_id":"levelo_inurba_marseille","lat":43.2959,"lon":5.38109,"is_reserved":false,"is_disabled":false,"rental_uris":{"android":"levelo://app?vid=8cb2d0be-8e3a-4672-baca-e037af3f3e32","ios":"levelo://app?vid=8cb2d0be-8e3a-4672-baca-e037af3f3e32"},"vehicle_type_id":"4","last_reported":1735679270,"current_range_meters":35200,"station_id":"ce4bgl12rcd13ifvqbo0","pricing_plan_id":"cebpf4jnsgd1na2vs0mg"},{"bike_id":"f753137d-380d-4e83-bdea-6e7f1301bc36","system_id":"levelo_inurba_marseille","lat":43.29287,"lon":5.3746,"is_reserved":false,"is_disabled":false,"rental_uris":{"android":"levelo://app?vid=f753137d-380d-4e83-bdea-6e7f1301bc36","ios":"levelo://app?vid=f753137d-380d-4e83-bdea-6e7f1301bc36"},"vehicle_type_id":"4","last_reported":1735679270,"current_range_meters":26000,"station_id":"ce4bgi12rcd13ifvqb70","pricing_plan_id":"cebpf4jnsgd1na2vs0mg"},{"bike_id":"f0d45c44-2f67-4d12-863a-7c41f1f48a22","system_id":"levelo_inurba_marseille","lat":43.29215,"lon":5.36054,"is_reserved":false,"is_disabled":false,"rental_uris":{"android":"levelo://app?vid=f0d45c44-2f67-4d12-863a-7c41f1f48a22","ios":"levelo://app?vid=f0d45c44-2f67-4d12-863a-7c41f1f48a22"},"vehicle_type_id":"4","last_reported":1735679270,"current_range_meters":28000,"station_id":"ce4bhbh2rcd13ifvqeqg","pricing_plan_id":"cebpf4jnsgd1na2vs0mg"},{"bike_id":"a199edde-a8a9-4475-9b90-9f3ce2781570","system_id":"levelo_inurba_marseille","lat":43.23967,"lon":5.36627,"is_reserved":false,"is_disabled":false,"rental_uris":{"android":"levelo://app?vid=a199edde-a8a9-4475-9b90-9f3ce2781570","ios":"levelo://app?vid=a199edde-a8a9-4475-9b90-9f3ce2781570"},"vehicle_type_id":"4","last_reported":1735679270,"current_range_meters":6800,"station_id":"ce4bhi12rcd13ifvqfp0","pricing_plan_id":"cebpf4jnsgd1na2vs0mg"},{"bike_id":"d9039fb6-1526-43a5-ab47-bf6c74051347","system_id":"levelo_inurba_marseille","lat":43.28154,"lon":5.42637,"is_reserved":false,"is_disabled":false,"rental_uris":{"android":"levelo://app?vid=d9039fb6-1526-43a5-ab47-bf6c74051347","ios":"levelo://app?vid=d9039fb6-1526-43a5-ab47-bf6c74051347"},"vehicle_type_id":"4","last_reported":1735679270,"current_range_meters":9600,"station_id":"ce4bhnh2rcd13ifvqgug","pricing_plan_id":"cebpf4jnsgd1na2vs0mg"},{"bike_id":"b74500a5-af66-4b47-afef-28e42fa58582","system_id":"levelo_inurba_marseille","lat":43.27942,"lon":5.41035,"is_reserved":false,"is_disabled":false,"rental_uris":{"android":"levelo://app?vid=b74500a5-af66-4b47-afef-28e42fa58582","ios":"levelo://app?vid=b74500a5-af66-4b47-afef-28e42fa58582"},"vehicle_type_id":"4","last_reported":1735679270,"current_range_meters":18800,"station_id":"ce4bhnp2rcd13ifvqh0g","pricing_plan_id":"cebpf4jnsgd1na2vs0mg"},{"bike_id":"e939741b-a469-4345-8595-f292622bbd2a","system_id":"levelo_inurba_marseille","lat":43.30643,"lon":5.40081,"is_reserved":false,"is_disabled":true,"rental_uris":{"android":"levelo://app?vid=e939741b-a469-4345-8595-f292622bbd2a","ios":"levelo://app?vid=e939741b-a469-4345-8595-f292622bbd2a"},"vehicle_type_id":"4","last_reported":1735679270,"current_range_meters":400,"station_id":"ce4bh112rcd13ifvqda0","pricing_plan_id":"cebpf4jnsgd1na2vs0mg"},{"bike_id":"ce872ff4-1114-4dbb-a1cd-0587f9a75e23","system_id":"levelo_inurba_marseille","lat":43.24801,"lon":5.37451,"is_reserved":false,"is_disabled":false,"rental_uris":{"android":"levelo://app?vid=ce872ff4-1114-4dbb-a1cd-0587f9a75e23","ios":"levelo://app?vid=ce872ff4-1114-4dbb-a1cd-0587f9a75e23"},"vehicle_type_id":"4","last_reported":1735679270,"current_range_meters":38800,"station_id":"ce4bhgh2rcd13ifvqfb0","pricing_plan_id":"cebpf4jnsgd1na2vs0mg"},{"bike_id":"022d826a-d31d-48ef-b07e-f8dd0ceaa746","system_id":"levelo_inurba_marseille","lat":43.24996,"lon":5.38935,"is_reserved":false,"is_disabled":false,"rental_uris":{"android":"levelo://app?vid=022d826a-d31d-48ef-b07e-f8dd0ceaa746","ios":"levelo://app?vid=022d826a-d31d-48ef-b07e-f8dd0ceaa746"},"vehicle_type_id":"4","last_reported":1735679270,"current_range_meters":35600,"station_id":"ce4bhgp2rcd13ifvqfd0","pricing_plan_id":"cebpf4jnsgd1na2vs0mg"},{"bike_id":"4217ff41-e8ba-46f5-ac52-fc886c473e1a","system_id":"levelo_inurba_marseille","lat":43.29535,"lon":5.38542,"is_reserved":false,"is_disabled":false,"rental_uris":{"android":"levelo://app?vid=4217ff41-e8ba-46f5-ac52-fc886c473e1a","ios":"levelo://app?vid=4217ff41-e8ba-46f5-ac52-fc886c473e1a"},"vehicle_type_id":"4","last_reported":1735679270,"current_range_meters":32800,"station_id":"ce4bgih2rcd13ifvqba0","pricing_plan_id":"cebpf4jnsgd1na2vs0mg"},{"bike_id":"04e7867a-1371-4222-a6db-9d80083cea73","system_id":"levelo_inurba_marseille","lat":43.28852,"lon":5.35865,"is_reserved":false,"is_disabled":true,"rental_uris":{"android":"levelo://app?vid=04e7867a-1371-4222-a6db-9d80083cea73","ios":"levelo://app?vid=04e7867a-1371-4222-a6db-9d80083cea73"},"vehicle_type_id":"4","last_reported":1735679270,"current_range_meters":33600,"station_id":"ce4bhb12rcd13ifvqem0","pricing_plan_id":"cebpf4jnsgd1na2vs0mg"},{"bike_id":"1e38d18b-e58f-4bc9-8b02-f5d503971b42","system_id":"levelo_inurba_marseille","lat":43.29562,"lon":5.37507,"is_reserved":false,"is_disabled":false,"rental_uris":{"android":"levelo://app?vid=1e38d18b-e58f-4bc9-8b02-f5d503971b42","ios":"levelo://app?vid=1e38d18b-e58f-4bc9-8b02-f5d503971b42"},"vehicle_type_id":"4","last_reported":1735679270,"current_range_meters":28000,"station_id":"ce4bgh92rcd13ifvqb50","pricing_plan_id":"cebpf4jnsgd1na2vs0mg"},{"bike_id":"97a26378-897a-4cc3-94fc-ef7846cd6637","system_id":"levelo_inurba_marseille","lat":43.31385,"lon":5.3668,"is_reserved":false,"is_disabled":false,"rental_uris":{"android":"levelo://app?vid=97a26378-897a-4cc3-94fc-ef7846cd6637","ios":"levelo://app?vid=97a26378-897a-4cc3-94fc-ef7846cd6637"},"vehicle_type_id":"4","last_reported":1735679270,"current_range_meters":38800,"station_id":"ce4bgr92rcd13ifvqc6g","pricing_plan_id":"cebpf4jnsgd1na2vs0mg"},{"bike_id":"0c0d69f4-a415-4c75-aa1b-a4fc63bbefea","system_id":"levelo_inurba_marseille","lat":43.31202,"lon":5.36965,"is_reserved":false,"is_disabled":false,"rental_uris":{"android":"levelo://app?vid=0c0d69f4-a415-4c75-aa1b-a4fc63bbefea","ios":"levelo://app?vid=0c0d69f4-a415-4c75-aa1b-a4fc63bbefea"},"vehicle_type_id":"4","last_reported":1735679270,"current_range_meters":39200,"station_id":"ce4bgl92rcd13ifvqbq0","pricing_plan_id":"cebpf4jnsgd1na2vs0mg"},{"bike_id":"806a426a-4ed8-4946-90b0-578f162fd06a","system_id":"levelo_inurba_marseille","lat":43.29587,"lon":5.38118,"is_reserved":false,"is_disabled":false,"rental_uris":{"android":"levelo://app?vid=806a426a-4ed8-4946-90b0-578f162fd06a","ios":"levelo://app?vid=806a426a-4ed8-4946-90b0-578f162fd06a"},"vehicle_type_id":"4","last_reported":1735679270,"current_range_meters":38800,"station_id":"ce4bgl12rcd13ifvqbo0","pricing_plan_id":"cebpf4jnsgd1na2vs0mg"},{"bike_id":"97aa09f8-1ccd-47ff-8094-273a0bae9e0a","system_id":"levelo_inurba_marseille","lat":43.29592,"lon":5.37702,"is_reserved":false,"is_disabled":false,"rental_uris":{"android":"levelo://app?vid=97aa09f8-1ccd-47ff-8094-273a0bae9e0a","ios":"levelo://app?vid=97aa09f8-1ccd-47ff-8094-273a0bae9e0a"},"vehicle_type_id":"4","last_reported":1735679270,"current_range_meters":30000,"station_id":"ce4bgi92rcd13ifvqb90","pricing_plan_id":"cebpf4jnsgd1na2vs0mg"},{"bike_id":"1ea09a78-ebb1-49fe-92c3-cba60f06d5b3","system_id":"levelo_inurba_marseille","lat":43.284688,"lon":5.38177,"is_reserved":false,"is_disabled":false,"rental_uris":{"android":"levelo://app?vid=1ea09a78-ebb1-49fe-92c3-cba60f06d5b3","ios":"levelo://app?vid=1ea09a78-ebb1-49fe-92c3-cba60f06d5b3"},"vehicle_type_id":"4","last_reported":1735679270,"current_range_meters":37600,"station_id":"","pricing_plan_id":"cebpf4jnsgd1na2vs0mg"},{"bike_id":"c021dfde-98e6-48d6-823b-41d754a11bfa","system_id":"levelo_inurba_marseille","lat":43.30128,"lon":5.39865,"is_reserved":false,"is_disabled":false,"rental_uris":{"android":"levelo://app?vid=c021dfde-98e6-48d6-823b-41d754a11bfa","ios":"levelo://app?vid=c021dfde-98e6-48d6-823b-41d754a11bfa"},"vehicle_type_id":"4","last_reported":1735679270,"current_range_meters":32400,"station_id":"ce4bh0h2rcd13ifvqd40","pricing_plan_id":"cebpf4jnsgd1na2vs0mg"},{"bike_id":"a005e1bf-2999-4035-942d-1957469d29ca","system_id":"levelo_inurba_marseille","lat":43.24679,"lon":5.3815,"is_reserved":false,"is_disabled":true,"rental_uris":{"android":"levelo://app?vid=a005e1bf-2999-4035-942d-1957469d29ca","ios":"levelo://app?vid=a005e1bf-2999-4035-942d-1957469d29ca"},"vehicle_type_id":"4","last_reported":1735679270,"current_range_meters":36400,"station_id":"ce4bhih2rcd13ifvqfr0","pricing_plan_id":"cebpf4jnsgd1na2vs0mg"},{"bike_id":"c0714b9f-b728-41f4-b014-92235b832d85","system_id":"levelo_inurba_marseille","lat":43.23958,"lon":5.36628,"is_reserved":false,"is_disabled":false,"rental_uris":{"android":"levelo://app?vid=c0714b9f-b728-41f4-b014-92235b832d85","ios":"levelo://app?vid=c0714b9f-b728-41f4-b014-92235b832d85"},"vehicle_type_id":"4","last_reported":1735679270,"current_range_meters":36800,"station_id":"ce4bhi12rcd13ifvqfp0","pricing_plan_id":"cebpf4jnsgd1na2vs0mg"},{"bike_id":"f6c3569e-efa4-4a1c-b75b-94ded8df3e64","system_id":"levelo_inurba_marseille","lat":43.27939,"lon":5.38714,"is_reserved":false,"is_disabled":false,"rental_uris":{"android":"levelo://app?vid=f6c3569e-efa4-4a1c-b75b-94ded8df3e64","ios":"levelo://app?vid=f6c3569e-efa4-4a1c-b75b-94ded8df3e64"},"vehicle_type_id":"4","last_reported":1735679270,"current_range_meters":31200,"station_id":"ce4bhg12rcd13ifvqf80","pricing_plan_id":"cebpf4jnsgd1na2vs0mg"},{"bike_id":"1e9223a0-e23d-42d2-806f-4bd530fdddf4","system_id":"levelo_inurba_marseille","lat":43.28941,"lon":5.36376,"is_reserved":false,"is_disabled":false,"rental_uris":{"android":"levelo://app?vid=1e9223a0-e23d-42d2-806f-4bd530fdddf4","ios":"levelo://app?vid=1e9223a0-e23d-42d2-806f-4bd530fdddf4"},"vehicle_type_id":"4","last_reported":1735679270,"current_range_meters":36800,"station_id":"ce4bhc92rcd13ifvqetg","pricing_plan_id":"cebpf4jnsgd1na2vs0mg"},{"bike_id":"5510f670-eb3d-4a9d-951e-27e21575eef2","system_id":"levelo_inurba_marseille","lat":43.32477,"lon":5.36552,"is_reserved":false,"is_disabled":false,"rental_uris":{"android":"levelo://app?vid=5510f670-eb3d-4a9d-951e-27e21575eef2","ios":"levelo://app?vid=5510f670-eb3d-4a9d-951e-27e21575eef2"},"vehicle_type_id":"4","last_reported":1735679270,"current_range_meters":39200,"station_id":"ce4bhs12rcd13ifvqhvg","pricing_plan_id":"cebpf4jnsgd1na2vs0mg"},{"bike_id":"4c39f437-a5ef-4ec6-98f1-e0f11722d3df","system_id":"levelo_inurba_marseille","lat":43.29621,"lon":5.37708,"is_reserved":false,"is_disabled":false,"rental_uris":{"android":"levelo://app?vid=4c39f437-a5ef-4ec6-98f1-e0f11722d3df","ios":"levelo://app?vid=4c39f437-a5ef-4ec6-98f1-e0f11722d3df"},"vehicle_type_id":"4","last_reported":1735679270,"current_range_meters":10800,"station_id":"ce4bgi92rcd13ifvqb90","pricing_plan_id":"cebpf4jnsgd1na2vs0mg"},{"bike_id":"00138e32-e492-49ec-8baf-715fb2b9afd1","system_id":"levelo_inurba_marseille","lat":43.28057,"lon":5.35292,"is_reserved":false,"is_disabled":false,"rental_uris":{"android":"levelo://app?vid=00138e32-e492-49ec-8baf-715fb2b9afd1","ios":"levelo://app?vid=00138e32-e492-49ec-8baf-715fb2b9afd1"},"vehicle_type_id":"4","last_reported":1735679270,"current_range_meters":24400,"station_id":"ce4bhbh2rcd13ifvqeo0","pricing_plan_id":"cebpf4jnsgd1na2vs0mg"},{"bike_id":"59adb9de-a24f-4ccd-917b-f6362f515950","system_id":"levelo_inurba_marseille","lat":43.30429,"lon":5.38877,"is_reserved":false,"is_disabled":false,"rental_uris":{"android":"levelo://app?vid=59adb9de-a24f-4ccd-917b-f6362f515950","ios":"levelo://app?vid=59adb9de-a24f-4ccd-917b-f6362f515950"},"vehicle_type_id":"4","last_reported":1735679270,"current_range_meters":34800,"station_id":"ce4bgk12rcd13ifvqbi0","pricing_plan_id":"cebpf4jnsgd1na2vs0mg"},{"bike_id":"88744239-b9bf-4dc2-8375-ad9a4c79612f","system_id":"levelo_inurba_marseille","lat":43.26696,"lon":5.38258,"is_reserved":false,"is_disabled":false,"rental_uris":{"android":"levelo://app?vid=88744239-b9bf-4dc2-8375-ad9a4c79612f","ios":"levelo://app?vid=88744239-b9bf-4dc2-8375-ad9a4c79612f"},"vehicle_type_id":"4","last_reported":1735679270,"current_range_meters":30400,"station_id":"ce4bhg92rcd13ifvqf90","pricing_plan_id":"cebpf4jnsgd1na2vs0mg"},{"bike_id":"e7f232e6-9751-45f4-a24f-005b95d10947","system_id":"levelo_inurba_marseille","lat":43.29603,"lon":5.37708,"is_reserved":false,"is_disabled":true,"rental_uris":{"android":"levelo://app?vid=e7f232e6-9751-45f4-a24f-005b95d10947","ios":"levelo://app?vid=e7f232e6-9751-45f4-a24f-005b95d10947"},"vehicle_type_id":"4","last_reported":1735679270,"current_range_meters":30000,"station_id":"ce4bgi92rcd13ifvqb90","pricing_plan_id":"cebpf4jnsgd1na2vs0mg"},{"bike_id":"1f8555a0-5791-41f9-a2b7-899c5689a489","system_id":"levelo_inurba_marseille","lat":43.29415,"lon":5.38616,"is_reserved":false,"is_disabled":false,"rental_uris":{"android":"levelo://app?vid=1f8555a0-5791-41f9-a2b7-899c5689a489","ios":"levelo://app?vid=1f8555a0-5791-41f9-a2b7-899c5689a489"},"vehicle_type_id":"4","last_reported":1735679270,"current_range_meters":10000,"station_id":"ce4bh2h2rcd13ifvqdh0","pricing_plan_id":"cebpf4jnsgd1na2vs0mg"},{"bike_id":"bbc52d06-9c26-4f79-84f1-29754ecc59d6","system_id":"levelo_inurba_marseille","lat":43.27938,"lon":5.41031,"is_reserved":false,"is_disabled":false,"rental_uris":{"android":"levelo://app?vid=bbc52d06-9c26-4f79-84f1-29754ecc59d6","ios":"levelo://app?vid=bbc52d06-9c26-4f79-84f1-29754ecc59d6"},"vehicle_type_id":"4","last_reported":1735679270,"current_range_meters":29600,"station_id":"ce4bhnp2rcd13ifvqh0g","pricing_plan_id":"cebpf4jnsgd1na2vs0mg"},{"bike_id":"2241734e-29b7-4c37-ae32-2588a0ac3a7c","system_id":"levelo_inurba_marseille","lat":43.324747,"lon":5.365572,"is_reserved":false,"is_disabled":false,"rental_uris":{"android":"levelo://app?vid=2241734e-29b7-4c37-ae32-2588a0ac3a7c","ios":"levelo://app?vid=2241734e-29b7-4c37-ae32-2588a0ac3a7c"},"vehicle_type_id":"4","last_reported":1735679270,"current_range_meters":39200,"station_id":"ce4bhs12rcd13ifvqhvg","pricing_plan_id":"cebpf4jnsgd1na2vs0mg"},{"bike_id":"b27965e7-c627-45ad-b992-fbe4a1fd4e47","system_id":"levelo_inurba_marseille","lat":43.26493,"lon":5.39546,"is_reserved":false,"is_disabled":false,"rental_uris":{"android":"levelo://app?vid=b27965e7-c627-45ad-b992-fbe4a1fd4e47","ios":"levelo://app?vid=b27965e7-c627-45ad-b992-fbe4a1fd4e47"},"vehicle_type_id":"4","last_reported":1735679270,"current_range_meters":38800,"station_id":"ce4bhi12rcd13ifvqfq0","pricing_plan_id":"cebpf4jnsgd1na2vs0mg"},{"bike_id":"af1470c4-ef89-49d6-ba56-3e47ffd86133","system_id":"levelo_inurba_marseille","lat":43.292995,"lon":5.374365,"is_reserved":false,"is_disabled":true,"rental_uris":{"android":"levelo://app?vid=af1470c4-ef89-49d6-ba56-3e47ffd86133","ios":"levelo://app?vid=af1470c4-ef89-49d6-ba56-3e47ffd86133"},"vehicle_type_id":"4","last_reported":1735679270,"current_range_meters":24800,"station_id":"ce4bgi12rcd13ifvqb70","pricing_plan_id":"cebpf4jnsgd1na2vs0mg"},{"bike_id":"3f540ad6-20bc-4bc1-b630-df9772db11ce","system_id":"levelo_inurba_marseille","lat":43.29418,"lon":5.38622,"is_reserved":false,"is_disabled":false,"rental_uris":{"android":"levelo://app?vid=3f540ad6-20bc-4bc1-b630-df9772db11ce","ios":"levelo://app?vid=3f540ad6-20bc-4bc1-b630-df9772db11ce"},"vehicle_type_id":"4","last_reported":1735679270,"current_range_meters":37600,"station_id":"ce4bh2h2rcd13ifvqdh0","pricing_plan_id":"cebpf4jnsgd1na2vs0mg"},{"bike_id":"fe558e13-acab-45e7-82b2-e42208277f0a","system_id":"levelo_inurba_marseille","lat":43.30133,"lon":5.39862,"is_reserved":false,"is_disabled":false,"rental_uris":{"android":"levelo://app?vid=fe558e13-acab-45e7-82b2-e42208277f0a","ios":"levelo://app?vid=fe558e13-acab-45e7-82b2-e42208277f0a"},"vehicle_type_id":"4","last_reported":1735679270,"current_range_meters":36000,"station_id":"ce4bh0h2rcd13ifvqd40","pricing_plan_id":"cebpf4jnsgd1na2vs0mg"},{"bike_id":"f5997a88-606e-48c9-933e-041b10894cea","system_id":"levelo_inurba_marseille","lat":43.2707,"lon":5.42281,"is_reserved":false,"is_disabled":false,"rental_uris":{"android":"levelo://app?vid=f5997a88-606e-48c9-933e-041b10894cea","ios":"levelo://app?vid=f5997a88-606e-48c9-933e-041b10894cea"},"vehicle_type_id":"4","last_reported":1735679270,"current_range_meters":22400,"station_id":"ce4bhk92rcd13ifvqgb0","pricing_plan_id":"cebpf4jnsgd1na2vs0mg"},{"bike_id":"be27c087-8760-4b20-a1b5-d6adf1caa60d","system_id":"levelo_inurba_marseille","lat":43.28033,"lon":5.36942,"is_reserved":false,"is_disabled":false,"rental_uris":{"android":"levelo://app?vid=be27c087-8760-4b20-a1b5-d6adf1caa60d","ios":"levelo://app?vid=be27c087-8760-4b20-a1b5-d6adf1caa60d"},"vehicle_type_id":"4","last_reported":1735679270,"current_range_meters":6800,"station_id":"ce4bha12rcd13ifvqef0","pricing_plan_id":"cebpf4jnsgd1na2vs0mg"},{"bike_id":"b17b42b2-4ebf-4c13-8f68-a8e3a9b7b818","system_id":"levelo_inurba_marseille","lat":43.31372,"lon":5.38493,"is_reserved":false,"is_disabled":false,"rental_uris":{"android":"levelo://app?vid=b17b42b2-4ebf-4c13-8f68-a8e3a9b7b818","ios":"levelo://app?vid=b17b42b2-4ebf-4c13-8f68-a8e3a9b7b818"},"vehicle_type_id":"4","last_reported":1735679270,"current_range_meters":26000,"station_id":"ce4bgt92rcd13ifvqcf0","pricing_plan_id":"cebpf4jnsgd1na2vs0mg"},{"bike_id":"78b5c16e-8cc7-40d1-b9a4-94b51e4903c4","system_id":"levelo_inurba_marseille","lat":43.29406,"lon":5.38619,"is_reserved":false,"is_disabled":false,"rental_uris":{"android":"levelo://app?vid=78b5c16e-8cc7-40d1-b9a4-94b51e4903c4","ios":"levelo://app?vid=78b5c16e-8cc7-40d1-b9a4-94b51e4903c4"},"vehicle_type_id":"4","last_reported":1735679270,"current_range_meters":38800,"station_id":"ce4bh2h2rcd13ifvqdh0","pricing_plan_id":"cebpf4jnsgd1na2vs0mg"},{"bike_id":"236b3030-26dc-4d31-a5ec-3e724cdce4e6","system_id":"levelo_inurba_marseille","lat":43.30877,"lon":5.3965,"is_reserved":false,"is_disabled":false,"rental_uris":{"android":"levelo://app?vid=236b3030-26dc-4d31-a5ec-3e724cdce4e6","ios":"levelo://app?vid=236b3030-26dc-4d31-a5ec-3e724cdce4e6"},"vehicle_type_id":"4","last_reported":1735679270,"current_range_meters":38800,"station_id":"ce4bh012rcd13ifvqcv0","pricing_plan_id":"cebpf4jnsgd1na2vs0mg"},{"bike_id":"abd71d58-49ef-4c9a-9d92-785fa19dd1f9","system_id":"levelo_inurba_marseille","lat":43.30934,"lon":5.40137,"is_reserved":false,"is_disabled":false,"rental_uris":{"android":"levelo://app?vid=abd71d58-49ef-4c9a-9d92-785fa19dd1f9","ios":"levelo://app?vid=abd71d58-49ef-4c9a-9d92-785fa19dd1f9"},"vehicle_type_id":"4","last_reported":1735679270,"current_range_meters":16800,"station_id":"ce4bgvp2rcd13ifvqct0","pricing_plan_id":"cebpf4jnsgd1na2vs0mg"},{"bike_id":"4ae90592-e920-400e-8a25-b327a1d3d78f","system_id":"levelo_inurba_marseille","lat":43.24652,"lon":5.38173,"is_reserved":false,"is_disabled":false,"rental_uris":{"android":"levelo://app?vid=4ae90592-e920-400e-8a25-b327a1d3d78f","ios":"levelo://app?vid=4ae90592-e920-400e-8a25-b327a1d3d78f"},"vehicle_type_id":"4","last_reported":1735679270,"current_range_meters":8000,"station_id":"ce4bhih2rcd13ifvqfr0","pricing_plan_id":"cebpf4jnsgd1na2vs0mg"},{"bike_id":"fee29b35-d5ab-40ef-aff7-4a8a451182c6","system_id":"levelo_inurba_marseille","lat":43.31721,"lon":5.42398,"is_reserved":false,"is_disabled":false,"rental_uris":{"android":"levelo://app?vid=fee29b35-d5ab-40ef-aff7-4a8a451182c6","ios":"levelo://app?vid=fee29b35-d5ab-40ef-aff7-4a8a451182c6"},"vehicle_type_id":"4","last_reported":1735679270,"current_range_meters":36800,"station_id":"ce4bhp92rcd13ifvqhbg","pricing_plan_id":"cebpf4jnsgd1na2vs0mg"},{"bike_id":"2fc8e17d-9495-4922-8d89-7dea2e5ea943","system_id":"levelo_inurba_marseille","lat":43.27057,"lon":5.40257,"is_reserved":false,"is_disabled":false,"rental_uris":{"android":"levelo://app?vid=2fc8e17d-9495-4922-8d89-7dea2e5ea943","ios":"levelo://app?vid=2fc8e17d-9495-4922-8d89-7dea2e5ea943"},"vehicle_type_id":"4","last_reported":1735679270,"current_range_meters":10000,"station_id":"ce4bhk92rcd13ifvqgc0","pricing_plan_id":"cebpf4jnsgd1na2vs0mg"},{"bike_id":"eaf838b7-144d-4291-9d25-0dcea3a4b36c","system_id":"levelo_inurba_marseille","lat":43.31123,"lon":5.37756,"is_reserved":false,"is_disabled":false,"rental_uris":{"android":"levelo://app?vid=eaf838b7-144d-4291-9d25-0dcea3a4b36c","ios":"levelo://app?vid=eaf838b7-144d-4291-9d25-0dcea3a4b36c"},"vehicle_type_id":"4","last_reported":1735679270,"current_range_meters":26800,"station_id":"ce4bgt92rcd13ifvqcg0","pricing_plan_id":"cebpf4jnsgd1na2vs0mg"},{"bike_id":"9f6f2313-c1a8-4417-b604-2f0daee035fc","system_id":"levelo_inurba_marseille","lat":43.2395,"lon":5.36621,"is_reserved":false,"is_disabled":false,"rental_uris":{"android":"levelo://app?vid=9f6f2313-c1a8-4417-b604-2f0daee035fc","ios":"levelo://app?vid=9f6f2313-c1a8-4417-b604-2f0daee035fc"},"vehicle_type_id":"4","last_reported":1735679270,"current_range_meters":28800,"station_id":"ce4bhi12rcd13ifvqfp0","pricing_plan_id":"cebpf4jnsgd1na2vs0mg"},{"bike_id":"d42bc978-4b09-4a1a-a3f8-f73483d2bd7b","system_id":"levelo_inurba_marseille","lat":43.29554,"lon":5.37531,"is_reserved":false,"is_disabled":false,"rental_uris":{"android":"levelo://app?vid=d42bc978-4b09-4a1a-a3f8-f73483d2bd7b","ios":"levelo://app?vid=d42bc978-4b09-4a1a-a3f8-f73483d2bd7b"},"vehicle_type_id":"4","last_reported":1735679270,"current_range_meters":31200,"station_id":"ce4bgh92rcd13ifvqb50","pricing_plan_id":"cebpf4jnsgd1na2vs0mg"},{"bike_id":"1ad2bbd9-5e69-4682-9dd4-e38192e7682a","system_id":"levelo_inurba_marseille","lat":43.30547,"lon":5.3666,"is_reserved":false,"is_disabled":false,"rental_uris":{"android":"levelo://app?vid=1ad2bbd9-5e69-4682-9dd4-e38192e7682a","ios":"levelo://app?vid=1ad2bbd9-5e69-4682-9dd4-e38192e7682a"},"vehicle_type_id":"4","last_reported":1735679270,"current_range_meters":30000,"station_id":"","pricing_plan_id":"cebpf4jnsgd1na2vs0mg"},{"bike_id":"609d54d1-2685-4282-b01e-8a340d1d5d0e","system_id":"levelo_inurba_marseille","lat":43.29618,"lon":5.37147,"is_reserved":false,"is_disabled":false,"rental_uris":{"android":"levelo://app?vid=609d54d1-2685-4282-b01e-8a340d1d5d0e","ios":"levelo://app?vid=609d54d1-2685-4282-b01e-8a340d1d5d0e"},"vehicle_type_id":"4","last_reported":1735679270,"current_range_meters":38400,"station_id":"ce4bgnh2rcd13ifvqc0g","pricing_plan_id":"cebpf4jnsgd1na2vs0mg"},{"bike_id":"311df7aa-7539-4933-9523-1fe72ce97583","system_id":"levelo_inurba_marseille","lat":43.32438,"lon":5.41554,"is_reserved":false,"is_disabled":false,"rental_uris":{"android":"levelo://app?vid=311df7aa-7539-4933-9523-1fe72ce97583","ios":"levelo://app?vid=311df7aa-7539-4933-9523-1fe72ce97583"},"vehicle_type_id":"4","last_reported":1735679270,"current_range_meters":10000,"station_id":"","pricing_plan_id":"cebpf4jnsgd1na2vs0mg"},{"bike_id":"f06918cb-2309-4a63-a392-f7b3f95deb94","system_id":"levelo_inurba_marseille","lat":43.29636,"lon":5.40603,"is_reserved":false,"is_disabled":false,"rental_uris":{"android":"levelo://app?vid=f06918cb-2309-4a63-a392-f7b3f95deb94","ios":"levelo://app?vid=f06918cb-2309-4a63-a392-f7b3f95deb94"},"vehicle_type_id":"4","last_reported":1735679270,"current_range_meters":26000,"station_id":"ce4bh0h2rcd13ifvqd60","pricing_plan_id":"cebpf4jnsgd1na2vs0mg"},{"bike_id":"3c24cf58-dc47-4a05-a336-46b3393557cb","system_id":"levelo_inurba_marseille","lat":43.29595,"lon":5.38101,"is_reserved":false,"is_disabled":false,"rental_uris":{"android":"levelo://app?vid=3c24cf58-dc47-4a05-a336-46b3393557cb","ios":"levelo://app?vid=3c24cf58-dc47-4a05-a336-46b3393557cb"},"vehicle_type_id":"4","last_reported":1735679270,"current_range_meters":30000,"station_id":"ce4bgl12rcd13ifvqbo0","pricing_plan_id":"cebpf4jnsgd1na2vs0mg"},{"bike_id":"94e6dee2-3159-449e-9ee5-297188ebe26e","system_id":"levelo_inurba_marseille","lat":43.29907,"lon":5.37453,"is_reserved":false,"is_disabled":false,"rental_uris":{"android":"levelo://app?vid=94e6dee2-3159-449e-9ee5-297188ebe26e","ios":"levelo://app?vid=94e6dee2-3159-449e-9ee5-297188ebe26e"},"vehicle_type_id":"4","last_reported":1735679270,"current_range_meters":24800,"station_id":"ce4bgjh2rcd13ifvqbg0","pricing_plan_id":"cebpf4jnsgd1na2vs0mg"},{"bike_id":"abbfded5-56c2-44f5-8004-1e2a51b9d0ff","system_id":"levelo_inurba_marseille","lat":43.281563,"lon":5.426466,"is_reserved":false,"is_disabled":false,"rental_uris":{"android":"levelo://app?vid=abbfded5-56c2-44f5-8004-1e2a51b9d0ff","ios":"levelo://app?vid=abbfded5-56c2-44f5-8004-1e2a51b9d0ff"},"vehicle_type_id":"4","last_reported":1735679270,"current_range_meters":28000,"station_id":"ce4bhnh2rcd13ifvqgug","pricing_plan_id":"cebpf4jnsgd1na2vs0mg"},{"bike_id":"f72e2092-86ea-45e4-82c8-cadec6ed52d1","system_id":"levelo_inurba_marseille","lat":43.29301,"lon":5.37446,"is_reserved":false,"is_disabled":false,"rental_uris":{"android":"levelo://app?vid=f72e2092-86ea-45e4-82c8-cadec6ed52d1","ios":"levelo://app?vid=f72e2092-86ea-45e4-82c8-cadec6ed52d1"},"vehicle_type_id":"4","last_reported":1735679270,"current_range_meters":35600,"station_id":"ce4bgi12rcd13ifvqb70","pricing_plan_id":"cebpf4jnsgd1na2vs0mg"},{"bike_id":"8cbc8b99-428c-4040-b86c-4e2c4fffea65","system_id":"levelo_inurba_marseille","lat":43.33761,"lon":5.37436,"is_reserved":false,"is_disabled":true,"rental_uris":{"android":"levelo://app?vid=8cbc8b99-428c-4040-b86c-4e2c4fffea65","ios":"levelo://app?vid=8cbc8b99-428c-4040-b86c-4e2c4fffea65"},"vehicle_type_id":"4","last_reported":1735679270,"current_range_meters":36400,"station_id":"","pricing_plan_id":"cebpf4jnsgd1na2vs0mg"},{"bike_id":"281c3a16-69e0-4a03-8d9e-f541d365dddc","system_id":"levelo_inurba_marseille","lat":43.27063,"lon":5.40255,"is_reserved":false,"is_disabled":false,"rental_uris":{"android":"levelo://app?vid=281c3a16-69e0-4a03-8d9e-f541d365dddc","ios":"levelo://app?vid=281c3a16-69e0-4a03-8d9e-f541d365dddc"},"vehicle_type_id":"4","last_reported":1735679270,"current_range_meters":38000,"station_id":"ce4bhk92rcd13ifvqgc0","pricing_plan_id":"cebpf4jnsgd1na2vs0mg"},{"bike_id":"94727536-92b3-4330-be97-3fb520d9b089","system_id":"levelo_inurba_marseille","lat":43.29774,"lon":5.39326,"is_reserved":false,"is_disabled":false,"rental_uris":{"android":"levelo://app?vid=94727536-92b3-4330-be97-3fb520d9b089","ios":"levelo://app?vid=94727536-92b3-4330-be97-3fb520d9b089"},"vehicle_type_id":"4","last_reported":1735679270,"current_range_meters":39200,"station_id":"chh1huq6cuj3fo74tm60","pricing_plan_id":"cebpf4jnsgd1na2vs0mg"},{"bike_id":"fdccb3f7-58d6-42a4-a69d-d734d3486c5c","system_id":"levelo_inurba_marseille","lat":43.29253,"lon":5.38432,"is_reserved":false,"is_disabled":false,"rental_uris":{"android":"levelo://app?vid=fdccb3f7-58d6-42a4-a69d-d734d3486c5c","ios":"levelo://app?vid=fdccb3f7-58d6-42a4-a69d-d734d3486c5c"},"vehicle_type_id":"4","last_reported":1735679270,"current_range_meters":16400,"station_id":"ce4bh692rcd13ifvqea0","pricing_plan_id":"cebpf4jnsgd1na2vs0mg"},{"bike_id":"62af83b8-0bcb-4a53-9c44-e8ad4810fed3","system_id":"levelo_inurba_marseille","lat":43.26495,"lon":5.39549,"is_reserved":false,"is_disabled":false,"rental_uris":{"android":"levelo://app?vid=62af83b8-0bcb-4a53-9c44-e8ad4810fed3","ios":"levelo://app?vid=62af83b8-0bcb-4a53-9c44-e8ad4810fed3"},"vehicle_type_id":"4","last_reported":1735679270,"current_range_meters":27600,"station_id":"ce4bhi12rcd13ifvqfq0","pricing_plan_id":"cebpf4jnsgd1na2vs0mg"},{"bike_id":"cfd9b0aa-0985-41bd-a744-766658df9439","system_id":"levelo_inurba_marseille","lat":43.29869,"lon":5.37629,"is_reserved":false,"is_disabled":true,"rental_uris":{"android":"levelo://app?vid=cfd9b0aa-0985-41bd-a744-766658df9439","ios":"levelo://app?vid=cfd9b0aa-0985-41bd-a744-766658df9439"},"vehicle_type_id":"4","last_reported":1735679270,"current_range_meters":0,"station_id":"ce4bgjh2rcd13ifvqbg0","pricing_plan_id":"cebpf4jnsgd1na2vs0mg"},{"bike_id":"6fc8aba9-49ed-4b03-a893-d03e94af6301","system_id":"levelo_inurba_marseille","lat":43.2942,"lon":5.38626,"is_reserved":false,"is_disabled":false,"rental_uris":{"android":"levelo://app?vid=6fc8aba9-49ed-4b03-a893-d03e94af6301","ios":"levelo://app?vid=6fc8aba9-49ed-4b03-a893-d03e94af6301"},"vehicle_type_id":"4","last_reported":1735679270,"current_range_meters":22400,"station_id":"ce4bh2h2rcd13ifvqdh0","pricing_plan_id":"cebpf4jnsgd1na2vs0mg"},{"bike_id":"b1815487-383e-42be-8a0b-8b8db0c2ceef","system_id":"levelo_inurba_marseille","lat":43.32293,"lon":5.38252,"is_reserved":false,"is_disabled":false,"rental_uris":{"android":"levelo://app?vid=b1815487-383e-42be-8a0b-8b8db0c2ceef","ios":"levelo://app?vid=b1815487-383e-42be-8a0b-8b8db0c2ceef"},"vehicle_type_id":"4","last_reported":1735679270,"current_range_meters":38800,"station_id":"ce4bhr12rcd13ifvqhqg","pricing_plan_id":"cebpf4jnsgd1na2vs0mg"},{"bike_id":"75948afc-cf79-4a76-a419-5f95ee821a64","system_id":"levelo_inurba_marseille","lat":43.25101,"lon":5.4031,"is_reserved":false,"is_disabled":false,"rental_uris":{"android":"levelo://app?vid=75948afc-cf79-4a76-a419-5f95ee821a64","ios":"levelo://app?vid=75948afc-cf79-4a76-a419-5f95ee821a64"},"vehicle_type_id":"4","last_reported":1735679270,"current_range_meters":39200,"station_id":"ce4bhlh2rcd13ifvqgig","pricing_plan_id":"cebpf4jnsgd1na2vs0mg"},{"bike_id":"f46bd378-e30f-485c-b539-9d29fba578aa","system_id":"levelo_inurba_marseille","lat":43.34142,"lon":5.40908,"is_reserved":false,"is_disabled":false,"rental_uris":{"android":"levelo://app?vid=f46bd378-e30f-485c-b539-9d29fba578aa","ios":"levelo://app?vid=f46bd378-e30f-485c-b539-9d29fba578aa"},"vehicle_type_id":"4","last_reported":1735679270,"current_range_meters":38800,"station_id":"ce4bhqh2rcd13ifvqhlg","pricing_plan_id":"cebpf4jnsgd1na2vs0mg"},{"bike_id":"7ec4d381-79e4-4c43-b132-77d2c6adbb98","system_id":"levelo_inurba_marseille","lat":43.30883,"lon":5.39652,"is_reserved":false,"is_disabled":false,"rental_uris":{"android":"levelo://app?vid=7ec4d381-79e4-4c43-b132-77d2c6adbb98","ios":"levelo://app?vid=7ec4d381-79e4-4c43-b132-77d2c6adbb98"},"vehicle_type_id":"4","last_reported":1735679270,"current_range_meters":22400,"station_id":"ce4bh012rcd13ifvqcv0","pricing_plan_id":"cebpf4jnsgd1na2vs0mg"},{"bike_id":"a9ad46d6-1750-405f-8074-9378a5ffcb62","system_id":"levelo_inurba_marseille","lat":43.29564,"lon":5.37508,"is_reserved":false,"is_disabled":false,"rental_uris":{"android":"levelo://app?vid=a9ad46d6-1750-405f-8074-9378a5ffcb62","ios":"levelo://app?vid=a9ad46d6-1750-405f-8074-9378a5ffcb62"},"vehicle_type_id":"4","last_reported":1735679270,"current_range_meters":24400,"station_id":"ce4bgh92rcd13ifvqb50","pricing_plan_id":"cebpf4jnsgd1na2vs0mg"},{"bike_id":"df334d50-4421-42a5-a762-fb7f39807cc1","system_id":"levelo_inurba_marseille","lat":43.337444,"lon":5.374475,"is_reserved":false,"is_disabled":false,"rental_uris":{"android":"levelo://app?vid=df334d50-4421-42a5-a762-fb7f39807cc1","ios":"levelo://app?vid=df334d50-4421-42a5-a762-fb7f39807cc1"},"vehicle_type_id":"4","last_reported":1735679270,"current_range_meters":38000,"station_id":"","pricing_plan_id":"cebpf4jnsgd1na2vs0mg"},{"bike_id":"b1ba8e46-6352-4028-bfeb-07e690b71bc4","system_id":"levelo_inurba_marseille","lat":43.31694,"lon":5.40463,"is_reserved":false,"is_disabled":false,"rental_uris":{"android":"levelo://app?vid=b1ba8e46-6352-4028-bfeb-07e690b71bc4","ios":"levelo://app?vid=b1ba8e46-6352-4028-bfeb-07e690b71bc4"},"vehicle_type_id":"4","last_reported":1735679270,"current_range_meters":38800,"station_id":"ce4bh012rcd13ifvqd00","pricing_plan_id":"cebpf4jnsgd1na2vs0mg"},{"bike_id":"35d7b981-f2f8-4e1f-bf58-6f3547d4e1f6","system_id":"levelo_inurba_marseille","lat":43.30307,"lon":5.36885,"is_reserved":false,"is_disabled":true,"rental_uris":{"android":"levelo://app?vid=35d7b981-f2f8-4e1f-bf58-6f3547d4e1f6","ios":"levelo://app?vid=35d7b981-f2f8-4e1f-bf58-6f3547d4e1f6"},"vehicle_type_id":"4","last_reported":1735679270,"current_range_meters":26000,"station_id":"ce4bgqh2rcd13ifvqc5g","pricing_plan_id":"cebpf4jnsgd1na2vs0mg"},{"bike_id":"3e2ae0bf-9cf9-4b47-bb7d-e8a9278da38e","system_id":"levelo_inurba_marseille","lat":43.30928,"lon":5.40145,"is_reserved":false,"is_disabled":false,"rental_uris":{"android":"levelo://app?vid=3e2ae0bf-9cf9-4b47-bb7d-e8a9278da38e","ios":"levelo://app?vid=3e2ae0bf-9cf9-4b47-bb7d-e8a9278da38e"},"vehicle_type_id":"4","last_reported":1735679270,"current_range_meters":33600,"station_id":"ce4bgvp2rcd13ifvqct0","pricing_plan_id":"cebpf4jnsgd1na2vs0mg"},{"bike_id":"847e09aa-0198-46d1-b907-778eecf50dd1","system_id":"levelo_inurba_marseille","lat":43.31184,"lon":5.36839,"is_reserved":false,"is_disabled":true,"rental_uris":{"android":"levelo://app?vid=847e09aa-0198-46d1-b907-778eecf50dd1","ios":"levelo://app?vid=847e09aa-0198-46d1-b907-778eecf50dd1"},"vehicle_type_id":"4","last_reported":1735679270,"current_range_meters":38800,"station_id":"ce4bgl92rcd13ifvqbq0","pricing_plan_id":"cebpf4jnsgd1na2vs0mg"},{"bike_id":"8ca0e658-96b8-4132-950a-499ccf6586ae","system_id":"levelo_inurba_marseille","lat":43.29492,"lon":5.39042,"is_reserved":false,"is_disabled":false,"rental_uris":{"android":"levelo://app?vid=8ca0e658-96b8-4132-950a-499ccf6586ae","ios":"levelo://app?vid=8ca0e658-96b8-4132-950a-499ccf6586ae"},"vehicle_type_id":"4","last_reported":1735679270,"current_range_meters":38000,"station_id":"ce4bh3p2rcd13ifvqdp0","pricing_plan_id":"cebpf4jnsgd1na2vs0mg"},{"bike_id":"5367a292-5564-4681-91cd-97babb89fc00","system_id":"levelo_inurba_marseille","lat":43.22926,"lon":5.35383,"is_reserved":false,"is_disabled":false,"rental_uris":{"android":"levelo://app?vid=5367a292-5564-4681-91cd-97babb89fc00","ios":"levelo://app?vid=5367a292-5564-4681-91cd-97babb89fc00"},"vehicle_type_id":"4","last_reported":1735679270,"current_range_meters":26000,"station_id":"cpo3532slgdg3j2ikp40","pricing_plan_id":"cebpf4jnsgd1na2vs0mg"},{"bike_id":"1d5543c4-1c87-4447-ad2e-0cc64903ea75","system_id":"levelo_inurba_marseille","lat":43.25876,"lon":5.39914,"is_reserved":false,"is_disabled":false,"rental_uris":{"android":"levelo://app?vid=1d5543c4-1c87-4447-ad2e-0cc64903ea75","ios":"levelo://app?vid=1d5543c4-1c87-4447-ad2e-0cc64903ea75"},"vehicle_type_id":"4","last_reported":1735679270,"current_range_meters":27200,"station_id":"ce4bhl92rcd13ifvqghg","pricing_plan_id":"cebpf4jnsgd1na2vs0mg"},{"bike_id":"0483d5a5-12c2-4b90-8e6c-47d6d5a4b82c","system_id":"levelo_inurba_marseille","lat":43.25839,"lon":5.39421,"is_reserved":false,"is_disabled":false,"rental_uris":{"android":"levelo://app?vid=0483d5a5-12c2-4b90-8e6c-47d6d5a4b82c","ios":"levelo://app?vid=0483d5a5-12c2-4b90-8e6c-47d6d5a4b82c"},"vehicle_type_id":"4","last_reported":1735679270,"current_range_meters":38800,"station_id":"ce4bhip2rcd13ifvqft0","pricing_plan_id":"cebpf4jnsgd1na2vs0mg"},{"bike_id":"523f53b8-d5fa-4c60-a25e-8902b398e89d","system_id":"levelo_inurba_marseille","lat":43.29554,"lon":5.42281,"is_reserved":false,"is_disabled":false,"rental_uris":{"android":"levelo://app?vid=523f53b8-d5fa-4c60-a25e-8902b398e89d","ios":"levelo://app?vid=523f53b8-d5fa-4c60-a25e-8902b398e89d"},"vehicle_type_id":"4","last_reported":1735679270,"current_range_meters":38800,"station_id":"ce4bhph2rcd13ifvqhdg","pricing_plan_id":"cebpf4jnsgd1na2vs0mg"},{"bike_id":"66ad4ea9-62a7-4256-b00c-daf29a922c03","system_id":"levelo_inurba_marseille","lat":43.29293,"lon":5.37172,"is_reserved":false,"is_disabled":false,"rental_uris":{"android":"levelo://app?vid=66ad4ea9-62a7-4256-b00c-daf29a922c03","ios":"levelo://app?vid=66ad4ea9-62a7-4256-b00c-daf29a922c03"},"vehicle_type_id":"4","last_reported":1735679270,"current_range_meters":28400,"station_id":"ce4bgh92rcd13ifvqb40","pricing_plan_id":"cebpf4jnsgd1na2vs0mg"},{"bike_id":"29eb2d2e-1116-488a-9c4f-fa6c07205bcc","system_id":"levelo_inurba_marseille","lat":43.31491,"lon":5.37308,"is_reserved":false,"is_disabled":false,"rental_uris":{"android":"levelo://app?vid=29eb2d2e-1116-488a-9c4f-fa6c07205bcc","ios":"levelo://app?vid=29eb2d2e-1116-488a-9c4f-fa6c07205bcc"},"vehicle_type_id":"4","last_reported":1735679270,"current_range_meters":38400,"station_id":"ce4bgt12rcd13ifvqcd0","pricing_plan_id":"cebpf4jnsgd1na2vs0mg"},{"bike_id":"90ea32f2-8b16-412b-9028-e97b2dd7bfd3","system_id":"levelo_inurba_marseille","lat":43.31712,"lon":5.40445,"is_reserved":false,"is_disabled":false,"rental_uris":{"android":"levelo://app?vid=90ea32f2-8b16-412b-9028-e97b2dd7bfd3","ios":"levelo://app?vid=90ea32f2-8b16-412b-9028-e97b2dd7bfd3"},"vehicle_type_id":"4","last_reported":1735679270,"current_range_meters":38800,"station_id":"ce4bh012rcd13ifvqd00","pricing_plan_id":"cebpf4jnsgd1na2vs0mg"},{"bike_id":"793b3947-1b3f-4f2b-a5e8-f9c513332daa","system_id":"levelo_inurba_marseille","lat":43.29049,"lon":5.37571,"is_reserved":false,"is_disabled":false,"rental_uris":{"android":"levelo://app?vid=793b3947-1b3f-4f2b-a5e8-f9c513332daa","ios":"levelo://app?vid=793b3947-1b3f-4f2b-a5e8-f9c513332daa"},"vehicle_type_id":"4","last_reported":1735679270,"current_range_meters":2800,"station_id":"ce4bh692rcd13ifvqe90","pricing_plan_id":"cebpf4jnsgd1na2vs0mg"},{"bike_id":"2510b6a6-e1f5-4b0d-8b81-62dab8730a91","system_id":"levelo_inurba_marseille","lat":43.2871,"lon":5.3794,"is_reserved":false,"is_disabled":false,"rental_uris":{"android":"levelo://app?vid=2510b6a6-e1f5-4b0d-8b81-62dab8730a91","ios":"levelo://app?vid=2510b6a6-e1f5-4b0d-8b81-62dab8730a91"},"vehicle_type_id":"4","last_reported":1735679270,"current_range_meters":30400,"station_id":"ce4bh9p2rcd13ifvqec0","pricing_plan_id":"cebpf4jnsgd1na2vs0mg"},{"bike_id":"e8e3ab95-78d1-4fd6-98c1-abc678e92fa6","system_id":"levelo_inurba_marseille","lat":43.24079,"lon":5.37748,"is_reserved":false,"is_disabled":false,"rental_uris":{"android":"levelo://app?vid=e8e3ab95-78d1-4fd6-98c1-abc678e92fa6","ios":"levelo://app?vid=e8e3ab95-78d1-4fd6-98c1-abc678e92fa6"},"vehicle_type_id":"4","last_reported":1735679270,"current_range_meters":38400,"station_id":"ce4bhnp2rcd13ifvqgvg","pricing_plan_id":"cebpf4jnsgd1na2vs0mg"},{"bike_id":"6164fd70-bd1e-4bfa-b09a-6196d7e0229b","system_id":"levelo_inurba_marseille","lat":43.24392,"lon":5.37046,"is_reserved":false,"is_disabled":false,"rental_uris":{"android":"levelo://app?vid=6164fd70-bd1e-4bfa-b09a-6196d7e0229b","ios":"levelo://app?vid=6164fd70-bd1e-4bfa-b09a-6196d7e0229b"},"vehicle_type_id":"4","last_reported":1735679270,"current_range_meters":38800,"station_id":"ce4bhhh2rcd13ifvqfk0","pricing_plan_id":"cebpf4jnsgd1na2vs0mg"},{"bike_id":"de79872f-8d1a-472c-a6f5-48f83de13cc5","system_id":"levelo_inurba_marseille","lat":43.29629,"lon":5.37166,"is_reserved":false,"is_disabled":false,"rental_uris":{"android":"levelo://app?vid=de79872f-8d1a-472c-a6f5-48f83de13cc5","ios":"levelo://app?vid=de79872f-8d1a-472c-a6f5-48f83de13cc5"},"vehicle_type_id":"4","last_reported":1735679270,"current_range_meters":38800,"station_id":"ce4bgnh2rcd13ifvqc0g","pricing_plan_id":"cebpf4jnsgd1na2vs0mg"},{"bike_id":"f2415c22-2773-470e-860e-7ecf74630163","system_id":"levelo_inurba_marseille","lat":43.26496,"lon":5.39546,"is_reserved":false,"is_disabled":false,"rental_uris":{"android":"levelo://app?vid=f2415c22-2773-470e-860e-7ecf74630163","ios":"levelo://app?vid=f2415c22-2773-470e-860e-7ecf74630163"},"vehicle_type_id":"4","last_reported":1735679270,"current_range_meters":38800,"station_id":"ce4bhi12rcd13ifvqfq0","pricing_plan_id":"cebpf4jnsgd1na2vs0mg"},{"bike_id":"ca497fc6-cd22-4171-8d71-508c45bf12cf","system_id":"levelo_inurba_marseille","lat":43.29647,"lon":5.37134,"is_reserved":false,"is_disabled":false,"rental_uris":{"android":"levelo://app?vid=ca497fc6-cd22-4171-8d71-508c45bf12cf","ios":"levelo://app?vid=ca497fc6-cd22-4171-8d71-508c45bf12cf"},"vehicle_type_id":"4","last_reported":1735679270,"current_range_meters":38400,"station_id":"ce4bgnh2rcd13ifvqc0g","pricing_plan_id":"cebpf4jnsgd1na2vs0mg"},{"bike_id":"fdcb93a4-8a39-475e-8a0d-caf375d10c96","system_id":"levelo_inurba_marseille","lat":43.29572,"lon":5.37496,"is_reserved":false,"is_disabled":false,"rental_uris":{"android":"levelo://app?vid=fdcb93a4-8a39-475e-8a0d-caf375d10c96","ios":"levelo://app?vid=fdcb93a4-8a39-475e-8a0d-caf375d10c96"},"vehicle_type_id":"4","last_reported":1735679270,"current_range_meters":35600,"station_id":"ce4bgh92rcd13ifvqb50","pricing_plan_id":"cebpf4jnsgd1na2vs0mg"},{"bike_id":"1030ddbf-2dc8-4a26-8c35-fe5e0fdb7981","system_id":"levelo_inurba_marseille","lat":43.33021,"lon":5.39038,"is_reserved":false,"is_disabled":false,"rental_uris":{"android":"levelo://app?vid=1030ddbf-2dc8-4a26-8c35-fe5e0fdb7981","ios":"levelo://app?vid=1030ddbf-2dc8-4a26-8c35-fe5e0fdb7981"},"vehicle_type_id":"4","last_reported":1735679270,"current_range_meters":38800,"station_id":"ce4bhr92rcd13ifvqhrg","pricing_plan_id":"cebpf4jnsgd1na2vs0mg"},{"bike_id":"bbfc5010-5ad1-478a-9bf0-def17e142c1c","system_id":"levelo_inurba_marseille","lat":43.28028,"lon":5.36944,"is_reserved":false,"is_disabled":false,"rental_uris":{"android":"levelo://app?vid=bbfc5010-5ad1-478a-9bf0-def17e142c1c","ios":"levelo://app?vid=bbfc5010-5ad1-478a-9bf0-def17e142c1c"},"vehicle_type_id":"4","last_reported":1735679270,"current_range_meters":4800,"station_id":"ce4bha12rcd13ifvqef0","pricing_plan_id":"cebpf4jnsgd1na2vs0mg"},{"bike_id":"13721bbf-3ddc-4259-bb7d-b908810a2812","system_id":"levelo_inurba_marseille","lat":43.29803,"lon":5.381,"is_reserved":false,"is_disabled":false,"rental_uris":{"android":"levelo://app?vid=13721bbf-3ddc-4259-bb7d-b908810a2812","ios":"levelo://app?vid=13721bbf-3ddc-4259-bb7d-b908810a2812"},"vehicle_type_id":"4","last_reported":1735679270,"current_range_meters":14800,"station_id":"ce4bgip2rcd13ifvqbb0","pricing_plan_id":"cebpf4jnsgd1na2vs0mg"},{"bike_id":"4a623aaa-b77a-4cbd-8087-d6152f1a09b2","system_id":"levelo_inurba_marseille","lat":43.286621,"lon":5.386727,"is_reserved":false,"is_disabled":false,"rental_uris":{"android":"levelo://app?vid=4a623aaa-b77a-4cbd-8087-d6152f1a09b2","ios":"levelo://app?vid=4a623aaa-b77a-4cbd-8087-d6152f1a09b2"},"vehicle_type_id":"4","last_reported":1735679270,"current_range_meters":20000,"station_id":"ce4bh492rcd13ifvqdug","pricing_plan_id":"cebpf4jnsgd1na2vs0mg"},{"bike_id":"72940ea4-3699-4925-b313-05331e129544","system_id":"levelo_inurba_marseille","lat":43.28458,"lon":5.35887,"is_reserved":false,"is_disabled":false,"rental_uris":{"android":"levelo://app?vid=72940ea4-3699-4925-b313-05331e129544","ios":"levelo://app?vid=72940ea4-3699-4925-b313-05331e129544"},"vehicle_type_id":"4","last_reported":1735679270,"current_range_meters":23200,"station_id":"ce4bhah2rcd13ifvqei0","pricing_plan_id":"cebpf4jnsgd1na2vs0mg"},{"bike_id":"dac94ecf-3203-4c89-acc0-21c14e979588","system_id":"levelo_inurba_marseille","lat":43.26686,"lon":5.38274,"is_reserved":false,"is_disabled":false,"rental_uris":{"android":"levelo://app?vid=dac94ecf-3203-4c89-acc0-21c14e979588","ios":"levelo://app?vid=dac94ecf-3203-4c89-acc0-21c14e979588"},"vehicle_type_id":"4","last_reported":1735679270,"current_range_meters":14400,"station_id":"ce4bhg92rcd13ifvqf90","pricing_plan_id":"cebpf4jnsgd1na2vs0mg"},{"bike_id":"560a082e-860d-453b-bdd6-7a868105718c","system_id":"levelo_inurba_marseille","lat":43.26811,"lon":5.40279,"is_reserved":false,"is_disabled":false,"rental_uris":{"android":"levelo://app?vid=560a082e-860d-453b-bdd6-7a868105718c","ios":"levelo://app?vid=560a082e-860d-453b-bdd6-7a868105718c"},"vehicle_type_id":"4","last_reported":1735679270,"current_range_meters":38400,"station_id":"ce501612rcd8frsf0b60","pricing_plan_id":"cebpf4jnsgd1na2vs0mg"},{"bike_id":"9c42c59a-a990-48ee-91ac-32ebebcaabf5","system_id":"levelo_inurba_marseille","lat":43.27567,"lon":5.38388,"is_reserved":false,"is_disabled":false,"rental_uris":{"android":"levelo://app?vid=9c42c59a-a990-48ee-91ac-32ebebcaabf5","ios":"levelo://app?vid=9c42c59a-a990-48ee-91ac-32ebebcaabf5"},"vehicle_type_id":"4","last_reported":1735679270,"current_range_meters":38800,"station_id":"ce4bhh92rcd13ifvqfi0","pricing_plan_id":"cebpf4jnsgd1na2vs0mg"},{"bike_id":"1793c5bc-f3cc-4c5b-bc53-bbaf531c71e9","system_id":"levelo_inurba_marseille","lat":43.30408,"lon":5.41278,"is_reserved":false,"is_disabled":false,"rental_uris":{"android":"levelo://app?vid=1793c5bc-f3cc-4c5b-bc53-bbaf531c71e9","ios":"levelo://app?vid=1793c5bc-f3cc-4c5b-bc53-bbaf531c71e9"},"vehicle_type_id":"4","last_reported":1735679270,"current_range_meters":33600,"station_id":"ce4bhop2rcd13ifvqh8g","pricing_plan_id":"cebpf4jnsgd1na2vs0mg"},{"bike_id":"986101b0-c9da-4451-ab90-3352a9bde81f","system_id":"levelo_inurba_marseille","lat":43.30249,"lon":5.40073,"is_reserved":false,"is_disabled":false,"rental_uris":{"android":"levelo://app?vid=986101b0-c9da-4451-ab90-3352a9bde81f","ios":"levelo://app?vid=986101b0-c9da-4451-ab90-3352a9bde81f"},"vehicle_type_id":"4","last_reported":1735679270,"current_range_meters":38400,"station_id":"ce4bgvh2rcd13ifvqcs0","pricing_plan_id":"cebpf4jnsgd1na2vs0mg"},{"bike_id":"b08b44c9-4f43-459d-a0dd-d0fc0b2388a9","system_id":"levelo_inurba_marseille","lat":43.29604,"lon":5.37703,"is_reserved":false,"is_disabled":false,"rental_uris":{"android":"levelo://app?vid=b08b44c9-4f43-459d-a0dd-d0fc0b2388a9","ios":"levelo://app?vid=b08b44c9-4f43-459d-a0dd-d0fc0b2388a9"},"vehicle_type_id":"4","last_reported":1735679270,"current_range_meters":37600,"station_id":"ce4bgi92rcd13ifvqb90","pricing_plan_id":"cebpf4jnsgd1na2vs0mg"},{"bike_id":"83ada948-f3aa-441d-b98f-18e99d069c7f","system_id":"levelo_inurba_marseille","lat":43.28657,"lon":5.36366,"is_reserved":false,"is_disabled":true,"rental_uris":{"android":"levelo://app?vid=83ada948-f3aa-441d-b98f-18e99d069c7f","ios":"levelo://app?vid=83ada948-f3aa-441d-b98f-18e99d069c7f"},"vehicle_type_id":"4","last_reported":1735679270,"current_range_meters":0,"station_id":"ce4bhah2rcd13ifvqej0","pricing_plan_id":"cebpf4jnsgd1na2vs0mg"},{"bike_id":"5766a92a-fad0-4ceb-b35f-98059c3b3f2a","system_id":"levelo_inurba_marseille","lat":43.28611,"lon":5.35101,"is_reserved":false,"is_disabled":false,"rental_uris":{"android":"levelo://app?vid=5766a92a-fad0-4ceb-b35f-98059c3b3f2a","ios":"levelo://app?vid=5766a92a-fad0-4ceb-b35f-98059c3b3f2a"},"vehicle_type_id":"4","last_reported":1735679270,"current_range_meters":33200,"station_id":"ce4bhch2rcd13ifvqeug","pricing_plan_id":"cebpf4jnsgd1na2vs0mg"},{"bike_id":"702f7c30-0c73-4fba-ae60-6ca693302383","system_id":"levelo_inurba_marseille","lat":43.3013,"lon":5.38771,"is_reserved":false,"is_disabled":false,"rental_uris":{"android":"levelo://app?vid=702f7c30-0c73-4fba-ae60-6ca693302383","ios":"levelo://app?vid=702f7c30-0c73-4fba-ae60-6ca693302383"},"vehicle_type_id":"4","last_reported":1735679270,"current_range_meters":38000,"station_id":"ce4bghh2rcd13ifvqb60","pricing_plan_id":"cebpf4jnsgd1na2vs0mg"},{"bike_id":"ab3ab58e-c369-4e79-a68c-8f0ded6372bd","system_id":"levelo_inurba_marseille","lat":43.29795,"lon":5.38107,"is_reserved":false,"is_disabled":false,"rental_uris":{"android":"levelo://app?vid=ab3ab58e-c369-4e79-a68c-8f0ded6372bd","ios":"levelo://app?vid=ab3ab58e-c369-4e79-a68c-8f0ded6372bd"},"vehicle_type_id":"4","last_reported":1735679270,"current_range_meters":39200,"station_id":"ce4bgip2rcd13ifvqbb0","pricing_plan_id":"cebpf4jnsgd1na2vs0mg"},{"bike_id":"19f551bb-72c5-4bee-b6fd-554deb7b9c20","system_id":"levelo_inurba_marseille","lat":43.28714,"lon":5.37943,"is_reserved":false,"is_disabled":false,"rental_uris":{"android":"levelo://app?vid=19f551bb-72c5-4bee-b6fd-554deb7b9c20","ios":"levelo://app?vid=19f551bb-72c5-4bee-b6fd-554deb7b9c20"},"vehicle_type_id":"4","last_reported":1735679270,"current_range_meters":16400,"station_id":"ce4bh9p2rcd13ifvqec0","pricing_plan_id":"cebpf4jnsgd1na2vs0mg"},{"bike_id":"8e472b53-510b-48b8-8c44-91a626fd69ce","system_id":"levelo_inurba_marseille","lat":43.28661,"lon":5.36347,"is_reserved":false,"is_disabled":false,"rental_uris":{"android":"levelo://app?vid=8e472b53-510b-48b8-8c44-91a626fd69ce","ios":"levelo://app?vid=8e472b53-510b-48b8-8c44-91a626fd69ce"},"vehicle_type_id":"4","last_reported":1735679270,"current_range_meters":35600,"station_id":"ce4bhah2rcd13ifvqej0","pricing_plan_id":"cebpf4jnsgd1na2vs0mg"},{"bike_id":"0d02c513-ca2e-4e40-9108-e87868ca0473","system_id":"levelo_inurba_marseille","lat":43.28164,"lon":5.4262,"is_reserved":false,"is_disabled":false,"rental_uris":{"android":"levelo://app?vid=0d02c513-ca2e-4e40-9108-e87868ca0473","ios":"levelo://app?vid=0d02c513-ca2e-4e40-9108-e87868ca0473"},"vehicle_type_id":"4","last_reported":1735679270,"current_range_meters":26800,"station_id":"ce4bhnh2rcd13ifvqgug","pricing_plan_id":"cebpf4jnsgd1na2vs0mg"},{"bike_id":"c14d1989-a72f-4241-a582-39661d0bcfcf","system_id":"levelo_inurba_marseille","lat":43.23193,"lon":5.35541,"is_reserved":false,"is_disabled":false,"rental_uris":{"android":"levelo://app?vid=c14d1989-a72f-4241-a582-39661d0bcfcf","ios":"levelo://app?vid=c14d1989-a72f-4241-a582-39661d0bcfcf"},"vehicle_type_id":"4","last_reported":1735679270,"current_range_meters":38800,"station_id":"ce4bhu92rcd13ifvqi70","pricing_plan_id":"cebpf4jnsgd1na2vs0mg"},{"bike_id":"4ad8fb0c-9d51-474b-b663-201965528dce","system_id":"levelo_inurba_marseille","lat":43.27053,"lon":5.40252,"is_reserved":false,"is_disabled":false,"rental_uris":{"android":"levelo://app?vid=4ad8fb0c-9d51-474b-b663-201965528dce","ios":"levelo://app?vid=4ad8fb0c-9d51-474b-b663-201965528dce"},"vehicle_type_id":"4","last_reported":1735679270,"current_range_meters":37600,"station_id":"ce4bhk92rcd13ifvqgc0","pricing_plan_id":"cebpf4jnsgd1na2vs0mg"},{"bike_id":"a74c2d12-b57a-4ffa-b46f-df1bdb7d8918","system_id":"levelo_inurba_marseille","lat":43.230595,"lon":5.354865,"is_reserved":false,"is_disabled":false,"rental_uris":{"android":"levelo://app?vid=a74c2d12-b57a-4ffa-b46f-df1bdb7d8918","ios":"levelo://app?vid=a74c2d12-b57a-4ffa-b46f-df1bdb7d8918"},"vehicle_type_id":"4","last_reported":1735679270,"current_range_meters":38800,"station_id":"cpo3342slgdg3j2ifvpg","pricing_plan_id":"cebpf4jnsgd1na2vs0mg"},