{"last_updated":1728547956,"ttl":60,"version":"2.2","data":{"bikes":[{"bike_id":"3dcceb53-b78f-4c4a-bc48-6c6815178f56","system_id":"levelo_inurba_marseille","lat":43.28433,"lon":5.38572,"is_reserved":false,"is_disabled":false,"rental_uris":{"android":"levelo://app?vid=3dcceb53-b78f-4c4a-bc48-6c6815178f56","ios":"levelo://app?vid=3dcceb53-b78f-4c4a-bc48-6c6815178f56"},"vehicle_type_id":"4","last_reported":1728547956,"current_range_meters":16400,"station_id":"","pricing_plan_id":"cebpf4jnsgd1na2vs0mg"},{"bike_id":"ddb9679b-c37e-4bea-beb9-d80ba93eccb3","system_id":"levelo_inurba_marseille","lat":43.337444,"lon":5.374475,"is_reserved":false,"is_disabled":false,"rental_uris":{"android":"levelo://app?vid=ddb9679b-c37e-4bea-beb9-d80ba93eccb3","ios":"levelo://app?vid=ddb9679b-c37e-4bea-beb9-d80ba93eccb3"},"vehicle_type_id":"4","last_reported":1728547956,"current_range_meters":11200,"station_id":"ce4bgrh2rcd13ifvqc8g","pricing_plan_id":"cebpf4jnsgd1na2vs0mg"},{"bike_id":"a844b13d-b510-4a63-99eb-1b32722974a6","system_id":"levelo_inurba_marseille","lat":43.28617,"lon":5.35096,"is_reserved":false,"is_disabled":false,"rental_uris":{"android":"levelo://app?vid=a844b13d-b510-4a63-99eb-1b32722974a6","ios":"levelo://app?vid=a844b13d-b510-4a63-99eb-1b32722974a6"},"vehicle_type_id":"4","last_reported":1728547956,"current_range_meters":9200,"station_id":"ce4bhch2rcd13ifvqeug","pricing_plan_id":"cebpf4jnsgd1na2vs0mg"},{"bike_id":"a98fea86-7b76-4a27-a087-50acf14b5688","system_id":"levelo_inurba_marseille","lat":43.25002,"lon":5.38925,"is_reserved":false,"is_disabled":false,"rental_uris":{"android":"levelo://app?vid=a98fea86-7b76-4a27-a087-50acf14b5688","ios":"levelo://app?vid=a98fea86-7b76-4a27-a087-50acf14b5688"},"vehicle_type_id":"4","last_reported":1728547956,"current_range_meters":36400,"station_id":"ce4bhgp2rcd13ifvqfd0","pricing_plan_id":"cebpf4jnsgd1na2vs0mg"},{"bike_id":"dc654fae-1dc8-48d7-a845-eaad252848f4","system_id":"levelo_inurba_marseille","lat":43.31222,"lon":5.36882,"is_reserved":false,"is_disabled":false,"rental_uris":{"android":"levelo://app?vid=dc654fae-1dc8-48d7-a845-eaad252848f4","ios":"levelo://app?vid=dc654fae-1dc8-48d7-a845-eaad252848f4"},"vehicle_type_id":"4","last_reported":1728547956,"current_range_meters":18800,"station_id":"ce4bgl92rcd13ifvqbq0","pricing_plan_id":"cebpf4jnsgd1na2vs0mg"},{"bike_id":"69e77010-a535-4398-8159-24f48f4c7d15","system_id":"levelo_inurba_marseille","lat":43.23062,"lon":5.35501,"is_reserved":false,"is_disabled":false,"rental_uris":{"android":"levelo://app?vid=69e77010-a535-4398-8159-24f48f4c7d15","ios":"levelo://app?vid=69e77010-a535-4398-8159-24f48f4c7d15"},"vehicle_type_id":"4","last_reported":1728547956,"current_range_meters":4400,"station_id":"cpo3342slgdg3j2ifvpg","pricing_plan_id":"cebpf4jnsgd1na2vs0mg"},{"bike_id":"be2526ad-2142-4c6e-a006-66ddcec85d70","system_id":"levelo_inurba_marseille","lat":43.32052,"lon":5.41544,"is_reserved":false,"is_disabled":false,"rental_uris":{"android":"levelo://app?vid=be2526ad-2142-4c6e-a006-66ddcec85d70","ios":"levelo://app?vid=be2526ad-2142-4c6e-a006-66ddcec85d70"},"vehicle_type_id":"4","last_reported":1728547956,"current_range_meters":20800,"station_id":"","pricing_plan_id":"cebpf4jnsgd1na2vs0mg"},{"bike_id":"fef204cd-3f7b-4866-b6e5-697771a3d001","system_id":"levelo_inurba_marseille","lat":43.30909,"lon":5.36857,"is_reserved":false,"is_disabled":false,"rental_uris":{"android":"levelo://app?vid=fef204cd-3f7b-4866-b6e5-697771a3d001","ios":"levelo://app?vid=fef204cd-3f7b-4866-b6e5-697771a3d001"},"vehicle_type_id":"4","last_reported":1728547956,"current_range_meters":40000,"station_id":"ce4bgn92rcd13ifvqbvg","pricing_plan_id":"cebpf4jnsgd1na2vs0mg"},{"bike_id":"c450f177-f1a9-4222-a407-0cd6acaa3389","system_id":"levelo_inurba_marseille","lat":43.2621,"lon":5.37447,"is_reserved":false,"is_disabled":false,"rental_uris":{"android":"levelo://app?vid=c450f177-f1a9-4222-a407-0cd6acaa3389","ios":"levelo://app?vid=c450f177-f1a9-4222-a407-0cd6acaa3389"},"vehicle_type_id":"4","last_reported":1728547956,"current_range_meters":19600,"station_id":"ce4bhgp2rcd13ifvqfc0","pricing_plan_id":"cebpf4jnsgd1na2vs0mg"},{"bike_id":"16346ba1-5c79-4a0d-b6f8-99d1753b2f75","system_id":"levelo_inurba_marseille","lat":43.32481,"lon":5.36565,"is_reserved":false,"is_disabled":false,"rental_uris":{"android":"levelo://app?vid=16346ba1-5c79-4a0d-b6f8-99d1753b2f75","ios":"levelo://app?vid=16346ba1-5c79-4a0d-b6f8-99d1753b2f75"},"vehicle_type_id":"4","last_reported":1728547956,"current_range_meters":18800,"station_id":"ce4bhs12rcd13ifvqhvg","pricing_plan_id":"cebpf4jnsgd1na2vs0mg"},{"bike_id":"66116f45-cd87-486e-8467-30cd9c2fde1a","system_id":"levelo_inurba_marseille","lat":43.30534,"lon":5.36719,"is_reserved":false,"is_disabled":false,"rental_uris":{"android":"levelo://app?vid=66116f45-cd87-486e-8467-30cd9c2fde1a","ios":"levelo://app?vid=66116f45-cd87-486e-8467-30cd9c2fde1a"},"vehicle_type_id":"4","last_reported":1728547956,"current_range_meters":24000,"station_id":"ce4bgrp2rcd13ifvqc9g","pricing_plan_id":"cebpf4jnsgd1na2vs0mg"},{"bike_id":"cc48e78b-0de2-48fc-bd8c-835ef145dac9","system_id":"levelo_inurba_marseille","lat":43.28151,"lon":5.42641,"is_reserved":false,"is_disabled":false,"rental_uris":{"android":"levelo://app?vid=cc48e78b-0de2-48fc-bd8c-835ef145dac9","ios":"levelo://app?vid=cc48e78b-0de2-48fc-bd8c-835ef145dac9"},"vehicle_type_id":"4","last_reported":1728547956,"current_range_meters":27200,"station_id":"ce4bhnh2rcd13ifvqgug","pricing_plan_id":"cebpf4jnsgd1na2vs0mg"},{"bike_id":"06b8759c-e539-4ce5-864e-0d4a5da679cd","system_id":"levelo_inurba_marseille","lat":43.298798,"lon":5.363166,"is_reserved":false,"is_disabled":false,"rental_uris":{"android":"levelo://app?vid=06b8759c-e539-4ce5-864e-0d4a5da679cd","ios":"levelo://app?vid=06b8759c-e539-4ce5-864e-0d4a5da679cd"},"vehicle_type_id":"4","last_reported":1728547956,"current_range_meters":16400,"station_id":"ce4bgpp2rcd13ifvqc3g","pricing_plan_id":"cebpf4jnsgd1na2vs0mg"},{"bike_id":"b6238d41-ee15-425a-90f4-5765634a5d7f","system_id":"levelo_inurba_marseille","lat":43.23155,"lon":5.43722,"is_reserved":false,"is_disabled":false,"rental_uris":{"android":"levelo://app?vid=b6238d41-ee15-425a-90f4-5765634a5d7f","ios":"levelo://app?vid=b6238d41-ee15-425a-90f4-5765634a5d7f"},"vehicle_type_id":"4","last_reported":1728547956,"current_range_meters":33200,"station_id":"ce4bhmp2rcd13ifvqgog","pricing_plan_id":"cebpf4jnsgd1na2vs0mg"},{"bike_id":"296d1880-4a03-4d23-a9cc-51df04a4af16","system_id":"levelo_inurba_marseille","lat":43.337444,"lon":5.374475,"is_reserved":false,"is_disabled":false,"rental_uris":{"android":"levelo://app?vid=296d1880-4a03-4d23-a9cc-51df04a4af16","ios":"levelo://app?vid=296d1880-4a03-4d23-a9cc-51df04a4af16"},"vehicle_type_id":"4","last_reported":1728547956,"current_range_meters":36800,"station_id":"","pricing_plan_id":"cebpf4jnsgd1na2vs0mg"},{"bike_id":"729d92a6-b5d4-421f-82bd-c3e31fbc602e","system_id":"levelo_inurba_marseille","lat":43.23154,"lon":5.43717,"is_reserved":false,"is_disabled":false,"rental_uris":{"android":"levelo://app?vid=729d92a6-b5d4-421f-82bd-c3e31fbc602e","ios":"levelo://app?vid=729d92a6-b5d4-421f-82bd-c3e31fbc602e"},"vehicle_type_id":"4","last_reported":1728547956,"current_range_meters":39200,"station_id":"ce4bhmp2rcd13ifvqgog","pricing_plan_id":"cebpf4jnsgd1na2vs0mg"},{"bike_id":"6cb2fd54-0aca-4f7d-aadb-bc057dc4fb59","system_id":"levelo_inurba_marseille","lat":43.23063,"lon":5.35491,"is_reserved":false,"is_disabled":false,"rental_uris":{"android":"levelo://app?vid=6cb2fd54-0aca-4f7d-aadb-bc057dc4fb59","ios":"levelo://app?vid=6cb2fd54-0aca-4f7d-aadb-bc057dc4fb59"},"vehicle_type_id":"4","last_reported":1728547956,"current_range_meters":34800,"station_id":"cpo3342slgdg3j2ifvpg","pricing_plan_id":"cebpf4jnsgd1na2vs0mg"},{"bike_id":"1653f649-3f7e-4444-966a-6234fdc3452e","system_id":"levelo_inurba_marseille","lat":43.26567,"lon":5.39037,"is_reserved":false,"is_disabled":false,"rental_uris":{"android":"levelo://app?vid=1653f649-3f7e-4444-966a-6234fdc3452e","ios":"levelo://app?vid=1653f649-3f7e-4444-966a-6234fdc3452e"},"vehicle_type_id":"4","last_reported":1728547956,"current_range_meters":35200,"station_id":"ce4bhe12rcd13ifvqf30","pricing_plan_id":"cebpf4jnsgd1na2vs0mg"},{"bike_id":"b7965caf-e4c5-4273-9940-2e0802cd8590","system_id":"levelo_inurba_marseille","lat":43.31891,"lon":5.40735,"is_reserved":false,"is_disabled":false,"rental_uris":{"android":"levelo://app?vid=b7965caf-e4c5-4273-9940-2e0802cd8590","ios":"levelo://app?vid=b7965caf-e4c5-4273-9940-2e0802cd8590"},"vehicle_type_id":"4","last_reported":1728547956,"current_range_meters":38400,"station_id":"ce4bhq12rcd13ifvqhig","pricing_plan_id":"cebpf4jnsgd1na2vs0mg"},{"bike_id":"886aa239-0ce6-4cc7-a1be-709bc947b872","system_id":"levelo_inurba_marseille","lat":43.28151,"lon":5.42652,"is_reserved":false,"is_disabled":false,"rental_uris":{"android":"levelo://app?vid=886aa239-0ce6-4cc7-a1be-709bc947b872","ios":"levelo://app?vid=886aa239-0ce6-4cc7-a1be-709bc947b872"},"vehicle_type_id":"4","last_reported":1728547956,"current_range_meters":8000,"station_id":"ce4bhnh2rcd13ifvqgug","pricing_plan_id":"cebpf4jnsgd1na2vs0mg"},{"bike_id":"6ac01319-5f01-43b5-b52d-79391e18b456","system_id":"levelo_inurba_marseille","lat":43.24184,"lon":5.39718,"is_reserved":false,"is_disabled":false,"rental_uris":{"android":"levelo://app?vid=6ac01319-5f01-43b5-b52d-79391e18b456","ios":"levelo://app?vid=6ac01319-5f01-43b5-b52d-79391e18b456"},"vehicle_type_id":"4","last_reported":1728547956,"current_range_meters":36800,"station_id":"ce4bhn12rcd13ifvqgpg","pricing_plan_id":"cebpf4jnsgd1na2vs0mg"},{"bike_id":"0911ba8e-9dac-421e-9794-d066b7ae5928","system_id":"levelo_inurba_marseille","lat":43.33606,"lon":5.41032,"is_reserved":false,"is_disabled":false,"rental_uris":{"android":"levelo://app?vid=0911ba8e-9dac-421e-9794-d066b7ae5928","ios":"levelo://app?vid=0911ba8e-9dac-421e-9794-d066b7ae5928"},"vehicle_type_id":"4","last_reported":1728547956,"current_range_meters":34000,"station_id":"ce4bh0h2rcd13ifvqd40","pricing_plan_id":"cebpf4jnsgd1na2vs0mg"},{"bike_id":"97797349-fd2a-4ce4-b723-14f3d465d041","system_id":"levelo_inurba_marseille","lat":43.27492,"lon":5.42457,"is_reserved":false,"is_disabled":false,"rental_uris":{"android":"levelo://app?vid=97797349-fd2a-4ce4-b723-14f3d465d041","ios":"levelo://app?vid=97797349-fd2a-4ce4-b723-14f3d465d041"},"vehicle_type_id":"4","last_reported":1728547956,"current_range_meters":38800,"station_id":"ce4bhn92rcd13ifvqgrg","pricing_plan_id":"cebpf4jnsgd1na2vs0mg"},{"bike_id":"39d4f329-5b71-4253-bb84-effb88455907","system_id":"levelo_inurba_marseille","lat":43.31755,"lon":5.39029,"is_reserved":false,"is_disabled":false,"rental_uris":{"android":"levelo://app?vid=39d4f329-5b71-4253-bb84-effb88455907","ios":"levelo://app?vid=39d4f329-5b71-4253-bb84-effb88455907"},"vehicle_type_id":"4","last_reported":1728547956,"current_range_meters":34000,"station_id":"ce4bhqp2rcd13ifvqhng","pricing_plan_id":"cebpf4jnsgd1na2vs0mg"},{"bike_id":"b1cbf5cb-b13d-4c96-b713-c3c3911b1d3a","system_id":"levelo_inurba_marseille","lat":43.3055,"lon":5.36701,"is_reserved":false,"is_disabled":false,"rental_uris":{"android":"levelo://app?vid=b1cbf5cb-b13d-4c96-b713-c3c3911b1d3a","ios":"levelo://app?vid=b1cbf5cb-b13d-4c96-b713-c3c3911b1d3a"},"vehicle_type_id":"4","last_reported":1728547956,"current_range_meters":39200,"station_id":"ce4bgrp2rcd13ifvqc9g","pricing_plan_id":"cebpf4jnsgd1na2vs0mg"},{"bike_id":"96cb08de-30b2-404b-a5df-2565e238372c","system_id":"levelo_inurba_marseille","lat":43.24082,"lon":5.37749,"is_reserved":false,"is_disabled":false,"rental_uris":{"android":"levelo://app?vid=96cb08de-30b2-404b-a5df-2565e238372c","ios":"levelo://app?vid=96cb08de-30b2-404b-a5df-2565e238372c"},"vehicle_type_id":"4","last_reported":1728547956,"current_range_meters":30800,"station_id":"ce4bhnp2rcd13ifvqgvg","pricing_plan_id":"cebpf4jnsgd1na2vs0mg"},{"bike_id":"d7f88f00-8de3-424a-a7fa-13a3c3ab06a7","system_id":"levelo_inurba_marseille","lat":43.26686,"lon":5.38276,"is_reserved":false,"is_disabled":false,"rental_uris":{"android":"levelo://app?vid=d7f88f00-8de3-424a-a7fa-13a3c3ab06a7","ios":"levelo://app?vid=d7f88f00-8de3-424a-a7fa-13a3c3ab06a7"},"vehicle_type_id":"4","last_reported":1728547956,"current_range_meters":30400,"station_id":"ce4bhg92rcd13ifvqf90","pricing_plan_id":"cebpf4jnsgd1na2vs0mg"},{"bike_id":"a4cfb676-c3d4-47c3-81cb-4244f3fedb71","system_id":"levelo_inurba_marseille","lat":43.30281,"lon":5.37717,"is_reserved":false,"is_disabled":false,"rental_uris":{"android":"levelo://app?vid=a4cfb676-c3d4-47c3-81cb-4244f3fedb71","ios":"levelo://app?vid=a4cfb676-c3d4-47c3-81cb-4244f3fedb71"},"vehicle_type_id":"4","last_reported":1728547956,"current_range_meters":31200,"station_id":"ce4bguh2rcd13ifvqcj0","pricing_plan_id":"cebpf4jnsgd1na2vs0mg"},{"bike_id":"fd628bd4-487e-4873-b887-c5430ae45478","system_id":"levelo_inurba_marseille","lat":43.30536,"lon":5.36558,"is_reserved":false,"is_disabled":false,"rental_uris":{"android":"levelo://app?vid=fd628bd4-487e-4873-b887-c5430ae45478","ios":"levelo://app?vid=fd628bd4-487e-4873-b887-c5430ae45478"},"vehicle_type_id":"4","last_reported":1728547956,"current_range_meters":6000,"station_id":"ce4bgs12rcd13ifvqcag","pricing_plan_id":"cebpf4jnsgd1na2vs0mg"},{"bike_id":"55a225cb-133c-4005-acec-6b888853cdd8","system_id":"levelo_inurba_marseille","lat":43.31229,"lon":5.36881,"is_reserved":false,"is_disabled":false,"rental_uris":{"android":"levelo://app?vid=55a225cb-133c-4005-acec-6b888853cdd8","ios":"levelo://app?vid=55a225cb-133c-4005-acec-6b888853cdd8"},"vehicle_type_id":"4","last_reported":1728547956,"current_range_meters":28000,"station_id":"ce4bgl92rcd13ifvqbq0","pricing_plan_id":"cebpf4jnsgd1na2vs0mg"},{"bike_id":"0383e821-f7aa-4bba-a5f5-642d7a1d6b38","system_id":"levelo_inurba_marseille","lat":43.2749,"lon":5.4247,"is_reserved":false,"is_disabled":false,"rental_uris":{"android":"levelo://app?vid=0383e821-f7aa-4bba-a5f5-642d7a1d6b38","ios":"levelo://app?vid=0383e821-f7aa-4bba-a5f5-642d7a1d6b38"},"vehicle_type_id":"4","last_reported":1728547956,"current_range_meters":29600,"station_id":"ce4bhn92rcd13ifvqgrg","pricing_plan_id":"cebpf4jnsgd1na2vs0mg"},{"bike_id":"e872fc30-3c57-4a83-b46e-c9748d4c279a","system_id":"levelo_inurba_marseille","lat":43.33724,"lon":5.39195,"is_reserved":false,"is_disabled":false,"rental_uris":{"android":"levelo://app?vid=e872fc30-3c57-4a83-b46e-c9748d4c279a","ios":"levelo://app?vid=e872fc30-3c57-4a83-b46e-c9748d4c279a"},"vehicle_type_id":"4","last_reported":1728547956,"current_range_meters":27200,"station_id":"ce4bhr92rcd13ifvqhsg","pricing_plan_id":"cebpf4jnsgd1na2vs0mg"},{"bike_id":"b8f48256-1e92-46c4-b43e-9b7c46245edd","system_id":"levelo_inurba_marseille","lat":43.26208,"lon":5.37447,"is_reserved":false,"is_disabled":false,"rental_uris":{"android":"levelo://app?vid=b8f48256-1e92-46c4-b43e-9b7c46245edd","ios":"levelo://app?vid=b8f48256-1e92-46c4-b43e-9b7c46245edd"},"vehicle_type_id":"4","last_reported":1728547956,"current_range_meters":26800,"station_id":"ce4bhgp2rcd13ifvqfc0","pricing_plan_id":"cebpf4jnsgd1na2vs0mg"},{"bike_id":"af28d066-a466-4ed7-bf62-08efa15ec1ce","system_id":"levelo_inurba_marseille","lat":43.24183,"lon":5.3972,"is_reserved":false,"is_disabled":false,"rental_uris":{"android":"levelo://app?vid=af28d066-a466-4ed7-bf62-08efa15ec1ce","ios":"levelo://app?vid=af28d066-a466-4ed7-bf62-08efa15ec1ce"},"vehicle_type_id":"4","last_reported":1728547956,"current_range_meters":36800,"station_id":"ce4bhn12rcd13ifvqgpg","pricing_plan_id":"cebpf4jnsgd1na2vs0mg"},{"bike_id":"de84acda-6809-47d1-a7b3-9a48fd0b44e7","system_id":"levelo_inurba_marseille","lat":43.2594,"lon":5.40909,"is_reserved":false,"is_disabled":false,"rental_uris":{"android":"levelo://app?vid=de84acda-6809-47d1-a7b3-9a48fd0b44e7","ios":"levelo://app?vid=de84acda-6809-47d1-a7b3-9a48fd0b44e7"},"vehicle_type_id":"4","last_reported":1728547956,"current_range_meters":21600,"station_id":"ce4bhm92rcd13ifvqglg","pricing_plan_id":"cebpf4jnsgd1na2vs0mg"},{"bike_id":"4f4355eb-4829-43f7-ac55-bd8645cfbfb4","system_id":"levelo_inurba_marseille","lat":43.25822,"lon":5.39437,"is_reserved":false,"is_disabled":false,"rental_uris":{"android":"levelo://app?vid=4f4355eb-4829-43f7-ac55-bd8645cfbfb4","ios":"levelo://app?vid=4f4355eb-4829-43f7-ac55-bd8645cfbfb4"},"vehicle_type_id":"4","last_reported":1728547956,"current_range_meters":24800,"station_id":"ce4bhip2rcd13ifvqft0","pricing_plan_id":"cebpf4jnsgd1na2vs0mg"},{"bike_id":"6541639e-7721-4ca2-836b-a40c293e2191","system_id":"levelo_inurba_marseille","lat":43.31362,"lon":5.36691,"is_reserved":false,"is_disabled":false,"rental_uris":{"android":"levelo://app?vid=6541639e-7721-4ca2-836b-a40c293e2191","ios":"levelo://app?vid=6541639e-7721-4ca2-836b-a40c293e2191"},"vehicle_type_id":"4","last_reported":1728547956,"current_range_meters":35600,"station_id":"ce4bgr92rcd13ifvqc6g","pricing_plan_id":"cebpf4jnsgd1na2vs0mg"},{"bike_id":"7c830a7a-88a3-47c3-beae-d7986b2e3594","system_id":"levelo_inurba_marseille","lat":43.337576,"lon":5.374671,"is_reserved":false,"is_disabled":false,"rental_uris":{"android":"levelo://app?vid=7c830a7a-88a3-47c3-beae-d7986b2e3594","ios":"levelo://app?vid=7c830a7a-88a3-47c3-beae-d7986b2e3594"},"vehicle_type_id":"4","last_reported":1728547956,"current_range_meters":9600,"station_id":"ce4rr2p2rcd13i802rgg","pricing_plan_id":"cebpf4jnsgd1na2vs0mg"},{"bike_id":"1724a986-206e-44c4-acc6-99c3f365633c","system_id":"levelo_inurba_marseille","lat":43.23191,"lon":5.3555,"is_reserved":false,"is_disabled":false,"rental_uris":{"android":"levelo://app?vid=1724a986-206e-44c4-acc6-99c3f365633c","ios":"levelo://app?vid=1724a986-206e-44c4-acc6-99c3f365633c"},"vehicle_type_id":"4","last_reported":1728547956,"current_range_meters":19600,"station_id":"ce4bhu92rcd13ifvqi70","pricing_plan_id":"cebpf4jnsgd1na2vs0mg"},{"bike_id":"0a650b32-7ff6-4bbb-941b-3fc2e740d408","system_id":"levelo_inurba_marseille","lat":43.24175,"lon":5.3974,"is_reserved":false,"is_disabled":false,"rental_uris":{"android":"levelo://app?vid=0a650b32-7ff6-4bbb-941b-3fc2e740d408","ios":"levelo://app?vid=0a650b32-7ff6-4bbb-941b-3fc2e740d408"},"vehicle_type_id":"4","last_reported":1728547956,"current_range_meters":38400,"station_id":"ce4bhn12rcd13ifvqgpg","pricing_plan_id":"cebpf4jnsgd1na2vs0mg"},{"bike_id":"c9f14e7e-cd41-4306-8cc0-0536ea78d422","system_id":"levelo_inurba_marseille","lat":43.33761,"lon":5.37451,"is_reserved":false,"is_disabled":false,"rental_uris":{"android":"levelo://app?vid=c9f14e7e-cd41-4306-8cc0-0536ea78d422","ios":"levelo://app?vid=c9f14e7e-cd41-4306-8cc0-0536ea78d422"},"vehicle_type_id":"4","last_reported":1728547956,"current_range_meters":36800,"station_id":"","pricing_plan_id":"cebpf4jnsgd1na2vs0mg"},{"bike_id":"9fb561af-1165-43b4-ba74-81f5923c4f1c","system_id":"levelo_inurba_marseille","lat":43.33612,"lon":5.41039,"is_reserved":false,"is_disabled":false,"rental_uris":{"android":"levelo://app?vid=9fb561af-1165-43b4-ba74-81f5923c4f1c","ios":"levelo://app?vid=9fb561af-1165-43b4-ba74-81f5923c4f1c"},"vehicle_type_id":"4","last_reported":1728547956,"current_range_meters":38800,"station_id":"ce4bhqh2rcd13ifvqhmg","pricing_plan_id":"cebpf4jnsgd1na2vs0mg"},{"bike_id":"152d4388-19d7-4311-a7d2-78592e307377","system_id":"levelo_inurba_marseille","lat":43.2971,"lon":5.37694,"is_reserved":false,"is_disabled":false,"rental_uris":{"android":"levelo://app?vid=152d4388-19d7-4311-a7d2-78592e307377","ios":"levelo://app?vid=152d4388-19d7-4311-a7d2-78592e307377"},"vehicle_type_id":"4","last_reported":1728547956,"current_range_meters":19600,"station_id":"ce4bgkh2rcd13ifvqbl0","pricing_plan_id":"cebpf4jnsgd1na2vs0mg"},{"bike_id":"2901e185-86be-4533-8c67-bc9c3fe67c09","system_id":"levelo_inurba_marseille","lat":43.32534,"lon":5.41452,"is_reserved":false,"is_disabled":false,"rental_uris":{"android":"levelo://app?vid=2901e185-86be-4533-8c67-bc9c3fe67c09","ios":"levelo://app?vid=2901e185-86be-4533-8c67-bc9c3fe67c09"},"vehicle_type_id":"4","last_reported":1728547956,"current_range_meters":35200,"station_id":"ce4bhq12rcd13ifvqhhg","pricing_plan_id":"cebpf4jnsgd1na2vs0mg"},{"bike_id":"39c7c241-0911-4936-ab56-2bc291c711ab","system_id":"levelo_inurba_marseille","lat":43.24811,"lon":5.3746,"is_reserved":false,"is_disabled":false,"rental_uris":{"android":"levelo://app?vid=39c7c241-0911-4936-ab56-2bc291c711ab","ios":"levelo://app?vid=39c7c241-0911-4936-ab56-2bc291c711ab"},"vehicle_type_id":"4","last_reported":1728547956,"current_range_meters":24000,"station_id":"ce4bhgh2rcd13ifvqfb0","pricing_plan_id":"cebpf4jnsgd1na2vs0mg"},{"bike_id":"c23f1031-b0b1-4779-b9ba-475988dd7d06","system_id":"levelo_inurba_marseille","lat":43.29971,"lon":5.37182,"is_reserved":false,"is_disabled":false,"rental_uris":{"android":"levelo://app?vid=c23f1031-b0b1-4779-b9ba-475988dd7d06","ios":"levelo://app?vid=c23f1031-b0b1-4779-b9ba-475988dd7d06"},"vehicle_type_id":"4","last_reported":1728547956,"current_range_meters":33200,"station_id":"ce4bgr92rcd13ifvqc7g","pricing_plan_id":"cebpf4jnsgd1na2vs0mg"},{"bike_id":"188f185e-249c-4dfe-b40a-c9b565496c46","system_id":"levelo_inurba_marseille","lat":43.337444,"lon":5.374475,"is_reserved":false,"is_disabled":false,"rental_uris":{"android":"levelo://app?vid=188f185e-249c-4dfe-b40a-c9b565496c46","ios":"levelo://app?vid=188f185e-249c-4dfe-b40a-c9b565496c46"},"vehicle_type_id":"4","last_reported":1728547956,"current_range_meters":38800,"station_id":"","pricing_plan_id":"cebpf4jnsgd1na2vs0mg"},{"bike_id":"eca17225-e598-413b-a2cc-a98541b71498","system_id":"levelo_inurba_marseille","lat":43.31206,"lon":5.36832,"is_reserved":false,"is_disabled":false,"rental_uris":{"android":"levelo://app?vid=eca17225-e598-413b-a2cc-a98541b71498","ios":"levelo://app?vid=eca17225-e598-413b-a2cc-a98541b71498"},"vehicle_type_id":"4","last_reported":1728547956,"current_range_meters":6000,"station_id":"ce4bgl92rcd13ifvqbq0","pricing_plan_id":"cebpf4jnsgd1na2vs0mg"},{"bike_id":"a283cbf4-3a4c-46de-ac3d-4d7c731b36e3","system_id":"levelo_inurba_marseille","lat":43.33607,"lon":5.41031,"is_reserved":false,"is_disabled":false,"rental_uris":{"android":"levelo://app?vid=a283cbf4-3a4c-46de-ac3d-4d7c731b36e3","ios":"levelo://app?vid=a283cbf4-3a4c-46de-ac3d-4d7c731b36e3"},"vehicle_type_id":"4","last_reported":1728547956,"current_range_meters":36000,"station_id":"ce4bhqh2rcd13ifvqhmg","pricing_plan_id":"cebpf4jnsgd1na2vs0mg"},{"bike_id":"47599fab-79da-461f-89fd-43d1d10b8a6d","system_id":"levelo_inurba_marseille","lat":43.23156,"lon":5.4371,"is_reserved":false,"is_disabled":false,"rental_uris":{"android":"levelo://app?vid=47599fab-79da-461f-89fd-43d1d10b8a6d","ios":"levelo://app?vid=47599fab-79da-461f-89fd-43d1d10b8a6d"},"vehicle_type_id":"4","last_reported":1728547956,"current_range_meters":40000,"station_id":"ce4bhmp2rcd13ifvqgog","pricing_plan_id":"cebpf4jnsgd1na2vs0mg"},{"bike_id":"cffce793-1dbe-4d0b-8799-7d818b935ff1","system_id":"levelo_inurba_marseille","lat":43.29583,"lon":5.36737,"is_reserved":false,"is_disabled":false,"rental_uris":{"android":"levelo://app?vid=cffce793-1dbe-4d0b-8799-7d818b935ff1","ios":"levelo://app?vid=cffce793-1dbe-4d0b-8799-7d818b935ff1"},"vehicle_type_id":"4","last_reported":1728547956,"current_range_meters":28000,"station_id":"ce4bgph2rcd13ifvqc2g","pricing_plan_id":"cebpf4jnsgd1na2vs0mg"},{"bike_id":"c2709d8c-182c-4c66-9678-32143d413767","system_id":"levelo_inurba_marseille","lat":43.22936,"lon":5.35378,"is_reserved":false,"is_disabled":false,"rental_uris":{"android":"levelo://app?vid=c2709d8c-182c-4c66-9678-32143d413767","ios":"levelo://app?vid=c2709d8c-182c-4c66-9678-32143d413767"},"vehicle_type_id":"4","last_reported":1728547956,"current_range_meters":37600,"station_id":"cpo3532slgdg3j2ikp40","pricing_plan_id":"cebpf4jnsgd1na2vs0mg"},{"bike_id":"9fb0f884-1315-4212-aa90-4f04308c55fb","system_id":"levelo_inurba_marseille","lat":43.28422,"lon":5.34996,"is_reserved":false,"is_disabled":false,"rental_uris":{"android":"levelo://app?vid=9fb0f884-1315-4212-aa90-4f04308c55fb","ios":"levelo://app?vid=9fb0f884-1315-4212-aa90-4f04308c55fb"},"vehicle_type_id":"4","last_reported":1728547956,"current_range_meters":38800,"station_id":"ce4bhbh2rcd13ifvqepg","pricing_plan_id":"cebpf4jnsgd1na2vs0mg"},{"bike_id":"c909d09a-ba9d-494d-99ae-367ad5ef8d1c","system_id":"levelo_inurba_marseille","lat":43.30549,"lon":5.36721,"is_reserved":false,"is_disabled":false,"rental_uris":{"android":"levelo://app?vid=c909d09a-ba9d-494d-99ae-367ad5ef8d1c","ios":"levelo://app?vid=c909d09a-ba9d-494d-99ae-367ad5ef8d1c"},"vehicle_type_id":"4","last_reported":1728547956,"current_range_meters":30400,"station_id":"ce4bgrp2rcd13ifvqc9g","pricing_plan_id":"cebpf4jnsgd1na2vs0mg"},{"bike_id":"58ac73f1-5f8c-4d04-912b-99ec51dd1adb","system_id":"levelo_inurba_marseille","lat":43.24664,"lon":5.38158,"is_reserved":false,"is_disabled":false,"rental_uris":{"android":"levelo://app?vid=58ac73f1-5f8c-4d04-912b-99ec51dd1adb","ios":"levelo://app?vid=58ac73f1-5f8c-4d04-912b-99ec51dd1adb"},"vehicle_type_id":"4","last_reported":1728547956,"current_range_meters":28000,"station_id":"ce4bhih2rcd13ifvqfr0","pricing_plan_id":"cebpf4jnsgd1na2vs0mg"},{"bike_id":"1dcaef22-2c4c-46cd-a47b-712f6c26cc51","system_id":"levelo_inurba_marseille","lat":43.27491,"lon":5.42468,"is_reserved":false,"is_disabled":false,"rental_uris":{"android":"levelo://app?vid=1dcaef22-2c4c-46cd-a47b-712f6c26cc51","ios":"levelo://app?vid=1dcaef22-2c4c-46cd-a47b-712f6c26cc51"},"vehicle_type_id":"4","last_reported":1728547956,"current_range_meters":38000,"station_id":"ce4bhn92rcd13ifvqgrg","pricing_plan_id":"cebpf4jnsgd1na2vs0mg"},{"bike_id":"7250fad8-1571-4cb2-8196-6f9c41fdf9a3","system_id":"levelo_inurba_marseille","lat":43.30143,"lon":5.37422,"is_reserved":false,"is_disabled":false,"rental_uris":{"android":"levelo://app?vid=7250fad8-1571-4cb2-8196-6f9c41fdf9a3","ios":"levelo://app?vid=7250fad8-1571-4cb2-8196-6f9c41fdf9a3"},"vehicle_type_id":"4","last_reported":1728547956,"current_range_meters":20400,"station_id":"ce4bgs92rcd13ifvqcc0","pricing_plan_id":"cebpf4jnsgd1na2vs0mg"},{"bike_id":"b8f66504-9c7c-4c8a-ace8-385bad15c11b","system_id":"levelo_inurba_marseille","lat":43.30154,"lon":5.38075,"is_reserved":false,"is_disabled":false,"rental_uris":{"android":"levelo://app?vid=b8f66504-9c7c-4c8a-ace8-385bad15c11b","ios":"levelo://app?vid=b8f66504-9c7c-4c8a-ace8-385bad15c11b"},"vehicle_type_id":"4","last_reported":1728547956,"current_range_meters":16800,"station_id":"ce4bgjp2rcd13ifvqbh0","pricing_plan_id":"cebpf4jnsgd1na2vs0mg"},{"bike_id":"c9ad9f7b-ca22-414b-8aca-5d2a9d0f07f0","system_id":"levelo_inurba_marseille","lat":43.25584,"lon":5.38231,"is_reserved":false,"is_disabled":false,"rental_uris":{"android":"levelo://app?vid=c9ad9f7b-ca22-414b-8aca-5d2a9d0f07f0","ios":"levelo://app?vid=c9ad9f7b-ca22-414b-8aca-5d2a9d0f07f0"},"vehicle_type_id":"4","last_reported":1728547956,"current_range_meters":20800,"station_id":"ce4bhih2rcd13ifvqfs0","pricing_plan_id":"cebpf4jnsgd1na2vs0mg"},{"bike_id":"eb4d55cd-07c9-4ffe-b087-a179a9655c4b","system_id":"levelo_inurba_marseille","lat":43.25585,"lon":5.38228,"is_reserved":false,"is_disabled":false,"rental_uris":{"android":"levelo://app?vid=eb4d55cd-07c9-4ffe-b087-a179a9655c4b","ios":"levelo://app?vid=eb4d55cd-07c9-4ffe-b087-a179a9655c4b"},"vehicle_type_id":"4","last_reported":1728547956,"current_range_meters":36800,"station_id":"ce4bhih2rcd13ifvqfs0","pricing_plan_id":"cebpf4jnsgd1na2vs0mg"},{"bike_id":"f4d16d74-9f5d-4324-bee1-48b07e6d7978","system_id":"levelo_inurba_marseille","lat":43.32659,"lon":5.40995,"is_reserved":false,"is_disabled":false,"rental_uris":{"android":"levelo://app?vid=f4d16d74-9f5d-4324-bee1-48b07e6d7978","ios":"levelo://app?vid=f4d16d74-9f5d-4324-bee1-48b07e6d7978"},"vehicle_type_id":"4","last_reported":1728547956,"current_range_meters":36800,"station_id":"ce4bhpp2rcd13ifvqhgg","pricing_plan_id":"cebpf4jnsgd1na2vs0mg"},{"bike_id":"4918291f-19ab-4f46-a135-d61fa7a26c4f","system_id":"levelo_inurba_marseille","lat":43.32476,"lon":5.36572,"is_reserved":false,"is_disabled":false,"rental_uris":{"android":"levelo://app?vid=4918291f-19ab-4f46-a135-d61fa7a26c4f","ios":"levelo://app?vid=4918291f-19ab-4f46-a135-d61fa7a26c4f"},"vehicle_type_id":"4","last_reported":1728547956,"current_range_meters":29600,"station_id":"ce4bhs12rcd13ifvqhvg","pricing_plan_id":"cebpf4jnsgd1na2vs0mg"},{"bike_id":"191f894c-5ec4-4bb3-adfc-c821a49bd142","system_id":"levelo_inurba_marseille","lat":43.3248,"lon":5.36562,"is_reserved":false,"is_disabled":false,"rental_uris":{"android":"levelo://app?vid=191f894c-5ec4-4bb3-adfc-c821a49bd142","ios":"levelo://app?vid=191f894c-5ec4-4bb3-adfc-c821a49bd142"},"vehicle_type_id":"4","last_reported":1728547956,"current_range_meters":31200,"station_id":"ce4bhs12rcd13ifvqhvg","pricing_plan_id":"cebpf4jnsgd1na2vs0mg"},{"bike_id":"f92a9fb8-9f73-4cf9-bc9b-2bdf5b520248","system_id":"levelo_inurba_marseille","lat":43.3252,"lon":5.41483,"is_reserved":false,"is_disabled":false,"rental_uris":{"android":"levelo://app?vid=f92a9fb8-9f73-4cf9-bc9b-2bdf5b520248","ios":"levelo://app?vid=f92a9fb8-9f73-4cf9-bc9b-2bdf5b520248"},"vehicle_type_id":"4","last_reported":1728547956,"current_range_meters":40000,"station_id":"ce4bhq12rcd13ifvqhhg","pricing_plan_id":"cebpf4jnsgd1na2vs0mg"},{"bike_id":"55ff88f9-a4d5-4d03-95d2-08dc7ddeab25","system_id":"levelo_inurba_marseille","lat":43.32661,"lon":5.40992,"is_reserved":false,"is_disabled":false,"rental_uris":{"android":"levelo://app?vid=55ff88f9-a4d5-4d03-95d2-08dc7ddeab25","ios":"levelo://app?vid=55ff88f9-a4d5-4d03-95d2-08dc7ddeab25"},"vehicle_type_id":"4","last_reported":1728547956,"current_range_meters":6400,"station_id":"ce4bhpp2rcd13ifvqhgg","pricing_plan_id":"cebpf4jnsgd1na2vs0mg"},{"bike_id":"252fdafd-d8bd-4445-933f-8c7cfafc9fac","system_id":"levelo_inurba_marseille","lat":43.24806,"lon":5.37456,"is_reserved":false,"is_disabled":false,"rental_uris":{"android":"levelo://app?vid=252fdafd-d8bd-4445-933f-8c7cfafc9fac","ios":"levelo://app?vid=252fdafd-d8bd-4445-933f-8c7cfafc9fac"},"vehicle_type_id":"4","last_reported":1728547956,"current_range_meters":38000,"station_id":"ce4bhgh2rcd13ifvqfb0","pricing_plan_id":"cebpf4jnsgd1na2vs0mg"},{"bike_id":"3513c86b-45a7-4bb5-9186-580c65fbb534","system_id":"levelo_inurba_marseille","lat":43.24077,"lon":5.37753,"is_reserved":false,"is_disabled":false,"rental_uris":{"android":"levelo://app?vid=3513c86b-45a7-4bb5-9186-580c65fbb534","ios":"levelo://app?vid=3513c86b-45a7-4bb5-9186-580c65fbb534"},"vehicle_type_id":"4","last_reported":1728547956,"current_range_meters":38000,"station_id":"ce4bhnp2rcd13ifvqgvg","pricing_plan_id":"cebpf4jnsgd1na2vs0mg"},{"bike_id":"fc7c8d91-b1a0-4ad9-a4df-f62029c13000","system_id":"levelo_inurba_marseille","lat":43.31214,"lon":5.36881,"is_reserved":false,"is_disabled":false,"rental_uris":{"android":"levelo://app?vid=fc7c8d91-b1a0-4ad9-a4df-f62029c13000","ios":"levelo://app?vid=fc7c8d91-b1a0-4ad9-a4df-f62029c13000"},"vehicle_type_id":"4","last_reported":1728547956,"current_range_meters":30000,"station_id":"ce4bgl92rcd13ifvqbq0","pricing_plan_id":"cebpf4jnsgd1na2vs0mg"},{"bike_id":"1041b9a4-24b6-4e96-8c12-5b22e14ad25e","system_id":"levelo_inurba_marseille","lat":43.29028,"lon":5.37552,"is_reserved":false,"is_disabled":false,"rental_uris":{"android":"levelo://app?vid=1041b9a4-24b6-4e96-8c12-5b22e14ad25e","ios":"levelo://app?vid=1041b9a4-24b6-4e96-8c12-5b22e14ad25e"},"vehicle_type_id":"4","last_reported":1728547956,"current_range_meters":25200,"station_id":"ce4bh692rcd13ifvqe90","pricing_plan_id":"cebpf4jnsgd1na2vs0mg"},{"bike_id":"68918e1c-90ca-465f-be2a-d5a20a6657c0","system_id":"levelo_inurba_marseille","lat":43.25937,"lon":5.40906,"is_reserved":false,"is_disabled":false,"rental_uris":{"android":"levelo://app?vid=68918e1c-90ca-465f-be2a-d5a20a6657c0","ios":"levelo://app?vid=68918e1c-90ca-465f-be2a-d5a20a6657c0"},"vehicle_type_id":"4","last_reported":1728547956,"current_range_meters":17200,"station_id":"ce4bhm92rcd13ifvqglg","pricing_plan_id":"cebpf4jnsgd1na2vs0mg"},{"bike_id":"7c24fe02-f2b8-4e4c-9d99-9b350762dca2","system_id":"levelo_inurba_marseille","lat":43.24082,"lon":5.37752,"is_reserved":false,"is_disabled":false,"rental_uris":{"android":"levelo://app?vid=7c24fe02-f2b8-4e4c-9d99-9b350762dca2","ios":"levelo://app?vid=7c24fe02-f2b8-4e4c-9d99-9b350762dca2"},"vehicle_type_id":"4","last_reported":1728547956,"current_range_meters":24400,"station_id":"ce4bhnp2rcd13ifvqgvg","pricing_plan_id":"cebpf4jnsgd1na2vs0mg"},{"bike_id":"50aa4af7-94b4-48c9-959d-eeec3eaec001","system_id":"levelo_inurba_marseille","lat":43.23196,"lon":5.35545,"is_reserved":false,"is_disabled":false,"rental_uris":{"android":"levelo://app?vid=50aa4af7-94b4-48c9-959d-eeec3eaec001","ios":"levelo://app?vid=50aa4af7-94b4-48c9-959d-eeec3eaec001"},"vehicle_type_id":"4","last_reported":1728547956,"current_range_meters":8400,"station_id":"ce4bhu92rcd13ifvqi70","pricing_plan_id":"cebpf4jnsgd1na2vs0mg"},{"bike_id":"7b084089-b050-4e0e-8a7e-a730735b4310","system_id":"levelo_inurba_marseille","lat":43.25094,"lon":5.39517,"is_reserved":false,"is_disabled":false,"rental_uris":{"android":"levelo://app?vid=7b084089-b050-4e0e-8a7e-a730735b4310","ios":"levelo://app?vid=7b084089-b050-4e0e-8a7e-a730735b4310"},"vehicle_type_id":"4","last_reported":1728547956,"current_range_meters":17600,"station_id":"ce4bhm12rcd13ifvqgkg","pricing_plan_id":"cebpf4jnsgd1na2vs0mg"},{"bike_id":"9250adf3-7fec-47f2-8b4e-b165d9bf6229","system_id":"levelo_inurba_marseille","lat":43.292,"lon":5.39315,"is_reserved":false,"is_disabled":false,"rental_uris":{"android":"levelo://app?vid=9250adf3-7fec-47f2-8b4e-b165d9bf6229","ios":"levelo://app?vid=9250adf3-7fec-47f2-8b4e-b165d9bf6229"},"vehicle_type_id":"4","last_reported":1728547956,"current_range_meters":15200,"station_id":"ce4bh192rcd13ifvqdd0","pricing_plan_id":"cebpf4jnsgd1na2vs0mg"},{"bike_id":"d3f7862d-0f72-4da7-9eeb-431fb4862718","system_id":"levelo_inurba_marseille","lat":43.24077,"lon":5.37761,"is_reserved":false,"is_disabled":false,"rental_uris":{"android":"levelo://app?vid=d3f7862d-0f72-4da7-9eeb-431fb4862718","ios":"levelo://app?vid=d3f7862d-0f72-4da7-9eeb-431fb4862718"},"vehicle_type_id":"4","last_reported":1728547956,"current_range_meters":2000,"station_id":"ce4bhnp2rcd13ifvqgvg","pricing_plan_id":"cebpf4jnsgd1na2vs0mg"},{"bike_id":"48eacddf-68c2-479d-95fb-5ac38df97c75","system_id":"levelo_inurba_marseille","lat":43.29586,"lon":5.36739,"is_reserved":false,"is_disabled":false,"rental_uris":{"android":"levelo://app?vid=48eacddf-68c2-479d-95fb-5ac38df97c75","ios":"levelo://app?vid=48eacddf-68c2-479d-95fb-5ac38df97c75"},"vehicle_type_id":"4","last_reported":1728547956,"current_range_meters":34800,"station_id":"ce4bgph2rcd13ifvqc2g","pricing_plan_id":"cebpf4jnsgd1na2vs0mg"},{"bike_id":"5fcb97b9-d425-4a7f-9ed0-6de30a7d55a1","system_id":"levelo_inurba_marseille","lat":43.24804,"lon":5.37461,"is_reserved":false,"is_disabled":false,"rental_uris":{"android":"levelo://app?vid=5fcb97b9-d425-4a7f-9ed0-6de30a7d55a1","ios":"levelo://app?vid=5fcb97b9-d425-4a7f-9ed0-6de30a7d55a1"},"vehicle_type_id":"4","last_reported":1728547956,"current_range_meters":39200,"station_id":"ce4bhgh2rcd13ifvqfb0","pricing_plan_id":"cebpf4jnsgd1na2vs0mg"},{"bike_id":"4da11a22-e02f-426a-84b5-a1be443e76f5","system_id":"levelo_inurba_marseille","lat":43.24074,"lon":5.37758,"is_reserved":false,"is_disabled":false,"rental_uris":{"android":"levelo://app?vid=4da11a22-e02f-426a-84b5-a1be443e76f5","ios":"levelo://app?vid=4da11a22-e02f-426a-84b5-a1be443e76f5"},"vehicle_type_id":"4","last_reported":1728547956,"current_range_meters":36400,"station_id":"ce4bhnp2rcd13ifvqgvg","pricing_plan_id":"cebpf4jnsgd1na2vs0mg"},{"bike_id":"09f79f1c-6319-482d-b2f6-19e2bc15c740","system_id":"levelo_inurba_marseille","lat":43.28083,"lon":5.40504,"is_reserved":false,"is_disabled":false,"rental_uris":{"android":"levelo://app?vid=09f79f1c-6319-482d-b2f6-19e2bc15c740","ios":"levelo://app?vid=09f79f1c-6319-482d-b2f6-19e2bc15c740"},"vehicle_type_id":"4","last_reported":1728547956,"current_range_meters":4400,"station_id":"","pricing_plan_id":"cebpf4jnsgd1na2vs0mg"},{"bike_id":"0dd8b709-aa00-43b3-b3c2-57354fabd0ef","system_id":"levelo_inurba_marseille","lat":43.3028,"lon":5.3769,"is_reserved":false,"is_disabled":false,"rental_uris":{"android":"levelo://app?vid=0dd8b709-aa00-43b3-b3c2-57354fabd0ef","ios":"levelo://app?vid=0dd8b709-aa00-43b3-b3c2-57354fabd0ef"},"vehicle_type_id":"4","last_reported":1728547956,"current_range_meters":34800,"station_id":"ce4bguh2rcd13ifvqcj0","pricing_plan_id":"cebpf4jnsgd1na2vs0mg"},{"bike_id":"b10b093b-7ee6-4d29-8c3c-c541489a488b","system_id":"levelo_inurba_marseille","lat":43.30144,"lon":5.37415,"is_reserved":false,"is_disabled":false,"rental_uris":{"android":"levelo://app?vid=b10b093b-7ee6-4d29-8c3c-c541489a488b","ios":"levelo://app?vid=b10b093b-7ee6-4d29-8c3c-c541489a488b"},"vehicle_type_id":"4","last_reported":1728547956,"current_range_meters":35200,"station_id":"ce4bgs92rcd13ifvqcc0","pricing_plan_id":"cebpf4jnsgd1na2vs0mg"},{"bike_id":"59b80e1c-ee01-4d86-911c-c2215c6be7a9","system_id":"levelo_inurba_marseille","lat":43.32532,"lon":5.41454,"is_reserved":false,"is_disabled":false,"rental_uris":{"android":"levelo://app?vid=59b80e1c-ee01-4d86-911c-c2215c6be7a9","ios":"levelo://app?vid=59b80e1c-ee01-4d86-911c-c2215c6be7a9"},"vehicle_type_id":"4","last_reported":1728547956,"current_range_meters":6800,"station_id":"ce4bhq12rcd13ifvqhhg","pricing_plan_id":"cebpf4jnsgd1na2vs0mg"},{"bike_id":"0b1140d6-a172-4a8a-803f-15d303370b5c","system_id":"levelo_inurba_marseille","lat":43.2815,"lon":5.42648,"is_reserved":false,"is_disabled":false,"rental_uris":{"android":"levelo://app?vid=0b1140d6-a172-4a8a-803f-15d303370b5c","ios":"levelo://app?vid=0b1140d6-a172-4a8a-803f-15d303370b5c"},"vehicle_type_id":"4","last_reported":1728547956,"current_range_meters":25200,"station_id":"ce4bhnh2rcd13ifvqgug","pricing_plan_id":"cebpf4jnsgd1na2vs0mg"},{"bike_id":"a28f74b6-69e6-4481-b8b6-1f331c091d75","system_id":"levelo_inurba_marseille","lat":43.295257,"lon":5.375027,"is_reserved":false,"is_disabled":false,"rental_uris":{"android":"levelo://app?vid=a28f74b6-69e6-4481-b8b6-1f331c091d75","ios":"levelo://app?vid=a28f74b6-69e6-4481-b8b6-1f331c091d75"},"vehicle_type_id":"4","last_reported":1728547956,"current_range_meters":23200,"station_id":"ce4bgkp2rcd13ifvqbmg","pricing_plan_id":"cebpf4jnsgd1na2vs0mg"},{"bike_id":"883d2f55-a426-4983-8ce1-a8d75e56bbfa","system_id":"levelo_inurba_marseille","lat":43.337444,"lon":5.374475,"is_reserved":false,"is_disabled":false,"rental_uris":{"android":"levelo://app?vid=883d2f55-a426-4983-8ce1-a8d75e56bbfa","ios":"levelo://app?vid=883d2f55-a426-4983-8ce1-a8d75e56bbfa"},"vehicle_type_id":"4","last_reported":1728547956,"current_range_meters":38800,"station_id":"","pricing_plan_id":"cebpf4jnsgd1na2vs0mg"},{"bike_id":"81587ada-cc61-4386-b0c2-234cfb97acad","system_id":"levelo_inurba_marseille","lat":43.29551,"lon":5.42291,"is_reserved":false,"is_disabled":false,"rental_uris":{"android":"levelo://app?vid=81587ada-cc61-4386-b0c2-234cfb97acad","ios":"levelo://app?vid=81587ada-cc61-4386-b0c2-234cfb97acad"},"vehicle_type_id":"4","last_reported":1728547956,"current_range_meters":38800,"station_id":"ce4bhph2rcd13ifvqhdg","pricing_plan_id":"cebpf4jnsgd1na2vs0mg"},{"bike_id":"8cebe8a6-94f2-4ebc-ae47-968989fe8404","system_id":"levelo_inurba_marseille","lat":43.267942,"lon":5.393998,"is_reserved":false,"is_disabled":false,"rental_uris":{"android":"levelo://app?vid=8cebe8a6-94f2-4ebc-ae47-968989fe8404","ios":"levelo://app?vid=8cebe8a6-94f2-4ebc-ae47-968989fe8404"},"vehicle_type_id":"4","last_reported":1728547956,"current_range_meters":34000,"station_id":"ce4bhh12rcd13ifvqfg0","pricing_plan_id":"cebpf4jnsgd1na2vs0mg"},{"bike_id":"e1f37106-0fae-4850-8b30-963ee04a0858","system_id":"levelo_inurba_marseille","lat":43.265702,"lon":5.390301,"is_reserved":false,"is_disabled":false,"rental_uris":{"android":"levelo://app?vid=e1f37106-0fae-4850-8b30-963ee04a0858","ios":"levelo://app?vid=e1f37106-0fae-4850-8b30-963ee04a0858"},"vehicle_type_id":"4","last_reported":1728547956,"current_range_meters":24800,"station_id":"ce4bhe12rcd13ifvqf30","pricing_plan_id":"cebpf4jnsgd1na2vs0mg"},{"bike_id":"ff68b789-7173-415f-860f-fb58c1b9d01d","system_id":"levelo_inurba_marseille","lat":43.22928,"lon":5.35376,"is_reserved":false,"is_disabled":false,"rental_uris":{"android":"levelo://app?vid=ff68b789-7173-415f-860f-fb58c1b9d01d","ios":"levelo://app?vid=ff68b789-7173-415f-860f-fb58c1b9d01d"},"vehicle_type_id":"4","last_reported":1728547956,"current_range_meters":36800,"station_id":"cpo3532slgdg3j2ikp40","pricing_plan_id":"cebpf4jnsgd1na2vs0mg"},{"bike_id":"467be7be-e0b0-4e6b-904e-e3d8987c9a55","system_id":"levelo_inurba_marseille","lat":43.27494,"lon":5.4246,"is_reserved":false,"is_disabled":false,"rental_uris":{"android":"levelo://app?vid=467be7be-e0b0-4e6b-904e-e3d8987c9a55","ios":"levelo://app?vid=467be7be-e0b0-4e6b-904e-e3d8987c9a55"},"vehicle_type_id":"4","last_reported":1728547956,"current_range_meters":36800,"station_id":"ce4bhn92rcd13ifvqgrg","pricing_plan_id":"cebpf4jnsgd1na2vs0mg"},{"bike_id":"7b755db8-d632-47b2-af2b-0913a00e7124","system_id":"levelo_inurba_marseille","lat":43.29581,"lon":5.36746,"is_reserved":false,"is_disabled":false,"rental_uris":{"android":"levelo://app?vid=7b755db8-d632-47b2-af2b-0913a00e7124","ios":"levelo://app?vid=7b755db8-d632-47b2-af2b-0913a00e7124"},"vehicle_type_id":"4","last_reported":1728547956,"current_range_meters":36000,"station_id":"ce4bgph2rcd13ifvqc2g","pricing_plan_id":"cebpf4jnsgd1na2vs0mg"},{"bike_id":"86a78c2a-79e3-4f25-99d0-9a42b0acad1f","system_id":"levelo_inurba_marseille","lat":43.31894,"lon":5.40742,"is_reserved":false,"is_disabled":false,"rental_uris":{"android":"levelo://app?vid=86a78c2a-79e3-4f25-99d0-9a42b0acad1f","ios":"levelo://app?vid=86a78c2a-79e3-4f25-99d0-9a42b0acad1f"},"vehicle_type_id":"4","last_reported":1728547956,"current_range_meters":38800,"station_id":"ce4bhq12rcd13ifvqhig","pricing_plan_id":"cebpf4jnsgd1na2vs0mg"},{"bike_id":"0e32a75c-7c13-4260-8634-1e6754276d6f","system_id":"levelo_inurba_marseille","lat":43.30945,"lon":5.3904,"is_reserved":false,"is_disabled":false,"rental_uris":{"android":"levelo://app?vid=0e32a75c-7c13-4260-8634-1e6754276d6f","ios":"levelo://app?vid=0e32a75c-7c13-4260-8634-1e6754276d6f"},"vehicle_type_id":"4","last_reported":1728547956,"current_range_meters":2800,"station_id":"ce4bgup2rcd13ifvqco0","pricing_plan_id":"cebpf4jnsgd1na2vs0mg"},{"bike_id":"1ff35025-6fbb-4936-828e-95c8ba21dc86","system_id":"levelo_inurba_marseille","lat":43.28468,"lon":5.38426,"is_reserved":false,"is_disabled":false,"rental_uris":{"android":"levelo://app?vid=1ff35025-6fbb-4936-828e-95c8ba21dc86","ios":"levelo://app?vid=1ff35025-6fbb-4936-828e-95c8ba21dc86"},"vehicle_type_id":"4","last_reported":1728547956,"current_range_meters":6800,"station_id":"ce4bh512rcd13ifvqe3g","pricing_plan_id":"cebpf4jnsgd1na2vs0mg"},{"bike_id":"fe1e03c7-131e-4a5d-b0b3-2ee1f8f38b15","system_id":"levelo_inurba_marseille","lat":43.25938,"lon":5.40909,"is_reserved":false,"is_disabled":false,"rental_uris":{"android":"levelo://app?vid=fe1e03c7-131e-4a5d-b0b3-2ee1f8f38b15","ios":"levelo://app?vid=fe1e03c7-131e-4a5d-b0b3-2ee1f8f38b15"},"vehicle_type_id":"4","last_reported":1728547956,"current_range_meters":28800,"station_id":"ce4bhm92rcd13ifvqglg","pricing_plan_id":"cebpf4jnsgd1na2vs0mg"},{"bike_id":"fbf37396-123c-4d70-b6d1-fee2510c8ad7","system_id":"levelo_inurba_marseille","lat":43.23153,"lon":5.43716,"is_reserved":false,"is_disabled":false,"rental_uris":{"android":"levelo://app?vid=fbf37396-123c-4d70-b6d1-fee2510c8ad7","ios":"levelo://app?vid=fbf37396-123c-4d70-b6d1-fee2510c8ad7"},"vehicle_type_id":"4","last_reported":1728547956,"current_range_meters":11600,"station_id":"ce4bhmp2rcd13ifvqgog","pricing_plan_id":"cebpf4jnsgd1na2vs0mg"},{"bike_id":"fc34a4c2-5dda-43dc-8c76-0302a62a6427","system_id":"levelo_inurba_marseille","lat":43.2319,"lon":5.35558,"is_reserved":false,"is_disabled":false,"rental_uris":{"android":"levelo://app?vid=fc34a4c2-5dda-43dc-8c76-0302a62a6427","ios":"levelo://app?vid=fc34a4c2-5dda-43dc-8c76-0302a62a6427"},"vehicle_type_id":"4","last_reported":1728547956,"current_range_meters":37600,"station_id":"ce4bhu92rcd13ifvqi70","pricing_plan_id":"cebpf4jnsgd1na2vs0mg"},{"bike_id":"7d30c777-cc7c-4242-8d88-80b6a5f657c3","system_id":"levelo_inurba_marseille","lat":43.29364,"lon":5.3785,"is_reserved":false,"is_disabled":false,"rental_uris":{"android":"levelo://app?vid=7d30c777-cc7c-4242-8d88-80b6a5f657c3","ios":"levelo://app?vid=7d30c777-cc7c-4242-8d88-80b6a5f657c3"},"vehicle_type_id":"4","last_reported":1728547956,"current_range_meters":32400,"station_id":"ce4bgjh2rcd13ifvqbf0","pricing_plan_id":"cebpf4jnsgd1na2vs0mg"},{"bike_id":"e69e17e0-0ca8-4a95-b8f4-81597f014eb7","system_id":"levelo_inurba_marseille","lat":43.30153,"lon":5.38081,"is_reserved":false,"is_disabled":false,"rental_uris":{"android":"levelo://app?vid=e69e17e0-0ca8-4a95-b8f4-81597f014eb7","ios":"levelo://app?vid=e69e17e0-0ca8-4a95-b8f4-81597f014eb7"},"vehicle_type_id":"4","last_reported":1728547956,"current_range_meters":31200,"station_id":"ce4bgjp2rcd13ifvqbh0","pricing_plan_id":"cebpf4jnsgd1na2vs0mg"},{"bike_id":"ba39ef12-965e-42ab-a8fe-b097329b787e","system_id":"levelo_inurba_marseille","lat":43.29591,"lon":5.36737,"is_reserved":false,"is_disabled":false,"rental_uris":{"android":"levelo://app?vid=ba39ef12-965e-42ab-a8fe-b097329b787e","ios":"levelo://app?vid=ba39ef12-965e-42ab-a8fe-b097329b787e"},"vehicle_type_id":"4","last_reported":1728547956,"current_range_meters":37600,"station_id":"ce4bgph2rcd13ifvqc2g","pricing_plan_id":"cebpf4jnsgd1na2vs0mg"},{"bike_id":"ef8803a1-4847-492c-a579-3d60ff96d306","system_id":"levelo_inurba_marseille","lat":43.27497,"lon":5.42456,"is_reserved":false,"is_disabled":false,"rental_uris":{"android":"levelo://app?vid=ef8803a1-4847-492c-a579-3d60ff96d306","ios":"levelo://app?vid=ef8803a1-4847-492c-a579-3d60ff96d306"},"vehicle_type_id":"4","last_reported":1728547956,"current_range_meters":23200,"station_id":"ce4bhn92rcd13ifvqgrg","pricing_plan_id":"cebpf4jnsgd1na2vs0mg"},{"bike_id":"58037c12-ebe8-47d9-934c-3e692bf7960b","system_id":"levelo_inurba_marseille","lat":43.27488,"lon":5.42456,"is_reserved":false,"is_disabled":false,"rental_uris":{"android":"levelo://app?vid=58037c12-ebe8-47d9-934c-3e692bf7960b","ios":"levelo://app?vid=58037c12-ebe8-47d9-934c-3e692bf7960b"},"vehicle_type_id":"4","last_reported":1728547956,"current_range_meters":30000,"station_id":"ce4bhn92rcd13ifvqgrg","pricing_plan_id":"cebpf4jnsgd1na2vs0mg"},{"bike_id":"8275a263-7685-47aa-9863-d503d43f55ba","system_id":"levelo_inurba_marseille","lat":43.28151,"lon":5.42644,"is_reserved":false,"is_disabled":false,"rental_uris":{"android":"levelo://app?vid=8275a263-7685-47aa-9863-d503d43f55ba","ios":"levelo://app?vid=8275a263-7685-47aa-9863-d503d43f55ba"},"vehicle_type_id":"4","last_reported":1728547956,"current_range_meters":33200,"station_id":"ce4bhnh2rcd13ifvqgug","pricing_plan_id":"cebpf4jnsgd1na2vs0mg"},{"bike_id":"57c55708-6a37-4b52-8ac4-9815d845ed73","system_id":"levelo_inurba_marseille","lat":43.27971,"lon":5.38747,"is_reserved":false,"is_disabled":false,"rental_uris":{"android":"levelo://app?vid=57c55708-6a37-4b52-8ac4-9815d845ed73","ios":"levelo://app?vid=57c55708-6a37-4b52-8ac4-9815d845ed73"},"vehicle_type_id":"4","last_reported":1728547956,"current_range_meters":16800,"station_id":"ce4bhg12rcd13ifvqf80","pricing_plan_id":"cebpf4jnsgd1na2vs0mg"},{"bike_id":"5b871ea3-f812-4fd2-b86c-33dcb301f033","system_id":"levelo_inurba_marseille","lat":43.31354,"lon":5.36696,"is_reserved":false,"is_disabled":false,"rental_uris":{"android":"levelo://app?vid=5b871ea3-f812-4fd2-b86c-33dcb301f033","ios":"levelo://app?vid=5b871ea3-f812-4fd2-b86c-33dcb301f033"},"vehicle_type_id":"4","last_reported":1728547956,"current_range_meters":18000,"station_id":"ce4bgr92rcd13ifvqc6g","pricing_plan_id":"cebpf4jnsgd1na2vs0mg"},{"bike_id":"4e4e7083-89bd-4f48-a4f6-01f4a7d2fcc0","system_id":"levelo_inurba_marseille","lat":43.34141,"lon":5.40913,"is_reserved":false,"is_disabled":false,"rental_uris":{"android":"levelo://app?vid=4e4e7083-89bd-4f48-a4f6-01f4a7d2fcc0","ios":"levelo://app?vid=4e4e7083-89bd-4f48-a4f6-01f4a7d2fcc0"},"vehicle_type_id":"4","last_reported":1728547956,"current_range_meters":38400,"station_id":"ce4bhqh2rcd13ifvqhlg","pricing_plan_id":"cebpf4jnsgd1na2vs0mg"},{"bike_id":"e86d01e2-2710-427d-82b6-ffb883d95617","system_id":"levelo_inurba_marseille","lat":43.24069,"lon":5.3776,"is_reserved":false,"is_disabled":false,"rental_uris":{"android":"levelo://app?vid=e86d01e2-2710-427d-82b6-ffb883d95617","ios":"levelo://app?vid=e86d01e2-2710-427d-82b6-ffb883d95617"},"vehicle_type_id":"4","last_reported":1728547956,"current_range_meters":24800,"station_id":"ce4bhnp2rcd13ifvqgvg","pricing_plan_id":"cebpf4jnsgd1na2vs0mg"},{"bike_id":"4ed7c4f9-4646-432b-8918-e57a22cb6c6b","system_id":"levelo_inurba_marseille","lat":43.27481,"lon":5.42464,"is_reserved":false,"is_disabled":false,"rental_uris":{"android":"levelo://app?vid=4ed7c4f9-4646-432b-8918-e57a22cb6c6b","ios":"levelo://app?vid=4ed7c4f9-4646-432b-8918-e57a22cb6c6b"},"vehicle_type_id":"4","last_reported":1728547956,"current_range_meters":8400,"station_id":"ce4bhn92rcd13ifvqgrg","pricing_plan_id":"cebpf4jnsgd1na2vs0mg"},{"bike_id":"ae10cdcc-e159-4c9d-8d10-18f5a41caca7","system_id":"levelo_inurba_marseille","lat":43.286804,"lon":5.374556,"is_reserved":false,"is_disabled":false,"rental_uris":{"android":"levelo://app?vid=ae10cdcc-e159-4c9d-8d10-18f5a41caca7","ios":"levelo://app?vid=ae10cdcc-e159-4c9d-8d10-18f5a41caca7"},"vehicle_type_id":"4","last_reported":1728547956,"current_range_meters":34800,"station_id":"ce4bh3p2rcd13ifvqdq0","pricing_plan_id":"cebpf4jnsgd1na2vs0mg"},{"bike_id":"02893b5b-0a93-438a-9734-9eff91df5c62","system_id":"levelo_inurba_marseille","lat":43.24391,"lon":5.37062,"is_reserved":false,"is_disabled":false,"rental_uris":{"android":"levelo://app?vid=02893b5b-0a93-438a-9734-9eff91df5c62","ios":"levelo://app?vid=02893b5b-0a93-438a-9734-9eff91df5c62"},"vehicle_type_id":"4","last_reported":1728547956,"current_range_meters":28800,"station_id":"ce4bhhh2rcd13ifvqfk0","pricing_plan_id":"cebpf4jnsgd1na2vs0mg"},{"bike_id":"f90ca49f-87e5-4ffa-83bf-89fbe4726d17","system_id":"levelo_inurba_marseille","lat":43.23194,"lon":5.35541,"is_reserved":false,"is_disabled":false,"rental_uris":{"android":"levelo://app?vid=f90ca49f-87e5-4ffa-83bf-89fbe4726d17","ios":"levelo://app?vid=f90ca49f-87e5-4ffa-83bf-89fbe4726d17"},"vehicle_type_id":"4","last_reported":1728547956,"current_range_meters":36800,"station_id":"ce4bhu92rcd13ifvqi70","pricing_plan_id":"cebpf4jnsgd1na2vs0mg"},{"bike_id":"3503d056-3757-414f-9633-e7558858e45e","system_id":"levelo_inurba_marseille","lat":43.28412,"lon":5.34998,"is_reserved":false,"is_disabled":false,"rental_uris":{"android":"levelo://app?vid=3503d056-3757-414f-9633-e7558858e45e","ios":"levelo://app?vid=3503d056-3757-414f-9633-e7558858e45e"},"vehicle_type_id":"4","last_reported":1728547956,"current_range_meters":27200,"station_id":"ce4bhbh2rcd13ifvqepg","pricing_plan_id":"cebpf4jnsgd1na2vs0mg"},{"bike_id":"3b1fa369-d0fc-402a-9458-9b4eb4954fef","system_id":"levelo_inurba_marseille","lat":43.32535,"lon":5.41461,"is_reserved":false,"is_disabled":false,"rental_uris":{"android":"levelo://app?vid=3b1fa369-d0fc-402a-9458-9b4eb4954fef","ios":"levelo://app?vid=3b1fa369-d0fc-402a-9458-9b4eb4954fef"},"vehicle_type_id":"4","last_reported":1728547956,"current_range_meters":35200,"station_id":"ce4bhq12rcd13ifvqhhg","pricing_plan_id":"cebpf4jnsgd1na2vs0mg"},{"bike_id":"7980552a-8eee-4325-8b1a-a5e2acdf441a","system_id":"levelo_inurba_marseille","lat":43.32666,"lon":5.40997,"is_reserved":false,"is_disabled":false,"rental_uris":{"android":"levelo://app?vid=7980552a-8eee-4325-8b1a-a5e2acdf441a","ios":"levelo://app?vid=7980552a-8eee-4325-8b1a-a5e2acdf441a"},"vehicle_type_id":"4","last_reported":1728547956,"current_range_meters":25200,"station_id":"ce4bhpp2rcd13ifvqhgg","pricing_plan_id":"cebpf4jnsgd1na2vs0mg"},{"bike_id":"eac4d1f3-69e7-42fa-8e90-fa30310580cc","system_id":"levelo_inurba_marseille","lat":43.27494,"lon":5.4246,"is_reserved":false,"is_disabled":false,"rental_uris":{"android":"levelo://app?vid=eac4d1f3-69e7-42fa-8e90-fa30310580cc","ios":"levelo://app?vid=eac4d1f3-69e7-42fa-8e90-fa30310580cc"},"vehicle_type_id":"4","last_reported":1728547956,"current_range_meters":33200,"station_id":"ce4bhn92rcd13ifvqgrg","pricing_plan_id":"cebpf4jnsgd1na2vs0mg"},{"bike_id":"18aaddff-7a2c-44d9-b951-2654092acdd6","system_id":"levelo_inurba_marseille","lat":43.2749,"lon":5.42458,"is_reserved":false,"is_disabled":false,"rental_uris":{"android":"levelo://app?vid=18aaddff-7a2c-44d9-b951-2654092acdd6","ios":"levelo://app?vid=18aaddff-7a2c-44d9-b951-2654092acdd6"},"vehicle_type_id":"4","last_reported":1728547956,"current_range_meters":27600,"station_id":"ce4bhn92rcd13ifvqgrg","pricing_plan_id":"cebpf4jnsgd1na2vs0mg"},{"bike_id":"0dc9717d-de9f-4504-ae8d-5bfc6e2743fd","system_id":"levelo_inurba_marseille","lat":43.24993,"lon":5.38947,"is_reserved":false,"is_disabled":false,"rental_uris":{"android":"levelo://app?vid=0dc9717d-de9f-4504-ae8d-5bfc6e2743fd","ios":"levelo://app?vid=0dc9717d-de9f-4504-ae8d-5bfc6e2743fd"},"vehicle_type_id":"4","last_reported":1728547956,"current_range_meters":3600,"station_id":"ce4bhgp2rcd13ifvqfd0","pricing_plan_id":"cebpf4jnsgd1na2vs0mg"},{"bike_id":"364d6193-644d-4122-81c1-77f7aaba4fc8","system_id":"levelo_inurba_marseille","lat":43.27377,"lon":5.36275,"is_reserved":false,"is_disabled":false,"rental_uris":{"android":"levelo://app?vid=364d6193-644d-4122-81c1-77f7aaba4fc8","ios":"levelo://app?vid=364d6193-644d-4122-81c1-77f7aaba4fc8"},"vehicle_type_id":"4","last_reported":1728547956,"current_range_meters":29600,"station_id":"ce4bhbh2rcd13ifvqeo0","pricing_plan_id":"cebpf4jnsgd1na2vs0mg"},{"bike_id":"ff56bc15-27c6-4e6c-ac75-a24ac50e15df","system_id":"levelo_inurba_marseille","lat":43.27488,"lon":5.42461,"is_reserved":false,"is_disabled":false,"rental_uris":{"android":"levelo://app?vid=ff56bc15-27c6-4e6c-ac75-a24ac50e15df","ios":"levelo://app?vid=ff56bc15-27c6-4e6c-ac75-a24ac50e15df"},"vehicle_type_id":"4","last_reported":1728547956,"current_range_meters":38800,"station_id":"ce4bhn92rcd13ifvqgrg","pricing_plan_id":"cebpf4jnsgd1na2vs0mg"},{"bike_id":"ef965a0f-519b-4a10-af60-98ffac3c1fcb","system_id":"levelo_inurba_marseille","lat":43.23979,"lon":5.43878,"is_reserved":false,"is_disabled":false,"rental_uris":{"android":"levelo://app?vid=ef965a0f-519b-4a10-af60-98ffac3c1fcb","ios":"levelo://app?vid=ef965a0f-519b-4a10-af60-98ffac3c1fcb"},"vehicle_type_id":"4","last_reported":1728547956,"current_range_meters":19600,"station_id":"","pricing_plan_id":"cebpf4jnsgd1na2vs0mg"},{"bike_id":"f91005df-e78e-4ac3-bbcd-8f0e9c15b8f6","system_id":"levelo_inurba_marseille","lat":43.29005,"lon":5.35609,"is_reserved":false,"is_disabled":false,"rental_uris":{"android":"levelo://app?vid=f91005df-e78e-4ac3-bbcd-8f0e9c15b8f6","ios":"levelo://app?vid=f91005df-e78e-4ac3-bbcd-8f0e9c15b8f6"},"vehicle_type_id":"4","last_reported":1728547956,"current_range_meters":25200,"station_id":"ce4bhb92rcd13ifvqen0","pricing_plan_id":"cebpf4jnsgd1na2vs0mg"},{"bike_id":"4873325e-8733-4cdf-89ae-7b2737f92ae4","system_id":"levelo_inurba_marseille","lat":43.25001,"lon":5.38925,"is_reserved":false,"is_disabled":false,"rental_uris":{"android":"levelo://app?vid=4873325e-8733-4cdf-89ae-7b2737f92ae4","ios":"levelo://app?vid=4873325e-8733-4cdf-89ae-7b2737f92ae4"},"vehicle_type_id":"4","last_reported":1728547956,"current_range_meters":26000,"station_id":"ce4bhgp2rcd13ifvqfd0","pricing_plan_id":"cebpf4jnsgd1na2vs0mg"},{"bike_id":"fd788659-0e78-402b-91a4-458257ccd222","system_id":"levelo_inurba_marseille","lat":43.26948,"lon":5.38643,"is_reserved":false,"is_disabled":false,"rental_uris":{"android":"levelo://app?vid=fd788659-0e78-402b-91a4-458257ccd222","ios":"levelo://app?vid=fd788659-0e78-402b-91a4-458257ccd222"},"vehicle_type_id":"4","last_reported":1728547956,"current_range_meters":28800,"station_id":"ce4bhh92rcd13ifvqfh0","pricing_plan_id":"cebpf4jnsgd1na2vs0mg"},{"bike_id":"2747d40b-eec5-4c47-8089-71f068908b10","system_id":"levelo_inurba_marseille","lat":43.30944,"lon":5.39041,"is_reserved":false,"is_disabled":false,"rental_uris":{"android":"levelo://app?vid=2747d40b-eec5-4c47-8089-71f068908b10","ios":"levelo://app?vid=2747d40b-eec5-4c47-8089-71f068908b10"},"vehicle_type_id":"4","last_reported":1728547956,"current_range_meters":2800,"station_id":"ce4bgup2rcd13ifvqco0","pricing_plan_id":"cebpf4jnsgd1na2vs0mg"},{"bike_id":"1a50cbf5-1a9b-4621-9b1e-5f7db3da8dd1","system_id":"levelo_inurba_marseille","lat":43.31222,"lon":5.36889,"is_reserved":false,"is_disabled":false,"rental_uris":{"android":"levelo://app?vid=1a50cbf5-1a9b-4621-9b1e-5f7db3da8dd1","ios":"levelo://app?vid=1a50cbf5-1a9b-4621-9b1e-5f7db3da8dd1"},"vehicle_type_id":"4","last_reported":1728547956,"current_range_meters":37600,"station_id":"ce4bgl92rcd13ifvqbq0","pricing_plan_id":"cebpf4jnsgd1na2vs0mg"},{"bike_id":"83458e33-c19c-45a1-8b32-7b4a3849d1cc","system_id":"levelo_inurba_marseille","lat":43.32659,"lon":5.40989,"is_reserved":false,"is_disabled":false,"rental_uris":{"android":"levelo://app?vid=83458e33-c19c-45a1-8b32-7b4a3849d1cc","ios":"levelo://app?vid=83458e33-c19c-45a1-8b32-7b4a3849d1cc"},"vehicle_type_id":"4","last_reported":1728547956,"current_range_meters":38800,"station_id":"ce4bhpp2rcd13ifvqhgg","pricing_plan_id":"cebpf4jnsgd1na2vs0mg"},{"bike_id":"6c177a40-4704-434a-9cda-37a59fc669e7","system_id":"levelo_inurba_marseille","lat":43.23157,"lon":5.43708,"is_reserved":false,"is_disabled":false,"rental_uris":{"android":"levelo://app?vid=6c177a40-4704-434a-9cda-37a59fc669e7","ios":"levelo://app?vid=6c177a40-4704-434a-9cda-37a59fc669e7"},"vehicle_type_id":"4","last_reported":1728547956,"current_range_meters":33200,"station_id":"ce4bhmp2rcd13ifvqgog","pricing_plan_id":"cebpf4jnsgd1na2vs0mg"},{"bike_id":"88edf47e-12f3-42c1-a5c3-906c27176de3","system_id":"levelo_inurba_marseille","lat":43.33417,"lon":5.40762,"is_reserved":false,"is_disabled":false,"rental_uris":{"android":"levelo://app?vid=88edf47e-12f3-42c1-a5c3-906c27176de3","ios":"levelo://app?vid=88edf47e-12f3-42c1-a5c3-906c27176de3"},"vehicle_type_id":"4","last_reported":1728547956,"current_range_meters":38000,"station_id":"ce4bhqh2rcd13ifvqhmg","pricing_plan_id":"cebpf4jnsgd1na2vs0mg"},{"bike_id":"4ecb6570-d199-40f3-be47-b8203218895b","system_id":"levelo_inurba_marseille","lat":43.29525,"lon":5.38534,"is_reserved":false,"is_disabled":false,"rental_uris":{"android":"levelo://app?vid=4ecb6570-d199-40f3-be47-b8203218895b","ios":"levelo://app?vid=4ecb6570-d199-40f3-be47-b8203218895b"},"vehicle_type_id":"4","last_reported":1728547956,"current_range_meters":16000,"station_id":"ce4bgih2rcd13ifvqba0","pricing_plan_id":"cebpf4jnsgd1na2vs0mg"},{"bike_id":"1d219b72-f5b7-4ec5-93e0-d20414f1655d","system_id":"levelo_inurba_marseille","lat":43.32535,"lon":5.41457,"is_reserved":false,"is_disabled":false,"rental_uris":{"android":"levelo://app?vid=1d219b72-f5b7-4ec5-93e0-d20414f1655d","ios":"levelo://app?vid=1d219b72-f5b7-4ec5-93e0-d20414f1655d"},"vehicle_type_id":"4","last_reported":1728547956,"current_range_meters":34800,"station_id":"ce4bhq12rcd13ifvqhhg","pricing_plan_id":"cebpf4jnsgd1na2vs0mg"},{"bike_id":"298b1537-3c72-4c88-84da-a6a0e14daca0","system_id":"levelo_inurba_marseille","lat":43.2957,"lon":5.37511,"is_reserved":false,"is_disabled":false,"rental_uris":{"android":"levelo://app?vid=298b1537-3c72-4c88-84da-a6a0e14daca0","ios":"levelo://app?vid=298b1537-3c72-4c88-84da-a6a0e14daca0"},"vehicle_type_id":"4","last_reported":1728547956,"current_range_meters":10000,"station_id":"ce4bgh92rcd13ifvqb50","pricing_plan_id":"cebpf4jnsgd1na2vs0mg"},{"bike_id":"6621e1af-9ca0-463c-a3ad-f651030b0dd3","system_id":"levelo_inurba_marseille","lat":43.23193,"lon":5.35549,"is_reserved":false,"is_disabled":false,"rental_uris":{"android":"levelo://app?vid=6621e1af-9ca0-463c-a3ad-f651030b0dd3","ios":"levelo://app?vid=6621e1af-9ca0-463c-a3ad-f651030b0dd3"},"vehicle_type_id":"4","last_reported":1728547956,"current_range_meters":37600,"station_id":"ce4bhu92rcd13ifvqi70","pricing_plan_id":"cebpf4jnsgd1na2vs0mg"},{"bike_id":"dbbb62cb-4f9e-48bd-80c2-e05a0143e2e7","system_id":"levelo_inurba_marseille","lat":43.32533,"lon":5.4146,"is_reserved":false,"is_disabled":false,"rental_uris":{"android":"levelo://app?vid=dbbb62cb-4f9e-48bd-80c2-e05a0143e2e7","ios":"levelo://app?vid=dbbb62cb-4f9e-48bd-80c2-e05a0143e2e7"},"vehicle_type_id":"4","last_reported":1728547956,"current_range_meters":24400,"station_id":"ce4bhq12rcd13ifvqhhg","pricing_plan_id":"cebpf4jnsgd1na2vs0mg"},{"bike_id":"3bcf753f-ef37-43e7-bef5-609f75dea2d7","system_id":"levelo_inurba_marseille","lat":43.32536,"lon":5.41429,"is_reserved":false,"is_disabled":false,"rental_uris":{"android":"levelo://app?vid=3bcf753f-ef37-43e7-bef5-609f75dea2d7","ios":"levelo://app?vid=3bcf753f-ef37-43e7-bef5-609f75dea2d7"},"vehicle_type_id":"4","last_reported":1728547956,"current_range_meters":8400,"station_id":"ce4bhq12rcd13ifvqhhg","pricing_plan_id":"cebpf4jnsgd1na2vs0mg"},{"bike_id":"4c523da9-ca60-41b4-b257-8349df4a3c3a","system_id":"levelo_inurba_marseille","lat":43.27488,"lon":5.42466,"is_reserved":false,"is_disabled":false,"rental_uris":{"android":"levelo://app?vid=4c523da9-ca60-41b4-b257-8349df4a3c3a","ios":"levelo://app?vid=4c523da9-ca60-41b4-b257-8349df4a3c3a"},"vehicle_type_id":"4","last_reported":1728547956,"current_range_meters":35200,"station_id":"ce4bhn92rcd13ifvqgrg","pricing_plan_id":"cebpf4jnsgd1na2vs0mg"},{"bike_id":"369d26a6-9c7c-483f-ba16-377c911853f2","system_id":"levelo_inurba_marseille","lat":43.29783,"lon":5.37099,"is_reserved":false,"is_disabled":false,"rental_uris":{"android":"levelo://app?vid=369d26a6-9c7c-483f-ba16-377c911853f2","ios":"levelo://app?vid=369d26a6-9c7c-483f-ba16-377c911853f2"},"vehicle_type_id":"4","last_reported":1728547956,"current_range_meters":7200,"station_id":"ce4bgop2rcd13ifvqc1g","pricing_plan_id":"cebpf4jnsgd1na2vs0mg"},{"bike_id":"8e24c959-b9ea-4313-b4ee-2a9b6571ee3e","system_id":"levelo_inurba_marseille","lat":43.27961,"lon":5.38761,"is_reserved":false,"is_disabled":false,"rental_uris":{"android":"levelo://app?vid=8e24c959-b9ea-4313-b4ee-2a9b6571ee3e","ios":"levelo://app?vid=8e24c959-b9ea-4313-b4ee-2a9b6571ee3e"},"vehicle_type_id":"4","last_reported":1728547956,"current_range_meters":24000,"station_id":"ce4bhg12rcd13ifvqf80","pricing_plan_id":"cebpf4jnsgd1na2vs0mg"},{"bike_id":"b92cd7fb-25a2-4208-9784-08dc1247670a","system_id":"levelo_inurba_marseille","lat":43.27316,"lon":5.39094,"is_reserved":false,"is_disabled":false,"rental_uris":{"android":"levelo://app?vid=b92cd7fb-25a2-4208-9784-08dc1247670a","ios":"levelo://app?vid=b92cd7fb-25a2-4208-9784-08dc1247670a"},"vehicle_type_id":"4","last_reported":1728547956,"current_range_meters":32400,"station_id":"ce4bhgp2rcd13ifvqfe0","pricing_plan_id":"cebpf4jnsgd1na2vs0mg"},{"bike_id":"9119f974-ea12-4975-b484-8868e7a8c451","system_id":"levelo_inurba_marseille","lat":43.32534,"lon":5.41452,"is_reserved":false,"is_disabled":false,"rental_uris":{"android":"levelo://app?vid=9119f974-ea12-4975-b484-8868e7a8c451","ios":"levelo://app?vid=9119f974-ea12-4975-b484-8868e7a8c451"},"vehicle_type_id":"4","last_reported":1728547956,"current_range_meters":8400,"station_id":"ce4bhq12rcd13ifvqhhg","pricing_plan_id":"cebpf4jnsgd1na2vs0mg"},{"bike_id":"37aed8a1-3fa7-4b24-ad4f-1103f233069c","system_id":"levelo_inurba_marseille","lat":43.3253,"lon":5.41455,"is_reserved":false,"is_disabled":false,"rental_uris":{"android":"levelo://app?vid=37aed8a1-3fa7-4b24-ad4f-1103f233069c","ios":"levelo://app?vid=37aed8a1-3fa7-4b24-ad4f-1103f233069c"},"vehicle_type_id":"4","last_reported":1728547956,"current_range_meters":32000,"station_id":"ce4bhq12rcd13ifvqhhg","pricing_plan_id":"cebpf4jnsgd1na2vs0mg"},{"bike_id":"c7345d11-567b-4b84-ba71-1052989c0ad2","system_id":"levelo_inurba_marseille","lat":43.25001,"lon":5.3893,"is_reserved":false,"is_disabled":false,"rental_uris":{"android":"levelo://app?vid=c7345d11-567b-4b84-ba71-1052989c0ad2","ios":"levelo://app?vid=c7345d11-567b-4b84-ba71-1052989c0ad2"},"vehicle_type_id":"4","last_reported":1728547956,"current_range_meters":30400,"station_id":"ce4bhgp2rcd13ifvqfd0","pricing_plan_id":"cebpf4jnsgd1na2vs0mg"},{"bike_id":"eac3bf75-faff-452e-9d38-51a106f0cdcd","system_id":"levelo_inurba_marseille","lat":43.31357,"lon":5.36715,"is_reserved":false,"is_disabled":false,"rental_uris":{"android":"levelo://app?vid=eac3bf75-faff-452e-9d38-51a106f0cdcd","ios":"levelo://app?vid=eac3bf75-faff-452e-9d38-51a106f0cdcd"},"vehicle_type_id":"4","last_reported":1728547956,"current_range_meters":39200,"station_id":"ce4bgr92rcd13ifvqc6g","pricing_plan_id":"cebpf4jnsgd1na2vs0mg"},{"bike_id":"0c872638-1f69-4820-a1a1-3777ebbd7436","system_id":"levelo_inurba_marseille","lat":43.31357,"lon":5.36696,"is_reserved":false,"is_disabled":false,"rental_uris":{"android":"levelo://app?vid=0c872638-1f69-4820-a1a1-3777ebbd7436","ios":"levelo://app?vid=0c872638-1f69-4820-a1a1-3777ebbd7436"},"vehicle_type_id":"4","last_reported":1728547956,"current_range_meters":33200,"station_id":"ce4bgr92rcd13ifvqc6g","pricing_plan_id":"cebpf4jnsgd1na2vs0mg"},{"bike_id":"910334d2-d108-4fc2-83c4-e16f3f792eec","system_id":"levelo_inurba_marseille","lat":43.30541,"lon":5.36557,"is_reserved":false,"is_disabled":false,"rental_uris":{"android":"levelo://app?vid=910334d2-d108-4fc2-83c4-e16f3f792eec","ios":"levelo://app?vid=910334d2-d108-4fc2-83c4-e16f3f792eec"},"vehicle_type_id":"4","last_reported":1728547956,"current_range_meters":34800,"station_id":"ce4bgs12rcd13ifvqcag","pricing_plan_id":"cebpf4jnsgd1na2vs0mg"},{"bike_id":"b4390367-4189-4603-86e2-c9ce3d3a7342","system_id":"levelo_inurba_marseille","lat":43.2766,"lon":5.38888,"is_reserved":false,"is_disabled":false,"rental_uris":{"android":"levelo://app?vid=b4390367-4189-4603-86e2-c9ce3d3a7342","ios":"levelo://app?vid=b4390367-4189-4603-86e2-c9ce3d3a7342"},"vehicle_type_id":"4","last_reported":1728547956,"current_range_meters":39200,"station_id":"ce4bhi12rcd13ifvqfo0","pricing_plan_id":"cebpf4jnsgd1na2vs0mg"},{"bike_id":"6cd7d39b-2087-4d21-86bb-e2284a62aeb5","system_id":"levelo_inurba_marseille","lat":43.23189,"lon":5.35555,"is_reserved":false,"is_disabled":false,"rental_uris":{"android":"levelo://app?vid=6cd7d39b-2087-4d21-86bb-e2284a62aeb5","ios":"levelo://app?vid=6cd7d39b-2087-4d21-86bb-e2284a62aeb5"},"vehicle_type_id":"4","last_reported":1728547956,"current_range_meters":3600,"station_id":"ce4bhu92rcd13ifvqi70","pricing_plan_id":"cebpf4jnsgd1na2vs0mg"},{"bike_id":"8a1e694c-979c-4187-add5-7b891cc3e6f0","system_id":"levelo_inurba_marseille","lat":43.32527,"lon":5.41469,"is_reserved":false,"is_disabled":false,"rental_uris":{"android":"levelo://app?vid=8a1e694c-979c-4187-add5-7b891cc3e6f0","ios":"levelo://app?vid=8a1e694c-979c-4187-add5-7b891cc3e6f0"},"vehicle_type_id":"4","last_reported":1728547956,"current_range_meters":4400,"station_id":"ce4bhq12rcd13ifvqhhg","pricing_plan_id":"cebpf4jnsgd1na2vs0mg"},{"bike_id":"c6bba5ae-9bdf-4b63-98b2-399a2c621126","system_id":"levelo_inurba_marseille","lat":43.25582,"lon":5.3824,"is_reserved":false,"is_disabled":false,"rental_uris":{"android":"levelo://app?vid=c6bba5ae-9bdf-4b63-98b2-399a2c621126","ios":"levelo://app?vid=c6bba5ae-9bdf-4b63-98b2-399a2c621126"},"vehicle_type_id":"4","last_reported":1728547956,"current_range_meters":3600,"station_id":"ce4bhih2rcd13ifvqfs0","pricing_plan_id":"cebpf4jnsgd1na2vs0mg"},{"bike_id":"60098230-9c6b-4727-adac-60752fa30bf1","system_id":"levelo_inurba_marseille","lat":43.30916,"lon":5.36851,"is_reserved":false,"is_disabled":false,"rental_uris":{"android":"levelo://app?vid=60098230-9c6b-4727-adac-60752fa30bf1","ios":"levelo://app?vid=60098230-9c6b-4727-adac-60752fa30bf1"},"vehicle_type_id":"4","last_reported":1728547956,"current_range_meters":24400,"station_id":"ce4bgn92rcd13ifvqbvg","pricing_plan_id":"cebpf4jnsgd1na2vs0mg"},{"bike_id":"95aa349b-b3db-4a51-9774-19795d271565","system_id":"levelo_inurba_marseille","lat":43.28679,"lon":5.38654,"is_reserved":false,"is_disabled":false,"rental_uris":{"android":"levelo://app?vid=95aa349b-b3db-4a51-9774-19795d271565","ios":"levelo://app?vid=95aa349b-b3db-4a51-9774-19795d271565"},"vehicle_type_id":"4","last_reported":1728547956,"current_range_meters":25200,"station_id":"ce4bh492rcd13ifvqdug","pricing_plan_id":"cebpf4jnsgd1na2vs0mg"},{"bike_id":"65033990-fe14-4113-b73e-185413c59b67","system_id":"levelo_inurba_marseille","lat":43.2315,"lon":5.43718,"is_reserved":false,"is_disabled":false,"rental_uris":{"android":"levelo://app?vid=65033990-fe14-4113-b73e-185413c59b67","ios":"levelo://app?vid=65033990-fe14-4113-b73e-185413c59b67"},"vehicle_type_id":"4","last_reported":1728547956,"current_range_meters":6800,"station_id":"ce4bhmp2rcd13ifvqgog","pricing_plan_id":"cebpf4jnsgd1na2vs0mg"},{"bike_id":"0a914b9b-1fcc-4758-a91b-1f2a11f6cf7a","system_id":"levelo_inurba_marseille","lat":43.27183,"lon":5.40995,"is_reserved":false,"is_disabled":false,"rental_uris":{"android":"levelo://app?vid=0a914b9b-1fcc-4758-a91b-1f2a11f6cf7a","ios":"levelo://app?vid=0a914b9b-1fcc-4758-a91b-1f2a11f6cf7a"},"vehicle_type_id":"4","last_reported":1728547956,"current_range_meters":17600,"station_id":"ce4bhl12rcd13ifvqgf0","pricing_plan_id":"cebpf4jnsgd1na2vs0mg"},{"bike_id":"81802e4b-521b-45fe-8ab0-7886b75793b8","system_id":"levelo_inurba_marseille","lat":43.29004,"lon":5.35616,"is_reserved":false,"is_disabled":false,"rental_uris":{"android":"levelo://app?vid=81802e4b-521b-45fe-8ab0-7886b75793b8","ios":"levelo://app?vid=81802e4b-521b-45fe-8ab0-7886b75793b8"},"vehicle_type_id":"4","last_reported":1728547956,"current_range_meters":8800,"station_id":"ce4bhb92rcd13ifvqen0","pricing_plan_id":"cebpf4jnsgd1na2vs0mg"},{"bike_id":"d65db0a0-2fe8-42de-a50f-73a9d36e8924","system_id":"levelo_inurba_marseille","lat":43.33617,"lon":5.41028,"is_reserved":false,"is_disabled":false,"rental_uris":{"android":"levelo://app?vid=d65db0a0-2fe8-42de-a50f-73a9d36e8924","ios":"levelo://app?vid=d65db0a0-2fe8-42de-a50f-73a9d36e8924"},"vehicle_type_id":"4","last_reported":1728547956,"current_range_meters":39200,"station_id":"ce4bhqh2rcd13ifvqhmg","pricing_plan_id":"cebpf4jnsgd1na2vs0mg"},{"bike_id":"5b9fe21e-ac55-4ff4-95f8-3f6705a4d2d4","system_id":"levelo_inurba_marseille","lat":43.27494,"lon":5.42455,"is_reserved":false,"is_disabled":false,"rental_uris":{"android":"levelo://app?vid=5b9fe21e-ac55-4ff4-95f8-3f6705a4d2d4","ios":"levelo://app?vid=5b9fe21e-ac55-4ff4-95f8-3f6705a4d2d4"},"vehicle_type_id":"4","last_reported":1728547956,"current_range_meters":13600,"station_id":"ce4bhn92rcd13ifvqgrg","pricing_plan_id":"cebpf4jnsgd1na2vs0mg"},{"bike_id":"a73a430d-5657-44da-b2ab-b30338b3990c","system_id":"levelo_inurba_marseille","lat":43.2926,"lon":5.40896,"is_reserved":false,"is_disabled":false,"rental_uris":{"android":"levelo://app?vid=a73a430d-5657-44da-b2ab-b30338b3990c","ios":"levelo://app?vid=a73a430d-5657-44da-b2ab-b30338b3990c"},"vehicle_type_id":"4","last_reported":1728547956,"current_range_meters":6400,"station_id":"ce4bh192rcd13ifvqdc0","pricing_plan_id":"cebpf4jnsgd1na2vs0mg"},{"bike_id":"1eac309f-c1ea-4f24-9bf1-742a5787b598","system_id":"levelo_inurba_marseille","lat":43.26572,"lon":5.39024,"is_reserved":false,"is_disabled":false,"rental_uris":{"android":"levelo://app?vid=1eac309f-c1ea-4f24-9bf1-742a5787b598","ios":"levelo://app?vid=1eac309f-c1ea-4f24-9bf1-742a5787b598"},"vehicle_type_id":"4","last_reported":1728547956,"current_range_meters":38000,"station_id":"ce4bhe12rcd13ifvqf30","pricing_plan_id":"cebpf4jnsgd1na2vs0mg"},{"bike_id":"c111393d-9cd9-41aa-904d-9a71386ece93","system_id":"levelo_inurba_marseille","lat":43.3253,"lon":5.41467,"is_reserved":false,"is_disabled":false,"rental_uris":{"android":"levelo://app?vid=c111393d-9cd9-41aa-904d-9a71386ece93","ios":"levelo://app?vid=c111393d-9cd9-41aa-904d-9a71386ece93"},"vehicle_type_id":"4","last_reported":1728547956,"current_range_meters":30400,"station_id":"ce4bhq12rcd13ifvqhhg","pricing_plan_id":"cebpf4jnsgd1na2vs0mg"},{"bike_id":"5ae58f45-e849-4b3f-852a-7e18dbc65c56","system_id":"levelo_inurba_marseille","lat":43.32541,"lon":5.41426,"is_reserved":false,"is_disabled":false,"rental_uris":{"android":"levelo://app?vid=5ae58f45-e849-4b3f-852a-7e18dbc65c56","ios":"levelo://app?vid=5ae58f45-e849-4b3f-852a-7e18dbc65c56"},"vehicle_type_id":"4","last_reported":1728547956,"current_range_meters":24800,"station_id":"ce4bhq12rcd13ifvqhhg","pricing_plan_id":"cebpf4jnsgd1na2vs0mg"},{"bike_id":"a3785cd9-7425-4db7-b814-70fb29111b7a","system_id":"levelo_inurba_marseille","lat":43.2995,"lon":5.41322,"is_reserved":false,"is_disabled":false,"rental_uris":{"android":"levelo://app?vid=a3785cd9-7425-4db7-b814-70fb29111b7a","ios":"levelo://app?vid=a3785cd9-7425-4db7-b814-70fb29111b7a"},"vehicle_type_id":"4","last_reported":1728547956,"current_range_meters":37600,"station_id":"ce4bhp12rcd13ifvqh9g","pricing_plan_id":"cebpf4jnsgd1na2vs0mg"},{"bike_id":"9bac0547-caca-4eef-b3cb-aa22e13232b1","system_id":"levelo_inurba_marseille","lat":43.25935,"lon":5.40902,"is_reserved":false,"is_disabled":false,"rental_uris":{"android":"levelo://app?vid=9bac0547-caca-4eef-b3cb-aa22e13232b1","ios":"levelo://app?vid=9bac0547-caca-4eef-b3cb-aa22e13232b1"},"vehicle_type_id":"4","last_reported":1728547956,"current_range_meters":26000,"station_id":"ce4bhm92rcd13ifvqglg","pricing_plan_id":"cebpf4jnsgd1na2vs0mg"},{"bike_id":"cb66e998-67b2-45d7-b3cb-88f03d964bc0","system_id":"levelo_inurba_marseille","lat":43.30274,"lon":5.377,"is_reserved":false,"is_disabled":false,"rental_uris":{"android":"levelo://app?vid=cb66e998-67b2-45d7-b3cb-88f03d964bc0","ios":"levelo://app?vid=cb66e998-67b2-45d7-b3cb-88f03d964bc0"},"vehicle_type_id":"4","last_reported":1728547956,"current_range_meters":8400,"station_id":"ce4bguh2rcd13ifvqcj0","pricing_plan_id":"cebpf4jnsgd1na2vs0mg"},{"bike_id":"c2e51e73-0bcd-44cc-8f9a-f57b10eab5f2","system_id":"levelo_inurba_marseille","lat":43.24084,"lon":5.37738,"is_reserved":false,"is_disabled":false,"rental_uris":{"android":"levelo://app?vid=c2e51e73-0bcd-44cc-8f9a-f57b10eab5f2","ios":"levelo://app?vid=c2e51e73-0bcd-44cc-8f9a-f57b10eab5f2"},"vehicle_type_id":"4","last_reported":1728547956,"current_range_meters":23200,"station_id":"ce4bhnp2rcd13ifvqgvg","pricing_plan_id":"cebpf4jnsgd1na2vs0mg"},{"bike_id":"62ccfddd-1382-446c-9bf2-416c2cb7471b","system_id":"levelo_inurba_marseille","lat":43.30562,"lon":5.36538,"is_reserved":false,"is_disabled":false,"rental_uris":{"android":"levelo://app?vid=62ccfddd-1382-446c-9bf2-416c2cb7471b","ios":"levelo://app?vid=62ccfddd-1382-446c-9bf2-416c2cb7471b"},"vehicle_type_id":"4","last_reported":1728547956,"current_range_meters":34800,"station_id":"ce4bgs12rcd13ifvqcag","pricing_plan_id":"cebpf4jnsgd1na2vs0mg"},{"bike_id":"fc3f0547-89f3-45ed-b216-20a87ce42cb7","system_id":"levelo_inurba_marseille","lat":43.2315,"lon":5.43725,"is_reserved":false,"is_disabled":false,"rental_uris":{"android":"levelo://app?vid=fc3f0547-89f3-45ed-b216-20a87ce42cb7","ios":"levelo://app?vid=fc3f0547-89f3-45ed-b216-20a87ce42cb7"},"vehicle_type_id":"4","last_reported":1728547956,"current_range_meters":25200,"station_id":"ce4bhmp2rcd13ifvqgog","pricing_plan_id":"cebpf4jnsgd1na2vs0mg"},{"bike_id":"2a024db6-0901-445a-939a-0b05fb85df2e","system_id":"levelo_inurba_marseille","lat":43.2668,"lon":5.38271,"is_reserved":false,"is_disabled":false,"rental_uris":{"android":"levelo://app?vid=2a024db6-0901-445a-939a-0b05fb85df2e","ios":"levelo://app?vid=2a024db6-0901-445a-939a-0b05fb85df2e"},"vehicle_type_id":"4","last_reported":1728547956,"current_range_meters":25200,"station_id":"ce4bhg92rcd13ifvqf90","pricing_plan_id":"cebpf4jnsgd1na2vs0mg"},{"bike_id":"771e73b5-822c-442c-a5d4-b201a5fbfe1e","system_id":"levelo_inurba_marseille","lat":43.30917,"lon":5.36857,"is_reserved":false,"is_disabled":false,"rental_uris":{"android":"levelo://app?vid=771e73b5-822c-442c-a5d4-b201a5fbfe1e","ios":"levelo://app?vid=771e73b5-822c-442c-a5d4-b201a5fbfe1e"},"vehicle_type_id":"4","last_reported":1728547956,"current_range_meters":40000,"station_id":"ce4bgn92rcd13ifvqbvg","pricing_plan_id":"cebpf4jnsgd1na2vs0mg"},{"bike_id":"5b2002b1-99d3-437e-94a4-6eac9b7fb9e2","system_id":"levelo_inurba_marseille","lat":43.29577,"lon":5.375,"is_reserved":false,"is_disabled":false,"rental_uris":{"android":"levelo://app?vid=5b2002b1-99d3-437e-94a4-6eac9b7fb9e2","ios":"levelo://app?vid=5b2002b1-99d3-437e-94a4-6eac9b7fb9e2"},"vehicle_type_id":"4","last_reported":1728547956,"current_range_meters":27600,"station_id":"ce4bgh92rcd13ifvqb50","pricing_plan_id":"cebpf4jnsgd1na2vs0mg"},{"bike_id":"f3f716fd-9aa2-4475-aa03-b19d85a9b52d","system_id":"levelo_inurba_marseille","lat":43.317817,"lon":5.40612,"is_reserved":false,"is_disabled":false,"rental_uris":{"android":"levelo://app?vid=f3f716fd-9aa2-4475-aa03-b19d85a9b52d","ios":"levelo://app?vid=f3f716fd-9aa2-4475-aa03-b19d85a9b52d"},"vehicle_type_id":"4","last_reported":1728547956,"current_range_meters":17600,"station_id":"ce4bhq12rcd13ifvqhig","pricing_plan_id":"cebpf4jnsgd1na2vs0mg"},{"bike_id":"aa75c41c-1391-4d5a-b0ad-fb29c317877d","system_id":"levelo_inurba_marseille","lat":43.2307,"lon":5.35492,"is_reserved":false,"is_disabled":false,"rental_uris":{"android":"levelo://app?vid=aa75c41c-1391-4d5a-b0ad-fb29c317877d","ios":"levelo://app?vid=aa75c41c-1391-4d5a-b0ad-fb29c317877d"},"vehicle_type_id":"4","last_reported":1728547956,"current_range_meters":12400,"station_id":"cpo3342slgdg3j2ifvpg","pricing_plan_id":"cebpf4jnsgd1na2vs0mg"},{"bike_id":"f6963f46-5e73-42df-9f9e-8258ce538093","system_id":"levelo_inurba_marseille","lat":43.25492,"lon":5.37647,"is_reserved":false,"is_disabled":false,"rental_uris":{"android":"levelo://app?vid=f6963f46-5e73-42df-9f9e-8258ce538093","ios":"levelo://app?vid=f6963f46-5e73-42df-9f9e-8258ce538093"},"vehicle_type_id":"4","last_reported":1728547956,"current_range_meters":32800,"station_id":"ce4bhh12rcd13ifvqff0","pricing_plan_id":"cebpf4jnsgd1na2vs0mg"},{"bike_id":"3815e933-e20e-4440-bbdd-11c9132eb606","system_id":"levelo_inurba_marseille","lat":43.33609,"lon":5.4103,"is_reserved":false,"is_disabled":false,"rental_uris":{"android":"levelo://app?vid=3815e933-e20e-4440-bbdd-11c9132eb606","ios":"levelo://app?vid=3815e933-e20e-4440-bbdd-11c9132eb606"},"vehicle_type_id":"4","last_reported":1728547956,"current_range_meters":40000,"station_id":"ce4bhqh2rcd13ifvqhmg","pricing_plan_id":"cebpf4jnsgd1na2vs0mg"},{"bike_id":"c16cf7f6-f1d1-4c55-99ff-06b0ddaf0455","system_id":"levelo_inurba_marseille","lat":43.24086,"lon":5.37751,"is_reserved":false,"is_disabled":false,"rental_uris":{"android":"levelo://app?vid=c16cf7f6-f1d1-4c55-99ff-06b0ddaf0455","ios":"levelo://app?vid=c16cf7f6-f1d1-4c55-99ff-06b0ddaf0455"},"vehicle_type_id":"4","last_reported":1728547956,"current_range_meters":28400,"station_id":"ce4bhnp2rcd13ifvqgvg","pricing_plan_id":"cebpf4jnsgd1na2vs0mg"},{"bike_id":"b7507c69-0bc0-4e9e-9023-7bda0a81f93b","system_id":"levelo_inurba_marseille","lat":43.30563,"lon":5.36543,"is_reserved":false,"is_disabled":false,"rental_uris":{"android":"levelo://app?vid=b7507c69-0bc0-4e9e-9023-7bda0a81f93b","ios":"levelo://app?vid=b7507c69-0bc0-4e9e-9023-7bda0a81f93b"},"vehicle_type_id":"4","last_reported":1728547956,"current_range_meters":39200,"station_id":"ce4bgs12rcd13ifvqcag","pricing_plan_id":"cebpf4jnsgd1na2vs0mg"},{"bike_id":"cffa0fb1-252e-49d0-9a3c-70e95ff36166","system_id":"levelo_inurba_marseille","lat":43.2695,"lon":5.38643,"is_reserved":false,"is_disabled":false,"rental_uris":{"android":"levelo://app?vid=cffa0fb1-252e-49d0-9a3c-70e95ff36166","ios":"levelo://app?vid=cffa0fb1-252e-49d0-9a3c-70e95ff36166"},"vehicle_type_id":"4","last_reported":1728547956,"current_range_meters":35600,"station_id":"ce4bhh92rcd13ifvqfh0","pricing_plan_id":"cebpf4jnsgd1na2vs0mg"},{"bike_id":"1bb4a8a6-9a90-43cd-b7b1-a1e3190ef8b1","system_id":"levelo_inurba_marseille","lat":43.27206,"lon":5.39182,"is_reserved":false,"is_disabled":false,"rental_uris":{"android":"levelo://app?vid=1bb4a8a6-9a90-43cd-b7b1-a1e3190ef8b1","ios":"levelo://app?vid=1bb4a8a6-9a90-43cd-b7b1-a1e3190ef8b1"},"vehicle_type_id":"4","last_reported":1728547956,"current_range_meters":31200,"station_id":"ce4bhhp2rcd13ifvqfm0","pricing_plan_id":"cebpf4jnsgd1na2vs0mg"},{"bike_id":"101d89f9-c6c1-46de-b9db-b649498f27b4","system_id":"levelo_inurba_marseille","lat":43.32538,"lon":5.41442,"is_reserved":false,"is_disabled":false,"rental_uris":{"android":"levelo://app?vid=101d89f9-c6c1-46de-b9db-b649498f27b4","ios":"levelo://app?vid=101d89f9-c6c1-46de-b9db-b649498f27b4"},"vehicle_type_id":"4","last_reported":1728547956,"current_range_meters":8400,"station_id":"ce4bhq12rcd13ifvqhhg","pricing_plan_id":"cebpf4jnsgd1na2vs0mg"},{"bike_id":"2348793f-edf1-49f6-bcb5-daf10bb68402","system_id":"levelo_inurba_marseille","lat":43.30547,"lon":5.36551,"is_reserved":false,"is_disabled":false,"rental_uris":{"android":"levelo://app?vid=2348793f-edf1-49f6-bcb5-daf10bb68402","ios":"levelo://app?vid=2348793f-edf1-49f6-bcb5-daf10bb68402"},"vehicle_type_id":"4","last_reported":1728547956,"current_range_meters":28800,"station_id":"ce4bgs12rcd13ifvqcag","pricing_plan_id":"cebpf4jnsgd1na2vs0mg"},{"bike_id":"a7191991-b1dc-4438-b124-46329d055039","system_id":"levelo_inurba_marseille","lat":43.27497,"lon":5.4245,"is_reserved":false,"is_disabled":false,"rental_uris":{"android":"levelo://app?vid=a7191991-b1dc-4438-b124-46329d055039","ios":"levelo://app?vid=a7191991-b1dc-4438-b124-46329d055039"},"vehicle_type_id":"4","last_reported":1728547956,"current_range_meters":22800,"station_id":"ce4bhn92rcd13ifvqgrg","pricing_plan_id":"cebpf4jnsgd1na2vs0mg"},{"bike_id":"b23acee4-5720-4575-91af-11c4e23edb2d","system_id":"levelo_inurba_marseille","lat":43.337444,"lon":5.374475,"is_reserved":false,"is_disabled":false,"rental_uris":{"android":"levelo://app?vid=b23acee4-5720-4575-91af-11c4e23edb2d","ios":"levelo://app?vid=b23acee4-5720-4575-91af-11c4e23edb2d"},"vehicle_type_id":"4","last_reported":1728547956,"current_range_meters":38800,"station_id":"ce4bhbh2rcd13ifvqepg","pricing_plan_id":"cebpf4jnsgd1na2vs0mg"},{"bike_id":"796930d2-49b5-4d90-9741-617e85c90984","system_id":"levelo_inurba_marseille","lat":43.31364,"lon":5.36692,"is_reserved":false,"is_disabled":false,"rental_uris":{"android":"levelo://app?vid=796930d2-49b5-4d90-9741-617e85c90984","ios":"levelo://app?vid=796930d2-49b5-4d90-9741-617e85c90984"},"vehicle_type_id":"4","last_reported":1728547956,"current_range_meters":39200,"station_id":"ce4bgr92rcd13ifvqc6g","pricing_plan_id":"cebpf4jnsgd1na2vs0mg"},{"bike_id":"09660993-55da-4221-bfc3-99ae9eebefed","system_id":"levelo_inurba_marseille","lat":43.26787,"lon":5.3942,"is_reserved":false,"is_disabled":false,"rental_uris":{"android":"levelo://app?vid=09660993-55da-4221-bfc3-99ae9eebefed","ios":"levelo://app?vid=09660993-55da-4221-bfc3-99ae9eebefed"},"vehicle_type_id":"4","last_reported":1728547956,"current_range_meters":20400,"station_id":"ce4bhh12rcd13ifvqfg0","pricing_plan_id":"cebpf4jnsgd1na2vs0mg"},{"bike_id":"1ff91736-0ff3-4380-8ef2-34e5221bceee","system_id":"levelo_inurba_marseille","lat":43.337444,"lon":5.374475,"is_reserved":false,"is_disabled":false,"rental_uris":{"android":"levelo://app?vid=1ff91736-0ff3-4380-8ef2-34e5221bceee","ios":"levelo://app?vid=1ff91736-0ff3-4380-8ef2-34e5221bceee"},"vehicle_type_id":"4","last_reported":1728547956,"current_range_meters":35200,"station_id":"","pricing_plan_id":"cebpf4jnsgd1na2vs0mg"},{"bike_id":"62f352ec-e233-4d7f-8753-6a5615214777","system_id":"levelo_inurba_marseille","lat":43.32287,"lon":5.38275,"is_reserved":false,"is_disabled":false,"rental_uris":{"android":"levelo://app?vid=62f352ec-e233-4d7f-8753-6a5615214777","ios":"levelo://app?vid=62f352ec-e233-4d7f-8753-6a5615214777"},"vehicle_type_id":"4","last_reported":1728547956,"current_range_meters":39200,"station_id":"ce4bhr12rcd13ifvqhqg","pricing_plan_id":"cebpf4jnsgd1na2vs0mg"},{"bike_id":"9f0b3c45-77b4-410d-9198-8d5b64a2df07","system_id":"levelo_inurba_marseille","lat":43.24806,"lon":5.37456,"is_reserved":false,"is_disabled":false,"rental_uris":{"android":"levelo://app?vid=9f0b3c45-77b4-410d-9198-8d5b64a2df07","ios":"levelo://app?vid=9f0b3c45-77b4-410d-9198-8d5b64a2df07"},"vehicle_type_id":"4","last_reported":1728547956,"current_range_meters":23200,"station_id":"ce4bhgh2rcd13ifvqfb0","pricing_plan_id":"cebpf4jnsgd1na2vs0mg"},{"bike_id":"33b3bc64-4d11-4b4c-9ea9-f42d8b0bfa58","system_id":"levelo_inurba_marseille","lat":43.31221,"lon":5.36892,"is_reserved":false,"is_disabled":false,"rental_uris":{"android":"levelo://app?vid=33b3bc64-4d11-4b4c-9ea9-f42d8b0bfa58","ios":"levelo://app?vid=33b3bc64-4d11-4b4c-9ea9-f42d8b0bfa58"},"vehicle_type_id":"4","last_reported":1728547956,"current_range_meters":39200,"station_id":"ce4bgl92rcd13ifvqbq0","pricing_plan_id":"cebpf4jnsgd1na2vs0mg"},{"bike_id":"12d1d2bb-b450-4872-8802-22077b3d08c3","system_id":"levelo_inurba_marseille","lat":43.337444,"lon":5.374475,"is_reserved":false,"is_disabled":false,"rental_uris":{"android":"levelo://app?vid=12d1d2bb-b450-4872-8802-22077b3d08c3","ios":"levelo://app?vid=12d1d2bb-b450-4872-8802-22077b3d08c3"},"vehicle_type_id":"4","last_reported":1728547956,"current_range_meters":38800,"station_id":"","pricing_plan_id":"cebpf4jnsgd1na2vs0mg"},{"bike_id":"d04835cf-1083-46e3-aa5a-85b4902b74ab","system_id":"levelo_inurba_marseille","lat":43.2969,"lon":5.37314,"is_reserved":false,"is_disabled":false,"rental_uris":{"android":"levelo://app?vid=d04835cf-1083-46e3-aa5a-85b4902b74ab","ios":"levelo://app?vid=d04835cf-1083-46e3-aa5a-85b4902b74ab"},"vehicle_type_id":"4","last_reported":1728547956,"current_range_meters":14800,"station_id":"ce4bgk12rcd13ifvqbj0","pricing_plan_id":"cebpf4jnsgd1na2vs0mg"},{"bike_id":"033e3983-eccc-4920-a19e-04422bbd4a75","system_id":"levelo_inurba_marseille","lat":43.3028,"lon":5.37699,"is_reserved":false,"is_disabled":false,"rental_uris":{"android":"levelo://app?vid=033e3983-eccc-4920-a19e-04422bbd4a75","ios":"levelo://app?vid=033e3983-eccc-4920-a19e-04422bbd4a75"},"vehicle_type_id":"4","last_reported":1728547956,"current_range_meters":34000,"station_id":"ce4bguh2rcd13ifvqcj0","pricing_plan_id":"cebpf4jnsgd1na2vs0mg"},{"bike_id":"4ccb046f-2614-4044-8238-6e23561f19a6","system_id":"levelo_inurba_marseille","lat":43.337444,"lon":5.374475,"is_reserved":false,"is_disabled":false,"rental_uris":{"android":"levelo://app?vid=4ccb046f-2614-4044-8238-6e23561f19a6","ios":"levelo://app?vid=4ccb046f-2614-4044-8238-6e23561f19a6"},"vehicle_type_id":"4","last_reported":1728547956,"current_range_meters":20800,"station_id":"ce4bgrh2rcd13ifvqc8g","pricing_plan_id":"cebpf4jnsgd1na2vs0mg"},{"bike_id":"c4500bb5-8905-4b53-bafc-a0882ba39d10","system_id":"levelo_inurba_marseille","lat":43.2594,"lon":5.40911,"is_reserved":false,"is_disabled":false,"rental_uris":{"android":"levelo://app?vid=c4500bb5-8905-4b53-bafc-a0882ba39d10","ios":"levelo://app?vid=c4500bb5-8905-4b53-bafc-a0882ba39d10"},"vehicle_type_id":"4","last_reported":1728547956,"current_range_meters":32800,"station_id":"ce4bhm92rcd13ifvqglg","pricing_plan_id":"cebpf4jnsgd1na2vs0mg"},{"bike_id":"9f1177c7-a3fb-4375-a1e9-7e5cd946940a","system_id":"levelo_inurba_marseille","lat":43.29414,"lon":5.38628,"is_reserved":false,"is_disabled":false,"rental_uris":{"android":"levelo://app?vid=9f1177c7-a3fb-4375-a1e9-7e5cd946940a","ios":"levelo://app?vid=9f1177c7-a3fb-4375-a1e9-7e5cd946940a"},"vehicle_type_id":"4","last_reported":1728547956,"current_range_meters":3200,"station_id":"ce4bh2h2rcd13ifvqdh0","pricing_plan_id":"cebpf4jnsgd1na2vs0mg"},{"bike_id":"eb0e05a1-bf38-4016-9a80-8ab66311f4fb","system_id":"levelo_inurba_marseille","lat":43.30461,"lon":5.37902,"is_reserved":false,"is_disabled":false,"rental_uris":{"android":"levelo://app?vid=eb0e05a1-bf38-4016-9a80-8ab66311f4fb","ios":"levelo://app?vid=eb0e05a1-bf38-4016-9a80-8ab66311f4fb"},"vehicle_type_id":"4","last_reported":1728547956,"current_range_meters":32800,"station_id":"ce4bgup2rcd13ifvqcn0","pricing_plan_id":"cebpf4jnsgd1na2vs0mg"},{"bike_id":"9ec2e3a7-901e-4bba-b293-ac8ab8c8b7be","system_id":"levelo_inurba_marseille","lat":43.24074,"lon":5.37759,"is_reserved":false,"is_disabled":false,"rental_uris":{"android":"levelo://app?vid=9ec2e3a7-901e-4bba-b293-ac8ab8c8b7be","ios":"levelo://app?vid=9ec2e3a7-901e-4bba-b293-ac8ab8c8b7be"},"vehicle_type_id":"4","last_reported":1728547956,"current_range_meters":14400,"station_id":"ce4bhnp2rcd13ifvqgvg","pricing_plan_id":"cebpf4jnsgd1na2vs0mg"},{"bike_id":"ca816f8a-b6cf-4882-b10a-b1fb99b86dc4","system_id":"levelo_inurba_marseille","lat":43.27497,"lon":5.42451,"is_reserved":false,"is_disabled":false,"rental_uris":{"android":"levelo://app?vid=ca816f8a-b6cf-4882-b10a-b1fb99b86dc4","ios":"levelo://app?vid=ca816f8a-b6cf-4882-b10a-b1fb99b86dc4"},"vehicle_type_id":"4","last_reported":1728547956,"current_range_meters":24000,"station_id":"ce4bhn92rcd13ifvqgrg","pricing_plan_id":"cebpf4jnsgd1na2vs0mg"},{"bike_id":"2dc1d4f2-bffe-419c-b07d-2f2347a2e109","system_id":"levelo_inurba_marseille","lat":43.23157,"lon":5.43704,"is_reserved":false,"is_disabled":false,"rental_uris":{"android":"levelo://app?vid=2dc1d4f2-bffe-419c-b07d-2f2347a2e109","ios":"levelo://app?vid=2dc1d4f2-bffe-419c-b07d-2f2347a2e109"},"vehicle_type_id":"4","last_reported":1728547956,"current_range_meters":19600,"station_id":"ce4bhmp2rcd13ifvqgog","pricing_plan_id":"cebpf4jnsgd1na2vs0mg"},{"bike_id":"28f14564-5a47-4bc5-a509-d99bcaace2f7","system_id":"levelo_inurba_marseille","lat":43.23157,"lon":5.43704,"is_reserved":false,"is_disabled":false,"rental_uris":{"android":"levelo://app?vid=28f14564-5a47-4bc5-a509-d99bcaace2f7","ios":"levelo://app?vid=28f14564-5a47-4bc5-a509-d99bcaace2f7"},"vehicle_type_id":"4","last_reported":1728547956,"current_range_meters":11600,"station_id":"ce4bhmp2rcd13ifvqgog","pricing_plan_id":"cebpf4jnsgd1na2vs0mg"},{"bike_id":"9aaede26-4871-45ba-87a2-fda46f425284","system_id":"levelo_inurba_marseille","lat":43.3054,"lon":5.3654,"is_reserved":false,"is_disabled":false,"rental_uris":{"android":"levelo://app?vid=9aaede26-4871-45ba-87a2-fda46f425284","ios":"levelo://app?vid=9aaede26-4871-45ba-87a2-fda46f425284"},"vehicle_type_id":"4","last_reported":1728547956,"current_range_meters":2800,"station_id":"ce4bgs12rcd13ifvqcag","pricing_plan_id":"cebpf4jnsgd1na2vs0mg"},{"bike_id":"651eb07f-27a8-44af-962d-d8fd68bde4bd","system_id":"levelo_inurba_marseille","lat":43.29583,"lon":5.36751,"is_reserved":false,"is_disabled":false,"rental_uris":{"android":"levelo://app?vid=651eb07f-27a8-44af-962d-d8fd68bde4bd","ios":"levelo://app?vid=651eb07f-27a8-44af-962d-d8fd68bde4bd"},"vehicle_type_id":"4","last_reported":1728547956,"current_range_meters":36400,"station_id":"ce4bgph2rcd13ifvqc2g","pricing_plan_id":"cebpf4jnsgd1na2vs0mg"},{"bike_id":"316417d7-2221-40e2-9b9c-5340a2611b67","system_id":"levelo_inurba_marseille","lat":43.3014,"lon":5.37419,"is_reserved":false,"is_disabled":false,"rental_uris":{"android":"levelo://app?vid=316417d7-2221-40e2-9b9c-5340a2611b67","ios":"levelo://app?vid=316417d7-2221-40e2-9b9c-5340a2611b67"},"vehicle_type_id":"4","last_reported":1728547956,"current_range_meters":30400,"station_id":"ce4bgs92rcd13ifvqcc0","pricing_plan_id":"cebpf4jnsgd1na2vs0mg"},{"bike_id":"7e084ca4-4bd7-4110-8fc4-450f25741239","system_id":"levelo_inurba_marseille","lat":43.28433,"lon":5.34988,"is_reserved":false,"is_disabled":false,"rental_uris":{"android":"levelo://app?vid=7e084ca4-4bd7-4110-8fc4-450f25741239","ios":"levelo://app?vid=7e084ca4-4bd7-4110-8fc4-450f25741239"},"vehicle_type_id":"4","last_reported":1728547956,"current_range_meters":36400,"station_id":"ce4bhbh2rcd13ifvqepg","pricing_plan_id":"cebpf4jnsgd1na2vs0mg"},{"bike_id":"f9140b0e-1885-4add-b6d4-9f8709588af9","system_id":"levelo_inurba_marseille","lat":43.30191,"lon":5.36634,"is_reserved":false,"is_disabled":false,"rental_uris":{"android":"levelo://app?vid=f9140b0e-1885-4add-b6d4-9f8709588af9","ios":"levelo://app?vid=f9140b0e-1885-4add-b6d4-9f8709588af9"},"vehicle_type_id":"4","last_reported":1728547956,"current_range_meters":25600,"station_id":"ce4bgrh2rcd13ifvqc8g","pricing_plan_id":"cebpf4jnsgd1na2vs0mg"},{"bike_id":"8ae8bbf4-7502-4e26-9a9b-508af29fc57f","system_id":"levelo_inurba_marseille","lat":43.30159,"lon":5.3808,"is_reserved":false,"is_disabled":false,"rental_uris":{"android":"levelo://app?vid=8ae8bbf4-7502-4e26-9a9b-508af29fc57f","ios":"levelo://app?vid=8ae8bbf4-7502-4e26-9a9b-508af29fc57f"},"vehicle_type_id":"4","last_reported":1728547956,"current_range_meters":29600,"station_id":"ce4bgjp2rcd13ifvqbh0","pricing_plan_id":"cebpf4jnsgd1na2vs0mg"},{"bike_id":"a4d9193f-992e-4cd0-8a97-afb4e0659ba3","system_id":"levelo_inurba_marseille","lat":43.32656,"lon":5.40989,"is_reserved":false,"is_disabled":false,"rental_uris":{"android":"levelo://app?vid=a4d9193f-992e-4cd0-8a97-afb4e0659ba3","ios":"levelo://app?vid=a4d9193f-992e-4cd0-8a97-afb4e0659ba3"},"vehicle_type_id":"4","last_reported":1728547956,"current_range_meters":40000,"station_id":"ce4bhpp2rcd13ifvqhgg","pricing_plan_id":"cebpf4jnsgd1na2vs0mg"},{"bike_id":"94e21a69-ba2b-4e5b-a9e4-7687309b5a29","system_id":"levelo_inurba_marseille","lat":43.24074,"lon":5.37761,"is_reserved":false,"is_disabled":false,"rental_uris":{"android":"levelo://app?vid=94e21a69-ba2b-4e5b-a9e4-7687309b5a29","ios":"levelo://app?vid=94e21a69-ba2b-4e5b-a9e4-7687309b5a29"},"vehicle_type_id":"4","last_reported":1728547956,"current_range_meters":38800,"station_id":"ce4bhnp2rcd13ifvqgvg","pricing_plan_id":"cebpf4jnsgd1na2vs0mg"},{"bike_id":"dc569d61-91e8-4004-b3f3-c501f498504a","system_id":"levelo_inurba_marseille","lat":43.23154,"lon":5.43716,"is_reserved":false,"is_disabled":false,"rental_uris":{"android":"levelo://app?vid=dc569d61-91e8-4004-b3f3-c501f498504a","ios":"levelo://app?vid=dc569d61-91e8-4004-b3f3-c501f498504a"},"vehicle_type_id":"4","last_reported":1728547956,"current_range_meters":20000,"station_id":"ce4bhmp2rcd13ifvqgog","pricing_plan_id":"cebpf4jnsgd1na2vs0mg"},{"bike_id":"977d9e0e-fa68-4eae-9557-565a02e21571","system_id":"levelo_inurba_marseille","lat":43.30552,"lon":5.36548,"is_reserved":false,"is_disabled":false,"rental_uris":{"android":"levelo://app?vid=977d9e0e-fa68-4eae-9557-565a02e21571","ios":"levelo://app?vid=977d9e0e-fa68-4eae-9557-565a02e21571"},"vehicle_type_id":"4","last_reported":1728547956,"current_range_meters":25600,"station_id":"ce4bgs12rcd13ifvqcag","pricing_plan_id":"cebpf4jnsgd1na2vs0mg"},{"bike_id":"99d66301-10cb-48d7-8f69-dbf04f54b39e","system_id":"levelo_inurba_marseille","lat":43.23065,"lon":5.35493,"is_reserved":false,"is_disabled":false,"rental_uris":{"android":"levelo://app?vid=99d66301-10cb-48d7-8f69-dbf04f54b39e","ios":"levelo://app?vid=99d66301-10cb-48d7-8f69-dbf04f54b39e"},"vehicle_type_id":"4","last_reported":1728547956,"current_range_meters":26000,"station_id":"cpo3342slgdg3j2ifvpg","pricing_plan_id":"cebpf4jnsgd1na2vs0mg"},{"bike_id":"69019cd8-e500-4221-a983-0fbacaa37828","system_id":"levelo_inurba_marseille","lat":43.27489,"lon":5.42458,"is_reserved":false,"is_disabled":false,"rental_uris":{"android":"levelo://app?vid=69019cd8-e500-4221-a983-0fbacaa37828","ios":"levelo://app?vid=69019cd8-e500-4221-a983-0fbacaa37828"},"vehicle_type_id":"4","last_reported":1728547956,"current_range_meters":38800,"station_id":"ce4bhn92rcd13ifvqgrg","pricing_plan_id":"cebpf4jnsgd1na2vs0mg"},{"bike_id":"66f49b7b-9c9e-44d7-bf46-af58424a6566","system_id":"levelo_inurba_marseille","lat":43.32535,"lon":5.41428,"is_reserved":false,"is_disabled":false,"rental_uris":{"android":"levelo://app?vid=66f49b7b-9c9e-44d7-bf46-af58424a6566","ios":"levelo://app?vid=66f49b7b-9c9e-44d7-bf46-af58424a6566"},"vehicle_type_id":"4","last_reported":1728547956,"current_range_meters":25600,"station_id":"ce4bhq12rcd13ifvqhhg","pricing_plan_id":"cebpf4jnsgd1na2vs0mg"},{"bike_id":"2aadf3e3-6b26-4f4b-9fa4-da62a879bb2d","system_id":"levelo_inurba_marseille","lat":43.30141,"lon":5.37405,"is_reserved":false,"is_disabled":false,"rental_uris":{"android":"levelo://app?vid=2aadf3e3-6b26-4f4b-9fa4-da62a879bb2d","ios":"levelo://app?vid=2aadf3e3-6b26-4f4b-9fa4-da62a879bb2d"},"vehicle_type_id":"4","last_reported":1728547956,"current_range_meters":19600,"station_id":"ce4bgs92rcd13ifvqcc0","pricing_plan_id":"cebpf4jnsgd1na2vs0mg"},{"bike_id":"a9791209-a902-4c51-a677-a20ef860c053","system_id":"levelo_inurba_marseille","lat":43.25581,"lon":5.38231,"is_reserved":false,"is_disabled":false,"rental_uris":{"android":"levelo://app?vid=a9791209-a902-4c51-a677-a20ef860c053","ios":"levelo://app?vid=a9791209-a902-4c51-a677-a20ef860c053"},"vehicle_type_id":"4","last_reported":1728547956,"current_range_meters":5600,"station_id":"ce4bhih2rcd13ifvqfs0","pricing_plan_id":"cebpf4jnsgd1na2vs0mg"},{"bike_id":"33ab7486-5600-4200-a0fc-29b967fcfc79","system_id":"levelo_inurba_marseille","lat":43.32474,"lon":5.36563,"is_reserved":false,"is_disabled":false,"rental_uris":{"android":"levelo://app?vid=33ab7486-5600-4200-a0fc-29b967fcfc79","ios":"levelo://app?vid=33ab7486-5600-4200-a0fc-29b967fcfc79"},"vehicle_type_id":"4","last_reported":1728547956,"current_range_meters":11600,"station_id":"ce4bhs12rcd13ifvqhvg","pricing_plan_id":"cebpf4jnsgd1na2vs0mg"},{"bike_id":"0ffbdbd8-5971-4b7e-9c40-3f2a96416cf9","system_id":"levelo_inurba_marseille","lat":43.31215,"lon":5.36861,"is_reserved":false,"is_disabled":false,"rental_uris":{"android":"levelo://app?vid=0ffbdbd8-5971-4b7e-9c40-3f2a96416cf9","ios":"levelo://app?vid=0ffbdbd8-5971-4b7e-9c40-3f2a96416cf9"},"vehicle_type_id":"4","last_reported":1728547956,"current_range_meters":37600,"station_id":"ce4bgl92rcd13ifvqbq0","pricing_plan_id":"cebpf4jnsgd1na2vs0mg"},{"bike_id":"4b2f4fea-06b2-477f-9883-12a546ad6d80","system_id":"levelo_inurba_marseille","lat":43.33605,"lon":5.41035,"is_reserved":false,"is_disabled":false,"rental_uris":{"android":"levelo://app?vid=4b2f4fea-06b2-477f-9883-12a546ad6d80","ios":"levelo://app?vid=4b2f4fea-06b2-477f-9883-12a546ad6d80"},"vehicle_type_id":"4","last_reported":1728547956,"current_range_meters":30400,"station_id":"ce4bhqh2rcd13ifvqhmg","pricing_plan_id":"cebpf4jnsgd1na2vs0mg"},{"bike_id":"371077f9-d605-40c6-b433-297eebbe146a","system_id":"levelo_inurba_marseille","lat":43.29799,"lon":5.37108,"is_reserved":false,"is_disabled":false,"rental_uris":{"android":"levelo://app?vid=371077f9-d605-40c6-b433-297eebbe146a","ios":"levelo://app?vid=371077f9-d605-40c6-b433-297eebbe146a"},"vehicle_type_id":"4","last_reported":1728547956,"current_range_meters":38800,"station_id":"ce4bgop2rcd13ifvqc1g","pricing_plan_id":"cebpf4jnsgd1na2vs0mg"},{"bike_id":"0d616978-f5e6-49ce-94a5-19c6c56a53ac","system_id":"levelo_inurba_marseille","lat":43.34149,"lon":5.40905,"is_reserved":false,"is_disabled":false,"rental_uris":{"android":"levelo://app?vid=0d616978-f5e6-49ce-94a5-19c6c56a53ac","ios":"levelo://app?vid=0d616978-f5e6-49ce-94a5-19c6c56a53ac"},"vehicle_type_id":"4","last_reported":1728547956,"current_range_meters":8400,"station_id":"ce4bhqh2rcd13ifvqhlg","pricing_plan_id":"cebpf4jnsgd1na2vs0mg"},{"bike_id":"889a05a4-d1d8-42e3-b401-e038dac7e45e","system_id":"levelo_inurba_marseille","lat":43.26575,"lon":5.3906,"is_reserved":false,"is_disabled":false,"rental_uris":{"android":"levelo://app?vid=889a05a4-d1d8-42e3-b401-e038dac7e45e","ios":"levelo://app?vid=889a05a4-d1d8-42e3-b401-e038dac7e45e"},"vehicle_type_id":"4","last_reported":1728547956,"current_range_meters":24400,"station_id":"ce4bhe12rcd13ifvqf30","pricing_plan_id":"cebpf4jnsgd1na2vs0mg"},{"bike_id":"7851dbc0-fe97-4d6c-8383-46784bdbec44","system_id":"levelo_inurba_marseille","lat":43.25001,"lon":5.38921,"is_reserved":false,"is_disabled":false,"rental_uris":{"android":"levelo://app?vid=7851dbc0-fe97-4d6c-8383-46784bdbec44","ios":"levelo://app?vid=7851dbc0-fe97-4d6c-8383-46784bdbec44"},"vehicle_type_id":"4","last_reported":1728547956,"current_range_meters":20800,"station_id":"ce4bhgp2rcd13ifvqfd0","pricing_plan_id":"cebpf4jnsgd1na2vs0mg"},