{"last_updated":1746515452,"ttl":60,"version":"2.2","data":{"bikes":[{"bike_id":"545631c8-05b7-4070-95e3-52dc096addb5","system_id":"levelo_inurba_marseille","lat":43.271931,"lon":5.364802,"is_reserved":false,"is_disabled":true,"rental_uris":{"android":"levelo://app?vid=545631c8-05b7-4070-95e3-52dc096addb5","ios":"levelo://app?vid=545631c8-05b7-4070-95e3-52dc096addb5"},"vehicle_type_id":"4","last_reported":1746515452,"current_range_meters":0,"station_id":"","pricing_plan_id":"cebpf4jnsgd1na2vs0mg"},{"bike_id":"2ea342a2-8fe3-4644-b946-65ffca525a5d","system_id":"levelo_inurba_marseille","lat":43.21749,"lon":5.34614,"is_reserved":false,"is_disabled":true,"rental_uris":{"android":"levelo://app?vid=2ea342a2-8fe3-4644-b946-65ffca525a5d","ios":"levelo://app?vid=2ea342a2-8fe3-4644-b946-65ffca525a5d"},"vehicle_type_id":"4","last_reported":1746515452,"current_range_meters":0,"station_id":"","pricing_plan_id":"cebpf4jnsgd1na2vs0mg"},{"bike_id":"61c97516-ea8f-4344-acdd-44a6ce04c052","system_id":"levelo_inurba_marseille","lat":43.27732,"lon":5.39253,"is_reserved":false,"is_disabled":true,"rental_uris":{"android":"levelo://app?vid=61c97516-ea8f-4344-acdd-44a6ce04c052","ios":"levelo://app?vid=61c97516-ea8f-4344-acdd-44a6ce04c052"},"vehicle_type_id":"4","last_reported":1746515452,"current_range_meters":0,"station_id":"","pricing_plan_id":"cebpf4jnsgd1na2vs0mg"},{"bike_id":"a0ce76ea-4a3e-456b-8981-6ea420463480","system_id":"levelo_inurba_marseille","lat":43.30088,"lon":5.37679,"is_reserved":false,"is_disabled":true,"rental_uris":{"android":"levelo://app?vid=a0ce76ea-4a3e-456b-8981-6ea420463480","ios":"levelo://app?vid=a0ce76ea-4a3e-456b-8981-6ea420463480"},"vehicle_type_id":"4","last_reported":1746515452,"current_range_meters":0,"station_id":"","pricing_plan_id":"cebpf4jnsgd1na2vs0mg"},{"bike_id":"64a99dee-e5f5-406c-bb57-3c1dd0084469","system_id":"levelo_inurba_marseille","lat":43.23667,"lon":5.39143,"is_reserved":false,"is_disabled":true,"rental_uris":{"android":"levelo://app?vid=64a99dee-e5f5-406c-bb57-3c1dd0084469","ios":"levelo://app?vid=64a99dee-e5f5-406c-bb57-3c1dd0084469"},"vehicle_type_id":"4","last_reported":1746515452,"current_range_meters":0,"station_id":"","pricing_plan_id":"cebpf4jnsgd1na2vs0mg"},{"bike_id":"b56eeeb9-9ded-4dd2-9efa-c8d4f8a5e387","system_id":"levelo_inurba_marseille","lat":43.27371,"lon":5.42239,"is_reserved":false,"is_disabled":true,"rental_uris":{"android":"levelo://app?vid=b56eeeb9-9ded-4dd2-9efa-c8d4f8a5e387","ios":"levelo://app?vid=b56eeeb9-9ded-4dd2-9efa-c8d4f8a5e387"},"vehicle_type_id":"4","last_reported":1746515452,"current_range_meters":0,"station_id":"","pricing_plan_id":"cebpf4jnsgd1na2vs0mg"},{"bike_id":"4a2906fd-25b2-4be5-811e-9d84d28e283d","system_id":"levelo_inurba_marseille","lat":43.25394,"lon":5.42404,"is_reserved":false,"is_disabled":true,"rental_uris":{"android":"levelo://app?vid=4a2906fd-25b2-4be5-811e-9d84d28e283d","ios":"levelo://app?vid=4a2906fd-25b2-4be5-811e-9d84d28e283d"},"vehicle_type_id":"4","last_reported":1746515452,"current_range_meters":0,"station_id":"","pricing_plan_id":"cebpf4jnsgd1na2vs0mg"},{"bike_id":"b93bb966-4caf-4e4e-b4b4-957b844af3ea","system_id":"levelo_inurba_marseille","lat":43.29569,"lon":5.37525,"is_reserved":false,"is_disabled":true,"rental_uris":{"android":"levelo://app?vid=b93bb966-4caf-4e4e-b4b4-957b844af3ea","ios":"levelo://app?vid=b93bb966-4caf-4e4e-b4b4-957b844af3ea"},"vehicle_type_id":"4","last_reported":1746515452,"current_range_meters":0,"station_id":"ce4bgh92rcd13ifvqb50","pricing_plan_id":"cebpf4jnsgd1na2vs0mg"},{"bike_id":"019a2dfc-e84a-44fc-ade2-beac31c2b0b1","system_id":"levelo_inurba_marseille","lat":43.31214,"lon":5.36844,"is_reserved":false,"is_disabled":true,"rental_uris":{"android":"levelo://app?vid=019a2dfc-e84a-44fc-ade2-beac31c2b0b1","ios":"levelo://app?vid=019a2dfc-e84a-44fc-ade2-beac31c2b0b1"},"vehicle_type_id":"4","last_reported":1746515452,"current_range_meters":0,"station_id":"ce4bgl92rcd13ifvqbq0","pricing_plan_id":"cebpf4jnsgd1na2vs0mg"},{"bike_id":"b87fcc11-5d9b-4133-b88b-6a899275794f","system_id":"levelo_inurba_marseille","lat":43.337444,"lon":5.374475,"is_reserved":false,"is_disabled":true,"rental_uris":{"android":"levelo://app?vid=b87fcc11-5d9b-4133-b88b-6a899275794f","ios":"levelo://app?vid=b87fcc11-5d9b-4133-b88b-6a899275794f"},"vehicle_type_id":"4","last_reported":1746515452,"current_range_meters":0,"station_id":"ce4bgvp2rcd13ifvqct0","pricing_plan_id":"cebpf4jnsgd1na2vs0mg"},{"bike_id":"5c065312-bc6b-42f7-913f-3b9ae268e076","system_id":"levelo_inurba_marseille","lat":43.30111,"lon":5.39083,"is_reserved":false,"is_disabled":true,"rental_uris":{"android":"levelo://app?vid=5c065312-bc6b-42f7-913f-3b9ae268e076","ios":"levelo://app?vid=5c065312-bc6b-42f7-913f-3b9ae268e076"},"vehicle_type_id":"4","last_reported":1746515452,"current_range_meters":0,"station_id":"ce4bh192rcd13ifvqdb0","pricing_plan_id":"cebpf4jnsgd1na2vs0mg"},{"bike_id":"54930f4f-5050-477f-82ca-3fe85ba5d906","system_id":"levelo_inurba_marseille","lat":43.2668,"lon":5.38264,"is_reserved":false,"is_disabled":true,"rental_uris":{"android":"levelo://app?vid=54930f4f-5050-477f-82ca-3fe85ba5d906","ios":"levelo://app?vid=54930f4f-5050-477f-82ca-3fe85ba5d906"},"vehicle_type_id":"4","last_reported":1746515452,"current_range_meters":0,"station_id":"ce4bhg92rcd13ifvqf90","pricing_plan_id":"cebpf4jnsgd1na2vs0mg"},{"bike_id":"0636273e-14a9-4d9d-9b7e-aeb8b149dccc","system_id":"levelo_inurba_marseille","lat":43.25725,"lon":5.41097,"is_reserved":false,"is_disabled":true,"rental_uris":{"android":"levelo://app?vid=0636273e-14a9-4d9d-9b7e-aeb8b149dccc","ios":"levelo://app?vid=0636273e-14a9-4d9d-9b7e-aeb8b149dccc"},"vehicle_type_id":"4","last_reported":1746515452,"current_range_meters":0,"station_id":"ce4bhkp2rcd13ifvqgd0","pricing_plan_id":"cebpf4jnsgd1na2vs0mg"},{"bike_id":"de665182-5d20-4f12-86b8-f2becad9139b","system_id":"levelo_inurba_marseille","lat":43.32534,"lon":5.4144,"is_reserved":false,"is_disabled":true,"rental_uris":{"android":"levelo://app?vid=de665182-5d20-4f12-86b8-f2becad9139b","ios":"levelo://app?vid=de665182-5d20-4f12-86b8-f2becad9139b"},"vehicle_type_id":"4","last_reported":1746515452,"current_range_meters":0,"station_id":"ce4bhq12rcd13ifvqhhg","pricing_plan_id":"cebpf4jnsgd1na2vs0mg"},{"bike_id":"b2ccdc84-94c3-42d1-a780-adcca95f1f06","system_id":"levelo_inurba_marseille","lat":43.29788,"lon":5.38063,"is_reserved":false,"is_disabled":true,"rental_uris":{"android":"levelo://app?vid=b2ccdc84-94c3-42d1-a780-adcca95f1f06","ios":"levelo://app?vid=b2ccdc84-94c3-42d1-a780-adcca95f1f06"},"vehicle_type_id":"4","last_reported":1746515452,"current_range_meters":400,"station_id":"ce4bgip2rcd13ifvqbb0","pricing_plan_id":"cebpf4jnsgd1na2vs0mg"},{"bike_id":"b1a71060-1e13-4204-a84a-e6c9f8bfe7d6","system_id":"levelo_inurba_marseille","lat":43.30959,"lon":5.39046,"is_reserved":false,"is_disabled":true,"rental_uris":{"android":"levelo://app?vid=b1a71060-1e13-4204-a84a-e6c9f8bfe7d6","ios":"levelo://app?vid=b1a71060-1e13-4204-a84a-e6c9f8bfe7d6"},"vehicle_type_id":"4","last_reported":1746515452,"current_range_meters":800,"station_id":"ce4bgup2rcd13ifvqco0","pricing_plan_id":"cebpf4jnsgd1na2vs0mg"},{"bike_id":"fa830684-e630-4b58-ab4e-4833a8777579","system_id":"levelo_inurba_marseille","lat":43.29171,"lon":5.37159,"is_reserved":false,"is_disabled":true,"rental_uris":{"android":"levelo://app?vid=fa830684-e630-4b58-ab4e-4833a8777579","ios":"levelo://app?vid=fa830684-e630-4b58-ab4e-4833a8777579"},"vehicle_type_id":"4","last_reported":1746515452,"current_range_meters":800,"station_id":"ce4bha92rcd13ifvqeh0","pricing_plan_id":"cebpf4jnsgd1na2vs0mg"},{"bike_id":"1df7e945-6ad3-4e2a-9957-e0c5be554392","system_id":"levelo_inurba_marseille","lat":43.32535,"lon":5.41436,"is_reserved":false,"is_disabled":false,"rental_uris":{"android":"levelo://app?vid=1df7e945-6ad3-4e2a-9957-e0c5be554392","ios":"levelo://app?vid=1df7e945-6ad3-4e2a-9957-e0c5be554392"},"vehicle_type_id":"4","last_reported":1746515452,"current_range_meters":800,"station_id":"ce4bhq12rcd13ifvqhhg","pricing_plan_id":"cebpf4jnsgd1na2vs0mg"},{"bike_id":"c44657ba-ebc4-4b27-a418-b13893cb4ca5","system_id":"levelo_inurba_marseille","lat":43.268386,"lon":5.401776,"is_reserved":false,"is_disabled":true,"rental_uris":{"android":"levelo://app?vid=c44657ba-ebc4-4b27-a418-b13893cb4ca5","ios":"levelo://app?vid=c44657ba-ebc4-4b27-a418-b13893cb4ca5"},"vehicle_type_id":"4","last_reported":1746515452,"current_range_meters":1200,"station_id":"","pricing_plan_id":"cebpf4jnsgd1na2vs0mg"},{"bike_id":"9362fa2b-852e-49bc-9c26-4a77e7566458","system_id":"levelo_inurba_marseille","lat":43.30186,"lon":5.36621,"is_reserved":false,"is_disabled":true,"rental_uris":{"android":"levelo://app?vid=9362fa2b-852e-49bc-9c26-4a77e7566458","ios":"levelo://app?vid=9362fa2b-852e-49bc-9c26-4a77e7566458"},"vehicle_type_id":"4","last_reported":1746515452,"current_range_meters":1200,"station_id":"ce4bgrh2rcd13ifvqc8g","pricing_plan_id":"cebpf4jnsgd1na2vs0mg"},{"bike_id":"0ed89f3e-8cf7-4690-81c8-5e77062fcaba","system_id":"levelo_inurba_marseille","lat":43.30548,"lon":5.36537,"is_reserved":false,"is_disabled":true,"rental_uris":{"android":"levelo://app?vid=0ed89f3e-8cf7-4690-81c8-5e77062fcaba","ios":"levelo://app?vid=0ed89f3e-8cf7-4690-81c8-5e77062fcaba"},"vehicle_type_id":"4","last_reported":1746515452,"current_range_meters":1200,"station_id":"ce4bgs12rcd13ifvqcag","pricing_plan_id":"cebpf4jnsgd1na2vs0mg"},{"bike_id":"184f3951-5c19-4458-b7c1-7a76a4f47f3f","system_id":"levelo_inurba_marseille","lat":43.29013,"lon":5.38121,"is_reserved":false,"is_disabled":true,"rental_uris":{"android":"levelo://app?vid=184f3951-5c19-4458-b7c1-7a76a4f47f3f","ios":"levelo://app?vid=184f3951-5c19-4458-b7c1-7a76a4f47f3f"},"vehicle_type_id":"4","last_reported":1746515452,"current_range_meters":1200,"station_id":"ce4bh4p2rcd13ifvqe1g","pricing_plan_id":"cebpf4jnsgd1na2vs0mg"},{"bike_id":"3f539d62-7d18-4530-bc54-75ff5a5c836b","system_id":"levelo_inurba_marseille","lat":43.25581,"lon":5.38234,"is_reserved":false,"is_disabled":true,"rental_uris":{"android":"levelo://app?vid=3f539d62-7d18-4530-bc54-75ff5a5c836b","ios":"levelo://app?vid=3f539d62-7d18-4530-bc54-75ff5a5c836b"},"vehicle_type_id":"4","last_reported":1746515452,"current_range_meters":1600,"station_id":"ce4bhih2rcd13ifvqfs0","pricing_plan_id":"cebpf4jnsgd1na2vs0mg"},{"bike_id":"1e3195f6-106c-4dd3-8852-0494cfce0d2f","system_id":"levelo_inurba_marseille","lat":43.28608,"lon":5.37074,"is_reserved":false,"is_disabled":true,"rental_uris":{"android":"levelo://app?vid=1e3195f6-106c-4dd3-8852-0494cfce0d2f","ios":"levelo://app?vid=1e3195f6-106c-4dd3-8852-0494cfce0d2f"},"vehicle_type_id":"4","last_reported":1746515452,"current_range_meters":1600,"station_id":"ce4bht12rcd13ifvqi60","pricing_plan_id":"cebpf4jnsgd1na2vs0mg"},{"bike_id":"b3cb62e2-f153-45f8-b24d-920e9f27dae0","system_id":"levelo_inurba_marseille","lat":43.285433,"lon":5.360069,"is_reserved":false,"is_disabled":true,"rental_uris":{"android":"levelo://app?vid=b3cb62e2-f153-45f8-b24d-920e9f27dae0","ios":"levelo://app?vid=b3cb62e2-f153-45f8-b24d-920e9f27dae0"},"vehicle_type_id":"4","last_reported":1746515452,"current_range_meters":2000,"station_id":"","pricing_plan_id":"cebpf4jnsgd1na2vs0mg"},{"bike_id":"59d226f2-5793-4cad-9026-15abc2ffd50e","system_id":"levelo_inurba_marseille","lat":43.301483,"lon":5.380927,"is_reserved":false,"is_disabled":true,"rental_uris":{"android":"levelo://app?vid=59d226f2-5793-4cad-9026-15abc2ffd50e","ios":"levelo://app?vid=59d226f2-5793-4cad-9026-15abc2ffd50e"},"vehicle_type_id":"4","last_reported":1746515452,"current_range_meters":2000,"station_id":"ce4bgjp2rcd13ifvqbh0","pricing_plan_id":"cebpf4jnsgd1na2vs0mg"},{"bike_id":"49925c8e-6ee9-483a-a14b-e6276ff272bc","system_id":"levelo_inurba_marseille","lat":43.30282,"lon":5.37689,"is_reserved":false,"is_disabled":true,"rental_uris":{"android":"levelo://app?vid=49925c8e-6ee9-483a-a14b-e6276ff272bc","ios":"levelo://app?vid=49925c8e-6ee9-483a-a14b-e6276ff272bc"},"vehicle_type_id":"4","last_reported":1746515452,"current_range_meters":2000,"station_id":"ce4bguh2rcd13ifvqcj0","pricing_plan_id":"cebpf4jnsgd1na2vs0mg"},{"bike_id":"8b650b4b-a86e-457e-b15d-648ef302a763","system_id":"levelo_inurba_marseille","lat":43.236927,"lon":5.435982,"is_reserved":false,"is_disabled":false,"rental_uris":{"android":"levelo://app?vid=8b650b4b-a86e-457e-b15d-648ef302a763","ios":"levelo://app?vid=8b650b4b-a86e-457e-b15d-648ef302a763"},"vehicle_type_id":"4","last_reported":1746515452,"current_range_meters":2000,"station_id":"ce4bhmp2rcd13ifvqgog","pricing_plan_id":"cebpf4jnsgd1na2vs0mg"},{"bike_id":"2f51ff5b-9e12-4b6c-9106-9df85a9d5650","system_id":"levelo_inurba_marseille","lat":43.30191,"lon":5.37457,"is_reserved":false,"is_disabled":false,"rental_uris":{"android":"levelo://app?vid=2f51ff5b-9e12-4b6c-9106-9df85a9d5650","ios":"levelo://app?vid=2f51ff5b-9e12-4b6c-9106-9df85a9d5650"},"vehicle_type_id":"4","last_reported":1746515452,"current_range_meters":2800,"station_id":"","pricing_plan_id":"cebpf4jnsgd1na2vs0mg"},{"bike_id":"fdc8a904-d376-4cb8-b596-f17efd4eec89","system_id":"levelo_inurba_marseille","lat":43.26983,"lon":5.38656,"is_reserved":false,"is_disabled":false,"rental_uris":{"android":"levelo://app?vid=fdc8a904-d376-4cb8-b596-f17efd4eec89","ios":"levelo://app?vid=fdc8a904-d376-4cb8-b596-f17efd4eec89"},"vehicle_type_id":"4","last_reported":1746515452,"current_range_meters":2800,"station_id":"ce4bhh92rcd13ifvqfh0","pricing_plan_id":"cebpf4jnsgd1na2vs0mg"},{"bike_id":"28a7781f-0610-4bb2-9937-fefc215a3f19","system_id":"levelo_inurba_marseille","lat":43.23972,"lon":5.36625,"is_reserved":false,"is_disabled":false,"rental_uris":{"android":"levelo://app?vid=28a7781f-0610-4bb2-9937-fefc215a3f19","ios":"levelo://app?vid=28a7781f-0610-4bb2-9937-fefc215a3f19"},"vehicle_type_id":"4","last_reported":1746515452,"current_range_meters":3200,"station_id":"ce4bhi12rcd13ifvqfp0","pricing_plan_id":"cebpf4jnsgd1na2vs0mg"},{"bike_id":"aa54003c-a64b-4f73-b3f0-106988c5653c","system_id":"levelo_inurba_marseille","lat":43.25942,"lon":5.40901,"is_reserved":false,"is_disabled":false,"rental_uris":{"android":"levelo://app?vid=aa54003c-a64b-4f73-b3f0-106988c5653c","ios":"levelo://app?vid=aa54003c-a64b-4f73-b3f0-106988c5653c"},"vehicle_type_id":"4","last_reported":1746515452,"current_range_meters":3200,"station_id":"ce4bhm92rcd13ifvqglg","pricing_plan_id":"cebpf4jnsgd1na2vs0mg"},{"bike_id":"9a05cab4-037f-4f34-b9a3-e6306652d6da","system_id":"levelo_inurba_marseille","lat":43.32001,"lon":5.38164,"is_reserved":false,"is_disabled":false,"rental_uris":{"android":"levelo://app?vid=9a05cab4-037f-4f34-b9a3-e6306652d6da","ios":"levelo://app?vid=9a05cab4-037f-4f34-b9a3-e6306652d6da"},"vehicle_type_id":"4","last_reported":1746515452,"current_range_meters":3200,"station_id":"ce4bhr12rcd13ifvqhpg","pricing_plan_id":"cebpf4jnsgd1na2vs0mg"},{"bike_id":"0cc18a93-3cd5-4f19-aba6-0bfaa97ba972","system_id":"levelo_inurba_marseille","lat":43.293022,"lon":5.371627,"is_reserved":false,"is_disabled":false,"rental_uris":{"android":"levelo://app?vid=0cc18a93-3cd5-4f19-aba6-0bfaa97ba972","ios":"levelo://app?vid=0cc18a93-3cd5-4f19-aba6-0bfaa97ba972"},"vehicle_type_id":"4","last_reported":1746515452,"current_range_meters":4000,"station_id":"ce4bgh92rcd13ifvqb40","pricing_plan_id":"cebpf4jnsgd1na2vs0mg"},{"bike_id":"374912a5-f20a-4c2c-b056-735141c24819","system_id":"levelo_inurba_marseille","lat":43.265658,"lon":5.390085,"is_reserved":false,"is_disabled":false,"rental_uris":{"android":"levelo://app?vid=374912a5-f20a-4c2c-b056-735141c24819","ios":"levelo://app?vid=374912a5-f20a-4c2c-b056-735141c24819"},"vehicle_type_id":"4","last_reported":1746515452,"current_range_meters":4000,"station_id":"ce4bhe12rcd13ifvqf30","pricing_plan_id":"cebpf4jnsgd1na2vs0mg"},{"bike_id":"fa095c72-47e5-4ba0-be58-27e5c962b29a","system_id":"levelo_inurba_marseille","lat":43.27973,"lon":5.38766,"is_reserved":false,"is_disabled":false,"rental_uris":{"android":"levelo://app?vid=fa095c72-47e5-4ba0-be58-27e5c962b29a","ios":"levelo://app?vid=fa095c72-47e5-4ba0-be58-27e5c962b29a"},"vehicle_type_id":"4","last_reported":1746515452,"current_range_meters":4000,"station_id":"ce4bhg12rcd13ifvqf80","pricing_plan_id":"cebpf4jnsgd1na2vs0mg"},{"bike_id":"ac5524cf-3774-47fb-abdc-1fd4e4c072d6","system_id":"levelo_inurba_marseille","lat":43.24996,"lon":5.38927,"is_reserved":false,"is_disabled":false,"rental_uris":{"android":"levelo://app?vid=ac5524cf-3774-47fb-abdc-1fd4e4c072d6","ios":"levelo://app?vid=ac5524cf-3774-47fb-abdc-1fd4e4c072d6"},"vehicle_type_id":"4","last_reported":1746515452,"current_range_meters":4000,"station_id":"ce4bhgp2rcd13ifvqfd0","pricing_plan_id":"cebpf4jnsgd1na2vs0mg"},{"bike_id":"3cf4af24-8e39-41df-9c30-89e271b3c983","system_id":"levelo_inurba_marseille","lat":43.2592,"lon":5.40848,"is_reserved":false,"is_disabled":true,"rental_uris":{"android":"levelo://app?vid=3cf4af24-8e39-41df-9c30-89e271b3c983","ios":"levelo://app?vid=3cf4af24-8e39-41df-9c30-89e271b3c983"},"vehicle_type_id":"4","last_reported":1746515452,"current_range_meters":4000,"station_id":"ce4bhm92rcd13ifvqglg","pricing_plan_id":"cebpf4jnsgd1na2vs0mg"},{"bike_id":"66b646b3-6352-44bb-9bfb-21570512e3e5","system_id":"levelo_inurba_marseille","lat":43.281322,"lon":5.403908,"is_reserved":false,"is_disabled":false,"rental_uris":{"android":"levelo://app?vid=66b646b3-6352-44bb-9bfb-21570512e3e5","ios":"levelo://app?vid=66b646b3-6352-44bb-9bfb-21570512e3e5"},"vehicle_type_id":"4","last_reported":1746515452,"current_range_meters":4400,"station_id":"","pricing_plan_id":"cebpf4jnsgd1na2vs0mg"},{"bike_id":"c7569f25-9bc2-4a7b-94d5-25bad92fcfaa","system_id":"levelo_inurba_marseille","lat":43.27975,"lon":5.38244,"is_reserved":false,"is_disabled":false,"rental_uris":{"android":"levelo://app?vid=c7569f25-9bc2-4a7b-94d5-25bad92fcfaa","ios":"levelo://app?vid=c7569f25-9bc2-4a7b-94d5-25bad92fcfaa"},"vehicle_type_id":"4","last_reported":1746515452,"current_range_meters":4400,"station_id":"","pricing_plan_id":"cebpf4jnsgd1na2vs0mg"},{"bike_id":"d2eafdff-9e5f-460f-bc82-f69fb9716028","system_id":"levelo_inurba_marseille","lat":43.309088,"lon":5.368507,"is_reserved":false,"is_disabled":false,"rental_uris":{"android":"levelo://app?vid=d2eafdff-9e5f-460f-bc82-f69fb9716028","ios":"levelo://app?vid=d2eafdff-9e5f-460f-bc82-f69fb9716028"},"vehicle_type_id":"4","last_reported":1746515452,"current_range_meters":4400,"station_id":"ce4bgn92rcd13ifvqbvg","pricing_plan_id":"cebpf4jnsgd1na2vs0mg"},{"bike_id":"f4058794-639c-4973-ab5d-8009a25ee731","system_id":"levelo_inurba_marseille","lat":43.23962,"lon":5.36631,"is_reserved":false,"is_disabled":false,"rental_uris":{"android":"levelo://app?vid=f4058794-639c-4973-ab5d-8009a25ee731","ios":"levelo://app?vid=f4058794-639c-4973-ab5d-8009a25ee731"},"vehicle_type_id":"4","last_reported":1746515452,"current_range_meters":4400,"station_id":"ce4bhi12rcd13ifvqfp0","pricing_plan_id":"cebpf4jnsgd1na2vs0mg"},{"bike_id":"c5b974b0-2573-4675-b2f0-06bb14393f3f","system_id":"levelo_inurba_marseille","lat":43.24808,"lon":5.3746,"is_reserved":false,"is_disabled":false,"rental_uris":{"android":"levelo://app?vid=c5b974b0-2573-4675-b2f0-06bb14393f3f","ios":"levelo://app?vid=c5b974b0-2573-4675-b2f0-06bb14393f3f"},"vehicle_type_id":"4","last_reported":1746515452,"current_range_meters":4800,"station_id":"ce4bhgh2rcd13ifvqfb0","pricing_plan_id":"cebpf4jnsgd1na2vs0mg"},{"bike_id":"3dded959-6d15-4d4d-bba1-b9d88e328527","system_id":"levelo_inurba_marseille","lat":43.24083,"lon":5.37749,"is_reserved":false,"is_disabled":false,"rental_uris":{"android":"levelo://app?vid=3dded959-6d15-4d4d-bba1-b9d88e328527","ios":"levelo://app?vid=3dded959-6d15-4d4d-bba1-b9d88e328527"},"vehicle_type_id":"4","last_reported":1746515452,"current_range_meters":4800,"station_id":"ce4bhnp2rcd13ifvqgvg","pricing_plan_id":"cebpf4jnsgd1na2vs0mg"},{"bike_id":"2d2b37b0-f4da-4c08-a960-b846da9ab8f7","system_id":"levelo_inurba_marseille","lat":43.25868,"lon":5.39898,"is_reserved":false,"is_disabled":false,"rental_uris":{"android":"levelo://app?vid=2d2b37b0-f4da-4c08-a960-b846da9ab8f7","ios":"levelo://app?vid=2d2b37b0-f4da-4c08-a960-b846da9ab8f7"},"vehicle_type_id":"4","last_reported":1746515452,"current_range_meters":5600,"station_id":"ce4bhl92rcd13ifvqghg","pricing_plan_id":"cebpf4jnsgd1na2vs0mg"},{"bike_id":"903ace5d-b1d6-4b6c-9fdc-25cc75342bd1","system_id":"levelo_inurba_marseille","lat":43.26557,"lon":5.39022,"is_reserved":false,"is_disabled":false,"rental_uris":{"android":"levelo://app?vid=903ace5d-b1d6-4b6c-9fdc-25cc75342bd1","ios":"levelo://app?vid=903ace5d-b1d6-4b6c-9fdc-25cc75342bd1"},"vehicle_type_id":"4","last_reported":1746515452,"current_range_meters":6000,"station_id":"ce4bhe12rcd13ifvqf30","pricing_plan_id":"cebpf4jnsgd1na2vs0mg"},{"bike_id":"f5e9f19f-4693-4c4f-8800-dff6a007f0a7","system_id":"levelo_inurba_marseille","lat":43.26552,"lon":5.37287,"is_reserved":false,"is_disabled":false,"rental_uris":{"android":"levelo://app?vid=f5e9f19f-4693-4c4f-8800-dff6a007f0a7","ios":"levelo://app?vid=f5e9f19f-4693-4c4f-8800-dff6a007f0a7"},"vehicle_type_id":"4","last_reported":1746515452,"current_range_meters":6000,"station_id":"ce4bhg12rcd13ifvqf70","pricing_plan_id":"cebpf4jnsgd1na2vs0mg"},{"bike_id":"311b77b1-1f1d-4b7c-8542-0b1e57434449","system_id":"levelo_inurba_marseille","lat":43.26059,"lon":5.39398,"is_reserved":false,"is_disabled":false,"rental_uris":{"android":"levelo://app?vid=311b77b1-1f1d-4b7c-8542-0b1e57434449","ios":"levelo://app?vid=311b77b1-1f1d-4b7c-8542-0b1e57434449"},"vehicle_type_id":"4","last_reported":1746515452,"current_range_meters":6000,"station_id":"ce4bhh92rcd13ifvqfj0","pricing_plan_id":"cebpf4jnsgd1na2vs0mg"},{"bike_id":"0a1d70bf-5e9d-436b-9fc7-bc3691419a38","system_id":"levelo_inurba_marseille","lat":43.26056,"lon":5.39396,"is_reserved":false,"is_disabled":false,"rental_uris":{"android":"levelo://app?vid=0a1d70bf-5e9d-436b-9fc7-bc3691419a38","ios":"levelo://app?vid=0a1d70bf-5e9d-436b-9fc7-bc3691419a38"},"vehicle_type_id":"4","last_reported":1746515452,"current_range_meters":6000,"station_id":"ce4bhh92rcd13ifvqfj0","pricing_plan_id":"cebpf4jnsgd1na2vs0mg"},{"bike_id":"10d563a4-424a-4a44-88bc-065a04b5247a","system_id":"levelo_inurba_marseille","lat":43.21753,"lon":5.34616,"is_reserved":false,"is_disabled":false,"rental_uris":{"android":"levelo://app?vid=10d563a4-424a-4a44-88bc-065a04b5247a","ios":"levelo://app?vid=10d563a4-424a-4a44-88bc-065a04b5247a"},"vehicle_type_id":"4","last_reported":1746515452,"current_range_meters":6400,"station_id":"","pricing_plan_id":"cebpf4jnsgd1na2vs0mg"},{"bike_id":"b7968d56-e97a-400e-995e-caaf686d2dbd","system_id":"levelo_inurba_marseille","lat":43.31358,"lon":5.36703,"is_reserved":false,"is_disabled":false,"rental_uris":{"android":"levelo://app?vid=b7968d56-e97a-400e-995e-caaf686d2dbd","ios":"levelo://app?vid=b7968d56-e97a-400e-995e-caaf686d2dbd"},"vehicle_type_id":"4","last_reported":1746515452,"current_range_meters":6400,"station_id":"ce4bgr92rcd13ifvqc6g","pricing_plan_id":"cebpf4jnsgd1na2vs0mg"},{"bike_id":"ae8e8b78-83ca-4d36-99e9-df9b174a78f4","system_id":"levelo_inurba_marseille","lat":43.2397,"lon":5.36623,"is_reserved":false,"is_disabled":false,"rental_uris":{"android":"levelo://app?vid=ae8e8b78-83ca-4d36-99e9-df9b174a78f4","ios":"levelo://app?vid=ae8e8b78-83ca-4d36-99e9-df9b174a78f4"},"vehicle_type_id":"4","last_reported":1746515452,"current_range_meters":6400,"station_id":"ce4bhi12rcd13ifvqfp0","pricing_plan_id":"cebpf4jnsgd1na2vs0mg"},{"bike_id":"b10d463a-a426-43ed-a83c-2f4d4d9377c9","system_id":"levelo_inurba_marseille","lat":43.275,"lon":5.4247,"is_reserved":false,"is_disabled":false,"rental_uris":{"android":"levelo://app?vid=b10d463a-a426-43ed-a83c-2f4d4d9377c9","ios":"levelo://app?vid=b10d463a-a426-43ed-a83c-2f4d4d9377c9"},"vehicle_type_id":"4","last_reported":1746515452,"current_range_meters":6400,"station_id":"ce4bhn92rcd13ifvqgrg","pricing_plan_id":"cebpf4jnsgd1na2vs0mg"},{"bike_id":"72a4fc26-37c1-4022-b351-1a8bf17f28a6","system_id":"levelo_inurba_marseille","lat":43.27213,"lon":5.39183,"is_reserved":false,"is_disabled":true,"rental_uris":{"android":"levelo://app?vid=72a4fc26-37c1-4022-b351-1a8bf17f28a6","ios":"levelo://app?vid=72a4fc26-37c1-4022-b351-1a8bf17f28a6"},"vehicle_type_id":"4","last_reported":1746515452,"current_range_meters":6800,"station_id":"ce4bhhp2rcd13ifvqfm0","pricing_plan_id":"cebpf4jnsgd1na2vs0mg"},{"bike_id":"fc8a6df0-2d09-49f4-886c-cf04e3f101fe","system_id":"levelo_inurba_marseille","lat":43.24072,"lon":5.37741,"is_reserved":false,"is_disabled":false,"rental_uris":{"android":"levelo://app?vid=fc8a6df0-2d09-49f4-886c-cf04e3f101fe","ios":"levelo://app?vid=fc8a6df0-2d09-49f4-886c-cf04e3f101fe"},"vehicle_type_id":"4","last_reported":1746515452,"current_range_meters":6800,"station_id":"ce4bhnp2rcd13ifvqgvg","pricing_plan_id":"cebpf4jnsgd1na2vs0mg"},{"bike_id":"b28ca501-59d3-4c70-b73f-a6c66989d60b","system_id":"levelo_inurba_marseille","lat":43.24084,"lon":5.37764,"is_reserved":false,"is_disabled":false,"rental_uris":{"android":"levelo://app?vid=b28ca501-59d3-4c70-b73f-a6c66989d60b","ios":"levelo://app?vid=b28ca501-59d3-4c70-b73f-a6c66989d60b"},"vehicle_type_id":"4","last_reported":1746515452,"current_range_meters":6800,"station_id":"ce4bhnp2rcd13ifvqgvg","pricing_plan_id":"cebpf4jnsgd1na2vs0mg"},{"bike_id":"5c7249a3-596f-4101-8dbd-1087a1f3b438","system_id":"levelo_inurba_marseille","lat":43.231921,"lon":5.355678,"is_reserved":false,"is_disabled":false,"rental_uris":{"android":"levelo://app?vid=5c7249a3-596f-4101-8dbd-1087a1f3b438","ios":"levelo://app?vid=5c7249a3-596f-4101-8dbd-1087a1f3b438"},"vehicle_type_id":"4","last_reported":1746515452,"current_range_meters":6800,"station_id":"ce4bhu92rcd13ifvqi70","pricing_plan_id":"cebpf4jnsgd1na2vs0mg"},{"bike_id":"482344f1-460c-48ea-83dd-01b9a385e5cf","system_id":"levelo_inurba_marseille","lat":43.30669,"lon":5.36845,"is_reserved":false,"is_disabled":false,"rental_uris":{"android":"levelo://app?vid=482344f1-460c-48ea-83dd-01b9a385e5cf","ios":"levelo://app?vid=482344f1-460c-48ea-83dd-01b9a385e5cf"},"vehicle_type_id":"4","last_reported":1746515452,"current_range_meters":7200,"station_id":"","pricing_plan_id":"cebpf4jnsgd1na2vs0mg"},{"bike_id":"ac63e74b-4488-48c9-97a3-fa06519df3ef","system_id":"levelo_inurba_marseille","lat":43.31348,"lon":5.36725,"is_reserved":false,"is_disabled":false,"rental_uris":{"android":"levelo://app?vid=ac63e74b-4488-48c9-97a3-fa06519df3ef","ios":"levelo://app?vid=ac63e74b-4488-48c9-97a3-fa06519df3ef"},"vehicle_type_id":"4","last_reported":1746515452,"current_range_meters":7200,"station_id":"ce4bgr92rcd13ifvqc6g","pricing_plan_id":"cebpf4jnsgd1na2vs0mg"},{"bike_id":"5f75a000-5412-4dcc-9930-718ca33b8fe7","system_id":"levelo_inurba_marseille","lat":43.313446,"lon":5.367166,"is_reserved":false,"is_disabled":false,"rental_uris":{"android":"levelo://app?vid=5f75a000-5412-4dcc-9930-718ca33b8fe7","ios":"levelo://app?vid=5f75a000-5412-4dcc-9930-718ca33b8fe7"},"vehicle_type_id":"4","last_reported":1746515452,"current_range_meters":7200,"station_id":"ce4bgr92rcd13ifvqc6g","pricing_plan_id":"cebpf4jnsgd1na2vs0mg"},{"bike_id":"d8b28899-beb2-4fed-90ec-740853b41530","system_id":"levelo_inurba_marseille","lat":43.31342,"lon":5.36711,"is_reserved":false,"is_disabled":false,"rental_uris":{"android":"levelo://app?vid=d8b28899-beb2-4fed-90ec-740853b41530","ios":"levelo://app?vid=d8b28899-beb2-4fed-90ec-740853b41530"},"vehicle_type_id":"4","last_reported":1746515452,"current_range_meters":7200,"station_id":"ce4bgr92rcd13ifvqc6g","pricing_plan_id":"cebpf4jnsgd1na2vs0mg"},{"bike_id":"d25c6673-67e5-4b65-8198-5d086889d72d","system_id":"levelo_inurba_marseille","lat":43.2893,"lon":5.36636,"is_reserved":false,"is_disabled":true,"rental_uris":{"android":"levelo://app?vid=d25c6673-67e5-4b65-8198-5d086889d72d","ios":"levelo://app?vid=d25c6673-67e5-4b65-8198-5d086889d72d"},"vehicle_type_id":"4","last_reported":1746515452,"current_range_meters":7200,"station_id":"ce4bhap2rcd13ifvqek0","pricing_plan_id":"cebpf4jnsgd1na2vs0mg"},{"bike_id":"076f2b90-e566-447f-88a2-b545f052dbc6","system_id":"levelo_inurba_marseille","lat":43.262388,"lon":5.375069,"is_reserved":false,"is_disabled":false,"rental_uris":{"android":"levelo://app?vid=076f2b90-e566-447f-88a2-b545f052dbc6","ios":"levelo://app?vid=076f2b90-e566-447f-88a2-b545f052dbc6"},"vehicle_type_id":"4","last_reported":1746515452,"current_range_meters":7200,"station_id":"ce4bhgp2rcd13ifvqfc0","pricing_plan_id":"cebpf4jnsgd1na2vs0mg"},{"bike_id":"06b43a69-d4fc-4aa6-b6ef-752ac4191840","system_id":"levelo_inurba_marseille","lat":43.2558,"lon":5.38227,"is_reserved":false,"is_disabled":false,"rental_uris":{"android":"levelo://app?vid=06b43a69-d4fc-4aa6-b6ef-752ac4191840","ios":"levelo://app?vid=06b43a69-d4fc-4aa6-b6ef-752ac4191840"},"vehicle_type_id":"4","last_reported":1746515452,"current_range_meters":7200,"station_id":"ce4bhih2rcd13ifvqfs0","pricing_plan_id":"cebpf4jnsgd1na2vs0mg"},{"bike_id":"adf3e33e-9193-4d04-87d1-6a2f1956c5e9","system_id":"levelo_inurba_marseille","lat":43.25935,"lon":5.40912,"is_reserved":false,"is_disabled":false,"rental_uris":{"android":"levelo://app?vid=adf3e33e-9193-4d04-87d1-6a2f1956c5e9","ios":"levelo://app?vid=adf3e33e-9193-4d04-87d1-6a2f1956c5e9"},"vehicle_type_id":"4","last_reported":1746515452,"current_range_meters":7200,"station_id":"ce4bhm92rcd13ifvqglg","pricing_plan_id":"cebpf4jnsgd1na2vs0mg"},{"bike_id":"bddbd722-49d9-4a05-8f8d-623be2448eae","system_id":"levelo_inurba_marseille","lat":43.26225,"lon":5.40448,"is_reserved":false,"is_disabled":false,"rental_uris":{"android":"levelo://app?vid=bddbd722-49d9-4a05-8f8d-623be2448eae","ios":"levelo://app?vid=bddbd722-49d9-4a05-8f8d-623be2448eae"},"vehicle_type_id":"4","last_reported":1746515452,"current_range_meters":7200,"station_id":"ce4bhmh2rcd13ifvqgmg","pricing_plan_id":"cebpf4jnsgd1na2vs0mg"},{"bike_id":"7087eb3c-01a3-4792-ac6a-944b14c9dd3b","system_id":"levelo_inurba_marseille","lat":43.29676,"lon":5.37281,"is_reserved":false,"is_disabled":false,"rental_uris":{"android":"levelo://app?vid=7087eb3c-01a3-4792-ac6a-944b14c9dd3b","ios":"levelo://app?vid=7087eb3c-01a3-4792-ac6a-944b14c9dd3b"},"vehicle_type_id":"4","last_reported":1746515452,"current_range_meters":8000,"station_id":"ce4bgk12rcd13ifvqbj0","pricing_plan_id":"cebpf4jnsgd1na2vs0mg"},{"bike_id":"7a2589c6-a8c1-46f5-a962-7daecd246db4","system_id":"levelo_inurba_marseille","lat":43.31542,"lon":5.3806,"is_reserved":false,"is_disabled":false,"rental_uris":{"android":"levelo://app?vid=7a2589c6-a8c1-46f5-a962-7daecd246db4","ios":"levelo://app?vid=7a2589c6-a8c1-46f5-a962-7daecd246db4"},"vehicle_type_id":"4","last_reported":1746515452,"current_range_meters":8000,"station_id":"ce4bhsp2rcd13ifvqi50","pricing_plan_id":"cebpf4jnsgd1na2vs0mg"},{"bike_id":"b9c78c56-dd12-4b56-8ada-e7001a01221c","system_id":"levelo_inurba_marseille","lat":43.30555,"lon":5.365344,"is_reserved":false,"is_disabled":false,"rental_uris":{"android":"levelo://app?vid=b9c78c56-dd12-4b56-8ada-e7001a01221c","ios":"levelo://app?vid=b9c78c56-dd12-4b56-8ada-e7001a01221c"},"vehicle_type_id":"4","last_reported":1746515452,"current_range_meters":8400,"station_id":"ce4bgs12rcd13ifvqcag","pricing_plan_id":"cebpf4jnsgd1na2vs0mg"},{"bike_id":"7623d909-d235-495e-97b4-76dcb72d5e2f","system_id":"levelo_inurba_marseille","lat":43.24985,"lon":5.38909,"is_reserved":false,"is_disabled":false,"rental_uris":{"android":"levelo://app?vid=7623d909-d235-495e-97b4-76dcb72d5e2f","ios":"levelo://app?vid=7623d909-d235-495e-97b4-76dcb72d5e2f"},"vehicle_type_id":"4","last_reported":1746515452,"current_range_meters":8400,"station_id":"ce4bhgp2rcd13ifvqfd0","pricing_plan_id":"cebpf4jnsgd1na2vs0mg"},{"bike_id":"3478a875-95b4-4294-8b2e-2ff4315d6ffe","system_id":"levelo_inurba_marseille","lat":43.24071,"lon":5.37738,"is_reserved":false,"is_disabled":false,"rental_uris":{"android":"levelo://app?vid=3478a875-95b4-4294-8b2e-2ff4315d6ffe","ios":"levelo://app?vid=3478a875-95b4-4294-8b2e-2ff4315d6ffe"},"vehicle_type_id":"4","last_reported":1746515452,"current_range_meters":8400,"station_id":"ce4bhnp2rcd13ifvqgvg","pricing_plan_id":"cebpf4jnsgd1na2vs0mg"},{"bike_id":"2b31a7e3-ead1-4feb-9767-643cb0da2b19","system_id":"levelo_inurba_marseille","lat":43.24115,"lon":5.37718,"is_reserved":false,"is_disabled":false,"rental_uris":{"android":"levelo://app?vid=2b31a7e3-ead1-4feb-9767-643cb0da2b19","ios":"levelo://app?vid=2b31a7e3-ead1-4feb-9767-643cb0da2b19"},"vehicle_type_id":"4","last_reported":1746515452,"current_range_meters":8800,"station_id":"ce4bhnp2rcd13ifvqgvg","pricing_plan_id":"cebpf4jnsgd1na2vs0mg"},{"bike_id":"f9cec597-af13-4a8a-be1d-b7cf54819d4d","system_id":"levelo_inurba_marseille","lat":43.289646,"lon":5.407258,"is_reserved":false,"is_disabled":false,"rental_uris":{"android":"levelo://app?vid=f9cec597-af13-4a8a-be1d-b7cf54819d4d","ios":"levelo://app?vid=f9cec597-af13-4a8a-be1d-b7cf54819d4d"},"vehicle_type_id":"4","last_reported":1746515452,"current_range_meters":9200,"station_id":"","pricing_plan_id":"cebpf4jnsgd1na2vs0mg"},{"bike_id":"41aaa1ed-a708-4a9a-b5aa-450e891d24b0","system_id":"levelo_inurba_marseille","lat":43.26569,"lon":5.39061,"is_reserved":false,"is_disabled":false,"rental_uris":{"android":"levelo://app?vid=41aaa1ed-a708-4a9a-b5aa-450e891d24b0","ios":"levelo://app?vid=41aaa1ed-a708-4a9a-b5aa-450e891d24b0"},"vehicle_type_id":"4","last_reported":1746515452,"current_range_meters":9200,"station_id":"ce4bhe12rcd13ifvqf30","pricing_plan_id":"cebpf4jnsgd1na2vs0mg"},{"bike_id":"7c2f5afe-2899-4e87-b420-99f07243e558","system_id":"levelo_inurba_marseille","lat":43.32121,"lon":5.36779,"is_reserved":false,"is_disabled":false,"rental_uris":{"android":"levelo://app?vid=7c2f5afe-2899-4e87-b420-99f07243e558","ios":"levelo://app?vid=7c2f5afe-2899-4e87-b420-99f07243e558"},"vehicle_type_id":"4","last_reported":1746515452,"current_range_meters":9200,"station_id":"ce4bhrh2rcd13ifvqhug","pricing_plan_id":"cebpf4jnsgd1na2vs0mg"},{"bike_id":"9d8f73eb-df09-4699-86a7-d631e2319093","system_id":"levelo_inurba_marseille","lat":43.26267,"lon":5.3743,"is_reserved":false,"is_disabled":false,"rental_uris":{"android":"levelo://app?vid=9d8f73eb-df09-4699-86a7-d631e2319093","ios":"levelo://app?vid=9d8f73eb-df09-4699-86a7-d631e2319093"},"vehicle_type_id":"4","last_reported":1746515452,"current_range_meters":9600,"station_id":"","pricing_plan_id":"cebpf4jnsgd1na2vs0mg"},{"bike_id":"62bfa9fa-531f-4d2b-9e57-eb50b2d48c8c","system_id":"levelo_inurba_marseille","lat":43.24281,"lon":5.38,"is_reserved":false,"is_disabled":false,"rental_uris":{"android":"levelo://app?vid=62bfa9fa-531f-4d2b-9e57-eb50b2d48c8c","ios":"levelo://app?vid=62bfa9fa-531f-4d2b-9e57-eb50b2d48c8c"},"vehicle_type_id":"4","last_reported":1746515452,"current_range_meters":9600,"station_id":"","pricing_plan_id":"cebpf4jnsgd1na2vs0mg"},{"bike_id":"e1b1675e-f8ee-4318-a613-eb19f64c4309","system_id":"levelo_inurba_marseille","lat":43.281542,"lon":5.426424,"is_reserved":false,"is_disabled":false,"rental_uris":{"android":"levelo://app?vid=e1b1675e-f8ee-4318-a613-eb19f64c4309","ios":"levelo://app?vid=e1b1675e-f8ee-4318-a613-eb19f64c4309"},"vehicle_type_id":"4","last_reported":1746515452,"current_range_meters":9600,"station_id":"","pricing_plan_id":"cebpf4jnsgd1na2vs0mg"},{"bike_id":"05a84f69-0592-442a-b098-6253d0b70e9e","system_id":"levelo_inurba_marseille","lat":43.29996,"lon":5.37234,"is_reserved":false,"is_disabled":false,"rental_uris":{"android":"levelo://app?vid=05a84f69-0592-442a-b098-6253d0b70e9e","ios":"levelo://app?vid=05a84f69-0592-442a-b098-6253d0b70e9e"},"vehicle_type_id":"4","last_reported":1746515452,"current_range_meters":10000,"station_id":"ce4bgr92rcd13ifvqc7g","pricing_plan_id":"cebpf4jnsgd1na2vs0mg"},{"bike_id":"984d6eb3-5f62-4017-b4b1-66ce7e600510","system_id":"levelo_inurba_marseille","lat":43.3149,"lon":5.37311,"is_reserved":false,"is_disabled":false,"rental_uris":{"android":"levelo://app?vid=984d6eb3-5f62-4017-b4b1-66ce7e600510","ios":"levelo://app?vid=984d6eb3-5f62-4017-b4b1-66ce7e600510"},"vehicle_type_id":"4","last_reported":1746515452,"current_range_meters":10000,"station_id":"ce4bgt12rcd13ifvqcd0","pricing_plan_id":"cebpf4jnsgd1na2vs0mg"},{"bike_id":"268ac42a-67ca-41b9-962f-05154b271346","system_id":"levelo_inurba_marseille","lat":43.25834,"lon":5.39413,"is_reserved":false,"is_disabled":false,"rental_uris":{"android":"levelo://app?vid=268ac42a-67ca-41b9-962f-05154b271346","ios":"levelo://app?vid=268ac42a-67ca-41b9-962f-05154b271346"},"vehicle_type_id":"4","last_reported":1746515452,"current_range_meters":10000,"station_id":"ce4bhip2rcd13ifvqft0","pricing_plan_id":"cebpf4jnsgd1na2vs0mg"},{"bike_id":"aef42c2f-9360-412c-b7d9-6c4210fddd22","system_id":"levelo_inurba_marseille","lat":43.25942,"lon":5.40902,"is_reserved":false,"is_disabled":false,"rental_uris":{"android":"levelo://app?vid=aef42c2f-9360-412c-b7d9-6c4210fddd22","ios":"levelo://app?vid=aef42c2f-9360-412c-b7d9-6c4210fddd22"},"vehicle_type_id":"4","last_reported":1746515452,"current_range_meters":10000,"station_id":"ce4bhm92rcd13ifvqglg","pricing_plan_id":"cebpf4jnsgd1na2vs0mg"},{"bike_id":"fbda12d9-6999-44a5-a236-2a288c2ac07c","system_id":"levelo_inurba_marseille","lat":43.24089,"lon":5.3777,"is_reserved":false,"is_disabled":false,"rental_uris":{"android":"levelo://app?vid=fbda12d9-6999-44a5-a236-2a288c2ac07c","ios":"levelo://app?vid=fbda12d9-6999-44a5-a236-2a288c2ac07c"},"vehicle_type_id":"4","last_reported":1746515452,"current_range_meters":10000,"station_id":"ce4bhnp2rcd13ifvqgvg","pricing_plan_id":"cebpf4jnsgd1na2vs0mg"},{"bike_id":"b60c17f5-436e-489e-8f3c-790e6084ac64","system_id":"levelo_inurba_marseille","lat":43.2123,"lon":5.35077,"is_reserved":false,"is_disabled":false,"rental_uris":{"android":"levelo://app?vid=b60c17f5-436e-489e-8f3c-790e6084ac64","ios":"levelo://app?vid=b60c17f5-436e-489e-8f3c-790e6084ac64"},"vehicle_type_id":"4","last_reported":1746515452,"current_range_meters":10800,"station_id":"","pricing_plan_id":"cebpf4jnsgd1na2vs0mg"},{"bike_id":"0c377d9d-9a3a-47a7-9944-6039314b5e15","system_id":"levelo_inurba_marseille","lat":43.24593,"lon":5.40506,"is_reserved":false,"is_disabled":false,"rental_uris":{"android":"levelo://app?vid=0c377d9d-9a3a-47a7-9944-6039314b5e15","ios":"levelo://app?vid=0c377d9d-9a3a-47a7-9944-6039314b5e15"},"vehicle_type_id":"4","last_reported":1746515452,"current_range_meters":10800,"station_id":"","pricing_plan_id":"cebpf4jnsgd1na2vs0mg"},{"bike_id":"fff076a6-1aff-4955-a9e0-c7a7f711afb2","system_id":"levelo_inurba_marseille","lat":43.30161,"lon":5.37412,"is_reserved":false,"is_disabled":false,"rental_uris":{"android":"levelo://app?vid=fff076a6-1aff-4955-a9e0-c7a7f711afb2","ios":"levelo://app?vid=fff076a6-1aff-4955-a9e0-c7a7f711afb2"},"vehicle_type_id":"4","last_reported":1746515452,"current_range_meters":10800,"station_id":"ce4bgs92rcd13ifvqcc0","pricing_plan_id":"cebpf4jnsgd1na2vs0mg"},{"bike_id":"6d3c2452-4d52-4156-8d62-ada604534649","system_id":"levelo_inurba_marseille","lat":43.28753,"lon":5.37942,"is_reserved":false,"is_disabled":false,"rental_uris":{"android":"levelo://app?vid=6d3c2452-4d52-4156-8d62-ada604534649","ios":"levelo://app?vid=6d3c2452-4d52-4156-8d62-ada604534649"},"vehicle_type_id":"4","last_reported":1746515452,"current_range_meters":10800,"station_id":"ce4bh9p2rcd13ifvqec0","pricing_plan_id":"cebpf4jnsgd1na2vs0mg"},{"bike_id":"22146708-fd58-4f36-9d97-901be090fd06","system_id":"levelo_inurba_marseille","lat":43.26982,"lon":5.38608,"is_reserved":false,"is_disabled":false,"rental_uris":{"android":"levelo://app?vid=22146708-fd58-4f36-9d97-901be090fd06","ios":"levelo://app?vid=22146708-fd58-4f36-9d97-901be090fd06"},"vehicle_type_id":"4","last_reported":1746515452,"current_range_meters":10800,"station_id":"ce4bhh92rcd13ifvqfh0","pricing_plan_id":"cebpf4jnsgd1na2vs0mg"},{"bike_id":"ed40e3b1-3e36-4679-8841-b2a43d65b5f9","system_id":"levelo_inurba_marseille","lat":43.267835,"lon":5.394144,"is_reserved":false,"is_disabled":false,"rental_uris":{"android":"levelo://app?vid=ed40e3b1-3e36-4679-8841-b2a43d65b5f9","ios":"levelo://app?vid=ed40e3b1-3e36-4679-8841-b2a43d65b5f9"},"vehicle_type_id":"4","last_reported":1746515452,"current_range_meters":10800,"station_id":"ce4bhl92rcd13ifvqghg","pricing_plan_id":"cebpf4jnsgd1na2vs0mg"},{"bike_id":"db607aba-0db6-423b-a818-c23224727203","system_id":"levelo_inurba_marseille","lat":43.231564,"lon":5.436955,"is_reserved":false,"is_disabled":false,"rental_uris":{"android":"levelo://app?vid=db607aba-0db6-423b-a818-c23224727203","ios":"levelo://app?vid=db607aba-0db6-423b-a818-c23224727203"},"vehicle_type_id":"4","last_reported":1746515452,"current_range_meters":10800,"station_id":"ce4bhmp2rcd13ifvqgog","pricing_plan_id":"cebpf4jnsgd1na2vs0mg"},{"bike_id":"8d4be988-3950-4bb6-9b3b-d3a13607020e","system_id":"levelo_inurba_marseille","lat":43.27497,"lon":5.42445,"is_reserved":false,"is_disabled":false,"rental_uris":{"android":"levelo://app?vid=8d4be988-3950-4bb6-9b3b-d3a13607020e","ios":"levelo://app?vid=8d4be988-3950-4bb6-9b3b-d3a13607020e"},"vehicle_type_id":"4","last_reported":1746515452,"current_range_meters":10800,"station_id":"ce4bhn92rcd13ifvqgrg","pricing_plan_id":"cebpf4jnsgd1na2vs0mg"},{"bike_id":"8239823c-f77c-4bfc-abf5-f13f638de215","system_id":"levelo_inurba_marseille","lat":43.2407,"lon":5.37727,"is_reserved":false,"is_disabled":false,"rental_uris":{"android":"levelo://app?vid=8239823c-f77c-4bfc-abf5-f13f638de215","ios":"levelo://app?vid=8239823c-f77c-4bfc-abf5-f13f638de215"},"vehicle_type_id":"4","last_reported":1746515452,"current_range_meters":10800,"station_id":"ce4bhnp2rcd13ifvqgvg","pricing_plan_id":"cebpf4jnsgd1na2vs0mg"},{"bike_id":"fa37bfe9-0fcc-4f35-84b9-67041a093339","system_id":"levelo_inurba_marseille","lat":43.24081,"lon":5.37744,"is_reserved":false,"is_disabled":false,"rental_uris":{"android":"levelo://app?vid=fa37bfe9-0fcc-4f35-84b9-67041a093339","ios":"levelo://app?vid=fa37bfe9-0fcc-4f35-84b9-67041a093339"},"vehicle_type_id":"4","last_reported":1746515452,"current_range_meters":10800,"station_id":"ce4bhnp2rcd13ifvqgvg","pricing_plan_id":"cebpf4jnsgd1na2vs0mg"},{"bike_id":"bf459671-b96b-446f-a803-e49d00963266","system_id":"levelo_inurba_marseille","lat":43.2407,"lon":5.37744,"is_reserved":false,"is_disabled":false,"rental_uris":{"android":"levelo://app?vid=bf459671-b96b-446f-a803-e49d00963266","ios":"levelo://app?vid=bf459671-b96b-446f-a803-e49d00963266"},"vehicle_type_id":"4","last_reported":1746515452,"current_range_meters":10800,"station_id":"ce4bhnp2rcd13ifvqgvg","pricing_plan_id":"cebpf4jnsgd1na2vs0mg"},{"bike_id":"700209b2-1509-4a9d-b686-43c5d83bff8f","system_id":"levelo_inurba_marseille","lat":43.32111,"lon":5.36769,"is_reserved":false,"is_disabled":false,"rental_uris":{"android":"levelo://app?vid=700209b2-1509-4a9d-b686-43c5d83bff8f","ios":"levelo://app?vid=700209b2-1509-4a9d-b686-43c5d83bff8f"},"vehicle_type_id":"4","last_reported":1746515452,"current_range_meters":10800,"station_id":"ce4bhrh2rcd13ifvqhug","pricing_plan_id":"cebpf4jnsgd1na2vs0mg"},{"bike_id":"7c92beeb-1de4-4e89-9529-afcfc6840938","system_id":"levelo_inurba_marseille","lat":43.28479,"lon":5.38414,"is_reserved":false,"is_disabled":false,"rental_uris":{"android":"levelo://app?vid=7c92beeb-1de4-4e89-9529-afcfc6840938","ios":"levelo://app?vid=7c92beeb-1de4-4e89-9529-afcfc6840938"},"vehicle_type_id":"4","last_reported":1746515452,"current_range_meters":11200,"station_id":"ce4bh512rcd13ifvqe3g","pricing_plan_id":"cebpf4jnsgd1na2vs0mg"},{"bike_id":"dee3f569-dd52-4ce6-84e9-9a94256d50ec","system_id":"levelo_inurba_marseille","lat":43.25577,"lon":5.38226,"is_reserved":false,"is_disabled":false,"rental_uris":{"android":"levelo://app?vid=dee3f569-dd52-4ce6-84e9-9a94256d50ec","ios":"levelo://app?vid=dee3f569-dd52-4ce6-84e9-9a94256d50ec"},"vehicle_type_id":"4","last_reported":1746515452,"current_range_meters":11200,"station_id":"ce4bhih2rcd13ifvqfs0","pricing_plan_id":"cebpf4jnsgd1na2vs0mg"},{"bike_id":"e59f121e-ba4f-4890-a742-2d0c49eae7d8","system_id":"levelo_inurba_marseille","lat":43.315451,"lon":5.380411,"is_reserved":false,"is_disabled":false,"rental_uris":{"android":"levelo://app?vid=e59f121e-ba4f-4890-a742-2d0c49eae7d8","ios":"levelo://app?vid=e59f121e-ba4f-4890-a742-2d0c49eae7d8"},"vehicle_type_id":"4","last_reported":1746515452,"current_range_meters":11200,"station_id":"ce4bhsp2rcd13ifvqi50","pricing_plan_id":"cebpf4jnsgd1na2vs0mg"},{"bike_id":"a46b5721-597c-404e-8ddb-3ba6469f967d","system_id":"levelo_inurba_marseille","lat":43.23209,"lon":5.35559,"is_reserved":false,"is_disabled":false,"rental_uris":{"android":"levelo://app?vid=a46b5721-597c-404e-8ddb-3ba6469f967d","ios":"levelo://app?vid=a46b5721-597c-404e-8ddb-3ba6469f967d"},"vehicle_type_id":"4","last_reported":1746515452,"current_range_meters":11200,"station_id":"ce4bhu92rcd13ifvqi70","pricing_plan_id":"cebpf4jnsgd1na2vs0mg"},{"bike_id":"6e28461c-16b7-48cd-840b-8776c6c22ab5","system_id":"levelo_inurba_marseille","lat":43.31219,"lon":5.36859,"is_reserved":false,"is_disabled":false,"rental_uris":{"android":"levelo://app?vid=6e28461c-16b7-48cd-840b-8776c6c22ab5","ios":"levelo://app?vid=6e28461c-16b7-48cd-840b-8776c6c22ab5"},"vehicle_type_id":"4","last_reported":1746515452,"current_range_meters":11600,"station_id":"ce4bgl92rcd13ifvqbq0","pricing_plan_id":"cebpf4jnsgd1na2vs0mg"},{"bike_id":"b9a946ed-10f8-4d6a-9138-6fdf1e06a0fa","system_id":"levelo_inurba_marseille","lat":43.31346,"lon":5.36706,"is_reserved":false,"is_disabled":false,"rental_uris":{"android":"levelo://app?vid=b9a946ed-10f8-4d6a-9138-6fdf1e06a0fa","ios":"levelo://app?vid=b9a946ed-10f8-4d6a-9138-6fdf1e06a0fa"},"vehicle_type_id":"4","last_reported":1746515452,"current_range_meters":11600,"station_id":"ce4bgr92rcd13ifvqc6g","pricing_plan_id":"cebpf4jnsgd1na2vs0mg"},{"bike_id":"44d1a496-4f16-46a6-b178-f49cec17003e","system_id":"levelo_inurba_marseille","lat":43.271793,"lon":5.409931,"is_reserved":false,"is_disabled":false,"rental_uris":{"android":"levelo://app?vid=44d1a496-4f16-46a6-b178-f49cec17003e","ios":"levelo://app?vid=44d1a496-4f16-46a6-b178-f49cec17003e"},"vehicle_type_id":"4","last_reported":1746515452,"current_range_meters":11600,"station_id":"ce4bhl12rcd13ifvqgf0","pricing_plan_id":"cebpf4jnsgd1na2vs0mg"},{"bike_id":"d5b09c65-4037-4867-b034-d23af67b5b2b","system_id":"levelo_inurba_marseille","lat":43.27528,"lon":5.42448,"is_reserved":false,"is_disabled":false,"rental_uris":{"android":"levelo://app?vid=d5b09c65-4037-4867-b034-d23af67b5b2b","ios":"levelo://app?vid=d5b09c65-4037-4867-b034-d23af67b5b2b"},"vehicle_type_id":"4","last_reported":1746515452,"current_range_meters":11600,"station_id":"ce4bhn92rcd13ifvqgrg","pricing_plan_id":"cebpf4jnsgd1na2vs0mg"},{"bike_id":"c9592205-9409-4f74-aed1-7c4141a58caa","system_id":"levelo_inurba_marseille","lat":43.27119,"lon":5.3637,"is_reserved":false,"is_disabled":false,"rental_uris":{"android":"levelo://app?vid=c9592205-9409-4f74-aed1-7c4141a58caa","ios":"levelo://app?vid=c9592205-9409-4f74-aed1-7c4141a58caa"},"vehicle_type_id":"4","last_reported":1746515452,"current_range_meters":12000,"station_id":"","pricing_plan_id":"cebpf4jnsgd1na2vs0mg"},{"bike_id":"ad004bb7-9e3b-438f-824c-7558efc39e56","system_id":"levelo_inurba_marseille","lat":43.27211,"lon":5.39181,"is_reserved":false,"is_disabled":false,"rental_uris":{"android":"levelo://app?vid=ad004bb7-9e3b-438f-824c-7558efc39e56","ios":"levelo://app?vid=ad004bb7-9e3b-438f-824c-7558efc39e56"},"vehicle_type_id":"4","last_reported":1746515452,"current_range_meters":12000,"station_id":"ce4bhhp2rcd13ifvqfm0","pricing_plan_id":"cebpf4jnsgd1na2vs0mg"},{"bike_id":"e8c3883b-7031-49c7-9f2b-89fcd4ad081a","system_id":"levelo_inurba_marseille","lat":43.3047,"lon":5.37909,"is_reserved":false,"is_disabled":false,"rental_uris":{"android":"levelo://app?vid=e8c3883b-7031-49c7-9f2b-89fcd4ad081a","ios":"levelo://app?vid=e8c3883b-7031-49c7-9f2b-89fcd4ad081a"},"vehicle_type_id":"4","last_reported":1746515452,"current_range_meters":12400,"station_id":"ce4bgup2rcd13ifvqcn0","pricing_plan_id":"cebpf4jnsgd1na2vs0mg"},{"bike_id":"e114ba8c-35c0-4509-9db3-41f868025b7b","system_id":"levelo_inurba_marseille","lat":43.28272,"lon":5.35092,"is_reserved":false,"is_disabled":false,"rental_uris":{"android":"levelo://app?vid=e114ba8c-35c0-4509-9db3-41f868025b7b","ios":"levelo://app?vid=e114ba8c-35c0-4509-9db3-41f868025b7b"},"vehicle_type_id":"4","last_reported":1746515452,"current_range_meters":12400,"station_id":"ce4bhbp2rcd13ifvqerg","pricing_plan_id":"cebpf4jnsgd1na2vs0mg"},{"bike_id":"6a38e9ca-1902-4951-ba95-8f8d8390042b","system_id":"levelo_inurba_marseille","lat":43.26552,"lon":5.3902,"is_reserved":false,"is_disabled":false,"rental_uris":{"android":"levelo://app?vid=6a38e9ca-1902-4951-ba95-8f8d8390042b","ios":"levelo://app?vid=6a38e9ca-1902-4951-ba95-8f8d8390042b"},"vehicle_type_id":"4","last_reported":1746515452,"current_range_meters":12400,"station_id":"ce4bhe12rcd13ifvqf30","pricing_plan_id":"cebpf4jnsgd1na2vs0mg"},{"bike_id":"13ebfc6a-b3e8-4bd2-9055-317da3a3d7f6","system_id":"levelo_inurba_marseille","lat":43.24074,"lon":5.37762,"is_reserved":false,"is_disabled":false,"rental_uris":{"android":"levelo://app?vid=13ebfc6a-b3e8-4bd2-9055-317da3a3d7f6","ios":"levelo://app?vid=13ebfc6a-b3e8-4bd2-9055-317da3a3d7f6"},"vehicle_type_id":"4","last_reported":1746515452,"current_range_meters":12400,"station_id":"ce4bhnp2rcd13ifvqgvg","pricing_plan_id":"cebpf4jnsgd1na2vs0mg"},{"bike_id":"73297002-6407-425f-adb6-638ff58e7409","system_id":"levelo_inurba_marseille","lat":43.31335,"lon":5.36724,"is_reserved":false,"is_disabled":false,"rental_uris":{"android":"levelo://app?vid=73297002-6407-425f-adb6-638ff58e7409","ios":"levelo://app?vid=73297002-6407-425f-adb6-638ff58e7409"},"vehicle_type_id":"4","last_reported":1746515452,"current_range_meters":12800,"station_id":"ce4bgr92rcd13ifvqc6g","pricing_plan_id":"cebpf4jnsgd1na2vs0mg"},{"bike_id":"0be7ec30-c0bd-4f11-a3e2-23b76ffbc5fe","system_id":"levelo_inurba_marseille","lat":43.24068,"lon":5.37762,"is_reserved":false,"is_disabled":false,"rental_uris":{"android":"levelo://app?vid=0be7ec30-c0bd-4f11-a3e2-23b76ffbc5fe","ios":"levelo://app?vid=0be7ec30-c0bd-4f11-a3e2-23b76ffbc5fe"},"vehicle_type_id":"4","last_reported":1746515452,"current_range_meters":12800,"station_id":"ce4bhnp2rcd13ifvqgvg","pricing_plan_id":"cebpf4jnsgd1na2vs0mg"},{"bike_id":"3f84d55c-f7b3-443f-a8ba-1f83ba8291a2","system_id":"levelo_inurba_marseille","lat":43.21184,"lon":5.35064,"is_reserved":false,"is_disabled":false,"rental_uris":{"android":"levelo://app?vid=3f84d55c-f7b3-443f-a8ba-1f83ba8291a2","ios":"levelo://app?vid=3f84d55c-f7b3-443f-a8ba-1f83ba8291a2"},"vehicle_type_id":"4","last_reported":1746515452,"current_range_meters":12800,"station_id":"st_cvj6sg6p6f1abm77japg","pricing_plan_id":"cebpf4jnsgd1na2vs0mg"},{"bike_id":"2df614bf-145f-44cd-b174-f8bd8326963c","system_id":"levelo_inurba_marseille","lat":43.31579,"lon":5.38064,"is_reserved":false,"is_disabled":false,"rental_uris":{"android":"levelo://app?vid=2df614bf-145f-44cd-b174-f8bd8326963c","ios":"levelo://app?vid=2df614bf-145f-44cd-b174-f8bd8326963c"},"vehicle_type_id":"4","last_reported":1746515452,"current_range_meters":13600,"station_id":"","pricing_plan_id":"cebpf4jnsgd1na2vs0mg"},{"bike_id":"7c76c74a-bbe5-42b6-b5b7-e0c1fbb231ff","system_id":"levelo_inurba_marseille","lat":43.31248,"lon":5.36843,"is_reserved":false,"is_disabled":false,"rental_uris":{"android":"levelo://app?vid=7c76c74a-bbe5-42b6-b5b7-e0c1fbb231ff","ios":"levelo://app?vid=7c76c74a-bbe5-42b6-b5b7-e0c1fbb231ff"},"vehicle_type_id":"4","last_reported":1746515452,"current_range_meters":13600,"station_id":"ce4bgl92rcd13ifvqbq0","pricing_plan_id":"cebpf4jnsgd1na2vs0mg"},{"bike_id":"e3bb4c0a-ea28-4d8b-a92a-340ecfdd5f1d","system_id":"levelo_inurba_marseille","lat":43.31041,"lon":5.37527,"is_reserved":false,"is_disabled":false,"rental_uris":{"android":"levelo://app?vid=e3bb4c0a-ea28-4d8b-a92a-340ecfdd5f1d","ios":"levelo://app?vid=e3bb4c0a-ea28-4d8b-a92a-340ecfdd5f1d"},"vehicle_type_id":"4","last_reported":1746515452,"current_range_meters":14000,"station_id":"","pricing_plan_id":"cebpf4jnsgd1na2vs0mg"},{"bike_id":"bdb5ebcd-d6d1-491b-9433-84ec5adce3c4","system_id":"levelo_inurba_marseille","lat":43.2781,"lon":5.4071,"is_reserved":false,"is_disabled":false,"rental_uris":{"android":"levelo://app?vid=bdb5ebcd-d6d1-491b-9433-84ec5adce3c4","ios":"levelo://app?vid=bdb5ebcd-d6d1-491b-9433-84ec5adce3c4"},"vehicle_type_id":"4","last_reported":1746515452,"current_range_meters":14000,"station_id":"ce4bhnh2rcd13ifvqgtg","pricing_plan_id":"cebpf4jnsgd1na2vs0mg"},{"bike_id":"d7b1e4d8-f726-4ea7-bc51-7e6d351a33c5","system_id":"levelo_inurba_marseille","lat":43.24083,"lon":5.3776,"is_reserved":false,"is_disabled":false,"rental_uris":{"android":"levelo://app?vid=d7b1e4d8-f726-4ea7-bc51-7e6d351a33c5","ios":"levelo://app?vid=d7b1e4d8-f726-4ea7-bc51-7e6d351a33c5"},"vehicle_type_id":"4","last_reported":1746515452,"current_range_meters":14000,"station_id":"ce4bhnp2rcd13ifvqgvg","pricing_plan_id":"cebpf4jnsgd1na2vs0mg"},{"bike_id":"5987d684-ebbc-4e3b-9225-d827a0b9ff39","system_id":"levelo_inurba_marseille","lat":43.23956,"lon":5.36616,"is_reserved":false,"is_disabled":false,"rental_uris":{"android":"levelo://app?vid=5987d684-ebbc-4e3b-9225-d827a0b9ff39","ios":"levelo://app?vid=5987d684-ebbc-4e3b-9225-d827a0b9ff39"},"vehicle_type_id":"4","last_reported":1746515452,"current_range_meters":14400,"station_id":"ce4bhi12rcd13ifvqfp0","pricing_plan_id":"cebpf4jnsgd1na2vs0mg"},{"bike_id":"a8f2795c-bc4c-401b-955c-f9a3c6d05923","system_id":"levelo_inurba_marseille","lat":43.262176,"lon":5.379216,"is_reserved":false,"is_disabled":false,"rental_uris":{"android":"levelo://app?vid=a8f2795c-bc4c-401b-955c-f9a3c6d05923","ios":"levelo://app?vid=a8f2795c-bc4c-401b-955c-f9a3c6d05923"},"vehicle_type_id":"4","last_reported":1746515452,"current_range_meters":14400,"station_id":"ce4bhjp2rcd13ifvqg90","pricing_plan_id":"cebpf4jnsgd1na2vs0mg"},{"bike_id":"36a01691-fc7c-4ac9-a1ef-0c990ffbad48","system_id":"levelo_inurba_marseille","lat":43.34149,"lon":5.409107,"is_reserved":false,"is_disabled":false,"rental_uris":{"android":"levelo://app?vid=36a01691-fc7c-4ac9-a1ef-0c990ffbad48","ios":"levelo://app?vid=36a01691-fc7c-4ac9-a1ef-0c990ffbad48"},"vehicle_type_id":"4","last_reported":1746515452,"current_range_meters":14800,"station_id":"ce4bhqh2rcd13ifvqhlg","pricing_plan_id":"cebpf4jnsgd1na2vs0mg"},{"bike_id":"0a90c9d8-6902-4b54-883b-a4bf974a897d","system_id":"levelo_inurba_marseille","lat":43.26679,"lon":5.38268,"is_reserved":false,"is_disabled":false,"rental_uris":{"android":"levelo://app?vid=0a90c9d8-6902-4b54-883b-a4bf974a897d","ios":"levelo://app?vid=0a90c9d8-6902-4b54-883b-a4bf974a897d"},"vehicle_type_id":"4","last_reported":1746515452,"current_range_meters":15200,"station_id":"ce4bhg92rcd13ifvqf90","pricing_plan_id":"cebpf4jnsgd1na2vs0mg"},{"bike_id":"5253b176-ca0e-4483-af21-a1036b294dee","system_id":"levelo_inurba_marseille","lat":43.25728,"lon":5.41101,"is_reserved":false,"is_disabled":false,"rental_uris":{"android":"levelo://app?vid=5253b176-ca0e-4483-af21-a1036b294dee","ios":"levelo://app?vid=5253b176-ca0e-4483-af21-a1036b294dee"},"vehicle_type_id":"4","last_reported":1746515452,"current_range_meters":15200,"station_id":"ce4bhkp2rcd13ifvqgd0","pricing_plan_id":"cebpf4jnsgd1na2vs0mg"},{"bike_id":"43e47292-6bf0-4e1e-a93d-8dc54a58c3c0","system_id":"levelo_inurba_marseille","lat":43.27491,"lon":5.42466,"is_reserved":false,"is_disabled":false,"rental_uris":{"android":"levelo://app?vid=43e47292-6bf0-4e1e-a93d-8dc54a58c3c0","ios":"levelo://app?vid=43e47292-6bf0-4e1e-a93d-8dc54a58c3c0"},"vehicle_type_id":"4","last_reported":1746515452,"current_range_meters":15200,"station_id":"ce4bhn92rcd13ifvqgrg","pricing_plan_id":"cebpf4jnsgd1na2vs0mg"},{"bike_id":"184201da-405d-402f-912f-331881f4eeea","system_id":"levelo_inurba_marseille","lat":43.33607,"lon":5.41028,"is_reserved":false,"is_disabled":false,"rental_uris":{"android":"levelo://app?vid=184201da-405d-402f-912f-331881f4eeea","ios":"levelo://app?vid=184201da-405d-402f-912f-331881f4eeea"},"vehicle_type_id":"4","last_reported":1746515452,"current_range_meters":15200,"station_id":"ce4bhqh2rcd13ifvqhmg","pricing_plan_id":"cebpf4jnsgd1na2vs0mg"},{"bike_id":"6ce81efa-e8f3-477a-b7a1-a1c58c727c56","system_id":"levelo_inurba_marseille","lat":43.211884,"lon":5.350906,"is_reserved":false,"is_disabled":false,"rental_uris":{"android":"levelo://app?vid=6ce81efa-e8f3-477a-b7a1-a1c58c727c56","ios":"levelo://app?vid=6ce81efa-e8f3-477a-b7a1-a1c58c727c56"},"vehicle_type_id":"4","last_reported":1746515452,"current_range_meters":16000,"station_id":"","pricing_plan_id":"cebpf4jnsgd1na2vs0mg"},{"bike_id":"f8c94f10-1913-4f2f-8f3a-2bde1d70909d","system_id":"levelo_inurba_marseille","lat":43.3012,"lon":5.364199,"is_reserved":false,"is_disabled":false,"rental_uris":{"android":"levelo://app?vid=f8c94f10-1913-4f2f-8f3a-2bde1d70909d","ios":"levelo://app?vid=f8c94f10-1913-4f2f-8f3a-2bde1d70909d"},"vehicle_type_id":"4","last_reported":1746515452,"current_range_meters":16000,"station_id":"ce4bgpp2rcd13ifvqc3g","pricing_plan_id":"cebpf4jnsgd1na2vs0mg"},{"bike_id":"96b12d4c-893b-4533-9b17-e0dd29c15415","system_id":"levelo_inurba_marseille","lat":43.305292,"lon":5.366952,"is_reserved":false,"is_disabled":false,"rental_uris":{"android":"levelo://app?vid=96b12d4c-893b-4533-9b17-e0dd29c15415","ios":"levelo://app?vid=96b12d4c-893b-4533-9b17-e0dd29c15415"},"vehicle_type_id":"4","last_reported":1746515452,"current_range_meters":16000,"station_id":"ce4bgrp2rcd13ifvqc9g","pricing_plan_id":"cebpf4jnsgd1na2vs0mg"},{"bike_id":"741922f7-49ff-4751-a228-5a73f2c8c24d","system_id":"levelo_inurba_marseille","lat":43.24171,"lon":5.364,"is_reserved":false,"is_disabled":false,"rental_uris":{"android":"levelo://app?vid=741922f7-49ff-4751-a228-5a73f2c8c24d","ios":"levelo://app?vid=741922f7-49ff-4751-a228-5a73f2c8c24d"},"vehicle_type_id":"4","last_reported":1746515452,"current_range_meters":16000,"station_id":"cpo36qri1sfpv3e86is0","pricing_plan_id":"cebpf4jnsgd1na2vs0mg"},{"bike_id":"1900e395-19ba-404e-aa6a-262b7656599d","system_id":"levelo_inurba_marseille","lat":43.2888,"lon":5.43707,"is_reserved":false,"is_disabled":false,"rental_uris":{"android":"levelo://app?vid=1900e395-19ba-404e-aa6a-262b7656599d","ios":"levelo://app?vid=1900e395-19ba-404e-aa6a-262b7656599d"},"vehicle_type_id":"4","last_reported":1746515452,"current_range_meters":16400,"station_id":"","pricing_plan_id":"cebpf4jnsgd1na2vs0mg"},{"bike_id":"3060c5c1-2a54-4871-9a53-5d34aaf056e8","system_id":"levelo_inurba_marseille","lat":43.27653,"lon":5.36116,"is_reserved":false,"is_disabled":false,"rental_uris":{"android":"levelo://app?vid=3060c5c1-2a54-4871-9a53-5d34aaf056e8","ios":"levelo://app?vid=3060c5c1-2a54-4871-9a53-5d34aaf056e8"},"vehicle_type_id":"4","last_reported":1746515452,"current_range_meters":16400,"station_id":"ce4bgj92rcd13ifvqbe0","pricing_plan_id":"cebpf4jnsgd1na2vs0mg"},{"bike_id":"302a8576-bb05-44ba-bc68-9bf1f029808d","system_id":"levelo_inurba_marseille","lat":43.292332,"lon":5.36026,"is_reserved":false,"is_disabled":false,"rental_uris":{"android":"levelo://app?vid=302a8576-bb05-44ba-bc68-9bf1f029808d","ios":"levelo://app?vid=302a8576-bb05-44ba-bc68-9bf1f029808d"},"vehicle_type_id":"4","last_reported":1746515452,"current_range_meters":16400,"station_id":"ce4bhbh2rcd13ifvqeqg","pricing_plan_id":"cebpf4jnsgd1na2vs0mg"},{"bike_id":"03bb5049-51e5-461e-8353-3cc13edfbfb8","system_id":"levelo_inurba_marseille","lat":43.23959,"lon":5.36618,"is_reserved":false,"is_disabled":false,"rental_uris":{"android":"levelo://app?vid=03bb5049-51e5-461e-8353-3cc13edfbfb8","ios":"levelo://app?vid=03bb5049-51e5-461e-8353-3cc13edfbfb8"},"vehicle_type_id":"4","last_reported":1746515452,"current_range_meters":16400,"station_id":"ce4bhi12rcd13ifvqfp0","pricing_plan_id":"cebpf4jnsgd1na2vs0mg"},{"bike_id":"e0a0fb85-9539-4fb6-b21f-392540fb8a26","system_id":"levelo_inurba_marseille","lat":43.32357,"lon":5.36731,"is_reserved":false,"is_disabled":false,"rental_uris":{"android":"levelo://app?vid=e0a0fb85-9539-4fb6-b21f-392540fb8a26","ios":"levelo://app?vid=e0a0fb85-9539-4fb6-b21f-392540fb8a26"},"vehicle_type_id":"4","last_reported":1746515452,"current_range_meters":16400,"station_id":"ce4bhsh2rcd13ifvqi2g","pricing_plan_id":"cebpf4jnsgd1na2vs0mg"},{"bike_id":"27563f88-1268-4b98-bc06-44e98c7ca400","system_id":"levelo_inurba_marseille","lat":43.320824,"lon":5.440982,"is_reserved":false,"is_disabled":false,"rental_uris":{"android":"levelo://app?vid=27563f88-1268-4b98-bc06-44e98c7ca400","ios":"levelo://app?vid=27563f88-1268-4b98-bc06-44e98c7ca400"},"vehicle_type_id":"4","last_reported":1746515452,"current_range_meters":16800,"station_id":"","pricing_plan_id":"cebpf4jnsgd1na2vs0mg"},{"bike_id":"9d101065-b880-49ed-928e-5b31fe9c26c3","system_id":"levelo_inurba_marseille","lat":43.29164,"lon":5.37151,"is_reserved":false,"is_disabled":false,"rental_uris":{"android":"levelo://app?vid=9d101065-b880-49ed-928e-5b31fe9c26c3","ios":"levelo://app?vid=9d101065-b880-49ed-928e-5b31fe9c26c3"},"vehicle_type_id":"4","last_reported":1746515452,"current_range_meters":16800,"station_id":"ce4bha92rcd13ifvqeh0","pricing_plan_id":"cebpf4jnsgd1na2vs0mg"},{"bike_id":"46a428a1-3a45-4310-8fc1-8ac5239110b0","system_id":"levelo_inurba_marseille","lat":43.25836,"lon":5.39435,"is_reserved":false,"is_disabled":false,"rental_uris":{"android":"levelo://app?vid=46a428a1-3a45-4310-8fc1-8ac5239110b0","ios":"levelo://app?vid=46a428a1-3a45-4310-8fc1-8ac5239110b0"},"vehicle_type_id":"4","last_reported":1746515452,"current_range_meters":16800,"station_id":"ce4bhip2rcd13ifvqft0","pricing_plan_id":"cebpf4jnsgd1na2vs0mg"},{"bike_id":"2871b4ad-8f5f-45b6-8c62-9347224b7580","system_id":"levelo_inurba_marseille","lat":43.26196,"lon":5.37938,"is_reserved":false,"is_disabled":false,"rental_uris":{"android":"levelo://app?vid=2871b4ad-8f5f-45b6-8c62-9347224b7580","ios":"levelo://app?vid=2871b4ad-8f5f-45b6-8c62-9347224b7580"},"vehicle_type_id":"4","last_reported":1746515452,"current_range_meters":16800,"station_id":"ce4bhjp2rcd13ifvqg90","pricing_plan_id":"cebpf4jnsgd1na2vs0mg"},{"bike_id":"8671b25d-88e0-4c3b-a453-58f584694e44","system_id":"levelo_inurba_marseille","lat":43.32542,"lon":5.41435,"is_reserved":false,"is_disabled":false,"rental_uris":{"android":"levelo://app?vid=8671b25d-88e0-4c3b-a453-58f584694e44","ios":"levelo://app?vid=8671b25d-88e0-4c3b-a453-58f584694e44"},"vehicle_type_id":"4","last_reported":1746515452,"current_range_meters":16800,"station_id":"ce4bhq12rcd13ifvqhhg","pricing_plan_id":"cebpf4jnsgd1na2vs0mg"},{"bike_id":"72087905-a88e-42e2-91dc-2f337f048b73","system_id":"levelo_inurba_marseille","lat":43.3199,"lon":5.38159,"is_reserved":false,"is_disabled":false,"rental_uris":{"android":"levelo://app?vid=72087905-a88e-42e2-91dc-2f337f048b73","ios":"levelo://app?vid=72087905-a88e-42e2-91dc-2f337f048b73"},"vehicle_type_id":"4","last_reported":1746515452,"current_range_meters":16800,"station_id":"ce4bhr12rcd13ifvqhpg","pricing_plan_id":"cebpf4jnsgd1na2vs0mg"},{"bike_id":"13d72c90-097d-44e3-a161-c92142027aeb","system_id":"levelo_inurba_marseille","lat":43.32115,"lon":5.36732,"is_reserved":false,"is_disabled":false,"rental_uris":{"android":"levelo://app?vid=13d72c90-097d-44e3-a161-c92142027aeb","ios":"levelo://app?vid=13d72c90-097d-44e3-a161-c92142027aeb"},"vehicle_type_id":"4","last_reported":1746515452,"current_range_meters":16800,"station_id":"ce4bhrh2rcd13ifvqhug","pricing_plan_id":"cebpf4jnsgd1na2vs0mg"},{"bike_id":"ad5f8d36-d7d9-41ae-9bd2-f1f8920bde90","system_id":"levelo_inurba_marseille","lat":43.26256,"lon":5.38769,"is_reserved":false,"is_disabled":false,"rental_uris":{"android":"levelo://app?vid=ad5f8d36-d7d9-41ae-9bd2-f1f8920bde90","ios":"levelo://app?vid=ad5f8d36-d7d9-41ae-9bd2-f1f8920bde90"},"vehicle_type_id":"4","last_reported":1746515452,"current_range_meters":17200,"station_id":"","pricing_plan_id":"cebpf4jnsgd1na2vs0mg"},{"bike_id":"06e3460e-1e91-48c6-9656-977cd75c9fce","system_id":"levelo_inurba_marseille","lat":43.3017,"lon":5.38064,"is_reserved":false,"is_disabled":false,"rental_uris":{"android":"levelo://app?vid=06e3460e-1e91-48c6-9656-977cd75c9fce","ios":"levelo://app?vid=06e3460e-1e91-48c6-9656-977cd75c9fce"},"vehicle_type_id":"4","last_reported":1746515452,"current_range_meters":17200,"station_id":"ce4bgjp2rcd13ifvqbh0","pricing_plan_id":"cebpf4jnsgd1na2vs0mg"},{"bike_id":"2d681e3a-2beb-4980-ae98-d93c0b6af1c3","system_id":"levelo_inurba_marseille","lat":43.24074,"lon":5.37759,"is_reserved":false,"is_disabled":false,"rental_uris":{"android":"levelo://app?vid=2d681e3a-2beb-4980-ae98-d93c0b6af1c3","ios":"levelo://app?vid=2d681e3a-2beb-4980-ae98-d93c0b6af1c3"},"vehicle_type_id":"4","last_reported":1746515452,"current_range_meters":17200,"station_id":"ce4bhnp2rcd13ifvqgvg","pricing_plan_id":"cebpf4jnsgd1na2vs0mg"},{"bike_id":"f2896b63-be3f-4a92-821e-32f3ff6f6c19","system_id":"levelo_inurba_marseille","lat":43.3359,"lon":5.41046,"is_reserved":false,"is_disabled":false,"rental_uris":{"android":"levelo://app?vid=f2896b63-be3f-4a92-821e-32f3ff6f6c19","ios":"levelo://app?vid=f2896b63-be3f-4a92-821e-32f3ff6f6c19"},"vehicle_type_id":"4","last_reported":1746515452,"current_range_meters":17200,"station_id":"ce4bhqh2rcd13ifvqhmg","pricing_plan_id":"cebpf4jnsgd1na2vs0mg"},{"bike_id":"b4bac287-3615-423a-bca2-a11fb80cb066","system_id":"levelo_inurba_marseille","lat":43.23035,"lon":5.35458,"is_reserved":false,"is_disabled":false,"rental_uris":{"android":"levelo://app?vid=b4bac287-3615-423a-bca2-a11fb80cb066","ios":"levelo://app?vid=b4bac287-3615-423a-bca2-a11fb80cb066"},"vehicle_type_id":"4","last_reported":1746515452,"current_range_meters":17200,"station_id":"cpo3342slgdg3j2ifvpg","pricing_plan_id":"cebpf4jnsgd1na2vs0mg"},{"bike_id":"ceabe490-1f11-4366-85ad-8996dd4944f3","system_id":"levelo_inurba_marseille","lat":43.29299,"lon":5.37153,"is_reserved":false,"is_disabled":false,"rental_uris":{"android":"levelo://app?vid=ceabe490-1f11-4366-85ad-8996dd4944f3","ios":"levelo://app?vid=ceabe490-1f11-4366-85ad-8996dd4944f3"},"vehicle_type_id":"4","last_reported":1746515452,"current_range_meters":17600,"station_id":"ce4bgh92rcd13ifvqb40","pricing_plan_id":"cebpf4jnsgd1na2vs0mg"},{"bike_id":"a5c2eaa5-41b0-4097-b661-c7ccca3f19ce","system_id":"levelo_inurba_marseille","lat":43.31217,"lon":5.36849,"is_reserved":false,"is_disabled":false,"rental_uris":{"android":"levelo://app?vid=a5c2eaa5-41b0-4097-b661-c7ccca3f19ce","ios":"levelo://app?vid=a5c2eaa5-41b0-4097-b661-c7ccca3f19ce"},"vehicle_type_id":"4","last_reported":1746515452,"current_range_meters":17600,"station_id":"ce4bgl92rcd13ifvqbq0","pricing_plan_id":"cebpf4jnsgd1na2vs0mg"},{"bike_id":"ed29a6c6-dd47-48e5-a340-454d7add3309","system_id":"levelo_inurba_marseille","lat":43.31343,"lon":5.36709,"is_reserved":false,"is_disabled":false,"rental_uris":{"android":"levelo://app?vid=ed29a6c6-dd47-48e5-a340-454d7add3309","ios":"levelo://app?vid=ed29a6c6-dd47-48e5-a340-454d7add3309"},"vehicle_type_id":"4","last_reported":1746515452,"current_range_meters":17600,"station_id":"ce4bgr92rcd13ifvqc6g","pricing_plan_id":"cebpf4jnsgd1na2vs0mg"},{"bike_id":"5a62118a-6635-4fdb-8732-0c1d09fda92a","system_id":"levelo_inurba_marseille","lat":43.3028,"lon":5.37683,"is_reserved":false,"is_disabled":false,"rental_uris":{"android":"levelo://app?vid=5a62118a-6635-4fdb-8732-0c1d09fda92a","ios":"levelo://app?vid=5a62118a-6635-4fdb-8732-0c1d09fda92a"},"vehicle_type_id":"4","last_reported":1746515452,"current_range_meters":17600,"station_id":"ce4bguh2rcd13ifvqcj0","pricing_plan_id":"cebpf4jnsgd1na2vs0mg"},{"bike_id":"cd3a86c3-ce67-4199-9059-3fd4f155845e","system_id":"levelo_inurba_marseille","lat":43.29007,"lon":5.35608,"is_reserved":false,"is_disabled":false,"rental_uris":{"android":"levelo://app?vid=cd3a86c3-ce67-4199-9059-3fd4f155845e","ios":"levelo://app?vid=cd3a86c3-ce67-4199-9059-3fd4f155845e"},"vehicle_type_id":"4","last_reported":1746515452,"current_range_meters":17600,"station_id":"ce4bhb92rcd13ifvqen0","pricing_plan_id":"cebpf4jnsgd1na2vs0mg"},{"bike_id":"4448e0b6-b593-4c8f-97fe-dd6b643e1810","system_id":"levelo_inurba_marseille","lat":43.26565,"lon":5.39012,"is_reserved":false,"is_disabled":false,"rental_uris":{"android":"levelo://app?vid=4448e0b6-b593-4c8f-97fe-dd6b643e1810","ios":"levelo://app?vid=4448e0b6-b593-4c8f-97fe-dd6b643e1810"},"vehicle_type_id":"4","last_reported":1746515452,"current_range_meters":17600,"station_id":"ce4bhe12rcd13ifvqf30","pricing_plan_id":"cebpf4jnsgd1na2vs0mg"},{"bike_id":"2714f713-c769-4f6a-ac44-441a635e9cba","system_id":"levelo_inurba_marseille","lat":43.21633,"lon":5.34235,"is_reserved":false,"is_disabled":false,"rental_uris":{"android":"levelo://app?vid=2714f713-c769-4f6a-ac44-441a635e9cba","ios":"levelo://app?vid=2714f713-c769-4f6a-ac44-441a635e9cba"},"vehicle_type_id":"4","last_reported":1746515452,"current_range_meters":18000,"station_id":"","pricing_plan_id":"cebpf4jnsgd1na2vs0mg"},{"bike_id":"55f874ac-ce6b-4fc1-bac3-4809272ef2bd","system_id":"levelo_inurba_marseille","lat":43.26567,"lon":5.39002,"is_reserved":false,"is_disabled":false,"rental_uris":{"android":"levelo://app?vid=55f874ac-ce6b-4fc1-bac3-4809272ef2bd","ios":"levelo://app?vid=55f874ac-ce6b-4fc1-bac3-4809272ef2bd"},"vehicle_type_id":"4","last_reported":1746515452,"current_range_meters":18000,"station_id":"ce4bhe12rcd13ifvqf30","pricing_plan_id":"cebpf4jnsgd1na2vs0mg"},{"bike_id":"b828e3e1-7cc6-4dea-a774-f8960c79a25c","system_id":"levelo_inurba_marseille","lat":43.3249,"lon":5.36574,"is_reserved":false,"is_disabled":false,"rental_uris":{"android":"levelo://app?vid=b828e3e1-7cc6-4dea-a774-f8960c79a25c","ios":"levelo://app?vid=b828e3e1-7cc6-4dea-a774-f8960c79a25c"},"vehicle_type_id":"4","last_reported":1746515452,"current_range_meters":18000,"station_id":"ce4bhs12rcd13ifvqhvg","pricing_plan_id":"cebpf4jnsgd1na2vs0mg"},{"bike_id":"4fd6bfff-2fba-4479-9355-04d32eaca128","system_id":"levelo_inurba_marseille","lat":43.232,"lon":5.35553,"is_reserved":false,"is_disabled":false,"rental_uris":{"android":"levelo://app?vid=4fd6bfff-2fba-4479-9355-04d32eaca128","ios":"levelo://app?vid=4fd6bfff-2fba-4479-9355-04d32eaca128"},"vehicle_type_id":"4","last_reported":1746515452,"current_range_meters":18000,"station_id":"ce4bhu92rcd13ifvqi70","pricing_plan_id":"cebpf4jnsgd1na2vs0mg"},{"bike_id":"9dc08ece-7f96-4723-af2e-cd14da4d0687","system_id":"levelo_inurba_marseille","lat":43.30549,"lon":5.36554,"is_reserved":false,"is_disabled":false,"rental_uris":{"android":"levelo://app?vid=9dc08ece-7f96-4723-af2e-cd14da4d0687","ios":"levelo://app?vid=9dc08ece-7f96-4723-af2e-cd14da4d0687"},"vehicle_type_id":"4","last_reported":1746515452,"current_range_meters":18800,"station_id":"ce4bgs12rcd13ifvqcag","pricing_plan_id":"cebpf4jnsgd1na2vs0mg"},{"bike_id":"580454d2-edf0-4dbc-8a30-a7a17bd4d255","system_id":"levelo_inurba_marseille","lat":43.29037,"lon":5.3756,"is_reserved":false,"is_disabled":false,"rental_uris":{"android":"levelo://app?vid=580454d2-edf0-4dbc-8a30-a7a17bd4d255","ios":"levelo://app?vid=580454d2-edf0-4dbc-8a30-a7a17bd4d255"},"vehicle_type_id":"4","last_reported":1746515452,"current_range_meters":18800,"station_id":"ce4bh692rcd13ifvqe90","pricing_plan_id":"cebpf4jnsgd1na2vs0mg"},{"bike_id":"b4216838-733b-46cd-aae7-8693e0287a61","system_id":"levelo_inurba_marseille","lat":43.22932,"lon":5.35362,"is_reserved":false,"is_disabled":false,"rental_uris":{"android":"levelo://app?vid=b4216838-733b-46cd-aae7-8693e0287a61","ios":"levelo://app?vid=b4216838-733b-46cd-aae7-8693e0287a61"},"vehicle_type_id":"4","last_reported":1746515452,"current_range_meters":18800,"station_id":"cpo3532slgdg3j2ikp40","pricing_plan_id":"cebpf4jnsgd1na2vs0mg"},{"bike_id":"ac700e2e-c129-4f82-a3c3-f628077933a6","system_id":"levelo_inurba_marseille","lat":43.21239,"lon":5.3504,"is_reserved":false,"is_disabled":false,"rental_uris":{"android":"levelo://app?vid=ac700e2e-c129-4f82-a3c3-f628077933a6","ios":"levelo://app?vid=ac700e2e-c129-4f82-a3c3-f628077933a6"},"vehicle_type_id":"4","last_reported":1746515452,"current_range_meters":19200,"station_id":"","pricing_plan_id":"cebpf4jnsgd1na2vs0mg"},{"bike_id":"52fde0f0-4da6-4bd6-947a-c68a0bef5b9e","system_id":"levelo_inurba_marseille","lat":43.29799,"lon":5.38075,"is_reserved":false,"is_disabled":false,"rental_uris":{"android":"levelo://app?vid=52fde0f0-4da6-4bd6-947a-c68a0bef5b9e","ios":"levelo://app?vid=52fde0f0-4da6-4bd6-947a-c68a0bef5b9e"},"vehicle_type_id":"4","last_reported":1746515452,"current_range_meters":19200,"station_id":"ce4bgip2rcd13ifvqbb0","pricing_plan_id":"cebpf4jnsgd1na2vs0mg"},{"bike_id":"4d01812b-8d26-4bd4-bf67-f53abb7b1dca","system_id":"levelo_inurba_marseille","lat":43.27621,"lon":5.36104,"is_reserved":false,"is_disabled":false,"rental_uris":{"android":"levelo://app?vid=4d01812b-8d26-4bd4-bf67-f53abb7b1dca","ios":"levelo://app?vid=4d01812b-8d26-4bd4-bf67-f53abb7b1dca"},"vehicle_type_id":"4","last_reported":1746515452,"current_range_meters":19200,"station_id":"ce4bgj92rcd13ifvqbe0","pricing_plan_id":"cebpf4jnsgd1na2vs0mg"},{"bike_id":"de32125e-82b4-49a7-b23a-9f246953f10e","system_id":"levelo_inurba_marseille","lat":43.30913,"lon":5.36846,"is_reserved":false,"is_disabled":false,"rental_uris":{"android":"levelo://app?vid=de32125e-82b4-49a7-b23a-9f246953f10e","ios":"levelo://app?vid=de32125e-82b4-49a7-b23a-9f246953f10e"},"vehicle_type_id":"4","last_reported":1746515452,"current_range_meters":19200,"station_id":"ce4bgn92rcd13ifvqbvg","pricing_plan_id":"cebpf4jnsgd1na2vs0mg"},{"bike_id":"9439ad48-891f-4fcf-a72b-ba0604a586bd","system_id":"levelo_inurba_marseille","lat":43.25943,"lon":5.40906,"is_reserved":false,"is_disabled":false,"rental_uris":{"android":"levelo://app?vid=9439ad48-891f-4fcf-a72b-ba0604a586bd","ios":"levelo://app?vid=9439ad48-891f-4fcf-a72b-ba0604a586bd"},"vehicle_type_id":"4","last_reported":1746515452,"current_range_meters":19200,"station_id":"ce4bhm92rcd13ifvqglg","pricing_plan_id":"cebpf4jnsgd1na2vs0mg"},{"bike_id":"9abf2d7c-556b-4302-8913-d42c438a4606","system_id":"levelo_inurba_marseille","lat":43.27496,"lon":5.42463,"is_reserved":false,"is_disabled":false,"rental_uris":{"android":"levelo://app?vid=9abf2d7c-556b-4302-8913-d42c438a4606","ios":"levelo://app?vid=9abf2d7c-556b-4302-8913-d42c438a4606"},"vehicle_type_id":"4","last_reported":1746515452,"current_range_meters":19200,"station_id":"ce4bhn92rcd13ifvqgrg","pricing_plan_id":"cebpf4jnsgd1na2vs0mg"},{"bike_id":"2ecbd89d-7224-4d74-815e-f74b44d955d9","system_id":"levelo_inurba_marseille","lat":43.24075,"lon":5.37762,"is_reserved":false,"is_disabled":false,"rental_uris":{"android":"levelo://app?vid=2ecbd89d-7224-4d74-815e-f74b44d955d9","ios":"levelo://app?vid=2ecbd89d-7224-4d74-815e-f74b44d955d9"},"vehicle_type_id":"4","last_reported":1746515452,"current_range_meters":19200,"station_id":"ce4bhnp2rcd13ifvqgvg","pricing_plan_id":"cebpf4jnsgd1na2vs0mg"},{"bike_id":"72ebbbdb-13e1-4c88-ab3c-b8b2bc65db3e","system_id":"levelo_inurba_marseille","lat":43.24071,"lon":5.37768,"is_reserved":false,"is_disabled":false,"rental_uris":{"android":"levelo://app?vid=72ebbbdb-13e1-4c88-ab3c-b8b2bc65db3e","ios":"levelo://app?vid=72ebbbdb-13e1-4c88-ab3c-b8b2bc65db3e"},"vehicle_type_id":"4","last_reported":1746515452,"current_range_meters":19200,"station_id":"ce4bhnp2rcd13ifvqgvg","pricing_plan_id":"cebpf4jnsgd1na2vs0mg"},{"bike_id":"5998f848-e628-4b79-ba34-dcfa82f153e7","system_id":"levelo_inurba_marseille","lat":43.337649,"lon":5.374653,"is_reserved":false,"is_disabled":false,"rental_uris":{"android":"levelo://app?vid=5998f848-e628-4b79-ba34-dcfa82f153e7","ios":"levelo://app?vid=5998f848-e628-4b79-ba34-dcfa82f153e7"},"vehicle_type_id":"4","last_reported":1746515452,"current_range_meters":19600,"station_id":"","pricing_plan_id":"cebpf4jnsgd1na2vs0mg"},{"bike_id":"2f5f5a7a-52f7-4742-9f25-3d3906d9bc71","system_id":"levelo_inurba_marseille","lat":43.30649,"lon":5.40086,"is_reserved":false,"is_disabled":false,"rental_uris":{"android":"levelo://app?vid=2f5f5a7a-52f7-4742-9f25-3d3906d9bc71","ios":"levelo://app?vid=2f5f5a7a-52f7-4742-9f25-3d3906d9bc71"},"vehicle_type_id":"4","last_reported":1746515452,"current_range_meters":19600,"station_id":"ce4bh112rcd13ifvqda0","pricing_plan_id":"cebpf4jnsgd1na2vs0mg"},{"bike_id":"12f4822a-35ff-44b2-ab0e-dea44eef517f","system_id":"levelo_inurba_marseille","lat":43.284379,"lon":5.391999,"is_reserved":false,"is_disabled":false,"rental_uris":{"android":"levelo://app?vid=12f4822a-35ff-44b2-ab0e-dea44eef517f","ios":"levelo://app?vid=12f4822a-35ff-44b2-ab0e-dea44eef517f"},"vehicle_type_id":"4","last_reported":1746515452,"current_range_meters":19600,"station_id":"ce4bhoh2rcd13ifvqh5g","pricing_plan_id":"cebpf4jnsgd1na2vs0mg"},{"bike_id":"0abcae01-1862-4143-bdf4-a1c33ab44636","system_id":"levelo_inurba_marseille","lat":43.32548,"lon":5.41465,"is_reserved":false,"is_disabled":false,"rental_uris":{"android":"levelo://app?vid=0abcae01-1862-4143-bdf4-a1c33ab44636","ios":"levelo://app?vid=0abcae01-1862-4143-bdf4-a1c33ab44636"},"vehicle_type_id":"4","last_reported":1746515452,"current_range_meters":19600,"station_id":"ce4bhq12rcd13ifvqhhg","pricing_plan_id":"cebpf4jnsgd1na2vs0mg"},{"bike_id":"a3dc441c-3dd7-42dc-913a-7db783432e14","system_id":"levelo_inurba_marseille","lat":43.28599,"lon":5.37044,"is_reserved":false,"is_disabled":false,"rental_uris":{"android":"levelo://app?vid=a3dc441c-3dd7-42dc-913a-7db783432e14","ios":"levelo://app?vid=a3dc441c-3dd7-42dc-913a-7db783432e14"},"vehicle_type_id":"4","last_reported":1746515452,"current_range_meters":19600,"station_id":"ce4bht12rcd13ifvqi60","pricing_plan_id":"cebpf4jnsgd1na2vs0mg"},{"bike_id":"ea4762e8-256b-4c73-a917-b8c3e12612ed","system_id":"levelo_inurba_marseille","lat":43.261179,"lon":5.414678,"is_reserved":false,"is_disabled":false,"rental_uris":{"android":"levelo://app?vid=ea4762e8-256b-4c73-a917-b8c3e12612ed","ios":"levelo://app?vid=ea4762e8-256b-4c73-a917-b8c3e12612ed"},"vehicle_type_id":"4","last_reported":1746515452,"current_range_meters":20000,"station_id":"","pricing_plan_id":"cebpf4jnsgd1na2vs0mg"},{"bike_id":"2fa0b816-7ec6-4882-9376-089f3a9e406c","system_id":"levelo_inurba_marseille","lat":43.337763,"lon":5.374982,"is_reserved":false,"is_disabled":false,"rental_uris":{"android":"levelo://app?vid=2fa0b816-7ec6-4882-9376-089f3a9e406c","ios":"levelo://app?vid=2fa0b816-7ec6-4882-9376-089f3a9e406c"},"vehicle_type_id":"4","last_reported":1746515452,"current_range_meters":20000,"station_id":"","pricing_plan_id":"cebpf4jnsgd1na2vs0mg"},{"bike_id":"50a8e2eb-afbe-40af-9d07-12b502b7f401","system_id":"levelo_inurba_marseille","lat":43.31349,"lon":5.36719,"is_reserved":false,"is_disabled":false,"rental_uris":{"android":"levelo://app?vid=50a8e2eb-afbe-40af-9d07-12b502b7f401","ios":"levelo://app?vid=50a8e2eb-afbe-40af-9d07-12b502b7f401"},"vehicle_type_id":"4","last_reported":1746515452,"current_range_meters":20000,"station_id":"ce4bgr92rcd13ifvqc6g","pricing_plan_id":"cebpf4jnsgd1na2vs0mg"},{"bike_id":"49757577-4272-4cea-b10a-7853fa44c2f8","system_id":"levelo_inurba_marseille","lat":43.24388,"lon":5.37057,"is_reserved":false,"is_disabled":false,"rental_uris":{"android":"levelo://app?vid=49757577-4272-4cea-b10a-7853fa44c2f8","ios":"levelo://app?vid=49757577-4272-4cea-b10a-7853fa44c2f8"},"vehicle_type_id":"4","last_reported":1746515452,"current_range_meters":20000,"station_id":"ce4bhhh2rcd13ifvqfk0","pricing_plan_id":"cebpf4jnsgd1na2vs0mg"},{"bike_id":"f1d41c01-070c-472b-9416-6f437619b291","system_id":"levelo_inurba_marseille","lat":43.23152,"lon":5.43717,"is_reserved":false,"is_disabled":false,"rental_uris":{"android":"levelo://app?vid=f1d41c01-070c-472b-9416-6f437619b291","ios":"levelo://app?vid=f1d41c01-070c-472b-9416-6f437619b291"},"vehicle_type_id":"4","last_reported":1746515452,"current_range_meters":20000,"station_id":"ce4bhmp2rcd13ifvqgog","pricing_plan_id":"cebpf4jnsgd1na2vs0mg"},{"bike_id":"9a815670-e042-4e15-ada9-ab54cb7addda","system_id":"levelo_inurba_marseille","lat":43.31286,"lon":5.36742,"is_reserved":false,"is_disabled":false,"rental_uris":{"android":"levelo://app?vid=9a815670-e042-4e15-ada9-ab54cb7addda","ios":"levelo://app?vid=9a815670-e042-4e15-ada9-ab54cb7addda"},"vehicle_type_id":"4","last_reported":1746515452,"current_range_meters":20400,"station_id":"","pricing_plan_id":"cebpf4jnsgd1na2vs0mg"},{"bike_id":"b2265b4e-cef3-4dda-b587-d2d9070d4b99","system_id":"levelo_inurba_marseille","lat":43.30886,"lon":5.39652,"is_reserved":false,"is_disabled":false,"rental_uris":{"android":"levelo://app?vid=b2265b4e-cef3-4dda-b587-d2d9070d4b99","ios":"levelo://app?vid=b2265b4e-cef3-4dda-b587-d2d9070d4b99"},"vehicle_type_id":"4","last_reported":1746515452,"current_range_meters":20400,"station_id":"ce4bh012rcd13ifvqcv0","pricing_plan_id":"cebpf4jnsgd1na2vs0mg"},{"bike_id":"a33f7374-008e-4395-8a1d-ee5e34e44664","system_id":"levelo_inurba_marseille","lat":43.26556,"lon":5.39011,"is_reserved":false,"is_disabled":false,"rental_uris":{"android":"levelo://app?vid=a33f7374-008e-4395-8a1d-ee5e34e44664","ios":"levelo://app?vid=a33f7374-008e-4395-8a1d-ee5e34e44664"},"vehicle_type_id":"4","last_reported":1746515452,"current_range_meters":20400,"station_id":"ce4bhe12rcd13ifvqf30","pricing_plan_id":"cebpf4jnsgd1na2vs0mg"},{"bike_id":"9f4fed7b-316e-4e77-99f1-c5c64e112a25","system_id":"levelo_inurba_marseille","lat":43.24172,"lon":5.39741,"is_reserved":false,"is_disabled":false,"rental_uris":{"android":"levelo://app?vid=9f4fed7b-316e-4e77-99f1-c5c64e112a25","ios":"levelo://app?vid=9f4fed7b-316e-4e77-99f1-c5c64e112a25"},"vehicle_type_id":"4","last_reported":1746515452,"current_range_meters":20400,"station_id":"ce4bhn12rcd13ifvqgpg","pricing_plan_id":"cebpf4jnsgd1na2vs0mg"},{"bike_id":"4fa44a4d-c738-41bc-9022-213fbeae4065","system_id":"levelo_inurba_marseille","lat":43.231818,"lon":5.399914,"is_reserved":false,"is_disabled":false,"rental_uris":{"android":"levelo://app?vid=4fa44a4d-c738-41bc-9022-213fbeae4065","ios":"levelo://app?vid=4fa44a4d-c738-41bc-9022-213fbeae4065"},"vehicle_type_id":"4","last_reported":1746515452,"current_range_meters":20400,"station_id":"ce4bhn12rcd13ifvqgqg","pricing_plan_id":"cebpf4jnsgd1na2vs0mg"},{"bike_id":"c9642721-5023-4250-b7d0-c4dbdeabc0f7","system_id":"levelo_inurba_marseille","lat":43.26209,"lon":5.37441,"is_reserved":false,"is_disabled":false,"rental_uris":{"android":"levelo://app?vid=c9642721-5023-4250-b7d0-c4dbdeabc0f7","ios":"levelo://app?vid=c9642721-5023-4250-b7d0-c4dbdeabc0f7"},"vehicle_type_id":"4","last_reported":1746515452,"current_range_meters":20800,"station_id":"ce4bhgp2rcd13ifvqfc0","pricing_plan_id":"cebpf4jnsgd1na2vs0mg"},{"bike_id":"7a2cc7e1-c2d7-4512-9ba8-d0991c34fe65","system_id":"levelo_inurba_marseille","lat":43.26514,"lon":5.3953,"is_reserved":false,"is_disabled":false,"rental_uris":{"android":"levelo://app?vid=7a2cc7e1-c2d7-4512-9ba8-d0991c34fe65","ios":"levelo://app?vid=7a2cc7e1-c2d7-4512-9ba8-d0991c34fe65"},"vehicle_type_id":"4","last_reported":1746515452,"current_range_meters":20800,"station_id":"ce4bhi12rcd13ifvqfq0","pricing_plan_id":"cebpf4jnsgd1na2vs0mg"},{"bike_id":"23b77e56-02cd-4338-917c-a93e4464a727","system_id":"levelo_inurba_marseille","lat":43.28706,"lon":5.38692,"is_reserved":false,"is_disabled":false,"rental_uris":{"android":"levelo://app?vid=23b77e56-02cd-4338-917c-a93e4464a727","ios":"levelo://app?vid=23b77e56-02cd-4338-917c-a93e4464a727"},"vehicle_type_id":"4","last_reported":1746515452,"current_range_meters":21600,"station_id":"","pricing_plan_id":"cebpf4jnsgd1na2vs0mg"},{"bike_id":"8a4b30e0-b491-4f8b-b56b-65294a62c555","system_id":"levelo_inurba_marseille","lat":43.254596,"lon":5.418924,"is_reserved":false,"is_disabled":false,"rental_uris":{"android":"levelo://app?vid=8a4b30e0-b491-4f8b-b56b-65294a62c555","ios":"levelo://app?vid=8a4b30e0-b491-4f8b-b56b-65294a62c555"},"vehicle_type_id":"4","last_reported":1746515452,"current_range_meters":21600,"station_id":"","pricing_plan_id":"cebpf4jnsgd1na2vs0mg"},{"bike_id":"fd3b0f62-8ba5-4448-a284-b2f655add70d","system_id":"levelo_inurba_marseille","lat":43.30804,"lon":5.38148,"is_reserved":false,"is_disabled":false,"rental_uris":{"android":"levelo://app?vid=fd3b0f62-8ba5-4448-a284-b2f655add70d","ios":"levelo://app?vid=fd3b0f62-8ba5-4448-a284-b2f655add70d"},"vehicle_type_id":"4","last_reported":1746515452,"current_range_meters":21600,"station_id":"ce4bgt12rcd13ifvqce0","pricing_plan_id":"cebpf4jnsgd1na2vs0mg"},{"bike_id":"b0b75e5f-6537-42c6-b398-1ea2a1201974","system_id":"levelo_inurba_marseille","lat":43.29573,"lon":5.39987,"is_reserved":false,"is_disabled":false,"rental_uris":{"android":"levelo://app?vid=b0b75e5f-6537-42c6-b398-1ea2a1201974","ios":"levelo://app?vid=b0b75e5f-6537-42c6-b398-1ea2a1201974"},"vehicle_type_id":"4","last_reported":1746515452,"current_range_meters":21600,"station_id":"ce4bh312rcd13ifvqdj0","pricing_plan_id":"cebpf4jnsgd1na2vs0mg"},{"bike_id":"1ea1a105-cd71-4582-ab3c-2c2815605389","system_id":"levelo_inurba_marseille","lat":43.27313,"lon":5.39072,"is_reserved":false,"is_disabled":false,"rental_uris":{"android":"levelo://app?vid=1ea1a105-cd71-4582-ab3c-2c2815605389","ios":"levelo://app?vid=1ea1a105-cd71-4582-ab3c-2c2815605389"},"vehicle_type_id":"4","last_reported":1746515452,"current_range_meters":21600,"station_id":"ce4bhgp2rcd13ifvqfe0","pricing_plan_id":"cebpf4jnsgd1na2vs0mg"},{"bike_id":"e51ecfb5-d3a3-4b5d-a466-5424b92b0d4f","system_id":"levelo_inurba_marseille","lat":43.2397,"lon":5.36622,"is_reserved":false,"is_disabled":false,"rental_uris":{"android":"levelo://app?vid=e51ecfb5-d3a3-4b5d-a466-5424b92b0d4f","ios":"levelo://app?vid=e51ecfb5-d3a3-4b5d-a466-5424b92b0d4f"},"vehicle_type_id":"4","last_reported":1746515452,"current_range_meters":21600,"station_id":"ce4bhi12rcd13ifvqfp0","pricing_plan_id":"cebpf4jnsgd1na2vs0mg"},{"bike_id":"705f855c-cbc5-4a9c-aba6-2c5e2abf4806","system_id":"levelo_inurba_marseille","lat":43.27808,"lon":5.40711,"is_reserved":false,"is_disabled":false,"rental_uris":{"android":"levelo://app?vid=705f855c-cbc5-4a9c-aba6-2c5e2abf4806","ios":"levelo://app?vid=705f855c-cbc5-4a9c-aba6-2c5e2abf4806"},"vehicle_type_id":"4","last_reported":1746515452,"current_range_meters":21600,"station_id":"ce4bhnh2rcd13ifvqgtg","pricing_plan_id":"cebpf4jnsgd1na2vs0mg"},{"bike_id":"59bd68bb-30fb-4000-952e-67d645e08019","system_id":"levelo_inurba_marseille","lat":43.32463,"lon":5.36555,"is_reserved":false,"is_disabled":false,"rental_uris":{"android":"levelo://app?vid=59bd68bb-30fb-4000-952e-67d645e08019","ios":"levelo://app?vid=59bd68bb-30fb-4000-952e-67d645e08019"},"vehicle_type_id":"4","last_reported":1746515452,"current_range_meters":21600,"station_id":"ce4bhs12rcd13ifvqhvg","pricing_plan_id":"cebpf4jnsgd1na2vs0mg"},{"bike_id":"2c2b3a30-3beb-4832-8fe6-81290e37a2a8","system_id":"levelo_inurba_marseille","lat":43.30151,"lon":5.38076,"is_reserved":false,"is_disabled":false,"rental_uris":{"android":"levelo://app?vid=2c2b3a30-3beb-4832-8fe6-81290e37a2a8","ios":"levelo://app?vid=2c2b3a30-3beb-4832-8fe6-81290e37a2a8"},"vehicle_type_id":"4","last_reported":1746515452,"current_range_meters":22000,"station_id":"ce4bgjp2rcd13ifvqbh0","pricing_plan_id":"cebpf4jnsgd1na2vs0mg"},{"bike_id":"f6d22065-d0f0-4804-a935-46776fce6ab8","system_id":"levelo_inurba_marseille","lat":43.31223,"lon":5.36834,"is_reserved":false,"is_disabled":false,"rental_uris":{"android":"levelo://app?vid=f6d22065-d0f0-4804-a935-46776fce6ab8","ios":"levelo://app?vid=f6d22065-d0f0-4804-a935-46776fce6ab8"},"vehicle_type_id":"4","last_reported":1746515452,"current_range_meters":22000,"station_id":"ce4bgl92rcd13ifvqbq0","pricing_plan_id":"cebpf4jnsgd1na2vs0mg"},{"bike_id":"4e770f32-b7ab-441a-9222-ddd4f7fb01b1","system_id":"levelo_inurba_marseille","lat":43.31073,"lon":5.42407,"is_reserved":false,"is_disabled":false,"rental_uris":{"android":"levelo://app?vid=4e770f32-b7ab-441a-9222-ddd4f7fb01b1","ios":"levelo://app?vid=4e770f32-b7ab-441a-9222-ddd4f7fb01b1"},"vehicle_type_id":"4","last_reported":1746515452,"current_range_meters":22000,"station_id":"ce4bhp92rcd13ifvqhag","pricing_plan_id":"cebpf4jnsgd1na2vs0mg"},{"bike_id":"81d2f5a2-3777-47fd-82b1-0ca42eb74e80","system_id":"levelo_inurba_marseille","lat":43.30889,"lon":5.3718,"is_reserved":false,"is_disabled":false,"rental_uris":{"android":"levelo://app?vid=81d2f5a2-3777-47fd-82b1-0ca42eb74e80","ios":"levelo://app?vid=81d2f5a2-3777-47fd-82b1-0ca42eb74e80"},"vehicle_type_id":"4","last_reported":1746515452,"current_range_meters":22400,"station_id":"ce4bguh2rcd13ifvqckg","pricing_plan_id":"cebpf4jnsgd1na2vs0mg"},{"bike_id":"4137d782-8ede-47fd-9136-e06c2853969c","system_id":"levelo_inurba_marseille","lat":43.336,"lon":5.41036,"is_reserved":false,"is_disabled":false,"rental_uris":{"android":"levelo://app?vid=4137d782-8ede-47fd-9136-e06c2853969c","ios":"levelo://app?vid=4137d782-8ede-47fd-9136-e06c2853969c"},"vehicle_type_id":"4","last_reported":1746515452,"current_range_meters":22400,"station_id":"ce4bhqh2rcd13ifvqhmg","pricing_plan_id":"cebpf4jnsgd1na2vs0mg"},{"bike_id":"a6975857-f4ed-4bff-b109-ad375119e9ec","system_id":"levelo_inurba_marseille","lat":43.309,"lon":5.36844,"is_reserved":false,"is_disabled":false,"rental_uris":{"android":"levelo://app?vid=a6975857-f4ed-4bff-b109-ad375119e9ec","ios":"levelo://app?vid=a6975857-f4ed-4bff-b109-ad375119e9ec"},"vehicle_type_id":"4","last_reported":1746515452,"current_range_meters":22800,"station_id":"ce4bgn92rcd13ifvqbvg","pricing_plan_id":"cebpf4jnsgd1na2vs0mg"},{"bike_id":"747fa666-93ef-4170-8c4d-87fc0e270073","system_id":"levelo_inurba_marseille","lat":43.3052,"lon":5.3671,"is_reserved":false,"is_disabled":false,"rental_uris":{"android":"levelo://app?vid=747fa666-93ef-4170-8c4d-87fc0e270073","ios":"levelo://app?vid=747fa666-93ef-4170-8c4d-87fc0e270073"},"vehicle_type_id":"4","last_reported":1746515452,"current_range_meters":22800,"station_id":"ce4bgrp2rcd13ifvqc9g","pricing_plan_id":"cebpf4jnsgd1na2vs0mg"},{"bike_id":"19d28130-bad9-4028-beb3-32848365b703","system_id":"levelo_inurba_marseille","lat":43.30159,"lon":5.37406,"is_reserved":false,"is_disabled":false,"rental_uris":{"android":"levelo://app?vid=19d28130-bad9-4028-beb3-32848365b703","ios":"levelo://app?vid=19d28130-bad9-4028-beb3-32848365b703"},"vehicle_type_id":"4","last_reported":1746515452,"current_range_meters":22800,"station_id":"ce4bgs92rcd13ifvqcc0","pricing_plan_id":"cebpf4jnsgd1na2vs0mg"},{"bike_id":"8863f5f5-1176-4085-9eec-bf116f486222","system_id":"levelo_inurba_marseille","lat":43.30468,"lon":5.37897,"is_reserved":false,"is_disabled":false,"rental_uris":{"android":"levelo://app?vid=8863f5f5-1176-4085-9eec-bf116f486222","ios":"levelo://app?vid=8863f5f5-1176-4085-9eec-bf116f486222"},"vehicle_type_id":"4","last_reported":1746515452,"current_range_meters":22800,"station_id":"ce4bgup2rcd13ifvqcn0","pricing_plan_id":"cebpf4jnsgd1na2vs0mg"},{"bike_id":"cc8b0e89-22c9-4a26-9203-67c48ee9efbc","system_id":"levelo_inurba_marseille","lat":43.26786,"lon":5.39414,"is_reserved":false,"is_disabled":false,"rental_uris":{"android":"levelo://app?vid=cc8b0e89-22c9-4a26-9203-67c48ee9efbc","ios":"levelo://app?vid=cc8b0e89-22c9-4a26-9203-67c48ee9efbc"},"vehicle_type_id":"4","last_reported":1746515452,"current_range_meters":22800,"station_id":"ce4bhh12rcd13ifvqfg0","pricing_plan_id":"cebpf4jnsgd1na2vs0mg"},{"bike_id":"eb4530fd-27a2-44aa-be4f-0ae2ee46c65c","system_id":"levelo_inurba_marseille","lat":43.27507,"lon":5.42416,"is_reserved":false,"is_disabled":false,"rental_uris":{"android":"levelo://app?vid=eb4530fd-27a2-44aa-be4f-0ae2ee46c65c","ios":"levelo://app?vid=eb4530fd-27a2-44aa-be4f-0ae2ee46c65c"},"vehicle_type_id":"4","last_reported":1746515452,"current_range_meters":22800,"station_id":"ce4bhn92rcd13ifvqgrg","pricing_plan_id":"cebpf4jnsgd1na2vs0mg"},{"bike_id":"9a67c149-4f77-4e11-bfb4-54cfbebe171f","system_id":"levelo_inurba_marseille","lat":43.24077,"lon":5.37757,"is_reserved":false,"is_disabled":false,"rental_uris":{"android":"levelo://app?vid=9a67c149-4f77-4e11-bfb4-54cfbebe171f","ios":"levelo://app?vid=9a67c149-4f77-4e11-bfb4-54cfbebe171f"},"vehicle_type_id":"4","last_reported":1746515452,"current_range_meters":22800,"station_id":"ce4bhnp2rcd13ifvqgvg","pricing_plan_id":"cebpf4jnsgd1na2vs0mg"},{"bike_id":"26fb47e5-1895-421d-81f5-2bde175ae3a0","system_id":"levelo_inurba_marseille","lat":43.29554,"lon":5.42292,"is_reserved":false,"is_disabled":false,"rental_uris":{"android":"levelo://app?vid=26fb47e5-1895-421d-81f5-2bde175ae3a0","ios":"levelo://app?vid=26fb47e5-1895-421d-81f5-2bde175ae3a0"},"vehicle_type_id":"4","last_reported":1746515452,"current_range_meters":22800,"station_id":"ce4bhph2rcd13ifvqhdg","pricing_plan_id":"cebpf4jnsgd1na2vs0mg"},{"bike_id":"fcb78f1a-fa3d-41f6-b562-a95f123aeacd","system_id":"levelo_inurba_marseille","lat":43.3372,"lon":5.39196,"is_reserved":false,"is_disabled":false,"rental_uris":{"android":"levelo://app?vid=fcb78f1a-fa3d-41f6-b562-a95f123aeacd","ios":"levelo://app?vid=fcb78f1a-fa3d-41f6-b562-a95f123aeacd"},"vehicle_type_id":"4","last_reported":1746515452,"current_range_meters":22800,"station_id":"ce4bhr92rcd13ifvqhsg","pricing_plan_id":"cebpf4jnsgd1na2vs0mg"},{"bike_id":"2f42a6fc-b7d1-40cc-a917-ee7e0070d967","system_id":"levelo_inurba_marseille","lat":43.3235,"lon":5.36727,"is_reserved":false,"is_disabled":false,"rental_uris":{"android":"levelo://app?vid=2f42a6fc-b7d1-40cc-a917-ee7e0070d967","ios":"levelo://app?vid=2f42a6fc-b7d1-40cc-a917-ee7e0070d967"},"vehicle_type_id":"4","last_reported":1746515452,"current_range_meters":22800,"station_id":"ce4bhsh2rcd13ifvqi2g","pricing_plan_id":"cebpf4jnsgd1na2vs0mg"},{"bike_id":"a992ce4e-b5d1-4ce3-984d-ec5733b98e65","system_id":"levelo_inurba_marseille","lat":43.29617,"lon":5.37719,"is_reserved":false,"is_disabled":false,"rental_uris":{"android":"levelo://app?vid=a992ce4e-b5d1-4ce3-984d-ec5733b98e65","ios":"levelo://app?vid=a992ce4e-b5d1-4ce3-984d-ec5733b98e65"},"vehicle_type_id":"4","last_reported":1746515452,"current_range_meters":23200,"station_id":"ce4bgi92rcd13ifvqb90","pricing_plan_id":"cebpf4jnsgd1na2vs0mg"},{"bike_id":"4edd0a44-b9b7-4215-8d28-976d299cb6ff","system_id":"levelo_inurba_marseille","lat":43.29933,"lon":5.37478,"is_reserved":false,"is_disabled":false,"rental_uris":{"android":"levelo://app?vid=4edd0a44-b9b7-4215-8d28-976d299cb6ff","ios":"levelo://app?vid=4edd0a44-b9b7-4215-8d28-976d299cb6ff"},"vehicle_type_id":"4","last_reported":1746515452,"current_range_meters":23200,"station_id":"ce4bgjh2rcd13ifvqbg0","pricing_plan_id":"cebpf4jnsgd1na2vs0mg"},{"bike_id":"d99c51ae-5a52-4f5f-b0ef-c505a66ba61f","system_id":"levelo_inurba_marseille","lat":43.30896,"lon":5.36833,"is_reserved":false,"is_disabled":false,"rental_uris":{"android":"levelo://app?vid=d99c51ae-5a52-4f5f-b0ef-c505a66ba61f","ios":"levelo://app?vid=d99c51ae-5a52-4f5f-b0ef-c505a66ba61f"},"vehicle_type_id":"4","last_reported":1746515452,"current_range_meters":23200,"station_id":"ce4bgn92rcd13ifvqbvg","pricing_plan_id":"cebpf4jnsgd1na2vs0mg"},{"bike_id":"2b89fc41-d9f9-4cfe-94ea-e65cd1e553d7","system_id":"levelo_inurba_marseille","lat":43.30557,"lon":5.36561,"is_reserved":false,"is_disabled":false,"rental_uris":{"android":"levelo://app?vid=2b89fc41-d9f9-4cfe-94ea-e65cd1e553d7","ios":"levelo://app?vid=2b89fc41-d9f9-4cfe-94ea-e65cd1e553d7"},"vehicle_type_id":"4","last_reported":1746515452,"current_range_meters":23200,"station_id":"ce4bgs12rcd13ifvqcag","pricing_plan_id":"cebpf4jnsgd1na2vs0mg"},{"bike_id":"d3c633cf-fccb-44ba-882e-bbe2d4a638d7","system_id":"levelo_inurba_marseille","lat":43.30146,"lon":5.37417,"is_reserved":false,"is_disabled":false,"rental_uris":{"android":"levelo://app?vid=d3c633cf-fccb-44ba-882e-bbe2d4a638d7","ios":"levelo://app?vid=d3c633cf-fccb-44ba-882e-bbe2d4a638d7"},"vehicle_type_id":"4","last_reported":1746515452,"current_range_meters":23200,"station_id":"ce4bgs92rcd13ifvqcc0","pricing_plan_id":"cebpf4jnsgd1na2vs0mg"},{"bike_id":"c538a225-c048-46eb-8b01-2473b45d29bc","system_id":"levelo_inurba_marseille","lat":43.26578,"lon":5.39001,"is_reserved":false,"is_disabled":false,"rental_uris":{"android":"levelo://app?vid=c538a225-c048-46eb-8b01-2473b45d29bc","ios":"levelo://app?vid=c538a225-c048-46eb-8b01-2473b45d29bc"},"vehicle_type_id":"4","last_reported":1746515452,"current_range_meters":23200,"station_id":"ce4bhe12rcd13ifvqf30","pricing_plan_id":"cebpf4jnsgd1na2vs0mg"},{"bike_id":"d5ab06e3-e77d-4b7f-a195-6a14c71353d9","system_id":"levelo_inurba_marseille","lat":43.26231,"lon":5.4045,"is_reserved":false,"is_disabled":false,"rental_uris":{"android":"levelo://app?vid=d5ab06e3-e77d-4b7f-a195-6a14c71353d9","ios":"levelo://app?vid=d5ab06e3-e77d-4b7f-a195-6a14c71353d9"},"vehicle_type_id":"4","last_reported":1746515452,"current_range_meters":23200,"station_id":"ce4bhmh2rcd13ifvqgmg","pricing_plan_id":"cebpf4jnsgd1na2vs0mg"},{"bike_id":"4c92ddfb-82c6-411c-8a4c-50ec62be918b","system_id":"levelo_inurba_marseille","lat":43.24109,"lon":5.37745,"is_reserved":false,"is_disabled":false,"rental_uris":{"android":"levelo://app?vid=4c92ddfb-82c6-411c-8a4c-50ec62be918b","ios":"levelo://app?vid=4c92ddfb-82c6-411c-8a4c-50ec62be918b"},"vehicle_type_id":"4","last_reported":1746515452,"current_range_meters":23200,"station_id":"ce4bhnp2rcd13ifvqgvg","pricing_plan_id":"cebpf4jnsgd1na2vs0mg"},{"bike_id":"96175c6b-7676-4c4f-8523-d41df33ea507","system_id":"levelo_inurba_marseille","lat":43.24073,"lon":5.37735,"is_reserved":false,"is_disabled":false,"rental_uris":{"android":"levelo://app?vid=96175c6b-7676-4c4f-8523-d41df33ea507","ios":"levelo://app?vid=96175c6b-7676-4c4f-8523-d41df33ea507"},"vehicle_type_id":"4","last_reported":1746515452,"current_range_meters":23200,"station_id":"ce4bhnp2rcd13ifvqgvg","pricing_plan_id":"cebpf4jnsgd1na2vs0mg"},{"bike_id":"9eb96c1c-a213-499c-ae57-f5bfa0625e95","system_id":"levelo_inurba_marseille","lat":43.31341,"lon":5.36728,"is_reserved":false,"is_disabled":false,"rental_uris":{"android":"levelo://app?vid=9eb96c1c-a213-499c-ae57-f5bfa0625e95","ios":"levelo://app?vid=9eb96c1c-a213-499c-ae57-f5bfa0625e95"},"vehicle_type_id":"4","last_reported":1746515452,"current_range_meters":24000,"station_id":"ce4bgr92rcd13ifvqc6g","pricing_plan_id":"cebpf4jnsgd1na2vs0mg"},{"bike_id":"a126f5be-6c35-452c-9bd3-2c6aba150718","system_id":"levelo_inurba_marseille","lat":43.28469,"lon":5.38411,"is_reserved":false,"is_disabled":false,"rental_uris":{"android":"levelo://app?vid=a126f5be-6c35-452c-9bd3-2c6aba150718","ios":"levelo://app?vid=a126f5be-6c35-452c-9bd3-2c6aba150718"},"vehicle_type_id":"4","last_reported":1746515452,"current_range_meters":24000,"station_id":"ce4bh512rcd13ifvqe3g","pricing_plan_id":"cebpf4jnsgd1na2vs0mg"},{"bike_id":"5c68f092-1f83-47ed-97d1-40ba4dcb6dfd","system_id":"levelo_inurba_marseille","lat":43.29283,"lon":5.36853,"is_reserved":false,"is_disabled":false,"rental_uris":{"android":"levelo://app?vid=5c68f092-1f83-47ed-97d1-40ba4dcb6dfd","ios":"levelo://app?vid=5c68f092-1f83-47ed-97d1-40ba4dcb6dfd"},"vehicle_type_id":"4","last_reported":1746515452,"current_range_meters":24000,"station_id":"ce4bhbp2rcd13ifvqesg","pricing_plan_id":"cebpf4jnsgd1na2vs0mg"},{"bike_id":"983a404f-14c7-456a-9282-ceffeda2b30b","system_id":"levelo_inurba_marseille","lat":43.27488,"lon":5.42437,"is_reserved":false,"is_disabled":false,"rental_uris":{"android":"levelo://app?vid=983a404f-14c7-456a-9282-ceffeda2b30b","ios":"levelo://app?vid=983a404f-14c7-456a-9282-ceffeda2b30b"},"vehicle_type_id":"4","last_reported":1746515452,"current_range_meters":24000,"station_id":"ce4bhn92rcd13ifvqgrg","pricing_plan_id":"cebpf4jnsgd1na2vs0mg"},{"bike_id":"39455129-be18-4a48-b213-64a15e98d058","system_id":"levelo_inurba_marseille","lat":43.27493,"lon":5.4245,"is_reserved":false,"is_disabled":false,"rental_uris":{"android":"levelo://app?vid=39455129-be18-4a48-b213-64a15e98d058","ios":"levelo://app?vid=39455129-be18-4a48-b213-64a15e98d058"},"vehicle_type_id":"4","last_reported":1746515452,"current_range_meters":24000,"station_id":"ce4bhn92rcd13ifvqgrg","pricing_plan_id":"cebpf4jnsgd1na2vs0mg"},