{"last_updated":1730422248,"ttl":60,"version":"2.2","data":{"bikes":[{"bike_id":"5fd68c18-e215-4c02-954b-6394dab0b45e","system_id":"levelo_inurba_marseille","lat":43.27581,"lon":5.38427,"is_reserved":false,"is_disabled":false,"rental_uris":{"android":"levelo://app?vid=5fd68c18-e215-4c02-954b-6394dab0b45e","ios":"levelo://app?vid=5fd68c18-e215-4c02-954b-6394dab0b45e"},"vehicle_type_id":"4","last_reported":1730422248,"current_range_meters":8800,"station_id":"ce4bhh92rcd13ifvqfi0","pricing_plan_id":"cebpf4jnsgd1na2vs0mg"},{"bike_id":"4619a927-69f6-4e40-aea7-50e83b0fe185","system_id":"levelo_inurba_marseille","lat":43.32482,"lon":5.36562,"is_reserved":false,"is_disabled":false,"rental_uris":{"android":"levelo://app?vid=4619a927-69f6-4e40-aea7-50e83b0fe185","ios":"levelo://app?vid=4619a927-69f6-4e40-aea7-50e83b0fe185"},"vehicle_type_id":"4","last_reported":1730422248,"current_range_meters":11600,"station_id":"ce4bhs12rcd13ifvqhvg","pricing_plan_id":"cebpf4jnsgd1na2vs0mg"},{"bike_id":"d752eb80-2ee6-4b2c-8494-d648b303158c","system_id":"levelo_inurba_marseille","lat":43.24668,"lon":5.38166,"is_reserved":false,"is_disabled":false,"rental_uris":{"android":"levelo://app?vid=d752eb80-2ee6-4b2c-8494-d648b303158c","ios":"levelo://app?vid=d752eb80-2ee6-4b2c-8494-d648b303158c"},"vehicle_type_id":"4","last_reported":1730422248,"current_range_meters":36800,"station_id":"ce4bhih2rcd13ifvqfr0","pricing_plan_id":"cebpf4jnsgd1na2vs0mg"},{"bike_id":"e3924428-a085-40f6-a0c3-a6a5f32fffb8","system_id":"levelo_inurba_marseille","lat":43.28698,"lon":5.39978,"is_reserved":false,"is_disabled":false,"rental_uris":{"android":"levelo://app?vid=e3924428-a085-40f6-a0c3-a6a5f32fffb8","ios":"levelo://app?vid=e3924428-a085-40f6-a0c3-a6a5f32fffb8"},"vehicle_type_id":"4","last_reported":1730422248,"current_range_meters":9200,"station_id":"ce4bho92rcd13ifvqh3g","pricing_plan_id":"cebpf4jnsgd1na2vs0mg"},{"bike_id":"5c908290-3b11-4f6a-9aaa-f0e4672a623e","system_id":"levelo_inurba_marseille","lat":43.29868,"lon":5.39738,"is_reserved":false,"is_disabled":false,"rental_uris":{"android":"levelo://app?vid=5c908290-3b11-4f6a-9aaa-f0e4672a623e","ios":"levelo://app?vid=5c908290-3b11-4f6a-9aaa-f0e4672a623e"},"vehicle_type_id":"4","last_reported":1730422248,"current_range_meters":27200,"station_id":"ce4bh0h2rcd13ifvqd50","pricing_plan_id":"cebpf4jnsgd1na2vs0mg"},{"bike_id":"4063cbdc-707f-49fa-b814-794f65f94376","system_id":"levelo_inurba_marseille","lat":43.26939,"lon":5.40259,"is_reserved":false,"is_disabled":false,"rental_uris":{"android":"levelo://app?vid=4063cbdc-707f-49fa-b814-794f65f94376","ios":"levelo://app?vid=4063cbdc-707f-49fa-b814-794f65f94376"},"vehicle_type_id":"4","last_reported":1730422248,"current_range_meters":37600,"station_id":"cjm6bp8fraef2m0cb0m0","pricing_plan_id":"cebpf4jnsgd1na2vs0mg"},{"bike_id":"b4d2ca60-71f9-4705-9e92-4b60bdad75d3","system_id":"levelo_inurba_marseille","lat":43.28664,"lon":5.36356,"is_reserved":false,"is_disabled":false,"rental_uris":{"android":"levelo://app?vid=b4d2ca60-71f9-4705-9e92-4b60bdad75d3","ios":"levelo://app?vid=b4d2ca60-71f9-4705-9e92-4b60bdad75d3"},"vehicle_type_id":"4","last_reported":1730422248,"current_range_meters":30400,"station_id":"ce4bhah2rcd13ifvqej0","pricing_plan_id":"cebpf4jnsgd1na2vs0mg"},{"bike_id":"d3f6b13d-06ef-4ca1-a422-11d462dadeb8","system_id":"levelo_inurba_marseille","lat":43.27995,"lon":5.41661,"is_reserved":false,"is_disabled":false,"rental_uris":{"android":"levelo://app?vid=d3f6b13d-06ef-4ca1-a422-11d462dadeb8","ios":"levelo://app?vid=d3f6b13d-06ef-4ca1-a422-11d462dadeb8"},"vehicle_type_id":"4","last_reported":1730422248,"current_range_meters":38000,"station_id":"ce4bho12rcd13ifvqh1g","pricing_plan_id":"cebpf4jnsgd1na2vs0mg"},{"bike_id":"b564d8bc-2b59-43dd-ad25-39bd7cd1e42e","system_id":"levelo_inurba_marseille","lat":43.317125,"lon":5.37758,"is_reserved":false,"is_disabled":false,"rental_uris":{"android":"levelo://app?vid=b564d8bc-2b59-43dd-ad25-39bd7cd1e42e","ios":"levelo://app?vid=b564d8bc-2b59-43dd-ad25-39bd7cd1e42e"},"vehicle_type_id":"4","last_reported":1730422248,"current_range_meters":9200,"station_id":"ce4bgth2rcd13ifvqch0","pricing_plan_id":"cebpf4jnsgd1na2vs0mg"},{"bike_id":"dbbfcc01-7363-4b11-b9a1-61b7d57f6179","system_id":"levelo_inurba_marseille","lat":43.29025,"lon":5.38143,"is_reserved":false,"is_disabled":false,"rental_uris":{"android":"levelo://app?vid=dbbfcc01-7363-4b11-b9a1-61b7d57f6179","ios":"levelo://app?vid=dbbfcc01-7363-4b11-b9a1-61b7d57f6179"},"vehicle_type_id":"4","last_reported":1730422248,"current_range_meters":38800,"station_id":"ce4bh4p2rcd13ifvqe1g","pricing_plan_id":"cebpf4jnsgd1na2vs0mg"},{"bike_id":"6c018690-f504-4a5b-bf9e-56f99c91e7df","system_id":"levelo_inurba_marseille","lat":43.30221,"lon":5.4174,"is_reserved":false,"is_disabled":false,"rental_uris":{"android":"levelo://app?vid=6c018690-f504-4a5b-bf9e-56f99c91e7df","ios":"levelo://app?vid=6c018690-f504-4a5b-bf9e-56f99c91e7df"},"vehicle_type_id":"4","last_reported":1730422248,"current_range_meters":35200,"station_id":"ce4bh492rcd13ifvqdug","pricing_plan_id":"cebpf4jnsgd1na2vs0mg"},{"bike_id":"ccdf8f45-f2e1-46e2-b932-c9192ef53d45","system_id":"levelo_inurba_marseille","lat":43.28436,"lon":5.3919,"is_reserved":false,"is_disabled":false,"rental_uris":{"android":"levelo://app?vid=ccdf8f45-f2e1-46e2-b932-c9192ef53d45","ios":"levelo://app?vid=ccdf8f45-f2e1-46e2-b932-c9192ef53d45"},"vehicle_type_id":"4","last_reported":1730422248,"current_range_meters":31200,"station_id":"ce4bhoh2rcd13ifvqh5g","pricing_plan_id":"cebpf4jnsgd1na2vs0mg"},{"bike_id":"91426a85-e91b-4fe5-bc3c-23e056f075f7","system_id":"levelo_inurba_marseille","lat":43.29264,"lon":5.3843,"is_reserved":false,"is_disabled":false,"rental_uris":{"android":"levelo://app?vid=91426a85-e91b-4fe5-bc3c-23e056f075f7","ios":"levelo://app?vid=91426a85-e91b-4fe5-bc3c-23e056f075f7"},"vehicle_type_id":"4","last_reported":1730422248,"current_range_meters":25600,"station_id":"ce4bh692rcd13ifvqea0","pricing_plan_id":"cebpf4jnsgd1na2vs0mg"},{"bike_id":"5afa0068-76a2-456a-bbe0-b3dc1b6b60f8","system_id":"levelo_inurba_marseille","lat":43.30928,"lon":5.40151,"is_reserved":false,"is_disabled":false,"rental_uris":{"android":"levelo://app?vid=5afa0068-76a2-456a-bbe0-b3dc1b6b60f8","ios":"levelo://app?vid=5afa0068-76a2-456a-bbe0-b3dc1b6b60f8"},"vehicle_type_id":"4","last_reported":1730422248,"current_range_meters":39200,"station_id":"ce4bgvp2rcd13ifvqct0","pricing_plan_id":"cebpf4jnsgd1na2vs0mg"},{"bike_id":"4424acf5-4fee-49ab-bce1-1a1e11ee7af5","system_id":"levelo_inurba_marseille","lat":43.25118,"lon":5.40322,"is_reserved":false,"is_disabled":false,"rental_uris":{"android":"levelo://app?vid=4424acf5-4fee-49ab-bce1-1a1e11ee7af5","ios":"levelo://app?vid=4424acf5-4fee-49ab-bce1-1a1e11ee7af5"},"vehicle_type_id":"4","last_reported":1730422248,"current_range_meters":17200,"station_id":"ce4bhlh2rcd13ifvqgig","pricing_plan_id":"cebpf4jnsgd1na2vs0mg"},{"bike_id":"a4627486-a087-47d1-bdea-e9476cd49986","system_id":"levelo_inurba_marseille","lat":43.23197,"lon":5.35546,"is_reserved":false,"is_disabled":false,"rental_uris":{"android":"levelo://app?vid=a4627486-a087-47d1-bdea-e9476cd49986","ios":"levelo://app?vid=a4627486-a087-47d1-bdea-e9476cd49986"},"vehicle_type_id":"4","last_reported":1730422248,"current_range_meters":34000,"station_id":"ce4bhu92rcd13ifvqi70","pricing_plan_id":"cebpf4jnsgd1na2vs0mg"},{"bike_id":"55dab1c5-8299-4ba5-b0e5-ab02ab9376bc","system_id":"levelo_inurba_marseille","lat":43.24177,"lon":5.3973,"is_reserved":false,"is_disabled":false,"rental_uris":{"android":"levelo://app?vid=55dab1c5-8299-4ba5-b0e5-ab02ab9376bc","ios":"levelo://app?vid=55dab1c5-8299-4ba5-b0e5-ab02ab9376bc"},"vehicle_type_id":"4","last_reported":1730422248,"current_range_meters":38400,"station_id":"ce4bhn12rcd13ifvqgpg","pricing_plan_id":"cebpf4jnsgd1na2vs0mg"},{"bike_id":"509a9bdc-ca48-4855-8040-748bb9b3087b","system_id":"levelo_inurba_marseille","lat":43.25936,"lon":5.40901,"is_reserved":false,"is_disabled":false,"rental_uris":{"android":"levelo://app?vid=509a9bdc-ca48-4855-8040-748bb9b3087b","ios":"levelo://app?vid=509a9bdc-ca48-4855-8040-748bb9b3087b"},"vehicle_type_id":"4","last_reported":1730422248,"current_range_meters":30400,"station_id":"ce4bhm92rcd13ifvqglg","pricing_plan_id":"cebpf4jnsgd1na2vs0mg"},{"bike_id":"7bb95899-f3bd-4435-b6e9-2db37eca5429","system_id":"levelo_inurba_marseille","lat":43.25107,"lon":5.40324,"is_reserved":false,"is_disabled":false,"rental_uris":{"android":"levelo://app?vid=7bb95899-f3bd-4435-b6e9-2db37eca5429","ios":"levelo://app?vid=7bb95899-f3bd-4435-b6e9-2db37eca5429"},"vehicle_type_id":"4","last_reported":1730422248,"current_range_meters":18800,"station_id":"ce4bhlh2rcd13ifvqgig","pricing_plan_id":"cebpf4jnsgd1na2vs0mg"},{"bike_id":"605b658e-4b51-4a13-8430-eba121ea5f89","system_id":"levelo_inurba_marseille","lat":43.29536,"lon":5.38544,"is_reserved":false,"is_disabled":false,"rental_uris":{"android":"levelo://app?vid=605b658e-4b51-4a13-8430-eba121ea5f89","ios":"levelo://app?vid=605b658e-4b51-4a13-8430-eba121ea5f89"},"vehicle_type_id":"4","last_reported":1730422248,"current_range_meters":34000,"station_id":"ce4bh0h2rcd13ifvqd50","pricing_plan_id":"cebpf4jnsgd1na2vs0mg"},{"bike_id":"efbe383f-83c6-4df5-ac1f-ffa8f2e0197b","system_id":"levelo_inurba_marseille","lat":43.31334,"lon":5.39704,"is_reserved":false,"is_disabled":false,"rental_uris":{"android":"levelo://app?vid=efbe383f-83c6-4df5-ac1f-ffa8f2e0197b","ios":"levelo://app?vid=efbe383f-83c6-4df5-ac1f-ffa8f2e0197b"},"vehicle_type_id":"4","last_reported":1730422248,"current_range_meters":12400,"station_id":"ce4bgvp2rcd13ifvqcu0","pricing_plan_id":"cebpf4jnsgd1na2vs0mg"},{"bike_id":"d85899e0-7960-4d22-88e1-92b3c3f646b0","system_id":"levelo_inurba_marseille","lat":43.29792,"lon":5.3935,"is_reserved":false,"is_disabled":false,"rental_uris":{"android":"levelo://app?vid=d85899e0-7960-4d22-88e1-92b3c3f646b0","ios":"levelo://app?vid=d85899e0-7960-4d22-88e1-92b3c3f646b0"},"vehicle_type_id":"4","last_reported":1730422248,"current_range_meters":23200,"station_id":"chh1huq6cuj3fo74tm60","pricing_plan_id":"cebpf4jnsgd1na2vs0mg"},{"bike_id":"8d08700d-ebe7-42f1-bf4b-675012e21591","system_id":"levelo_inurba_marseille","lat":43.30326,"lon":5.40447,"is_reserved":false,"is_disabled":false,"rental_uris":{"android":"levelo://app?vid=8d08700d-ebe7-42f1-bf4b-675012e21591","ios":"levelo://app?vid=8d08700d-ebe7-42f1-bf4b-675012e21591"},"vehicle_type_id":"4","last_reported":1730422248,"current_range_meters":9600,"station_id":"ce4bh012rcd13ifvqd10","pricing_plan_id":"cebpf4jnsgd1na2vs0mg"},{"bike_id":"346253b2-bc8a-459b-9780-8c87c73028fa","system_id":"levelo_inurba_marseille","lat":43.26682,"lon":5.38269,"is_reserved":false,"is_disabled":false,"rental_uris":{"android":"levelo://app?vid=346253b2-bc8a-459b-9780-8c87c73028fa","ios":"levelo://app?vid=346253b2-bc8a-459b-9780-8c87c73028fa"},"vehicle_type_id":"4","last_reported":1730422248,"current_range_meters":28000,"station_id":"ce4bhg92rcd13ifvqf90","pricing_plan_id":"cebpf4jnsgd1na2vs0mg"},{"bike_id":"9f97d214-e97e-4089-9432-ff3b0289936c","system_id":"levelo_inurba_marseille","lat":43.28464,"lon":5.35896,"is_reserved":false,"is_disabled":false,"rental_uris":{"android":"levelo://app?vid=9f97d214-e97e-4089-9432-ff3b0289936c","ios":"levelo://app?vid=9f97d214-e97e-4089-9432-ff3b0289936c"},"vehicle_type_id":"4","last_reported":1730422248,"current_range_meters":36400,"station_id":"ce4bhah2rcd13ifvqei0","pricing_plan_id":"cebpf4jnsgd1na2vs0mg"},{"bike_id":"b210f5c4-9c39-4b6e-8dd3-97d097dcc57b","system_id":"levelo_inurba_marseille","lat":43.26784,"lon":5.39418,"is_reserved":false,"is_disabled":false,"rental_uris":{"android":"levelo://app?vid=b210f5c4-9c39-4b6e-8dd3-97d097dcc57b","ios":"levelo://app?vid=b210f5c4-9c39-4b6e-8dd3-97d097dcc57b"},"vehicle_type_id":"4","last_reported":1730422248,"current_range_meters":34800,"station_id":"ce4bhh12rcd13ifvqfg0","pricing_plan_id":"cebpf4jnsgd1na2vs0mg"},{"bike_id":"de916830-e4e6-4f2f-b283-a6c557f01939","system_id":"levelo_inurba_marseille","lat":43.29789,"lon":5.39353,"is_reserved":false,"is_disabled":false,"rental_uris":{"android":"levelo://app?vid=de916830-e4e6-4f2f-b283-a6c557f01939","ios":"levelo://app?vid=de916830-e4e6-4f2f-b283-a6c557f01939"},"vehicle_type_id":"4","last_reported":1730422248,"current_range_meters":33200,"station_id":"chh1huq6cuj3fo74tm60","pricing_plan_id":"cebpf4jnsgd1na2vs0mg"},{"bike_id":"7022c03f-786d-431a-ac1b-2e29cbc5d392","system_id":"levelo_inurba_marseille","lat":43.30435,"lon":5.38891,"is_reserved":false,"is_disabled":false,"rental_uris":{"android":"levelo://app?vid=7022c03f-786d-431a-ac1b-2e29cbc5d392","ios":"levelo://app?vid=7022c03f-786d-431a-ac1b-2e29cbc5d392"},"vehicle_type_id":"4","last_reported":1730422248,"current_range_meters":25600,"station_id":"ce4bgk12rcd13ifvqbi0","pricing_plan_id":"cebpf4jnsgd1na2vs0mg"},{"bike_id":"902a84d5-56ca-468a-a9e6-146ab5c6eab3","system_id":"levelo_inurba_marseille","lat":43.25092,"lon":5.39523,"is_reserved":false,"is_disabled":false,"rental_uris":{"android":"levelo://app?vid=902a84d5-56ca-468a-a9e6-146ab5c6eab3","ios":"levelo://app?vid=902a84d5-56ca-468a-a9e6-146ab5c6eab3"},"vehicle_type_id":"4","last_reported":1730422248,"current_range_meters":22800,"station_id":"ce4bhm12rcd13ifvqgkg","pricing_plan_id":"cebpf4jnsgd1na2vs0mg"},{"bike_id":"98e591af-1b37-4791-81f8-0a1125c50536","system_id":"levelo_inurba_marseille","lat":43.26202,"lon":5.37927,"is_reserved":false,"is_disabled":false,"rental_uris":{"android":"levelo://app?vid=98e591af-1b37-4791-81f8-0a1125c50536","ios":"levelo://app?vid=98e591af-1b37-4791-81f8-0a1125c50536"},"vehicle_type_id":"4","last_reported":1730422248,"current_range_meters":38800,"station_id":"ce4bhjp2rcd13ifvqg90","pricing_plan_id":"cebpf4jnsgd1na2vs0mg"},{"bike_id":"0bc2cd55-be3b-42cb-b7ee-4172cbc42be5","system_id":"levelo_inurba_marseille","lat":43.30315,"lon":5.36891,"is_reserved":false,"is_disabled":false,"rental_uris":{"android":"levelo://app?vid=0bc2cd55-be3b-42cb-b7ee-4172cbc42be5","ios":"levelo://app?vid=0bc2cd55-be3b-42cb-b7ee-4172cbc42be5"},"vehicle_type_id":"4","last_reported":1730422248,"current_range_meters":35200,"station_id":"ce4bgqh2rcd13ifvqc5g","pricing_plan_id":"cebpf4jnsgd1na2vs0mg"},{"bike_id":"3ab642d6-f0e7-4176-9513-7ca2a30a1c90","system_id":"levelo_inurba_marseille","lat":43.33023,"lon":5.39042,"is_reserved":false,"is_disabled":false,"rental_uris":{"android":"levelo://app?vid=3ab642d6-f0e7-4176-9513-7ca2a30a1c90","ios":"levelo://app?vid=3ab642d6-f0e7-4176-9513-7ca2a30a1c90"},"vehicle_type_id":"4","last_reported":1730422248,"current_range_meters":38800,"station_id":"ce4bhr92rcd13ifvqhrg","pricing_plan_id":"cebpf4jnsgd1na2vs0mg"},{"bike_id":"32a91cdb-cfbd-4a52-b7d7-47115fddeaea","system_id":"levelo_inurba_marseille","lat":43.29786,"lon":5.39356,"is_reserved":false,"is_disabled":false,"rental_uris":{"android":"levelo://app?vid=32a91cdb-cfbd-4a52-b7d7-47115fddeaea","ios":"levelo://app?vid=32a91cdb-cfbd-4a52-b7d7-47115fddeaea"},"vehicle_type_id":"4","last_reported":1730422248,"current_range_meters":33600,"station_id":"chh1huq6cuj3fo74tm60","pricing_plan_id":"cebpf4jnsgd1na2vs0mg"},{"bike_id":"1466061d-f699-4017-bc8e-c40666ba05df","system_id":"levelo_inurba_marseille","lat":43.23959,"lon":5.36632,"is_reserved":false,"is_disabled":false,"rental_uris":{"android":"levelo://app?vid=1466061d-f699-4017-bc8e-c40666ba05df","ios":"levelo://app?vid=1466061d-f699-4017-bc8e-c40666ba05df"},"vehicle_type_id":"4","last_reported":1730422248,"current_range_meters":3600,"station_id":"ce4bhi12rcd13ifvqfp0","pricing_plan_id":"cebpf4jnsgd1na2vs0mg"},{"bike_id":"7b305f29-d680-4b81-ab86-c3c2de5fb7e5","system_id":"levelo_inurba_marseille","lat":43.3053,"lon":5.38424,"is_reserved":false,"is_disabled":false,"rental_uris":{"android":"levelo://app?vid=7b305f29-d680-4b81-ab86-c3c2de5fb7e5","ios":"levelo://app?vid=7b305f29-d680-4b81-ab86-c3c2de5fb7e5"},"vehicle_type_id":"4","last_reported":1730422248,"current_range_meters":30000,"station_id":"ce4bgg92rcd13ifvqb30","pricing_plan_id":"cebpf4jnsgd1na2vs0mg"},{"bike_id":"60d9d657-3ec8-40ef-b87b-c6f9930662bd","system_id":"levelo_inurba_marseille","lat":43.31482,"lon":5.37303,"is_reserved":false,"is_disabled":false,"rental_uris":{"android":"levelo://app?vid=60d9d657-3ec8-40ef-b87b-c6f9930662bd","ios":"levelo://app?vid=60d9d657-3ec8-40ef-b87b-c6f9930662bd"},"vehicle_type_id":"4","last_reported":1730422248,"current_range_meters":35600,"station_id":"ce4bgt12rcd13ifvqcd0","pricing_plan_id":"cebpf4jnsgd1na2vs0mg"},{"bike_id":"f8b0c64a-c98d-4010-bbd9-0d1d276b4bd4","system_id":"levelo_inurba_marseille","lat":43.29786,"lon":5.39327,"is_reserved":false,"is_disabled":false,"rental_uris":{"android":"levelo://app?vid=f8b0c64a-c98d-4010-bbd9-0d1d276b4bd4","ios":"levelo://app?vid=f8b0c64a-c98d-4010-bbd9-0d1d276b4bd4"},"vehicle_type_id":"4","last_reported":1730422248,"current_range_meters":38800,"station_id":"chh1huq6cuj3fo74tm60","pricing_plan_id":"cebpf4jnsgd1na2vs0mg"},{"bike_id":"4326d167-08ff-4bbe-b22d-8af37149490d","system_id":"levelo_inurba_marseille","lat":43.28102,"lon":5.37844,"is_reserved":false,"is_disabled":false,"rental_uris":{"android":"levelo://app?vid=4326d167-08ff-4bbe-b22d-8af37149490d","ios":"levelo://app?vid=4326d167-08ff-4bbe-b22d-8af37149490d"},"vehicle_type_id":"4","last_reported":1730422248,"current_range_meters":38400,"station_id":"ce4bha12rcd13ifvqee0","pricing_plan_id":"cebpf4jnsgd1na2vs0mg"},{"bike_id":"c24b2c05-36c8-48ae-bd44-bb482149ffec","system_id":"levelo_inurba_marseille","lat":43.32475,"lon":5.36551,"is_reserved":false,"is_disabled":false,"rental_uris":{"android":"levelo://app?vid=c24b2c05-36c8-48ae-bd44-bb482149ffec","ios":"levelo://app?vid=c24b2c05-36c8-48ae-bd44-bb482149ffec"},"vehicle_type_id":"4","last_reported":1730422248,"current_range_meters":26000,"station_id":"ce4bhs12rcd13ifvqhvg","pricing_plan_id":"cebpf4jnsgd1na2vs0mg"},{"bike_id":"ef2e1ab2-b2d1-43b4-8d8a-dc3e8fe6d9ce","system_id":"levelo_inurba_marseille","lat":43.27326,"lon":5.39082,"is_reserved":false,"is_disabled":false,"rental_uris":{"android":"levelo://app?vid=ef2e1ab2-b2d1-43b4-8d8a-dc3e8fe6d9ce","ios":"levelo://app?vid=ef2e1ab2-b2d1-43b4-8d8a-dc3e8fe6d9ce"},"vehicle_type_id":"4","last_reported":1730422248,"current_range_meters":34000,"station_id":"ce4bhgp2rcd13ifvqfe0","pricing_plan_id":"cebpf4jnsgd1na2vs0mg"},{"bike_id":"6145c9dc-5b52-4909-8b3e-d43a8dd315dc","system_id":"levelo_inurba_marseille","lat":43.27165,"lon":5.40996,"is_reserved":false,"is_disabled":false,"rental_uris":{"android":"levelo://app?vid=6145c9dc-5b52-4909-8b3e-d43a8dd315dc","ios":"levelo://app?vid=6145c9dc-5b52-4909-8b3e-d43a8dd315dc"},"vehicle_type_id":"4","last_reported":1730422248,"current_range_meters":7200,"station_id":"ce4bhl12rcd13ifvqgf0","pricing_plan_id":"cebpf4jnsgd1na2vs0mg"},{"bike_id":"aeea1237-3887-42d7-be21-0e7463630790","system_id":"levelo_inurba_marseille","lat":43.23722,"lon":5.40189,"is_reserved":false,"is_disabled":false,"rental_uris":{"android":"levelo://app?vid=aeea1237-3887-42d7-be21-0e7463630790","ios":"levelo://app?vid=aeea1237-3887-42d7-be21-0e7463630790"},"vehicle_type_id":"4","last_reported":1730422248,"current_range_meters":16800,"station_id":"","pricing_plan_id":"cebpf4jnsgd1na2vs0mg"},{"bike_id":"66b5e339-d925-491c-ba42-89ebe2b6d2eb","system_id":"levelo_inurba_marseille","lat":43.31755,"lon":5.39024,"is_reserved":false,"is_disabled":false,"rental_uris":{"android":"levelo://app?vid=66b5e339-d925-491c-ba42-89ebe2b6d2eb","ios":"levelo://app?vid=66b5e339-d925-491c-ba42-89ebe2b6d2eb"},"vehicle_type_id":"4","last_reported":1730422248,"current_range_meters":38800,"station_id":"ce4bhqp2rcd13ifvqhng","pricing_plan_id":"cebpf4jnsgd1na2vs0mg"},{"bike_id":"52bfcfe2-d2dc-4cfa-a4a6-1d503e68032b","system_id":"levelo_inurba_marseille","lat":43.27205,"lon":5.39197,"is_reserved":false,"is_disabled":false,"rental_uris":{"android":"levelo://app?vid=52bfcfe2-d2dc-4cfa-a4a6-1d503e68032b","ios":"levelo://app?vid=52bfcfe2-d2dc-4cfa-a4a6-1d503e68032b"},"vehicle_type_id":"4","last_reported":1730422248,"current_range_meters":24400,"station_id":"ce4bhhp2rcd13ifvqfm0","pricing_plan_id":"cebpf4jnsgd1na2vs0mg"},{"bike_id":"15279d15-7fec-4497-99b5-ea531da5ea5a","system_id":"levelo_inurba_marseille","lat":43.29258,"lon":5.40909,"is_reserved":false,"is_disabled":false,"rental_uris":{"android":"levelo://app?vid=15279d15-7fec-4497-99b5-ea531da5ea5a","ios":"levelo://app?vid=15279d15-7fec-4497-99b5-ea531da5ea5a"},"vehicle_type_id":"4","last_reported":1730422248,"current_range_meters":38000,"station_id":"ce4bh192rcd13ifvqdc0","pricing_plan_id":"cebpf4jnsgd1na2vs0mg"},{"bike_id":"44e27d21-4c64-416a-95eb-3e3c655974f1","system_id":"levelo_inurba_marseille","lat":43.31175,"lon":5.38719,"is_reserved":false,"is_disabled":false,"rental_uris":{"android":"levelo://app?vid=44e27d21-4c64-416a-95eb-3e3c655974f1","ios":"levelo://app?vid=44e27d21-4c64-416a-95eb-3e3c655974f1"},"vehicle_type_id":"4","last_reported":1730422248,"current_range_meters":39200,"station_id":"ce4bgv12rcd13ifvqcp0","pricing_plan_id":"cebpf4jnsgd1na2vs0mg"},{"bike_id":"458ea252-557b-4a8e-a07e-5ee5dcbac059","system_id":"levelo_inurba_marseille","lat":43.29043,"lon":5.35916,"is_reserved":false,"is_disabled":false,"rental_uris":{"android":"levelo://app?vid=458ea252-557b-4a8e-a07e-5ee5dcbac059","ios":"levelo://app?vid=458ea252-557b-4a8e-a07e-5ee5dcbac059"},"vehicle_type_id":"4","last_reported":1730422248,"current_range_meters":38800,"station_id":"ce4bha92rcd13ifvqeg0","pricing_plan_id":"cebpf4jnsgd1na2vs0mg"},{"bike_id":"747c53c4-472f-4e1f-9d4f-fbcca390bf74","system_id":"levelo_inurba_marseille","lat":43.29308,"lon":5.37175,"is_reserved":false,"is_disabled":false,"rental_uris":{"android":"levelo://app?vid=747c53c4-472f-4e1f-9d4f-fbcca390bf74","ios":"levelo://app?vid=747c53c4-472f-4e1f-9d4f-fbcca390bf74"},"vehicle_type_id":"4","last_reported":1730422248,"current_range_meters":31200,"station_id":"ce4bgh92rcd13ifvqb40","pricing_plan_id":"cebpf4jnsgd1na2vs0mg"},{"bike_id":"8b9d36f0-9269-4b04-9c1d-4b5fdf9ecf25","system_id":"levelo_inurba_marseille","lat":43.27326,"lon":5.39097,"is_reserved":false,"is_disabled":false,"rental_uris":{"android":"levelo://app?vid=8b9d36f0-9269-4b04-9c1d-4b5fdf9ecf25","ios":"levelo://app?vid=8b9d36f0-9269-4b04-9c1d-4b5fdf9ecf25"},"vehicle_type_id":"4","last_reported":1730422248,"current_range_meters":24800,"station_id":"ce4bhgp2rcd13ifvqfe0","pricing_plan_id":"cebpf4jnsgd1na2vs0mg"},{"bike_id":"b0377714-7a30-49ee-b6c1-7ca6811d5925","system_id":"levelo_inurba_marseille","lat":43.32487,"lon":5.36567,"is_reserved":false,"is_disabled":false,"rental_uris":{"android":"levelo://app?vid=b0377714-7a30-49ee-b6c1-7ca6811d5925","ios":"levelo://app?vid=b0377714-7a30-49ee-b6c1-7ca6811d5925"},"vehicle_type_id":"4","last_reported":1730422248,"current_range_meters":28000,"station_id":"ce4bhs12rcd13ifvqhvg","pricing_plan_id":"cebpf4jnsgd1na2vs0mg"},{"bike_id":"85c50df7-8369-479c-ae3b-0f785f5c3640","system_id":"levelo_inurba_marseille","lat":43.29032,"lon":5.38643,"is_reserved":false,"is_disabled":false,"rental_uris":{"android":"levelo://app?vid=85c50df7-8369-479c-ae3b-0f785f5c3640","ios":"levelo://app?vid=85c50df7-8369-479c-ae3b-0f785f5c3640"},"vehicle_type_id":"4","last_reported":1730422248,"current_range_meters":35600,"station_id":"ce4bha92rcd13ifvqeg0","pricing_plan_id":"cebpf4jnsgd1na2vs0mg"},{"bike_id":"69355a51-41a5-4455-b14c-61dd7df03e2c","system_id":"levelo_inurba_marseille","lat":43.33723,"lon":5.39187,"is_reserved":false,"is_disabled":false,"rental_uris":{"android":"levelo://app?vid=69355a51-41a5-4455-b14c-61dd7df03e2c","ios":"levelo://app?vid=69355a51-41a5-4455-b14c-61dd7df03e2c"},"vehicle_type_id":"4","last_reported":1730422248,"current_range_meters":38800,"station_id":"ce4bhr92rcd13ifvqhsg","pricing_plan_id":"cebpf4jnsgd1na2vs0mg"},{"bike_id":"88d976f7-48dc-462b-bebe-2aa34929ab2a","system_id":"levelo_inurba_marseille","lat":43.30549,"lon":5.38426,"is_reserved":false,"is_disabled":false,"rental_uris":{"android":"levelo://app?vid=88d976f7-48dc-462b-bebe-2aa34929ab2a","ios":"levelo://app?vid=88d976f7-48dc-462b-bebe-2aa34929ab2a"},"vehicle_type_id":"4","last_reported":1730422248,"current_range_meters":20000,"station_id":"ce4bgg92rcd13ifvqb30","pricing_plan_id":"cebpf4jnsgd1na2vs0mg"},{"bike_id":"4c21efbf-d433-43db-8285-51d3e794632a","system_id":"levelo_inurba_marseille","lat":43.25117,"lon":5.4032,"is_reserved":false,"is_disabled":false,"rental_uris":{"android":"levelo://app?vid=4c21efbf-d433-43db-8285-51d3e794632a","ios":"levelo://app?vid=4c21efbf-d433-43db-8285-51d3e794632a"},"vehicle_type_id":"4","last_reported":1730422248,"current_range_meters":4400,"station_id":"ce4bhlh2rcd13ifvqgig","pricing_plan_id":"cebpf4jnsgd1na2vs0mg"},{"bike_id":"f5119362-8713-4951-b18f-978d1664ef02","system_id":"levelo_inurba_marseille","lat":43.31118,"lon":5.37774,"is_reserved":false,"is_disabled":false,"rental_uris":{"android":"levelo://app?vid=f5119362-8713-4951-b18f-978d1664ef02","ios":"levelo://app?vid=f5119362-8713-4951-b18f-978d1664ef02"},"vehicle_type_id":"4","last_reported":1730422248,"current_range_meters":38800,"station_id":"ce4bgt92rcd13ifvqcg0","pricing_plan_id":"cebpf4jnsgd1na2vs0mg"},{"bike_id":"7b02e4e4-be63-4985-bf4f-57d96211aad5","system_id":"levelo_inurba_marseille","lat":43.29067,"lon":5.37158,"is_reserved":false,"is_disabled":false,"rental_uris":{"android":"levelo://app?vid=7b02e4e4-be63-4985-bf4f-57d96211aad5","ios":"levelo://app?vid=7b02e4e4-be63-4985-bf4f-57d96211aad5"},"vehicle_type_id":"4","last_reported":1730422248,"current_range_meters":28800,"station_id":"ce4bh5p2rcd13ifvqe4g","pricing_plan_id":"cebpf4jnsgd1na2vs0mg"},{"bike_id":"d8bd1885-15a2-4fc2-9f5c-5a28067555ea","system_id":"levelo_inurba_marseille","lat":43.2957,"lon":5.39964,"is_reserved":false,"is_disabled":false,"rental_uris":{"android":"levelo://app?vid=d8bd1885-15a2-4fc2-9f5c-5a28067555ea","ios":"levelo://app?vid=d8bd1885-15a2-4fc2-9f5c-5a28067555ea"},"vehicle_type_id":"4","last_reported":1730422248,"current_range_meters":7200,"station_id":"ce4bh312rcd13ifvqdj0","pricing_plan_id":"cebpf4jnsgd1na2vs0mg"},{"bike_id":"a3532ce9-83c4-4e4f-80b1-34680b043682","system_id":"levelo_inurba_marseille","lat":43.31276,"lon":5.40172,"is_reserved":false,"is_disabled":false,"rental_uris":{"android":"levelo://app?vid=a3532ce9-83c4-4e4f-80b1-34680b043682","ios":"levelo://app?vid=a3532ce9-83c4-4e4f-80b1-34680b043682"},"vehicle_type_id":"4","last_reported":1730422248,"current_range_meters":38400,"station_id":"ce4bh092rcd13ifvqd30","pricing_plan_id":"cebpf4jnsgd1na2vs0mg"},{"bike_id":"b8296e76-0447-46c0-be06-c578170cf1bc","system_id":"levelo_inurba_marseille","lat":43.3136,"lon":5.38494,"is_reserved":false,"is_disabled":false,"rental_uris":{"android":"levelo://app?vid=b8296e76-0447-46c0-be06-c578170cf1bc","ios":"levelo://app?vid=b8296e76-0447-46c0-be06-c578170cf1bc"},"vehicle_type_id":"4","last_reported":1730422248,"current_range_meters":19200,"station_id":"ce4bgt92rcd13ifvqcf0","pricing_plan_id":"cebpf4jnsgd1na2vs0mg"},{"bike_id":"80569e71-faf4-4397-b165-4868e63858e0","system_id":"levelo_inurba_marseille","lat":43.29583,"lon":5.36737,"is_reserved":false,"is_disabled":false,"rental_uris":{"android":"levelo://app?vid=80569e71-faf4-4397-b165-4868e63858e0","ios":"levelo://app?vid=80569e71-faf4-4397-b165-4868e63858e0"},"vehicle_type_id":"4","last_reported":1730422248,"current_range_meters":28400,"station_id":"ce4bgph2rcd13ifvqc2g","pricing_plan_id":"cebpf4jnsgd1na2vs0mg"},{"bike_id":"5c8a5bb5-a198-4a3b-92e7-8543db03156f","system_id":"levelo_inurba_marseille","lat":43.31711,"lon":5.37759,"is_reserved":false,"is_disabled":false,"rental_uris":{"android":"levelo://app?vid=5c8a5bb5-a198-4a3b-92e7-8543db03156f","ios":"levelo://app?vid=5c8a5bb5-a198-4a3b-92e7-8543db03156f"},"vehicle_type_id":"4","last_reported":1730422248,"current_range_meters":38800,"station_id":"ce4bgth2rcd13ifvqch0","pricing_plan_id":"cebpf4jnsgd1na2vs0mg"},{"bike_id":"a916599f-804e-4508-947b-869589ac73c6","system_id":"levelo_inurba_marseille","lat":43.29041,"lon":5.35924,"is_reserved":false,"is_disabled":false,"rental_uris":{"android":"levelo://app?vid=a916599f-804e-4508-947b-869589ac73c6","ios":"levelo://app?vid=a916599f-804e-4508-947b-869589ac73c6"},"vehicle_type_id":"4","last_reported":1730422248,"current_range_meters":33200,"station_id":"ce4bha92rcd13ifvqeg0","pricing_plan_id":"cebpf4jnsgd1na2vs0mg"},{"bike_id":"67d1c938-b706-4528-b0f6-c407a9169a29","system_id":"levelo_inurba_marseille","lat":43.29797,"lon":5.39347,"is_reserved":false,"is_disabled":false,"rental_uris":{"android":"levelo://app?vid=67d1c938-b706-4528-b0f6-c407a9169a29","ios":"levelo://app?vid=67d1c938-b706-4528-b0f6-c407a9169a29"},"vehicle_type_id":"4","last_reported":1730422248,"current_range_meters":37600,"station_id":"chh1huq6cuj3fo74tm60","pricing_plan_id":"cebpf4jnsgd1na2vs0mg"},{"bike_id":"9daca46e-b450-4f6e-8fa7-dc74aa35a5dd","system_id":"levelo_inurba_marseille","lat":43.23103,"lon":5.40065,"is_reserved":false,"is_disabled":false,"rental_uris":{"android":"levelo://app?vid=9daca46e-b450-4f6e-8fa7-dc74aa35a5dd","ios":"levelo://app?vid=9daca46e-b450-4f6e-8fa7-dc74aa35a5dd"},"vehicle_type_id":"4","last_reported":1730422248,"current_range_meters":22800,"station_id":"ce4bhn12rcd13ifvqgqg","pricing_plan_id":"cebpf4jnsgd1na2vs0mg"},{"bike_id":"c0e18836-85b5-48ed-8053-a8afbd5fc2c3","system_id":"levelo_inurba_marseille","lat":43.308963,"lon":5.37206,"is_reserved":false,"is_disabled":false,"rental_uris":{"android":"levelo://app?vid=c0e18836-85b5-48ed-8053-a8afbd5fc2c3","ios":"levelo://app?vid=c0e18836-85b5-48ed-8053-a8afbd5fc2c3"},"vehicle_type_id":"4","last_reported":1730422248,"current_range_meters":33600,"station_id":"ce4bguh2rcd13ifvqckg","pricing_plan_id":"cebpf4jnsgd1na2vs0mg"},{"bike_id":"0b4f5acc-ae70-4869-ab7b-08e48b7e7b17","system_id":"levelo_inurba_marseille","lat":43.29938,"lon":5.38527,"is_reserved":false,"is_disabled":false,"rental_uris":{"android":"levelo://app?vid=0b4f5acc-ae70-4869-ab7b-08e48b7e7b17","ios":"levelo://app?vid=0b4f5acc-ae70-4869-ab7b-08e48b7e7b17"},"vehicle_type_id":"4","last_reported":1730422248,"current_range_meters":28800,"station_id":"","pricing_plan_id":"cebpf4jnsgd1na2vs0mg"},{"bike_id":"784027fb-2a21-46c0-a204-a8dea6b00800","system_id":"levelo_inurba_marseille","lat":43.29031,"lon":5.38128,"is_reserved":false,"is_disabled":false,"rental_uris":{"android":"levelo://app?vid=784027fb-2a21-46c0-a204-a8dea6b00800","ios":"levelo://app?vid=784027fb-2a21-46c0-a204-a8dea6b00800"},"vehicle_type_id":"4","last_reported":1730422248,"current_range_meters":35600,"station_id":"ce4bh4p2rcd13ifvqe1g","pricing_plan_id":"cebpf4jnsgd1na2vs0mg"},{"bike_id":"ed9aa993-8003-4cbf-9aaf-8a3f2e010645","system_id":"levelo_inurba_marseille","lat":43.24167,"lon":5.36403,"is_reserved":false,"is_disabled":false,"rental_uris":{"android":"levelo://app?vid=ed9aa993-8003-4cbf-9aaf-8a3f2e010645","ios":"levelo://app?vid=ed9aa993-8003-4cbf-9aaf-8a3f2e010645"},"vehicle_type_id":"4","last_reported":1730422248,"current_range_meters":8400,"station_id":"cpo36qri1sfpv3e86is0","pricing_plan_id":"cebpf4jnsgd1na2vs0mg"},{"bike_id":"33a098b5-2f3f-4957-af96-675614306bdc","system_id":"levelo_inurba_marseille","lat":43.28285,"lon":5.39021,"is_reserved":false,"is_disabled":false,"rental_uris":{"android":"levelo://app?vid=33a098b5-2f3f-4957-af96-675614306bdc","ios":"levelo://app?vid=33a098b5-2f3f-4957-af96-675614306bdc"},"vehicle_type_id":"4","last_reported":1730422248,"current_range_meters":18800,"station_id":"","pricing_plan_id":"cebpf4jnsgd1na2vs0mg"},{"bike_id":"79785a87-3749-4504-88d7-8f21594d6605","system_id":"levelo_inurba_marseille","lat":43.31072,"lon":5.38349,"is_reserved":false,"is_disabled":false,"rental_uris":{"android":"levelo://app?vid=79785a87-3749-4504-88d7-8f21594d6605","ios":"levelo://app?vid=79785a87-3749-4504-88d7-8f21594d6605"},"vehicle_type_id":"4","last_reported":1730422248,"current_range_meters":14800,"station_id":"ce4bgv92rcd13ifvqcr0","pricing_plan_id":"cebpf4jnsgd1na2vs0mg"},{"bike_id":"a8594471-923b-4371-82a5-d750e1a3d991","system_id":"levelo_inurba_marseille","lat":43.31532,"lon":5.38034,"is_reserved":false,"is_disabled":false,"rental_uris":{"android":"levelo://app?vid=a8594471-923b-4371-82a5-d750e1a3d991","ios":"levelo://app?vid=a8594471-923b-4371-82a5-d750e1a3d991"},"vehicle_type_id":"4","last_reported":1730422248,"current_range_meters":11600,"station_id":"ce4bhsp2rcd13ifvqi50","pricing_plan_id":"cebpf4jnsgd1na2vs0mg"},{"bike_id":"18523ad7-955d-42dc-abaf-2865bf277e38","system_id":"levelo_inurba_marseille","lat":43.305395,"lon":5.384243,"is_reserved":false,"is_disabled":false,"rental_uris":{"android":"levelo://app?vid=18523ad7-955d-42dc-abaf-2865bf277e38","ios":"levelo://app?vid=18523ad7-955d-42dc-abaf-2865bf277e38"},"vehicle_type_id":"4","last_reported":1730422248,"current_range_meters":39200,"station_id":"ce4bgg92rcd13ifvqb30","pricing_plan_id":"cebpf4jnsgd1na2vs0mg"},{"bike_id":"413fd6fa-c9ee-4c88-b239-56ebf5d8bd5f","system_id":"levelo_inurba_marseille","lat":43.3266,"lon":5.40993,"is_reserved":false,"is_disabled":false,"rental_uris":{"android":"levelo://app?vid=413fd6fa-c9ee-4c88-b239-56ebf5d8bd5f","ios":"levelo://app?vid=413fd6fa-c9ee-4c88-b239-56ebf5d8bd5f"},"vehicle_type_id":"4","last_reported":1730422248,"current_range_meters":38800,"station_id":"ce4bhpp2rcd13ifvqhgg","pricing_plan_id":"cebpf4jnsgd1na2vs0mg"},{"bike_id":"e716ac9f-bbc0-4e2e-b654-bc7dbb41f207","system_id":"levelo_inurba_marseille","lat":43.29525,"lon":5.39397,"is_reserved":false,"is_disabled":false,"rental_uris":{"android":"levelo://app?vid=e716ac9f-bbc0-4e2e-b654-bc7dbb41f207","ios":"levelo://app?vid=e716ac9f-bbc0-4e2e-b654-bc7dbb41f207"},"vehicle_type_id":"4","last_reported":1730422248,"current_range_meters":20800,"station_id":"ce4bh292rcd13ifvqdf0","pricing_plan_id":"cebpf4jnsgd1na2vs0mg"},{"bike_id":"ed24b092-1aee-46ef-9a05-6f2fb390575a","system_id":"levelo_inurba_marseille","lat":43.28072,"lon":5.39659,"is_reserved":false,"is_disabled":false,"rental_uris":{"android":"levelo://app?vid=ed24b092-1aee-46ef-9a05-6f2fb390575a","ios":"levelo://app?vid=ed24b092-1aee-46ef-9a05-6f2fb390575a"},"vehicle_type_id":"4","last_reported":1730422248,"current_range_meters":38400,"station_id":"ce4bho12rcd13ifvqh2g","pricing_plan_id":"cebpf4jnsgd1na2vs0mg"},{"bike_id":"796563d9-03ed-4218-874e-dd4726e99c5c","system_id":"levelo_inurba_marseille","lat":43.29789,"lon":5.39353,"is_reserved":false,"is_disabled":false,"rental_uris":{"android":"levelo://app?vid=796563d9-03ed-4218-874e-dd4726e99c5c","ios":"levelo://app?vid=796563d9-03ed-4218-874e-dd4726e99c5c"},"vehicle_type_id":"4","last_reported":1730422248,"current_range_meters":30400,"station_id":"chh1huq6cuj3fo74tm60","pricing_plan_id":"cebpf4jnsgd1na2vs0mg"},{"bike_id":"9c792876-6d64-419b-8778-112a1bff4db5","system_id":"levelo_inurba_marseille","lat":43.28606,"lon":5.37071,"is_reserved":false,"is_disabled":false,"rental_uris":{"android":"levelo://app?vid=9c792876-6d64-419b-8778-112a1bff4db5","ios":"levelo://app?vid=9c792876-6d64-419b-8778-112a1bff4db5"},"vehicle_type_id":"4","last_reported":1730422248,"current_range_meters":36000,"station_id":"ce4bht12rcd13ifvqi60","pricing_plan_id":"cebpf4jnsgd1na2vs0mg"},{"bike_id":"be209aa2-1550-4a40-811c-16dcfd6f7543","system_id":"levelo_inurba_marseille","lat":43.32,"lon":5.38169,"is_reserved":false,"is_disabled":false,"rental_uris":{"android":"levelo://app?vid=be209aa2-1550-4a40-811c-16dcfd6f7543","ios":"levelo://app?vid=be209aa2-1550-4a40-811c-16dcfd6f7543"},"vehicle_type_id":"4","last_reported":1730422248,"current_range_meters":30400,"station_id":"ce4bhr12rcd13ifvqhpg","pricing_plan_id":"cebpf4jnsgd1na2vs0mg"},{"bike_id":"7cb5bd83-ff92-420f-90b3-8acea632ee0c","system_id":"levelo_inurba_marseille","lat":43.30134,"lon":5.38774,"is_reserved":false,"is_disabled":false,"rental_uris":{"android":"levelo://app?vid=7cb5bd83-ff92-420f-90b3-8acea632ee0c","ios":"levelo://app?vid=7cb5bd83-ff92-420f-90b3-8acea632ee0c"},"vehicle_type_id":"4","last_reported":1730422248,"current_range_meters":35600,"station_id":"ce4bghh2rcd13ifvqb60","pricing_plan_id":"cebpf4jnsgd1na2vs0mg"},{"bike_id":"0acdf120-81f9-486f-8ea5-e14a817d42af","system_id":"levelo_inurba_marseille","lat":43.28348,"lon":5.38116,"is_reserved":false,"is_disabled":false,"rental_uris":{"android":"levelo://app?vid=0acdf120-81f9-486f-8ea5-e14a817d42af","ios":"levelo://app?vid=0acdf120-81f9-486f-8ea5-e14a817d42af"},"vehicle_type_id":"4","last_reported":1730422248,"current_range_meters":39200,"station_id":"ce4bh412rcd13ifvqdr0","pricing_plan_id":"cebpf4jnsgd1na2vs0mg"},{"bike_id":"84b3858e-724d-4a51-abdd-a1c7708d404b","system_id":"levelo_inurba_marseille","lat":43.29496,"lon":5.38117,"is_reserved":false,"is_disabled":false,"rental_uris":{"android":"levelo://app?vid=84b3858e-724d-4a51-abdd-a1c7708d404b","ios":"levelo://app?vid=84b3858e-724d-4a51-abdd-a1c7708d404b"},"vehicle_type_id":"4","last_reported":1730422248,"current_range_meters":20000,"station_id":"","pricing_plan_id":"cebpf4jnsgd1na2vs0mg"},{"bike_id":"0eac5a1d-d684-45e0-be5d-a22f3e11c4ca","system_id":"levelo_inurba_marseille","lat":43.2396,"lon":5.36648,"is_reserved":false,"is_disabled":false,"rental_uris":{"android":"levelo://app?vid=0eac5a1d-d684-45e0-be5d-a22f3e11c4ca","ios":"levelo://app?vid=0eac5a1d-d684-45e0-be5d-a22f3e11c4ca"},"vehicle_type_id":"4","last_reported":1730422248,"current_range_meters":9600,"station_id":"ce4bhi12rcd13ifvqfp0","pricing_plan_id":"cebpf4jnsgd1na2vs0mg"},{"bike_id":"ee343481-2f8a-4358-bb0a-ffd40b9c29e3","system_id":"levelo_inurba_marseille","lat":43.30789,"lon":5.37663,"is_reserved":false,"is_disabled":false,"rental_uris":{"android":"levelo://app?vid=ee343481-2f8a-4358-bb0a-ffd40b9c29e3","ios":"levelo://app?vid=ee343481-2f8a-4358-bb0a-ffd40b9c29e3"},"vehicle_type_id":"4","last_reported":1730422248,"current_range_meters":22000,"station_id":"ce4bgv92rcd13ifvqcq0","pricing_plan_id":"cebpf4jnsgd1na2vs0mg"},{"bike_id":"28a03429-c247-4feb-ace3-a820048521c3","system_id":"levelo_inurba_marseille","lat":43.29911,"lon":5.3746,"is_reserved":false,"is_disabled":false,"rental_uris":{"android":"levelo://app?vid=28a03429-c247-4feb-ace3-a820048521c3","ios":"levelo://app?vid=28a03429-c247-4feb-ace3-a820048521c3"},"vehicle_type_id":"4","last_reported":1730422248,"current_range_meters":36400,"station_id":"ce4bgjh2rcd13ifvqbg0","pricing_plan_id":"cebpf4jnsgd1na2vs0mg"},{"bike_id":"0d3ddf92-d79a-4066-b577-05047dd9a71a","system_id":"levelo_inurba_marseille","lat":43.3013,"lon":5.38789,"is_reserved":false,"is_disabled":false,"rental_uris":{"android":"levelo://app?vid=0d3ddf92-d79a-4066-b577-05047dd9a71a","ios":"levelo://app?vid=0d3ddf92-d79a-4066-b577-05047dd9a71a"},"vehicle_type_id":"4","last_reported":1730422248,"current_range_meters":10800,"station_id":"ce4bghh2rcd13ifvqb60","pricing_plan_id":"cebpf4jnsgd1na2vs0mg"},{"bike_id":"e0c52b99-95d6-4c37-a6cb-3e83a433b83d","system_id":"levelo_inurba_marseille","lat":43.27323,"lon":5.39097,"is_reserved":false,"is_disabled":false,"rental_uris":{"android":"levelo://app?vid=e0c52b99-95d6-4c37-a6cb-3e83a433b83d","ios":"levelo://app?vid=e0c52b99-95d6-4c37-a6cb-3e83a433b83d"},"vehicle_type_id":"4","last_reported":1730422248,"current_range_meters":36400,"station_id":"ce4bhgp2rcd13ifvqfe0","pricing_plan_id":"cebpf4jnsgd1na2vs0mg"},{"bike_id":"e7b2be94-21fc-42ac-bdf7-d486710a5d9a","system_id":"levelo_inurba_marseille","lat":43.23191,"lon":5.3555,"is_reserved":false,"is_disabled":false,"rental_uris":{"android":"levelo://app?vid=e7b2be94-21fc-42ac-bdf7-d486710a5d9a","ios":"levelo://app?vid=e7b2be94-21fc-42ac-bdf7-d486710a5d9a"},"vehicle_type_id":"4","last_reported":1730422248,"current_range_meters":38800,"station_id":"ce4bhu92rcd13ifvqi70","pricing_plan_id":"cebpf4jnsgd1na2vs0mg"},{"bike_id":"7a68e29e-3416-4398-9a4c-bf8a8824d098","system_id":"levelo_inurba_marseille","lat":43.29789,"lon":5.39363,"is_reserved":false,"is_disabled":false,"rental_uris":{"android":"levelo://app?vid=7a68e29e-3416-4398-9a4c-bf8a8824d098","ios":"levelo://app?vid=7a68e29e-3416-4398-9a4c-bf8a8824d098"},"vehicle_type_id":"4","last_reported":1730422248,"current_range_meters":18000,"station_id":"chh1huq6cuj3fo74tm60","pricing_plan_id":"cebpf4jnsgd1na2vs0mg"},{"bike_id":"c11576c2-2ef8-4e1f-8db4-d2288a18829b","system_id":"levelo_inurba_marseille","lat":43.29525,"lon":5.39024,"is_reserved":false,"is_disabled":false,"rental_uris":{"android":"levelo://app?vid=c11576c2-2ef8-4e1f-8db4-d2288a18829b","ios":"levelo://app?vid=c11576c2-2ef8-4e1f-8db4-d2288a18829b"},"vehicle_type_id":"4","last_reported":1730422248,"current_range_meters":28400,"station_id":"ce4bh3p2rcd13ifvqdp0","pricing_plan_id":"cebpf4jnsgd1na2vs0mg"},{"bike_id":"5e952f6b-9aee-4257-81cc-27b4ae171e24","system_id":"levelo_inurba_marseille","lat":43.22935,"lon":5.3538,"is_reserved":false,"is_disabled":false,"rental_uris":{"android":"levelo://app?vid=5e952f6b-9aee-4257-81cc-27b4ae171e24","ios":"levelo://app?vid=5e952f6b-9aee-4257-81cc-27b4ae171e24"},"vehicle_type_id":"4","last_reported":1730422248,"current_range_meters":38000,"station_id":"cpo3532slgdg3j2ikp40","pricing_plan_id":"cebpf4jnsgd1na2vs0mg"},{"bike_id":"9dcd3d56-4302-4ec2-bc09-755792fdd227","system_id":"levelo_inurba_marseille","lat":43.27212,"lon":5.39185,"is_reserved":false,"is_disabled":false,"rental_uris":{"android":"levelo://app?vid=9dcd3d56-4302-4ec2-bc09-755792fdd227","ios":"levelo://app?vid=9dcd3d56-4302-4ec2-bc09-755792fdd227"},"vehicle_type_id":"4","last_reported":1730422248,"current_range_meters":29600,"station_id":"ce4bhhp2rcd13ifvqfm0","pricing_plan_id":"cebpf4jnsgd1na2vs0mg"},{"bike_id":"dacaf0a1-652d-4a4b-ae67-ee7a01f2112c","system_id":"levelo_inurba_marseille","lat":43.23202,"lon":5.35549,"is_reserved":false,"is_disabled":false,"rental_uris":{"android":"levelo://app?vid=dacaf0a1-652d-4a4b-ae67-ee7a01f2112c","ios":"levelo://app?vid=dacaf0a1-652d-4a4b-ae67-ee7a01f2112c"},"vehicle_type_id":"4","last_reported":1730422248,"current_range_meters":21600,"station_id":"ce4bhu92rcd13ifvqi70","pricing_plan_id":"cebpf4jnsgd1na2vs0mg"},{"bike_id":"e69437e8-c288-4740-9d62-accddcb6bd20","system_id":"levelo_inurba_marseille","lat":43.27838,"lon":5.39214,"is_reserved":false,"is_disabled":false,"rental_uris":{"android":"levelo://app?vid=e69437e8-c288-4740-9d62-accddcb6bd20","ios":"levelo://app?vid=e69437e8-c288-4740-9d62-accddcb6bd20"},"vehicle_type_id":"4","last_reported":1730422248,"current_range_meters":38400,"station_id":"ce4bhjp2rcd13ifvqga0","pricing_plan_id":"cebpf4jnsgd1na2vs0mg"},{"bike_id":"abae4146-cfc2-4e6e-a35f-23905a17fe6f","system_id":"levelo_inurba_marseille","lat":43.27837,"lon":5.39215,"is_reserved":false,"is_disabled":false,"rental_uris":{"android":"levelo://app?vid=abae4146-cfc2-4e6e-a35f-23905a17fe6f","ios":"levelo://app?vid=abae4146-cfc2-4e6e-a35f-23905a17fe6f"},"vehicle_type_id":"4","last_reported":1730422248,"current_range_meters":37600,"station_id":"ce4bhjp2rcd13ifvqga0","pricing_plan_id":"cebpf4jnsgd1na2vs0mg"},{"bike_id":"0c0d4548-c9f5-4b26-84f3-518a85e46544","system_id":"levelo_inurba_marseille","lat":43.27425,"lon":5.39414,"is_reserved":false,"is_disabled":false,"rental_uris":{"android":"levelo://app?vid=0c0d4548-c9f5-4b26-84f3-518a85e46544","ios":"levelo://app?vid=0c0d4548-c9f5-4b26-84f3-518a85e46544"},"vehicle_type_id":"4","last_reported":1730422248,"current_range_meters":39200,"station_id":"ce4bhdp2rcd13ifvqf20","pricing_plan_id":"cebpf4jnsgd1na2vs0mg"},{"bike_id":"09876b4e-96cc-44b2-95cf-9e2124098dc6","system_id":"levelo_inurba_marseille","lat":43.27424,"lon":5.39416,"is_reserved":false,"is_disabled":false,"rental_uris":{"android":"levelo://app?vid=09876b4e-96cc-44b2-95cf-9e2124098dc6","ios":"levelo://app?vid=09876b4e-96cc-44b2-95cf-9e2124098dc6"},"vehicle_type_id":"4","last_reported":1730422248,"current_range_meters":24400,"station_id":"ce4bhdp2rcd13ifvqf20","pricing_plan_id":"cebpf4jnsgd1na2vs0mg"},{"bike_id":"33a06482-b928-4cd4-a453-8795f3c663d3","system_id":"levelo_inurba_marseille","lat":43.26944,"lon":5.40251,"is_reserved":false,"is_disabled":false,"rental_uris":{"android":"levelo://app?vid=33a06482-b928-4cd4-a453-8795f3c663d3","ios":"levelo://app?vid=33a06482-b928-4cd4-a453-8795f3c663d3"},"vehicle_type_id":"4","last_reported":1730422248,"current_range_meters":29600,"station_id":"cjm6bp8fraef2m0cb0m0","pricing_plan_id":"cebpf4jnsgd1na2vs0mg"},{"bike_id":"524ef799-6210-4f34-8c06-b727a29dc81f","system_id":"levelo_inurba_marseille","lat":43.27973,"lon":5.36065,"is_reserved":false,"is_disabled":false,"rental_uris":{"android":"levelo://app?vid=524ef799-6210-4f34-8c06-b727a29dc81f","ios":"levelo://app?vid=524ef799-6210-4f34-8c06-b727a29dc81f"},"vehicle_type_id":"4","last_reported":1730422248,"current_range_meters":30000,"station_id":"","pricing_plan_id":"cebpf4jnsgd1na2vs0mg"},{"bike_id":"d6570dca-baf7-46c8-8fe6-f64896384ef8","system_id":"levelo_inurba_marseille","lat":43.28609,"lon":5.37082,"is_reserved":false,"is_disabled":false,"rental_uris":{"android":"levelo://app?vid=d6570dca-baf7-46c8-8fe6-f64896384ef8","ios":"levelo://app?vid=d6570dca-baf7-46c8-8fe6-f64896384ef8"},"vehicle_type_id":"4","last_reported":1730422248,"current_range_meters":38800,"station_id":"ce4bht12rcd13ifvqi60","pricing_plan_id":"cebpf4jnsgd1na2vs0mg"},{"bike_id":"67510012-1cba-484e-acef-2ad6017acb8f","system_id":"levelo_inurba_marseille","lat":43.27943,"lon":5.41047,"is_reserved":false,"is_disabled":false,"rental_uris":{"android":"levelo://app?vid=67510012-1cba-484e-acef-2ad6017acb8f","ios":"levelo://app?vid=67510012-1cba-484e-acef-2ad6017acb8f"},"vehicle_type_id":"4","last_reported":1730422248,"current_range_meters":30000,"station_id":"ce4bhnp2rcd13ifvqh0g","pricing_plan_id":"cebpf4jnsgd1na2vs0mg"},{"bike_id":"432245c8-aae7-4413-a01a-f97683516aa8","system_id":"levelo_inurba_marseille","lat":43.31274,"lon":5.40166,"is_reserved":false,"is_disabled":false,"rental_uris":{"android":"levelo://app?vid=432245c8-aae7-4413-a01a-f97683516aa8","ios":"levelo://app?vid=432245c8-aae7-4413-a01a-f97683516aa8"},"vehicle_type_id":"4","last_reported":1730422248,"current_range_meters":38800,"station_id":"ce4bh092rcd13ifvqd30","pricing_plan_id":"cebpf4jnsgd1na2vs0mg"},{"bike_id":"b647ad8c-5239-4792-a303-51c2978d56fb","system_id":"levelo_inurba_marseille","lat":43.33617,"lon":5.41041,"is_reserved":false,"is_disabled":false,"rental_uris":{"android":"levelo://app?vid=b647ad8c-5239-4792-a303-51c2978d56fb","ios":"levelo://app?vid=b647ad8c-5239-4792-a303-51c2978d56fb"},"vehicle_type_id":"4","last_reported":1730422248,"current_range_meters":38800,"station_id":"ce4bhqh2rcd13ifvqhmg","pricing_plan_id":"cebpf4jnsgd1na2vs0mg"},{"bike_id":"cd506133-45e2-421c-adbd-9501e6e43795","system_id":"levelo_inurba_marseille","lat":43.28042,"lon":5.36953,"is_reserved":false,"is_disabled":false,"rental_uris":{"android":"levelo://app?vid=cd506133-45e2-421c-adbd-9501e6e43795","ios":"levelo://app?vid=cd506133-45e2-421c-adbd-9501e6e43795"},"vehicle_type_id":"4","last_reported":1730422248,"current_range_meters":35600,"station_id":"ce4bha12rcd13ifvqef0","pricing_plan_id":"cebpf4jnsgd1na2vs0mg"},{"bike_id":"84eb234f-5cef-4e43-995c-c2a6c7272b1a","system_id":"levelo_inurba_marseille","lat":43.27944,"lon":5.41045,"is_reserved":false,"is_disabled":false,"rental_uris":{"android":"levelo://app?vid=84eb234f-5cef-4e43-995c-c2a6c7272b1a","ios":"levelo://app?vid=84eb234f-5cef-4e43-995c-c2a6c7272b1a"},"vehicle_type_id":"4","last_reported":1730422248,"current_range_meters":28000,"station_id":"ce4bhnp2rcd13ifvqh0g","pricing_plan_id":"cebpf4jnsgd1na2vs0mg"},{"bike_id":"d7ffa81d-2529-46b6-a8eb-e37e63999233","system_id":"levelo_inurba_marseille","lat":43.27422,"lon":5.3941,"is_reserved":false,"is_disabled":false,"rental_uris":{"android":"levelo://app?vid=d7ffa81d-2529-46b6-a8eb-e37e63999233","ios":"levelo://app?vid=d7ffa81d-2529-46b6-a8eb-e37e63999233"},"vehicle_type_id":"4","last_reported":1730422248,"current_range_meters":30800,"station_id":"ce4bhdp2rcd13ifvqf20","pricing_plan_id":"cebpf4jnsgd1na2vs0mg"},{"bike_id":"994a3104-8c9f-4bba-911d-69cf23f07195","system_id":"levelo_inurba_marseille","lat":43.28706,"lon":5.39984,"is_reserved":false,"is_disabled":false,"rental_uris":{"android":"levelo://app?vid=994a3104-8c9f-4bba-911d-69cf23f07195","ios":"levelo://app?vid=994a3104-8c9f-4bba-911d-69cf23f07195"},"vehicle_type_id":"4","last_reported":1730422248,"current_range_meters":32400,"station_id":"ce4bho92rcd13ifvqh3g","pricing_plan_id":"cebpf4jnsgd1na2vs0mg"},{"bike_id":"6cae95cd-6921-4859-837a-5db8f42ec1d3","system_id":"levelo_inurba_marseille","lat":43.2957,"lon":5.39981,"is_reserved":false,"is_disabled":false,"rental_uris":{"android":"levelo://app?vid=6cae95cd-6921-4859-837a-5db8f42ec1d3","ios":"levelo://app?vid=6cae95cd-6921-4859-837a-5db8f42ec1d3"},"vehicle_type_id":"4","last_reported":1730422248,"current_range_meters":4400,"station_id":"ce4bh312rcd13ifvqdj0","pricing_plan_id":"cebpf4jnsgd1na2vs0mg"},{"bike_id":"45ec955f-9396-45b9-aaaa-a47c5dee2e6f","system_id":"levelo_inurba_marseille","lat":43.28839,"lon":5.35862,"is_reserved":false,"is_disabled":false,"rental_uris":{"android":"levelo://app?vid=45ec955f-9396-45b9-aaaa-a47c5dee2e6f","ios":"levelo://app?vid=45ec955f-9396-45b9-aaaa-a47c5dee2e6f"},"vehicle_type_id":"4","last_reported":1730422248,"current_range_meters":38800,"station_id":"ce4bhb12rcd13ifvqem0","pricing_plan_id":"cebpf4jnsgd1na2vs0mg"},{"bike_id":"76818379-7361-4793-bb01-8057163f6286","system_id":"levelo_inurba_marseille","lat":43.29165,"lon":5.37148,"is_reserved":false,"is_disabled":false,"rental_uris":{"android":"levelo://app?vid=76818379-7361-4793-bb01-8057163f6286","ios":"levelo://app?vid=76818379-7361-4793-bb01-8057163f6286"},"vehicle_type_id":"4","last_reported":1730422248,"current_range_meters":38000,"station_id":"ce4bha92rcd13ifvqeh0","pricing_plan_id":"cebpf4jnsgd1na2vs0mg"},{"bike_id":"34091808-bf35-4316-8726-23f709e5cb3e","system_id":"levelo_inurba_marseille","lat":43.3117,"lon":5.38727,"is_reserved":false,"is_disabled":false,"rental_uris":{"android":"levelo://app?vid=34091808-bf35-4316-8726-23f709e5cb3e","ios":"levelo://app?vid=34091808-bf35-4316-8726-23f709e5cb3e"},"vehicle_type_id":"4","last_reported":1730422248,"current_range_meters":34800,"station_id":"ce4bgv12rcd13ifvqcp0","pricing_plan_id":"cebpf4jnsgd1na2vs0mg"},{"bike_id":"b3d0a888-575c-4458-9cd2-7e331787d677","system_id":"levelo_inurba_marseille","lat":43.30135,"lon":5.39852,"is_reserved":false,"is_disabled":false,"rental_uris":{"android":"levelo://app?vid=b3d0a888-575c-4458-9cd2-7e331787d677","ios":"levelo://app?vid=b3d0a888-575c-4458-9cd2-7e331787d677"},"vehicle_type_id":"4","last_reported":1730422248,"current_range_meters":22400,"station_id":"ce4bh0h2rcd13ifvqd40","pricing_plan_id":"cebpf4jnsgd1na2vs0mg"},{"bike_id":"655e5c84-6957-4a22-898b-b606bb7480d4","system_id":"levelo_inurba_marseille","lat":43.2293,"lon":5.35381,"is_reserved":false,"is_disabled":false,"rental_uris":{"android":"levelo://app?vid=655e5c84-6957-4a22-898b-b606bb7480d4","ios":"levelo://app?vid=655e5c84-6957-4a22-898b-b606bb7480d4"},"vehicle_type_id":"4","last_reported":1730422248,"current_range_meters":28400,"station_id":"cpo3532slgdg3j2ikp40","pricing_plan_id":"cebpf4jnsgd1na2vs0mg"},{"bike_id":"2a9a2cb2-2b1b-46fb-899a-7931d6fc090e","system_id":"levelo_inurba_marseille","lat":43.29206,"lon":5.39325,"is_reserved":false,"is_disabled":false,"rental_uris":{"android":"levelo://app?vid=2a9a2cb2-2b1b-46fb-899a-7931d6fc090e","ios":"levelo://app?vid=2a9a2cb2-2b1b-46fb-899a-7931d6fc090e"},"vehicle_type_id":"4","last_reported":1730422248,"current_range_meters":27200,"station_id":"ce4bh192rcd13ifvqdd0","pricing_plan_id":"cebpf4jnsgd1na2vs0mg"},{"bike_id":"aaba3d43-eb81-4033-90d6-d4f77595aa51","system_id":"levelo_inurba_marseille","lat":43.31069,"lon":5.38352,"is_reserved":false,"is_disabled":false,"rental_uris":{"android":"levelo://app?vid=aaba3d43-eb81-4033-90d6-d4f77595aa51","ios":"levelo://app?vid=aaba3d43-eb81-4033-90d6-d4f77595aa51"},"vehicle_type_id":"4","last_reported":1730422248,"current_range_meters":24800,"station_id":"ce4bgv92rcd13ifvqcr0","pricing_plan_id":"cebpf4jnsgd1na2vs0mg"},{"bike_id":"f59d2b6c-416a-4366-a550-e13b80f20d82","system_id":"levelo_inurba_marseille","lat":43.31761,"lon":5.39017,"is_reserved":false,"is_disabled":false,"rental_uris":{"android":"levelo://app?vid=f59d2b6c-416a-4366-a550-e13b80f20d82","ios":"levelo://app?vid=f59d2b6c-416a-4366-a550-e13b80f20d82"},"vehicle_type_id":"4","last_reported":1730422248,"current_range_meters":38800,"station_id":"ce4bhqp2rcd13ifvqhng","pricing_plan_id":"cebpf4jnsgd1na2vs0mg"},{"bike_id":"c145661a-1d2a-440b-8f4a-1709942cb856","system_id":"levelo_inurba_marseille","lat":43.31112,"lon":5.37783,"is_reserved":false,"is_disabled":false,"rental_uris":{"android":"levelo://app?vid=c145661a-1d2a-440b-8f4a-1709942cb856","ios":"levelo://app?vid=c145661a-1d2a-440b-8f4a-1709942cb856"},"vehicle_type_id":"4","last_reported":1730422248,"current_range_meters":38000,"station_id":"ce4bgt92rcd13ifvqcg0","pricing_plan_id":"cebpf4jnsgd1na2vs0mg"},{"bike_id":"13dd447d-a43f-4bf5-bbfb-10286ab2cf91","system_id":"levelo_inurba_marseille","lat":43.27946,"lon":5.41055,"is_reserved":false,"is_disabled":false,"rental_uris":{"android":"levelo://app?vid=13dd447d-a43f-4bf5-bbfb-10286ab2cf91","ios":"levelo://app?vid=13dd447d-a43f-4bf5-bbfb-10286ab2cf91"},"vehicle_type_id":"4","last_reported":1730422248,"current_range_meters":25200,"station_id":"ce4bhnp2rcd13ifvqh0g","pricing_plan_id":"cebpf4jnsgd1na2vs0mg"},{"bike_id":"675ef837-3778-4396-a626-7eaa12a01d82","system_id":"levelo_inurba_marseille","lat":43.31267,"lon":5.40173,"is_reserved":false,"is_disabled":false,"rental_uris":{"android":"levelo://app?vid=675ef837-3778-4396-a626-7eaa12a01d82","ios":"levelo://app?vid=675ef837-3778-4396-a626-7eaa12a01d82"},"vehicle_type_id":"4","last_reported":1730422248,"current_range_meters":34000,"station_id":"ce4bh092rcd13ifvqd30","pricing_plan_id":"cebpf4jnsgd1na2vs0mg"},{"bike_id":"8b412b08-87d4-4af5-9652-4d2e46debd0e","system_id":"levelo_inurba_marseille","lat":43.29872,"lon":5.36264,"is_reserved":false,"is_disabled":false,"rental_uris":{"android":"levelo://app?vid=8b412b08-87d4-4af5-9652-4d2e46debd0e","ios":"levelo://app?vid=8b412b08-87d4-4af5-9652-4d2e46debd0e"},"vehicle_type_id":"4","last_reported":1730422248,"current_range_meters":37600,"station_id":"ce4bgpp2rcd13ifvqc3g","pricing_plan_id":"cebpf4jnsgd1na2vs0mg"},{"bike_id":"520a99b9-a2a1-459e-a48e-4057c28b1514","system_id":"levelo_inurba_marseille","lat":43.27206,"lon":5.39187,"is_reserved":false,"is_disabled":false,"rental_uris":{"android":"levelo://app?vid=520a99b9-a2a1-459e-a48e-4057c28b1514","ios":"levelo://app?vid=520a99b9-a2a1-459e-a48e-4057c28b1514"},"vehicle_type_id":"4","last_reported":1730422248,"current_range_meters":22800,"station_id":"ce4bhhp2rcd13ifvqfm0","pricing_plan_id":"cebpf4jnsgd1na2vs0mg"},{"bike_id":"8f55f6cc-0b54-4d5f-9029-aa15dfd6d9b0","system_id":"levelo_inurba_marseille","lat":43.316175,"lon":5.390652,"is_reserved":false,"is_disabled":false,"rental_uris":{"android":"levelo://app?vid=8f55f6cc-0b54-4d5f-9029-aa15dfd6d9b0","ios":"levelo://app?vid=8f55f6cc-0b54-4d5f-9029-aa15dfd6d9b0"},"vehicle_type_id":"4","last_reported":1730422248,"current_range_meters":12000,"station_id":"","pricing_plan_id":"cebpf4jnsgd1na2vs0mg"},{"bike_id":"82fc33c9-8df5-4ecc-84d7-15cbf03ea71f","system_id":"levelo_inurba_marseille","lat":43.25111,"lon":5.40326,"is_reserved":false,"is_disabled":false,"rental_uris":{"android":"levelo://app?vid=82fc33c9-8df5-4ecc-84d7-15cbf03ea71f","ios":"levelo://app?vid=82fc33c9-8df5-4ecc-84d7-15cbf03ea71f"},"vehicle_type_id":"4","last_reported":1730422248,"current_range_meters":22000,"station_id":"ce4bhlh2rcd13ifvqgig","pricing_plan_id":"cebpf4jnsgd1na2vs0mg"},{"bike_id":"875c0389-7ece-4ce2-a2de-5b4921801634","system_id":"levelo_inurba_marseille","lat":43.27418,"lon":5.39413,"is_reserved":false,"is_disabled":false,"rental_uris":{"android":"levelo://app?vid=875c0389-7ece-4ce2-a2de-5b4921801634","ios":"levelo://app?vid=875c0389-7ece-4ce2-a2de-5b4921801634"},"vehicle_type_id":"4","last_reported":1730422248,"current_range_meters":30400,"station_id":"ce4bhdp2rcd13ifvqf20","pricing_plan_id":"cebpf4jnsgd1na2vs0mg"},{"bike_id":"5ff74640-5d39-40f8-808a-e5695df59fd4","system_id":"levelo_inurba_marseille","lat":43.27185,"lon":5.41025,"is_reserved":false,"is_disabled":false,"rental_uris":{"android":"levelo://app?vid=5ff74640-5d39-40f8-808a-e5695df59fd4","ios":"levelo://app?vid=5ff74640-5d39-40f8-808a-e5695df59fd4"},"vehicle_type_id":"4","last_reported":1730422248,"current_range_meters":4400,"station_id":"ce4bhl12rcd13ifvqgf0","pricing_plan_id":"cebpf4jnsgd1na2vs0mg"},{"bike_id":"8cb9f7c4-5be9-4a25-8d4a-485de9647b9d","system_id":"levelo_inurba_marseille","lat":43.31085,"lon":5.42428,"is_reserved":false,"is_disabled":false,"rental_uris":{"android":"levelo://app?vid=8cb9f7c4-5be9-4a25-8d4a-485de9647b9d","ios":"levelo://app?vid=8cb9f7c4-5be9-4a25-8d4a-485de9647b9d"},"vehicle_type_id":"4","last_reported":1730422248,"current_range_meters":13600,"station_id":"ce4bhp92rcd13ifvqhag","pricing_plan_id":"cebpf4jnsgd1na2vs0mg"},{"bike_id":"82fd4d5d-f17f-4d69-8650-e475a66f6343","system_id":"levelo_inurba_marseille","lat":43.29907,"lon":5.38148,"is_reserved":false,"is_disabled":false,"rental_uris":{"android":"levelo://app?vid=82fd4d5d-f17f-4d69-8650-e475a66f6343","ios":"levelo://app?vid=82fd4d5d-f17f-4d69-8650-e475a66f6343"},"vehicle_type_id":"4","last_reported":1730422248,"current_range_meters":19200,"station_id":"ce4bgj12rcd13ifvqbc0","pricing_plan_id":"cebpf4jnsgd1na2vs0mg"},{"bike_id":"2a7661d5-4a25-43f3-a7c7-9f21283a8ee2","system_id":"levelo_inurba_marseille","lat":43.275696,"lon":5.384205,"is_reserved":false,"is_disabled":false,"rental_uris":{"android":"levelo://app?vid=2a7661d5-4a25-43f3-a7c7-9f21283a8ee2","ios":"levelo://app?vid=2a7661d5-4a25-43f3-a7c7-9f21283a8ee2"},"vehicle_type_id":"4","last_reported":1730422248,"current_range_meters":38400,"station_id":"ce4bhh92rcd13ifvqfi0","pricing_plan_id":"cebpf4jnsgd1na2vs0mg"},{"bike_id":"ca211adf-b79e-4c48-88b9-6f08fbad3c50","system_id":"levelo_inurba_marseille","lat":43.31368,"lon":5.38494,"is_reserved":false,"is_disabled":false,"rental_uris":{"android":"levelo://app?vid=ca211adf-b79e-4c48-88b9-6f08fbad3c50","ios":"levelo://app?vid=ca211adf-b79e-4c48-88b9-6f08fbad3c50"},"vehicle_type_id":"4","last_reported":1730422248,"current_range_meters":9200,"station_id":"ce4bgt92rcd13ifvqcf0","pricing_plan_id":"cebpf4jnsgd1na2vs0mg"},{"bike_id":"db9b80b1-c6d8-4ef2-9727-ca0f0b9498a1","system_id":"levelo_inurba_marseille","lat":43.33721,"lon":5.39187,"is_reserved":false,"is_disabled":false,"rental_uris":{"android":"levelo://app?vid=db9b80b1-c6d8-4ef2-9727-ca0f0b9498a1","ios":"levelo://app?vid=db9b80b1-c6d8-4ef2-9727-ca0f0b9498a1"},"vehicle_type_id":"4","last_reported":1730422248,"current_range_meters":22800,"station_id":"ce4bhr92rcd13ifvqhsg","pricing_plan_id":"cebpf4jnsgd1na2vs0mg"},{"bike_id":"e0668f95-9931-4760-9d86-0788d318d622","system_id":"levelo_inurba_marseille","lat":43.26194,"lon":5.37446,"is_reserved":false,"is_disabled":false,"rental_uris":{"android":"levelo://app?vid=e0668f95-9931-4760-9d86-0788d318d622","ios":"levelo://app?vid=e0668f95-9931-4760-9d86-0788d318d622"},"vehicle_type_id":"4","last_reported":1730422248,"current_range_meters":25200,"station_id":"ce4bhgp2rcd13ifvqfc0","pricing_plan_id":"cebpf4jnsgd1na2vs0mg"},{"bike_id":"186e8d76-7765-4674-b44b-2bc93ccaf040","system_id":"levelo_inurba_marseille","lat":43.299334,"lon":5.36557,"is_reserved":false,"is_disabled":false,"rental_uris":{"android":"levelo://app?vid=186e8d76-7765-4674-b44b-2bc93ccaf040","ios":"levelo://app?vid=186e8d76-7765-4674-b44b-2bc93ccaf040"},"vehicle_type_id":"4","last_reported":1730422248,"current_range_meters":16800,"station_id":"ce4bgm92rcd13ifvqbr0","pricing_plan_id":"cebpf4jnsgd1na2vs0mg"},{"bike_id":"5e5714f5-9a0c-4fb7-8337-508e938e2d5b","system_id":"levelo_inurba_marseille","lat":43.27176,"lon":5.40996,"is_reserved":false,"is_disabled":false,"rental_uris":{"android":"levelo://app?vid=5e5714f5-9a0c-4fb7-8337-508e938e2d5b","ios":"levelo://app?vid=5e5714f5-9a0c-4fb7-8337-508e938e2d5b"},"vehicle_type_id":"4","last_reported":1730422248,"current_range_meters":33600,"station_id":"ce4bhl12rcd13ifvqgf0","pricing_plan_id":"cebpf4jnsgd1na2vs0mg"},{"bike_id":"b4c274ad-1995-4bce-ba3e-0e7834939abd","system_id":"levelo_inurba_marseille","lat":43.29008,"lon":5.35618,"is_reserved":false,"is_disabled":false,"rental_uris":{"android":"levelo://app?vid=b4c274ad-1995-4bce-ba3e-0e7834939abd","ios":"levelo://app?vid=b4c274ad-1995-4bce-ba3e-0e7834939abd"},"vehicle_type_id":"4","last_reported":1730422248,"current_range_meters":32000,"station_id":"ce4bhb92rcd13ifvqen0","pricing_plan_id":"cebpf4jnsgd1na2vs0mg"},{"bike_id":"1825f237-6ab9-400f-a681-8b1115cdb805","system_id":"levelo_inurba_marseille","lat":43.29002,"lon":5.35607,"is_reserved":false,"is_disabled":false,"rental_uris":{"android":"levelo://app?vid=1825f237-6ab9-400f-a681-8b1115cdb805","ios":"levelo://app?vid=1825f237-6ab9-400f-a681-8b1115cdb805"},"vehicle_type_id":"4","last_reported":1730422248,"current_range_meters":33600,"station_id":"ce4bhb92rcd13ifvqen0","pricing_plan_id":"cebpf4jnsgd1na2vs0mg"},{"bike_id":"c52a23bd-b8fa-4e87-8fba-eaba32edd6b9","system_id":"levelo_inurba_marseille","lat":43.28699,"lon":5.39988,"is_reserved":false,"is_disabled":false,"rental_uris":{"android":"levelo://app?vid=c52a23bd-b8fa-4e87-8fba-eaba32edd6b9","ios":"levelo://app?vid=c52a23bd-b8fa-4e87-8fba-eaba32edd6b9"},"vehicle_type_id":"4","last_reported":1730422248,"current_range_meters":24400,"station_id":"ce4bho92rcd13ifvqh3g","pricing_plan_id":"cebpf4jnsgd1na2vs0mg"},{"bike_id":"1944f67e-4d7a-48bd-ad29-5500c8d190d8","system_id":"levelo_inurba_marseille","lat":43.2928,"lon":5.40126,"is_reserved":false,"is_disabled":false,"rental_uris":{"android":"levelo://app?vid=1944f67e-4d7a-48bd-ad29-5500c8d190d8","ios":"levelo://app?vid=1944f67e-4d7a-48bd-ad29-5500c8d190d8"},"vehicle_type_id":"4","last_reported":1730422248,"current_range_meters":2800,"station_id":"ce4bh312rcd13ifvqdk0","pricing_plan_id":"cebpf4jnsgd1na2vs0mg"},{"bike_id":"3958b000-eb5e-4965-a1f2-66f242ca8473","system_id":"levelo_inurba_marseille","lat":43.30428,"lon":5.38886,"is_reserved":false,"is_disabled":false,"rental_uris":{"android":"levelo://app?vid=3958b000-eb5e-4965-a1f2-66f242ca8473","ios":"levelo://app?vid=3958b000-eb5e-4965-a1f2-66f242ca8473"},"vehicle_type_id":"4","last_reported":1730422248,"current_range_meters":25600,"station_id":"ce4bgk12rcd13ifvqbi0","pricing_plan_id":"cebpf4jnsgd1na2vs0mg"},{"bike_id":"9bd158b7-4214-45b9-994c-ce2650e013b1","system_id":"levelo_inurba_marseille","lat":43.28449,"lon":5.39206,"is_reserved":false,"is_disabled":false,"rental_uris":{"android":"levelo://app?vid=9bd158b7-4214-45b9-994c-ce2650e013b1","ios":"levelo://app?vid=9bd158b7-4214-45b9-994c-ce2650e013b1"},"vehicle_type_id":"4","last_reported":1730422248,"current_range_meters":25600,"station_id":"ce4bhoh2rcd13ifvqh5g","pricing_plan_id":"cebpf4jnsgd1na2vs0mg"},{"bike_id":"92b9ac3d-72e2-42b4-9497-5f011ea3a159","system_id":"levelo_inurba_marseille","lat":43.23194,"lon":5.3555,"is_reserved":false,"is_disabled":false,"rental_uris":{"android":"levelo://app?vid=92b9ac3d-72e2-42b4-9497-5f011ea3a159","ios":"levelo://app?vid=92b9ac3d-72e2-42b4-9497-5f011ea3a159"},"vehicle_type_id":"4","last_reported":1730422248,"current_range_meters":16000,"station_id":"ce4bhu92rcd13ifvqi70","pricing_plan_id":"cebpf4jnsgd1na2vs0mg"},{"bike_id":"f515e7cf-e299-432c-884e-ae11c7050d66","system_id":"levelo_inurba_marseille","lat":43.26208,"lon":5.3793,"is_reserved":false,"is_disabled":false,"rental_uris":{"android":"levelo://app?vid=f515e7cf-e299-432c-884e-ae11c7050d66","ios":"levelo://app?vid=f515e7cf-e299-432c-884e-ae11c7050d66"},"vehicle_type_id":"4","last_reported":1730422248,"current_range_meters":38000,"station_id":"ce4bhjp2rcd13ifvqg90","pricing_plan_id":"cebpf4jnsgd1na2vs0mg"},{"bike_id":"3a09ceaf-2e70-40df-b9b5-539e96d81463","system_id":"levelo_inurba_marseille","lat":43.26943,"lon":5.38656,"is_reserved":false,"is_disabled":false,"rental_uris":{"android":"levelo://app?vid=3a09ceaf-2e70-40df-b9b5-539e96d81463","ios":"levelo://app?vid=3a09ceaf-2e70-40df-b9b5-539e96d81463"},"vehicle_type_id":"4","last_reported":1730422248,"current_range_meters":38800,"station_id":"ce4bhh92rcd13ifvqfh0","pricing_plan_id":"cebpf4jnsgd1na2vs0mg"},{"bike_id":"5b1beb29-08c3-4517-96e1-89c4b727e0c3","system_id":"levelo_inurba_marseille","lat":43.23199,"lon":5.35551,"is_reserved":false,"is_disabled":false,"rental_uris":{"android":"levelo://app?vid=5b1beb29-08c3-4517-96e1-89c4b727e0c3","ios":"levelo://app?vid=5b1beb29-08c3-4517-96e1-89c4b727e0c3"},"vehicle_type_id":"4","last_reported":1730422248,"current_range_meters":32000,"station_id":"ce4bhu92rcd13ifvqi70","pricing_plan_id":"cebpf4jnsgd1na2vs0mg"},{"bike_id":"3a8ae95e-a36f-4155-a56b-894d6194ade9","system_id":"levelo_inurba_marseille","lat":43.29787,"lon":5.38105,"is_reserved":false,"is_disabled":false,"rental_uris":{"android":"levelo://app?vid=3a8ae95e-a36f-4155-a56b-894d6194ade9","ios":"levelo://app?vid=3a8ae95e-a36f-4155-a56b-894d6194ade9"},"vehicle_type_id":"4","last_reported":1730422248,"current_range_meters":36800,"station_id":"ce4bgip2rcd13ifvqbb0","pricing_plan_id":"cebpf4jnsgd1na2vs0mg"},{"bike_id":"d8de5714-58af-4d06-95fa-16cf8ce84d6a","system_id":"levelo_inurba_marseille","lat":43.30776,"lon":5.37655,"is_reserved":false,"is_disabled":false,"rental_uris":{"android":"levelo://app?vid=d8de5714-58af-4d06-95fa-16cf8ce84d6a","ios":"levelo://app?vid=d8de5714-58af-4d06-95fa-16cf8ce84d6a"},"vehicle_type_id":"4","last_reported":1730422248,"current_range_meters":37600,"station_id":"ce4bgv92rcd13ifvqcq0","pricing_plan_id":"cebpf4jnsgd1na2vs0mg"},{"bike_id":"c98470d7-5247-4c9b-9990-4c8a4dc7b4eb","system_id":"levelo_inurba_marseille","lat":43.28615,"lon":5.35109,"is_reserved":false,"is_disabled":false,"rental_uris":{"android":"levelo://app?vid=c98470d7-5247-4c9b-9990-4c8a4dc7b4eb","ios":"levelo://app?vid=c98470d7-5247-4c9b-9990-4c8a4dc7b4eb"},"vehicle_type_id":"4","last_reported":1730422248,"current_range_meters":36400,"station_id":"ce4bhch2rcd13ifvqeug","pricing_plan_id":"cebpf4jnsgd1na2vs0mg"},{"bike_id":"3e327412-b97e-4df4-824e-ea37ac5a7548","system_id":"levelo_inurba_marseille","lat":43.28714,"lon":5.36084,"is_reserved":false,"is_disabled":false,"rental_uris":{"android":"levelo://app?vid=3e327412-b97e-4df4-824e-ea37ac5a7548","ios":"levelo://app?vid=3e327412-b97e-4df4-824e-ea37ac5a7548"},"vehicle_type_id":"4","last_reported":1730422248,"current_range_meters":38800,"station_id":"cki0cbj6b192h4jlfktg","pricing_plan_id":"cebpf4jnsgd1na2vs0mg"},{"bike_id":"f99547b6-e0b7-4a86-b4bb-f600f8ca5cb2","system_id":"levelo_inurba_marseille","lat":43.24168,"lon":5.36401,"is_reserved":false,"is_disabled":false,"rental_uris":{"android":"levelo://app?vid=f99547b6-e0b7-4a86-b4bb-f600f8ca5cb2","ios":"levelo://app?vid=f99547b6-e0b7-4a86-b4bb-f600f8ca5cb2"},"vehicle_type_id":"4","last_reported":1730422248,"current_range_meters":8400,"station_id":"cpo36qri1sfpv3e86is0","pricing_plan_id":"cebpf4jnsgd1na2vs0mg"},{"bike_id":"592f4fc4-36f6-4068-ad0e-e5415fc9cbe7","system_id":"levelo_inurba_marseille","lat":43.24208,"lon":5.37943,"is_reserved":false,"is_disabled":false,"rental_uris":{"android":"levelo://app?vid=592f4fc4-36f6-4068-ad0e-e5415fc9cbe7","ios":"levelo://app?vid=592f4fc4-36f6-4068-ad0e-e5415fc9cbe7"},"vehicle_type_id":"4","last_reported":1730422248,"current_range_meters":7200,"station_id":"ce4bhnp2rcd13ifvqgvg","pricing_plan_id":"cebpf4jnsgd1na2vs0mg"},{"bike_id":"7f2c9760-527c-4cd4-a04e-40d5f81e7b52","system_id":"levelo_inurba_marseille","lat":43.3054,"lon":5.38437,"is_reserved":false,"is_disabled":false,"rental_uris":{"android":"levelo://app?vid=7f2c9760-527c-4cd4-a04e-40d5f81e7b52","ios":"levelo://app?vid=7f2c9760-527c-4cd4-a04e-40d5f81e7b52"},"vehicle_type_id":"4","last_reported":1730422248,"current_range_meters":37600,"station_id":"ce4bgg92rcd13ifvqb30","pricing_plan_id":"cebpf4jnsgd1na2vs0mg"},{"bike_id":"68c92e12-0e9b-4a51-87dd-5c2b3148bf7b","system_id":"levelo_inurba_marseille","lat":43.26943,"lon":5.38929,"is_reserved":false,"is_disabled":false,"rental_uris":{"android":"levelo://app?vid=68c92e12-0e9b-4a51-87dd-5c2b3148bf7b","ios":"levelo://app?vid=68c92e12-0e9b-4a51-87dd-5c2b3148bf7b"},"vehicle_type_id":"4","last_reported":1730422248,"current_range_meters":24000,"station_id":"ce4bhhh2rcd13ifvqfl0","pricing_plan_id":"cebpf4jnsgd1na2vs0mg"},{"bike_id":"794d23c0-def7-4557-a69a-112ea268f585","system_id":"levelo_inurba_marseille","lat":43.23191,"lon":5.35558,"is_reserved":false,"is_disabled":false,"rental_uris":{"android":"levelo://app?vid=794d23c0-def7-4557-a69a-112ea268f585","ios":"levelo://app?vid=794d23c0-def7-4557-a69a-112ea268f585"},"vehicle_type_id":"4","last_reported":1730422248,"current_range_meters":38800,"station_id":"ce4bhu92rcd13ifvqi70","pricing_plan_id":"cebpf4jnsgd1na2vs0mg"},{"bike_id":"d66059ff-f033-40f3-b26d-de5e031226fa","system_id":"levelo_inurba_marseille","lat":43.28464,"lon":5.35904,"is_reserved":false,"is_disabled":false,"rental_uris":{"android":"levelo://app?vid=d66059ff-f033-40f3-b26d-de5e031226fa","ios":"levelo://app?vid=d66059ff-f033-40f3-b26d-de5e031226fa"},"vehicle_type_id":"4","last_reported":1730422248,"current_range_meters":26800,"station_id":"ce4bhah2rcd13ifvqei0","pricing_plan_id":"cebpf4jnsgd1na2vs0mg"},{"bike_id":"add5e208-bada-4bea-bc55-708a27498e7d","system_id":"levelo_inurba_marseille","lat":43.28156,"lon":5.4264,"is_reserved":false,"is_disabled":false,"rental_uris":{"android":"levelo://app?vid=add5e208-bada-4bea-bc55-708a27498e7d","ios":"levelo://app?vid=add5e208-bada-4bea-bc55-708a27498e7d"},"vehicle_type_id":"4","last_reported":1730422248,"current_range_meters":24000,"station_id":"ce4bhnh2rcd13ifvqgug","pricing_plan_id":"cebpf4jnsgd1na2vs0mg"},{"bike_id":"c9fe9305-e5b5-403a-8ac6-ee784523647c","system_id":"levelo_inurba_marseille","lat":43.23424,"lon":5.35946,"is_reserved":false,"is_disabled":false,"rental_uris":{"android":"levelo://app?vid=c9fe9305-e5b5-403a-8ac6-ee784523647c","ios":"levelo://app?vid=c9fe9305-e5b5-403a-8ac6-ee784523647c"},"vehicle_type_id":"4","last_reported":1730422248,"current_range_meters":25200,"station_id":"","pricing_plan_id":"cebpf4jnsgd1na2vs0mg"},{"bike_id":"3762b5b7-778d-4d2e-9b34-ac4ef4125c24","system_id":"levelo_inurba_marseille","lat":43.27617,"lon":5.36109,"is_reserved":false,"is_disabled":false,"rental_uris":{"android":"levelo://app?vid=3762b5b7-778d-4d2e-9b34-ac4ef4125c24","ios":"levelo://app?vid=3762b5b7-778d-4d2e-9b34-ac4ef4125c24"},"vehicle_type_id":"4","last_reported":1730422248,"current_range_meters":36000,"station_id":"ce4bgj92rcd13ifvqbe0","pricing_plan_id":"cebpf4jnsgd1na2vs0mg"},{"bike_id":"a6c79ad0-6eac-42d1-9ed7-69d080828ec6","system_id":"levelo_inurba_marseille","lat":43.27902,"lon":5.38015,"is_reserved":false,"is_disabled":false,"rental_uris":{"android":"levelo://app?vid=a6c79ad0-6eac-42d1-9ed7-69d080828ec6","ios":"levelo://app?vid=a6c79ad0-6eac-42d1-9ed7-69d080828ec6"},"vehicle_type_id":"4","last_reported":1730422248,"current_range_meters":38000,"station_id":"ce4bhf92rcd13ifvqf50","pricing_plan_id":"cebpf4jnsgd1na2vs0mg"},{"bike_id":"2e5ff9f5-48d0-487f-9fe8-43ddfbfb83b6","system_id":"levelo_inurba_marseille","lat":43.29872,"lon":5.39734,"is_reserved":false,"is_disabled":false,"rental_uris":{"android":"levelo://app?vid=2e5ff9f5-48d0-487f-9fe8-43ddfbfb83b6","ios":"levelo://app?vid=2e5ff9f5-48d0-487f-9fe8-43ddfbfb83b6"},"vehicle_type_id":"4","last_reported":1730422248,"current_range_meters":8800,"station_id":"ce4bh0h2rcd13ifvqd50","pricing_plan_id":"cebpf4jnsgd1na2vs0mg"},{"bike_id":"07bb50dd-2fa1-40f9-904d-a3b53470f43d","system_id":"levelo_inurba_marseille","lat":43.28438,"lon":5.39189,"is_reserved":false,"is_disabled":false,"rental_uris":{"android":"levelo://app?vid=07bb50dd-2fa1-40f9-904d-a3b53470f43d","ios":"levelo://app?vid=07bb50dd-2fa1-40f9-904d-a3b53470f43d"},"vehicle_type_id":"4","last_reported":1730422248,"current_range_meters":8000,"station_id":"ce4bhoh2rcd13ifvqh5g","pricing_plan_id":"cebpf4jnsgd1na2vs0mg"},{"bike_id":"60223806-a44d-4bd3-a685-de2b36919390","system_id":"levelo_inurba_marseille","lat":43.27575,"lon":5.38408,"is_reserved":false,"is_disabled":false,"rental_uris":{"android":"levelo://app?vid=60223806-a44d-4bd3-a685-de2b36919390","ios":"levelo://app?vid=60223806-a44d-4bd3-a685-de2b36919390"},"vehicle_type_id":"4","last_reported":1730422248,"current_range_meters":15200,"station_id":"ce4bhh92rcd13ifvqfi0","pricing_plan_id":"cebpf4jnsgd1na2vs0mg"},{"bike_id":"3d8c54e0-b8b0-4f3c-8415-8e80f18df626","system_id":"levelo_inurba_marseille","lat":43.29006,"lon":5.35617,"is_reserved":false,"is_disabled":false,"rental_uris":{"android":"levelo://app?vid=3d8c54e0-b8b0-4f3c-8415-8e80f18df626","ios":"levelo://app?vid=3d8c54e0-b8b0-4f3c-8415-8e80f18df626"},"vehicle_type_id":"4","last_reported":1730422248,"current_range_meters":38800,"station_id":"ce4bhb92rcd13ifvqen0","pricing_plan_id":"cebpf4jnsgd1na2vs0mg"},{"bike_id":"7e57f650-9611-43e9-8e9d-0037a90a6037","system_id":"levelo_inurba_marseille","lat":43.30931,"lon":5.40144,"is_reserved":false,"is_disabled":false,"rental_uris":{"android":"levelo://app?vid=7e57f650-9611-43e9-8e9d-0037a90a6037","ios":"levelo://app?vid=7e57f650-9611-43e9-8e9d-0037a90a6037"},"vehicle_type_id":"4","last_reported":1730422248,"current_range_meters":20400,"station_id":"ce4bgvp2rcd13ifvqct0","pricing_plan_id":"cebpf4jnsgd1na2vs0mg"},{"bike_id":"26de7c19-4534-4738-9b0d-5022f29b8b7a","system_id":"levelo_inurba_marseille","lat":43.30536,"lon":5.38424,"is_reserved":false,"is_disabled":false,"rental_uris":{"android":"levelo://app?vid=26de7c19-4534-4738-9b0d-5022f29b8b7a","ios":"levelo://app?vid=26de7c19-4534-4738-9b0d-5022f29b8b7a"},"vehicle_type_id":"4","last_reported":1730422248,"current_range_meters":38800,"station_id":"ce4bgg92rcd13ifvqb30","pricing_plan_id":"cebpf4jnsgd1na2vs0mg"},{"bike_id":"ceb6ae9e-3481-4be8-a7a6-0dcd42c9997f","system_id":"levelo_inurba_marseille","lat":43.28851,"lon":5.39325,"is_reserved":false,"is_disabled":false,"rental_uris":{"android":"levelo://app?vid=ceb6ae9e-3481-4be8-a7a6-0dcd42c9997f","ios":"levelo://app?vid=ceb6ae9e-3481-4be8-a7a6-0dcd42c9997f"},"vehicle_type_id":"4","last_reported":1730422248,"current_range_meters":12000,"station_id":"ce4bh2p2rcd13ifvqdi0","pricing_plan_id":"cebpf4jnsgd1na2vs0mg"},{"bike_id":"29c539ff-09c2-47df-8157-a6be4e1fc22d","system_id":"levelo_inurba_marseille","lat":43.32042,"lon":5.41548,"is_reserved":false,"is_disabled":false,"rental_uris":{"android":"levelo://app?vid=29c539ff-09c2-47df-8157-a6be4e1fc22d","ios":"levelo://app?vid=29c539ff-09c2-47df-8157-a6be4e1fc22d"},"vehicle_type_id":"4","last_reported":1730422248,"current_range_meters":21600,"station_id":"ce4bhq92rcd13ifvqhkg","pricing_plan_id":"cebpf4jnsgd1na2vs0mg"},{"bike_id":"ab226aa8-03f1-4a65-bdd9-846428a9c4e9","system_id":"levelo_inurba_marseille","lat":43.28069,"lon":5.39658,"is_reserved":false,"is_disabled":false,"rental_uris":{"android":"levelo://app?vid=ab226aa8-03f1-4a65-bdd9-846428a9c4e9","ios":"levelo://app?vid=ab226aa8-03f1-4a65-bdd9-846428a9c4e9"},"vehicle_type_id":"4","last_reported":1730422248,"current_range_meters":37600,"station_id":"ce4bho12rcd13ifvqh2g","pricing_plan_id":"cebpf4jnsgd1na2vs0mg"},{"bike_id":"f64780b2-1768-4481-bc9c-3c6d67099c9d","system_id":"levelo_inurba_marseille","lat":43.30088,"lon":5.39093,"is_reserved":false,"is_disabled":false,"rental_uris":{"android":"levelo://app?vid=f64780b2-1768-4481-bc9c-3c6d67099c9d","ios":"levelo://app?vid=f64780b2-1768-4481-bc9c-3c6d67099c9d"},"vehicle_type_id":"4","last_reported":1730422248,"current_range_meters":37600,"station_id":"ce4bh192rcd13ifvqdb0","pricing_plan_id":"cebpf4jnsgd1na2vs0mg"},{"bike_id":"30514b68-f146-4b5d-b222-45696243c2e4","system_id":"levelo_inurba_marseille","lat":43.25085,"lon":5.39524,"is_reserved":false,"is_disabled":false,"rental_uris":{"android":"levelo://app?vid=30514b68-f146-4b5d-b222-45696243c2e4","ios":"levelo://app?vid=30514b68-f146-4b5d-b222-45696243c2e4"},"vehicle_type_id":"4","last_reported":1730422248,"current_range_meters":26800,"station_id":"ce4bhm12rcd13ifvqgkg","pricing_plan_id":"cebpf4jnsgd1na2vs0mg"},{"bike_id":"91135560-0827-4820-8db7-18690afe81ab","system_id":"levelo_inurba_marseille","lat":43.30594,"lon":5.37214,"is_reserved":false,"is_disabled":false,"rental_uris":{"android":"levelo://app?vid=91135560-0827-4820-8db7-18690afe81ab","ios":"levelo://app?vid=91135560-0827-4820-8db7-18690afe81ab"},"vehicle_type_id":"4","last_reported":1730422248,"current_range_meters":32800,"station_id":"ce4bgqh2rcd13ifvqc4g","pricing_plan_id":"cebpf4jnsgd1na2vs0mg"},{"bike_id":"30cd3637-5231-4451-8b17-3902824e2d98","system_id":"levelo_inurba_marseille","lat":43.31433,"lon":5.39306,"is_reserved":false,"is_disabled":false,"rental_uris":{"android":"levelo://app?vid=30cd3637-5231-4451-8b17-3902824e2d98","ios":"levelo://app?vid=30cd3637-5231-4451-8b17-3902824e2d98"},"vehicle_type_id":"4","last_reported":1730422248,"current_range_meters":19600,"station_id":"","pricing_plan_id":"cebpf4jnsgd1na2vs0mg"},{"bike_id":"6602d5b8-b601-428c-8806-9f0154c1a0c1","system_id":"levelo_inurba_marseille","lat":43.31225,"lon":5.3685,"is_reserved":false,"is_disabled":false,"rental_uris":{"android":"levelo://app?vid=6602d5b8-b601-428c-8806-9f0154c1a0c1","ios":"levelo://app?vid=6602d5b8-b601-428c-8806-9f0154c1a0c1"},"vehicle_type_id":"4","last_reported":1730422248,"current_range_meters":9200,"station_id":"ce4bgl92rcd13ifvqbq0","pricing_plan_id":"cebpf4jnsgd1na2vs0mg"},{"bike_id":"28108bb5-9f51-48c2-a1df-2cbfeb7a1737","system_id":"levelo_inurba_marseille","lat":43.27424,"lon":5.39416,"is_reserved":false,"is_disabled":false,"rental_uris":{"android":"levelo://app?vid=28108bb5-9f51-48c2-a1df-2cbfeb7a1737","ios":"levelo://app?vid=28108bb5-9f51-48c2-a1df-2cbfeb7a1737"},"vehicle_type_id":"4","last_reported":1730422248,"current_range_meters":20400,"station_id":"ce4bhdp2rcd13ifvqf20","pricing_plan_id":"cebpf4jnsgd1na2vs0mg"},{"bike_id":"1a42306b-60a4-428c-be70-5356ee634902","system_id":"levelo_inurba_marseille","lat":43.29255,"lon":5.40912,"is_reserved":false,"is_disabled":false,"rental_uris":{"android":"levelo://app?vid=1a42306b-60a4-428c-be70-5356ee634902","ios":"levelo://app?vid=1a42306b-60a4-428c-be70-5356ee634902"},"vehicle_type_id":"4","last_reported":1730422248,"current_range_meters":38400,"station_id":"ce4bh192rcd13ifvqdc0","pricing_plan_id":"cebpf4jnsgd1na2vs0mg"},{"bike_id":"e8c4e24f-476f-443e-b5f0-ef78d7e0d75f","system_id":"levelo_inurba_marseille","lat":43.31273,"lon":5.40177,"is_reserved":false,"is_disabled":false,"rental_uris":{"android":"levelo://app?vid=e8c4e24f-476f-443e-b5f0-ef78d7e0d75f","ios":"levelo://app?vid=e8c4e24f-476f-443e-b5f0-ef78d7e0d75f"},"vehicle_type_id":"4","last_reported":1730422248,"current_range_meters":8800,"station_id":"ce4bh092rcd13ifvqd30","pricing_plan_id":"cebpf4jnsgd1na2vs0mg"},{"bike_id":"3aeec801-f328-4fc4-b8d3-6e95204a7c20","system_id":"levelo_inurba_marseille","lat":43.28004,"lon":5.40395,"is_reserved":false,"is_disabled":false,"rental_uris":{"android":"levelo://app?vid=3aeec801-f328-4fc4-b8d3-6e95204a7c20","ios":"levelo://app?vid=3aeec801-f328-4fc4-b8d3-6e95204a7c20"},"vehicle_type_id":"4","last_reported":1730422248,"current_range_meters":2800,"station_id":"","pricing_plan_id":"cebpf4jnsgd1na2vs0mg"},{"bike_id":"3b72359c-0b98-4a8e-b99f-2321fec7f417","system_id":"levelo_inurba_marseille","lat":43.280517,"lon":5.386528,"is_reserved":false,"is_disabled":false,"rental_uris":{"android":"levelo://app?vid=3b72359c-0b98-4a8e-b99f-2321fec7f417","ios":"levelo://app?vid=3b72359c-0b98-4a8e-b99f-2321fec7f417"},"vehicle_type_id":"4","last_reported":1730422248,"current_range_meters":38400,"station_id":"ce4bhjp2rcd13ifvqga0","pricing_plan_id":"cebpf4jnsgd1na2vs0mg"},{"bike_id":"0bf57a39-41cd-4293-a9b4-f5e106667ea6","system_id":"levelo_inurba_marseille","lat":43.29796,"lon":5.38115,"is_reserved":false,"is_disabled":false,"rental_uris":{"android":"levelo://app?vid=0bf57a39-41cd-4293-a9b4-f5e106667ea6","ios":"levelo://app?vid=0bf57a39-41cd-4293-a9b4-f5e106667ea6"},"vehicle_type_id":"4","last_reported":1730422248,"current_range_meters":19200,"station_id":"ce4bgip2rcd13ifvqbb0","pricing_plan_id":"cebpf4jnsgd1na2vs0mg"},{"bike_id":"f221aab7-1d6f-4b38-9b62-97b3a1fc5f0e","system_id":"levelo_inurba_marseille","lat":43.3149,"lon":5.37302,"is_reserved":false,"is_disabled":false,"rental_uris":{"android":"levelo://app?vid=f221aab7-1d6f-4b38-9b62-97b3a1fc5f0e","ios":"levelo://app?vid=f221aab7-1d6f-4b38-9b62-97b3a1fc5f0e"},"vehicle_type_id":"4","last_reported":1730422248,"current_range_meters":33200,"station_id":"ce4bgt12rcd13ifvqcd0","pricing_plan_id":"cebpf4jnsgd1na2vs0mg"},{"bike_id":"afca572c-a2ee-44c1-a0ce-f6603bb69101","system_id":"levelo_inurba_marseille","lat":43.27834,"lon":5.39202,"is_reserved":false,"is_disabled":false,"rental_uris":{"android":"levelo://app?vid=afca572c-a2ee-44c1-a0ce-f6603bb69101","ios":"levelo://app?vid=afca572c-a2ee-44c1-a0ce-f6603bb69101"},"vehicle_type_id":"4","last_reported":1730422248,"current_range_meters":24400,"station_id":"ce4bhjp2rcd13ifvqga0","pricing_plan_id":"cebpf4jnsgd1na2vs0mg"},{"bike_id":"58748d2a-dff2-4bfe-ba69-a9beed25e62c","system_id":"levelo_inurba_marseille","lat":43.27105,"lon":5.39439,"is_reserved":false,"is_disabled":false,"rental_uris":{"android":"levelo://app?vid=58748d2a-dff2-4bfe-ba69-a9beed25e62c","ios":"levelo://app?vid=58748d2a-dff2-4bfe-ba69-a9beed25e62c"},"vehicle_type_id":"4","last_reported":1730422248,"current_range_meters":26000,"station_id":"","pricing_plan_id":"cebpf4jnsgd1na2vs0mg"},{"bike_id":"08ed22d7-663d-413b-8e4a-a32596a7792f","system_id":"levelo_inurba_marseille","lat":43.32486,"lon":5.41572,"is_reserved":false,"is_disabled":false,"rental_uris":{"android":"levelo://app?vid=08ed22d7-663d-413b-8e4a-a32596a7792f","ios":"levelo://app?vid=08ed22d7-663d-413b-8e4a-a32596a7792f"},"vehicle_type_id":"4","last_reported":1730422248,"current_range_meters":38800,"station_id":"","pricing_plan_id":"cebpf4jnsgd1na2vs0mg"},{"bike_id":"04854eef-7766-458c-9757-24ae146e0c9d","system_id":"levelo_inurba_marseille","lat":43.27817,"lon":5.40712,"is_reserved":false,"is_disabled":false,"rental_uris":{"android":"levelo://app?vid=04854eef-7766-458c-9757-24ae146e0c9d","ios":"levelo://app?vid=04854eef-7766-458c-9757-24ae146e0c9d"},"vehicle_type_id":"4","last_reported":1730422248,"current_range_meters":38400,"station_id":"ce4bhnh2rcd13ifvqgtg","pricing_plan_id":"cebpf4jnsgd1na2vs0mg"},{"bike_id":"fb536a03-1f45-4685-8473-f3f23d542b83","system_id":"levelo_inurba_marseille","lat":43.273123,"lon":5.39105,"is_reserved":false,"is_disabled":false,"rental_uris":{"android":"levelo://app?vid=fb536a03-1f45-4685-8473-f3f23d542b83","ios":"levelo://app?vid=fb536a03-1f45-4685-8473-f3f23d542b83"},"vehicle_type_id":"4","last_reported":1730422248,"current_range_meters":38800,"station_id":"ce4bhgp2rcd13ifvqfe0","pricing_plan_id":"cebpf4jnsgd1na2vs0mg"},{"bike_id":"798c7d8b-24cc-4adf-ac7f-2b51c49d5c45","system_id":"levelo_inurba_marseille","lat":43.24995,"lon":5.38928,"is_reserved":false,"is_disabled":false,"rental_uris":{"android":"levelo://app?vid=798c7d8b-24cc-4adf-ac7f-2b51c49d5c45","ios":"levelo://app?vid=798c7d8b-24cc-4adf-ac7f-2b51c49d5c45"},"vehicle_type_id":"4","last_reported":1730422248,"current_range_meters":14000,"station_id":"ce4bhgp2rcd13ifvqfd0","pricing_plan_id":"cebpf4jnsgd1na2vs0mg"},{"bike_id":"0c1fa554-cb95-4dfa-8261-ea86d45f5c7d","system_id":"levelo_inurba_marseille","lat":43.30251,"lon":5.40077,"is_reserved":false,"is_disabled":false,"rental_uris":{"android":"levelo://app?vid=0c1fa554-cb95-4dfa-8261-ea86d45f5c7d","ios":"levelo://app?vid=0c1fa554-cb95-4dfa-8261-ea86d45f5c7d"},"vehicle_type_id":"4","last_reported":1730422248,"current_range_meters":38800,"station_id":"ce4bhoh2rcd13ifvqh5g","pricing_plan_id":"cebpf4jnsgd1na2vs0mg"},{"bike_id":"c557ff30-64af-48d0-84c0-028a6bb21719","system_id":"levelo_inurba_marseille","lat":43.28707,"lon":5.39986,"is_reserved":false,"is_disabled":false,"rental_uris":{"android":"levelo://app?vid=c557ff30-64af-48d0-84c0-028a6bb21719","ios":"levelo://app?vid=c557ff30-64af-48d0-84c0-028a6bb21719"},"vehicle_type_id":"4","last_reported":1730422248,"current_range_meters":8000,"station_id":"ce4bho92rcd13ifvqh3g","pricing_plan_id":"cebpf4jnsgd1na2vs0mg"},{"bike_id":"073adda2-1817-476c-b415-a7a24a99bf6b","system_id":"levelo_inurba_marseille","lat":43.27319,"lon":5.39069,"is_reserved":false,"is_disabled":false,"rental_uris":{"android":"levelo://app?vid=073adda2-1817-476c-b415-a7a24a99bf6b","ios":"levelo://app?vid=073adda2-1817-476c-b415-a7a24a99bf6b"},"vehicle_type_id":"4","last_reported":1730422248,"current_range_meters":5600,"station_id":"ce4bhgp2rcd13ifvqfe0","pricing_plan_id":"cebpf4jnsgd1na2vs0mg"},{"bike_id":"a8bf15a2-3da0-456e-bd97-081c5a518dd1","system_id":"levelo_inurba_marseille","lat":43.27375,"lon":5.36249,"is_reserved":false,"is_disabled":false,"rental_uris":{"android":"levelo://app?vid=a8bf15a2-3da0-456e-bd97-081c5a518dd1","ios":"levelo://app?vid=a8bf15a2-3da0-456e-bd97-081c5a518dd1"},"vehicle_type_id":"4","last_reported":1730422248,"current_range_meters":38800,"station_id":"ce4bhbh2rcd13ifvqeo0","pricing_plan_id":"cebpf4jnsgd1na2vs0mg"},{"bike_id":"7659df96-0366-4c70-94f2-70e7459f8f8b","system_id":"levelo_inurba_marseille","lat":43.31214,"lon":5.36856,"is_reserved":false,"is_disabled":false,"rental_uris":{"android":"levelo://app?vid=7659df96-0366-4c70-94f2-70e7459f8f8b","ios":"levelo://app?vid=7659df96-0366-4c70-94f2-70e7459f8f8b"},"vehicle_type_id":"4","last_reported":1730422248,"current_range_meters":30400,"station_id":"ce4bgl92rcd13ifvqbq0","pricing_plan_id":"cebpf4jnsgd1na2vs0mg"},{"bike_id":"94279a57-03c0-47b7-abe3-7226e86fd3b0","system_id":"levelo_inurba_marseille","lat":43.27612,"lon":5.36116,"is_reserved":false,"is_disabled":false,"rental_uris":{"android":"levelo://app?vid=94279a57-03c0-47b7-abe3-7226e86fd3b0","ios":"levelo://app?vid=94279a57-03c0-47b7-abe3-7226e86fd3b0"},"vehicle_type_id":"4","last_reported":1730422248,"current_range_meters":27600,"station_id":"ce4bgj92rcd13ifvqbe0","pricing_plan_id":"cebpf4jnsgd1na2vs0mg"},{"bike_id":"864a552f-87dd-464a-977f-d7ea2d5d0d29","system_id":"levelo_inurba_marseille","lat":43.27619,"lon":5.36114,"is_reserved":false,"is_disabled":false,"rental_uris":{"android":"levelo://app?vid=864a552f-87dd-464a-977f-d7ea2d5d0d29","ios":"levelo://app?vid=864a552f-87dd-464a-977f-d7ea2d5d0d29"},"vehicle_type_id":"4","last_reported":1730422248,"current_range_meters":24400,"station_id":"ce4bgj92rcd13ifvqbe0","pricing_plan_id":"cebpf4jnsgd1na2vs0mg"},{"bike_id":"c46c6b2d-5ec5-47f8-ada1-36d04dc0bf50","system_id":"levelo_inurba_marseille","lat":43.27561,"lon":5.3602,"is_reserved":false,"is_disabled":false,"rental_uris":{"android":"levelo://app?vid=c46c6b2d-5ec5-47f8-ada1-36d04dc0bf50","ios":"levelo://app?vid=c46c6b2d-5ec5-47f8-ada1-36d04dc0bf50"},"vehicle_type_id":"4","last_reported":1730422248,"current_range_meters":34000,"station_id":"","pricing_plan_id":"cebpf4jnsgd1na2vs0mg"},{"bike_id":"32805dba-e566-4dd1-b7ec-0718f292c473","system_id":"levelo_inurba_marseille","lat":43.30092,"lon":5.39084,"is_reserved":false,"is_disabled":false,"rental_uris":{"android":"levelo://app?vid=32805dba-e566-4dd1-b7ec-0718f292c473","ios":"levelo://app?vid=32805dba-e566-4dd1-b7ec-0718f292c473"},"vehicle_type_id":"4","last_reported":1730422248,"current_range_meters":30000,"station_id":"ce4bh192rcd13ifvqdb0","pricing_plan_id":"cebpf4jnsgd1na2vs0mg"},{"bike_id":"a59de3a1-b5ee-4992-95d5-92d91d1b8221","system_id":"levelo_inurba_marseille","lat":43.25878,"lon":5.39884,"is_reserved":false,"is_disabled":false,"rental_uris":{"android":"levelo://app?vid=a59de3a1-b5ee-4992-95d5-92d91d1b8221","ios":"levelo://app?vid=a59de3a1-b5ee-4992-95d5-92d91d1b8221"},"vehicle_type_id":"4","last_reported":1730422248,"current_range_meters":35200,"station_id":"ce4bhl92rcd13ifvqghg","pricing_plan_id":"cebpf4jnsgd1na2vs0mg"},{"bike_id":"8a0bd193-24fa-4c05-a2cd-1d9d504a375a","system_id":"levelo_inurba_marseille","lat":43.32369,"lon":5.38884,"is_reserved":false,"is_disabled":false,"rental_uris":{"android":"levelo://app?vid=8a0bd193-24fa-4c05-a2cd-1d9d504a375a","ios":"levelo://app?vid=8a0bd193-24fa-4c05-a2cd-1d9d504a375a"},"vehicle_type_id":"4","last_reported":1730422248,"current_range_meters":36000,"station_id":"ce4bhqp2rcd13ifvqhog","pricing_plan_id":"cebpf4jnsgd1na2vs0mg"},{"bike_id":"ce7a9679-1309-4337-a277-05901a838b7d","system_id":"levelo_inurba_marseille","lat":43.29426,"lon":5.4338,"is_reserved":false,"is_disabled":false,"rental_uris":{"android":"levelo://app?vid=ce7a9679-1309-4337-a277-05901a838b7d","ios":"levelo://app?vid=ce7a9679-1309-4337-a277-05901a838b7d"},"vehicle_type_id":"4","last_reported":1730422248,"current_range_meters":19200,"station_id":"","pricing_plan_id":"cebpf4jnsgd1na2vs0mg"},{"bike_id":"18d70c6e-30db-4858-83dc-28fb7bbe966a","system_id":"levelo_inurba_marseille","lat":43.29301,"lon":5.37179,"is_reserved":false,"is_disabled":false,"rental_uris":{"android":"levelo://app?vid=18d70c6e-30db-4858-83dc-28fb7bbe966a","ios":"levelo://app?vid=18d70c6e-30db-4858-83dc-28fb7bbe966a"},"vehicle_type_id":"4","last_reported":1730422248,"current_range_meters":20800,"station_id":"ce4bgh92rcd13ifvqb40","pricing_plan_id":"cebpf4jnsgd1na2vs0mg"},{"bike_id":"742e3b39-99d0-477f-8dff-13676bdb1f4a","system_id":"levelo_inurba_marseille","lat":43.27072,"lon":5.42282,"is_reserved":false,"is_disabled":false,"rental_uris":{"android":"levelo://app?vid=742e3b39-99d0-477f-8dff-13676bdb1f4a","ios":"levelo://app?vid=742e3b39-99d0-477f-8dff-13676bdb1f4a"},"vehicle_type_id":"4","last_reported":1730422248,"current_range_meters":38800,"station_id":"ce4bhk92rcd13ifvqgb0","pricing_plan_id":"cebpf4jnsgd1na2vs0mg"},{"bike_id":"dcb8f151-5f72-4ce7-a41b-c8f44dd67b21","system_id":"levelo_inurba_marseille","lat":43.31369,"lon":5.38498,"is_reserved":false,"is_disabled":false,"rental_uris":{"android":"levelo://app?vid=dcb8f151-5f72-4ce7-a41b-c8f44dd67b21","ios":"levelo://app?vid=dcb8f151-5f72-4ce7-a41b-c8f44dd67b21"},"vehicle_type_id":"4","last_reported":1730422248,"current_range_meters":5600,"station_id":"ce4bgt92rcd13ifvqcf0","pricing_plan_id":"cebpf4jnsgd1na2vs0mg"},{"bike_id":"0327b2c3-a953-4a00-af49-25eb8099bcbf","system_id":"levelo_inurba_marseille","lat":43.31332,"lon":5.39697,"is_reserved":false,"is_disabled":false,"rental_uris":{"android":"levelo://app?vid=0327b2c3-a953-4a00-af49-25eb8099bcbf","ios":"levelo://app?vid=0327b2c3-a953-4a00-af49-25eb8099bcbf"},"vehicle_type_id":"4","last_reported":1730422248,"current_range_meters":39200,"station_id":"ce4bgvp2rcd13ifvqcu0","pricing_plan_id":"cebpf4jnsgd1na2vs0mg"},{"bike_id":"df891776-33ae-452f-bd82-592d9c59dac9","system_id":"levelo_inurba_marseille","lat":43.27998,"lon":5.40029,"is_reserved":false,"is_disabled":false,"rental_uris":{"android":"levelo://app?vid=df891776-33ae-452f-bd82-592d9c59dac9","ios":"levelo://app?vid=df891776-33ae-452f-bd82-592d9c59dac9"},"vehicle_type_id":"4","last_reported":1730422248,"current_range_meters":27600,"station_id":"ce4bho92rcd13ifvqh4g","pricing_plan_id":"cebpf4jnsgd1na2vs0mg"},{"bike_id":"6beb40b3-a83c-4877-9031-300bb62dfde5","system_id":"levelo_inurba_marseille","lat":43.31488,"lon":5.37304,"is_reserved":false,"is_disabled":false,"rental_uris":{"android":"levelo://app?vid=6beb40b3-a83c-4877-9031-300bb62dfde5","ios":"levelo://app?vid=6beb40b3-a83c-4877-9031-300bb62dfde5"},"vehicle_type_id":"4","last_reported":1730422248,"current_range_meters":38800,"station_id":"ce4bgt12rcd13ifvqcd0","pricing_plan_id":"cebpf4jnsgd1na2vs0mg"},{"bike_id":"d1514c58-2fa7-44a4-a23b-cf7b86c5557f","system_id":"levelo_inurba_marseille","lat":43.2906,"lon":5.37158,"is_reserved":false,"is_disabled":false,"rental_uris":{"android":"levelo://app?vid=d1514c58-2fa7-44a4-a23b-cf7b86c5557f","ios":"levelo://app?vid=d1514c58-2fa7-44a4-a23b-cf7b86c5557f"},"vehicle_type_id":"4","last_reported":1730422248,"current_range_meters":11200,"station_id":"ce4bh5p2rcd13ifvqe4g","pricing_plan_id":"cebpf4jnsgd1na2vs0mg"},{"bike_id":"98b6d671-73be-4e9f-9eb5-4e9410e42c9d","system_id":"levelo_inurba_marseille","lat":43.27615,"lon":5.36118,"is_reserved":false,"is_disabled":false,"rental_uris":{"android":"levelo://app?vid=98b6d671-73be-4e9f-9eb5-4e9410e42c9d","ios":"levelo://app?vid=98b6d671-73be-4e9f-9eb5-4e9410e42c9d"},"vehicle_type_id":"4","last_reported":1730422248,"current_range_meters":38800,"station_id":"ce4bgj92rcd13ifvqbe0","pricing_plan_id":"cebpf4jnsgd1na2vs0mg"},{"bike_id":"02ab60dd-f0a9-4f4d-bede-c1ec3ee07738","system_id":"levelo_inurba_marseille","lat":43.24168,"lon":5.36392,"is_reserved":false,"is_disabled":false,"rental_uris":{"android":"levelo://app?vid=02ab60dd-f0a9-4f4d-bede-c1ec3ee07738","ios":"levelo://app?vid=02ab60dd-f0a9-4f4d-bede-c1ec3ee07738"},"vehicle_type_id":"4","last_reported":1730422248,"current_range_meters":5600,"station_id":"cpo36qri1sfpv3e86is0","pricing_plan_id":"cebpf4jnsgd1na2vs0mg"},{"bike_id":"d4d56b6c-b6bd-492b-87af-d0efa56472b7","system_id":"levelo_inurba_marseille","lat":43.28579,"lon":5.39494,"is_reserved":false,"is_disabled":false,"rental_uris":{"android":"levelo://app?vid=d4d56b6c-b6bd-492b-87af-d0efa56472b7","ios":"levelo://app?vid=d4d56b6c-b6bd-492b-87af-d0efa56472b7"},"vehicle_type_id":"4","last_reported":1730422248,"current_range_meters":36400,"station_id":"ce4bgk12rcd13ifvqbi0","pricing_plan_id":"cebpf4jnsgd1na2vs0mg"},{"bike_id":"fc980a8b-57a0-4178-a4f7-51cea77885db","system_id":"levelo_inurba_marseille","lat":43.24073,"lon":5.37774,"is_reserved":false,"is_disabled":false,"rental_uris":{"android":"levelo://app?vid=fc980a8b-57a0-4178-a4f7-51cea77885db","ios":"levelo://app?vid=fc980a8b-57a0-4178-a4f7-51cea77885db"},"vehicle_type_id":"4","last_reported":1730422248,"current_range_meters":35600,"station_id":"ce4bhnp2rcd13ifvqgvg","pricing_plan_id":"cebpf4jnsgd1na2vs0mg"},{"bike_id":"99f60d99-0a57-4992-9e28-beeb29ec765f","system_id":"levelo_inurba_marseille","lat":43.32292,"lon":5.38266,"is_reserved":false,"is_disabled":false,"rental_uris":{"android":"levelo://app?vid=99f60d99-0a57-4992-9e28-beeb29ec765f","ios":"levelo://app?vid=99f60d99-0a57-4992-9e28-beeb29ec765f"},"vehicle_type_id":"4","last_reported":1730422248,"current_range_meters":37600,"station_id":"ce4bhr12rcd13ifvqhqg","pricing_plan_id":"cebpf4jnsgd1na2vs0mg"},{"bike_id":"d42e978e-d088-479a-b4ef-9300b2e187d8","system_id":"levelo_inurba_marseille","lat":43.30528,"lon":5.38434,"is_reserved":false,"is_disabled":false,"rental_uris":{"android":"levelo://app?vid=d42e978e-d088-479a-b4ef-9300b2e187d8","ios":"levelo://app?vid=d42e978e-d088-479a-b4ef-9300b2e187d8"},"vehicle_type_id":"4","last_reported":1730422248,"current_range_meters":36800,"station_id":"ce4bgg92rcd13ifvqb30","pricing_plan_id":"cebpf4jnsgd1na2vs0mg"},{"bike_id":"160c3125-d109-49e3-a687-ede78b99dea2","system_id":"levelo_inurba_marseille","lat":43.23187,"lon":5.35545,"is_reserved":false,"is_disabled":false,"rental_uris":{"android":"levelo://app?vid=160c3125-d109-49e3-a687-ede78b99dea2","ios":"levelo://app?vid=160c3125-d109-49e3-a687-ede78b99dea2"},"vehicle_type_id":"4","last_reported":1730422248,"current_range_meters":32800,"station_id":"ce4bhu92rcd13ifvqi70","pricing_plan_id":"cebpf4jnsgd1na2vs0mg"},{"bike_id":"b7a6f2fa-b342-46dd-9507-5b310b888695","system_id":"levelo_inurba_marseille","lat":43.2867,"lon":5.38669,"is_reserved":false,"is_disabled":false,"rental_uris":{"android":"levelo://app?vid=b7a6f2fa-b342-46dd-9507-5b310b888695","ios":"levelo://app?vid=b7a6f2fa-b342-46dd-9507-5b310b888695"},"vehicle_type_id":"4","last_reported":1730422248,"current_range_meters":28400,"station_id":"ce4bh492rcd13ifvqdug","pricing_plan_id":"cebpf4jnsgd1na2vs0mg"},{"bike_id":"ae31f7aa-ec14-4090-9ea9-479b30ff0ee5","system_id":"levelo_inurba_marseille","lat":43.33606,"lon":5.41038,"is_reserved":false,"is_disabled":false,"rental_uris":{"android":"levelo://app?vid=ae31f7aa-ec14-4090-9ea9-479b30ff0ee5","ios":"levelo://app?vid=ae31f7aa-ec14-4090-9ea9-479b30ff0ee5"},"vehicle_type_id":"4","last_reported":1730422248,"current_range_meters":38800,"station_id":"ce4bhqh2rcd13ifvqhmg","pricing_plan_id":"cebpf4jnsgd1na2vs0mg"},{"bike_id":"05e5b79f-8ad9-49d7-8baf-267807750560","system_id":"levelo_inurba_marseille","lat":43.27317,"lon":5.39082,"is_reserved":false,"is_disabled":false,"rental_uris":{"android":"levelo://app?vid=05e5b79f-8ad9-49d7-8baf-267807750560","ios":"levelo://app?vid=05e5b79f-8ad9-49d7-8baf-267807750560"},"vehicle_type_id":"4","last_reported":1730422248,"current_range_meters":27200,"station_id":"ce4bhgp2rcd13ifvqfe0","pricing_plan_id":"cebpf4jnsgd1na2vs0mg"},{"bike_id":"17ce9345-db9d-4d1e-a220-5267c515c390","system_id":"levelo_inurba_marseille","lat":43.29441,"lon":5.39747,"is_reserved":false,"is_disabled":false,"rental_uris":{"android":"levelo://app?vid=17ce9345-db9d-4d1e-a220-5267c515c390","ios":"levelo://app?vid=17ce9345-db9d-4d1e-a220-5267c515c390"},"vehicle_type_id":"4","last_reported":1730422248,"current_range_meters":10000,"station_id":"ce4bh3h2rcd13ifvqdo0","pricing_plan_id":"cebpf4jnsgd1na2vs0mg"},{"bike_id":"4c61f11b-de49-4664-8246-0fd92e617235","system_id":"levelo_inurba_marseille","lat":43.27822,"lon":5.4072,"is_reserved":false,"is_disabled":false,"rental_uris":{"android":"levelo://app?vid=4c61f11b-de49-4664-8246-0fd92e617235","ios":"levelo://app?vid=4c61f11b-de49-4664-8246-0fd92e617235"},"vehicle_type_id":"4","last_reported":1730422248,"current_range_meters":23200,"station_id":"ce4bhnh2rcd13ifvqgtg","pricing_plan_id":"cebpf4jnsgd1na2vs0mg"},{"bike_id":"71d10f41-2ffe-4394-bc10-bfa4bb58be1e","system_id":"levelo_inurba_marseille","lat":43.32341,"lon":5.40627,"is_reserved":false,"is_disabled":false,"rental_uris":{"android":"levelo://app?vid=71d10f41-2ffe-4394-bc10-bfa4bb58be1e","ios":"levelo://app?vid=71d10f41-2ffe-4394-bc10-bfa4bb58be1e"},"vehicle_type_id":"4","last_reported":1730422248,"current_range_meters":26000,"station_id":"ce4bhq92rcd13ifvqhjg","pricing_plan_id":"cebpf4jnsgd1na2vs0mg"},{"bike_id":"1d90876e-43d4-4a78-aa42-0c5b434f3d0f","system_id":"levelo_inurba_marseille","lat":43.3266,"lon":5.40998,"is_reserved":false,"is_disabled":false,"rental_uris":{"android":"levelo://app?vid=1d90876e-43d4-4a78-aa42-0c5b434f3d0f","ios":"levelo://app?vid=1d90876e-43d4-4a78-aa42-0c5b434f3d0f"},"vehicle_type_id":"4","last_reported":1730422248,"current_range_meters":35200,"station_id":"ce4bhpp2rcd13ifvqhgg","pricing_plan_id":"cebpf4jnsgd1na2vs0mg"},{"bike_id":"3683e7c8-a012-45dc-9869-8674aba9dd3e","system_id":"levelo_inurba_marseille","lat":43.30531,"lon":5.36547,"is_reserved":false,"is_disabled":false,"rental_uris":{"android":"levelo://app?vid=3683e7c8-a012-45dc-9869-8674aba9dd3e","ios":"levelo://app?vid=3683e7c8-a012-45dc-9869-8674aba9dd3e"},"vehicle_type_id":"4","last_reported":1730422248,"current_range_meters":37600,"station_id":"ce4bgs12rcd13ifvqcag","pricing_plan_id":"cebpf4jnsgd1na2vs0mg"},{"bike_id":"2c34c312-d89e-44c0-9548-3e7c43e8a910","system_id":"levelo_inurba_marseille","lat":43.28082,"lon":5.39661,"is_reserved":false,"is_disabled":false,"rental_uris":{"android":"levelo://app?vid=2c34c312-d89e-44c0-9548-3e7c43e8a910","ios":"levelo://app?vid=2c34c312-d89e-44c0-9548-3e7c43e8a910"},"vehicle_type_id":"4","last_reported":1730422248,"current_range_meters":28400,"station_id":"ce4bho12rcd13ifvqh2g","pricing_plan_id":"cebpf4jnsgd1na2vs0mg"},{"bike_id":"06e5bace-bd06-4542-86be-8018e14e5b42","system_id":"levelo_inurba_marseille","lat":43.30887,"lon":5.37202,"is_reserved":false,"is_disabled":false,"rental_uris":{"android":"levelo://app?vid=06e5bace-bd06-4542-86be-8018e14e5b42","ios":"levelo://app?vid=06e5bace-bd06-4542-86be-8018e14e5b42"},"vehicle_type_id":"4","last_reported":1730422248,"current_range_meters":27600,"station_id":"ce4bguh2rcd13ifvqckg","pricing_plan_id":"cebpf4jnsgd1na2vs0mg"},