{"last_updated":1702764369,"ttl":30,"version":"2.2","data":{"bikes":[{"bike_id":"cc3abdbc-914b-4138-bb33-5fa5c51dc825","system_id":"levelo_inurba_marseille","lat":43.313391,"lon":5.36706,"is_reserved":false,"is_disabled":false,"rental_uris":{"android":"levelo://app?vid=cc3abdbc-914b-4138-bb33-5fa5c51dc825","ios":"levelo://app?vid=cc3abdbc-914b-4138-bb33-5fa5c51dc825"},"vehicle_type_id":"4","last_reported":1702764369,"current_range_meters":26400,"station_id":"ce4bgr92rcd13ifvqc6g","pricing_plan_id":"free"},{"bike_id":"10f65ed6-99f9-4c5e-8982-eb67f12edd7d","system_id":"levelo_inurba_marseille","lat":43.312239,"lon":5.368562,"is_reserved":false,"is_disabled":false,"rental_uris":{"android":"levelo://app?vid=10f65ed6-99f9-4c5e-8982-eb67f12edd7d","ios":"levelo://app?vid=10f65ed6-99f9-4c5e-8982-eb67f12edd7d"},"vehicle_type_id":"4","last_reported":1702764369,"current_range_meters":11600,"station_id":"ce4bgl92rcd13ifvqbq0","pricing_plan_id":"free"},{"bike_id":"e5476539-be73-4755-a36b-fd0165078b2e","system_id":"levelo_inurba_marseille","lat":43.312239,"lon":5.368562,"is_reserved":false,"is_disabled":false,"rental_uris":{"android":"levelo://app?vid=e5476539-be73-4755-a36b-fd0165078b2e","ios":"levelo://app?vid=e5476539-be73-4755-a36b-fd0165078b2e"},"vehicle_type_id":"4","last_reported":1702764369,"current_range_meters":25600,"station_id":"ce4bgl92rcd13ifvqbq0","pricing_plan_id":"free"},{"bike_id":"c09e9b34-373c-4b52-8051-b6bd8cab947a","system_id":"levelo_inurba_marseille","lat":43.309076,"lon":5.368465,"is_reserved":false,"is_disabled":false,"rental_uris":{"android":"levelo://app?vid=c09e9b34-373c-4b52-8051-b6bd8cab947a","ios":"levelo://app?vid=c09e9b34-373c-4b52-8051-b6bd8cab947a"},"vehicle_type_id":"4","last_reported":1702764369,"current_range_meters":13600,"station_id":"ce4bgn92rcd13ifvqbvg","pricing_plan_id":"free"},{"bike_id":"5e5790ab-47fc-4e4d-8bed-4f78994ffc3a","system_id":"levelo_inurba_marseille","lat":43.309076,"lon":5.368465,"is_reserved":false,"is_disabled":false,"rental_uris":{"android":"levelo://app?vid=5e5790ab-47fc-4e4d-8bed-4f78994ffc3a","ios":"levelo://app?vid=5e5790ab-47fc-4e4d-8bed-4f78994ffc3a"},"vehicle_type_id":"4","last_reported":1702764369,"current_range_meters":26800,"station_id":"ce4bgn92rcd13ifvqbvg","pricing_plan_id":"free"},{"bike_id":"e3f496d6-13b6-4264-a6dc-d95817d286b7","system_id":"levelo_inurba_marseille","lat":43.314811,"lon":5.373103,"is_reserved":false,"is_disabled":false,"rental_uris":{"android":"levelo://app?vid=e3f496d6-13b6-4264-a6dc-d95817d286b7","ios":"levelo://app?vid=e3f496d6-13b6-4264-a6dc-d95817d286b7"},"vehicle_type_id":"4","last_reported":1702764369,"current_range_meters":8800,"station_id":"ce4bgt12rcd13ifvqcd0","pricing_plan_id":"free"},{"bike_id":"9bbd4fc8-30fd-470a-a5d1-3ae168090f9c","system_id":"levelo_inurba_marseille","lat":43.314811,"lon":5.373103,"is_reserved":false,"is_disabled":false,"rental_uris":{"android":"levelo://app?vid=9bbd4fc8-30fd-470a-a5d1-3ae168090f9c","ios":"levelo://app?vid=9bbd4fc8-30fd-470a-a5d1-3ae168090f9c"},"vehicle_type_id":"4","last_reported":1702764369,"current_range_meters":14400,"station_id":"ce4bgt12rcd13ifvqcd0","pricing_plan_id":"free"},{"bike_id":"3f8b821f-e430-4a35-bf14-f8b6e777ea11","system_id":"levelo_inurba_marseille","lat":43.313939,"lon":5.375306,"is_reserved":false,"is_disabled":false,"rental_uris":{"android":"levelo://app?vid=3f8b821f-e430-4a35-bf14-f8b6e777ea11","ios":"levelo://app?vid=3f8b821f-e430-4a35-bf14-f8b6e777ea11"},"vehicle_type_id":"4","last_reported":1702764369,"current_range_meters":0,"station_id":"","pricing_plan_id":"free"},{"bike_id":"955e4ab2-16e5-44e8-a986-a2f50ff96c06","system_id":"levelo_inurba_marseille","lat":43.305382,"lon":5.365389,"is_reserved":false,"is_disabled":false,"rental_uris":{"android":"levelo://app?vid=955e4ab2-16e5-44e8-a986-a2f50ff96c06","ios":"levelo://app?vid=955e4ab2-16e5-44e8-a986-a2f50ff96c06"},"vehicle_type_id":"4","last_reported":1702764369,"current_range_meters":14000,"station_id":"","pricing_plan_id":"free"},{"bike_id":"cc3961d7-2cd6-4e64-84f5-072a4b938833","system_id":"levelo_inurba_marseille","lat":43.305989,"lon":5.37225,"is_reserved":false,"is_disabled":false,"rental_uris":{"android":"levelo://app?vid=cc3961d7-2cd6-4e64-84f5-072a4b938833","ios":"levelo://app?vid=cc3961d7-2cd6-4e64-84f5-072a4b938833"},"vehicle_type_id":"4","last_reported":1702764369,"current_range_meters":25600,"station_id":"ce4bgqh2rcd13ifvqc4g","pricing_plan_id":"free"},{"bike_id":"6d8ca85a-cd72-4f6c-b8c0-cab90596f0d0","system_id":"levelo_inurba_marseille","lat":43.305989,"lon":5.37225,"is_reserved":false,"is_disabled":false,"rental_uris":{"android":"levelo://app?vid=6d8ca85a-cd72-4f6c-b8c0-cab90596f0d0","ios":"levelo://app?vid=6d8ca85a-cd72-4f6c-b8c0-cab90596f0d0"},"vehicle_type_id":"4","last_reported":1702764369,"current_range_meters":24400,"station_id":"ce4bgqh2rcd13ifvqc4g","pricing_plan_id":"free"},{"bike_id":"d4a31c4e-014c-4070-8295-bc4ae1ce8aa6","system_id":"levelo_inurba_marseille","lat":43.303046,"lon":5.368981,"is_reserved":false,"is_disabled":false,"rental_uris":{"android":"levelo://app?vid=d4a31c4e-014c-4070-8295-bc4ae1ce8aa6","ios":"levelo://app?vid=d4a31c4e-014c-4070-8295-bc4ae1ce8aa6"},"vehicle_type_id":"4","last_reported":1702764369,"current_range_meters":8800,"station_id":"ce4bgqh2rcd13ifvqc5g","pricing_plan_id":"free"},{"bike_id":"9616949a-45ac-45be-a508-98dd80f6820a","system_id":"levelo_inurba_marseille","lat":43.31541,"lon":5.38018,"is_reserved":false,"is_disabled":false,"rental_uris":{"android":"levelo://app?vid=9616949a-45ac-45be-a508-98dd80f6820a","ios":"levelo://app?vid=9616949a-45ac-45be-a508-98dd80f6820a"},"vehicle_type_id":"4","last_reported":1702764369,"current_range_meters":0,"station_id":"ce4bhsp2rcd13ifvqi50","pricing_plan_id":"free"},{"bike_id":"3ff73af5-0f47-4b8f-8cb6-e07bc3209616","system_id":"levelo_inurba_marseille","lat":43.315317,"lon":5.380245,"is_reserved":false,"is_disabled":false,"rental_uris":{"android":"levelo://app?vid=3ff73af5-0f47-4b8f-8cb6-e07bc3209616","ios":"levelo://app?vid=3ff73af5-0f47-4b8f-8cb6-e07bc3209616"},"vehicle_type_id":"4","last_reported":1702764369,"current_range_meters":5600,"station_id":"ce4bhsp2rcd13ifvqi50","pricing_plan_id":"free"},{"bike_id":"5631fbdf-0b1b-4a91-ac9e-b8c64f58a515","system_id":"levelo_inurba_marseille","lat":43.31535,"lon":5.38024,"is_reserved":false,"is_disabled":false,"rental_uris":{"android":"levelo://app?vid=5631fbdf-0b1b-4a91-ac9e-b8c64f58a515","ios":"levelo://app?vid=5631fbdf-0b1b-4a91-ac9e-b8c64f58a515"},"vehicle_type_id":"4","last_reported":1702764369,"current_range_meters":0,"station_id":"ce4bhsp2rcd13ifvqi50","pricing_plan_id":"free"},{"bike_id":"2f965d41-38c4-48e5-b912-13096fea36b7","system_id":"levelo_inurba_marseille","lat":43.308012,"lon":5.381511,"is_reserved":false,"is_disabled":false,"rental_uris":{"android":"levelo://app?vid=2f965d41-38c4-48e5-b912-13096fea36b7","ios":"levelo://app?vid=2f965d41-38c4-48e5-b912-13096fea36b7"},"vehicle_type_id":"4","last_reported":1702764369,"current_range_meters":0,"station_id":"ce4bgt12rcd13ifvqce0","pricing_plan_id":"free"},{"bike_id":"7c971f5a-d311-48da-95d5-5ec18768b327","system_id":"levelo_inurba_marseille","lat":43.30799,"lon":5.38152,"is_reserved":false,"is_disabled":false,"rental_uris":{"android":"levelo://app?vid=7c971f5a-d311-48da-95d5-5ec18768b327","ios":"levelo://app?vid=7c971f5a-d311-48da-95d5-5ec18768b327"},"vehicle_type_id":"4","last_reported":1702764369,"current_range_meters":0,"station_id":"ce4bgt12rcd13ifvqce0","pricing_plan_id":"free"},{"bike_id":"fc6fb833-d83e-49ed-bc22-75d78f992801","system_id":"levelo_inurba_marseille","lat":43.308012,"lon":5.381511,"is_reserved":false,"is_disabled":false,"rental_uris":{"android":"levelo://app?vid=fc6fb833-d83e-49ed-bc22-75d78f992801","ios":"levelo://app?vid=fc6fb833-d83e-49ed-bc22-75d78f992801"},"vehicle_type_id":"4","last_reported":1702764369,"current_range_meters":13200,"station_id":"ce4bgt12rcd13ifvqce0","pricing_plan_id":"free"},{"bike_id":"88f7ea2a-62f7-4a88-9e9d-900940b4d7e5","system_id":"levelo_inurba_marseille","lat":43.324771,"lon":5.36557,"is_reserved":false,"is_disabled":false,"rental_uris":{"android":"levelo://app?vid=88f7ea2a-62f7-4a88-9e9d-900940b4d7e5","ios":"levelo://app?vid=88f7ea2a-62f7-4a88-9e9d-900940b4d7e5"},"vehicle_type_id":"4","last_reported":1702764369,"current_range_meters":13600,"station_id":"ce4bhs12rcd13ifvqhvg","pricing_plan_id":"free"},{"bike_id":"a113a412-b8af-4df5-9700-8be6b2cf8388","system_id":"levelo_inurba_marseille","lat":43.324771,"lon":5.36557,"is_reserved":false,"is_disabled":false,"rental_uris":{"android":"levelo://app?vid=a113a412-b8af-4df5-9700-8be6b2cf8388","ios":"levelo://app?vid=a113a412-b8af-4df5-9700-8be6b2cf8388"},"vehicle_type_id":"4","last_reported":1702764369,"current_range_meters":16400,"station_id":"ce4bhs12rcd13ifvqhvg","pricing_plan_id":"free"},{"bike_id":"dfe62985-6f65-471f-8bdb-4e96693a7937","system_id":"levelo_inurba_marseille","lat":43.324834,"lon":5.365656,"is_reserved":false,"is_disabled":false,"rental_uris":{"android":"levelo://app?vid=dfe62985-6f65-471f-8bdb-4e96693a7937","ios":"levelo://app?vid=dfe62985-6f65-471f-8bdb-4e96693a7937"},"vehicle_type_id":"4","last_reported":1702764369,"current_range_meters":16000,"station_id":"ce4bhs12rcd13ifvqhvg","pricing_plan_id":"free"},{"bike_id":"44c8b40c-0afe-48d3-8480-d4dfd6b81af3","system_id":"levelo_inurba_marseille","lat":43.324771,"lon":5.36557,"is_reserved":false,"is_disabled":false,"rental_uris":{"android":"levelo://app?vid=44c8b40c-0afe-48d3-8480-d4dfd6b81af3","ios":"levelo://app?vid=44c8b40c-0afe-48d3-8480-d4dfd6b81af3"},"vehicle_type_id":"4","last_reported":1702764369,"current_range_meters":25200,"station_id":"ce4bhs12rcd13ifvqhvg","pricing_plan_id":"free"},{"bike_id":"e4c98e47-dc2d-47f4-a886-b309f6526e07","system_id":"levelo_inurba_marseille","lat":43.302784,"lon":5.377158,"is_reserved":false,"is_disabled":false,"rental_uris":{"android":"levelo://app?vid=e4c98e47-dc2d-47f4-a886-b309f6526e07","ios":"levelo://app?vid=e4c98e47-dc2d-47f4-a886-b309f6526e07"},"vehicle_type_id":"4","last_reported":1702764369,"current_range_meters":9600,"station_id":"ce4bguh2rcd13ifvqcj0","pricing_plan_id":"free"},{"bike_id":"50a8d875-785c-43e5-ba88-a22b8a4437be","system_id":"levelo_inurba_marseille","lat":43.302784,"lon":5.377158,"is_reserved":false,"is_disabled":false,"rental_uris":{"android":"levelo://app?vid=50a8d875-785c-43e5-ba88-a22b8a4437be","ios":"levelo://app?vid=50a8d875-785c-43e5-ba88-a22b8a4437be"},"vehicle_type_id":"4","last_reported":1702764369,"current_range_meters":12000,"station_id":"ce4bguh2rcd13ifvqcj0","pricing_plan_id":"free"},{"bike_id":"537edaa1-55ae-4244-b6a2-9f92ced52518","system_id":"levelo_inurba_marseille","lat":43.302784,"lon":5.377158,"is_reserved":false,"is_disabled":false,"rental_uris":{"android":"levelo://app?vid=537edaa1-55ae-4244-b6a2-9f92ced52518","ios":"levelo://app?vid=537edaa1-55ae-4244-b6a2-9f92ced52518"},"vehicle_type_id":"4","last_reported":1702764369,"current_range_meters":12400,"station_id":"ce4bguh2rcd13ifvqcj0","pricing_plan_id":"free"},{"bike_id":"dd62cb3a-3f08-44cf-8561-0c89ff17ac35","system_id":"levelo_inurba_marseille","lat":43.31359,"lon":5.384668,"is_reserved":false,"is_disabled":false,"rental_uris":{"android":"levelo://app?vid=dd62cb3a-3f08-44cf-8561-0c89ff17ac35","ios":"levelo://app?vid=dd62cb3a-3f08-44cf-8561-0c89ff17ac35"},"vehicle_type_id":"4","last_reported":1702764369,"current_range_meters":19600,"station_id":"ce4bgt92rcd13ifvqcf0","pricing_plan_id":"free"},{"bike_id":"0ca5e5b0-a1c7-49cb-8216-6f7dabf00798","system_id":"levelo_inurba_marseille","lat":43.29941,"lon":5.36566,"is_reserved":false,"is_disabled":false,"rental_uris":{"android":"levelo://app?vid=0ca5e5b0-a1c7-49cb-8216-6f7dabf00798","ios":"levelo://app?vid=0ca5e5b0-a1c7-49cb-8216-6f7dabf00798"},"vehicle_type_id":"4","last_reported":1702764369,"current_range_meters":4400,"station_id":"ce4bgm92rcd13ifvqbr0","pricing_plan_id":"free"},{"bike_id":"f4d8ed76-c1e2-4fca-86b2-daaf1281a478","system_id":"levelo_inurba_marseille","lat":43.299222,"lon":5.365554,"is_reserved":false,"is_disabled":false,"rental_uris":{"android":"levelo://app?vid=f4d8ed76-c1e2-4fca-86b2-daaf1281a478","ios":"levelo://app?vid=f4d8ed76-c1e2-4fca-86b2-daaf1281a478"},"vehicle_type_id":"4","last_reported":1702764369,"current_range_meters":12800,"station_id":"ce4bgm92rcd13ifvqbr0","pricing_plan_id":"free"},{"bike_id":"c4196fd9-ec5d-4975-ae34-90831a86843d","system_id":"levelo_inurba_marseille","lat":43.2993,"lon":5.36537,"is_reserved":false,"is_disabled":false,"rental_uris":{"android":"levelo://app?vid=c4196fd9-ec5d-4975-ae34-90831a86843d","ios":"levelo://app?vid=c4196fd9-ec5d-4975-ae34-90831a86843d"},"vehicle_type_id":"4","last_reported":1702764369,"current_range_meters":5200,"station_id":"ce4bgm92rcd13ifvqbr0","pricing_plan_id":"free"},{"bike_id":"c5945388-1bc7-413b-b024-46a1fb10c8f8","system_id":"levelo_inurba_marseille","lat":43.299724,"lon":5.371829,"is_reserved":false,"is_disabled":false,"rental_uris":{"android":"levelo://app?vid=c5945388-1bc7-413b-b024-46a1fb10c8f8","ios":"levelo://app?vid=c5945388-1bc7-413b-b024-46a1fb10c8f8"},"vehicle_type_id":"4","last_reported":1702764369,"current_range_meters":11600,"station_id":"ce4bgr92rcd13ifvqc7g","pricing_plan_id":"free"},{"bike_id":"490f57e8-590e-4078-bcab-3a5e39d64261","system_id":"levelo_inurba_marseille","lat":43.29853,"lon":5.36288,"is_reserved":false,"is_disabled":false,"rental_uris":{"android":"levelo://app?vid=490f57e8-590e-4078-bcab-3a5e39d64261","ios":"levelo://app?vid=490f57e8-590e-4078-bcab-3a5e39d64261"},"vehicle_type_id":"4","last_reported":1702764369,"current_range_meters":10400,"station_id":"ce4bgpp2rcd13ifvqc3g","pricing_plan_id":"free"},{"bike_id":"c4e77394-aef9-4077-b745-e99148625344","system_id":"levelo_inurba_marseille","lat":43.32733,"lon":5.36707,"is_reserved":false,"is_disabled":false,"rental_uris":{"android":"levelo://app?vid=c4e77394-aef9-4077-b745-e99148625344","ios":"levelo://app?vid=c4e77394-aef9-4077-b745-e99148625344"},"vehicle_type_id":"4","last_reported":1702764369,"current_range_meters":21200,"station_id":"","pricing_plan_id":"free"},{"bike_id":"55d803ab-eabc-4252-9a56-def8cad59422","system_id":"levelo_inurba_marseille","lat":43.299243,"lon":5.37481,"is_reserved":false,"is_disabled":false,"rental_uris":{"android":"levelo://app?vid=55d803ab-eabc-4252-9a56-def8cad59422","ios":"levelo://app?vid=55d803ab-eabc-4252-9a56-def8cad59422"},"vehicle_type_id":"4","last_reported":1702764369,"current_range_meters":19200,"station_id":"ce4bgjh2rcd13ifvqbg0","pricing_plan_id":"free"},{"bike_id":"ce670179-7d56-40a0-9298-bb63a217e8ff","system_id":"levelo_inurba_marseille","lat":43.299243,"lon":5.37481,"is_reserved":false,"is_disabled":false,"rental_uris":{"android":"levelo://app?vid=ce670179-7d56-40a0-9298-bb63a217e8ff","ios":"levelo://app?vid=ce670179-7d56-40a0-9298-bb63a217e8ff"},"vehicle_type_id":"4","last_reported":1702764369,"current_range_meters":800,"station_id":"ce4bgjh2rcd13ifvqbg0","pricing_plan_id":"free"},{"bike_id":"d3bbcda2-ccbd-4cbb-b120-c94746f9f0ce","system_id":"levelo_inurba_marseille","lat":43.299243,"lon":5.374807,"is_reserved":false,"is_disabled":false,"rental_uris":{"android":"levelo://app?vid=d3bbcda2-ccbd-4cbb-b120-c94746f9f0ce","ios":"levelo://app?vid=d3bbcda2-ccbd-4cbb-b120-c94746f9f0ce"},"vehicle_type_id":"4","last_reported":1702764369,"current_range_meters":3200,"station_id":"ce4bgjh2rcd13ifvqbg0","pricing_plan_id":"free"},{"bike_id":"72231c25-5659-4dc6-aa15-89629ed2acca","system_id":"levelo_inurba_marseille","lat":43.299243,"lon":5.37481,"is_reserved":false,"is_disabled":false,"rental_uris":{"android":"levelo://app?vid=72231c25-5659-4dc6-aa15-89629ed2acca","ios":"levelo://app?vid=72231c25-5659-4dc6-aa15-89629ed2acca"},"vehicle_type_id":"4","last_reported":1702764369,"current_range_meters":20400,"station_id":"ce4bgjh2rcd13ifvqbg0","pricing_plan_id":"free"},{"bike_id":"819cb438-2e9c-4e0b-902b-5e19ef554d5c","system_id":"levelo_inurba_marseille","lat":43.305439,"lon":5.384499,"is_reserved":false,"is_disabled":false,"rental_uris":{"android":"levelo://app?vid=819cb438-2e9c-4e0b-902b-5e19ef554d5c","ios":"levelo://app?vid=819cb438-2e9c-4e0b-902b-5e19ef554d5c"},"vehicle_type_id":"4","last_reported":1702764369,"current_range_meters":14400,"station_id":"ce4bgg92rcd13ifvqb30","pricing_plan_id":"free"},{"bike_id":"27108763-f337-4255-935a-f9673a3e91b2","system_id":"levelo_inurba_marseille","lat":43.299243,"lon":5.37481,"is_reserved":false,"is_disabled":false,"rental_uris":{"android":"levelo://app?vid=27108763-f337-4255-935a-f9673a3e91b2","ios":"levelo://app?vid=27108763-f337-4255-935a-f9673a3e91b2"},"vehicle_type_id":"4","last_reported":1702764369,"current_range_meters":9600,"station_id":"ce4bgjh2rcd13ifvqbg0","pricing_plan_id":"free"},{"bike_id":"257e2c60-5deb-4d9a-9e2e-c2fc09067537","system_id":"levelo_inurba_marseille","lat":43.328371,"lon":5.366909,"is_reserved":false,"is_disabled":false,"rental_uris":{"android":"levelo://app?vid=257e2c60-5deb-4d9a-9e2e-c2fc09067537","ios":"levelo://app?vid=257e2c60-5deb-4d9a-9e2e-c2fc09067537"},"vehicle_type_id":"4","last_reported":1702764369,"current_range_meters":16400,"station_id":"ce4bhs92rcd13ifvqi0g","pricing_plan_id":"free"},{"bike_id":"f1491da4-2f54-4445-8640-37b7b5e9b0bd","system_id":"levelo_inurba_marseille","lat":43.32831,"lon":5.36677,"is_reserved":false,"is_disabled":false,"rental_uris":{"android":"levelo://app?vid=f1491da4-2f54-4445-8640-37b7b5e9b0bd","ios":"levelo://app?vid=f1491da4-2f54-4445-8640-37b7b5e9b0bd"},"vehicle_type_id":"4","last_reported":1702764369,"current_range_meters":7600,"station_id":"ce4bhs92rcd13ifvqi0g","pricing_plan_id":"free"},{"bike_id":"97e1ed14-73b7-40d5-8827-9d7cc2dbf434","system_id":"levelo_inurba_marseille","lat":43.297163,"lon":5.365866,"is_reserved":false,"is_disabled":false,"rental_uris":{"android":"levelo://app?vid=97e1ed14-73b7-40d5-8827-9d7cc2dbf434","ios":"levelo://app?vid=97e1ed14-73b7-40d5-8827-9d7cc2dbf434"},"vehicle_type_id":"4","last_reported":1702764369,"current_range_meters":17200,"station_id":"ce4bgn12rcd13ifvqbt0","pricing_plan_id":"free"},{"bike_id":"3f6f084e-eca4-405b-8371-d8539ab16fbf","system_id":"levelo_inurba_marseille","lat":43.296129,"lon":5.370777,"is_reserved":false,"is_disabled":false,"rental_uris":{"android":"levelo://app?vid=3f6f084e-eca4-405b-8371-d8539ab16fbf","ios":"levelo://app?vid=3f6f084e-eca4-405b-8371-d8539ab16fbf"},"vehicle_type_id":"4","last_reported":1702764369,"current_range_meters":23200,"station_id":"ce4bgnh2rcd13ifvqc0g","pricing_plan_id":"free"},{"bike_id":"88eaad2f-8682-4d26-90e1-01d424664f2c","system_id":"levelo_inurba_marseille","lat":43.29573,"lon":5.367355,"is_reserved":false,"is_disabled":false,"rental_uris":{"android":"levelo://app?vid=88eaad2f-8682-4d26-90e1-01d424664f2c","ios":"levelo://app?vid=88eaad2f-8682-4d26-90e1-01d424664f2c"},"vehicle_type_id":"4","last_reported":1702764369,"current_range_meters":0,"station_id":"ce4bgph2rcd13ifvqc2g","pricing_plan_id":"free"},{"bike_id":"2e4327a4-5c68-42c9-a75e-2a5f9b2ba77b","system_id":"levelo_inurba_marseille","lat":43.317557,"lon":5.390173,"is_reserved":false,"is_disabled":false,"rental_uris":{"android":"levelo://app?vid=2e4327a4-5c68-42c9-a75e-2a5f9b2ba77b","ios":"levelo://app?vid=2e4327a4-5c68-42c9-a75e-2a5f9b2ba77b"},"vehicle_type_id":"4","last_reported":1702764369,"current_range_meters":26400,"station_id":"ce4bhqp2rcd13ifvqhng","pricing_plan_id":"free"},{"bike_id":"d6044d44-46f6-46c2-bcb2-8e3a6e06c707","system_id":"levelo_inurba_marseille","lat":43.317557,"lon":5.390173,"is_reserved":false,"is_disabled":false,"rental_uris":{"android":"levelo://app?vid=d6044d44-46f6-46c2-bcb2-8e3a6e06c707","ios":"levelo://app?vid=d6044d44-46f6-46c2-bcb2-8e3a6e06c707"},"vehicle_type_id":"4","last_reported":1702764369,"current_range_meters":5600,"station_id":"ce4bhqp2rcd13ifvqhng","pricing_plan_id":"free"},{"bike_id":"4fe68cb0-ef05-4f1c-919b-7a2b0e3c1f89","system_id":"levelo_inurba_marseille","lat":43.317557,"lon":5.390173,"is_reserved":false,"is_disabled":false,"rental_uris":{"android":"levelo://app?vid=4fe68cb0-ef05-4f1c-919b-7a2b0e3c1f89","ios":"levelo://app?vid=4fe68cb0-ef05-4f1c-919b-7a2b0e3c1f89"},"vehicle_type_id":"4","last_reported":1702764369,"current_range_meters":31600,"station_id":"ce4bhqp2rcd13ifvqhng","pricing_plan_id":"free"},{"bike_id":"8b990761-3717-4b31-9e09-22c0e6f10fb8","system_id":"levelo_inurba_marseille","lat":43.317557,"lon":5.390173,"is_reserved":false,"is_disabled":false,"rental_uris":{"android":"levelo://app?vid=8b990761-3717-4b31-9e09-22c0e6f10fb8","ios":"levelo://app?vid=8b990761-3717-4b31-9e09-22c0e6f10fb8"},"vehicle_type_id":"4","last_reported":1702764369,"current_range_meters":10800,"station_id":"ce4bhqp2rcd13ifvqhng","pricing_plan_id":"free"},{"bike_id":"1020804c-16ae-4b1f-b228-fc34949ef0f5","system_id":"levelo_inurba_marseille","lat":43.29583,"lon":5.3751,"is_reserved":false,"is_disabled":false,"rental_uris":{"android":"levelo://app?vid=1020804c-16ae-4b1f-b228-fc34949ef0f5","ios":"levelo://app?vid=1020804c-16ae-4b1f-b228-fc34949ef0f5"},"vehicle_type_id":"4","last_reported":1702764369,"current_range_meters":0,"station_id":"ce4bgh92rcd13ifvqb50","pricing_plan_id":"free"},{"bike_id":"06fcb8ab-008e-43f5-ae5f-89824141ef4c","system_id":"levelo_inurba_marseille","lat":43.304274,"lon":5.388873,"is_reserved":false,"is_disabled":false,"rental_uris":{"android":"levelo://app?vid=06fcb8ab-008e-43f5-ae5f-89824141ef4c","ios":"levelo://app?vid=06fcb8ab-008e-43f5-ae5f-89824141ef4c"},"vehicle_type_id":"4","last_reported":1702764369,"current_range_meters":25600,"station_id":"ce4bgk12rcd13ifvqbi0","pricing_plan_id":"free"},{"bike_id":"7e7ef40d-531a-4301-a0d6-4728b0f8798c","system_id":"levelo_inurba_marseille","lat":43.304278,"lon":5.388868,"is_reserved":false,"is_disabled":false,"rental_uris":{"android":"levelo://app?vid=7e7ef40d-531a-4301-a0d6-4728b0f8798c","ios":"levelo://app?vid=7e7ef40d-531a-4301-a0d6-4728b0f8798c"},"vehicle_type_id":"4","last_reported":1702764369,"current_range_meters":22800,"station_id":"ce4bgk12rcd13ifvqbi0","pricing_plan_id":"free"},{"bike_id":"3ca94b6b-f2ba-479c-bd34-79c461550038","system_id":"levelo_inurba_marseille","lat":43.296277,"lon":5.377108,"is_reserved":false,"is_disabled":false,"rental_uris":{"android":"levelo://app?vid=3ca94b6b-f2ba-479c-bd34-79c461550038","ios":"levelo://app?vid=3ca94b6b-f2ba-479c-bd34-79c461550038"},"vehicle_type_id":"4","last_reported":1702764369,"current_range_meters":0,"station_id":"ce4bgi92rcd13ifvqb90","pricing_plan_id":"free"},{"bike_id":"e3f30e90-a2d9-41db-9ece-2c35a827665a","system_id":"levelo_inurba_marseille","lat":43.296277,"lon":5.377108,"is_reserved":false,"is_disabled":false,"rental_uris":{"android":"levelo://app?vid=e3f30e90-a2d9-41db-9ece-2c35a827665a","ios":"levelo://app?vid=e3f30e90-a2d9-41db-9ece-2c35a827665a"},"vehicle_type_id":"4","last_reported":1702764369,"current_range_meters":2000,"station_id":"ce4bgi92rcd13ifvqb90","pricing_plan_id":"free"},{"bike_id":"2c2d2390-596a-48b3-b209-35a5f9b841b2","system_id":"levelo_inurba_marseille","lat":43.29978,"lon":5.38493,"is_reserved":false,"is_disabled":false,"rental_uris":{"android":"levelo://app?vid=2c2d2390-596a-48b3-b209-35a5f9b841b2","ios":"levelo://app?vid=2c2d2390-596a-48b3-b209-35a5f9b841b2"},"vehicle_type_id":"4","last_reported":1702764369,"current_range_meters":0,"station_id":"ce4bgj92rcd13ifvqbd0","pricing_plan_id":"free"},{"bike_id":"2d339ccb-9fe7-4132-b39e-b9bd4a932749","system_id":"levelo_inurba_marseille","lat":43.323616,"lon":5.388806,"is_reserved":false,"is_disabled":false,"rental_uris":{"android":"levelo://app?vid=2d339ccb-9fe7-4132-b39e-b9bd4a932749","ios":"levelo://app?vid=2d339ccb-9fe7-4132-b39e-b9bd4a932749"},"vehicle_type_id":"4","last_reported":1702764369,"current_range_meters":14800,"station_id":"ce4bhqp2rcd13ifvqhog","pricing_plan_id":"free"},{"bike_id":"31954c81-37ea-46a3-a087-7d824ac76191","system_id":"levelo_inurba_marseille","lat":43.32367,"lon":5.388836,"is_reserved":false,"is_disabled":false,"rental_uris":{"android":"levelo://app?vid=31954c81-37ea-46a3-a087-7d824ac76191","ios":"levelo://app?vid=31954c81-37ea-46a3-a087-7d824ac76191"},"vehicle_type_id":"4","last_reported":1702764369,"current_range_meters":5200,"station_id":"ce4bhqp2rcd13ifvqhog","pricing_plan_id":"free"},{"bike_id":"8937ce52-05ef-44b0-8065-9651dff89e17","system_id":"levelo_inurba_marseille","lat":43.293009,"lon":5.374584,"is_reserved":false,"is_disabled":false,"rental_uris":{"android":"levelo://app?vid=8937ce52-05ef-44b0-8065-9651dff89e17","ios":"levelo://app?vid=8937ce52-05ef-44b0-8065-9651dff89e17"},"vehicle_type_id":"4","last_reported":1702764369,"current_range_meters":13600,"station_id":"ce4bgi12rcd13ifvqb70","pricing_plan_id":"free"},{"bike_id":"acc64acc-d87c-497a-820e-648891abe975","system_id":"levelo_inurba_marseille","lat":43.300852,"lon":5.390859,"is_reserved":false,"is_disabled":false,"rental_uris":{"android":"levelo://app?vid=acc64acc-d87c-497a-820e-648891abe975","ios":"levelo://app?vid=acc64acc-d87c-497a-820e-648891abe975"},"vehicle_type_id":"4","last_reported":1702764369,"current_range_meters":400,"station_id":"ce4bh192rcd13ifvqdb0","pricing_plan_id":"free"},{"bike_id":"ee252402-3ea0-43f7-8867-59e5e519bbd2","system_id":"levelo_inurba_marseille","lat":43.292311,"lon":5.360731,"is_reserved":false,"is_disabled":false,"rental_uris":{"android":"levelo://app?vid=ee252402-3ea0-43f7-8867-59e5e519bbd2","ios":"levelo://app?vid=ee252402-3ea0-43f7-8867-59e5e519bbd2"},"vehicle_type_id":"4","last_reported":1702764369,"current_range_meters":21200,"station_id":"ce4bhbh2rcd13ifvqeqg","pricing_plan_id":"free"},{"bike_id":"22e678a9-70a0-4fe2-84ef-ac25d3a6cc31","system_id":"levelo_inurba_marseille","lat":43.29262,"lon":5.37618,"is_reserved":false,"is_disabled":false,"rental_uris":{"android":"levelo://app?vid=22e678a9-70a0-4fe2-84ef-ac25d3a6cc31","ios":"levelo://app?vid=22e678a9-70a0-4fe2-84ef-ac25d3a6cc31"},"vehicle_type_id":"4","last_reported":1702764369,"current_range_meters":800,"station_id":"","pricing_plan_id":"free"},{"bike_id":"c8e3145b-3e0d-456b-a09e-1e034d48286a","system_id":"levelo_inurba_marseille","lat":43.291675,"lon":5.371583,"is_reserved":false,"is_disabled":false,"rental_uris":{"android":"levelo://app?vid=c8e3145b-3e0d-456b-a09e-1e034d48286a","ios":"levelo://app?vid=c8e3145b-3e0d-456b-a09e-1e034d48286a"},"vehicle_type_id":"4","last_reported":1702764369,"current_range_meters":0,"station_id":"ce4bha92rcd13ifvqeh0","pricing_plan_id":"free"},{"bike_id":"700c857e-727c-40e6-a7ae-e559ea333063","system_id":"levelo_inurba_marseille","lat":43.2917,"lon":5.37155,"is_reserved":false,"is_disabled":false,"rental_uris":{"android":"levelo://app?vid=700c857e-727c-40e6-a7ae-e559ea333063","ios":"levelo://app?vid=700c857e-727c-40e6-a7ae-e559ea333063"},"vehicle_type_id":"4","last_reported":1702764369,"current_range_meters":0,"station_id":"ce4bha92rcd13ifvqeh0","pricing_plan_id":"free"},{"bike_id":"2afce7b3-4570-4134-9334-ad000ced58d5","system_id":"levelo_inurba_marseille","lat":43.309038,"lon":5.396546,"is_reserved":false,"is_disabled":false,"rental_uris":{"android":"levelo://app?vid=2afce7b3-4570-4134-9334-ad000ced58d5","ios":"levelo://app?vid=2afce7b3-4570-4134-9334-ad000ced58d5"},"vehicle_type_id":"4","last_reported":1702764369,"current_range_meters":2000,"station_id":"ce4bh012rcd13ifvqcv0","pricing_plan_id":"free"},{"bike_id":"f5b3e659-bde4-4475-af6c-0993b3bb725d","system_id":"levelo_inurba_marseille","lat":43.31328,"lon":5.39694,"is_reserved":false,"is_disabled":false,"rental_uris":{"android":"levelo://app?vid=f5b3e659-bde4-4475-af6c-0993b3bb725d","ios":"levelo://app?vid=f5b3e659-bde4-4475-af6c-0993b3bb725d"},"vehicle_type_id":"4","last_reported":1702764369,"current_range_meters":5600,"station_id":"ce4bgvp2rcd13ifvqcu0","pricing_plan_id":"free"},{"bike_id":"4c8f0d14-e5d4-4ef1-9cbe-2199caa57036","system_id":"levelo_inurba_marseille","lat":43.289184,"lon":5.366408,"is_reserved":false,"is_disabled":false,"rental_uris":{"android":"levelo://app?vid=4c8f0d14-e5d4-4ef1-9cbe-2199caa57036","ios":"levelo://app?vid=4c8f0d14-e5d4-4ef1-9cbe-2199caa57036"},"vehicle_type_id":"4","last_reported":1702764369,"current_range_meters":11600,"station_id":"ce4bhap2rcd13ifvqek0","pricing_plan_id":"free"},{"bike_id":"4f4ba841-cafb-4842-9204-1455d45862b2","system_id":"levelo_inurba_marseille","lat":43.289184,"lon":5.366408,"is_reserved":false,"is_disabled":false,"rental_uris":{"android":"levelo://app?vid=4f4ba841-cafb-4842-9204-1455d45862b2","ios":"levelo://app?vid=4f4ba841-cafb-4842-9204-1455d45862b2"},"vehicle_type_id":"4","last_reported":1702764369,"current_range_meters":20000,"station_id":"ce4bhap2rcd13ifvqek0","pricing_plan_id":"free"},{"bike_id":"64e200d6-a82c-4b4c-96fa-5a9ac0fafe7b","system_id":"levelo_inurba_marseille","lat":43.289434,"lon":5.364016,"is_reserved":false,"is_disabled":false,"rental_uris":{"android":"levelo://app?vid=64e200d6-a82c-4b4c-96fa-5a9ac0fafe7b","ios":"levelo://app?vid=64e200d6-a82c-4b4c-96fa-5a9ac0fafe7b"},"vehicle_type_id":"4","last_reported":1702764369,"current_range_meters":14400,"station_id":"ce4bhc92rcd13ifvqetg","pricing_plan_id":"free"},{"bike_id":"7869065b-ba9c-4e14-a6e0-075a72b86610","system_id":"levelo_inurba_marseille","lat":43.33043,"lon":5.38919,"is_reserved":false,"is_disabled":false,"rental_uris":{"android":"levelo://app?vid=7869065b-ba9c-4e14-a6e0-075a72b86610","ios":"levelo://app?vid=7869065b-ba9c-4e14-a6e0-075a72b86610"},"vehicle_type_id":"4","last_reported":1702764369,"current_range_meters":6800,"station_id":"ce4bhr92rcd13ifvqhrg","pricing_plan_id":"free"},{"bike_id":"0019cc72-50a3-4298-937a-c3025a814462","system_id":"levelo_inurba_marseille","lat":43.33042,"lon":5.38922,"is_reserved":false,"is_disabled":false,"rental_uris":{"android":"levelo://app?vid=0019cc72-50a3-4298-937a-c3025a814462","ios":"levelo://app?vid=0019cc72-50a3-4298-937a-c3025a814462"},"vehicle_type_id":"4","last_reported":1702764369,"current_range_meters":6000,"station_id":"ce4bhr92rcd13ifvqhrg","pricing_plan_id":"free"},{"bike_id":"10edec2c-b477-41cf-b349-8782be610938","system_id":"levelo_inurba_marseille","lat":43.295169,"lon":5.390426,"is_reserved":false,"is_disabled":false,"rental_uris":{"android":"levelo://app?vid=10edec2c-b477-41cf-b349-8782be610938","ios":"levelo://app?vid=10edec2c-b477-41cf-b349-8782be610938"},"vehicle_type_id":"4","last_reported":1702764369,"current_range_meters":19600,"station_id":"ce4bh3p2rcd13ifvqdp0","pricing_plan_id":"free"},{"bike_id":"f0cd831c-cfb9-44c7-9487-103b6df223ca","system_id":"levelo_inurba_marseille","lat":43.337445,"lon":5.374592,"is_reserved":false,"is_disabled":false,"rental_uris":{"android":"levelo://app?vid=f0cd831c-cfb9-44c7-9487-103b6df223ca","ios":"levelo://app?vid=f0cd831c-cfb9-44c7-9487-103b6df223ca"},"vehicle_type_id":"4","last_reported":1702764369,"current_range_meters":27600,"station_id":"","pricing_plan_id":"free"},{"bike_id":"51f5f937-910a-41fb-98bd-575f9357ad31","system_id":"levelo_inurba_marseille","lat":43.31277,"lon":5.40174,"is_reserved":false,"is_disabled":false,"rental_uris":{"android":"levelo://app?vid=51f5f937-910a-41fb-98bd-575f9357ad31","ios":"levelo://app?vid=51f5f937-910a-41fb-98bd-575f9357ad31"},"vehicle_type_id":"4","last_reported":1702764369,"current_range_meters":16800,"station_id":"ce4bh092rcd13ifvqd30","pricing_plan_id":"free"},{"bike_id":"c00f20a1-7bfe-4a23-bc51-ec3e2d306013","system_id":"levelo_inurba_marseille","lat":43.30933,"lon":5.40143,"is_reserved":false,"is_disabled":false,"rental_uris":{"android":"levelo://app?vid=c00f20a1-7bfe-4a23-bc51-ec3e2d306013","ios":"levelo://app?vid=c00f20a1-7bfe-4a23-bc51-ec3e2d306013"},"vehicle_type_id":"4","last_reported":1702764369,"current_range_meters":8400,"station_id":"ce4bgvp2rcd13ifvqct0","pricing_plan_id":"free"},{"bike_id":"2c0affd7-831a-464c-b05c-095e043e7db8","system_id":"levelo_inurba_marseille","lat":43.30927,"lon":5.40142,"is_reserved":false,"is_disabled":false,"rental_uris":{"android":"levelo://app?vid=2c0affd7-831a-464c-b05c-095e043e7db8","ios":"levelo://app?vid=2c0affd7-831a-464c-b05c-095e043e7db8"},"vehicle_type_id":"4","last_reported":1702764369,"current_range_meters":12400,"station_id":"ce4bgvp2rcd13ifvqct0","pricing_plan_id":"free"},{"bike_id":"7f8040df-85d2-410c-9638-eae1f5725cfd","system_id":"levelo_inurba_marseille","lat":43.309371,"lon":5.401449,"is_reserved":false,"is_disabled":false,"rental_uris":{"android":"levelo://app?vid=7f8040df-85d2-410c-9638-eae1f5725cfd","ios":"levelo://app?vid=7f8040df-85d2-410c-9638-eae1f5725cfd"},"vehicle_type_id":"4","last_reported":1702764369,"current_range_meters":24400,"station_id":"ce4bgvp2rcd13ifvqct0","pricing_plan_id":"free"},{"bike_id":"f3b70ad3-1161-4c05-9381-a86d7c0ce4e2","system_id":"levelo_inurba_marseille","lat":43.30931,"lon":5.4015,"is_reserved":false,"is_disabled":false,"rental_uris":{"android":"levelo://app?vid=f3b70ad3-1161-4c05-9381-a86d7c0ce4e2","ios":"levelo://app?vid=f3b70ad3-1161-4c05-9381-a86d7c0ce4e2"},"vehicle_type_id":"4","last_reported":1702764369,"current_range_meters":17200,"station_id":"ce4bgvp2rcd13ifvqct0","pricing_plan_id":"free"},{"bike_id":"173f70c2-b04d-4a84-a578-47bd8dae1954","system_id":"levelo_inurba_marseille","lat":43.309371,"lon":5.401449,"is_reserved":false,"is_disabled":false,"rental_uris":{"android":"levelo://app?vid=173f70c2-b04d-4a84-a578-47bd8dae1954","ios":"levelo://app?vid=173f70c2-b04d-4a84-a578-47bd8dae1954"},"vehicle_type_id":"4","last_reported":1702764369,"current_range_meters":10000,"station_id":"ce4bgvp2rcd13ifvqct0","pricing_plan_id":"free"},{"bike_id":"ef80ceab-dc9f-4b6c-8f52-707d5177f481","system_id":"levelo_inurba_marseille","lat":43.33752,"lon":5.37466,"is_reserved":false,"is_disabled":false,"rental_uris":{"android":"levelo://app?vid=ef80ceab-dc9f-4b6c-8f52-707d5177f481","ios":"levelo://app?vid=ef80ceab-dc9f-4b6c-8f52-707d5177f481"},"vehicle_type_id":"4","last_reported":1702764369,"current_range_meters":27200,"station_id":"","pricing_plan_id":"free"},{"bike_id":"d961fdfb-0c8d-4ced-a6a7-dc7159120bab","system_id":"levelo_inurba_marseille","lat":43.309371,"lon":5.401449,"is_reserved":false,"is_disabled":false,"rental_uris":{"android":"levelo://app?vid=d961fdfb-0c8d-4ced-a6a7-dc7159120bab","ios":"levelo://app?vid=d961fdfb-0c8d-4ced-a6a7-dc7159120bab"},"vehicle_type_id":"4","last_reported":1702764369,"current_range_meters":0,"station_id":"ce4bgvp2rcd13ifvqct0","pricing_plan_id":"free"},{"bike_id":"660d1d4e-aa8e-4b13-ad2f-62e98b316447","system_id":"levelo_inurba_marseille","lat":43.301117,"lon":5.398795,"is_reserved":false,"is_disabled":false,"rental_uris":{"android":"levelo://app?vid=660d1d4e-aa8e-4b13-ad2f-62e98b316447","ios":"levelo://app?vid=660d1d4e-aa8e-4b13-ad2f-62e98b316447"},"vehicle_type_id":"4","last_reported":1702764369,"current_range_meters":12000,"station_id":"ce4bh0h2rcd13ifvqd40","pricing_plan_id":"free"},{"bike_id":"0a6347a3-6aed-4591-ba89-15a27aa3668c","system_id":"levelo_inurba_marseille","lat":43.286961,"lon":5.373785,"is_reserved":false,"is_disabled":false,"rental_uris":{"android":"levelo://app?vid=0a6347a3-6aed-4591-ba89-15a27aa3668c","ios":"levelo://app?vid=0a6347a3-6aed-4591-ba89-15a27aa3668c"},"vehicle_type_id":"4","last_reported":1702764369,"current_range_meters":14400,"station_id":"ce4bh3p2rcd13ifvqdq0","pricing_plan_id":"free"},{"bike_id":"811ca201-f116-4503-863d-4ebde3239757","system_id":"levelo_inurba_marseille","lat":43.286961,"lon":5.373785,"is_reserved":false,"is_disabled":false,"rental_uris":{"android":"levelo://app?vid=811ca201-f116-4503-863d-4ebde3239757","ios":"levelo://app?vid=811ca201-f116-4503-863d-4ebde3239757"},"vehicle_type_id":"4","last_reported":1702764369,"current_range_meters":5600,"station_id":"ce4bh3p2rcd13ifvqdq0","pricing_plan_id":"free"},{"bike_id":"6ba8ad61-4ba1-4f67-af59-001c65ab1c36","system_id":"levelo_inurba_marseille","lat":43.295194,"lon":5.39397,"is_reserved":false,"is_disabled":false,"rental_uris":{"android":"levelo://app?vid=6ba8ad61-4ba1-4f67-af59-001c65ab1c36","ios":"levelo://app?vid=6ba8ad61-4ba1-4f67-af59-001c65ab1c36"},"vehicle_type_id":"4","last_reported":1702764369,"current_range_meters":0,"station_id":"ce4bh292rcd13ifvqdf0","pricing_plan_id":"free"},{"bike_id":"ee4865bc-5a87-478a-8d25-9c38b64b7d63","system_id":"levelo_inurba_marseille","lat":43.302759,"lon":5.400793,"is_reserved":false,"is_disabled":false,"rental_uris":{"android":"levelo://app?vid=ee4865bc-5a87-478a-8d25-9c38b64b7d63","ios":"levelo://app?vid=ee4865bc-5a87-478a-8d25-9c38b64b7d63"},"vehicle_type_id":"4","last_reported":1702764369,"current_range_meters":2000,"station_id":"ce4bgvh2rcd13ifvqcs0","pricing_plan_id":"free"},{"bike_id":"5c8a7aaa-a85b-4f42-ad13-53fcfcdd6410","system_id":"levelo_inurba_marseille","lat":43.29027,"lon":5.38642,"is_reserved":false,"is_disabled":false,"rental_uris":{"android":"levelo://app?vid=5c8a7aaa-a85b-4f42-ad13-53fcfcdd6410","ios":"levelo://app?vid=5c8a7aaa-a85b-4f42-ad13-53fcfcdd6410"},"vehicle_type_id":"4","last_reported":1702764369,"current_range_meters":0,"station_id":"ce4bh4p2rcd13ifvqe0g","pricing_plan_id":"free"},{"bike_id":"503bc2bf-4c0b-4465-a0c4-5ec7ccb724aa","system_id":"levelo_inurba_marseille","lat":43.287184,"lon":5.37937,"is_reserved":false,"is_disabled":false,"rental_uris":{"android":"levelo://app?vid=503bc2bf-4c0b-4465-a0c4-5ec7ccb724aa","ios":"levelo://app?vid=503bc2bf-4c0b-4465-a0c4-5ec7ccb724aa"},"vehicle_type_id":"4","last_reported":1702764369,"current_range_meters":2000,"station_id":"ce4bh9p2rcd13ifvqec0","pricing_plan_id":"free"},{"bike_id":"1da7323a-0293-4cbd-abfe-90e38605b3a3","system_id":"levelo_inurba_marseille","lat":43.287184,"lon":5.37937,"is_reserved":false,"is_disabled":false,"rental_uris":{"android":"levelo://app?vid=1da7323a-0293-4cbd-abfe-90e38605b3a3","ios":"levelo://app?vid=1da7323a-0293-4cbd-abfe-90e38605b3a3"},"vehicle_type_id":"4","last_reported":1702764369,"current_range_meters":21600,"station_id":"ce4bh9p2rcd13ifvqec0","pricing_plan_id":"free"},{"bike_id":"49a1dbf2-b830-4f1d-8677-44b23eeffa0b","system_id":"levelo_inurba_marseille","lat":43.291994,"lon":5.392907,"is_reserved":false,"is_disabled":false,"rental_uris":{"android":"levelo://app?vid=49a1dbf2-b830-4f1d-8677-44b23eeffa0b","ios":"levelo://app?vid=49a1dbf2-b830-4f1d-8677-44b23eeffa0b"},"vehicle_type_id":"4","last_reported":1702764369,"current_range_meters":20000,"station_id":"ce4bh192rcd13ifvqdd0","pricing_plan_id":"free"},{"bike_id":"0e6ff1f7-6252-4036-925f-cc0faaeb505f","system_id":"levelo_inurba_marseille","lat":43.284538,"lon":5.358657,"is_reserved":false,"is_disabled":false,"rental_uris":{"android":"levelo://app?vid=0e6ff1f7-6252-4036-925f-cc0faaeb505f","ios":"levelo://app?vid=0e6ff1f7-6252-4036-925f-cc0faaeb505f"},"vehicle_type_id":"4","last_reported":1702764369,"current_range_meters":9200,"station_id":"ce4bhah2rcd13ifvqei0","pricing_plan_id":"free"},{"bike_id":"2a3286fd-e53c-4a3b-8304-b78a7e604c81","system_id":"levelo_inurba_marseille","lat":43.284534,"lon":5.358662,"is_reserved":false,"is_disabled":false,"rental_uris":{"android":"levelo://app?vid=2a3286fd-e53c-4a3b-8304-b78a7e604c81","ios":"levelo://app?vid=2a3286fd-e53c-4a3b-8304-b78a7e604c81"},"vehicle_type_id":"4","last_reported":1702764369,"current_range_meters":13200,"station_id":"ce4bhah2rcd13ifvqei0","pricing_plan_id":"free"},{"bike_id":"cc48a435-e5b5-4eb0-9606-36bfc3a0bb7b","system_id":"levelo_inurba_marseille","lat":43.284538,"lon":5.358657,"is_reserved":false,"is_disabled":false,"rental_uris":{"android":"levelo://app?vid=cc48a435-e5b5-4eb0-9606-36bfc3a0bb7b","ios":"levelo://app?vid=cc48a435-e5b5-4eb0-9606-36bfc3a0bb7b"},"vehicle_type_id":"4","last_reported":1702764369,"current_range_meters":15600,"station_id":"ce4bhah2rcd13ifvqei0","pricing_plan_id":"free"},{"bike_id":"c6ecfb38-b158-46ec-8d89-11f32ae48750","system_id":"levelo_inurba_marseille","lat":43.294314,"lon":5.397498,"is_reserved":false,"is_disabled":false,"rental_uris":{"android":"levelo://app?vid=c6ecfb38-b158-46ec-8d89-11f32ae48750","ios":"levelo://app?vid=c6ecfb38-b158-46ec-8d89-11f32ae48750"},"vehicle_type_id":"4","last_reported":1702764369,"current_range_meters":4400,"station_id":"ce4bh3h2rcd13ifvqdo0","pricing_plan_id":"free"},{"bike_id":"a92a3745-92b6-4822-bdc4-ebddd802b34c","system_id":"levelo_inurba_marseille","lat":43.294314,"lon":5.397498,"is_reserved":false,"is_disabled":false,"rental_uris":{"android":"levelo://app?vid=a92a3745-92b6-4822-bdc4-ebddd802b34c","ios":"levelo://app?vid=a92a3745-92b6-4822-bdc4-ebddd802b34c"},"vehicle_type_id":"4","last_reported":1702764369,"current_range_meters":6000,"station_id":"ce4bh3h2rcd13ifvqdo0","pricing_plan_id":"free"},{"bike_id":"c7ac843b-1b85-4124-a8f2-df5f64228a25","system_id":"levelo_inurba_marseille","lat":43.285856,"lon":5.350771,"is_reserved":false,"is_disabled":false,"rental_uris":{"android":"levelo://app?vid=c7ac843b-1b85-4124-a8f2-df5f64228a25","ios":"levelo://app?vid=c7ac843b-1b85-4124-a8f2-df5f64228a25"},"vehicle_type_id":"4","last_reported":1702764369,"current_range_meters":23600,"station_id":"ce4bhch2rcd13ifvqeug","pricing_plan_id":"free"},{"bike_id":"6f4e287c-28b7-4952-b86f-8a268358136e","system_id":"levelo_inurba_marseille","lat":43.286165,"lon":5.350995,"is_reserved":false,"is_disabled":false,"rental_uris":{"android":"levelo://app?vid=6f4e287c-28b7-4952-b86f-8a268358136e","ios":"levelo://app?vid=6f4e287c-28b7-4952-b86f-8a268358136e"},"vehicle_type_id":"4","last_reported":1702764369,"current_range_meters":8800,"station_id":"ce4bhch2rcd13ifvqeug","pricing_plan_id":"free"},{"bike_id":"0874efd1-65a7-463f-ba22-dea8dcd1e0a5","system_id":"levelo_inurba_marseille","lat":43.283998,"lon":5.375062,"is_reserved":false,"is_disabled":false,"rental_uris":{"android":"levelo://app?vid=0874efd1-65a7-463f-ba22-dea8dcd1e0a5","ios":"levelo://app?vid=0874efd1-65a7-463f-ba22-dea8dcd1e0a5"},"vehicle_type_id":"4","last_reported":1702764369,"current_range_meters":11200,"station_id":"ce4bh412rcd13ifvqds0","pricing_plan_id":"free"},{"bike_id":"3d5a9953-62a8-4497-b1f8-e7f58b591661","system_id":"levelo_inurba_marseille","lat":43.283998,"lon":5.375062,"is_reserved":false,"is_disabled":false,"rental_uris":{"android":"levelo://app?vid=3d5a9953-62a8-4497-b1f8-e7f58b591661","ios":"levelo://app?vid=3d5a9953-62a8-4497-b1f8-e7f58b591661"},"vehicle_type_id":"4","last_reported":1702764369,"current_range_meters":12400,"station_id":"ce4bh412rcd13ifvqds0","pricing_plan_id":"free"},{"bike_id":"f242a942-61a1-4b14-92e0-1cf7b79fab3f","system_id":"levelo_inurba_marseille","lat":43.283998,"lon":5.375062,"is_reserved":false,"is_disabled":false,"rental_uris":{"android":"levelo://app?vid=f242a942-61a1-4b14-92e0-1cf7b79fab3f","ios":"levelo://app?vid=f242a942-61a1-4b14-92e0-1cf7b79fab3f"},"vehicle_type_id":"4","last_reported":1702764369,"current_range_meters":0,"station_id":"ce4bh412rcd13ifvqds0","pricing_plan_id":"free"},{"bike_id":"bad02cd4-297d-435d-98b7-e3d74b1c51a0","system_id":"levelo_inurba_marseille","lat":43.283998,"lon":5.375062,"is_reserved":false,"is_disabled":false,"rental_uris":{"android":"levelo://app?vid=bad02cd4-297d-435d-98b7-e3d74b1c51a0","ios":"levelo://app?vid=bad02cd4-297d-435d-98b7-e3d74b1c51a0"},"vehicle_type_id":"4","last_reported":1702764369,"current_range_meters":5200,"station_id":"ce4bh412rcd13ifvqds0","pricing_plan_id":"free"},{"bike_id":"7980b514-7b81-49da-955f-d3cee0578dd7","system_id":"levelo_inurba_marseille","lat":43.283998,"lon":5.375062,"is_reserved":false,"is_disabled":false,"rental_uris":{"android":"levelo://app?vid=7980b514-7b81-49da-955f-d3cee0578dd7","ios":"levelo://app?vid=7980b514-7b81-49da-955f-d3cee0578dd7"},"vehicle_type_id":"4","last_reported":1702764369,"current_range_meters":10400,"station_id":"ce4bh412rcd13ifvqds0","pricing_plan_id":"free"},{"bike_id":"2dfa5049-0e1b-4839-b5c3-156910a65dbd","system_id":"levelo_inurba_marseille","lat":43.33177,"lon":5.39828,"is_reserved":false,"is_disabled":false,"rental_uris":{"android":"levelo://app?vid=2dfa5049-0e1b-4839-b5c3-156910a65dbd","ios":"levelo://app?vid=2dfa5049-0e1b-4839-b5c3-156910a65dbd"},"vehicle_type_id":"4","last_reported":1702764369,"current_range_meters":7600,"station_id":"","pricing_plan_id":"free"},{"bike_id":"a8c4246c-8b22-44a6-af13-0443491dc2b7","system_id":"levelo_inurba_marseille","lat":43.323464,"lon":5.406297,"is_reserved":false,"is_disabled":false,"rental_uris":{"android":"levelo://app?vid=a8c4246c-8b22-44a6-af13-0443491dc2b7","ios":"levelo://app?vid=a8c4246c-8b22-44a6-af13-0443491dc2b7"},"vehicle_type_id":"4","last_reported":1702764369,"current_range_meters":25200,"station_id":"ce4bhq92rcd13ifvqhjg","pricing_plan_id":"free"},{"bike_id":"23f97ce1-dc88-4ce2-b479-4a18041f2146","system_id":"levelo_inurba_marseille","lat":43.284793,"lon":5.384113,"is_reserved":false,"is_disabled":false,"rental_uris":{"android":"levelo://app?vid=23f97ce1-dc88-4ce2-b479-4a18041f2146","ios":"levelo://app?vid=23f97ce1-dc88-4ce2-b479-4a18041f2146"},"vehicle_type_id":"4","last_reported":1702764369,"current_range_meters":20000,"station_id":"ce4bh512rcd13ifvqe3g","pricing_plan_id":"free"},{"bike_id":"113c13f6-cf23-479e-93d3-4a104eb95254","system_id":"levelo_inurba_marseille","lat":43.284793,"lon":5.384113,"is_reserved":false,"is_disabled":false,"rental_uris":{"android":"levelo://app?vid=113c13f6-cf23-479e-93d3-4a104eb95254","ios":"levelo://app?vid=113c13f6-cf23-479e-93d3-4a104eb95254"},"vehicle_type_id":"4","last_reported":1702764369,"current_range_meters":2000,"station_id":"ce4bh512rcd13ifvqe3g","pricing_plan_id":"free"},{"bike_id":"af8d0a2e-0317-4176-a964-e96a9de83275","system_id":"levelo_inurba_marseille","lat":43.284787,"lon":5.384116,"is_reserved":false,"is_disabled":false,"rental_uris":{"android":"levelo://app?vid=af8d0a2e-0317-4176-a964-e96a9de83275","ios":"levelo://app?vid=af8d0a2e-0317-4176-a964-e96a9de83275"},"vehicle_type_id":"4","last_reported":1702764369,"current_range_meters":25600,"station_id":"ce4bh512rcd13ifvqe3g","pricing_plan_id":"free"},{"bike_id":"ad6e0ef0-6cc6-4ef3-b70f-b9f2746a9390","system_id":"levelo_inurba_marseille","lat":43.284793,"lon":5.384113,"is_reserved":false,"is_disabled":false,"rental_uris":{"android":"levelo://app?vid=ad6e0ef0-6cc6-4ef3-b70f-b9f2746a9390","ios":"levelo://app?vid=ad6e0ef0-6cc6-4ef3-b70f-b9f2746a9390"},"vehicle_type_id":"4","last_reported":1702764369,"current_range_meters":13600,"station_id":"ce4bh512rcd13ifvqe3g","pricing_plan_id":"free"},{"bike_id":"e24feb9b-357c-45fc-bfad-b97d1916c4a1","system_id":"levelo_inurba_marseille","lat":43.288516,"lon":5.393227,"is_reserved":false,"is_disabled":false,"rental_uris":{"android":"levelo://app?vid=e24feb9b-357c-45fc-bfad-b97d1916c4a1","ios":"levelo://app?vid=e24feb9b-357c-45fc-bfad-b97d1916c4a1"},"vehicle_type_id":"4","last_reported":1702764369,"current_range_meters":0,"station_id":"ce4bh2p2rcd13ifvqdi0","pricing_plan_id":"free"},{"bike_id":"329cf0b2-6d39-4304-804b-05d8a1630787","system_id":"levelo_inurba_marseille","lat":43.283498,"lon":5.380948,"is_reserved":false,"is_disabled":false,"rental_uris":{"android":"levelo://app?vid=329cf0b2-6d39-4304-804b-05d8a1630787","ios":"levelo://app?vid=329cf0b2-6d39-4304-804b-05d8a1630787"},"vehicle_type_id":"4","last_reported":1702764369,"current_range_meters":15600,"station_id":"ce4bh412rcd13ifvqdr0","pricing_plan_id":"free"},{"bike_id":"a7fb6422-9e7c-4abc-a63e-732d7ca66506","system_id":"levelo_inurba_marseille","lat":43.282754,"lon":5.350519,"is_reserved":false,"is_disabled":false,"rental_uris":{"android":"levelo://app?vid=a7fb6422-9e7c-4abc-a63e-732d7ca66506","ios":"levelo://app?vid=a7fb6422-9e7c-4abc-a63e-732d7ca66506"},"vehicle_type_id":"4","last_reported":1702764369,"current_range_meters":5200,"station_id":"ce4bhbp2rcd13ifvqerg","pricing_plan_id":"free"},{"bike_id":"efb473ef-e94e-4f42-807c-90b4ed9e5373","system_id":"levelo_inurba_marseille","lat":43.282754,"lon":5.350519,"is_reserved":false,"is_disabled":false,"rental_uris":{"android":"levelo://app?vid=efb473ef-e94e-4f42-807c-90b4ed9e5373","ios":"levelo://app?vid=efb473ef-e94e-4f42-807c-90b4ed9e5373"},"vehicle_type_id":"4","last_reported":1702764369,"current_range_meters":18000,"station_id":"ce4bhbp2rcd13ifvqerg","pricing_plan_id":"free"},{"bike_id":"5aa2b349-0983-4b99-8b97-15decc850d73","system_id":"levelo_inurba_marseille","lat":43.28049,"lon":5.36948,"is_reserved":false,"is_disabled":false,"rental_uris":{"android":"levelo://app?vid=5aa2b349-0983-4b99-8b97-15decc850d73","ios":"levelo://app?vid=5aa2b349-0983-4b99-8b97-15decc850d73"},"vehicle_type_id":"4","last_reported":1702764369,"current_range_meters":9200,"station_id":"ce4bha12rcd13ifvqef0","pricing_plan_id":"free"},{"bike_id":"901a12d5-c6c9-4ec4-bc80-d37129bc0310","system_id":"levelo_inurba_marseille","lat":43.282754,"lon":5.350519,"is_reserved":false,"is_disabled":false,"rental_uris":{"android":"levelo://app?vid=901a12d5-c6c9-4ec4-bc80-d37129bc0310","ios":"levelo://app?vid=901a12d5-c6c9-4ec4-bc80-d37129bc0310"},"vehicle_type_id":"4","last_reported":1702764369,"current_range_meters":14000,"station_id":"ce4bhbp2rcd13ifvqerg","pricing_plan_id":"free"},{"bike_id":"39153f9c-bbc6-4931-b7a0-8cf29544edc0","system_id":"levelo_inurba_marseille","lat":43.282744,"lon":5.350533,"is_reserved":false,"is_disabled":false,"rental_uris":{"android":"levelo://app?vid=39153f9c-bbc6-4931-b7a0-8cf29544edc0","ios":"levelo://app?vid=39153f9c-bbc6-4931-b7a0-8cf29544edc0"},"vehicle_type_id":"4","last_reported":1702764369,"current_range_meters":20000,"station_id":"ce4bhbp2rcd13ifvqerg","pricing_plan_id":"free"},{"bike_id":"9d2389f0-1f4e-4d61-afc0-c373a6bcf102","system_id":"levelo_inurba_marseille","lat":43.280382,"lon":5.369291,"is_reserved":false,"is_disabled":false,"rental_uris":{"android":"levelo://app?vid=9d2389f0-1f4e-4d61-afc0-c373a6bcf102","ios":"levelo://app?vid=9d2389f0-1f4e-4d61-afc0-c373a6bcf102"},"vehicle_type_id":"4","last_reported":1702764369,"current_range_meters":6400,"station_id":"ce4bha12rcd13ifvqef0","pricing_plan_id":"free"},{"bike_id":"e063aa6d-ecfb-43c0-963f-c3e8c8b6d808","system_id":"levelo_inurba_marseille","lat":43.28037,"lon":5.36941,"is_reserved":false,"is_disabled":false,"rental_uris":{"android":"levelo://app?vid=e063aa6d-ecfb-43c0-963f-c3e8c8b6d808","ios":"levelo://app?vid=e063aa6d-ecfb-43c0-963f-c3e8c8b6d808"},"vehicle_type_id":"4","last_reported":1702764369,"current_range_meters":0,"station_id":"ce4bha12rcd13ifvqef0","pricing_plan_id":"free"},{"bike_id":"db1ed468-f3a1-4f7e-9011-5d9da43edf21","system_id":"levelo_inurba_marseille","lat":43.281044,"lon":5.378308,"is_reserved":false,"is_disabled":false,"rental_uris":{"android":"levelo://app?vid=db1ed468-f3a1-4f7e-9011-5d9da43edf21","ios":"levelo://app?vid=db1ed468-f3a1-4f7e-9011-5d9da43edf21"},"vehicle_type_id":"4","last_reported":1702764369,"current_range_meters":14800,"station_id":"ce4bha12rcd13ifvqee0","pricing_plan_id":"free"},{"bike_id":"cc41ff2b-f5f0-4406-9181-4ed8087eaf55","system_id":"levelo_inurba_marseille","lat":43.284411,"lon":5.39185,"is_reserved":false,"is_disabled":false,"rental_uris":{"android":"levelo://app?vid=cc41ff2b-f5f0-4406-9181-4ed8087eaf55","ios":"levelo://app?vid=cc41ff2b-f5f0-4406-9181-4ed8087eaf55"},"vehicle_type_id":"4","last_reported":1702764369,"current_range_meters":0,"station_id":"ce4bhoh2rcd13ifvqh5g","pricing_plan_id":"free"},{"bike_id":"ac05eec3-6dd4-4e50-ab24-45f354a74562","system_id":"levelo_inurba_marseille","lat":43.326605,"lon":5.409903,"is_reserved":false,"is_disabled":false,"rental_uris":{"android":"levelo://app?vid=ac05eec3-6dd4-4e50-ab24-45f354a74562","ios":"levelo://app?vid=ac05eec3-6dd4-4e50-ab24-45f354a74562"},"vehicle_type_id":"4","last_reported":1702764369,"current_range_meters":30400,"station_id":"ce4bhpp2rcd13ifvqhgg","pricing_plan_id":"free"},{"bike_id":"b0c41b6f-d450-44c8-a10d-476ec0080f6a","system_id":"levelo_inurba_marseille","lat":43.304188,"lon":5.412904,"is_reserved":false,"is_disabled":false,"rental_uris":{"android":"levelo://app?vid=b0c41b6f-d450-44c8-a10d-476ec0080f6a","ios":"levelo://app?vid=b0c41b6f-d450-44c8-a10d-476ec0080f6a"},"vehicle_type_id":"4","last_reported":1702764369,"current_range_meters":24400,"station_id":"ce4bhop2rcd13ifvqh8g","pricing_plan_id":"free"},{"bike_id":"1cf5711c-d1c6-4323-bcfb-d76f78e3080d","system_id":"levelo_inurba_marseille","lat":43.304188,"lon":5.412904,"is_reserved":false,"is_disabled":false,"rental_uris":{"android":"levelo://app?vid=1cf5711c-d1c6-4323-bcfb-d76f78e3080d","ios":"levelo://app?vid=1cf5711c-d1c6-4323-bcfb-d76f78e3080d"},"vehicle_type_id":"4","last_reported":1702764369,"current_range_meters":0,"station_id":"ce4bhop2rcd13ifvqh8g","pricing_plan_id":"free"},{"bike_id":"b20b997c-e71c-4908-ab85-2e82e1ac7d9c","system_id":"levelo_inurba_marseille","lat":43.299579,"lon":5.413255,"is_reserved":false,"is_disabled":false,"rental_uris":{"android":"levelo://app?vid=b20b997c-e71c-4908-ab85-2e82e1ac7d9c","ios":"levelo://app?vid=b20b997c-e71c-4908-ab85-2e82e1ac7d9c"},"vehicle_type_id":"4","last_reported":1702764369,"current_range_meters":25200,"station_id":"ce4bhp12rcd13ifvqh9g","pricing_plan_id":"free"},{"bike_id":"a9761bfc-9cc9-46d3-90ba-cb98557039b8","system_id":"levelo_inurba_marseille","lat":43.292571,"lon":5.409107,"is_reserved":false,"is_disabled":false,"rental_uris":{"android":"levelo://app?vid=a9761bfc-9cc9-46d3-90ba-cb98557039b8","ios":"levelo://app?vid=a9761bfc-9cc9-46d3-90ba-cb98557039b8"},"vehicle_type_id":"4","last_reported":1702764369,"current_range_meters":6800,"station_id":"ce4bh192rcd13ifvqdc0","pricing_plan_id":"free"},{"bike_id":"3bd15542-245a-42a9-b937-b196151afa0b","system_id":"levelo_inurba_marseille","lat":43.292571,"lon":5.409107,"is_reserved":false,"is_disabled":false,"rental_uris":{"android":"levelo://app?vid=3bd15542-245a-42a9-b937-b196151afa0b","ios":"levelo://app?vid=3bd15542-245a-42a9-b937-b196151afa0b"},"vehicle_type_id":"4","last_reported":1702764369,"current_range_meters":17600,"station_id":"ce4bh192rcd13ifvqdc0","pricing_plan_id":"free"},{"bike_id":"3ab9a3ea-0856-4851-8dc5-251cdc548ff2","system_id":"levelo_inurba_marseille","lat":43.27619,"lon":5.36112,"is_reserved":false,"is_disabled":false,"rental_uris":{"android":"levelo://app?vid=3ab9a3ea-0856-4851-8dc5-251cdc548ff2","ios":"levelo://app?vid=3ab9a3ea-0856-4851-8dc5-251cdc548ff2"},"vehicle_type_id":"4","last_reported":1702764369,"current_range_meters":0,"station_id":"ce4bgj92rcd13ifvqbe0","pricing_plan_id":"free"},{"bike_id":"e7fcdeca-090d-491e-a8ea-4f6571be908d","system_id":"levelo_inurba_marseille","lat":43.280784,"lon":5.396622,"is_reserved":false,"is_disabled":false,"rental_uris":{"android":"levelo://app?vid=e7fcdeca-090d-491e-a8ea-4f6571be908d","ios":"levelo://app?vid=e7fcdeca-090d-491e-a8ea-4f6571be908d"},"vehicle_type_id":"4","last_reported":1702764369,"current_range_meters":26400,"station_id":"ce4bho12rcd13ifvqh2g","pricing_plan_id":"free"},{"bike_id":"60d62baa-fa07-4908-821f-297e680b9e12","system_id":"levelo_inurba_marseille","lat":43.278401,"lon":5.392152,"is_reserved":false,"is_disabled":false,"rental_uris":{"android":"levelo://app?vid=60d62baa-fa07-4908-821f-297e680b9e12","ios":"levelo://app?vid=60d62baa-fa07-4908-821f-297e680b9e12"},"vehicle_type_id":"4","last_reported":1702764369,"current_range_meters":28400,"station_id":"ce4bhjp2rcd13ifvqga0","pricing_plan_id":"free"},{"bike_id":"2bed3501-fcea-4a7a-8a65-1bedf3ad5bdc","system_id":"levelo_inurba_marseille","lat":43.336134,"lon":5.410341,"is_reserved":false,"is_disabled":false,"rental_uris":{"android":"levelo://app?vid=2bed3501-fcea-4a7a-8a65-1bedf3ad5bdc","ios":"levelo://app?vid=2bed3501-fcea-4a7a-8a65-1bedf3ad5bdc"},"vehicle_type_id":"4","last_reported":1702764369,"current_range_meters":24000,"station_id":"ce4bhqh2rcd13ifvqhmg","pricing_plan_id":"free"},{"bike_id":"bcd1cc4e-cc91-4a36-a104-d3ac5f121c6a","system_id":"levelo_inurba_marseille","lat":43.336134,"lon":5.410341,"is_reserved":false,"is_disabled":false,"rental_uris":{"android":"levelo://app?vid=bcd1cc4e-cc91-4a36-a104-d3ac5f121c6a","ios":"levelo://app?vid=bcd1cc4e-cc91-4a36-a104-d3ac5f121c6a"},"vehicle_type_id":"4","last_reported":1702764369,"current_range_meters":16400,"station_id":"ce4bhqh2rcd13ifvqhmg","pricing_plan_id":"free"},{"bike_id":"ea3d35f6-b07e-4308-ae51-5376e9d8e7cc","system_id":"levelo_inurba_marseille","lat":43.273497,"lon":5.364557,"is_reserved":false,"is_disabled":false,"rental_uris":{"android":"levelo://app?vid=ea3d35f6-b07e-4308-ae51-5376e9d8e7cc","ios":"levelo://app?vid=ea3d35f6-b07e-4308-ae51-5376e9d8e7cc"},"vehicle_type_id":"4","last_reported":1702764369,"current_range_meters":14800,"station_id":"","pricing_plan_id":"free"},{"bike_id":"12fe1f05-318a-4237-b44e-c7521e9a0831","system_id":"levelo_inurba_marseille","lat":43.279975,"lon":5.40009,"is_reserved":false,"is_disabled":false,"rental_uris":{"android":"levelo://app?vid=12fe1f05-318a-4237-b44e-c7521e9a0831","ios":"levelo://app?vid=12fe1f05-318a-4237-b44e-c7521e9a0831"},"vehicle_type_id":"4","last_reported":1702764369,"current_range_meters":28000,"station_id":"ce4bho92rcd13ifvqh4g","pricing_plan_id":"free"},{"bike_id":"3ec3e63d-39be-4068-b7bc-6b5f633836ba","system_id":"levelo_inurba_marseille","lat":43.310785,"lon":5.424305,"is_reserved":false,"is_disabled":false,"rental_uris":{"android":"levelo://app?vid=3ec3e63d-39be-4068-b7bc-6b5f633836ba","ios":"levelo://app?vid=3ec3e63d-39be-4068-b7bc-6b5f633836ba"},"vehicle_type_id":"4","last_reported":1702764369,"current_range_meters":24400,"station_id":"ce4bhp92rcd13ifvqhag","pricing_plan_id":"free"},{"bike_id":"87cc8c4f-8ecf-420c-bac2-ed05f14f8c04","system_id":"levelo_inurba_marseille","lat":43.2761,"lon":5.39493,"is_reserved":false,"is_disabled":false,"rental_uris":{"android":"levelo://app?vid=87cc8c4f-8ecf-420c-bac2-ed05f14f8c04","ios":"levelo://app?vid=87cc8c4f-8ecf-420c-bac2-ed05f14f8c04"},"vehicle_type_id":"4","last_reported":1702764369,"current_range_meters":14400,"station_id":"","pricing_plan_id":"free"},{"bike_id":"43844db9-0392-4da0-9a6e-40bbf1d336e6","system_id":"levelo_inurba_marseille","lat":43.340804,"lon":5.410219,"is_reserved":false,"is_disabled":false,"rental_uris":{"android":"levelo://app?vid=43844db9-0392-4da0-9a6e-40bbf1d336e6","ios":"levelo://app?vid=43844db9-0392-4da0-9a6e-40bbf1d336e6"},"vehicle_type_id":"4","last_reported":1702764369,"current_range_meters":28400,"station_id":"ce4bhqh2rcd13ifvqhlg","pricing_plan_id":"free"},{"bike_id":"3ca2c2d2-99b0-4aa6-a05d-e30f02e6a7fb","system_id":"levelo_inurba_marseille","lat":43.276092,"lon":5.395289,"is_reserved":false,"is_disabled":false,"rental_uris":{"android":"levelo://app?vid=3ca2c2d2-99b0-4aa6-a05d-e30f02e6a7fb","ios":"levelo://app?vid=3ca2c2d2-99b0-4aa6-a05d-e30f02e6a7fb"},"vehicle_type_id":"4","last_reported":1702764369,"current_range_meters":21200,"station_id":"","pricing_plan_id":"free"},{"bike_id":"6da64086-a15b-433f-8697-130099719fa3","system_id":"levelo_inurba_marseille","lat":43.274099,"lon":5.394019,"is_reserved":false,"is_disabled":false,"rental_uris":{"android":"levelo://app?vid=6da64086-a15b-433f-8697-130099719fa3","ios":"levelo://app?vid=6da64086-a15b-433f-8697-130099719fa3"},"vehicle_type_id":"4","last_reported":1702764369,"current_range_meters":26400,"station_id":"ce4bhdp2rcd13ifvqf20","pricing_plan_id":"free"},{"bike_id":"e89e163e-7897-48dc-afa7-923b2c55a418","system_id":"levelo_inurba_marseille","lat":43.273125,"lon":5.390731,"is_reserved":false,"is_disabled":false,"rental_uris":{"android":"levelo://app?vid=e89e163e-7897-48dc-afa7-923b2c55a418","ios":"levelo://app?vid=e89e163e-7897-48dc-afa7-923b2c55a418"},"vehicle_type_id":"4","last_reported":1702764369,"current_range_meters":24000,"station_id":"ce4bhgp2rcd13ifvqfe0","pricing_plan_id":"free"},{"bike_id":"7b73e415-1c27-4932-8f73-00f791dd62f8","system_id":"levelo_inurba_marseille","lat":43.295511,"lon":5.422926,"is_reserved":false,"is_disabled":false,"rental_uris":{"android":"levelo://app?vid=7b73e415-1c27-4932-8f73-00f791dd62f8","ios":"levelo://app?vid=7b73e415-1c27-4932-8f73-00f791dd62f8"},"vehicle_type_id":"4","last_reported":1702764369,"current_range_meters":21600,"station_id":"ce4bhph2rcd13ifvqhdg","pricing_plan_id":"free"},{"bike_id":"7c5e5a9a-9f39-4a14-9573-d5b8ab599dd5","system_id":"levelo_inurba_marseille","lat":43.27188,"lon":5.39224,"is_reserved":false,"is_disabled":false,"rental_uris":{"android":"levelo://app?vid=7c5e5a9a-9f39-4a14-9573-d5b8ab599dd5","ios":"levelo://app?vid=7c5e5a9a-9f39-4a14-9573-d5b8ab599dd5"},"vehicle_type_id":"4","last_reported":1702764369,"current_range_meters":20400,"station_id":"ce4bhhp2rcd13ifvqfm0","pricing_plan_id":"free"},{"bike_id":"ae5c92c7-d961-4538-b923-190ac473bbcd","system_id":"levelo_inurba_marseille","lat":43.278128,"lon":5.407195,"is_reserved":false,"is_disabled":false,"rental_uris":{"android":"levelo://app?vid=ae5c92c7-d961-4538-b923-190ac473bbcd","ios":"levelo://app?vid=ae5c92c7-d961-4538-b923-190ac473bbcd"},"vehicle_type_id":"4","last_reported":1702764369,"current_range_meters":27200,"station_id":"ce4bhnh2rcd13ifvqgtg","pricing_plan_id":"free"},{"bike_id":"5e7ce94f-0099-4167-b73e-2f153ffe51e3","system_id":"levelo_inurba_marseille","lat":43.278128,"lon":5.407195,"is_reserved":false,"is_disabled":false,"rental_uris":{"android":"levelo://app?vid=5e7ce94f-0099-4167-b73e-2f153ffe51e3","ios":"levelo://app?vid=5e7ce94f-0099-4167-b73e-2f153ffe51e3"},"vehicle_type_id":"4","last_reported":1702764369,"current_range_meters":16000,"station_id":"ce4bhnh2rcd13ifvqgtg","pricing_plan_id":"free"},{"bike_id":"a4d2fd84-39d7-4c5b-81bf-81749c0c40a6","system_id":"levelo_inurba_marseille","lat":43.269319,"lon":5.389397,"is_reserved":false,"is_disabled":false,"rental_uris":{"android":"levelo://app?vid=a4d2fd84-39d7-4c5b-81bf-81749c0c40a6","ios":"levelo://app?vid=a4d2fd84-39d7-4c5b-81bf-81749c0c40a6"},"vehicle_type_id":"4","last_reported":1702764369,"current_range_meters":0,"station_id":"ce4bhhh2rcd13ifvqfl0","pricing_plan_id":"free"},{"bike_id":"db774753-4382-453e-a138-c32d538f9839","system_id":"levelo_inurba_marseille","lat":43.358672,"lon":5.356739,"is_reserved":false,"is_disabled":false,"rental_uris":{"android":"levelo://app?vid=db774753-4382-453e-a138-c32d538f9839","ios":"levelo://app?vid=db774753-4382-453e-a138-c32d538f9839"},"vehicle_type_id":"4","last_reported":1702764369,"current_range_meters":11600,"station_id":"","pricing_plan_id":"free"},{"bike_id":"3ec397f0-b8da-4e84-be43-f4abb20ebecf","system_id":"levelo_inurba_marseille","lat":43.27996,"lon":5.416624,"is_reserved":false,"is_disabled":false,"rental_uris":{"android":"levelo://app?vid=3ec397f0-b8da-4e84-be43-f4abb20ebecf","ios":"levelo://app?vid=3ec397f0-b8da-4e84-be43-f4abb20ebecf"},"vehicle_type_id":"4","last_reported":1702764369,"current_range_meters":24800,"station_id":"ce4bho12rcd13ifvqh1g","pricing_plan_id":"free"},{"bike_id":"8a74afc9-c8ee-428c-95f4-83fc1e519239","system_id":"levelo_inurba_marseille","lat":43.27995,"lon":5.41677,"is_reserved":false,"is_disabled":false,"rental_uris":{"android":"levelo://app?vid=8a74afc9-c8ee-428c-95f4-83fc1e519239","ios":"levelo://app?vid=8a74afc9-c8ee-428c-95f4-83fc1e519239"},"vehicle_type_id":"4","last_reported":1702764369,"current_range_meters":1600,"station_id":"ce4bho12rcd13ifvqh1g","pricing_plan_id":"free"},{"bike_id":"107af397-48b9-46cb-a2a9-9e18bf78bd38","system_id":"levelo_inurba_marseille","lat":43.265569,"lon":5.390047,"is_reserved":false,"is_disabled":false,"rental_uris":{"android":"levelo://app?vid=107af397-48b9-46cb-a2a9-9e18bf78bd38","ios":"levelo://app?vid=107af397-48b9-46cb-a2a9-9e18bf78bd38"},"vehicle_type_id":"4","last_reported":1702764369,"current_range_meters":8800,"station_id":"ce4bhe12rcd13ifvqf30","pricing_plan_id":"free"},{"bike_id":"9b148fe7-0ffd-4931-8c29-6e6064af2347","system_id":"levelo_inurba_marseille","lat":43.31711,"lon":5.43704,"is_reserved":false,"is_disabled":false,"rental_uris":{"android":"levelo://app?vid=9b148fe7-0ffd-4931-8c29-6e6064af2347","ios":"levelo://app?vid=9b148fe7-0ffd-4931-8c29-6e6064af2347"},"vehicle_type_id":"4","last_reported":1702764369,"current_range_meters":17600,"station_id":"ce4bhp92rcd13ifvqhcg","pricing_plan_id":"free"},{"bike_id":"c27e8bc7-a473-405a-a3d3-a0541df5b8e8","system_id":"levelo_inurba_marseille","lat":43.26183,"lon":5.37445,"is_reserved":false,"is_disabled":false,"rental_uris":{"android":"levelo://app?vid=c27e8bc7-a473-405a-a3d3-a0541df5b8e8","ios":"levelo://app?vid=c27e8bc7-a473-405a-a3d3-a0541df5b8e8"},"vehicle_type_id":"4","last_reported":1702764369,"current_range_meters":0,"station_id":"ce4bhgp2rcd13ifvqfc0","pricing_plan_id":"free"},{"bike_id":"6bca7f14-330c-412a-9432-6438f3451c27","system_id":"levelo_inurba_marseille","lat":43.317104,"lon":5.436818,"is_reserved":false,"is_disabled":false,"rental_uris":{"android":"levelo://app?vid=6bca7f14-330c-412a-9432-6438f3451c27","ios":"levelo://app?vid=6bca7f14-330c-412a-9432-6438f3451c27"},"vehicle_type_id":"4","last_reported":1702764369,"current_range_meters":26400,"station_id":"ce4bhp92rcd13ifvqhcg","pricing_plan_id":"free"},{"bike_id":"cd508d17-ee53-4f00-89f2-1854417d27a3","system_id":"levelo_inurba_marseille","lat":43.317117,"lon":5.43707,"is_reserved":false,"is_disabled":false,"rental_uris":{"android":"levelo://app?vid=cd508d17-ee53-4f00-89f2-1854417d27a3","ios":"levelo://app?vid=cd508d17-ee53-4f00-89f2-1854417d27a3"},"vehicle_type_id":"4","last_reported":1702764369,"current_range_meters":0,"station_id":"ce4bhp92rcd13ifvqhcg","pricing_plan_id":"free"},{"bike_id":"e3b9938b-39a5-4cb2-b320-b7d79eecd272","system_id":"levelo_inurba_marseille","lat":43.27172,"lon":5.40989,"is_reserved":false,"is_disabled":false,"rental_uris":{"android":"levelo://app?vid=e3b9938b-39a5-4cb2-b320-b7d79eecd272","ios":"levelo://app?vid=e3b9938b-39a5-4cb2-b320-b7d79eecd272"},"vehicle_type_id":"4","last_reported":1702764369,"current_range_meters":2400,"station_id":"ce4bhl12rcd13ifvqgf0","pricing_plan_id":"free"},{"bike_id":"760a757a-5fb8-4958-b892-d33306a07f6b","system_id":"levelo_inurba_marseille","lat":43.271388,"lon":5.409269,"is_reserved":false,"is_disabled":false,"rental_uris":{"android":"levelo://app?vid=760a757a-5fb8-4958-b892-d33306a07f6b","ios":"levelo://app?vid=760a757a-5fb8-4958-b892-d33306a07f6b"},"vehicle_type_id":"4","last_reported":1702764369,"current_range_meters":29600,"station_id":"ce4bhl12rcd13ifvqgf0","pricing_plan_id":"free"},{"bike_id":"fe1ec802-ae5b-406d-a6e5-80d478223c7d","system_id":"levelo_inurba_marseille","lat":43.27174,"lon":5.40994,"is_reserved":false,"is_disabled":false,"rental_uris":{"android":"levelo://app?vid=fe1ec802-ae5b-406d-a6e5-80d478223c7d","ios":"levelo://app?vid=fe1ec802-ae5b-406d-a6e5-80d478223c7d"},"vehicle_type_id":"4","last_reported":1702764369,"current_range_meters":18400,"station_id":"ce4bhl12rcd13ifvqgf0","pricing_plan_id":"free"},{"bike_id":"5473cf4b-61b9-412b-8421-c59bf8eb8dc3","system_id":"levelo_inurba_marseille","lat":43.26501,"lon":5.39533,"is_reserved":false,"is_disabled":false,"rental_uris":{"android":"levelo://app?vid=5473cf4b-61b9-412b-8421-c59bf8eb8dc3","ios":"levelo://app?vid=5473cf4b-61b9-412b-8421-c59bf8eb8dc3"},"vehicle_type_id":"4","last_reported":1702764369,"current_range_meters":4000,"station_id":"","pricing_plan_id":"free"},{"bike_id":"4c30ab0b-cc54-4ba6-ae72-a8fb812c2d2c","system_id":"levelo_inurba_marseille","lat":43.26501,"lon":5.39542,"is_reserved":false,"is_disabled":false,"rental_uris":{"android":"levelo://app?vid=4c30ab0b-cc54-4ba6-ae72-a8fb812c2d2c","ios":"levelo://app?vid=4c30ab0b-cc54-4ba6-ae72-a8fb812c2d2c"},"vehicle_type_id":"4","last_reported":1702764369,"current_range_meters":26800,"station_id":"","pricing_plan_id":"free"},{"bike_id":"a22b07a9-f167-4537-bf8e-a3d9e4ce6fc9","system_id":"levelo_inurba_marseille","lat":43.26498,"lon":5.39534,"is_reserved":false,"is_disabled":false,"rental_uris":{"android":"levelo://app?vid=a22b07a9-f167-4537-bf8e-a3d9e4ce6fc9","ios":"levelo://app?vid=a22b07a9-f167-4537-bf8e-a3d9e4ce6fc9"},"vehicle_type_id":"4","last_reported":1702764369,"current_range_meters":17200,"station_id":"","pricing_plan_id":"free"},{"bike_id":"8edd52e8-28cf-4b63-b3f1-27d9aaf14520","system_id":"levelo_inurba_marseille","lat":43.26492,"lon":5.3955,"is_reserved":false,"is_disabled":false,"rental_uris":{"android":"levelo://app?vid=8edd52e8-28cf-4b63-b3f1-27d9aaf14520","ios":"levelo://app?vid=8edd52e8-28cf-4b63-b3f1-27d9aaf14520"},"vehicle_type_id":"4","last_reported":1702764369,"current_range_meters":400,"station_id":"","pricing_plan_id":"free"},{"bike_id":"d084d587-4b27-4e47-8734-14f6d302ab83","system_id":"levelo_inurba_marseille","lat":43.298768,"lon":5.43643,"is_reserved":false,"is_disabled":false,"rental_uris":{"android":"levelo://app?vid=d084d587-4b27-4e47-8734-14f6d302ab83","ios":"levelo://app?vid=d084d587-4b27-4e47-8734-14f6d302ab83"},"vehicle_type_id":"4","last_reported":1702764369,"current_range_meters":31200,"station_id":"ce4bhpp2rcd13ifvqhfg","pricing_plan_id":"free"},{"bike_id":"f016a9f7-7ed6-45c1-80d8-d2b47b70d17e","system_id":"levelo_inurba_marseille","lat":43.260219,"lon":5.37546,"is_reserved":false,"is_disabled":false,"rental_uris":{"android":"levelo://app?vid=f016a9f7-7ed6-45c1-80d8-d2b47b70d17e","ios":"levelo://app?vid=f016a9f7-7ed6-45c1-80d8-d2b47b70d17e"},"vehicle_type_id":"4","last_reported":1702764369,"current_range_meters":20400,"station_id":"ce4bhgh2rcd13ifvqfa0","pricing_plan_id":"free"},{"bike_id":"0fbb9982-628a-458e-8599-3a52f552df95","system_id":"levelo_inurba_marseille","lat":43.281548,"lon":5.42643,"is_reserved":false,"is_disabled":false,"rental_uris":{"android":"levelo://app?vid=0fbb9982-628a-458e-8599-3a52f552df95","ios":"levelo://app?vid=0fbb9982-628a-458e-8599-3a52f552df95"},"vehicle_type_id":"4","last_reported":1702764369,"current_range_meters":14400,"station_id":"ce4bhnh2rcd13ifvqgug","pricing_plan_id":"free"},{"bike_id":"71252ba5-5619-4f36-b490-0c5903f0700e","system_id":"levelo_inurba_marseille","lat":43.281548,"lon":5.42643,"is_reserved":false,"is_disabled":false,"rental_uris":{"android":"levelo://app?vid=71252ba5-5619-4f36-b490-0c5903f0700e","ios":"levelo://app?vid=71252ba5-5619-4f36-b490-0c5903f0700e"},"vehicle_type_id":"4","last_reported":1702764369,"current_range_meters":5600,"station_id":"ce4bhnh2rcd13ifvqgug","pricing_plan_id":"free"},{"bike_id":"d179c498-6590-4265-ba74-db4d632b80df","system_id":"levelo_inurba_marseille","lat":43.281548,"lon":5.42643,"is_reserved":false,"is_disabled":false,"rental_uris":{"android":"levelo://app?vid=d179c498-6590-4265-ba74-db4d632b80df","ios":"levelo://app?vid=d179c498-6590-4265-ba74-db4d632b80df"},"vehicle_type_id":"4","last_reported":1702764369,"current_range_meters":28800,"station_id":"ce4bhnh2rcd13ifvqgug","pricing_plan_id":"free"},{"bike_id":"4dd764f6-774c-4512-8b0e-1beb34d8f863","system_id":"levelo_inurba_marseille","lat":43.281548,"lon":5.42643,"is_reserved":false,"is_disabled":false,"rental_uris":{"android":"levelo://app?vid=4dd764f6-774c-4512-8b0e-1beb34d8f863","ios":"levelo://app?vid=4dd764f6-774c-4512-8b0e-1beb34d8f863"},"vehicle_type_id":"4","last_reported":1702764369,"current_range_meters":22400,"station_id":"ce4bhnh2rcd13ifvqgug","pricing_plan_id":"free"},{"bike_id":"8c54f0f2-73b9-4cbd-910b-70ffbd7a913d","system_id":"levelo_inurba_marseille","lat":43.2607,"lon":5.393983,"is_reserved":false,"is_disabled":false,"rental_uris":{"android":"levelo://app?vid=8c54f0f2-73b9-4cbd-910b-70ffbd7a913d","ios":"levelo://app?vid=8c54f0f2-73b9-4cbd-910b-70ffbd7a913d"},"vehicle_type_id":"4","last_reported":1702764369,"current_range_meters":23600,"station_id":"ce4bhh92rcd13ifvqfj0","pricing_plan_id":"free"},{"bike_id":"eb72cf00-5b74-4aac-948c-e470339f3e4d","system_id":"levelo_inurba_marseille","lat":43.2607,"lon":5.393983,"is_reserved":false,"is_disabled":false,"rental_uris":{"android":"levelo://app?vid=eb72cf00-5b74-4aac-948c-e470339f3e4d","ios":"levelo://app?vid=eb72cf00-5b74-4aac-948c-e470339f3e4d"},"vehicle_type_id":"4","last_reported":1702764369,"current_range_meters":15600,"station_id":"ce4bhh92rcd13ifvqfj0","pricing_plan_id":"free"},{"bike_id":"db9d9aee-b6eb-44e3-9707-f193d311c7b0","system_id":"levelo_inurba_marseille","lat":43.2607,"lon":5.393983,"is_reserved":false,"is_disabled":false,"rental_uris":{"android":"levelo://app?vid=db9d9aee-b6eb-44e3-9707-f193d311c7b0","ios":"levelo://app?vid=db9d9aee-b6eb-44e3-9707-f193d311c7b0"},"vehicle_type_id":"4","last_reported":1702764369,"current_range_meters":26400,"station_id":"ce4bhh92rcd13ifvqfj0","pricing_plan_id":"free"},{"bike_id":"e67adb0b-4217-4b03-8657-2f9486792d7e","system_id":"levelo_inurba_marseille","lat":43.2607,"lon":5.393983,"is_reserved":false,"is_disabled":false,"rental_uris":{"android":"levelo://app?vid=e67adb0b-4217-4b03-8657-2f9486792d7e","ios":"levelo://app?vid=e67adb0b-4217-4b03-8657-2f9486792d7e"},"vehicle_type_id":"4","last_reported":1702764369,"current_range_meters":31200,"station_id":"ce4bhh92rcd13ifvqfj0","pricing_plan_id":"free"},{"bike_id":"f78f67e2-6aa6-4c01-96eb-db6a2853a695","system_id":"levelo_inurba_marseille","lat":43.2607,"lon":5.393983,"is_reserved":false,"is_disabled":false,"rental_uris":{"android":"levelo://app?vid=f78f67e2-6aa6-4c01-96eb-db6a2853a695","ios":"levelo://app?vid=f78f67e2-6aa6-4c01-96eb-db6a2853a695"},"vehicle_type_id":"4","last_reported":1702764369,"current_range_meters":26000,"station_id":"ce4bhh92rcd13ifvqfj0","pricing_plan_id":"free"},{"bike_id":"b6836b5c-bf87-43d1-afcb-477e491235ab","system_id":"levelo_inurba_marseille","lat":43.26088,"lon":5.39758,"is_reserved":false,"is_disabled":false,"rental_uris":{"android":"levelo://app?vid=b6836b5c-bf87-43d1-afcb-477e491235ab","ios":"levelo://app?vid=b6836b5c-bf87-43d1-afcb-477e491235ab"},"vehicle_type_id":"4","last_reported":1702764369,"current_range_meters":4000,"station_id":"","pricing_plan_id":"free"},{"bike_id":"cb4aa066-0acd-450f-a854-69855bd4d7ee","system_id":"levelo_inurba_marseille","lat":43.25829,"lon":5.3943,"is_reserved":false,"is_disabled":false,"rental_uris":{"android":"levelo://app?vid=cb4aa066-0acd-450f-a854-69855bd4d7ee","ios":"levelo://app?vid=cb4aa066-0acd-450f-a854-69855bd4d7ee"},"vehicle_type_id":"4","last_reported":1702764369,"current_range_meters":28400,"station_id":"ce4bhip2rcd13ifvqft0","pricing_plan_id":"free"},{"bike_id":"306e2c26-1ee8-4490-a80b-640eb04b74f0","system_id":"levelo_inurba_marseille","lat":43.270721,"lon":5.422764,"is_reserved":false,"is_disabled":false,"rental_uris":{"android":"levelo://app?vid=306e2c26-1ee8-4490-a80b-640eb04b74f0","ios":"levelo://app?vid=306e2c26-1ee8-4490-a80b-640eb04b74f0"},"vehicle_type_id":"4","last_reported":1702764369,"current_range_meters":27600,"station_id":"ce4bhk92rcd13ifvqgb0","pricing_plan_id":"free"},{"bike_id":"6fc3d5d7-3723-4545-9a67-90b10a88454c","system_id":"levelo_inurba_marseille","lat":43.258658,"lon":5.398935,"is_reserved":false,"is_disabled":false,"rental_uris":{"android":"levelo://app?vid=6fc3d5d7-3723-4545-9a67-90b10a88454c","ios":"levelo://app?vid=6fc3d5d7-3723-4545-9a67-90b10a88454c"},"vehicle_type_id":"4","last_reported":1702764369,"current_range_meters":20400,"station_id":"ce4bhl92rcd13ifvqghg","pricing_plan_id":"free"},{"bike_id":"ec80f2ee-d212-4255-95b5-c8ee4797f8bd","system_id":"levelo_inurba_marseille","lat":43.257079,"lon":5.411051,"is_reserved":false,"is_disabled":false,"rental_uris":{"android":"levelo://app?vid=ec80f2ee-d212-4255-95b5-c8ee4797f8bd","ios":"levelo://app?vid=ec80f2ee-d212-4255-95b5-c8ee4797f8bd"},"vehicle_type_id":"4","last_reported":1702764369,"current_range_meters":1200,"station_id":"ce4bhkp2rcd13ifvqgd0","pricing_plan_id":"free"},{"bike_id":"9d894f5d-b2c4-48c0-a759-6ebef56aa7f9","system_id":"levelo_inurba_marseille","lat":43.257079,"lon":5.411051,"is_reserved":false,"is_disabled":false,"rental_uris":{"android":"levelo://app?vid=9d894f5d-b2c4-48c0-a759-6ebef56aa7f9","ios":"levelo://app?vid=9d894f5d-b2c4-48c0-a759-6ebef56aa7f9"},"vehicle_type_id":"4","last_reported":1702764369,"current_range_meters":27600,"station_id":"ce4bhkp2rcd13ifvqgd0","pricing_plan_id":"free"},{"bike_id":"cda151f2-9ad2-46c9-9115-b73ba9a06619","system_id":"levelo_inurba_marseille","lat":43.25221,"lon":5.406403,"is_reserved":false,"is_disabled":false,"rental_uris":{"android":"levelo://app?vid=cda151f2-9ad2-46c9-9115-b73ba9a06619","ios":"levelo://app?vid=cda151f2-9ad2-46c9-9115-b73ba9a06619"},"vehicle_type_id":"4","last_reported":1702764369,"current_range_meters":2400,"station_id":"","pricing_plan_id":"free"},{"bike_id":"cd084bd6-2dac-4c50-bbec-04ff5b15feb8","system_id":"levelo_inurba_marseille","lat":43.25102,"lon":5.403214,"is_reserved":false,"is_disabled":false,"rental_uris":{"android":"levelo://app?vid=cd084bd6-2dac-4c50-bbec-04ff5b15feb8","ios":"levelo://app?vid=cd084bd6-2dac-4c50-bbec-04ff5b15feb8"},"vehicle_type_id":"4","last_reported":1702764369,"current_range_meters":0,"station_id":"ce4bhlh2rcd13ifvqgig","pricing_plan_id":"free"},{"bike_id":"ce8603f2-613d-4a49-b48e-937ea74704c0","system_id":"levelo_inurba_marseille","lat":43.2511,"lon":5.40321,"is_reserved":false,"is_disabled":false,"rental_uris":{"android":"levelo://app?vid=ce8603f2-613d-4a49-b48e-937ea74704c0","ios":"levelo://app?vid=ce8603f2-613d-4a49-b48e-937ea74704c0"},"vehicle_type_id":"4","last_reported":1702764369,"current_range_meters":800,"station_id":"ce4bhlh2rcd13ifvqgig","pricing_plan_id":"free"},{"bike_id":"3626885e-e4a8-4b95-b95d-d8c15eee3c9b","system_id":"levelo_inurba_marseille","lat":43.2511,"lon":5.40323,"is_reserved":false,"is_disabled":false,"rental_uris":{"android":"levelo://app?vid=3626885e-e4a8-4b95-b95d-d8c15eee3c9b","ios":"levelo://app?vid=3626885e-e4a8-4b95-b95d-d8c15eee3c9b"},"vehicle_type_id":"4","last_reported":1702764369,"current_range_meters":4800,"station_id":"ce4bhlh2rcd13ifvqgig","pricing_plan_id":"free"},{"bike_id":"b5e16490-8faf-46c4-a2a9-78fed514e220","system_id":"levelo_inurba_marseille","lat":43.246461,"lon":5.389014,"is_reserved":false,"is_disabled":false,"rental_uris":{"android":"levelo://app?vid=b5e16490-8faf-46c4-a2a9-78fed514e220","ios":"levelo://app?vid=b5e16490-8faf-46c4-a2a9-78fed514e220"},"vehicle_type_id":"4","last_reported":1702764369,"current_range_meters":16800,"station_id":"ce4bhg12rcd13ifvqf60","pricing_plan_id":"free"},{"bike_id":"2913b0e3-c44c-49f1-ba84-d9d46d3f68b0","system_id":"levelo_inurba_marseille","lat":43.2487,"lon":5.41002,"is_reserved":false,"is_disabled":false,"rental_uris":{"android":"levelo://app?vid=2913b0e3-c44c-49f1-ba84-d9d46d3f68b0","ios":"levelo://app?vid=2913b0e3-c44c-49f1-ba84-d9d46d3f68b0"},"vehicle_type_id":"4","last_reported":1702764369,"current_range_meters":17600,"station_id":"","pricing_plan_id":"free"},{"bike_id":"ee83fd25-65b9-414e-935b-7e3d2531a0b9","system_id":"levelo_inurba_marseille","lat":43.241317,"lon":5.370299,"is_reserved":false,"is_disabled":false,"rental_uris":{"android":"levelo://app?vid=ee83fd25-65b9-414e-935b-7e3d2531a0b9","ios":"levelo://app?vid=ee83fd25-65b9-414e-935b-7e3d2531a0b9"},"vehicle_type_id":"4","last_reported":1702764369,"current_range_meters":0,"station_id":"","pricing_plan_id":"free"},{"bike_id":"e419126f-c388-4a30-9aef-a3cfa5c187e9","system_id":"levelo_inurba_marseille","lat":43.240623,"lon":5.377642,"is_reserved":false,"is_disabled":false,"rental_uris":{"android":"levelo://app?vid=e419126f-c388-4a30-9aef-a3cfa5c187e9","ios":"levelo://app?vid=e419126f-c388-4a30-9aef-a3cfa5c187e9"},"vehicle_type_id":"4","last_reported":1702764369,"current_range_meters":0,"station_id":"ce4bhnp2rcd13ifvqgvg","pricing_plan_id":"free"},{"bike_id":"029226df-8c2f-438f-bd0c-fc27f7dce01f","system_id":"levelo_inurba_marseille","lat":43.239588,"lon":5.366238,"is_reserved":false,"is_disabled":false,"rental_uris":{"android":"levelo://app?vid=029226df-8c2f-438f-bd0c-fc27f7dce01f","ios":"levelo://app?vid=029226df-8c2f-438f-bd0c-fc27f7dce01f"},"vehicle_type_id":"4","last_reported":1702764369,"current_range_meters":22000,"station_id":"ce4bhi12rcd13ifvqfp0","pricing_plan_id":"free"},{"bike_id":"a6a98461-af22-42c3-9e53-97e18f430798","system_id":"levelo_inurba_marseille","lat":43.239588,"lon":5.366238,"is_reserved":false,"is_disabled":false,"rental_uris":{"android":"levelo://app?vid=a6a98461-af22-42c3-9e53-97e18f430798","ios":"levelo://app?vid=a6a98461-af22-42c3-9e53-97e18f430798"},"vehicle_type_id":"4","last_reported":1702764369,"current_range_meters":0,"station_id":"ce4bhi12rcd13ifvqfp0","pricing_plan_id":"free"},{"bike_id":"50cb0f51-8f1a-4445-825a-05a718cb00c6","system_id":"levelo_inurba_marseille","lat":43.241782,"lon":5.397261,"is_reserved":false,"is_disabled":false,"rental_uris":{"android":"levelo://app?vid=50cb0f51-8f1a-4445-825a-05a718cb00c6","ios":"levelo://app?vid=50cb0f51-8f1a-4445-825a-05a718cb00c6"},"vehicle_type_id":"4","last_reported":1702764369,"current_range_meters":0,"station_id":"ce4bhn12rcd13ifvqgpg","pricing_plan_id":"free"},{"bike_id":"388eb7b3-138a-44dd-93b7-354a4525c75f","system_id":"levelo_inurba_marseille","lat":43.241782,"lon":5.397261,"is_reserved":false,"is_disabled":false,"rental_uris":{"android":"levelo://app?vid=388eb7b3-138a-44dd-93b7-354a4525c75f","ios":"levelo://app?vid=388eb7b3-138a-44dd-93b7-354a4525c75f"},"vehicle_type_id":"4","last_reported":1702764369,"current_range_meters":0,"station_id":"ce4bhn12rcd13ifvqgpg","pricing_plan_id":"free"},{"bike_id":"f5cfb89a-ce48-405c-82ee-5a941b48c540","system_id":"levelo_inurba_marseille","lat":43.23196,"lon":5.3555,"is_reserved":false,"is_disabled":false,"rental_uris":{"android":"levelo://app?vid=f5cfb89a-ce48-405c-82ee-5a941b48c540","ios":"levelo://app?vid=f5cfb89a-ce48-405c-82ee-5a941b48c540"},"vehicle_type_id":"4","last_reported":1702764369,"current_range_meters":21200,"station_id":"ce4bhu92rcd13ifvqi70","pricing_plan_id":"free"},{"bike_id":"760219ab-0887-48ce-b49e-5a40cc3afc6e","system_id":"levelo_inurba_marseille","lat":43.23196,"lon":5.35547,"is_reserved":false,"is_disabled":false,"rental_uris":{"android":"levelo://app?vid=760219ab-0887-48ce-b49e-5a40cc3afc6e","ios":"levelo://app?vid=760219ab-0887-48ce-b49e-5a40cc3afc6e"},"vehicle_type_id":"4","last_reported":1702764369,"current_range_meters":20800,"station_id":"ce4bhu92rcd13ifvqi70","pricing_plan_id":"free"},{"bike_id":"d3de5ca6-d559-43d0-8ed6-c46c756ed81c","system_id":"levelo_inurba_marseille","lat":43.23196,"lon":5.35544,"is_reserved":false,"is_disabled":false,"rental_uris":{"android":"levelo://app?vid=d3de5ca6-d559-43d0-8ed6-c46c756ed81c","ios":"levelo://app?vid=d3de5ca6-d559-43d0-8ed6-c46c756ed81c"},"vehicle_type_id":"4","last_reported":1702764369,"current_range_meters":1200,"station_id":"ce4bhu92rcd13ifvqi70","pricing_plan_id":"free"},{"bike_id":"90458881-97e2-4d19-a7dd-597c18dc1844","system_id":"levelo_inurba_marseille","lat":43.231939,"lon":5.35554,"is_reserved":false,"is_disabled":false,"rental_uris":{"android":"levelo://app?vid=90458881-97e2-4d19-a7dd-597c18dc1844","ios":"levelo://app?vid=90458881-97e2-4d19-a7dd-597c18dc1844"},"vehicle_type_id":"4","last_reported":1702764369,"current_range_meters":21200,"station_id":"ce4bhu92rcd13ifvqi70","pricing_plan_id":"free"},{"bike_id":"0914bc04-89c8-46f4-bf04-78aea5230869","system_id":"levelo_inurba_marseille","lat":43.23194,"lon":5.35549,"is_reserved":false,"is_disabled":false,"rental_uris":{"android":"levelo://app?vid=0914bc04-89c8-46f4-bf04-78aea5230869","ios":"levelo://app?vid=0914bc04-89c8-46f4-bf04-78aea5230869"},"vehicle_type_id":"4","last_reported":1702764369,"current_range_meters":28800,"station_id":"ce4bhu92rcd13ifvqi70","pricing_plan_id":"free"},{"bike_id":"c58c2105-152a-4be3-96b7-ef7d8114d5d4","system_id":"levelo_inurba_marseille","lat":43.23192,"lon":5.35554,"is_reserved":false,"is_disabled":false,"rental_uris":{"android":"levelo://app?vid=c58c2105-152a-4be3-96b7-ef7d8114d5d4","ios":"levelo://app?vid=c58c2105-152a-4be3-96b7-ef7d8114d5d4"},"vehicle_type_id":"4","last_reported":1702764369,"current_range_meters":16400,"station_id":"ce4bhu92rcd13ifvqi70","pricing_plan_id":"free"},{"bike_id":"6407938b-389d-4533-9ecb-2228594d1ac0","system_id":"levelo_inurba_marseille","lat":43.231919,"lon":5.355532,"is_reserved":false,"is_disabled":false,"rental_uris":{"android":"levelo://app?vid=6407938b-389d-4533-9ecb-2228594d1ac0","ios":"levelo://app?vid=6407938b-389d-4533-9ecb-2228594d1ac0"},"vehicle_type_id":"4","last_reported":1702764369,"current_range_meters":17600,"station_id":"ce4bhu92rcd13ifvqi70","pricing_plan_id":"free"},{"bike_id":"9b13ea6e-561a-4716-a516-c5aead357a46","system_id":"levelo_inurba_marseille","lat":43.231919,"lon":5.355532,"is_reserved":false,"is_disabled":false,"rental_uris":{"android":"levelo://app?vid=9b13ea6e-561a-4716-a516-c5aead357a46","ios":"levelo://app?vid=9b13ea6e-561a-4716-a516-c5aead357a46"},"vehicle_type_id":"4","last_reported":1702764369,"current_range_meters":20000,"station_id":"ce4bhu92rcd13ifvqi70","pricing_plan_id":"free"},{"bike_id":"be641546-dcea-4309-ad5a-32c7507f146a","system_id":"levelo_inurba_marseille","lat":43.2319,"lon":5.35553,"is_reserved":false,"is_disabled":false,"rental_uris":{"android":"levelo://app?vid=be641546-dcea-4309-ad5a-32c7507f146a","ios":"levelo://app?vid=be641546-dcea-4309-ad5a-32c7507f146a"},"vehicle_type_id":"4","last_reported":1702764369,"current_range_meters":13200,"station_id":"ce4bhu92rcd13ifvqi70","pricing_plan_id":"free"},{"bike_id":"8bde1f20-3114-431c-b2df-22d6e7b7655a","system_id":"levelo_inurba_marseille","lat":43.2319,"lon":5.3555,"is_reserved":false,"is_disabled":false,"rental_uris":{"android":"levelo://app?vid=8bde1f20-3114-431c-b2df-22d6e7b7655a","ios":"levelo://app?vid=8bde1f20-3114-431c-b2df-22d6e7b7655a"},"vehicle_type_id":"4","last_reported":1702764369,"current_range_meters":8800,"station_id":"ce4bhu92rcd13ifvqi70","pricing_plan_id":"free"},{"bike_id":"c0509687-6622-44dd-a042-9b19ef27d0ea","system_id":"levelo_inurba_marseille","lat":43.231896,"lon":5.355499,"is_reserved":false,"is_disabled":false,"rental_uris":{"android":"levelo://app?vid=c0509687-6622-44dd-a042-9b19ef27d0ea","ios":"levelo://app?vid=c0509687-6622-44dd-a042-9b19ef27d0ea"},"vehicle_type_id":"4","last_reported":1702764369,"current_range_meters":30400,"station_id":"ce4bhu92rcd13ifvqi70","pricing_plan_id":"free"},{"bike_id":"e4f94050-aae1-4821-b78a-030e7070af2a","system_id":"levelo_inurba_marseille","lat":43.231873,"lon":5.355505,"is_reserved":false,"is_disabled":false,"rental_uris":{"android":"levelo://app?vid=e4f94050-aae1-4821-b78a-030e7070af2a","ios":"levelo://app?vid=e4f94050-aae1-4821-b78a-030e7070af2a"},"vehicle_type_id":"4","last_reported":1702764369,"current_range_meters":18800,"station_id":"ce4bhu92rcd13ifvqi70","pricing_plan_id":"free"},{"bike_id":"5e810328-aea2-4665-a664-4463719d9ace","system_id":"levelo_inurba_marseille","lat":43.231562,"lon":5.436933,"is_reserved":false,"is_disabled":false,"rental_uris":{"android":"levelo://app?vid=5e810328-aea2-4665-a664-4463719d9ace","ios":"levelo://app?vid=5e810328-aea2-4665-a664-4463719d9ace"},"vehicle_type_id":"4","last_reported":1702764369,"current_range_meters":17600,"station_id":"ce4bhmp2rcd13ifvqgog","pricing_plan_id":"free"}]}}