{"last_updated":1722355857,"ttl":30,"version":"2.2","data":{"bikes":[{"bike_id":"763c3ee1-fb98-48d1-99f1-d8fc8e79df3f","system_id":"levelo_inurba_marseille","lat":43.3124,"lon":5.36816,"is_reserved":false,"is_disabled":false,"rental_uris":{"android":"levelo://app?vid=763c3ee1-fb98-48d1-99f1-d8fc8e79df3f","ios":"levelo://app?vid=763c3ee1-fb98-48d1-99f1-d8fc8e79df3f"},"vehicle_type_id":"4","last_reported":1722355857,"current_range_meters":16800,"station_id":"ce4bgl92rcd13ifvqbq0","pricing_plan_id":"cebpf4jnsgd1na2vs0mg"},{"bike_id":"0c204385-009b-48a3-99b5-0e0e0d91b30f","system_id":"levelo_inurba_marseille","lat":43.31234,"lon":5.36819,"is_reserved":false,"is_disabled":false,"rental_uris":{"android":"levelo://app?vid=0c204385-009b-48a3-99b5-0e0e0d91b30f","ios":"levelo://app?vid=0c204385-009b-48a3-99b5-0e0e0d91b30f"},"vehicle_type_id":"4","last_reported":1722355857,"current_range_meters":6000,"station_id":"ce4bgl92rcd13ifvqbq0","pricing_plan_id":"cebpf4jnsgd1na2vs0mg"},{"bike_id":"def5710e-d266-4f5d-9f1f-fd3103fccbef","system_id":"levelo_inurba_marseille","lat":43.31243,"lon":5.36825,"is_reserved":false,"is_disabled":false,"rental_uris":{"android":"levelo://app?vid=def5710e-d266-4f5d-9f1f-fd3103fccbef","ios":"levelo://app?vid=def5710e-d266-4f5d-9f1f-fd3103fccbef"},"vehicle_type_id":"4","last_reported":1722355857,"current_range_meters":0,"station_id":"","pricing_plan_id":"cebpf4jnsgd1na2vs0mg"},{"bike_id":"18c3781f-dea1-44ca-9faf-0627857be6e3","system_id":"levelo_inurba_marseille","lat":43.309076,"lon":5.368465,"is_reserved":false,"is_disabled":false,"rental_uris":{"android":"levelo://app?vid=18c3781f-dea1-44ca-9faf-0627857be6e3","ios":"levelo://app?vid=18c3781f-dea1-44ca-9faf-0627857be6e3"},"vehicle_type_id":"4","last_reported":1722355857,"current_range_meters":0,"station_id":"ce4bgn92rcd13ifvqbvg","pricing_plan_id":"cebpf4jnsgd1na2vs0mg"},{"bike_id":"15200582-0855-4fb7-a778-d4d9f3f0a43a","system_id":"levelo_inurba_marseille","lat":43.31434,"lon":5.37328,"is_reserved":false,"is_disabled":false,"rental_uris":{"android":"levelo://app?vid=15200582-0855-4fb7-a778-d4d9f3f0a43a","ios":"levelo://app?vid=15200582-0855-4fb7-a778-d4d9f3f0a43a"},"vehicle_type_id":"4","last_reported":1722355857,"current_range_meters":800,"station_id":"","pricing_plan_id":"cebpf4jnsgd1na2vs0mg"},{"bike_id":"1dc499d6-97af-4e68-b6e7-7b2106b8b68d","system_id":"levelo_inurba_marseille","lat":43.31703,"lon":5.37397,"is_reserved":false,"is_disabled":false,"rental_uris":{"android":"levelo://app?vid=1dc499d6-97af-4e68-b6e7-7b2106b8b68d","ios":"levelo://app?vid=1dc499d6-97af-4e68-b6e7-7b2106b8b68d"},"vehicle_type_id":"4","last_reported":1722355857,"current_range_meters":0,"station_id":"","pricing_plan_id":"cebpf4jnsgd1na2vs0mg"},{"bike_id":"b8b92e85-ccb1-4298-84c8-fb7a6bb4c94b","system_id":"levelo_inurba_marseille","lat":43.305368,"lon":5.367343,"is_reserved":false,"is_disabled":false,"rental_uris":{"android":"levelo://app?vid=b8b92e85-ccb1-4298-84c8-fb7a6bb4c94b","ios":"levelo://app?vid=b8b92e85-ccb1-4298-84c8-fb7a6bb4c94b"},"vehicle_type_id":"4","last_reported":1722355857,"current_range_meters":9600,"station_id":"ce4bgrp2rcd13ifvqc9g","pricing_plan_id":"cebpf4jnsgd1na2vs0mg"},{"bike_id":"0d3de828-ae52-4136-8d7d-a5b9acc28634","system_id":"levelo_inurba_marseille","lat":43.305368,"lon":5.367343,"is_reserved":false,"is_disabled":false,"rental_uris":{"android":"levelo://app?vid=0d3de828-ae52-4136-8d7d-a5b9acc28634","ios":"levelo://app?vid=0d3de828-ae52-4136-8d7d-a5b9acc28634"},"vehicle_type_id":"4","last_reported":1722355857,"current_range_meters":18000,"station_id":"ce4bgrp2rcd13ifvqc9g","pricing_plan_id":"cebpf4jnsgd1na2vs0mg"},{"bike_id":"40e1c8c2-0fd7-40a8-8d00-fb5815126f30","system_id":"levelo_inurba_marseille","lat":43.317877,"lon":5.37458,"is_reserved":false,"is_disabled":false,"rental_uris":{"android":"levelo://app?vid=40e1c8c2-0fd7-40a8-8d00-fb5815126f30","ios":"levelo://app?vid=40e1c8c2-0fd7-40a8-8d00-fb5815126f30"},"vehicle_type_id":"4","last_reported":1722355857,"current_range_meters":30000,"station_id":"","pricing_plan_id":"cebpf4jnsgd1na2vs0mg"},{"bike_id":"338d49fa-49ab-4e97-a4d5-fff72294587c","system_id":"levelo_inurba_marseille","lat":43.311125,"lon":5.377624,"is_reserved":false,"is_disabled":false,"rental_uris":{"android":"levelo://app?vid=338d49fa-49ab-4e97-a4d5-fff72294587c","ios":"levelo://app?vid=338d49fa-49ab-4e97-a4d5-fff72294587c"},"vehicle_type_id":"4","last_reported":1722355857,"current_range_meters":0,"station_id":"ce4bgt92rcd13ifvqcg0","pricing_plan_id":"cebpf4jnsgd1na2vs0mg"},{"bike_id":"69528275-6c0f-464c-9102-665fcabb23d0","system_id":"levelo_inurba_marseille","lat":43.311125,"lon":5.377624,"is_reserved":false,"is_disabled":false,"rental_uris":{"android":"levelo://app?vid=69528275-6c0f-464c-9102-665fcabb23d0","ios":"levelo://app?vid=69528275-6c0f-464c-9102-665fcabb23d0"},"vehicle_type_id":"4","last_reported":1722355857,"current_range_meters":7200,"station_id":"ce4bgt92rcd13ifvqcg0","pricing_plan_id":"cebpf4jnsgd1na2vs0mg"},{"bike_id":"7dff5894-da93-4ae7-b483-e32c73b9f5c9","system_id":"levelo_inurba_marseille","lat":43.311125,"lon":5.377624,"is_reserved":false,"is_disabled":false,"rental_uris":{"android":"levelo://app?vid=7dff5894-da93-4ae7-b483-e32c73b9f5c9","ios":"levelo://app?vid=7dff5894-da93-4ae7-b483-e32c73b9f5c9"},"vehicle_type_id":"4","last_reported":1722355857,"current_range_meters":0,"station_id":"ce4bgt92rcd13ifvqcg0","pricing_plan_id":"cebpf4jnsgd1na2vs0mg"},{"bike_id":"b2454889-e44a-4710-b905-a010ed2531fc","system_id":"levelo_inurba_marseille","lat":43.307945,"lon":5.376487,"is_reserved":false,"is_disabled":false,"rental_uris":{"android":"levelo://app?vid=b2454889-e44a-4710-b905-a010ed2531fc","ios":"levelo://app?vid=b2454889-e44a-4710-b905-a010ed2531fc"},"vehicle_type_id":"4","last_reported":1722355857,"current_range_meters":0,"station_id":"ce4bgv92rcd13ifvqcq0","pricing_plan_id":"cebpf4jnsgd1na2vs0mg"},{"bike_id":"7369dd8c-926d-439b-a05e-77b5321a37a4","system_id":"levelo_inurba_marseille","lat":43.317075,"lon":5.377367,"is_reserved":false,"is_disabled":false,"rental_uris":{"android":"levelo://app?vid=7369dd8c-926d-439b-a05e-77b5321a37a4","ios":"levelo://app?vid=7369dd8c-926d-439b-a05e-77b5321a37a4"},"vehicle_type_id":"4","last_reported":1722355857,"current_range_meters":12000,"station_id":"ce4bgth2rcd13ifvqch0","pricing_plan_id":"cebpf4jnsgd1na2vs0mg"},{"bike_id":"93eb177f-35a7-4d93-9d3e-c63b3ef6dcce","system_id":"levelo_inurba_marseille","lat":43.31166,"lon":5.37984,"is_reserved":false,"is_disabled":false,"rental_uris":{"android":"levelo://app?vid=93eb177f-35a7-4d93-9d3e-c63b3ef6dcce","ios":"levelo://app?vid=93eb177f-35a7-4d93-9d3e-c63b3ef6dcce"},"vehicle_type_id":"4","last_reported":1722355857,"current_range_meters":12800,"station_id":"","pricing_plan_id":"cebpf4jnsgd1na2vs0mg"},{"bike_id":"73f58f22-0d99-4c84-8411-c4f8da74d999","system_id":"levelo_inurba_marseille","lat":43.302794,"lon":5.367534,"is_reserved":false,"is_disabled":false,"rental_uris":{"android":"levelo://app?vid=73f58f22-0d99-4c84-8411-c4f8da74d999","ios":"levelo://app?vid=73f58f22-0d99-4c84-8411-c4f8da74d999"},"vehicle_type_id":"4","last_reported":1722355857,"current_range_meters":0,"station_id":"","pricing_plan_id":"cebpf4jnsgd1na2vs0mg"},{"bike_id":"ceeb11bc-27e6-48e5-9569-1499c743d4a7","system_id":"levelo_inurba_marseille","lat":43.315289,"lon":5.380349,"is_reserved":false,"is_disabled":false,"rental_uris":{"android":"levelo://app?vid=ceeb11bc-27e6-48e5-9569-1499c743d4a7","ios":"levelo://app?vid=ceeb11bc-27e6-48e5-9569-1499c743d4a7"},"vehicle_type_id":"4","last_reported":1722355857,"current_range_meters":1600,"station_id":"ce4bhsp2rcd13ifvqi50","pricing_plan_id":"cebpf4jnsgd1na2vs0mg"},{"bike_id":"e2230309-7a84-46f5-9210-e46114ecbc49","system_id":"levelo_inurba_marseille","lat":43.30858,"lon":5.379553,"is_reserved":false,"is_disabled":false,"rental_uris":{"android":"levelo://app?vid=e2230309-7a84-46f5-9210-e46114ecbc49","ios":"levelo://app?vid=e2230309-7a84-46f5-9210-e46114ecbc49"},"vehicle_type_id":"4","last_reported":1722355857,"current_range_meters":14000,"station_id":"","pricing_plan_id":"cebpf4jnsgd1na2vs0mg"},{"bike_id":"99bd0741-5faa-4815-a2e1-13964c9aab5f","system_id":"levelo_inurba_marseille","lat":43.324771,"lon":5.36557,"is_reserved":false,"is_disabled":false,"rental_uris":{"android":"levelo://app?vid=99bd0741-5faa-4815-a2e1-13964c9aab5f","ios":"levelo://app?vid=99bd0741-5faa-4815-a2e1-13964c9aab5f"},"vehicle_type_id":"4","last_reported":1722355857,"current_range_meters":0,"station_id":"ce4bhs12rcd13ifvqhvg","pricing_plan_id":"cebpf4jnsgd1na2vs0mg"},{"bike_id":"3fe16c2b-6a15-4ba1-bf67-2f5d5abe5789","system_id":"levelo_inurba_marseille","lat":43.324771,"lon":5.36557,"is_reserved":false,"is_disabled":false,"rental_uris":{"android":"levelo://app?vid=3fe16c2b-6a15-4ba1-bf67-2f5d5abe5789","ios":"levelo://app?vid=3fe16c2b-6a15-4ba1-bf67-2f5d5abe5789"},"vehicle_type_id":"4","last_reported":1722355857,"current_range_meters":16000,"station_id":"ce4bhs12rcd13ifvqhvg","pricing_plan_id":"cebpf4jnsgd1na2vs0mg"},{"bike_id":"2cea40d3-5fd0-4d75-8dd2-15c4087239df","system_id":"levelo_inurba_marseille","lat":43.324771,"lon":5.36557,"is_reserved":false,"is_disabled":false,"rental_uris":{"android":"levelo://app?vid=2cea40d3-5fd0-4d75-8dd2-15c4087239df","ios":"levelo://app?vid=2cea40d3-5fd0-4d75-8dd2-15c4087239df"},"vehicle_type_id":"4","last_reported":1722355857,"current_range_meters":31200,"station_id":"ce4bhs12rcd13ifvqhvg","pricing_plan_id":"cebpf4jnsgd1na2vs0mg"},{"bike_id":"bbc4a081-5d44-4c70-aca6-ba0be4373e40","system_id":"levelo_inurba_marseille","lat":43.324771,"lon":5.36557,"is_reserved":false,"is_disabled":false,"rental_uris":{"android":"levelo://app?vid=bbc4a081-5d44-4c70-aca6-ba0be4373e40","ios":"levelo://app?vid=bbc4a081-5d44-4c70-aca6-ba0be4373e40"},"vehicle_type_id":"4","last_reported":1722355857,"current_range_meters":22800,"station_id":"ce4bhs12rcd13ifvqhvg","pricing_plan_id":"cebpf4jnsgd1na2vs0mg"},{"bike_id":"cf2295fe-e9a5-4fa3-992d-424feac9b7ac","system_id":"levelo_inurba_marseille","lat":43.324771,"lon":5.36557,"is_reserved":false,"is_disabled":false,"rental_uris":{"android":"levelo://app?vid=cf2295fe-e9a5-4fa3-992d-424feac9b7ac","ios":"levelo://app?vid=cf2295fe-e9a5-4fa3-992d-424feac9b7ac"},"vehicle_type_id":"4","last_reported":1722355857,"current_range_meters":2800,"station_id":"ce4bhs12rcd13ifvqhvg","pricing_plan_id":"cebpf4jnsgd1na2vs0mg"},{"bike_id":"68268780-9d4d-41ba-ba66-92f5b81043cc","system_id":"levelo_inurba_marseille","lat":43.324771,"lon":5.36557,"is_reserved":false,"is_disabled":false,"rental_uris":{"android":"levelo://app?vid=68268780-9d4d-41ba-ba66-92f5b81043cc","ios":"levelo://app?vid=68268780-9d4d-41ba-ba66-92f5b81043cc"},"vehicle_type_id":"4","last_reported":1722355857,"current_range_meters":7200,"station_id":"ce4bhs12rcd13ifvqhvg","pricing_plan_id":"cebpf4jnsgd1na2vs0mg"},{"bike_id":"28623cc2-8a00-4043-a805-e4e36c2ab80d","system_id":"levelo_inurba_marseille","lat":43.310804,"lon":5.38359,"is_reserved":false,"is_disabled":false,"rental_uris":{"android":"levelo://app?vid=28623cc2-8a00-4043-a805-e4e36c2ab80d","ios":"levelo://app?vid=28623cc2-8a00-4043-a805-e4e36c2ab80d"},"vehicle_type_id":"4","last_reported":1722355857,"current_range_meters":0,"station_id":"ce4bgv92rcd13ifvqcr0","pricing_plan_id":"cebpf4jnsgd1na2vs0mg"},{"bike_id":"09bb4070-54a2-4439-8ab9-de1edfe86601","system_id":"levelo_inurba_marseille","lat":43.302784,"lon":5.377158,"is_reserved":false,"is_disabled":false,"rental_uris":{"android":"levelo://app?vid=09bb4070-54a2-4439-8ab9-de1edfe86601","ios":"levelo://app?vid=09bb4070-54a2-4439-8ab9-de1edfe86601"},"vehicle_type_id":"4","last_reported":1722355857,"current_range_meters":28800,"station_id":"ce4bguh2rcd13ifvqcj0","pricing_plan_id":"cebpf4jnsgd1na2vs0mg"},{"bike_id":"de06929f-10b3-4ae1-922a-ee4eafa93be7","system_id":"levelo_inurba_marseille","lat":43.30143,"lon":5.37413,"is_reserved":false,"is_disabled":false,"rental_uris":{"android":"levelo://app?vid=de06929f-10b3-4ae1-922a-ee4eafa93be7","ios":"levelo://app?vid=de06929f-10b3-4ae1-922a-ee4eafa93be7"},"vehicle_type_id":"4","last_reported":1722355857,"current_range_meters":0,"station_id":"ce4bgs92rcd13ifvqcc0","pricing_plan_id":"cebpf4jnsgd1na2vs0mg"},{"bike_id":"4a086aa8-e1a7-4fb8-a743-89cb53585fd0","system_id":"levelo_inurba_marseille","lat":43.319935,"lon":5.381699,"is_reserved":false,"is_disabled":false,"rental_uris":{"android":"levelo://app?vid=4a086aa8-e1a7-4fb8-a743-89cb53585fd0","ios":"levelo://app?vid=4a086aa8-e1a7-4fb8-a743-89cb53585fd0"},"vehicle_type_id":"4","last_reported":1722355857,"current_range_meters":28400,"station_id":"ce4bhr12rcd13ifvqhpg","pricing_plan_id":"cebpf4jnsgd1na2vs0mg"},{"bike_id":"cb3332df-de13-44c5-bdd3-78569bc63669","system_id":"levelo_inurba_marseille","lat":43.299724,"lon":5.371829,"is_reserved":false,"is_disabled":false,"rental_uris":{"android":"levelo://app?vid=cb3332df-de13-44c5-bdd3-78569bc63669","ios":"levelo://app?vid=cb3332df-de13-44c5-bdd3-78569bc63669"},"vehicle_type_id":"4","last_reported":1722355857,"current_range_meters":26000,"station_id":"ce4bgr92rcd13ifvqc7g","pricing_plan_id":"cebpf4jnsgd1na2vs0mg"},{"bike_id":"2fbdf4ad-0ef0-49d2-883c-8f7ca36298cd","system_id":"levelo_inurba_marseille","lat":43.320291,"lon":5.383122,"is_reserved":false,"is_disabled":false,"rental_uris":{"android":"levelo://app?vid=2fbdf4ad-0ef0-49d2-883c-8f7ca36298cd","ios":"levelo://app?vid=2fbdf4ad-0ef0-49d2-883c-8f7ca36298cd"},"vehicle_type_id":"4","last_reported":1722355857,"current_range_meters":20800,"station_id":"","pricing_plan_id":"cebpf4jnsgd1na2vs0mg"},{"bike_id":"33d1343d-7882-47a5-93dd-a591fca7dd98","system_id":"levelo_inurba_marseille","lat":43.298433,"lon":5.362774,"is_reserved":false,"is_disabled":false,"rental_uris":{"android":"levelo://app?vid=33d1343d-7882-47a5-93dd-a591fca7dd98","ios":"levelo://app?vid=33d1343d-7882-47a5-93dd-a591fca7dd98"},"vehicle_type_id":"4","last_reported":1722355857,"current_range_meters":15600,"station_id":"ce4bgpp2rcd13ifvqc3g","pricing_plan_id":"cebpf4jnsgd1na2vs0mg"},{"bike_id":"9e18f030-7b6b-415f-966c-450e95ecb27f","system_id":"levelo_inurba_marseille","lat":43.305364,"lon":5.384119,"is_reserved":false,"is_disabled":false,"rental_uris":{"android":"levelo://app?vid=9e18f030-7b6b-415f-966c-450e95ecb27f","ios":"levelo://app?vid=9e18f030-7b6b-415f-966c-450e95ecb27f"},"vehicle_type_id":"4","last_reported":1722355857,"current_range_meters":19200,"station_id":"ce4bgg92rcd13ifvqb30","pricing_plan_id":"cebpf4jnsgd1na2vs0mg"},{"bike_id":"0b8532b3-7262-4308-8493-c9d29537636f","system_id":"levelo_inurba_marseille","lat":43.311722,"lon":5.387247,"is_reserved":false,"is_disabled":false,"rental_uris":{"android":"levelo://app?vid=0b8532b3-7262-4308-8493-c9d29537636f","ios":"levelo://app?vid=0b8532b3-7262-4308-8493-c9d29537636f"},"vehicle_type_id":"4","last_reported":1722355857,"current_range_meters":0,"station_id":"ce4bgv12rcd13ifvqcp0","pricing_plan_id":"cebpf4jnsgd1na2vs0mg"},{"bike_id":"5d012432-4644-4e41-acf4-4af1a7e3de4d","system_id":"levelo_inurba_marseille","lat":43.299243,"lon":5.37481,"is_reserved":false,"is_disabled":false,"rental_uris":{"android":"levelo://app?vid=5d012432-4644-4e41-acf4-4af1a7e3de4d","ios":"levelo://app?vid=5d012432-4644-4e41-acf4-4af1a7e3de4d"},"vehicle_type_id":"4","last_reported":1722355857,"current_range_meters":400,"station_id":"ce4bgjh2rcd13ifvqbg0","pricing_plan_id":"cebpf4jnsgd1na2vs0mg"},{"bike_id":"63182ea2-0198-4176-afc9-135ec478132d","system_id":"levelo_inurba_marseille","lat":43.311722,"lon":5.387247,"is_reserved":false,"is_disabled":false,"rental_uris":{"android":"levelo://app?vid=63182ea2-0198-4176-afc9-135ec478132d","ios":"levelo://app?vid=63182ea2-0198-4176-afc9-135ec478132d"},"vehicle_type_id":"4","last_reported":1722355857,"current_range_meters":4000,"station_id":"ce4bgv12rcd13ifvqcp0","pricing_plan_id":"cebpf4jnsgd1na2vs0mg"},{"bike_id":"e46f20be-4370-4310-b6ed-15c9cb6b7edc","system_id":"levelo_inurba_marseille","lat":43.30149,"lon":5.38072,"is_reserved":false,"is_disabled":false,"rental_uris":{"android":"levelo://app?vid=e46f20be-4370-4310-b6ed-15c9cb6b7edc","ios":"levelo://app?vid=e46f20be-4370-4310-b6ed-15c9cb6b7edc"},"vehicle_type_id":"4","last_reported":1722355857,"current_range_meters":0,"station_id":"","pricing_plan_id":"cebpf4jnsgd1na2vs0mg"},{"bike_id":"55522993-bd5f-404b-a23c-0f350b2850c5","system_id":"levelo_inurba_marseille","lat":43.30146,"lon":5.38083,"is_reserved":false,"is_disabled":false,"rental_uris":{"android":"levelo://app?vid=55522993-bd5f-404b-a23c-0f350b2850c5","ios":"levelo://app?vid=55522993-bd5f-404b-a23c-0f350b2850c5"},"vehicle_type_id":"4","last_reported":1722355857,"current_range_meters":30000,"station_id":"","pricing_plan_id":"cebpf4jnsgd1na2vs0mg"},{"bike_id":"d6943fe6-e2c5-4393-9a32-2b162452b951","system_id":"levelo_inurba_marseille","lat":43.322872,"lon":5.382756,"is_reserved":false,"is_disabled":false,"rental_uris":{"android":"levelo://app?vid=d6943fe6-e2c5-4393-9a32-2b162452b951","ios":"levelo://app?vid=d6943fe6-e2c5-4393-9a32-2b162452b951"},"vehicle_type_id":"4","last_reported":1722355857,"current_range_meters":22000,"station_id":"ce4bhr12rcd13ifvqhqg","pricing_plan_id":"cebpf4jnsgd1na2vs0mg"},{"bike_id":"031a0643-eeff-4749-b2b2-71d517d341cf","system_id":"levelo_inurba_marseille","lat":43.32392,"lon":5.38198,"is_reserved":false,"is_disabled":false,"rental_uris":{"android":"levelo://app?vid=031a0643-eeff-4749-b2b2-71d517d341cf","ios":"levelo://app?vid=031a0643-eeff-4749-b2b2-71d517d341cf"},"vehicle_type_id":"4","last_reported":1722355857,"current_range_meters":400,"station_id":"","pricing_plan_id":"cebpf4jnsgd1na2vs0mg"},{"bike_id":"9266143a-9546-4c26-9e06-b1ecc4abae8a","system_id":"levelo_inurba_marseille","lat":43.300265,"lon":5.382035,"is_reserved":false,"is_disabled":false,"rental_uris":{"android":"levelo://app?vid=9266143a-9546-4c26-9e06-b1ecc4abae8a","ios":"levelo://app?vid=9266143a-9546-4c26-9e06-b1ecc4abae8a"},"vehicle_type_id":"4","last_reported":1722355857,"current_range_meters":6000,"station_id":"","pricing_plan_id":"cebpf4jnsgd1na2vs0mg"},{"bike_id":"3a13e9ab-860d-4e29-b1fc-0044d3bf82f2","system_id":"levelo_inurba_marseille","lat":43.299028,"lon":5.381509,"is_reserved":false,"is_disabled":false,"rental_uris":{"android":"levelo://app?vid=3a13e9ab-860d-4e29-b1fc-0044d3bf82f2","ios":"levelo://app?vid=3a13e9ab-860d-4e29-b1fc-0044d3bf82f2"},"vehicle_type_id":"4","last_reported":1722355857,"current_range_meters":1200,"station_id":"ce4bgj12rcd13ifvqbc0","pricing_plan_id":"cebpf4jnsgd1na2vs0mg"},{"bike_id":"9ccfbf1d-c0cb-4bad-bdbb-93794e7a35f5","system_id":"levelo_inurba_marseille","lat":43.317557,"lon":5.390173,"is_reserved":false,"is_disabled":false,"rental_uris":{"android":"levelo://app?vid=9ccfbf1d-c0cb-4bad-bdbb-93794e7a35f5","ios":"levelo://app?vid=9ccfbf1d-c0cb-4bad-bdbb-93794e7a35f5"},"vehicle_type_id":"4","last_reported":1722355857,"current_range_meters":400,"station_id":"ce4bhqp2rcd13ifvqhng","pricing_plan_id":"cebpf4jnsgd1na2vs0mg"},{"bike_id":"96efe944-1f7d-4182-aed3-16c251a08573","system_id":"levelo_inurba_marseille","lat":43.295748,"lon":5.37522,"is_reserved":false,"is_disabled":false,"rental_uris":{"android":"levelo://app?vid=96efe944-1f7d-4182-aed3-16c251a08573","ios":"levelo://app?vid=96efe944-1f7d-4182-aed3-16c251a08573"},"vehicle_type_id":"4","last_reported":1722355857,"current_range_meters":0,"station_id":"ce4bgh92rcd13ifvqb50","pricing_plan_id":"cebpf4jnsgd1na2vs0mg"},{"bike_id":"f4f657f2-7a24-44e0-9d84-c455b1ab8cf3","system_id":"levelo_inurba_marseille","lat":43.30427,"lon":5.38881,"is_reserved":false,"is_disabled":false,"rental_uris":{"android":"levelo://app?vid=f4f657f2-7a24-44e0-9d84-c455b1ab8cf3","ios":"levelo://app?vid=f4f657f2-7a24-44e0-9d84-c455b1ab8cf3"},"vehicle_type_id":"4","last_reported":1722355857,"current_range_meters":0,"station_id":"ce4bgk12rcd13ifvqbi0","pricing_plan_id":"cebpf4jnsgd1na2vs0mg"},{"bike_id":"737b60b9-97d4-4ca4-88d3-9fc01e0661d3","system_id":"levelo_inurba_marseille","lat":43.295748,"lon":5.37522,"is_reserved":false,"is_disabled":false,"rental_uris":{"android":"levelo://app?vid=737b60b9-97d4-4ca4-88d3-9fc01e0661d3","ios":"levelo://app?vid=737b60b9-97d4-4ca4-88d3-9fc01e0661d3"},"vehicle_type_id":"4","last_reported":1722355857,"current_range_meters":0,"station_id":"ce4bgh92rcd13ifvqb50","pricing_plan_id":"cebpf4jnsgd1na2vs0mg"},{"bike_id":"c4557d26-f64d-45e6-9605-3e9b1415bba4","system_id":"levelo_inurba_marseille","lat":43.296263,"lon":5.377094,"is_reserved":false,"is_disabled":false,"rental_uris":{"android":"levelo://app?vid=c4557d26-f64d-45e6-9605-3e9b1415bba4","ios":"levelo://app?vid=c4557d26-f64d-45e6-9605-3e9b1415bba4"},"vehicle_type_id":"4","last_reported":1722355857,"current_range_meters":0,"station_id":"ce4bgi92rcd13ifvqb90","pricing_plan_id":"cebpf4jnsgd1na2vs0mg"},{"bike_id":"529b56e1-b1aa-474d-b79b-48170fae52da","system_id":"levelo_inurba_marseille","lat":43.299717,"lon":5.384845,"is_reserved":false,"is_disabled":false,"rental_uris":{"android":"levelo://app?vid=529b56e1-b1aa-474d-b79b-48170fae52da","ios":"levelo://app?vid=529b56e1-b1aa-474d-b79b-48170fae52da"},"vehicle_type_id":"4","last_reported":1722355857,"current_range_meters":0,"station_id":"ce4bgj92rcd13ifvqbd0","pricing_plan_id":"cebpf4jnsgd1na2vs0mg"},{"bike_id":"1bf4b9c4-b74e-45eb-87d0-13ff9db59a3d","system_id":"levelo_inurba_marseille","lat":43.30138,"lon":5.38761,"is_reserved":false,"is_disabled":false,"rental_uris":{"android":"levelo://app?vid=1bf4b9c4-b74e-45eb-87d0-13ff9db59a3d","ios":"levelo://app?vid=1bf4b9c4-b74e-45eb-87d0-13ff9db59a3d"},"vehicle_type_id":"4","last_reported":1722355857,"current_range_meters":0,"station_id":"ce4bghh2rcd13ifvqb60","pricing_plan_id":"cebpf4jnsgd1na2vs0mg"},{"bike_id":"076335d3-e18e-41ff-b820-4c3005b51842","system_id":"levelo_inurba_marseille","lat":43.290104,"lon":5.356111,"is_reserved":false,"is_disabled":false,"rental_uris":{"android":"levelo://app?vid=076335d3-e18e-41ff-b820-4c3005b51842","ios":"levelo://app?vid=076335d3-e18e-41ff-b820-4c3005b51842"},"vehicle_type_id":"4","last_reported":1722355857,"current_range_meters":23600,"station_id":"ce4bhb92rcd13ifvqen0","pricing_plan_id":"cebpf4jnsgd1na2vs0mg"},{"bike_id":"cd10758e-aaf2-47a5-8e73-018b294e6f1f","system_id":"levelo_inurba_marseille","lat":43.301396,"lon":5.387812,"is_reserved":false,"is_disabled":false,"rental_uris":{"android":"levelo://app?vid=cd10758e-aaf2-47a5-8e73-018b294e6f1f","ios":"levelo://app?vid=cd10758e-aaf2-47a5-8e73-018b294e6f1f"},"vehicle_type_id":"4","last_reported":1722355857,"current_range_meters":0,"station_id":"ce4bghh2rcd13ifvqb60","pricing_plan_id":"cebpf4jnsgd1na2vs0mg"},{"bike_id":"65651897-76ca-47e6-92f3-5aa342c3a43f","system_id":"levelo_inurba_marseille","lat":43.301396,"lon":5.387812,"is_reserved":false,"is_disabled":false,"rental_uris":{"android":"levelo://app?vid=65651897-76ca-47e6-92f3-5aa342c3a43f","ios":"levelo://app?vid=65651897-76ca-47e6-92f3-5aa342c3a43f"},"vehicle_type_id":"4","last_reported":1722355857,"current_range_meters":0,"station_id":"ce4bghh2rcd13ifvqb60","pricing_plan_id":"cebpf4jnsgd1na2vs0mg"},{"bike_id":"139fe9c4-51af-48d8-88bd-05ed33ec7fc4","system_id":"levelo_inurba_marseille","lat":43.292835,"lon":5.368305,"is_reserved":false,"is_disabled":false,"rental_uris":{"android":"levelo://app?vid=139fe9c4-51af-48d8-88bd-05ed33ec7fc4","ios":"levelo://app?vid=139fe9c4-51af-48d8-88bd-05ed33ec7fc4"},"vehicle_type_id":"4","last_reported":1722355857,"current_range_meters":0,"station_id":"ce4bhbp2rcd13ifvqesg","pricing_plan_id":"cebpf4jnsgd1na2vs0mg"},{"bike_id":"d22aea95-8e6b-4c91-80ec-9f3feed9f562","system_id":"levelo_inurba_marseille","lat":43.292749,"lon":5.368402,"is_reserved":false,"is_disabled":false,"rental_uris":{"android":"levelo://app?vid=d22aea95-8e6b-4c91-80ec-9f3feed9f562","ios":"levelo://app?vid=d22aea95-8e6b-4c91-80ec-9f3feed9f562"},"vehicle_type_id":"4","last_reported":1722355857,"current_range_meters":0,"station_id":"ce4bhbp2rcd13ifvqesg","pricing_plan_id":"cebpf4jnsgd1na2vs0mg"},{"bike_id":"de0381d9-3d12-4023-9cd2-8f4101a03e41","system_id":"levelo_inurba_marseille","lat":43.292749,"lon":5.368402,"is_reserved":false,"is_disabled":false,"rental_uris":{"android":"levelo://app?vid=de0381d9-3d12-4023-9cd2-8f4101a03e41","ios":"levelo://app?vid=de0381d9-3d12-4023-9cd2-8f4101a03e41"},"vehicle_type_id":"4","last_reported":1722355857,"current_range_meters":0,"station_id":"ce4bhbp2rcd13ifvqesg","pricing_plan_id":"cebpf4jnsgd1na2vs0mg"},{"bike_id":"ae28e35f-cfc4-4644-8028-07b035ad1374","system_id":"levelo_inurba_marseille","lat":43.292749,"lon":5.368398,"is_reserved":false,"is_disabled":false,"rental_uris":{"android":"levelo://app?vid=ae28e35f-cfc4-4644-8028-07b035ad1374","ios":"levelo://app?vid=ae28e35f-cfc4-4644-8028-07b035ad1374"},"vehicle_type_id":"4","last_reported":1722355857,"current_range_meters":28800,"station_id":"ce4bhbp2rcd13ifvqesg","pricing_plan_id":"cebpf4jnsgd1na2vs0mg"},{"bike_id":"6fb1e79d-f37b-4f9e-851c-4c33f0c8ecdf","system_id":"levelo_inurba_marseille","lat":43.29306,"lon":5.37442,"is_reserved":false,"is_disabled":false,"rental_uris":{"android":"levelo://app?vid=6fb1e79d-f37b-4f9e-851c-4c33f0c8ecdf","ios":"levelo://app?vid=6fb1e79d-f37b-4f9e-851c-4c33f0c8ecdf"},"vehicle_type_id":"4","last_reported":1722355857,"current_range_meters":0,"station_id":"ce4bgi12rcd13ifvqb70","pricing_plan_id":"cebpf4jnsgd1na2vs0mg"},{"bike_id":"8097d532-ef2a-4eb2-a1a2-9acce015a82a","system_id":"levelo_inurba_marseille","lat":43.305994,"lon":5.393687,"is_reserved":false,"is_disabled":false,"rental_uris":{"android":"levelo://app?vid=8097d532-ef2a-4eb2-a1a2-9acce015a82a","ios":"levelo://app?vid=8097d532-ef2a-4eb2-a1a2-9acce015a82a"},"vehicle_type_id":"4","last_reported":1722355857,"current_range_meters":0,"station_id":"ce4bh0p2rcd13ifvqd80","pricing_plan_id":"cebpf4jnsgd1na2vs0mg"},{"bike_id":"95bf5c63-d2f3-4829-bbe5-7291b68706d6","system_id":"levelo_inurba_marseille","lat":43.3005,"lon":5.389595,"is_reserved":false,"is_disabled":false,"rental_uris":{"android":"levelo://app?vid=95bf5c63-d2f3-4829-bbe5-7291b68706d6","ios":"levelo://app?vid=95bf5c63-d2f3-4829-bbe5-7291b68706d6"},"vehicle_type_id":"4","last_reported":1722355857,"current_range_meters":2400,"station_id":"ce4bh192rcd13ifvqdb0","pricing_plan_id":"cebpf4jnsgd1na2vs0mg"},{"bike_id":"bfbd0e85-f8ac-46b7-ba4e-f5339d6f3fa7","system_id":"levelo_inurba_marseille","lat":43.305994,"lon":5.393687,"is_reserved":false,"is_disabled":false,"rental_uris":{"android":"levelo://app?vid=bfbd0e85-f8ac-46b7-ba4e-f5339d6f3fa7","ios":"levelo://app?vid=bfbd0e85-f8ac-46b7-ba4e-f5339d6f3fa7"},"vehicle_type_id":"4","last_reported":1722355857,"current_range_meters":0,"station_id":"ce4bh0p2rcd13ifvqd80","pricing_plan_id":"cebpf4jnsgd1na2vs0mg"},{"bike_id":"434067ce-f7d3-4802-bb71-892278c75a80","system_id":"levelo_inurba_marseille","lat":43.305994,"lon":5.393687,"is_reserved":false,"is_disabled":false,"rental_uris":{"android":"levelo://app?vid=434067ce-f7d3-4802-bb71-892278c75a80","ios":"levelo://app?vid=434067ce-f7d3-4802-bb71-892278c75a80"},"vehicle_type_id":"4","last_reported":1722355857,"current_range_meters":2400,"station_id":"ce4bh0p2rcd13ifvqd80","pricing_plan_id":"cebpf4jnsgd1na2vs0mg"},{"bike_id":"52d22749-9eaf-4a2c-a045-e853295c8ada","system_id":"levelo_inurba_marseille","lat":43.29293,"lon":5.37453,"is_reserved":false,"is_disabled":false,"rental_uris":{"android":"levelo://app?vid=52d22749-9eaf-4a2c-a045-e853295c8ada","ios":"levelo://app?vid=52d22749-9eaf-4a2c-a045-e853295c8ada"},"vehicle_type_id":"4","last_reported":1722355857,"current_range_meters":0,"station_id":"ce4bgi12rcd13ifvqb70","pricing_plan_id":"cebpf4jnsgd1na2vs0mg"},{"bike_id":"08b3a720-b48f-4178-bceb-8fffef0829c3","system_id":"levelo_inurba_marseille","lat":43.303002,"lon":5.392142,"is_reserved":false,"is_disabled":false,"rental_uris":{"android":"levelo://app?vid=08b3a720-b48f-4178-bceb-8fffef0829c3","ios":"levelo://app?vid=08b3a720-b48f-4178-bceb-8fffef0829c3"},"vehicle_type_id":"4","last_reported":1722355857,"current_range_meters":400,"station_id":"ce4bgkh2rcd13ifvqbk0","pricing_plan_id":"cebpf4jnsgd1na2vs0mg"},{"bike_id":"15dda155-c037-4b46-b09f-fc7939dd39db","system_id":"levelo_inurba_marseille","lat":43.2936,"lon":5.37835,"is_reserved":false,"is_disabled":false,"rental_uris":{"android":"levelo://app?vid=15dda155-c037-4b46-b09f-fc7939dd39db","ios":"levelo://app?vid=15dda155-c037-4b46-b09f-fc7939dd39db"},"vehicle_type_id":"4","last_reported":1722355857,"current_range_meters":400,"station_id":"ce4bgjh2rcd13ifvqbf0","pricing_plan_id":"cebpf4jnsgd1na2vs0mg"},{"bike_id":"7fe1eec9-bf71-41bb-b6e7-eee7138d6472","system_id":"levelo_inurba_marseille","lat":43.302992,"lon":5.392136,"is_reserved":false,"is_disabled":false,"rental_uris":{"android":"levelo://app?vid=7fe1eec9-bf71-41bb-b6e7-eee7138d6472","ios":"levelo://app?vid=7fe1eec9-bf71-41bb-b6e7-eee7138d6472"},"vehicle_type_id":"4","last_reported":1722355857,"current_range_meters":23600,"station_id":"ce4bgkh2rcd13ifvqbk0","pricing_plan_id":"cebpf4jnsgd1na2vs0mg"},{"bike_id":"b98b5ee6-172a-4137-8265-76b26ac28389","system_id":"levelo_inurba_marseille","lat":43.2936,"lon":5.37835,"is_reserved":false,"is_disabled":false,"rental_uris":{"android":"levelo://app?vid=b98b5ee6-172a-4137-8265-76b26ac28389","ios":"levelo://app?vid=b98b5ee6-172a-4137-8265-76b26ac28389"},"vehicle_type_id":"4","last_reported":1722355857,"current_range_meters":400,"station_id":"ce4bgjh2rcd13ifvqbf0","pricing_plan_id":"cebpf4jnsgd1na2vs0mg"},{"bike_id":"46a5a35f-b80b-4b52-9b25-1d4c3b02b67a","system_id":"levelo_inurba_marseille","lat":43.29371,"lon":5.37852,"is_reserved":false,"is_disabled":false,"rental_uris":{"android":"levelo://app?vid=46a5a35f-b80b-4b52-9b25-1d4c3b02b67a","ios":"levelo://app?vid=46a5a35f-b80b-4b52-9b25-1d4c3b02b67a"},"vehicle_type_id":"4","last_reported":1722355857,"current_range_meters":0,"station_id":"ce4bgjh2rcd13ifvqbf0","pricing_plan_id":"cebpf4jnsgd1na2vs0mg"},{"bike_id":"fa7f8469-e307-4d44-9432-47e48f85339c","system_id":"levelo_inurba_marseille","lat":43.292311,"lon":5.360731,"is_reserved":false,"is_disabled":false,"rental_uris":{"android":"levelo://app?vid=fa7f8469-e307-4d44-9432-47e48f85339c","ios":"levelo://app?vid=fa7f8469-e307-4d44-9432-47e48f85339c"},"vehicle_type_id":"4","last_reported":1722355857,"current_range_meters":0,"station_id":"ce4bhbh2rcd13ifvqeqg","pricing_plan_id":"cebpf4jnsgd1na2vs0mg"},{"bike_id":"7a24d630-b472-417c-a0f3-7f8c534edb58","system_id":"levelo_inurba_marseille","lat":43.300852,"lon":5.390859,"is_reserved":false,"is_disabled":false,"rental_uris":{"android":"levelo://app?vid=7a24d630-b472-417c-a0f3-7f8c534edb58","ios":"levelo://app?vid=7a24d630-b472-417c-a0f3-7f8c534edb58"},"vehicle_type_id":"4","last_reported":1722355857,"current_range_meters":24400,"station_id":"ce4bh192rcd13ifvqdb0","pricing_plan_id":"cebpf4jnsgd1na2vs0mg"},{"bike_id":"fa9d45ce-435e-4710-a72f-d3beefa5344b","system_id":"levelo_inurba_marseille","lat":43.300852,"lon":5.390859,"is_reserved":false,"is_disabled":false,"rental_uris":{"android":"levelo://app?vid=fa9d45ce-435e-4710-a72f-d3beefa5344b","ios":"levelo://app?vid=fa9d45ce-435e-4710-a72f-d3beefa5344b"},"vehicle_type_id":"4","last_reported":1722355857,"current_range_meters":31200,"station_id":"ce4bh192rcd13ifvqdb0","pricing_plan_id":"cebpf4jnsgd1na2vs0mg"},{"bike_id":"18284e93-66c5-4850-85b1-34a98e5e950b","system_id":"levelo_inurba_marseille","lat":43.29261,"lon":5.376187,"is_reserved":false,"is_disabled":false,"rental_uris":{"android":"levelo://app?vid=18284e93-66c5-4850-85b1-34a98e5e950b","ios":"levelo://app?vid=18284e93-66c5-4850-85b1-34a98e5e950b"},"vehicle_type_id":"4","last_reported":1722355857,"current_range_meters":2000,"station_id":"ce4bgi12rcd13ifvqb80","pricing_plan_id":"cebpf4jnsgd1na2vs0mg"},{"bike_id":"14d8d4f8-8ed1-45b7-ae29-67121a125c23","system_id":"levelo_inurba_marseille","lat":43.292529,"lon":5.376144,"is_reserved":false,"is_disabled":false,"rental_uris":{"android":"levelo://app?vid=14d8d4f8-8ed1-45b7-ae29-67121a125c23","ios":"levelo://app?vid=14d8d4f8-8ed1-45b7-ae29-67121a125c23"},"vehicle_type_id":"4","last_reported":1722355857,"current_range_meters":11600,"station_id":"ce4bgi12rcd13ifvqb80","pricing_plan_id":"cebpf4jnsgd1na2vs0mg"},{"bike_id":"bbeba8b6-f31b-4b84-a4b7-7ee9bc3b2210","system_id":"levelo_inurba_marseille","lat":43.292005,"lon":5.357875,"is_reserved":false,"is_disabled":false,"rental_uris":{"android":"levelo://app?vid=bbeba8b6-f31b-4b84-a4b7-7ee9bc3b2210","ios":"levelo://app?vid=bbeba8b6-f31b-4b84-a4b7-7ee9bc3b2210"},"vehicle_type_id":"4","last_reported":1722355857,"current_range_meters":14000,"station_id":"ce4bhb12rcd13ifvqel0","pricing_plan_id":"cebpf4jnsgd1na2vs0mg"},{"bike_id":"d67ec6c5-91ca-4a81-88c0-e6d97e1ca6b3","system_id":"levelo_inurba_marseille","lat":43.292005,"lon":5.357875,"is_reserved":false,"is_disabled":false,"rental_uris":{"android":"levelo://app?vid=d67ec6c5-91ca-4a81-88c0-e6d97e1ca6b3","ios":"levelo://app?vid=d67ec6c5-91ca-4a81-88c0-e6d97e1ca6b3"},"vehicle_type_id":"4","last_reported":1722355857,"current_range_meters":12800,"station_id":"ce4bhb12rcd13ifvqel0","pricing_plan_id":"cebpf4jnsgd1na2vs0mg"},{"bike_id":"b76f44d8-b523-41a7-9e44-26f996cdaa1d","system_id":"levelo_inurba_marseille","lat":43.2942,"lon":5.38618,"is_reserved":false,"is_disabled":false,"rental_uris":{"android":"levelo://app?vid=b76f44d8-b523-41a7-9e44-26f996cdaa1d","ios":"levelo://app?vid=b76f44d8-b523-41a7-9e44-26f996cdaa1d"},"vehicle_type_id":"4","last_reported":1722355857,"current_range_meters":0,"station_id":"ce4bh2h2rcd13ifvqdh0","pricing_plan_id":"cebpf4jnsgd1na2vs0mg"},{"bike_id":"d479777b-e7ce-467d-9fe3-c6c54a89e4a9","system_id":"levelo_inurba_marseille","lat":43.294162,"lon":5.386292,"is_reserved":false,"is_disabled":false,"rental_uris":{"android":"levelo://app?vid=d479777b-e7ce-467d-9fe3-c6c54a89e4a9","ios":"levelo://app?vid=d479777b-e7ce-467d-9fe3-c6c54a89e4a9"},"vehicle_type_id":"4","last_reported":1722355857,"current_range_meters":0,"station_id":"ce4bh2h2rcd13ifvqdh0","pricing_plan_id":"cebpf4jnsgd1na2vs0mg"},{"bike_id":"8b3e2b0b-1052-4141-bbb0-fbc84d9ff9ea","system_id":"levelo_inurba_marseille","lat":43.28946,"lon":5.364,"is_reserved":false,"is_disabled":false,"rental_uris":{"android":"levelo://app?vid=8b3e2b0b-1052-4141-bbb0-fbc84d9ff9ea","ios":"levelo://app?vid=8b3e2b0b-1052-4141-bbb0-fbc84d9ff9ea"},"vehicle_type_id":"4","last_reported":1722355857,"current_range_meters":31200,"station_id":"ce4bhc92rcd13ifvqetg","pricing_plan_id":"cebpf4jnsgd1na2vs0mg"},{"bike_id":"9997bea9-4887-4c15-89b7-bee61fbcfe61","system_id":"levelo_inurba_marseille","lat":43.304274,"lon":5.397513,"is_reserved":false,"is_disabled":false,"rental_uris":{"android":"levelo://app?vid=9997bea9-4887-4c15-89b7-bee61fbcfe61","ios":"levelo://app?vid=9997bea9-4887-4c15-89b7-bee61fbcfe61"},"vehicle_type_id":"4","last_reported":1722355857,"current_range_meters":0,"station_id":"ce4bh092rcd13ifvqd20","pricing_plan_id":"cebpf4jnsgd1na2vs0mg"},{"bike_id":"2d225e03-af10-4aa2-9e2c-d594326cd087","system_id":"levelo_inurba_marseille","lat":43.2927,"lon":5.38437,"is_reserved":false,"is_disabled":false,"rental_uris":{"android":"levelo://app?vid=2d225e03-af10-4aa2-9e2c-d594326cd087","ios":"levelo://app?vid=2d225e03-af10-4aa2-9e2c-d594326cd087"},"vehicle_type_id":"4","last_reported":1722355857,"current_range_meters":6000,"station_id":"ce4bh692rcd13ifvqea0","pricing_plan_id":"cebpf4jnsgd1na2vs0mg"},{"bike_id":"81a65d5d-2cc2-4cd8-99d2-18d560ae6971","system_id":"levelo_inurba_marseille","lat":43.29271,"lon":5.38441,"is_reserved":false,"is_disabled":false,"rental_uris":{"android":"levelo://app?vid=81a65d5d-2cc2-4cd8-99d2-18d560ae6971","ios":"levelo://app?vid=81a65d5d-2cc2-4cd8-99d2-18d560ae6971"},"vehicle_type_id":"4","last_reported":1722355857,"current_range_meters":16800,"station_id":"ce4bh692rcd13ifvqea0","pricing_plan_id":"cebpf4jnsgd1na2vs0mg"},{"bike_id":"f3a89701-b199-4225-a868-3d535c4111e4","system_id":"levelo_inurba_marseille","lat":43.29267,"lon":5.38438,"is_reserved":false,"is_disabled":false,"rental_uris":{"android":"levelo://app?vid=f3a89701-b199-4225-a868-3d535c4111e4","ios":"levelo://app?vid=f3a89701-b199-4225-a868-3d535c4111e4"},"vehicle_type_id":"4","last_reported":1722355857,"current_range_meters":12000,"station_id":"ce4bh692rcd13ifvqea0","pricing_plan_id":"cebpf4jnsgd1na2vs0mg"},{"bike_id":"c622214a-6ba9-445e-881d-bbc2efa440cb","system_id":"levelo_inurba_marseille","lat":43.292644,"lon":5.384257,"is_reserved":false,"is_disabled":false,"rental_uris":{"android":"levelo://app?vid=c622214a-6ba9-445e-881d-bbc2efa440cb","ios":"levelo://app?vid=c622214a-6ba9-445e-881d-bbc2efa440cb"},"vehicle_type_id":"4","last_reported":1722355857,"current_range_meters":0,"station_id":"ce4bh692rcd13ifvqea0","pricing_plan_id":"cebpf4jnsgd1na2vs0mg"},{"bike_id":"8d979f3a-3ac0-47a4-a17b-dceff8d2dd67","system_id":"levelo_inurba_marseille","lat":43.29273,"lon":5.38465,"is_reserved":false,"is_disabled":false,"rental_uris":{"android":"levelo://app?vid=8d979f3a-3ac0-47a4-a17b-dceff8d2dd67","ios":"levelo://app?vid=8d979f3a-3ac0-47a4-a17b-dceff8d2dd67"},"vehicle_type_id":"4","last_reported":1722355857,"current_range_meters":400,"station_id":"ce4bh692rcd13ifvqea0","pricing_plan_id":"cebpf4jnsgd1na2vs0mg"},{"bike_id":"2856cb4d-1675-40ee-9e9c-1946ade5d99d","system_id":"levelo_inurba_marseille","lat":43.292644,"lon":5.384257,"is_reserved":false,"is_disabled":false,"rental_uris":{"android":"levelo://app?vid=2856cb4d-1675-40ee-9e9c-1946ade5d99d","ios":"levelo://app?vid=2856cb4d-1675-40ee-9e9c-1946ade5d99d"},"vehicle_type_id":"4","last_reported":1722355857,"current_range_meters":800,"station_id":"ce4bh692rcd13ifvqea0","pricing_plan_id":"cebpf4jnsgd1na2vs0mg"},{"bike_id":"95498856-e3e6-4f38-9f9a-0568f326702e","system_id":"levelo_inurba_marseille","lat":43.290103,"lon":5.356114,"is_reserved":false,"is_disabled":false,"rental_uris":{"android":"levelo://app?vid=95498856-e3e6-4f38-9f9a-0568f326702e","ios":"levelo://app?vid=95498856-e3e6-4f38-9f9a-0568f326702e"},"vehicle_type_id":"4","last_reported":1722355857,"current_range_meters":0,"station_id":"ce4bhb92rcd13ifvqen0","pricing_plan_id":"cebpf4jnsgd1na2vs0mg"},{"bike_id":"697b7dcf-865d-4c82-b05f-e3179c5272f9","system_id":"levelo_inurba_marseille","lat":43.290103,"lon":5.356114,"is_reserved":false,"is_disabled":false,"rental_uris":{"android":"levelo://app?vid=697b7dcf-865d-4c82-b05f-e3179c5272f9","ios":"levelo://app?vid=697b7dcf-865d-4c82-b05f-e3179c5272f9"},"vehicle_type_id":"4","last_reported":1722355857,"current_range_meters":12000,"station_id":"ce4bhb92rcd13ifvqen0","pricing_plan_id":"cebpf4jnsgd1na2vs0mg"},{"bike_id":"cc7b357c-bd0b-421a-b30d-0dbf1ce93a64","system_id":"levelo_inurba_marseille","lat":43.290104,"lon":5.356111,"is_reserved":false,"is_disabled":false,"rental_uris":{"android":"levelo://app?vid=cc7b357c-bd0b-421a-b30d-0dbf1ce93a64","ios":"levelo://app?vid=cc7b357c-bd0b-421a-b30d-0dbf1ce93a64"},"vehicle_type_id":"4","last_reported":1722355857,"current_range_meters":6800,"station_id":"ce4bhb92rcd13ifvqen0","pricing_plan_id":"cebpf4jnsgd1na2vs0mg"},{"bike_id":"ac05d45a-4f5e-44a1-88c1-5bb61673d9b0","system_id":"levelo_inurba_marseille","lat":43.297815,"lon":5.393548,"is_reserved":false,"is_disabled":false,"rental_uris":{"android":"levelo://app?vid=ac05d45a-4f5e-44a1-88c1-5bb61673d9b0","ios":"levelo://app?vid=ac05d45a-4f5e-44a1-88c1-5bb61673d9b0"},"vehicle_type_id":"4","last_reported":1722355857,"current_range_meters":28800,"station_id":"chh1huq6cuj3fo74tm60","pricing_plan_id":"cebpf4jnsgd1na2vs0mg"},{"bike_id":"2ab95058-b61a-4cf4-bf8a-f478eca4b255","system_id":"levelo_inurba_marseille","lat":43.33022,"lon":5.39025,"is_reserved":false,"is_disabled":false,"rental_uris":{"android":"levelo://app?vid=2ab95058-b61a-4cf4-bf8a-f478eca4b255","ios":"levelo://app?vid=2ab95058-b61a-4cf4-bf8a-f478eca4b255"},"vehicle_type_id":"4","last_reported":1722355857,"current_range_meters":24000,"station_id":"ce4bhr92rcd13ifvqhrg","pricing_plan_id":"cebpf4jnsgd1na2vs0mg"},{"bike_id":"173e73f4-4695-4ca2-a6cf-b2184fb43ec3","system_id":"levelo_inurba_marseille","lat":43.295169,"lon":5.390426,"is_reserved":false,"is_disabled":false,"rental_uris":{"android":"levelo://app?vid=173e73f4-4695-4ca2-a6cf-b2184fb43ec3","ios":"levelo://app?vid=173e73f4-4695-4ca2-a6cf-b2184fb43ec3"},"vehicle_type_id":"4","last_reported":1722355857,"current_range_meters":0,"station_id":"ce4bh3p2rcd13ifvqdp0","pricing_plan_id":"cebpf4jnsgd1na2vs0mg"},{"bike_id":"4f6afdde-2832-4e9d-805f-9a3bcc640160","system_id":"levelo_inurba_marseille","lat":43.297807,"lon":5.393533,"is_reserved":false,"is_disabled":false,"rental_uris":{"android":"levelo://app?vid=4f6afdde-2832-4e9d-805f-9a3bcc640160","ios":"levelo://app?vid=4f6afdde-2832-4e9d-805f-9a3bcc640160"},"vehicle_type_id":"4","last_reported":1722355857,"current_range_meters":4000,"station_id":"chh1huq6cuj3fo74tm60","pricing_plan_id":"cebpf4jnsgd1na2vs0mg"},{"bike_id":"3a41e8d2-591d-4d3e-861c-9499b42bd95c","system_id":"levelo_inurba_marseille","lat":43.297815,"lon":5.393548,"is_reserved":false,"is_disabled":false,"rental_uris":{"android":"levelo://app?vid=3a41e8d2-591d-4d3e-861c-9499b42bd95c","ios":"levelo://app?vid=3a41e8d2-591d-4d3e-861c-9499b42bd95c"},"vehicle_type_id":"4","last_reported":1722355857,"current_range_meters":3600,"station_id":"chh1huq6cuj3fo74tm60","pricing_plan_id":"cebpf4jnsgd1na2vs0mg"},{"bike_id":"68841611-7fc6-4488-84d1-8de0a820f18c","system_id":"levelo_inurba_marseille","lat":43.330442,"lon":5.389148,"is_reserved":false,"is_disabled":false,"rental_uris":{"android":"levelo://app?vid=68841611-7fc6-4488-84d1-8de0a820f18c","ios":"levelo://app?vid=68841611-7fc6-4488-84d1-8de0a820f18c"},"vehicle_type_id":"4","last_reported":1722355857,"current_range_meters":0,"station_id":"ce4bhr92rcd13ifvqhrg","pricing_plan_id":"cebpf4jnsgd1na2vs0mg"},{"bike_id":"2e505163-4c8f-4971-bbe6-1fe9f315956a","system_id":"levelo_inurba_marseille","lat":43.330442,"lon":5.389148,"is_reserved":false,"is_disabled":false,"rental_uris":{"android":"levelo://app?vid=2e505163-4c8f-4971-bbe6-1fe9f315956a","ios":"levelo://app?vid=2e505163-4c8f-4971-bbe6-1fe9f315956a"},"vehicle_type_id":"4","last_reported":1722355857,"current_range_meters":26400,"station_id":"ce4bhr92rcd13ifvqhrg","pricing_plan_id":"cebpf4jnsgd1na2vs0mg"},{"bike_id":"c545a8d8-b913-468d-9704-0fe65f3ca374","system_id":"levelo_inurba_marseille","lat":43.29525,"lon":5.39038,"is_reserved":false,"is_disabled":false,"rental_uris":{"android":"levelo://app?vid=c545a8d8-b913-468d-9704-0fe65f3ca374","ios":"levelo://app?vid=c545a8d8-b913-468d-9704-0fe65f3ca374"},"vehicle_type_id":"4","last_reported":1722355857,"current_range_meters":0,"station_id":"ce4bh3p2rcd13ifvqdp0","pricing_plan_id":"cebpf4jnsgd1na2vs0mg"},{"bike_id":"d01ab5c4-1195-4fde-a897-6bde4d9626c2","system_id":"levelo_inurba_marseille","lat":43.290995,"lon":5.381361,"is_reserved":false,"is_disabled":false,"rental_uris":{"android":"levelo://app?vid=d01ab5c4-1195-4fde-a897-6bde4d9626c2","ios":"levelo://app?vid=d01ab5c4-1195-4fde-a897-6bde4d9626c2"},"vehicle_type_id":"4","last_reported":1722355857,"current_range_meters":0,"station_id":"ce4bh512rcd13ifvqe2g","pricing_plan_id":"cebpf4jnsgd1na2vs0mg"},{"bike_id":"a7161679-aae8-40a9-bbd0-8f72df4dc0c0","system_id":"levelo_inurba_marseille","lat":43.330442,"lon":5.389148,"is_reserved":false,"is_disabled":false,"rental_uris":{"android":"levelo://app?vid=a7161679-aae8-40a9-bbd0-8f72df4dc0c0","ios":"levelo://app?vid=a7161679-aae8-40a9-bbd0-8f72df4dc0c0"},"vehicle_type_id":"4","last_reported":1722355857,"current_range_meters":25200,"station_id":"ce4bhr92rcd13ifvqhrg","pricing_plan_id":"cebpf4jnsgd1na2vs0mg"},{"bike_id":"77183563-3c78-43c5-97bd-348d06121d30","system_id":"levelo_inurba_marseille","lat":43.295206,"lon":5.390459,"is_reserved":false,"is_disabled":false,"rental_uris":{"android":"levelo://app?vid=77183563-3c78-43c5-97bd-348d06121d30","ios":"levelo://app?vid=77183563-3c78-43c5-97bd-348d06121d30"},"vehicle_type_id":"4","last_reported":1722355857,"current_range_meters":0,"station_id":"ce4bh3p2rcd13ifvqdp0","pricing_plan_id":"cebpf4jnsgd1na2vs0mg"},{"bike_id":"df0d49e5-2e10-405d-b1ba-44ebc1f7513a","system_id":"levelo_inurba_marseille","lat":43.295169,"lon":5.390426,"is_reserved":false,"is_disabled":false,"rental_uris":{"android":"levelo://app?vid=df0d49e5-2e10-405d-b1ba-44ebc1f7513a","ios":"levelo://app?vid=df0d49e5-2e10-405d-b1ba-44ebc1f7513a"},"vehicle_type_id":"4","last_reported":1722355857,"current_range_meters":0,"station_id":"ce4bh3p2rcd13ifvqdp0","pricing_plan_id":"cebpf4jnsgd1na2vs0mg"},{"bike_id":"f4cdf6f8-59cc-4926-bbd3-bf830cd7e7b6","system_id":"levelo_inurba_marseille","lat":43.290094,"lon":5.381264,"is_reserved":false,"is_disabled":false,"rental_uris":{"android":"levelo://app?vid=f4cdf6f8-59cc-4926-bbd3-bf830cd7e7b6","ios":"levelo://app?vid=f4cdf6f8-59cc-4926-bbd3-bf830cd7e7b6"},"vehicle_type_id":"4","last_reported":1722355857,"current_range_meters":29200,"station_id":"ce4bh4p2rcd13ifvqe1g","pricing_plan_id":"cebpf4jnsgd1na2vs0mg"},{"bike_id":"afdc5f7d-454e-4c8b-ae19-92f436327d89","system_id":"levelo_inurba_marseille","lat":43.28856,"lon":5.358371,"is_reserved":false,"is_disabled":false,"rental_uris":{"android":"levelo://app?vid=afdc5f7d-454e-4c8b-ae19-92f436327d89","ios":"levelo://app?vid=afdc5f7d-454e-4c8b-ae19-92f436327d89"},"vehicle_type_id":"4","last_reported":1722355857,"current_range_meters":0,"station_id":"ce4bhb12rcd13ifvqem0","pricing_plan_id":"cebpf4jnsgd1na2vs0mg"},{"bike_id":"21cb4ef4-f96d-4b38-8358-b1e153bf91c1","system_id":"levelo_inurba_marseille","lat":43.28856,"lon":5.358371,"is_reserved":false,"is_disabled":false,"rental_uris":{"android":"levelo://app?vid=21cb4ef4-f96d-4b38-8358-b1e153bf91c1","ios":"levelo://app?vid=21cb4ef4-f96d-4b38-8358-b1e153bf91c1"},"vehicle_type_id":"4","last_reported":1722355857,"current_range_meters":0,"station_id":"ce4bhb12rcd13ifvqem0","pricing_plan_id":"cebpf4jnsgd1na2vs0mg"},{"bike_id":"031bef61-f042-414a-81fd-8c51ed6ded19","system_id":"levelo_inurba_marseille","lat":43.28857,"lon":5.35835,"is_reserved":false,"is_disabled":false,"rental_uris":{"android":"levelo://app?vid=031bef61-f042-414a-81fd-8c51ed6ded19","ios":"levelo://app?vid=031bef61-f042-414a-81fd-8c51ed6ded19"},"vehicle_type_id":"4","last_reported":1722355857,"current_range_meters":0,"station_id":"ce4bhb12rcd13ifvqem0","pricing_plan_id":"cebpf4jnsgd1na2vs0mg"},{"bike_id":"d0dd06a3-91c1-4ee6-8746-9ca186fe32ae","system_id":"levelo_inurba_marseille","lat":43.29009,"lon":5.3814,"is_reserved":false,"is_disabled":false,"rental_uris":{"android":"levelo://app?vid=d0dd06a3-91c1-4ee6-8746-9ca186fe32ae","ios":"levelo://app?vid=d0dd06a3-91c1-4ee6-8746-9ca186fe32ae"},"vehicle_type_id":"4","last_reported":1722355857,"current_range_meters":0,"station_id":"ce4bh4p2rcd13ifvqe1g","pricing_plan_id":"cebpf4jnsgd1na2vs0mg"},{"bike_id":"f5d3a63e-fe61-4e75-b0cb-aaffc2141b5f","system_id":"levelo_inurba_marseille","lat":43.337507,"lon":5.374583,"is_reserved":false,"is_disabled":false,"rental_uris":{"android":"levelo://app?vid=f5d3a63e-fe61-4e75-b0cb-aaffc2141b5f","ios":"levelo://app?vid=f5d3a63e-fe61-4e75-b0cb-aaffc2141b5f"},"vehicle_type_id":"4","last_reported":1722355857,"current_range_meters":29600,"station_id":"","pricing_plan_id":"cebpf4jnsgd1na2vs0mg"},{"bike_id":"0947d520-5902-43d2-9e61-47bf12ff75f9","system_id":"levelo_inurba_marseille","lat":43.337553,"lon":5.374554,"is_reserved":false,"is_disabled":false,"rental_uris":{"android":"levelo://app?vid=0947d520-5902-43d2-9e61-47bf12ff75f9","ios":"levelo://app?vid=0947d520-5902-43d2-9e61-47bf12ff75f9"},"vehicle_type_id":"4","last_reported":1722355857,"current_range_meters":18000,"station_id":"","pricing_plan_id":"cebpf4jnsgd1na2vs0mg"},{"bike_id":"3e93d19d-7afa-4cd5-ab53-7ad8029b407a","system_id":"levelo_inurba_marseille","lat":43.30642,"lon":5.401031,"is_reserved":false,"is_disabled":false,"rental_uris":{"android":"levelo://app?vid=3e93d19d-7afa-4cd5-ab53-7ad8029b407a","ios":"levelo://app?vid=3e93d19d-7afa-4cd5-ab53-7ad8029b407a"},"vehicle_type_id":"4","last_reported":1722355857,"current_range_meters":31200,"station_id":"ce4bh112rcd13ifvqda0","pricing_plan_id":"cebpf4jnsgd1na2vs0mg"},{"bike_id":"af2e964a-a009-4834-8c68-bdc252944123","system_id":"levelo_inurba_marseille","lat":43.337651,"lon":5.374623,"is_reserved":false,"is_disabled":false,"rental_uris":{"android":"levelo://app?vid=af2e964a-a009-4834-8c68-bdc252944123","ios":"levelo://app?vid=af2e964a-a009-4834-8c68-bdc252944123"},"vehicle_type_id":"4","last_reported":1722355857,"current_range_meters":30400,"station_id":"","pricing_plan_id":"cebpf4jnsgd1na2vs0mg"},{"bike_id":"0e5fafb6-69c2-4f83-ae2f-4ea457eddfec","system_id":"levelo_inurba_marseille","lat":43.28727,"lon":5.36078,"is_reserved":false,"is_disabled":false,"rental_uris":{"android":"levelo://app?vid=0e5fafb6-69c2-4f83-ae2f-4ea457eddfec","ios":"levelo://app?vid=0e5fafb6-69c2-4f83-ae2f-4ea457eddfec"},"vehicle_type_id":"4","last_reported":1722355857,"current_range_meters":24000,"station_id":"cki0cbj6b192h4jlfktg","pricing_plan_id":"cebpf4jnsgd1na2vs0mg"},{"bike_id":"046d834d-0a71-456f-8414-115f459bf146","system_id":"levelo_inurba_marseille","lat":43.28727,"lon":5.36078,"is_reserved":false,"is_disabled":false,"rental_uris":{"android":"levelo://app?vid=046d834d-0a71-456f-8414-115f459bf146","ios":"levelo://app?vid=046d834d-0a71-456f-8414-115f459bf146"},"vehicle_type_id":"4","last_reported":1722355857,"current_range_meters":13200,"station_id":"cki0cbj6b192h4jlfktg","pricing_plan_id":"cebpf4jnsgd1na2vs0mg"},{"bike_id":"84b11cdc-05a4-4e68-90d3-eca9ec2fb729","system_id":"levelo_inurba_marseille","lat":43.298681,"lon":5.397225,"is_reserved":false,"is_disabled":false,"rental_uris":{"android":"levelo://app?vid=84b11cdc-05a4-4e68-90d3-eca9ec2fb729","ios":"levelo://app?vid=84b11cdc-05a4-4e68-90d3-eca9ec2fb729"},"vehicle_type_id":"4","last_reported":1722355857,"current_range_meters":0,"station_id":"ce4bh0h2rcd13ifvqd50","pricing_plan_id":"cebpf4jnsgd1na2vs0mg"},{"bike_id":"35f3b33b-2ab8-4b13-b4ab-d2894ea02555","system_id":"levelo_inurba_marseille","lat":43.29872,"lon":5.39731,"is_reserved":false,"is_disabled":false,"rental_uris":{"android":"levelo://app?vid=35f3b33b-2ab8-4b13-b4ab-d2894ea02555","ios":"levelo://app?vid=35f3b33b-2ab8-4b13-b4ab-d2894ea02555"},"vehicle_type_id":"4","last_reported":1722355857,"current_range_meters":0,"station_id":"ce4bh0h2rcd13ifvqd50","pricing_plan_id":"cebpf4jnsgd1na2vs0mg"},{"bike_id":"7b6b0ec6-d045-4792-8eda-382973cf197e","system_id":"levelo_inurba_marseille","lat":43.289307,"lon":5.38406,"is_reserved":false,"is_disabled":false,"rental_uris":{"android":"levelo://app?vid=7b6b0ec6-d045-4792-8eda-382973cf197e","ios":"levelo://app?vid=7b6b0ec6-d045-4792-8eda-382973cf197e"},"vehicle_type_id":"4","last_reported":1722355857,"current_range_meters":1200,"station_id":"ce4bh612rcd13ifvqe6g","pricing_plan_id":"cebpf4jnsgd1na2vs0mg"},{"bike_id":"c6039c82-8dc1-487e-886a-c328e5717f39","system_id":"levelo_inurba_marseille","lat":43.29017,"lon":5.38618,"is_reserved":false,"is_disabled":false,"rental_uris":{"android":"levelo://app?vid=c6039c82-8dc1-487e-886a-c328e5717f39","ios":"levelo://app?vid=c6039c82-8dc1-487e-886a-c328e5717f39"},"vehicle_type_id":"4","last_reported":1722355857,"current_range_meters":0,"station_id":"ce4bh4p2rcd13ifvqe0g","pricing_plan_id":"cebpf4jnsgd1na2vs0mg"},{"bike_id":"d71e41b1-dcac-404e-97fb-2cf743a26f51","system_id":"levelo_inurba_marseille","lat":43.29022,"lon":5.38635,"is_reserved":false,"is_disabled":false,"rental_uris":{"android":"levelo://app?vid=d71e41b1-dcac-404e-97fb-2cf743a26f51","ios":"levelo://app?vid=d71e41b1-dcac-404e-97fb-2cf743a26f51"},"vehicle_type_id":"4","last_reported":1722355857,"current_range_meters":0,"station_id":"ce4bh4p2rcd13ifvqe0g","pricing_plan_id":"cebpf4jnsgd1na2vs0mg"},{"bike_id":"b804d922-d222-4748-afa9-d747e78c8b12","system_id":"levelo_inurba_marseille","lat":43.2901,"lon":5.381269,"is_reserved":false,"is_disabled":false,"rental_uris":{"android":"levelo://app?vid=b804d922-d222-4748-afa9-d747e78c8b12","ios":"levelo://app?vid=b804d922-d222-4748-afa9-d747e78c8b12"},"vehicle_type_id":"4","last_reported":1722355857,"current_range_meters":17200,"station_id":"ce4bh4p2rcd13ifvqe1g","pricing_plan_id":"cebpf4jnsgd1na2vs0mg"},{"bike_id":"59fb77ce-c565-4199-8f1e-816be4583450","system_id":"levelo_inurba_marseille","lat":43.28797,"lon":5.35237,"is_reserved":false,"is_disabled":false,"rental_uris":{"android":"levelo://app?vid=59fb77ce-c565-4199-8f1e-816be4583450","ios":"levelo://app?vid=59fb77ce-c565-4199-8f1e-816be4583450"},"vehicle_type_id":"4","last_reported":1722355857,"current_range_meters":7600,"station_id":"","pricing_plan_id":"cebpf4jnsgd1na2vs0mg"},{"bike_id":"aeeb7d3f-9082-4866-aa46-f9aaaf9bfac1","system_id":"levelo_inurba_marseille","lat":43.28763,"lon":5.35269,"is_reserved":false,"is_disabled":false,"rental_uris":{"android":"levelo://app?vid=aeeb7d3f-9082-4866-aa46-f9aaaf9bfac1","ios":"levelo://app?vid=aeeb7d3f-9082-4866-aa46-f9aaaf9bfac1"},"vehicle_type_id":"4","last_reported":1722355857,"current_range_meters":23200,"station_id":"","pricing_plan_id":"cebpf4jnsgd1na2vs0mg"},{"bike_id":"761f240e-047d-4866-9014-4299f9fce430","system_id":"levelo_inurba_marseille","lat":43.298003,"lon":5.399633,"is_reserved":false,"is_disabled":false,"rental_uris":{"android":"levelo://app?vid=761f240e-047d-4866-9014-4299f9fce430","ios":"levelo://app?vid=761f240e-047d-4866-9014-4299f9fce430"},"vehicle_type_id":"4","last_reported":1722355857,"current_range_meters":25200,"station_id":"","pricing_plan_id":"cebpf4jnsgd1na2vs0mg"},{"bike_id":"24f5d6a4-aed2-455b-8965-851bdb72ee8a","system_id":"levelo_inurba_marseille","lat":43.284538,"lon":5.358657,"is_reserved":false,"is_disabled":false,"rental_uris":{"android":"levelo://app?vid=24f5d6a4-aed2-455b-8965-851bdb72ee8a","ios":"levelo://app?vid=24f5d6a4-aed2-455b-8965-851bdb72ee8a"},"vehicle_type_id":"4","last_reported":1722355857,"current_range_meters":14000,"station_id":"ce4bhah2rcd13ifvqei0","pricing_plan_id":"cebpf4jnsgd1na2vs0mg"},{"bike_id":"52b77ee4-91bd-4c1b-b30f-8adfb72396a3","system_id":"levelo_inurba_marseille","lat":43.284538,"lon":5.358657,"is_reserved":false,"is_disabled":false,"rental_uris":{"android":"levelo://app?vid=52b77ee4-91bd-4c1b-b30f-8adfb72396a3","ios":"levelo://app?vid=52b77ee4-91bd-4c1b-b30f-8adfb72396a3"},"vehicle_type_id":"4","last_reported":1722355857,"current_range_meters":6000,"station_id":"ce4bhah2rcd13ifvqei0","pricing_plan_id":"cebpf4jnsgd1na2vs0mg"},{"bike_id":"f42feb08-191a-4671-91b8-04f4555c6440","system_id":"levelo_inurba_marseille","lat":43.284538,"lon":5.358657,"is_reserved":false,"is_disabled":false,"rental_uris":{"android":"levelo://app?vid=f42feb08-191a-4671-91b8-04f4555c6440","ios":"levelo://app?vid=f42feb08-191a-4671-91b8-04f4555c6440"},"vehicle_type_id":"4","last_reported":1722355857,"current_range_meters":30000,"station_id":"ce4bhah2rcd13ifvqei0","pricing_plan_id":"cebpf4jnsgd1na2vs0mg"},{"bike_id":"87b727a3-59c6-448e-9f2e-21b78cffb732","system_id":"levelo_inurba_marseille","lat":43.284534,"lon":5.358662,"is_reserved":false,"is_disabled":false,"rental_uris":{"android":"levelo://app?vid=87b727a3-59c6-448e-9f2e-21b78cffb732","ios":"levelo://app?vid=87b727a3-59c6-448e-9f2e-21b78cffb732"},"vehicle_type_id":"4","last_reported":1722355857,"current_range_meters":4800,"station_id":"ce4bhah2rcd13ifvqei0","pricing_plan_id":"cebpf4jnsgd1na2vs0mg"},{"bike_id":"5b97ead5-a1ee-44aa-987d-2ad769b70e29","system_id":"levelo_inurba_marseille","lat":43.29445,"lon":5.39744,"is_reserved":false,"is_disabled":false,"rental_uris":{"android":"levelo://app?vid=5b97ead5-a1ee-44aa-987d-2ad769b70e29","ios":"levelo://app?vid=5b97ead5-a1ee-44aa-987d-2ad769b70e29"},"vehicle_type_id":"4","last_reported":1722355857,"current_range_meters":0,"station_id":"ce4bh3h2rcd13ifvqdo0","pricing_plan_id":"cebpf4jnsgd1na2vs0mg"},{"bike_id":"8294e624-e922-4e07-be6f-1b1b78b6f8a9","system_id":"levelo_inurba_marseille","lat":43.29438,"lon":5.39749,"is_reserved":false,"is_disabled":false,"rental_uris":{"android":"levelo://app?vid=8294e624-e922-4e07-be6f-1b1b78b6f8a9","ios":"levelo://app?vid=8294e624-e922-4e07-be6f-1b1b78b6f8a9"},"vehicle_type_id":"4","last_reported":1722355857,"current_range_meters":0,"station_id":"ce4bh3h2rcd13ifvqdo0","pricing_plan_id":"cebpf4jnsgd1na2vs0mg"},{"bike_id":"65f53c1c-483c-4986-bc32-f03495bb7d4f","system_id":"levelo_inurba_marseille","lat":43.28621,"lon":5.35109,"is_reserved":false,"is_disabled":false,"rental_uris":{"android":"levelo://app?vid=65f53c1c-483c-4986-bc32-f03495bb7d4f","ios":"levelo://app?vid=65f53c1c-483c-4986-bc32-f03495bb7d4f"},"vehicle_type_id":"4","last_reported":1722355857,"current_range_meters":22400,"station_id":"ce4bhch2rcd13ifvqeug","pricing_plan_id":"cebpf4jnsgd1na2vs0mg"},{"bike_id":"c35d428b-ced8-4400-ad68-aa2d927810b4","system_id":"levelo_inurba_marseille","lat":43.28625,"lon":5.35096,"is_reserved":false,"is_disabled":false,"rental_uris":{"android":"levelo://app?vid=c35d428b-ced8-4400-ad68-aa2d927810b4","ios":"levelo://app?vid=c35d428b-ced8-4400-ad68-aa2d927810b4"},"vehicle_type_id":"4","last_reported":1722355857,"current_range_meters":19600,"station_id":"ce4bhch2rcd13ifvqeug","pricing_plan_id":"cebpf4jnsgd1na2vs0mg"},{"bike_id":"3bb95615-853a-4f62-ae25-5aa13338f3ca","system_id":"levelo_inurba_marseille","lat":43.2862,"lon":5.35108,"is_reserved":false,"is_disabled":false,"rental_uris":{"android":"levelo://app?vid=3bb95615-853a-4f62-ae25-5aa13338f3ca","ios":"levelo://app?vid=3bb95615-853a-4f62-ae25-5aa13338f3ca"},"vehicle_type_id":"4","last_reported":1722355857,"current_range_meters":9600,"station_id":"ce4bhch2rcd13ifvqeug","pricing_plan_id":"cebpf4jnsgd1na2vs0mg"},{"bike_id":"07e22386-1561-4206-ac83-639f7ee21a79","system_id":"levelo_inurba_marseille","lat":43.28619,"lon":5.35106,"is_reserved":false,"is_disabled":false,"rental_uris":{"android":"levelo://app?vid=07e22386-1561-4206-ac83-639f7ee21a79","ios":"levelo://app?vid=07e22386-1561-4206-ac83-639f7ee21a79"},"vehicle_type_id":"4","last_reported":1722355857,"current_range_meters":14400,"station_id":"ce4bhch2rcd13ifvqeug","pricing_plan_id":"cebpf4jnsgd1na2vs0mg"},{"bike_id":"681671d4-f14e-456d-bdc7-6d08b5c48be9","system_id":"levelo_inurba_marseille","lat":43.285848,"lon":5.350787,"is_reserved":false,"is_disabled":false,"rental_uris":{"android":"levelo://app?vid=681671d4-f14e-456d-bdc7-6d08b5c48be9","ios":"levelo://app?vid=681671d4-f14e-456d-bdc7-6d08b5c48be9"},"vehicle_type_id":"4","last_reported":1722355857,"current_range_meters":0,"station_id":"ce4bhch2rcd13ifvqeug","pricing_plan_id":"cebpf4jnsgd1na2vs0mg"},{"bike_id":"f027aad1-c170-4f2e-9a66-42fd243d894b","system_id":"levelo_inurba_marseille","lat":43.28619,"lon":5.35105,"is_reserved":false,"is_disabled":false,"rental_uris":{"android":"levelo://app?vid=f027aad1-c170-4f2e-9a66-42fd243d894b","ios":"levelo://app?vid=f027aad1-c170-4f2e-9a66-42fd243d894b"},"vehicle_type_id":"4","last_reported":1722355857,"current_range_meters":29600,"station_id":"ce4bhch2rcd13ifvqeug","pricing_plan_id":"cebpf4jnsgd1na2vs0mg"},{"bike_id":"1479c5c4-f1b9-4020-88c3-cb3db6735392","system_id":"levelo_inurba_marseille","lat":43.285856,"lon":5.350771,"is_reserved":false,"is_disabled":false,"rental_uris":{"android":"levelo://app?vid=1479c5c4-f1b9-4020-88c3-cb3db6735392","ios":"levelo://app?vid=1479c5c4-f1b9-4020-88c3-cb3db6735392"},"vehicle_type_id":"4","last_reported":1722355857,"current_range_meters":13200,"station_id":"ce4bhch2rcd13ifvqeug","pricing_plan_id":"cebpf4jnsgd1na2vs0mg"},{"bike_id":"b4794b67-d19d-4703-8489-62fb4e597aa1","system_id":"levelo_inurba_marseille","lat":43.28617,"lon":5.35106,"is_reserved":false,"is_disabled":false,"rental_uris":{"android":"levelo://app?vid=b4794b67-d19d-4703-8489-62fb4e597aa1","ios":"levelo://app?vid=b4794b67-d19d-4703-8489-62fb4e597aa1"},"vehicle_type_id":"4","last_reported":1722355857,"current_range_meters":13200,"station_id":"ce4bhch2rcd13ifvqeug","pricing_plan_id":"cebpf4jnsgd1na2vs0mg"},{"bike_id":"da985a1c-feea-42b8-bbbf-06f9d44a89fe","system_id":"levelo_inurba_marseille","lat":43.285856,"lon":5.350771,"is_reserved":false,"is_disabled":false,"rental_uris":{"android":"levelo://app?vid=da985a1c-feea-42b8-bbbf-06f9d44a89fe","ios":"levelo://app?vid=da985a1c-feea-42b8-bbbf-06f9d44a89fe"},"vehicle_type_id":"4","last_reported":1722355857,"current_range_meters":9200,"station_id":"ce4bhch2rcd13ifvqeug","pricing_plan_id":"cebpf4jnsgd1na2vs0mg"},{"bike_id":"537129e2-ecf9-44e3-a04d-e8d2e49a2995","system_id":"levelo_inurba_marseille","lat":43.28616,"lon":5.35108,"is_reserved":false,"is_disabled":false,"rental_uris":{"android":"levelo://app?vid=537129e2-ecf9-44e3-a04d-e8d2e49a2995","ios":"levelo://app?vid=537129e2-ecf9-44e3-a04d-e8d2e49a2995"},"vehicle_type_id":"4","last_reported":1722355857,"current_range_meters":12000,"station_id":"ce4bhch2rcd13ifvqeug","pricing_plan_id":"cebpf4jnsgd1na2vs0mg"},{"bike_id":"d995437d-3680-44f3-abfb-f4402bf16053","system_id":"levelo_inurba_marseille","lat":43.28616,"lon":5.35105,"is_reserved":false,"is_disabled":false,"rental_uris":{"android":"levelo://app?vid=d995437d-3680-44f3-abfb-f4402bf16053","ios":"levelo://app?vid=d995437d-3680-44f3-abfb-f4402bf16053"},"vehicle_type_id":"4","last_reported":1722355857,"current_range_meters":26800,"station_id":"ce4bhch2rcd13ifvqeug","pricing_plan_id":"cebpf4jnsgd1na2vs0mg"},{"bike_id":"288c8ee9-bf65-4ad9-b5fd-77c40d428f81","system_id":"levelo_inurba_marseille","lat":43.28616,"lon":5.35103,"is_reserved":false,"is_disabled":false,"rental_uris":{"android":"levelo://app?vid=288c8ee9-bf65-4ad9-b5fd-77c40d428f81","ios":"levelo://app?vid=288c8ee9-bf65-4ad9-b5fd-77c40d428f81"},"vehicle_type_id":"4","last_reported":1722355857,"current_range_meters":0,"station_id":"","pricing_plan_id":"cebpf4jnsgd1na2vs0mg"},{"bike_id":"92286914-c2b9-4ee7-9436-5bd08b0561a2","system_id":"levelo_inurba_marseille","lat":43.28615,"lon":5.35106,"is_reserved":false,"is_disabled":false,"rental_uris":{"android":"levelo://app?vid=92286914-c2b9-4ee7-9436-5bd08b0561a2","ios":"levelo://app?vid=92286914-c2b9-4ee7-9436-5bd08b0561a2"},"vehicle_type_id":"4","last_reported":1722355857,"current_range_meters":20000,"station_id":"ce4bhch2rcd13ifvqeug","pricing_plan_id":"cebpf4jnsgd1na2vs0mg"},{"bike_id":"b06a2158-ebdd-414c-a673-c358222e834b","system_id":"levelo_inurba_marseille","lat":43.285848,"lon":5.350787,"is_reserved":false,"is_disabled":false,"rental_uris":{"android":"levelo://app?vid=b06a2158-ebdd-414c-a673-c358222e834b","ios":"levelo://app?vid=b06a2158-ebdd-414c-a673-c358222e834b"},"vehicle_type_id":"4","last_reported":1722355857,"current_range_meters":20400,"station_id":"ce4bhch2rcd13ifvqeug","pricing_plan_id":"cebpf4jnsgd1na2vs0mg"},{"bike_id":"93ebb26b-0527-4962-b67d-3a3a2a215de5","system_id":"levelo_inurba_marseille","lat":43.285856,"lon":5.350771,"is_reserved":false,"is_disabled":false,"rental_uris":{"android":"levelo://app?vid=93ebb26b-0527-4962-b67d-3a3a2a215de5","ios":"levelo://app?vid=93ebb26b-0527-4962-b67d-3a3a2a215de5"},"vehicle_type_id":"4","last_reported":1722355857,"current_range_meters":29600,"station_id":"ce4bhch2rcd13ifvqeug","pricing_plan_id":"cebpf4jnsgd1na2vs0mg"},{"bike_id":"5dc1b522-dcfb-42db-bac3-75b0c72c2e60","system_id":"levelo_inurba_marseille","lat":43.28617,"lon":5.35095,"is_reserved":false,"is_disabled":false,"rental_uris":{"android":"levelo://app?vid=5dc1b522-dcfb-42db-bac3-75b0c72c2e60","ios":"levelo://app?vid=5dc1b522-dcfb-42db-bac3-75b0c72c2e60"},"vehicle_type_id":"4","last_reported":1722355857,"current_range_meters":26000,"station_id":"ce4bhch2rcd13ifvqeug","pricing_plan_id":"cebpf4jnsgd1na2vs0mg"},{"bike_id":"50eadefe-8212-4c03-b68d-caf9352269a4","system_id":"levelo_inurba_marseille","lat":43.285856,"lon":5.350771,"is_reserved":false,"is_disabled":false,"rental_uris":{"android":"levelo://app?vid=50eadefe-8212-4c03-b68d-caf9352269a4","ios":"levelo://app?vid=50eadefe-8212-4c03-b68d-caf9352269a4"},"vehicle_type_id":"4","last_reported":1722355857,"current_range_meters":31200,"station_id":"ce4bhch2rcd13ifvqeug","pricing_plan_id":"cebpf4jnsgd1na2vs0mg"},{"bike_id":"72cc0dac-46f2-4418-9039-eadf6193690f","system_id":"levelo_inurba_marseille","lat":43.285856,"lon":5.350771,"is_reserved":false,"is_disabled":false,"rental_uris":{"android":"levelo://app?vid=72cc0dac-46f2-4418-9039-eadf6193690f","ios":"levelo://app?vid=72cc0dac-46f2-4418-9039-eadf6193690f"},"vehicle_type_id":"4","last_reported":1722355857,"current_range_meters":24800,"station_id":"ce4bhch2rcd13ifvqeug","pricing_plan_id":"cebpf4jnsgd1na2vs0mg"},{"bike_id":"1e027d77-8909-404c-a619-3894b1dba7f6","system_id":"levelo_inurba_marseille","lat":43.285856,"lon":5.350771,"is_reserved":false,"is_disabled":false,"rental_uris":{"android":"levelo://app?vid=1e027d77-8909-404c-a619-3894b1dba7f6","ios":"levelo://app?vid=1e027d77-8909-404c-a619-3894b1dba7f6"},"vehicle_type_id":"4","last_reported":1722355857,"current_range_meters":31200,"station_id":"ce4bhch2rcd13ifvqeug","pricing_plan_id":"cebpf4jnsgd1na2vs0mg"},{"bike_id":"ee5b0730-54fa-4463-b652-673d44ca9db7","system_id":"levelo_inurba_marseille","lat":43.28615,"lon":5.35095,"is_reserved":false,"is_disabled":false,"rental_uris":{"android":"levelo://app?vid=ee5b0730-54fa-4463-b652-673d44ca9db7","ios":"levelo://app?vid=ee5b0730-54fa-4463-b652-673d44ca9db7"},"vehicle_type_id":"4","last_reported":1722355857,"current_range_meters":31200,"station_id":"ce4bhch2rcd13ifvqeug","pricing_plan_id":"cebpf4jnsgd1na2vs0mg"},{"bike_id":"78d54470-6941-4030-b389-24d36a58455d","system_id":"levelo_inurba_marseille","lat":43.285856,"lon":5.350771,"is_reserved":false,"is_disabled":false,"rental_uris":{"android":"levelo://app?vid=78d54470-6941-4030-b389-24d36a58455d","ios":"levelo://app?vid=78d54470-6941-4030-b389-24d36a58455d"},"vehicle_type_id":"4","last_reported":1722355857,"current_range_meters":30000,"station_id":"ce4bhch2rcd13ifvqeug","pricing_plan_id":"cebpf4jnsgd1na2vs0mg"},{"bike_id":"06e4919d-b811-42ce-8022-f12416e57d69","system_id":"levelo_inurba_marseille","lat":43.28613,"lon":5.35099,"is_reserved":false,"is_disabled":false,"rental_uris":{"android":"levelo://app?vid=06e4919d-b811-42ce-8022-f12416e57d69","ios":"levelo://app?vid=06e4919d-b811-42ce-8022-f12416e57d69"},"vehicle_type_id":"4","last_reported":1722355857,"current_range_meters":30800,"station_id":"ce4bhch2rcd13ifvqeug","pricing_plan_id":"cebpf4jnsgd1na2vs0mg"},{"bike_id":"1e6b106a-6a12-4c0b-be08-aa73ec5e7227","system_id":"levelo_inurba_marseille","lat":43.28612,"lon":5.35102,"is_reserved":false,"is_disabled":false,"rental_uris":{"android":"levelo://app?vid=1e6b106a-6a12-4c0b-be08-aa73ec5e7227","ios":"levelo://app?vid=1e6b106a-6a12-4c0b-be08-aa73ec5e7227"},"vehicle_type_id":"4","last_reported":1722355857,"current_range_meters":30000,"station_id":"ce4bhch2rcd13ifvqeug","pricing_plan_id":"cebpf4jnsgd1na2vs0mg"},{"bike_id":"0ae55e2a-026d-4914-821a-906d9d6f73ff","system_id":"levelo_inurba_marseille","lat":43.28613,"lon":5.35098,"is_reserved":false,"is_disabled":false,"rental_uris":{"android":"levelo://app?vid=0ae55e2a-026d-4914-821a-906d9d6f73ff","ios":"levelo://app?vid=0ae55e2a-026d-4914-821a-906d9d6f73ff"},"vehicle_type_id":"4","last_reported":1722355857,"current_range_meters":28000,"station_id":"ce4bhch2rcd13ifvqeug","pricing_plan_id":"cebpf4jnsgd1na2vs0mg"},{"bike_id":"c3cfb6b6-9259-4f51-a445-66d57809177c","system_id":"levelo_inurba_marseille","lat":43.28613,"lon":5.35098,"is_reserved":false,"is_disabled":false,"rental_uris":{"android":"levelo://app?vid=c3cfb6b6-9259-4f51-a445-66d57809177c","ios":"levelo://app?vid=c3cfb6b6-9259-4f51-a445-66d57809177c"},"vehicle_type_id":"4","last_reported":1722355857,"current_range_meters":10800,"station_id":"ce4bhch2rcd13ifvqeug","pricing_plan_id":"cebpf4jnsgd1na2vs0mg"},{"bike_id":"2384023e-9a66-4778-a929-4edffc067435","system_id":"levelo_inurba_marseille","lat":43.283998,"lon":5.375062,"is_reserved":false,"is_disabled":false,"rental_uris":{"android":"levelo://app?vid=2384023e-9a66-4778-a929-4edffc067435","ios":"levelo://app?vid=2384023e-9a66-4778-a929-4edffc067435"},"vehicle_type_id":"4","last_reported":1722355857,"current_range_meters":14400,"station_id":"ce4bh412rcd13ifvqds0","pricing_plan_id":"cebpf4jnsgd1na2vs0mg"},{"bike_id":"757fc4cf-5f08-4de6-bcbe-8796a95ca4ff","system_id":"levelo_inurba_marseille","lat":43.283998,"lon":5.375062,"is_reserved":false,"is_disabled":false,"rental_uris":{"android":"levelo://app?vid=757fc4cf-5f08-4de6-bcbe-8796a95ca4ff","ios":"levelo://app?vid=757fc4cf-5f08-4de6-bcbe-8796a95ca4ff"},"vehicle_type_id":"4","last_reported":1722355857,"current_range_meters":9200,"station_id":"ce4bh412rcd13ifvqds0","pricing_plan_id":"cebpf4jnsgd1na2vs0mg"},{"bike_id":"1878ac00-09bc-405d-9a7b-06af91d5115e","system_id":"levelo_inurba_marseille","lat":43.295713,"lon":5.399639,"is_reserved":false,"is_disabled":false,"rental_uris":{"android":"levelo://app?vid=1878ac00-09bc-405d-9a7b-06af91d5115e","ios":"levelo://app?vid=1878ac00-09bc-405d-9a7b-06af91d5115e"},"vehicle_type_id":"4","last_reported":1722355857,"current_range_meters":0,"station_id":"ce4bh312rcd13ifvqdj0","pricing_plan_id":"cebpf4jnsgd1na2vs0mg"},{"bike_id":"e99d08ac-0e82-407e-b9c9-5827dca653a4","system_id":"levelo_inurba_marseille","lat":43.283998,"lon":5.375062,"is_reserved":false,"is_disabled":false,"rental_uris":{"android":"levelo://app?vid=e99d08ac-0e82-407e-b9c9-5827dca653a4","ios":"levelo://app?vid=e99d08ac-0e82-407e-b9c9-5827dca653a4"},"vehicle_type_id":"4","last_reported":1722355857,"current_range_meters":0,"station_id":"ce4bh412rcd13ifvqds0","pricing_plan_id":"cebpf4jnsgd1na2vs0mg"},{"bike_id":"2a074e3e-a2e9-46b0-af8a-9e29c04a60f0","system_id":"levelo_inurba_marseille","lat":43.295713,"lon":5.399639,"is_reserved":false,"is_disabled":false,"rental_uris":{"android":"levelo://app?vid=2a074e3e-a2e9-46b0-af8a-9e29c04a60f0","ios":"levelo://app?vid=2a074e3e-a2e9-46b0-af8a-9e29c04a60f0"},"vehicle_type_id":"4","last_reported":1722355857,"current_range_meters":0,"station_id":"ce4bh312rcd13ifvqdj0","pricing_plan_id":"cebpf4jnsgd1na2vs0mg"},{"bike_id":"580c8745-93a6-4e2a-ab19-36e3b583e049","system_id":"levelo_inurba_marseille","lat":43.295713,"lon":5.399639,"is_reserved":false,"is_disabled":false,"rental_uris":{"android":"levelo://app?vid=580c8745-93a6-4e2a-ab19-36e3b583e049","ios":"levelo://app?vid=580c8745-93a6-4e2a-ab19-36e3b583e049"},"vehicle_type_id":"4","last_reported":1722355857,"current_range_meters":0,"station_id":"ce4bh312rcd13ifvqdj0","pricing_plan_id":"cebpf4jnsgd1na2vs0mg"},{"bike_id":"4dd62695-6568-41a9-b314-725d0e355190","system_id":"levelo_inurba_marseille","lat":43.295713,"lon":5.399639,"is_reserved":false,"is_disabled":false,"rental_uris":{"android":"levelo://app?vid=4dd62695-6568-41a9-b314-725d0e355190","ios":"levelo://app?vid=4dd62695-6568-41a9-b314-725d0e355190"},"vehicle_type_id":"4","last_reported":1722355857,"current_range_meters":0,"station_id":"ce4bh312rcd13ifvqdj0","pricing_plan_id":"cebpf4jnsgd1na2vs0mg"},{"bike_id":"e2a05e0c-36e9-443a-a836-3053bc01fc57","system_id":"levelo_inurba_marseille","lat":43.319179,"lon":5.407725,"is_reserved":false,"is_disabled":false,"rental_uris":{"android":"levelo://app?vid=e2a05e0c-36e9-443a-a836-3053bc01fc57","ios":"levelo://app?vid=e2a05e0c-36e9-443a-a836-3053bc01fc57"},"vehicle_type_id":"4","last_reported":1722355857,"current_range_meters":4000,"station_id":"ce4bhq12rcd13ifvqhig","pricing_plan_id":"cebpf4jnsgd1na2vs0mg"},{"bike_id":"d166e425-316b-49b3-b15a-0245efe67299","system_id":"levelo_inurba_marseille","lat":43.285856,"lon":5.350771,"is_reserved":false,"is_disabled":false,"rental_uris":{"android":"levelo://app?vid=d166e425-316b-49b3-b15a-0245efe67299","ios":"levelo://app?vid=d166e425-316b-49b3-b15a-0245efe67299"},"vehicle_type_id":"4","last_reported":1722355857,"current_range_meters":30400,"station_id":"ce4bhch2rcd13ifvqeug","pricing_plan_id":"cebpf4jnsgd1na2vs0mg"},{"bike_id":"a71c0e66-828b-4b5f-966e-f2a7b844da67","system_id":"levelo_inurba_marseille","lat":43.337168,"lon":5.391825,"is_reserved":false,"is_disabled":false,"rental_uris":{"android":"levelo://app?vid=a71c0e66-828b-4b5f-966e-f2a7b844da67","ios":"levelo://app?vid=a71c0e66-828b-4b5f-966e-f2a7b844da67"},"vehicle_type_id":"4","last_reported":1722355857,"current_range_meters":16800,"station_id":"ce4bhr92rcd13ifvqhsg","pricing_plan_id":"cebpf4jnsgd1na2vs0mg"},{"bike_id":"b2e70521-0ade-45fc-999b-4925ee595985","system_id":"levelo_inurba_marseille","lat":43.33725,"lon":5.39178,"is_reserved":false,"is_disabled":false,"rental_uris":{"android":"levelo://app?vid=b2e70521-0ade-45fc-999b-4925ee595985","ios":"levelo://app?vid=b2e70521-0ade-45fc-999b-4925ee595985"},"vehicle_type_id":"4","last_reported":1722355857,"current_range_meters":800,"station_id":"ce4bhr92rcd13ifvqhsg","pricing_plan_id":"cebpf4jnsgd1na2vs0mg"},{"bike_id":"cc7a2afa-066b-4e60-96d7-2acaa9bf7ddf","system_id":"levelo_inurba_marseille","lat":43.29795,"lon":5.404086,"is_reserved":false,"is_disabled":false,"rental_uris":{"android":"levelo://app?vid=cc7a2afa-066b-4e60-96d7-2acaa9bf7ddf","ios":"levelo://app?vid=cc7a2afa-066b-4e60-96d7-2acaa9bf7ddf"},"vehicle_type_id":"4","last_reported":1722355857,"current_range_meters":4400,"station_id":"ce4bh112rcd13ifvqd90","pricing_plan_id":"cebpf4jnsgd1na2vs0mg"},{"bike_id":"78eb43fc-bcbf-4f60-8796-0718a87ae9c3","system_id":"levelo_inurba_marseille","lat":43.29795,"lon":5.404086,"is_reserved":false,"is_disabled":false,"rental_uris":{"android":"levelo://app?vid=78eb43fc-bcbf-4f60-8796-0718a87ae9c3","ios":"levelo://app?vid=78eb43fc-bcbf-4f60-8796-0718a87ae9c3"},"vehicle_type_id":"4","last_reported":1722355857,"current_range_meters":12000,"station_id":"ce4bh112rcd13ifvqd90","pricing_plan_id":"cebpf4jnsgd1na2vs0mg"},{"bike_id":"ab78d6fa-7826-4270-8b78-94682d2d6c30","system_id":"levelo_inurba_marseille","lat":43.284776,"lon":5.385603,"is_reserved":false,"is_disabled":false,"rental_uris":{"android":"levelo://app?vid=ab78d6fa-7826-4270-8b78-94682d2d6c30","ios":"levelo://app?vid=ab78d6fa-7826-4270-8b78-94682d2d6c30"},"vehicle_type_id":"4","last_reported":1722355857,"current_range_meters":19200,"station_id":"ce4bh8p2rcd13ifvqeb0","pricing_plan_id":"cebpf4jnsgd1na2vs0mg"},{"bike_id":"24996c05-d1a9-4bee-8b39-cc8506ad0236","system_id":"levelo_inurba_marseille","lat":43.284273,"lon":5.349757,"is_reserved":false,"is_disabled":false,"rental_uris":{"android":"levelo://app?vid=24996c05-d1a9-4bee-8b39-cc8506ad0236","ios":"levelo://app?vid=24996c05-d1a9-4bee-8b39-cc8506ad0236"},"vehicle_type_id":"4","last_reported":1722355857,"current_range_meters":18800,"station_id":"ce4bhbh2rcd13ifvqepg","pricing_plan_id":"cebpf4jnsgd1na2vs0mg"},{"bike_id":"66e5459e-d2cb-4fae-a2bc-80cc88c6b56d","system_id":"levelo_inurba_marseille","lat":43.28421,"lon":5.34995,"is_reserved":false,"is_disabled":false,"rental_uris":{"android":"levelo://app?vid=66e5459e-d2cb-4fae-a2bc-80cc88c6b56d","ios":"levelo://app?vid=66e5459e-d2cb-4fae-a2bc-80cc88c6b56d"},"vehicle_type_id":"4","last_reported":1722355857,"current_range_meters":30400,"station_id":"ce4bhbh2rcd13ifvqepg","pricing_plan_id":"cebpf4jnsgd1na2vs0mg"},{"bike_id":"1857b52a-8cf6-4c76-bf84-d049f7c87293","system_id":"levelo_inurba_marseille","lat":43.284215,"lon":5.349902,"is_reserved":false,"is_disabled":false,"rental_uris":{"android":"levelo://app?vid=1857b52a-8cf6-4c76-bf84-d049f7c87293","ios":"levelo://app?vid=1857b52a-8cf6-4c76-bf84-d049f7c87293"},"vehicle_type_id":"4","last_reported":1722355857,"current_range_meters":31200,"station_id":"ce4bhbh2rcd13ifvqepg","pricing_plan_id":"cebpf4jnsgd1na2vs0mg"},{"bike_id":"4d769d43-4739-48c3-bd9d-2350fea9545e","system_id":"levelo_inurba_marseille","lat":43.28427,"lon":5.34972,"is_reserved":false,"is_disabled":false,"rental_uris":{"android":"levelo://app?vid=4d769d43-4739-48c3-bd9d-2350fea9545e","ios":"levelo://app?vid=4d769d43-4739-48c3-bd9d-2350fea9545e"},"vehicle_type_id":"4","last_reported":1722355857,"current_range_meters":14800,"station_id":"ce4bhbh2rcd13ifvqepg","pricing_plan_id":"cebpf4jnsgd1na2vs0mg"},{"bike_id":"c4106f8b-5b79-44af-a638-ed5f140c9ff0","system_id":"levelo_inurba_marseille","lat":43.28422,"lon":5.34985,"is_reserved":false,"is_disabled":false,"rental_uris":{"android":"levelo://app?vid=c4106f8b-5b79-44af-a638-ed5f140c9ff0","ios":"levelo://app?vid=c4106f8b-5b79-44af-a638-ed5f140c9ff0"},"vehicle_type_id":"4","last_reported":1722355857,"current_range_meters":27200,"station_id":"ce4bhbh2rcd13ifvqepg","pricing_plan_id":"cebpf4jnsgd1na2vs0mg"},{"bike_id":"ac5f0e72-4137-49e8-aa8c-91cc77abba5c","system_id":"levelo_inurba_marseille","lat":43.28424,"lon":5.34976,"is_reserved":false,"is_disabled":false,"rental_uris":{"android":"levelo://app?vid=ac5f0e72-4137-49e8-aa8c-91cc77abba5c","ios":"levelo://app?vid=ac5f0e72-4137-49e8-aa8c-91cc77abba5c"},"vehicle_type_id":"4","last_reported":1722355857,"current_range_meters":20800,"station_id":"","pricing_plan_id":"cebpf4jnsgd1na2vs0mg"},{"bike_id":"c28dbaa0-748f-4261-94ec-de9fc9abfd14","system_id":"levelo_inurba_marseille","lat":43.284214,"lon":5.349706,"is_reserved":false,"is_disabled":false,"rental_uris":{"android":"levelo://app?vid=c28dbaa0-748f-4261-94ec-de9fc9abfd14","ios":"levelo://app?vid=c28dbaa0-748f-4261-94ec-de9fc9abfd14"},"vehicle_type_id":"4","last_reported":1722355857,"current_range_meters":18800,"station_id":"ce4bhbh2rcd13ifvqepg","pricing_plan_id":"cebpf4jnsgd1na2vs0mg"},{"bike_id":"e7e14634-ea6d-4355-964f-6addb910cf9f","system_id":"levelo_inurba_marseille","lat":43.284214,"lon":5.349706,"is_reserved":false,"is_disabled":false,"rental_uris":{"android":"levelo://app?vid=e7e14634-ea6d-4355-964f-6addb910cf9f","ios":"levelo://app?vid=e7e14634-ea6d-4355-964f-6addb910cf9f"},"vehicle_type_id":"4","last_reported":1722355857,"current_range_meters":28800,"station_id":"ce4bhbh2rcd13ifvqepg","pricing_plan_id":"cebpf4jnsgd1na2vs0mg"},{"bike_id":"91374d5a-ecb1-495e-bb19-f6a7e5ba718c","system_id":"levelo_inurba_marseille","lat":43.2842,"lon":5.349825,"is_reserved":false,"is_disabled":false,"rental_uris":{"android":"levelo://app?vid=91374d5a-ecb1-495e-bb19-f6a7e5ba718c","ios":"levelo://app?vid=91374d5a-ecb1-495e-bb19-f6a7e5ba718c"},"vehicle_type_id":"4","last_reported":1722355857,"current_range_meters":10000,"station_id":"ce4bhbh2rcd13ifvqepg","pricing_plan_id":"cebpf4jnsgd1na2vs0mg"},{"bike_id":"218ec7da-45b8-435a-aed3-40f24d9a3d8a","system_id":"levelo_inurba_marseille","lat":43.28418,"lon":5.34988,"is_reserved":false,"is_disabled":false,"rental_uris":{"android":"levelo://app?vid=218ec7da-45b8-435a-aed3-40f24d9a3d8a","ios":"levelo://app?vid=218ec7da-45b8-435a-aed3-40f24d9a3d8a"},"vehicle_type_id":"4","last_reported":1722355857,"current_range_meters":30000,"station_id":"ce4bhbh2rcd13ifvqepg","pricing_plan_id":"cebpf4jnsgd1na2vs0mg"},{"bike_id":"0f5232d2-38db-4048-90ee-729dde9555a3","system_id":"levelo_inurba_marseille","lat":43.28416,"lon":5.34993,"is_reserved":false,"is_disabled":false,"rental_uris":{"android":"levelo://app?vid=0f5232d2-38db-4048-90ee-729dde9555a3","ios":"levelo://app?vid=0f5232d2-38db-4048-90ee-729dde9555a3"},"vehicle_type_id":"4","last_reported":1722355857,"current_range_meters":27600,"station_id":"ce4bhbh2rcd13ifvqepg","pricing_plan_id":"cebpf4jnsgd1na2vs0mg"},{"bike_id":"387af6b1-7749-4cab-8630-cab10639572f","system_id":"levelo_inurba_marseille","lat":43.284217,"lon":5.349697,"is_reserved":false,"is_disabled":false,"rental_uris":{"android":"levelo://app?vid=387af6b1-7749-4cab-8630-cab10639572f","ios":"levelo://app?vid=387af6b1-7749-4cab-8630-cab10639572f"},"vehicle_type_id":"4","last_reported":1722355857,"current_range_meters":32000,"station_id":"ce4bhbh2rcd13ifvqepg","pricing_plan_id":"cebpf4jnsgd1na2vs0mg"},{"bike_id":"e993e51a-c366-4186-b8b7-ad8939f3a829","system_id":"levelo_inurba_marseille","lat":43.284183,"lon":5.349848,"is_reserved":false,"is_disabled":false,"rental_uris":{"android":"levelo://app?vid=e993e51a-c366-4186-b8b7-ad8939f3a829","ios":"levelo://app?vid=e993e51a-c366-4186-b8b7-ad8939f3a829"},"vehicle_type_id":"4","last_reported":1722355857,"current_range_meters":26400,"station_id":"ce4bhbh2rcd13ifvqepg","pricing_plan_id":"cebpf4jnsgd1na2vs0mg"},{"bike_id":"571eeb62-3273-4ed6-9b4d-664476220a74","system_id":"levelo_inurba_marseille","lat":43.28421,"lon":5.34975,"is_reserved":false,"is_disabled":false,"rental_uris":{"android":"levelo://app?vid=571eeb62-3273-4ed6-9b4d-664476220a74","ios":"levelo://app?vid=571eeb62-3273-4ed6-9b4d-664476220a74"},"vehicle_type_id":"4","last_reported":1722355857,"current_range_meters":21600,"station_id":"ce4bhbh2rcd13ifvqepg","pricing_plan_id":"cebpf4jnsgd1na2vs0mg"},{"bike_id":"2e70fde1-ee8b-495f-8a38-0c2933c198f3","system_id":"levelo_inurba_marseille","lat":43.28421,"lon":5.34975,"is_reserved":false,"is_disabled":false,"rental_uris":{"android":"levelo://app?vid=2e70fde1-ee8b-495f-8a38-0c2933c198f3","ios":"levelo://app?vid=2e70fde1-ee8b-495f-8a38-0c2933c198f3"},"vehicle_type_id":"4","last_reported":1722355857,"current_range_meters":15600,"station_id":"ce4bhbh2rcd13ifvqepg","pricing_plan_id":"cebpf4jnsgd1na2vs0mg"},{"bike_id":"f8a0e275-c942-404a-9e8f-83b7898f5cb2","system_id":"levelo_inurba_marseille","lat":43.284217,"lon":5.349697,"is_reserved":false,"is_disabled":false,"rental_uris":{"android":"levelo://app?vid=f8a0e275-c942-404a-9e8f-83b7898f5cb2","ios":"levelo://app?vid=f8a0e275-c942-404a-9e8f-83b7898f5cb2"},"vehicle_type_id":"4","last_reported":1722355857,"current_range_meters":13600,"station_id":"ce4bhbh2rcd13ifvqepg","pricing_plan_id":"cebpf4jnsgd1na2vs0mg"},{"bike_id":"49263073-db00-4e13-bdf0-501adeab9179","system_id":"levelo_inurba_marseille","lat":43.28419,"lon":5.34978,"is_reserved":false,"is_disabled":false,"rental_uris":{"android":"levelo://app?vid=49263073-db00-4e13-bdf0-501adeab9179","ios":"levelo://app?vid=49263073-db00-4e13-bdf0-501adeab9179"},"vehicle_type_id":"4","last_reported":1722355857,"current_range_meters":6800,"station_id":"ce4bhbh2rcd13ifvqepg","pricing_plan_id":"cebpf4jnsgd1na2vs0mg"},{"bike_id":"6d2a1f1c-697d-4da7-901d-61360efd134e","system_id":"levelo_inurba_marseille","lat":43.28415,"lon":5.3499,"is_reserved":false,"is_disabled":false,"rental_uris":{"android":"levelo://app?vid=6d2a1f1c-697d-4da7-901d-61360efd134e","ios":"levelo://app?vid=6d2a1f1c-697d-4da7-901d-61360efd134e"},"vehicle_type_id":"4","last_reported":1722355857,"current_range_meters":28800,"station_id":"ce4bhbh2rcd13ifvqepg","pricing_plan_id":"cebpf4jnsgd1na2vs0mg"},{"bike_id":"7d2c74cd-9334-4e59-aa3a-a2ac2f35eaa8","system_id":"levelo_inurba_marseille","lat":43.28418,"lon":5.3498,"is_reserved":false,"is_disabled":false,"rental_uris":{"android":"levelo://app?vid=7d2c74cd-9334-4e59-aa3a-a2ac2f35eaa8","ios":"levelo://app?vid=7d2c74cd-9334-4e59-aa3a-a2ac2f35eaa8"},"vehicle_type_id":"4","last_reported":1722355857,"current_range_meters":26800,"station_id":"ce4bhbh2rcd13ifvqepg","pricing_plan_id":"cebpf4jnsgd1na2vs0mg"},{"bike_id":"24558342-7d9e-4508-a5c4-e6d7866b437b","system_id":"levelo_inurba_marseille","lat":43.284161,"lon":5.349853,"is_reserved":false,"is_disabled":false,"rental_uris":{"android":"levelo://app?vid=24558342-7d9e-4508-a5c4-e6d7866b437b","ios":"levelo://app?vid=24558342-7d9e-4508-a5c4-e6d7866b437b"},"vehicle_type_id":"4","last_reported":1722355857,"current_range_meters":12000,"station_id":"ce4bhbh2rcd13ifvqepg","pricing_plan_id":"cebpf4jnsgd1na2vs0mg"},{"bike_id":"f4442d9c-72a4-4d12-b9b0-399dc6b92528","system_id":"levelo_inurba_marseille","lat":43.28416,"lon":5.34985,"is_reserved":false,"is_disabled":false,"rental_uris":{"android":"levelo://app?vid=f4442d9c-72a4-4d12-b9b0-399dc6b92528","ios":"levelo://app?vid=f4442d9c-72a4-4d12-b9b0-399dc6b92528"},"vehicle_type_id":"4","last_reported":1722355857,"current_range_meters":16800,"station_id":"ce4bhbh2rcd13ifvqepg","pricing_plan_id":"cebpf4jnsgd1na2vs0mg"},{"bike_id":"721d606a-df8f-45e8-afe0-c7733cd0d68c","system_id":"levelo_inurba_marseille","lat":43.28416,"lon":5.34985,"is_reserved":false,"is_disabled":false,"rental_uris":{"android":"levelo://app?vid=721d606a-df8f-45e8-afe0-c7733cd0d68c","ios":"levelo://app?vid=721d606a-df8f-45e8-afe0-c7733cd0d68c"},"vehicle_type_id":"4","last_reported":1722355857,"current_range_meters":31200,"station_id":"ce4bhbh2rcd13ifvqepg","pricing_plan_id":"cebpf4jnsgd1na2vs0mg"},{"bike_id":"61ec36ee-d652-4276-a699-a09fc0eec589","system_id":"levelo_inurba_marseille","lat":43.284217,"lon":5.349697,"is_reserved":false,"is_disabled":false,"rental_uris":{"android":"levelo://app?vid=61ec36ee-d652-4276-a699-a09fc0eec589","ios":"levelo://app?vid=61ec36ee-d652-4276-a699-a09fc0eec589"},"vehicle_type_id":"4","last_reported":1722355857,"current_range_meters":16400,"station_id":"ce4bhbh2rcd13ifvqepg","pricing_plan_id":"cebpf4jnsgd1na2vs0mg"},{"bike_id":"3af88045-a163-4bf8-9bac-cd840f4c1742","system_id":"levelo_inurba_marseille","lat":43.2842,"lon":5.34971,"is_reserved":false,"is_disabled":false,"rental_uris":{"android":"levelo://app?vid=3af88045-a163-4bf8-9bac-cd840f4c1742","ios":"levelo://app?vid=3af88045-a163-4bf8-9bac-cd840f4c1742"},"vehicle_type_id":"4","last_reported":1722355857,"current_range_meters":8800,"station_id":"ce4bhbh2rcd13ifvqepg","pricing_plan_id":"cebpf4jnsgd1na2vs0mg"},{"bike_id":"46e40419-d35f-4e23-a30a-fa4dee5fe208","system_id":"levelo_inurba_marseille","lat":43.28416,"lon":5.34983,"is_reserved":false,"is_disabled":false,"rental_uris":{"android":"levelo://app?vid=46e40419-d35f-4e23-a30a-fa4dee5fe208","ios":"levelo://app?vid=46e40419-d35f-4e23-a30a-fa4dee5fe208"},"vehicle_type_id":"4","last_reported":1722355857,"current_range_meters":27200,"station_id":"ce4bhbh2rcd13ifvqepg","pricing_plan_id":"cebpf4jnsgd1na2vs0mg"},{"bike_id":"8ee53f57-da5d-444e-b1b8-777f3bbf2e8b","system_id":"levelo_inurba_marseille","lat":43.284217,"lon":5.349697,"is_reserved":false,"is_disabled":false,"rental_uris":{"android":"levelo://app?vid=8ee53f57-da5d-444e-b1b8-777f3bbf2e8b","ios":"levelo://app?vid=8ee53f57-da5d-444e-b1b8-777f3bbf2e8b"},"vehicle_type_id":"4","last_reported":1722355857,"current_range_meters":32000,"station_id":"ce4bhbh2rcd13ifvqepg","pricing_plan_id":"cebpf4jnsgd1na2vs0mg"},{"bike_id":"70e2c289-f451-47b9-aae2-41e25694ab3c","system_id":"levelo_inurba_marseille","lat":43.28417,"lon":5.34978,"is_reserved":false,"is_disabled":false,"rental_uris":{"android":"levelo://app?vid=70e2c289-f451-47b9-aae2-41e25694ab3c","ios":"levelo://app?vid=70e2c289-f451-47b9-aae2-41e25694ab3c"},"vehicle_type_id":"4","last_reported":1722355857,"current_range_meters":14400,"station_id":"ce4bhbh2rcd13ifvqepg","pricing_plan_id":"cebpf4jnsgd1na2vs0mg"},{"bike_id":"506ae3cc-f4d0-49c7-a905-ededb0327544","system_id":"levelo_inurba_marseille","lat":43.28418,"lon":5.34973,"is_reserved":false,"is_disabled":false,"rental_uris":{"android":"levelo://app?vid=506ae3cc-f4d0-49c7-a905-ededb0327544","ios":"levelo://app?vid=506ae3cc-f4d0-49c7-a905-ededb0327544"},"vehicle_type_id":"4","last_reported":1722355857,"current_range_meters":6000,"station_id":"ce4bhbh2rcd13ifvqepg","pricing_plan_id":"cebpf4jnsgd1na2vs0mg"},{"bike_id":"a7613f88-85b3-4874-be73-86cafde32652","system_id":"levelo_inurba_marseille","lat":43.28415,"lon":5.34981,"is_reserved":false,"is_disabled":false,"rental_uris":{"android":"levelo://app?vid=a7613f88-85b3-4874-be73-86cafde32652","ios":"levelo://app?vid=a7613f88-85b3-4874-be73-86cafde32652"},"vehicle_type_id":"4","last_reported":1722355857,"current_range_meters":27200,"station_id":"ce4bhbh2rcd13ifvqepg","pricing_plan_id":"cebpf4jnsgd1na2vs0mg"},{"bike_id":"1b3c04d4-1663-446e-8708-24565076026b","system_id":"levelo_inurba_marseille","lat":43.28414,"lon":5.34983,"is_reserved":false,"is_disabled":false,"rental_uris":{"android":"levelo://app?vid=1b3c04d4-1663-446e-8708-24565076026b","ios":"levelo://app?vid=1b3c04d4-1663-446e-8708-24565076026b"},"vehicle_type_id":"4","last_reported":1722355857,"current_range_meters":12800,"station_id":"ce4bhbh2rcd13ifvqepg","pricing_plan_id":"cebpf4jnsgd1na2vs0mg"},{"bike_id":"51ab3421-cc8b-40e6-a7ab-53ac7fea2400","system_id":"levelo_inurba_marseille","lat":43.284107,"lon":5.349908,"is_reserved":false,"is_disabled":false,"rental_uris":{"android":"levelo://app?vid=51ab3421-cc8b-40e6-a7ab-53ac7fea2400","ios":"levelo://app?vid=51ab3421-cc8b-40e6-a7ab-53ac7fea2400"},"vehicle_type_id":"4","last_reported":1722355857,"current_range_meters":0,"station_id":"ce4bhbh2rcd13ifvqepg","pricing_plan_id":"cebpf4jnsgd1na2vs0mg"},{"bike_id":"315feb84-1a43-4e90-82ff-9570163361b6","system_id":"levelo_inurba_marseille","lat":43.28416,"lon":5.34974,"is_reserved":false,"is_disabled":false,"rental_uris":{"android":"levelo://app?vid=315feb84-1a43-4e90-82ff-9570163361b6","ios":"levelo://app?vid=315feb84-1a43-4e90-82ff-9570163361b6"},"vehicle_type_id":"4","last_reported":1722355857,"current_range_meters":24000,"station_id":"ce4bhbh2rcd13ifvqepg","pricing_plan_id":"cebpf4jnsgd1na2vs0mg"},{"bike_id":"ee0e59af-c2f3-40f2-9417-522b8d726c0c","system_id":"levelo_inurba_marseille","lat":43.28414,"lon":5.34974,"is_reserved":false,"is_disabled":false,"rental_uris":{"android":"levelo://app?vid=ee0e59af-c2f3-40f2-9417-522b8d726c0c","ios":"levelo://app?vid=ee0e59af-c2f3-40f2-9417-522b8d726c0c"},"vehicle_type_id":"4","last_reported":1722355857,"current_range_meters":4400,"station_id":"ce4bhbh2rcd13ifvqepg","pricing_plan_id":"cebpf4jnsgd1na2vs0mg"},{"bike_id":"e44232b5-9c27-4bbb-83fd-984bae82a2b4","system_id":"levelo_inurba_marseille","lat":43.28412,"lon":5.34978,"is_reserved":false,"is_disabled":false,"rental_uris":{"android":"levelo://app?vid=e44232b5-9c27-4bbb-83fd-984bae82a2b4","ios":"levelo://app?vid=e44232b5-9c27-4bbb-83fd-984bae82a2b4"},"vehicle_type_id":"4","last_reported":1722355857,"current_range_meters":14400,"station_id":"ce4bhbh2rcd13ifvqepg","pricing_plan_id":"cebpf4jnsgd1na2vs0mg"},{"bike_id":"9ddce8e1-b274-4393-9328-8b7ff85ed567","system_id":"levelo_inurba_marseille","lat":43.28409,"lon":5.34987,"is_reserved":false,"is_disabled":false,"rental_uris":{"android":"levelo://app?vid=9ddce8e1-b274-4393-9328-8b7ff85ed567","ios":"levelo://app?vid=9ddce8e1-b274-4393-9328-8b7ff85ed567"},"vehicle_type_id":"4","last_reported":1722355857,"current_range_meters":24000,"station_id":"ce4bhbh2rcd13ifvqepg","pricing_plan_id":"cebpf4jnsgd1na2vs0mg"},{"bike_id":"ce569411-6b2e-4aac-946a-d4791e2dd3d3","system_id":"levelo_inurba_marseille","lat":43.28414,"lon":5.3497,"is_reserved":false,"is_disabled":false,"rental_uris":{"android":"levelo://app?vid=ce569411-6b2e-4aac-946a-d4791e2dd3d3","ios":"levelo://app?vid=ce569411-6b2e-4aac-946a-d4791e2dd3d3"},"vehicle_type_id":"4","last_reported":1722355857,"current_range_meters":17600,"station_id":"ce4bhbh2rcd13ifvqepg","pricing_plan_id":"cebpf4jnsgd1na2vs0mg"},{"bike_id":"727eaf59-a782-4051-a37b-74488665f57d","system_id":"levelo_inurba_marseille","lat":43.2841,"lon":5.34978,"is_reserved":false,"is_disabled":false,"rental_uris":{"android":"levelo://app?vid=727eaf59-a782-4051-a37b-74488665f57d","ios":"levelo://app?vid=727eaf59-a782-4051-a37b-74488665f57d"},"vehicle_type_id":"4","last_reported":1722355857,"current_range_meters":28000,"station_id":"ce4bhbh2rcd13ifvqepg","pricing_plan_id":"cebpf4jnsgd1na2vs0mg"},{"bike_id":"bb3a6ae7-021b-4b51-b2d8-bb57a6b50c9d","system_id":"levelo_inurba_marseille","lat":43.284214,"lon":5.349706,"is_reserved":false,"is_disabled":false,"rental_uris":{"android":"levelo://app?vid=bb3a6ae7-021b-4b51-b2d8-bb57a6b50c9d","ios":"levelo://app?vid=bb3a6ae7-021b-4b51-b2d8-bb57a6b50c9d"},"vehicle_type_id":"4","last_reported":1722355857,"current_range_meters":10400,"station_id":"ce4bhbh2rcd13ifvqepg","pricing_plan_id":"cebpf4jnsgd1na2vs0mg"},{"bike_id":"0e53cde6-baa9-444e-a2f1-1d679737390d","system_id":"levelo_inurba_marseille","lat":43.28406,"lon":5.349905,"is_reserved":false,"is_disabled":false,"rental_uris":{"android":"levelo://app?vid=0e53cde6-baa9-444e-a2f1-1d679737390d","ios":"levelo://app?vid=0e53cde6-baa9-444e-a2f1-1d679737390d"},"vehicle_type_id":"4","last_reported":1722355857,"current_range_meters":30400,"station_id":"ce4bhbh2rcd13ifvqepg","pricing_plan_id":"cebpf4jnsgd1na2vs0mg"},{"bike_id":"1d8dca34-0980-4b30-b220-bcb133bf472d","system_id":"levelo_inurba_marseille","lat":43.284214,"lon":5.349706,"is_reserved":false,"is_disabled":false,"rental_uris":{"android":"levelo://app?vid=1d8dca34-0980-4b30-b220-bcb133bf472d","ios":"levelo://app?vid=1d8dca34-0980-4b30-b220-bcb133bf472d"},"vehicle_type_id":"4","last_reported":1722355857,"current_range_meters":4800,"station_id":"ce4bhbh2rcd13ifvqepg","pricing_plan_id":"cebpf4jnsgd1na2vs0mg"},{"bike_id":"391aaab9-3b84-4ace-8f7d-189035f3cbee","system_id":"levelo_inurba_marseille","lat":43.284088,"lon":5.349792,"is_reserved":false,"is_disabled":false,"rental_uris":{"android":"levelo://app?vid=391aaab9-3b84-4ace-8f7d-189035f3cbee","ios":"levelo://app?vid=391aaab9-3b84-4ace-8f7d-189035f3cbee"},"vehicle_type_id":"4","last_reported":1722355857,"current_range_meters":13600,"station_id":"ce4bhbh2rcd13ifvqepg","pricing_plan_id":"cebpf4jnsgd1na2vs0mg"},{"bike_id":"d2fb352d-d0e8-41ed-a080-1dc24d3d654b","system_id":"levelo_inurba_marseille","lat":43.284214,"lon":5.349706,"is_reserved":false,"is_disabled":false,"rental_uris":{"android":"levelo://app?vid=d2fb352d-d0e8-41ed-a080-1dc24d3d654b","ios":"levelo://app?vid=d2fb352d-d0e8-41ed-a080-1dc24d3d654b"},"vehicle_type_id":"4","last_reported":1722355857,"current_range_meters":17600,"station_id":"ce4bhbh2rcd13ifvqepg","pricing_plan_id":"cebpf4jnsgd1na2vs0mg"},{"bike_id":"8d1ea3b8-704d-42ae-9231-365ba66d0282","system_id":"levelo_inurba_marseille","lat":43.28408,"lon":5.34959,"is_reserved":false,"is_disabled":false,"rental_uris":{"android":"levelo://app?vid=8d1ea3b8-704d-42ae-9231-365ba66d0282","ios":"levelo://app?vid=8d1ea3b8-704d-42ae-9231-365ba66d0282"},"vehicle_type_id":"4","last_reported":1722355857,"current_range_meters":7200,"station_id":"ce4bhbh2rcd13ifvqepg","pricing_plan_id":"cebpf4jnsgd1na2vs0mg"},{"bike_id":"76ff4706-746c-4e62-949a-befb2ad252e8","system_id":"levelo_inurba_marseille","lat":43.282744,"lon":5.350533,"is_reserved":false,"is_disabled":false,"rental_uris":{"android":"levelo://app?vid=76ff4706-746c-4e62-949a-befb2ad252e8","ios":"levelo://app?vid=76ff4706-746c-4e62-949a-befb2ad252e8"},"vehicle_type_id":"4","last_reported":1722355857,"current_range_meters":31200,"station_id":"ce4bhbp2rcd13ifvqerg","pricing_plan_id":"cebpf4jnsgd1na2vs0mg"},{"bike_id":"a9f19adc-ba2c-41a8-94e7-3048e06d3dd1","system_id":"levelo_inurba_marseille","lat":43.282744,"lon":5.350533,"is_reserved":false,"is_disabled":false,"rental_uris":{"android":"levelo://app?vid=a9f19adc-ba2c-41a8-94e7-3048e06d3dd1","ios":"levelo://app?vid=a9f19adc-ba2c-41a8-94e7-3048e06d3dd1"},"vehicle_type_id":"4","last_reported":1722355857,"current_range_meters":31200,"station_id":"ce4bhbp2rcd13ifvqerg","pricing_plan_id":"cebpf4jnsgd1na2vs0mg"},{"bike_id":"af1a8488-15f7-40a8-98f1-920c6c345395","system_id":"levelo_inurba_marseille","lat":43.282744,"lon":5.350533,"is_reserved":false,"is_disabled":false,"rental_uris":{"android":"levelo://app?vid=af1a8488-15f7-40a8-98f1-920c6c345395","ios":"levelo://app?vid=af1a8488-15f7-40a8-98f1-920c6c345395"},"vehicle_type_id":"4","last_reported":1722355857,"current_range_meters":30400,"station_id":"ce4bhbp2rcd13ifvqerg","pricing_plan_id":"cebpf4jnsgd1na2vs0mg"},{"bike_id":"7946e8c7-6c37-41ec-ac67-59be3c9ddb0f","system_id":"levelo_inurba_marseille","lat":43.282754,"lon":5.350519,"is_reserved":false,"is_disabled":false,"rental_uris":{"android":"levelo://app?vid=7946e8c7-6c37-41ec-ac67-59be3c9ddb0f","ios":"levelo://app?vid=7946e8c7-6c37-41ec-ac67-59be3c9ddb0f"},"vehicle_type_id":"4","last_reported":1722355857,"current_range_meters":19600,"station_id":"ce4bhbp2rcd13ifvqerg","pricing_plan_id":"cebpf4jnsgd1na2vs0mg"},{"bike_id":"b05ef7d6-1f89-41ae-bc84-06d1ba6a6313","system_id":"levelo_inurba_marseille","lat":43.28274,"lon":5.35068,"is_reserved":false,"is_disabled":false,"rental_uris":{"android":"levelo://app?vid=b05ef7d6-1f89-41ae-bc84-06d1ba6a6313","ios":"levelo://app?vid=b05ef7d6-1f89-41ae-bc84-06d1ba6a6313"},"vehicle_type_id":"4","last_reported":1722355857,"current_range_meters":0,"station_id":"ce4bhbp2rcd13ifvqerg","pricing_plan_id":"cebpf4jnsgd1na2vs0mg"},{"bike_id":"b808c5c7-bbaa-4f36-91f0-b23846aef94f","system_id":"levelo_inurba_marseille","lat":43.282744,"lon":5.350533,"is_reserved":false,"is_disabled":false,"rental_uris":{"android":"levelo://app?vid=b808c5c7-bbaa-4f36-91f0-b23846aef94f","ios":"levelo://app?vid=b808c5c7-bbaa-4f36-91f0-b23846aef94f"},"vehicle_type_id":"4","last_reported":1722355857,"current_range_meters":30800,"station_id":"ce4bhbp2rcd13ifvqerg","pricing_plan_id":"cebpf4jnsgd1na2vs0mg"},{"bike_id":"6ee08397-5bab-41f9-aa6d-559f3f51de31","system_id":"levelo_inurba_marseille","lat":43.282744,"lon":5.350533,"is_reserved":false,"is_disabled":false,"rental_uris":{"android":"levelo://app?vid=6ee08397-5bab-41f9-aa6d-559f3f51de31","ios":"levelo://app?vid=6ee08397-5bab-41f9-aa6d-559f3f51de31"},"vehicle_type_id":"4","last_reported":1722355857,"current_range_meters":0,"station_id":"ce4bhbp2rcd13ifvqerg","pricing_plan_id":"cebpf4jnsgd1na2vs0mg"},{"bike_id":"dd4c151f-d319-492e-90ba-04b93897191b","system_id":"levelo_inurba_marseille","lat":43.2827,"lon":5.35065,"is_reserved":false,"is_disabled":false,"rental_uris":{"android":"levelo://app?vid=dd4c151f-d319-492e-90ba-04b93897191b","ios":"levelo://app?vid=dd4c151f-d319-492e-90ba-04b93897191b"},"vehicle_type_id":"4","last_reported":1722355857,"current_range_meters":1600,"station_id":"ce4bhbp2rcd13ifvqerg","pricing_plan_id":"cebpf4jnsgd1na2vs0mg"},{"bike_id":"e98ed9d4-586b-4359-a574-0640b1f9e949","system_id":"levelo_inurba_marseille","lat":43.282744,"lon":5.350533,"is_reserved":false,"is_disabled":false,"rental_uris":{"android":"levelo://app?vid=e98ed9d4-586b-4359-a574-0640b1f9e949","ios":"levelo://app?vid=e98ed9d4-586b-4359-a574-0640b1f9e949"},"vehicle_type_id":"4","last_reported":1722355857,"current_range_meters":21200,"station_id":"ce4bhbp2rcd13ifvqerg","pricing_plan_id":"cebpf4jnsgd1na2vs0mg"},{"bike_id":"eeae189d-8144-4fa6-bc31-aa9f4fc5f698","system_id":"levelo_inurba_marseille","lat":43.28271,"lon":5.35061,"is_reserved":false,"is_disabled":false,"rental_uris":{"android":"levelo://app?vid=eeae189d-8144-4fa6-bc31-aa9f4fc5f698","ios":"levelo://app?vid=eeae189d-8144-4fa6-bc31-aa9f4fc5f698"},"vehicle_type_id":"4","last_reported":1722355857,"current_range_meters":26000,"station_id":"ce4bhbp2rcd13ifvqerg","pricing_plan_id":"cebpf4jnsgd1na2vs0mg"},{"bike_id":"21b52d10-4ab4-4393-88d9-affc2ab69c24","system_id":"levelo_inurba_marseille","lat":43.2827,"lon":5.35063,"is_reserved":false,"is_disabled":false,"rental_uris":{"android":"levelo://app?vid=21b52d10-4ab4-4393-88d9-affc2ab69c24","ios":"levelo://app?vid=21b52d10-4ab4-4393-88d9-affc2ab69c24"},"vehicle_type_id":"4","last_reported":1722355857,"current_range_meters":21600,"station_id":"ce4bhbp2rcd13ifvqerg","pricing_plan_id":"cebpf4jnsgd1na2vs0mg"},{"bike_id":"67c0019f-5256-4bce-81b8-3278565884d6","system_id":"levelo_inurba_marseille","lat":43.28271,"lon":5.35058,"is_reserved":false,"is_disabled":false,"rental_uris":{"android":"levelo://app?vid=67c0019f-5256-4bce-81b8-3278565884d6","ios":"levelo://app?vid=67c0019f-5256-4bce-81b8-3278565884d6"},"vehicle_type_id":"4","last_reported":1722355857,"current_range_meters":15600,"station_id":"ce4bhbp2rcd13ifvqerg","pricing_plan_id":"cebpf4jnsgd1na2vs0mg"},{"bike_id":"1ad59b82-24ab-4704-bc9d-a41f21d0e962","system_id":"levelo_inurba_marseille","lat":43.282744,"lon":5.350533,"is_reserved":false,"is_disabled":false,"rental_uris":{"android":"levelo://app?vid=1ad59b82-24ab-4704-bc9d-a41f21d0e962","ios":"levelo://app?vid=1ad59b82-24ab-4704-bc9d-a41f21d0e962"},"vehicle_type_id":"4","last_reported":1722355857,"current_range_meters":31200,"station_id":"ce4bhbp2rcd13ifvqerg","pricing_plan_id":"cebpf4jnsgd1na2vs0mg"},{"bike_id":"eac46d6a-8c67-4f6d-b202-7a93ac5ea05c","system_id":"levelo_inurba_marseille","lat":43.282754,"lon":5.350519,"is_reserved":false,"is_disabled":false,"rental_uris":{"android":"levelo://app?vid=eac46d6a-8c67-4f6d-b202-7a93ac5ea05c","ios":"levelo://app?vid=eac46d6a-8c67-4f6d-b202-7a93ac5ea05c"},