{"last_updated":1751753354,"ttl":60,"version":"2.2","data":{"bikes":[{"bike_id":"3da29fb8-fc97-44c6-b9ac-31dd456b2fd4","system_id":"levelo_inurba_marseille","lat":43.33771,"lon":5.37424,"is_reserved":false,"is_disabled":true,"rental_uris":{"android":"levelo://app?vid=3da29fb8-fc97-44c6-b9ac-31dd456b2fd4","ios":"levelo://app?vid=3da29fb8-fc97-44c6-b9ac-31dd456b2fd4"},"vehicle_type_id":"4","last_reported":1751753354,"current_range_meters":0,"station_id":"","pricing_plan_id":"cebpf4jnsgd1na2vs0mg"},{"bike_id":"01861ad8-a8d7-4be6-816e-651927c87584","system_id":"levelo_inurba_marseille","lat":43.33751,"lon":5.37456,"is_reserved":false,"is_disabled":true,"rental_uris":{"android":"levelo://app?vid=01861ad8-a8d7-4be6-816e-651927c87584","ios":"levelo://app?vid=01861ad8-a8d7-4be6-816e-651927c87584"},"vehicle_type_id":"4","last_reported":1751753354,"current_range_meters":0,"station_id":"","pricing_plan_id":"cebpf4jnsgd1na2vs0mg"},{"bike_id":"48b47ef6-8eef-4577-8012-85f3dd71899b","system_id":"levelo_inurba_marseille","lat":43.30213,"lon":5.39962,"is_reserved":false,"is_disabled":true,"rental_uris":{"android":"levelo://app?vid=48b47ef6-8eef-4577-8012-85f3dd71899b","ios":"levelo://app?vid=48b47ef6-8eef-4577-8012-85f3dd71899b"},"vehicle_type_id":"4","last_reported":1751753354,"current_range_meters":0,"station_id":"","pricing_plan_id":"cebpf4jnsgd1na2vs0mg"},{"bike_id":"1c57a3c7-1fe2-49b4-93b2-29842e960d9b","system_id":"levelo_inurba_marseille","lat":43.25422,"lon":5.38147,"is_reserved":false,"is_disabled":true,"rental_uris":{"android":"levelo://app?vid=1c57a3c7-1fe2-49b4-93b2-29842e960d9b","ios":"levelo://app?vid=1c57a3c7-1fe2-49b4-93b2-29842e960d9b"},"vehicle_type_id":"4","last_reported":1751753354,"current_range_meters":0,"station_id":"","pricing_plan_id":"cebpf4jnsgd1na2vs0mg"},{"bike_id":"cddb5251-270f-404e-b73c-121bbad16e06","system_id":"levelo_inurba_marseille","lat":43.31169,"lon":5.3871,"is_reserved":false,"is_disabled":true,"rental_uris":{"android":"levelo://app?vid=cddb5251-270f-404e-b73c-121bbad16e06","ios":"levelo://app?vid=cddb5251-270f-404e-b73c-121bbad16e06"},"vehicle_type_id":"4","last_reported":1751753354,"current_range_meters":0,"station_id":"ce4bgv12rcd13ifvqcp0","pricing_plan_id":"cebpf4jnsgd1na2vs0mg"},{"bike_id":"30069dda-7031-4d02-b8e7-ede7522710df","system_id":"levelo_inurba_marseille","lat":43.28354,"lon":5.38104,"is_reserved":false,"is_disabled":true,"rental_uris":{"android":"levelo://app?vid=30069dda-7031-4d02-b8e7-ede7522710df","ios":"levelo://app?vid=30069dda-7031-4d02-b8e7-ede7522710df"},"vehicle_type_id":"4","last_reported":1751753354,"current_range_meters":0,"station_id":"ce4bh412rcd13ifvqdr0","pricing_plan_id":"cebpf4jnsgd1na2vs0mg"},{"bike_id":"39693fb7-b118-419f-a5b0-5cc374a772ee","system_id":"levelo_inurba_marseille","lat":43.28492,"lon":5.38421,"is_reserved":false,"is_disabled":true,"rental_uris":{"android":"levelo://app?vid=39693fb7-b118-419f-a5b0-5cc374a772ee","ios":"levelo://app?vid=39693fb7-b118-419f-a5b0-5cc374a772ee"},"vehicle_type_id":"4","last_reported":1751753354,"current_range_meters":0,"station_id":"ce4bh512rcd13ifvqe3g","pricing_plan_id":"cebpf4jnsgd1na2vs0mg"},{"bike_id":"0c49a7d6-f9db-4a6c-978f-71d3ca86d4a3","system_id":"levelo_inurba_marseille","lat":43.22494,"lon":5.34794,"is_reserved":false,"is_disabled":true,"rental_uris":{"android":"levelo://app?vid=0c49a7d6-f9db-4a6c-978f-71d3ca86d4a3","ios":"levelo://app?vid=0c49a7d6-f9db-4a6c-978f-71d3ca86d4a3"},"vehicle_type_id":"4","last_reported":1751753354,"current_range_meters":0,"station_id":"st_cvj5dfep6f1abm77gieg","pricing_plan_id":"cebpf4jnsgd1na2vs0mg"},{"bike_id":"5240e08b-5c3c-46db-b468-bc09499746d4","system_id":"levelo_inurba_marseille","lat":43.286186,"lon":5.351067,"is_reserved":false,"is_disabled":true,"rental_uris":{"android":"levelo://app?vid=5240e08b-5c3c-46db-b468-bc09499746d4","ios":"levelo://app?vid=5240e08b-5c3c-46db-b468-bc09499746d4"},"vehicle_type_id":"4","last_reported":1751753354,"current_range_meters":400,"station_id":"ce4bhch2rcd13ifvqeug","pricing_plan_id":"cebpf4jnsgd1na2vs0mg"},{"bike_id":"262d0b98-5b39-4eff-8d56-9ccb98d97f75","system_id":"levelo_inurba_marseille","lat":43.25866,"lon":5.39905,"is_reserved":false,"is_disabled":true,"rental_uris":{"android":"levelo://app?vid=262d0b98-5b39-4eff-8d56-9ccb98d97f75","ios":"levelo://app?vid=262d0b98-5b39-4eff-8d56-9ccb98d97f75"},"vehicle_type_id":"4","last_reported":1751753354,"current_range_meters":400,"station_id":"ce4bhl92rcd13ifvqghg","pricing_plan_id":"cebpf4jnsgd1na2vs0mg"},{"bike_id":"9bfc7d3d-4e60-4f8a-9c32-ef3d0e77ec5b","system_id":"levelo_inurba_marseille","lat":43.21186,"lon":5.35078,"is_reserved":false,"is_disabled":true,"rental_uris":{"android":"levelo://app?vid=9bfc7d3d-4e60-4f8a-9c32-ef3d0e77ec5b","ios":"levelo://app?vid=9bfc7d3d-4e60-4f8a-9c32-ef3d0e77ec5b"},"vehicle_type_id":"4","last_reported":1751753354,"current_range_meters":400,"station_id":"st_cvj6sg6p6f1abm77japg","pricing_plan_id":"cebpf4jnsgd1na2vs0mg"},{"bike_id":"aba35d18-7210-4024-9bd8-7239e12e7aff","system_id":"levelo_inurba_marseille","lat":43.25497,"lon":5.37675,"is_reserved":false,"is_disabled":true,"rental_uris":{"android":"levelo://app?vid=aba35d18-7210-4024-9bd8-7239e12e7aff","ios":"levelo://app?vid=aba35d18-7210-4024-9bd8-7239e12e7aff"},"vehicle_type_id":"4","last_reported":1751753354,"current_range_meters":800,"station_id":"ce4bhh12rcd13ifvqff0","pricing_plan_id":"cebpf4jnsgd1na2vs0mg"},{"bike_id":"3d62e185-127e-44f4-854b-434b8e620c52","system_id":"levelo_inurba_marseille","lat":43.250824,"lon":5.39524,"is_reserved":false,"is_disabled":true,"rental_uris":{"android":"levelo://app?vid=3d62e185-127e-44f4-854b-434b8e620c52","ios":"levelo://app?vid=3d62e185-127e-44f4-854b-434b8e620c52"},"vehicle_type_id":"4","last_reported":1751753354,"current_range_meters":800,"station_id":"ce4bhm12rcd13ifvqgkg","pricing_plan_id":"cebpf4jnsgd1na2vs0mg"},{"bike_id":"ac88a006-2be6-4197-b278-d14985c64a70","system_id":"levelo_inurba_marseille","lat":43.309326,"lon":5.401391,"is_reserved":false,"is_disabled":true,"rental_uris":{"android":"levelo://app?vid=ac88a006-2be6-4197-b278-d14985c64a70","ios":"levelo://app?vid=ac88a006-2be6-4197-b278-d14985c64a70"},"vehicle_type_id":"4","last_reported":1751753354,"current_range_meters":1200,"station_id":"","pricing_plan_id":"cebpf4jnsgd1na2vs0mg"},{"bike_id":"5bebfab4-03ec-42b4-bdae-affebf9e9584","system_id":"levelo_inurba_marseille","lat":43.295308,"lon":5.375068,"is_reserved":false,"is_disabled":true,"rental_uris":{"android":"levelo://app?vid=5bebfab4-03ec-42b4-bdae-affebf9e9584","ios":"levelo://app?vid=5bebfab4-03ec-42b4-bdae-affebf9e9584"},"vehicle_type_id":"4","last_reported":1751753354,"current_range_meters":1200,"station_id":"ce4bgi12rcd13ifvqb70","pricing_plan_id":"cebpf4jnsgd1na2vs0mg"},{"bike_id":"deb8371c-a65e-4535-b294-4f85e0a23a52","system_id":"levelo_inurba_marseille","lat":43.28666,"lon":5.36338,"is_reserved":false,"is_disabled":true,"rental_uris":{"android":"levelo://app?vid=deb8371c-a65e-4535-b294-4f85e0a23a52","ios":"levelo://app?vid=deb8371c-a65e-4535-b294-4f85e0a23a52"},"vehicle_type_id":"4","last_reported":1751753354,"current_range_meters":1200,"station_id":"ce4bhah2rcd13ifvqej0","pricing_plan_id":"cebpf4jnsgd1na2vs0mg"},{"bike_id":"6ee80a1f-98d1-4c55-9b20-e8f1bed52cbc","system_id":"levelo_inurba_marseille","lat":43.26143,"lon":5.37505,"is_reserved":false,"is_disabled":true,"rental_uris":{"android":"levelo://app?vid=6ee80a1f-98d1-4c55-9b20-e8f1bed52cbc","ios":"levelo://app?vid=6ee80a1f-98d1-4c55-9b20-e8f1bed52cbc"},"vehicle_type_id":"4","last_reported":1751753354,"current_range_meters":1600,"station_id":"","pricing_plan_id":"cebpf4jnsgd1na2vs0mg"},{"bike_id":"d1444e94-489f-4fa9-9e06-4bdf6ba47149","system_id":"levelo_inurba_marseille","lat":43.22535,"lon":5.34834,"is_reserved":false,"is_disabled":true,"rental_uris":{"android":"levelo://app?vid=d1444e94-489f-4fa9-9e06-4bdf6ba47149","ios":"levelo://app?vid=d1444e94-489f-4fa9-9e06-4bdf6ba47149"},"vehicle_type_id":"4","last_reported":1751753354,"current_range_meters":2000,"station_id":"","pricing_plan_id":"cebpf4jnsgd1na2vs0mg"},{"bike_id":"fad2b76c-bdc3-4749-8c79-c64e71ec2f14","system_id":"levelo_inurba_marseille","lat":43.279299,"lon":5.396066,"is_reserved":false,"is_disabled":true,"rental_uris":{"android":"levelo://app?vid=fad2b76c-bdc3-4749-8c79-c64e71ec2f14","ios":"levelo://app?vid=fad2b76c-bdc3-4749-8c79-c64e71ec2f14"},"vehicle_type_id":"4","last_reported":1751753354,"current_range_meters":2000,"station_id":"ce4bhf92rcd13ifvqf40","pricing_plan_id":"cebpf4jnsgd1na2vs0mg"},{"bike_id":"381722d1-08e5-4bbe-a714-88b5f95e6bef","system_id":"levelo_inurba_marseille","lat":43.23192,"lon":5.35553,"is_reserved":false,"is_disabled":false,"rental_uris":{"android":"levelo://app?vid=381722d1-08e5-4bbe-a714-88b5f95e6bef","ios":"levelo://app?vid=381722d1-08e5-4bbe-a714-88b5f95e6bef"},"vehicle_type_id":"4","last_reported":1751753354,"current_range_meters":2000,"station_id":"ce4bhu92rcd13ifvqi70","pricing_plan_id":"cebpf4jnsgd1na2vs0mg"},{"bike_id":"9f6054bf-b2e1-4232-a602-bee9c35c4255","system_id":"levelo_inurba_marseille","lat":43.28678,"lon":5.38657,"is_reserved":false,"is_disabled":true,"rental_uris":{"android":"levelo://app?vid=9f6054bf-b2e1-4232-a602-bee9c35c4255","ios":"levelo://app?vid=9f6054bf-b2e1-4232-a602-bee9c35c4255"},"vehicle_type_id":"4","last_reported":1751753354,"current_range_meters":2800,"station_id":"ce4bh492rcd13ifvqdug","pricing_plan_id":"cebpf4jnsgd1na2vs0mg"},{"bike_id":"196e1322-bbb2-450d-a784-3e27a0bbc735","system_id":"levelo_inurba_marseille","lat":43.25083,"lon":5.39526,"is_reserved":false,"is_disabled":false,"rental_uris":{"android":"levelo://app?vid=196e1322-bbb2-450d-a784-3e27a0bbc735","ios":"levelo://app?vid=196e1322-bbb2-450d-a784-3e27a0bbc735"},"vehicle_type_id":"4","last_reported":1751753354,"current_range_meters":2800,"station_id":"ce4bhm12rcd13ifvqgkg","pricing_plan_id":"cebpf4jnsgd1na2vs0mg"},{"bike_id":"cde432a2-80d6-4464-8f9d-936b35723570","system_id":"levelo_inurba_marseille","lat":43.2549,"lon":5.37647,"is_reserved":false,"is_disabled":false,"rental_uris":{"android":"levelo://app?vid=cde432a2-80d6-4464-8f9d-936b35723570","ios":"levelo://app?vid=cde432a2-80d6-4464-8f9d-936b35723570"},"vehicle_type_id":"4","last_reported":1751753354,"current_range_meters":3200,"station_id":"ce4bhh12rcd13ifvqff0","pricing_plan_id":"cebpf4jnsgd1na2vs0mg"},{"bike_id":"64fc1c92-ff37-41bd-a336-99bf99460fa0","system_id":"levelo_inurba_marseille","lat":43.295323,"lon":5.385459,"is_reserved":false,"is_disabled":false,"rental_uris":{"android":"levelo://app?vid=64fc1c92-ff37-41bd-a336-99bf99460fa0","ios":"levelo://app?vid=64fc1c92-ff37-41bd-a336-99bf99460fa0"},"vehicle_type_id":"4","last_reported":1751753354,"current_range_meters":3600,"station_id":"","pricing_plan_id":"cebpf4jnsgd1na2vs0mg"},{"bike_id":"8478c480-0633-4ce8-8cf5-fde46d0cc3e2","system_id":"levelo_inurba_marseille","lat":43.273054,"lon":5.390754,"is_reserved":false,"is_disabled":false,"rental_uris":{"android":"levelo://app?vid=8478c480-0633-4ce8-8cf5-fde46d0cc3e2","ios":"levelo://app?vid=8478c480-0633-4ce8-8cf5-fde46d0cc3e2"},"vehicle_type_id":"4","last_reported":1751753354,"current_range_meters":3600,"station_id":"ce4bhgp2rcd13ifvqfe0","pricing_plan_id":"cebpf4jnsgd1na2vs0mg"},{"bike_id":"08d4f90e-e066-489d-8368-6de709b7e3a7","system_id":"levelo_inurba_marseille","lat":43.30324,"lon":5.40453,"is_reserved":false,"is_disabled":false,"rental_uris":{"android":"levelo://app?vid=08d4f90e-e066-489d-8368-6de709b7e3a7","ios":"levelo://app?vid=08d4f90e-e066-489d-8368-6de709b7e3a7"},"vehicle_type_id":"4","last_reported":1751753354,"current_range_meters":4000,"station_id":"ce4bh012rcd13ifvqd10","pricing_plan_id":"cebpf4jnsgd1na2vs0mg"},{"bike_id":"8f179975-57fa-4791-8439-9f5c06f26d1c","system_id":"levelo_inurba_marseille","lat":43.28671,"lon":5.38666,"is_reserved":false,"is_disabled":false,"rental_uris":{"android":"levelo://app?vid=8f179975-57fa-4791-8439-9f5c06f26d1c","ios":"levelo://app?vid=8f179975-57fa-4791-8439-9f5c06f26d1c"},"vehicle_type_id":"4","last_reported":1751753354,"current_range_meters":4000,"station_id":"ce4bh492rcd13ifvqdug","pricing_plan_id":"cebpf4jnsgd1na2vs0mg"},{"bike_id":"ffca34d7-f4eb-4557-9157-30dd818c27b7","system_id":"levelo_inurba_marseille","lat":43.25822,"lon":5.3943,"is_reserved":false,"is_disabled":false,"rental_uris":{"android":"levelo://app?vid=ffca34d7-f4eb-4557-9157-30dd818c27b7","ios":"levelo://app?vid=ffca34d7-f4eb-4557-9157-30dd818c27b7"},"vehicle_type_id":"4","last_reported":1751753354,"current_range_meters":4000,"station_id":"ce4bhip2rcd13ifvqft0","pricing_plan_id":"cebpf4jnsgd1na2vs0mg"},{"bike_id":"4a808b65-855d-4beb-9862-f7b3d6acebe2","system_id":"levelo_inurba_marseille","lat":43.32478,"lon":5.36561,"is_reserved":false,"is_disabled":false,"rental_uris":{"android":"levelo://app?vid=4a808b65-855d-4beb-9862-f7b3d6acebe2","ios":"levelo://app?vid=4a808b65-855d-4beb-9862-f7b3d6acebe2"},"vehicle_type_id":"4","last_reported":1751753354,"current_range_meters":4000,"station_id":"ce4bhs12rcd13ifvqhvg","pricing_plan_id":"cebpf4jnsgd1na2vs0mg"},{"bike_id":"ba154a12-11bd-42a5-958a-5992f5d043d1","system_id":"levelo_inurba_marseille","lat":43.3051,"lon":5.37129,"is_reserved":false,"is_disabled":false,"rental_uris":{"android":"levelo://app?vid=ba154a12-11bd-42a5-958a-5992f5d043d1","ios":"levelo://app?vid=ba154a12-11bd-42a5-958a-5992f5d043d1"},"vehicle_type_id":"4","last_reported":1751753354,"current_range_meters":5600,"station_id":"","pricing_plan_id":"cebpf4jnsgd1na2vs0mg"},{"bike_id":"363ebb24-5563-4502-a524-427bef5a0893","system_id":"levelo_inurba_marseille","lat":43.281125,"lon":5.378221,"is_reserved":false,"is_disabled":false,"rental_uris":{"android":"levelo://app?vid=363ebb24-5563-4502-a524-427bef5a0893","ios":"levelo://app?vid=363ebb24-5563-4502-a524-427bef5a0893"},"vehicle_type_id":"4","last_reported":1751753354,"current_range_meters":5600,"station_id":"ce4bha12rcd13ifvqee0","pricing_plan_id":"cebpf4jnsgd1na2vs0mg"},{"bike_id":"d13d9016-7c35-4095-a399-ac89fde82279","system_id":"levelo_inurba_marseille","lat":43.29341,"lon":5.38343,"is_reserved":false,"is_disabled":false,"rental_uris":{"android":"levelo://app?vid=d13d9016-7c35-4095-a399-ac89fde82279","ios":"levelo://app?vid=d13d9016-7c35-4095-a399-ac89fde82279"},"vehicle_type_id":"4","last_reported":1751753354,"current_range_meters":6000,"station_id":"","pricing_plan_id":"cebpf4jnsgd1na2vs0mg"},{"bike_id":"0c4b7fdb-b39e-49b3-a2b0-ae3d0f43e89d","system_id":"levelo_inurba_marseille","lat":43.32894,"lon":5.40583,"is_reserved":false,"is_disabled":false,"rental_uris":{"android":"levelo://app?vid=0c4b7fdb-b39e-49b3-a2b0-ae3d0f43e89d","ios":"levelo://app?vid=0c4b7fdb-b39e-49b3-a2b0-ae3d0f43e89d"},"vehicle_type_id":"4","last_reported":1751753354,"current_range_meters":6000,"station_id":"","pricing_plan_id":"cebpf4jnsgd1na2vs0mg"},{"bike_id":"ae19236f-4a00-41d0-bef6-c7525d4a706e","system_id":"levelo_inurba_marseille","lat":43.29601,"lon":5.38107,"is_reserved":false,"is_disabled":false,"rental_uris":{"android":"levelo://app?vid=ae19236f-4a00-41d0-bef6-c7525d4a706e","ios":"levelo://app?vid=ae19236f-4a00-41d0-bef6-c7525d4a706e"},"vehicle_type_id":"4","last_reported":1751753354,"current_range_meters":6000,"station_id":"ce4bgl12rcd13ifvqbo0","pricing_plan_id":"cebpf4jnsgd1na2vs0mg"},{"bike_id":"45e4cf79-d4e5-4fde-a059-9f83ed9bb792","system_id":"levelo_inurba_marseille","lat":43.29255,"lon":5.38425,"is_reserved":false,"is_disabled":false,"rental_uris":{"android":"levelo://app?vid=45e4cf79-d4e5-4fde-a059-9f83ed9bb792","ios":"levelo://app?vid=45e4cf79-d4e5-4fde-a059-9f83ed9bb792"},"vehicle_type_id":"4","last_reported":1751753354,"current_range_meters":6000,"station_id":"ce4bh692rcd13ifvqea0","pricing_plan_id":"cebpf4jnsgd1na2vs0mg"},{"bike_id":"65c8f2b6-553c-4240-a9fe-44102aef72cf","system_id":"levelo_inurba_marseille","lat":43.304299,"lon":5.388892,"is_reserved":false,"is_disabled":false,"rental_uris":{"android":"levelo://app?vid=65c8f2b6-553c-4240-a9fe-44102aef72cf","ios":"levelo://app?vid=65c8f2b6-553c-4240-a9fe-44102aef72cf"},"vehicle_type_id":"4","last_reported":1751753354,"current_range_meters":6400,"station_id":"ce4bgk12rcd13ifvqbi0","pricing_plan_id":"cebpf4jnsgd1na2vs0mg"},{"bike_id":"f3a41270-bf4a-44c2-b8b3-49d43b798002","system_id":"levelo_inurba_marseille","lat":43.290307,"lon":5.386545,"is_reserved":false,"is_disabled":false,"rental_uris":{"android":"levelo://app?vid=f3a41270-bf4a-44c2-b8b3-49d43b798002","ios":"levelo://app?vid=f3a41270-bf4a-44c2-b8b3-49d43b798002"},"vehicle_type_id":"4","last_reported":1751753354,"current_range_meters":6400,"station_id":"ce4bh4p2rcd13ifvqe0g","pricing_plan_id":"cebpf4jnsgd1na2vs0mg"},{"bike_id":"bd304b4d-1b09-445d-b600-05586f634583","system_id":"levelo_inurba_marseille","lat":43.29566,"lon":5.38191,"is_reserved":false,"is_disabled":false,"rental_uris":{"android":"levelo://app?vid=bd304b4d-1b09-445d-b600-05586f634583","ios":"levelo://app?vid=bd304b4d-1b09-445d-b600-05586f634583"},"vehicle_type_id":"4","last_reported":1751753354,"current_range_meters":7200,"station_id":"","pricing_plan_id":"cebpf4jnsgd1na2vs0mg"},{"bike_id":"4afd9531-143e-4539-b198-059e59e17ebf","system_id":"levelo_inurba_marseille","lat":43.31178,"lon":5.38721,"is_reserved":false,"is_disabled":false,"rental_uris":{"android":"levelo://app?vid=4afd9531-143e-4539-b198-059e59e17ebf","ios":"levelo://app?vid=4afd9531-143e-4539-b198-059e59e17ebf"},"vehicle_type_id":"4","last_reported":1751753354,"current_range_meters":7200,"station_id":"ce4bgv12rcd13ifvqcp0","pricing_plan_id":"cebpf4jnsgd1na2vs0mg"},{"bike_id":"c1f04d60-fdbb-41a1-bbe4-4f19fcf9fe2e","system_id":"levelo_inurba_marseille","lat":43.29565,"lon":5.39955,"is_reserved":false,"is_disabled":false,"rental_uris":{"android":"levelo://app?vid=c1f04d60-fdbb-41a1-bbe4-4f19fcf9fe2e","ios":"levelo://app?vid=c1f04d60-fdbb-41a1-bbe4-4f19fcf9fe2e"},"vehicle_type_id":"4","last_reported":1751753354,"current_range_meters":7200,"station_id":"ce4bh312rcd13ifvqdj0","pricing_plan_id":"cebpf4jnsgd1na2vs0mg"},{"bike_id":"4b5bde86-7dd4-466e-b4a5-7dcd42cc58a3","system_id":"levelo_inurba_marseille","lat":43.28478,"lon":5.38407,"is_reserved":false,"is_disabled":false,"rental_uris":{"android":"levelo://app?vid=4b5bde86-7dd4-466e-b4a5-7dcd42cc58a3","ios":"levelo://app?vid=4b5bde86-7dd4-466e-b4a5-7dcd42cc58a3"},"vehicle_type_id":"4","last_reported":1751753354,"current_range_meters":7200,"station_id":"ce4bh512rcd13ifvqe3g","pricing_plan_id":"cebpf4jnsgd1na2vs0mg"},{"bike_id":"fa5df3b4-869a-4bbf-ab57-2fab9df7b6d2","system_id":"levelo_inurba_marseille","lat":43.29265,"lon":5.38439,"is_reserved":false,"is_disabled":false,"rental_uris":{"android":"levelo://app?vid=fa5df3b4-869a-4bbf-ab57-2fab9df7b6d2","ios":"levelo://app?vid=fa5df3b4-869a-4bbf-ab57-2fab9df7b6d2"},"vehicle_type_id":"4","last_reported":1751753354,"current_range_meters":7200,"station_id":"ce4bh692rcd13ifvqea0","pricing_plan_id":"cebpf4jnsgd1na2vs0mg"},{"bike_id":"1368d3da-cbdb-4c90-97e9-8fda89eb83b6","system_id":"levelo_inurba_marseille","lat":43.25493,"lon":5.37652,"is_reserved":false,"is_disabled":false,"rental_uris":{"android":"levelo://app?vid=1368d3da-cbdb-4c90-97e9-8fda89eb83b6","ios":"levelo://app?vid=1368d3da-cbdb-4c90-97e9-8fda89eb83b6"},"vehicle_type_id":"4","last_reported":1751753354,"current_range_meters":7200,"station_id":"ce4bhh12rcd13ifvqff0","pricing_plan_id":"cebpf4jnsgd1na2vs0mg"},{"bike_id":"1edd9fe5-ced3-4506-b6df-3da34b5c3383","system_id":"levelo_inurba_marseille","lat":43.26063,"lon":5.39394,"is_reserved":false,"is_disabled":false,"rental_uris":{"android":"levelo://app?vid=1edd9fe5-ced3-4506-b6df-3da34b5c3383","ios":"levelo://app?vid=1edd9fe5-ced3-4506-b6df-3da34b5c3383"},"vehicle_type_id":"4","last_reported":1751753354,"current_range_meters":7200,"station_id":"ce4bhh92rcd13ifvqfj0","pricing_plan_id":"cebpf4jnsgd1na2vs0mg"},{"bike_id":"99dc2ed8-0ef4-4564-91c3-3b533117c683","system_id":"levelo_inurba_marseille","lat":43.25113,"lon":5.40326,"is_reserved":false,"is_disabled":false,"rental_uris":{"android":"levelo://app?vid=99dc2ed8-0ef4-4564-91c3-3b533117c683","ios":"levelo://app?vid=99dc2ed8-0ef4-4564-91c3-3b533117c683"},"vehicle_type_id":"4","last_reported":1751753354,"current_range_meters":7200,"station_id":"ce4bhlh2rcd13ifvqgig","pricing_plan_id":"cebpf4jnsgd1na2vs0mg"},{"bike_id":"8205bdf4-ee83-4bb6-bcbe-d476b17ea327","system_id":"levelo_inurba_marseille","lat":43.32019,"lon":5.43267,"is_reserved":false,"is_disabled":false,"rental_uris":{"android":"levelo://app?vid=8205bdf4-ee83-4bb6-bcbe-d476b17ea327","ios":"levelo://app?vid=8205bdf4-ee83-4bb6-bcbe-d476b17ea327"},"vehicle_type_id":"4","last_reported":1751753354,"current_range_meters":8400,"station_id":"","pricing_plan_id":"cebpf4jnsgd1na2vs0mg"},{"bike_id":"b26fae72-751e-4090-a9c4-76ff5de1ad66","system_id":"levelo_inurba_marseille","lat":43.3326,"lon":5.38047,"is_reserved":false,"is_disabled":false,"rental_uris":{"android":"levelo://app?vid=b26fae72-751e-4090-a9c4-76ff5de1ad66","ios":"levelo://app?vid=b26fae72-751e-4090-a9c4-76ff5de1ad66"},"vehicle_type_id":"4","last_reported":1751753354,"current_range_meters":8400,"station_id":"","pricing_plan_id":"cebpf4jnsgd1na2vs0mg"},{"bike_id":"ce223792-2cad-4789-b3cf-45dd49d1715b","system_id":"levelo_inurba_marseille","lat":43.29633,"lon":5.40596,"is_reserved":false,"is_disabled":false,"rental_uris":{"android":"levelo://app?vid=ce223792-2cad-4789-b3cf-45dd49d1715b","ios":"levelo://app?vid=ce223792-2cad-4789-b3cf-45dd49d1715b"},"vehicle_type_id":"4","last_reported":1751753354,"current_range_meters":8400,"station_id":"ce4bh0h2rcd13ifvqd60","pricing_plan_id":"cebpf4jnsgd1na2vs0mg"},{"bike_id":"a268abc2-3eff-49ae-be83-4adbef212994","system_id":"levelo_inurba_marseille","lat":43.29637,"lon":5.40626,"is_reserved":false,"is_disabled":false,"rental_uris":{"android":"levelo://app?vid=a268abc2-3eff-49ae-be83-4adbef212994","ios":"levelo://app?vid=a268abc2-3eff-49ae-be83-4adbef212994"},"vehicle_type_id":"4","last_reported":1751753354,"current_range_meters":8400,"station_id":"ce4bh0h2rcd13ifvqd60","pricing_plan_id":"cebpf4jnsgd1na2vs0mg"},{"bike_id":"f2d3fb89-dc10-4d95-b1fb-0ea3f6e93c44","system_id":"levelo_inurba_marseille","lat":43.26026,"lon":5.37552,"is_reserved":false,"is_disabled":false,"rental_uris":{"android":"levelo://app?vid=f2d3fb89-dc10-4d95-b1fb-0ea3f6e93c44","ios":"levelo://app?vid=f2d3fb89-dc10-4d95-b1fb-0ea3f6e93c44"},"vehicle_type_id":"4","last_reported":1751753354,"current_range_meters":8400,"station_id":"ce4bhgh2rcd13ifvqfa0","pricing_plan_id":"cebpf4jnsgd1na2vs0mg"},{"bike_id":"4fb31fff-0fc2-4434-afd9-8dcf03fd0c6c","system_id":"levelo_inurba_marseille","lat":43.2315,"lon":5.4372,"is_reserved":false,"is_disabled":false,"rental_uris":{"android":"levelo://app?vid=4fb31fff-0fc2-4434-afd9-8dcf03fd0c6c","ios":"levelo://app?vid=4fb31fff-0fc2-4434-afd9-8dcf03fd0c6c"},"vehicle_type_id":"4","last_reported":1751753354,"current_range_meters":8400,"station_id":"ce4bhmp2rcd13ifvqgog","pricing_plan_id":"cebpf4jnsgd1na2vs0mg"},{"bike_id":"20d6d52c-9d10-4fe3-860d-e3b0552a90c3","system_id":"levelo_inurba_marseille","lat":43.30415,"lon":5.41292,"is_reserved":false,"is_disabled":false,"rental_uris":{"android":"levelo://app?vid=20d6d52c-9d10-4fe3-860d-e3b0552a90c3","ios":"levelo://app?vid=20d6d52c-9d10-4fe3-860d-e3b0552a90c3"},"vehicle_type_id":"4","last_reported":1751753354,"current_range_meters":8400,"station_id":"ce4bhop2rcd13ifvqh8g","pricing_plan_id":"cebpf4jnsgd1na2vs0mg"},{"bike_id":"1c8ab180-05fd-405f-9922-b2b2c2d5142f","system_id":"levelo_inurba_marseille","lat":43.33771,"lon":5.38136,"is_reserved":false,"is_disabled":false,"rental_uris":{"android":"levelo://app?vid=1c8ab180-05fd-405f-9922-b2b2c2d5142f","ios":"levelo://app?vid=1c8ab180-05fd-405f-9922-b2b2c2d5142f"},"vehicle_type_id":"4","last_reported":1751753354,"current_range_meters":8800,"station_id":"","pricing_plan_id":"cebpf4jnsgd1na2vs0mg"},{"bike_id":"01e88dea-27ca-471b-9a41-d4fb96706907","system_id":"levelo_inurba_marseille","lat":43.295305,"lon":5.38529,"is_reserved":false,"is_disabled":false,"rental_uris":{"android":"levelo://app?vid=01e88dea-27ca-471b-9a41-d4fb96706907","ios":"levelo://app?vid=01e88dea-27ca-471b-9a41-d4fb96706907"},"vehicle_type_id":"4","last_reported":1751753354,"current_range_meters":8800,"station_id":"ce4bgih2rcd13ifvqba0","pricing_plan_id":"cebpf4jnsgd1na2vs0mg"},{"bike_id":"bd622e46-7a81-40e1-8551-5615563e2881","system_id":"levelo_inurba_marseille","lat":43.30258,"lon":5.4008,"is_reserved":false,"is_disabled":false,"rental_uris":{"android":"levelo://app?vid=bd622e46-7a81-40e1-8551-5615563e2881","ios":"levelo://app?vid=bd622e46-7a81-40e1-8551-5615563e2881"},"vehicle_type_id":"4","last_reported":1751753354,"current_range_meters":8800,"station_id":"ce4bgvh2rcd13ifvqcs0","pricing_plan_id":"cebpf4jnsgd1na2vs0mg"},{"bike_id":"f829840f-b30f-4e75-81f9-544ac7cf70f8","system_id":"levelo_inurba_marseille","lat":43.29789,"lon":5.39352,"is_reserved":false,"is_disabled":false,"rental_uris":{"android":"levelo://app?vid=f829840f-b30f-4e75-81f9-544ac7cf70f8","ios":"levelo://app?vid=f829840f-b30f-4e75-81f9-544ac7cf70f8"},"vehicle_type_id":"4","last_reported":1751753354,"current_range_meters":8800,"station_id":"chh1huq6cuj3fo74tm60","pricing_plan_id":"cebpf4jnsgd1na2vs0mg"},{"bike_id":"69c2280d-9883-47db-99f2-c073a6babae6","system_id":"levelo_inurba_marseille","lat":43.30845,"lon":5.3702,"is_reserved":false,"is_disabled":false,"rental_uris":{"android":"levelo://app?vid=69c2280d-9883-47db-99f2-c073a6babae6","ios":"levelo://app?vid=69c2280d-9883-47db-99f2-c073a6babae6"},"vehicle_type_id":"4","last_reported":1751753354,"current_range_meters":9200,"station_id":"","pricing_plan_id":"cebpf4jnsgd1na2vs0mg"},{"bike_id":"16d144eb-03d5-4a7a-bfca-9dbcae1f835f","system_id":"levelo_inurba_marseille","lat":43.31174,"lon":5.38732,"is_reserved":false,"is_disabled":false,"rental_uris":{"android":"levelo://app?vid=16d144eb-03d5-4a7a-bfca-9dbcae1f835f","ios":"levelo://app?vid=16d144eb-03d5-4a7a-bfca-9dbcae1f835f"},"vehicle_type_id":"4","last_reported":1751753354,"current_range_meters":9200,"station_id":"ce4bgv12rcd13ifvqcp0","pricing_plan_id":"cebpf4jnsgd1na2vs0mg"},{"bike_id":"f1f6e0f4-a0d4-48bb-a082-d7f13ee79674","system_id":"levelo_inurba_marseille","lat":43.29452,"lon":5.39746,"is_reserved":false,"is_disabled":false,"rental_uris":{"android":"levelo://app?vid=f1f6e0f4-a0d4-48bb-a082-d7f13ee79674","ios":"levelo://app?vid=f1f6e0f4-a0d4-48bb-a082-d7f13ee79674"},"vehicle_type_id":"4","last_reported":1751753354,"current_range_meters":9200,"station_id":"ce4bh3h2rcd13ifvqdo0","pricing_plan_id":"cebpf4jnsgd1na2vs0mg"},{"bike_id":"4b8da722-ee9e-48a4-a5e5-3a8a10364708","system_id":"levelo_inurba_marseille","lat":43.31214,"lon":5.37821,"is_reserved":false,"is_disabled":false,"rental_uris":{"android":"levelo://app?vid=4b8da722-ee9e-48a4-a5e5-3a8a10364708","ios":"levelo://app?vid=4b8da722-ee9e-48a4-a5e5-3a8a10364708"},"vehicle_type_id":"4","last_reported":1751753354,"current_range_meters":9600,"station_id":"","pricing_plan_id":"cebpf4jnsgd1na2vs0mg"},{"bike_id":"2f051d50-c7cf-4a32-80a0-c3b1fd770983","system_id":"levelo_inurba_marseille","lat":43.29539,"lon":5.38529,"is_reserved":false,"is_disabled":false,"rental_uris":{"android":"levelo://app?vid=2f051d50-c7cf-4a32-80a0-c3b1fd770983","ios":"levelo://app?vid=2f051d50-c7cf-4a32-80a0-c3b1fd770983"},"vehicle_type_id":"4","last_reported":1751753354,"current_range_meters":9600,"station_id":"ce4bgih2rcd13ifvqba0","pricing_plan_id":"cebpf4jnsgd1na2vs0mg"},{"bike_id":"114082e4-d54f-4a56-bc8b-6a54418fea58","system_id":"levelo_inurba_marseille","lat":43.29969,"lon":5.38497,"is_reserved":false,"is_disabled":false,"rental_uris":{"android":"levelo://app?vid=114082e4-d54f-4a56-bc8b-6a54418fea58","ios":"levelo://app?vid=114082e4-d54f-4a56-bc8b-6a54418fea58"},"vehicle_type_id":"4","last_reported":1751753354,"current_range_meters":9600,"station_id":"ce4bgj92rcd13ifvqbd0","pricing_plan_id":"cebpf4jnsgd1na2vs0mg"},{"bike_id":"5989ac1d-01c2-47c5-94c7-3e6e1bcae8ce","system_id":"levelo_inurba_marseille","lat":43.2549,"lon":5.37653,"is_reserved":false,"is_disabled":false,"rental_uris":{"android":"levelo://app?vid=5989ac1d-01c2-47c5-94c7-3e6e1bcae8ce","ios":"levelo://app?vid=5989ac1d-01c2-47c5-94c7-3e6e1bcae8ce"},"vehicle_type_id":"4","last_reported":1751753354,"current_range_meters":9600,"station_id":"ce4bhh12rcd13ifvqff0","pricing_plan_id":"cebpf4jnsgd1na2vs0mg"},{"bike_id":"fdfc3e0d-21e4-473d-9207-6a32da3e00e7","system_id":"levelo_inurba_marseille","lat":43.286494,"lon":5.399637,"is_reserved":false,"is_disabled":false,"rental_uris":{"android":"levelo://app?vid=fdfc3e0d-21e4-473d-9207-6a32da3e00e7","ios":"levelo://app?vid=fdfc3e0d-21e4-473d-9207-6a32da3e00e7"},"vehicle_type_id":"4","last_reported":1751753354,"current_range_meters":9600,"station_id":"ce4bho92rcd13ifvqh3g","pricing_plan_id":"cebpf4jnsgd1na2vs0mg"},{"bike_id":"4db45513-e520-4598-82fa-5809d80d4f3d","system_id":"levelo_inurba_marseille","lat":43.28102,"lon":5.35494,"is_reserved":false,"is_disabled":false,"rental_uris":{"android":"levelo://app?vid=4db45513-e520-4598-82fa-5809d80d4f3d","ios":"levelo://app?vid=4db45513-e520-4598-82fa-5809d80d4f3d"},"vehicle_type_id":"4","last_reported":1751753354,"current_range_meters":10000,"station_id":"","pricing_plan_id":"cebpf4jnsgd1na2vs0mg"},{"bike_id":"1e04b9e2-27c6-4b30-b902-6c81e18716e2","system_id":"levelo_inurba_marseille","lat":43.31177,"lon":5.37755,"is_reserved":false,"is_disabled":false,"rental_uris":{"android":"levelo://app?vid=1e04b9e2-27c6-4b30-b902-6c81e18716e2","ios":"levelo://app?vid=1e04b9e2-27c6-4b30-b902-6c81e18716e2"},"vehicle_type_id":"4","last_reported":1751753354,"current_range_meters":10000,"station_id":"","pricing_plan_id":"cebpf4jnsgd1na2vs0mg"},{"bike_id":"624cf674-5603-4000-9f39-808680544cc2","system_id":"levelo_inurba_marseille","lat":43.28083,"lon":5.39667,"is_reserved":false,"is_disabled":false,"rental_uris":{"android":"levelo://app?vid=624cf674-5603-4000-9f39-808680544cc2","ios":"levelo://app?vid=624cf674-5603-4000-9f39-808680544cc2"},"vehicle_type_id":"4","last_reported":1751753354,"current_range_meters":10000,"station_id":"ce4bho12rcd13ifvqh2g","pricing_plan_id":"cebpf4jnsgd1na2vs0mg"},{"bike_id":"8eb283fe-44c7-4bb1-836e-cde6c55f1adf","system_id":"levelo_inurba_marseille","lat":43.31796,"lon":5.36842,"is_reserved":false,"is_disabled":false,"rental_uris":{"android":"levelo://app?vid=8eb283fe-44c7-4bb1-836e-cde6c55f1adf","ios":"levelo://app?vid=8eb283fe-44c7-4bb1-836e-cde6c55f1adf"},"vehicle_type_id":"4","last_reported":1751753354,"current_range_meters":10800,"station_id":"","pricing_plan_id":"cebpf4jnsgd1na2vs0mg"},{"bike_id":"c8d54838-4cbf-4bae-bd38-eee89ae6662f","system_id":"levelo_inurba_marseille","lat":43.295357,"lon":5.385553,"is_reserved":false,"is_disabled":false,"rental_uris":{"android":"levelo://app?vid=c8d54838-4cbf-4bae-bd38-eee89ae6662f","ios":"levelo://app?vid=c8d54838-4cbf-4bae-bd38-eee89ae6662f"},"vehicle_type_id":"4","last_reported":1751753354,"current_range_meters":10800,"station_id":"ce4bgih2rcd13ifvqba0","pricing_plan_id":"cebpf4jnsgd1na2vs0mg"},{"bike_id":"591617c0-aaf6-4a5c-b86f-5f40c081f792","system_id":"levelo_inurba_marseille","lat":43.28352,"lon":5.38099,"is_reserved":false,"is_disabled":false,"rental_uris":{"android":"levelo://app?vid=591617c0-aaf6-4a5c-b86f-5f40c081f792","ios":"levelo://app?vid=591617c0-aaf6-4a5c-b86f-5f40c081f792"},"vehicle_type_id":"4","last_reported":1751753354,"current_range_meters":10800,"station_id":"ce4bh412rcd13ifvqdr0","pricing_plan_id":"cebpf4jnsgd1na2vs0mg"},{"bike_id":"acc7bed9-f4ec-4ae2-8989-7bdcda94d05b","system_id":"levelo_inurba_marseille","lat":43.28716,"lon":5.37936,"is_reserved":false,"is_disabled":false,"rental_uris":{"android":"levelo://app?vid=acc7bed9-f4ec-4ae2-8989-7bdcda94d05b","ios":"levelo://app?vid=acc7bed9-f4ec-4ae2-8989-7bdcda94d05b"},"vehicle_type_id":"4","last_reported":1751753354,"current_range_meters":10800,"station_id":"ce4bh9p2rcd13ifvqec0","pricing_plan_id":"cebpf4jnsgd1na2vs0mg"},{"bike_id":"b1696f50-cc01-42b0-bc10-1ea09e81fd3d","system_id":"levelo_inurba_marseille","lat":43.27428,"lon":5.3942,"is_reserved":false,"is_disabled":false,"rental_uris":{"android":"levelo://app?vid=b1696f50-cc01-42b0-bc10-1ea09e81fd3d","ios":"levelo://app?vid=b1696f50-cc01-42b0-bc10-1ea09e81fd3d"},"vehicle_type_id":"4","last_reported":1751753354,"current_range_meters":10800,"station_id":"ce4bhdp2rcd13ifvqf20","pricing_plan_id":"cebpf4jnsgd1na2vs0mg"},{"bike_id":"b7d536ad-baa2-42e1-af16-09063e0e5277","system_id":"levelo_inurba_marseille","lat":43.26063,"lon":5.39397,"is_reserved":false,"is_disabled":false,"rental_uris":{"android":"levelo://app?vid=b7d536ad-baa2-42e1-af16-09063e0e5277","ios":"levelo://app?vid=b7d536ad-baa2-42e1-af16-09063e0e5277"},"vehicle_type_id":"4","last_reported":1751753354,"current_range_meters":10800,"station_id":"ce4bhh92rcd13ifvqfj0","pricing_plan_id":"cebpf4jnsgd1na2vs0mg"},{"bike_id":"eea94861-a6bb-4f50-ad7c-c29cee846ce3","system_id":"levelo_inurba_marseille","lat":43.25583,"lon":5.38232,"is_reserved":false,"is_disabled":false,"rental_uris":{"android":"levelo://app?vid=eea94861-a6bb-4f50-ad7c-c29cee846ce3","ios":"levelo://app?vid=eea94861-a6bb-4f50-ad7c-c29cee846ce3"},"vehicle_type_id":"4","last_reported":1751753354,"current_range_meters":10800,"station_id":"ce4bhih2rcd13ifvqfs0","pricing_plan_id":"cebpf4jnsgd1na2vs0mg"},{"bike_id":"483d2bcf-65aa-41b6-a1b2-d5c43acf3f41","system_id":"levelo_inurba_marseille","lat":43.23175,"lon":5.39989,"is_reserved":false,"is_disabled":false,"rental_uris":{"android":"levelo://app?vid=483d2bcf-65aa-41b6-a1b2-d5c43acf3f41","ios":"levelo://app?vid=483d2bcf-65aa-41b6-a1b2-d5c43acf3f41"},"vehicle_type_id":"4","last_reported":1751753354,"current_range_meters":10800,"station_id":"ce4bhn12rcd13ifvqgqg","pricing_plan_id":"cebpf4jnsgd1na2vs0mg"},{"bike_id":"4ff0a587-b444-4d32-942b-15bf910e854b","system_id":"levelo_inurba_marseille","lat":43.31674,"lon":5.43685,"is_reserved":false,"is_disabled":false,"rental_uris":{"android":"levelo://app?vid=4ff0a587-b444-4d32-942b-15bf910e854b","ios":"levelo://app?vid=4ff0a587-b444-4d32-942b-15bf910e854b"},"vehicle_type_id":"4","last_reported":1751753354,"current_range_meters":10800,"station_id":"ce4bhp92rcd13ifvqhcg","pricing_plan_id":"cebpf4jnsgd1na2vs0mg"},{"bike_id":"b1820b2a-283d-4900-bbc2-ae4916c2a015","system_id":"levelo_inurba_marseille","lat":43.31716,"lon":5.43711,"is_reserved":false,"is_disabled":false,"rental_uris":{"android":"levelo://app?vid=b1820b2a-283d-4900-bbc2-ae4916c2a015","ios":"levelo://app?vid=b1820b2a-283d-4900-bbc2-ae4916c2a015"},"vehicle_type_id":"4","last_reported":1751753354,"current_range_meters":10800,"station_id":"ce4bhp92rcd13ifvqhcg","pricing_plan_id":"cebpf4jnsgd1na2vs0mg"},{"bike_id":"daeee1e5-3b93-44da-8e47-7b24df6d544e","system_id":"levelo_inurba_marseille","lat":43.29998,"lon":5.374,"is_reserved":false,"is_disabled":false,"rental_uris":{"android":"levelo://app?vid=daeee1e5-3b93-44da-8e47-7b24df6d544e","ios":"levelo://app?vid=daeee1e5-3b93-44da-8e47-7b24df6d544e"},"vehicle_type_id":"4","last_reported":1751753354,"current_range_meters":11200,"station_id":"","pricing_plan_id":"cebpf4jnsgd1na2vs0mg"},{"bike_id":"fe4aa8ed-2ac9-4209-9c47-e12cf02aef05","system_id":"levelo_inurba_marseille","lat":43.31355,"lon":5.38489,"is_reserved":false,"is_disabled":false,"rental_uris":{"android":"levelo://app?vid=fe4aa8ed-2ac9-4209-9c47-e12cf02aef05","ios":"levelo://app?vid=fe4aa8ed-2ac9-4209-9c47-e12cf02aef05"},"vehicle_type_id":"4","last_reported":1751753354,"current_range_meters":11200,"station_id":"ce4bgt92rcd13ifvqcf0","pricing_plan_id":"cebpf4jnsgd1na2vs0mg"},{"bike_id":"29c9a98b-adaa-45cd-9133-a63e58ed5df4","system_id":"levelo_inurba_marseille","lat":43.29628,"lon":5.406,"is_reserved":false,"is_disabled":false,"rental_uris":{"android":"levelo://app?vid=29c9a98b-adaa-45cd-9133-a63e58ed5df4","ios":"levelo://app?vid=29c9a98b-adaa-45cd-9133-a63e58ed5df4"},"vehicle_type_id":"4","last_reported":1751753354,"current_range_meters":11200,"station_id":"ce4bh0h2rcd13ifvqd60","pricing_plan_id":"cebpf4jnsgd1na2vs0mg"},{"bike_id":"b26f4b81-8ee5-4928-a4f7-32e415148079","system_id":"levelo_inurba_marseille","lat":43.28417,"lon":5.3921,"is_reserved":false,"is_disabled":false,"rental_uris":{"android":"levelo://app?vid=b26f4b81-8ee5-4928-a4f7-32e415148079","ios":"levelo://app?vid=b26f4b81-8ee5-4928-a4f7-32e415148079"},"vehicle_type_id":"4","last_reported":1751753354,"current_range_meters":11200,"station_id":"ce4bhoh2rcd13ifvqh5g","pricing_plan_id":"cebpf4jnsgd1na2vs0mg"},{"bike_id":"c373533a-79f8-4612-bc4b-88eedd1efbb4","system_id":"levelo_inurba_marseille","lat":43.295365,"lon":5.385468,"is_reserved":false,"is_disabled":false,"rental_uris":{"android":"levelo://app?vid=c373533a-79f8-4612-bc4b-88eedd1efbb4","ios":"levelo://app?vid=c373533a-79f8-4612-bc4b-88eedd1efbb4"},"vehicle_type_id":"4","last_reported":1751753354,"current_range_meters":11600,"station_id":"ce4bgih2rcd13ifvqba0","pricing_plan_id":"cebpf4jnsgd1na2vs0mg"},{"bike_id":"103b05cf-0104-4fda-a3f8-a838e9458cdb","system_id":"levelo_inurba_marseille","lat":43.26033,"lon":5.3755,"is_reserved":false,"is_disabled":false,"rental_uris":{"android":"levelo://app?vid=103b05cf-0104-4fda-a3f8-a838e9458cdb","ios":"levelo://app?vid=103b05cf-0104-4fda-a3f8-a838e9458cdb"},"vehicle_type_id":"4","last_reported":1751753354,"current_range_meters":11600,"station_id":"ce4bhgh2rcd13ifvqfa0","pricing_plan_id":"cebpf4jnsgd1na2vs0mg"},{"bike_id":"0d6eaa25-1afc-4fd4-be0b-1f9d53e99f03","system_id":"levelo_inurba_marseille","lat":43.23217,"lon":5.40022,"is_reserved":false,"is_disabled":false,"rental_uris":{"android":"levelo://app?vid=0d6eaa25-1afc-4fd4-be0b-1f9d53e99f03","ios":"levelo://app?vid=0d6eaa25-1afc-4fd4-be0b-1f9d53e99f03"},"vehicle_type_id":"4","last_reported":1751753354,"current_range_meters":11600,"station_id":"ce4bhn12rcd13ifvqgqg","pricing_plan_id":"cebpf4jnsgd1na2vs0mg"},{"bike_id":"064c5c21-7fdd-4535-844b-a41a2ff4e14a","system_id":"levelo_inurba_marseille","lat":43.29889,"lon":5.43657,"is_reserved":false,"is_disabled":false,"rental_uris":{"android":"levelo://app?vid=064c5c21-7fdd-4535-844b-a41a2ff4e14a","ios":"levelo://app?vid=064c5c21-7fdd-4535-844b-a41a2ff4e14a"},"vehicle_type_id":"4","last_reported":1751753354,"current_range_meters":11600,"station_id":"ce4bhpp2rcd13ifvqhfg","pricing_plan_id":"cebpf4jnsgd1na2vs0mg"},{"bike_id":"b1d40197-e49c-4962-8cd8-0babe05d31a6","system_id":"levelo_inurba_marseille","lat":43.21269,"lon":5.35294,"is_reserved":false,"is_disabled":false,"rental_uris":{"android":"levelo://app?vid=b1d40197-e49c-4962-8cd8-0babe05d31a6","ios":"levelo://app?vid=b1d40197-e49c-4962-8cd8-0babe05d31a6"},"vehicle_type_id":"4","last_reported":1751753354,"current_range_meters":12000,"station_id":"","pricing_plan_id":"cebpf4jnsgd1na2vs0mg"},{"bike_id":"86c92dc1-b4da-49d9-acb8-ba390f939865","system_id":"levelo_inurba_marseille","lat":43.33033,"lon":5.39233,"is_reserved":false,"is_disabled":false,"rental_uris":{"android":"levelo://app?vid=86c92dc1-b4da-49d9-acb8-ba390f939865","ios":"levelo://app?vid=86c92dc1-b4da-49d9-acb8-ba390f939865"},"vehicle_type_id":"4","last_reported":1751753354,"current_range_meters":12400,"station_id":"","pricing_plan_id":"cebpf4jnsgd1na2vs0mg"},{"bike_id":"371a9b20-6caa-4e01-b9fc-62e70cf886ee","system_id":"levelo_inurba_marseille","lat":43.31175,"lon":5.38714,"is_reserved":false,"is_disabled":false,"rental_uris":{"android":"levelo://app?vid=371a9b20-6caa-4e01-b9fc-62e70cf886ee","ios":"levelo://app?vid=371a9b20-6caa-4e01-b9fc-62e70cf886ee"},"vehicle_type_id":"4","last_reported":1751753354,"current_range_meters":12400,"station_id":"ce4bgv12rcd13ifvqcp0","pricing_plan_id":"cebpf4jnsgd1na2vs0mg"},{"bike_id":"536c39d9-efe2-480c-9b8b-03d7653b2509","system_id":"levelo_inurba_marseille","lat":43.29556,"lon":5.42274,"is_reserved":false,"is_disabled":false,"rental_uris":{"android":"levelo://app?vid=536c39d9-efe2-480c-9b8b-03d7653b2509","ios":"levelo://app?vid=536c39d9-efe2-480c-9b8b-03d7653b2509"},"vehicle_type_id":"4","last_reported":1751753354,"current_range_meters":12400,"station_id":"ce4bhph2rcd13ifvqhdg","pricing_plan_id":"cebpf4jnsgd1na2vs0mg"},{"bike_id":"36f9c75b-5d6c-412a-b395-ad8ffc2d771a","system_id":"levelo_inurba_marseille","lat":43.26029,"lon":5.4177,"is_reserved":false,"is_disabled":false,"rental_uris":{"android":"levelo://app?vid=36f9c75b-5d6c-412a-b395-ad8ffc2d771a","ios":"levelo://app?vid=36f9c75b-5d6c-412a-b395-ad8ffc2d771a"},"vehicle_type_id":"4","last_reported":1751753354,"current_range_meters":12800,"station_id":"","pricing_plan_id":"cebpf4jnsgd1na2vs0mg"},{"bike_id":"284c7165-186b-4d0f-bcb0-7714a6dc2ce0","system_id":"levelo_inurba_marseille","lat":43.30886,"lon":5.3964,"is_reserved":false,"is_disabled":false,"rental_uris":{"android":"levelo://app?vid=284c7165-186b-4d0f-bcb0-7714a6dc2ce0","ios":"levelo://app?vid=284c7165-186b-4d0f-bcb0-7714a6dc2ce0"},"vehicle_type_id":"4","last_reported":1751753354,"current_range_meters":12800,"station_id":"ce4bh012rcd13ifvqcv0","pricing_plan_id":"cebpf4jnsgd1na2vs0mg"},{"bike_id":"08b0a964-1ce0-47f7-8730-238247b71e4d","system_id":"levelo_inurba_marseille","lat":43.29427,"lon":5.38607,"is_reserved":false,"is_disabled":false,"rental_uris":{"android":"levelo://app?vid=08b0a964-1ce0-47f7-8730-238247b71e4d","ios":"levelo://app?vid=08b0a964-1ce0-47f7-8730-238247b71e4d"},"vehicle_type_id":"4","last_reported":1751753354,"current_range_meters":12800,"station_id":"ce4bh2h2rcd13ifvqdh0","pricing_plan_id":"cebpf4jnsgd1na2vs0mg"},{"bike_id":"00d046c1-c97a-4cbf-9104-df0b8a144efc","system_id":"levelo_inurba_marseille","lat":43.27498,"lon":5.42465,"is_reserved":false,"is_disabled":false,"rental_uris":{"android":"levelo://app?vid=00d046c1-c97a-4cbf-9104-df0b8a144efc","ios":"levelo://app?vid=00d046c1-c97a-4cbf-9104-df0b8a144efc"},"vehicle_type_id":"4","last_reported":1751753354,"current_range_meters":12800,"station_id":"ce4bhn92rcd13ifvqgrg","pricing_plan_id":"cebpf4jnsgd1na2vs0mg"},{"bike_id":"895be296-b3a7-4e2d-8ace-b5e41798826d","system_id":"levelo_inurba_marseille","lat":43.26944,"lon":5.40248,"is_reserved":false,"is_disabled":false,"rental_uris":{"android":"levelo://app?vid=895be296-b3a7-4e2d-8ace-b5e41798826d","ios":"levelo://app?vid=895be296-b3a7-4e2d-8ace-b5e41798826d"},"vehicle_type_id":"4","last_reported":1751753354,"current_range_meters":12800,"station_id":"cjm6bp8fraef2m0cb0m0","pricing_plan_id":"cebpf4jnsgd1na2vs0mg"},{"bike_id":"adf1d38d-1f03-40cf-9b57-0a8f15f62b2d","system_id":"levelo_inurba_marseille","lat":43.32962,"lon":5.36371,"is_reserved":false,"is_disabled":false,"rental_uris":{"android":"levelo://app?vid=adf1d38d-1f03-40cf-9b57-0a8f15f62b2d","ios":"levelo://app?vid=adf1d38d-1f03-40cf-9b57-0a8f15f62b2d"},"vehicle_type_id":"4","last_reported":1751753354,"current_range_meters":13600,"station_id":"","pricing_plan_id":"cebpf4jnsgd1na2vs0mg"},{"bike_id":"fe8ee84c-fdfc-40aa-a1c2-6e36409c0740","system_id":"levelo_inurba_marseille","lat":43.26807,"lon":5.39074,"is_reserved":false,"is_disabled":false,"rental_uris":{"android":"levelo://app?vid=fe8ee84c-fdfc-40aa-a1c2-6e36409c0740","ios":"levelo://app?vid=fe8ee84c-fdfc-40aa-a1c2-6e36409c0740"},"vehicle_type_id":"4","last_reported":1751753354,"current_range_meters":14000,"station_id":"","pricing_plan_id":"cebpf4jnsgd1na2vs0mg"},{"bike_id":"637fcc3b-c74d-473a-96c1-57ab4bb52ed7","system_id":"levelo_inurba_marseille","lat":43.25897,"lon":5.4096,"is_reserved":false,"is_disabled":false,"rental_uris":{"android":"levelo://app?vid=637fcc3b-c74d-473a-96c1-57ab4bb52ed7","ios":"levelo://app?vid=637fcc3b-c74d-473a-96c1-57ab4bb52ed7"},"vehicle_type_id":"4","last_reported":1751753354,"current_range_meters":14000,"station_id":"","pricing_plan_id":"cebpf4jnsgd1na2vs0mg"},{"bike_id":"d712008c-4f25-4a2b-bf71-9d59dbc29da6","system_id":"levelo_inurba_marseille","lat":43.2573,"lon":5.41107,"is_reserved":false,"is_disabled":false,"rental_uris":{"android":"levelo://app?vid=d712008c-4f25-4a2b-bf71-9d59dbc29da6","ios":"levelo://app?vid=d712008c-4f25-4a2b-bf71-9d59dbc29da6"},"vehicle_type_id":"4","last_reported":1751753354,"current_range_meters":14000,"station_id":"","pricing_plan_id":"cebpf4jnsgd1na2vs0mg"},{"bike_id":"af29a437-e9b5-4281-9ba4-b9ccb4fdae7f","system_id":"levelo_inurba_marseille","lat":43.31182,"lon":5.38732,"is_reserved":false,"is_disabled":false,"rental_uris":{"android":"levelo://app?vid=af29a437-e9b5-4281-9ba4-b9ccb4fdae7f","ios":"levelo://app?vid=af29a437-e9b5-4281-9ba4-b9ccb4fdae7f"},"vehicle_type_id":"4","last_reported":1751753354,"current_range_meters":14000,"station_id":"ce4bgv12rcd13ifvqcp0","pricing_plan_id":"cebpf4jnsgd1na2vs0mg"},{"bike_id":"98790af5-31b0-4011-8db2-41e4e2b62826","system_id":"levelo_inurba_marseille","lat":43.29571,"lon":5.39972,"is_reserved":false,"is_disabled":false,"rental_uris":{"android":"levelo://app?vid=98790af5-31b0-4011-8db2-41e4e2b62826","ios":"levelo://app?vid=98790af5-31b0-4011-8db2-41e4e2b62826"},"vehicle_type_id":"4","last_reported":1751753354,"current_range_meters":14000,"station_id":"ce4bh312rcd13ifvqdj0","pricing_plan_id":"cebpf4jnsgd1na2vs0mg"},{"bike_id":"c4ff648a-f214-4632-8118-32b7fd04476a","system_id":"levelo_inurba_marseille","lat":43.31534,"lon":5.38045,"is_reserved":false,"is_disabled":false,"rental_uris":{"android":"levelo://app?vid=c4ff648a-f214-4632-8118-32b7fd04476a","ios":"levelo://app?vid=c4ff648a-f214-4632-8118-32b7fd04476a"},"vehicle_type_id":"4","last_reported":1751753354,"current_range_meters":14000,"station_id":"ce4bhsp2rcd13ifvqi50","pricing_plan_id":"cebpf4jnsgd1na2vs0mg"},{"bike_id":"4d8942c7-0e64-4b67-b6b6-d1a5c3d08cfb","system_id":"levelo_inurba_marseille","lat":43.224823,"lon":5.347908,"is_reserved":false,"is_disabled":false,"rental_uris":{"android":"levelo://app?vid=4d8942c7-0e64-4b67-b6b6-d1a5c3d08cfb","ios":"levelo://app?vid=4d8942c7-0e64-4b67-b6b6-d1a5c3d08cfb"},"vehicle_type_id":"4","last_reported":1751753354,"current_range_meters":14400,"station_id":"","pricing_plan_id":"cebpf4jnsgd1na2vs0mg"},{"bike_id":"e55cea4f-26d4-4f9c-bf7a-025fd9a4a22d","system_id":"levelo_inurba_marseille","lat":43.23443,"lon":5.35942,"is_reserved":false,"is_disabled":false,"rental_uris":{"android":"levelo://app?vid=e55cea4f-26d4-4f9c-bf7a-025fd9a4a22d","ios":"levelo://app?vid=e55cea4f-26d4-4f9c-bf7a-025fd9a4a22d"},"vehicle_type_id":"4","last_reported":1751753354,"current_range_meters":14400,"station_id":"","pricing_plan_id":"cebpf4jnsgd1na2vs0mg"},{"bike_id":"883a31b2-32d0-40ae-abfb-0a8cad9f140f","system_id":"levelo_inurba_marseille","lat":43.309354,"lon":5.390348,"is_reserved":false,"is_disabled":false,"rental_uris":{"android":"levelo://app?vid=883a31b2-32d0-40ae-abfb-0a8cad9f140f","ios":"levelo://app?vid=883a31b2-32d0-40ae-abfb-0a8cad9f140f"},"vehicle_type_id":"4","last_reported":1751753354,"current_range_meters":14400,"station_id":"","pricing_plan_id":"cebpf4jnsgd1na2vs0mg"},{"bike_id":"6059c830-af5a-413e-a02b-0b02c64df85a","system_id":"levelo_inurba_marseille","lat":43.292583,"lon":5.384385,"is_reserved":false,"is_disabled":false,"rental_uris":{"android":"levelo://app?vid=6059c830-af5a-413e-a02b-0b02c64df85a","ios":"levelo://app?vid=6059c830-af5a-413e-a02b-0b02c64df85a"},"vehicle_type_id":"4","last_reported":1751753354,"current_range_meters":14400,"station_id":"ce4bh692rcd13ifvqea0","pricing_plan_id":"cebpf4jnsgd1na2vs0mg"},{"bike_id":"1133fa96-960d-45e6-9328-aa458deeee07","system_id":"levelo_inurba_marseille","lat":43.26208,"lon":5.40478,"is_reserved":false,"is_disabled":false,"rental_uris":{"android":"levelo://app?vid=1133fa96-960d-45e6-9328-aa458deeee07","ios":"levelo://app?vid=1133fa96-960d-45e6-9328-aa458deeee07"},"vehicle_type_id":"4","last_reported":1751753354,"current_range_meters":14400,"station_id":"ce4bhmh2rcd13ifvqgmg","pricing_plan_id":"cebpf4jnsgd1na2vs0mg"},{"bike_id":"37cd4b79-a10d-4edd-b60b-c80f44a2a812","system_id":"levelo_inurba_marseille","lat":43.24178,"lon":5.397377,"is_reserved":false,"is_disabled":false,"rental_uris":{"android":"levelo://app?vid=37cd4b79-a10d-4edd-b60b-c80f44a2a812","ios":"levelo://app?vid=37cd4b79-a10d-4edd-b60b-c80f44a2a812"},"vehicle_type_id":"4","last_reported":1751753354,"current_range_meters":14400,"station_id":"ce4bhn12rcd13ifvqgpg","pricing_plan_id":"cebpf4jnsgd1na2vs0mg"},{"bike_id":"f24de232-65c7-4be7-9e98-e4a9a828fd58","system_id":"levelo_inurba_marseille","lat":43.24263,"lon":5.3885,"is_reserved":false,"is_disabled":false,"rental_uris":{"android":"levelo://app?vid=f24de232-65c7-4be7-9e98-e4a9a828fd58","ios":"levelo://app?vid=f24de232-65c7-4be7-9e98-e4a9a828fd58"},"vehicle_type_id":"4","last_reported":1751753354,"current_range_meters":14800,"station_id":"","pricing_plan_id":"cebpf4jnsgd1na2vs0mg"},{"bike_id":"d8679dc8-784a-42e4-afea-f89f8ef2b3fa","system_id":"levelo_inurba_marseille","lat":43.24753,"lon":5.41132,"is_reserved":false,"is_disabled":false,"rental_uris":{"android":"levelo://app?vid=d8679dc8-784a-42e4-afea-f89f8ef2b3fa","ios":"levelo://app?vid=d8679dc8-784a-42e4-afea-f89f8ef2b3fa"},"vehicle_type_id":"4","last_reported":1751753354,"current_range_meters":14800,"station_id":"","pricing_plan_id":"cebpf4jnsgd1na2vs0mg"},{"bike_id":"38f7fbb9-ddf9-4adc-90d7-9ce9e9c6f27c","system_id":"levelo_inurba_marseille","lat":43.282348,"lon":5.385703,"is_reserved":false,"is_disabled":false,"rental_uris":{"android":"levelo://app?vid=38f7fbb9-ddf9-4adc-90d7-9ce9e9c6f27c","ios":"levelo://app?vid=38f7fbb9-ddf9-4adc-90d7-9ce9e9c6f27c"},"vehicle_type_id":"4","last_reported":1751753354,"current_range_meters":14800,"station_id":"","pricing_plan_id":"cebpf4jnsgd1na2vs0mg"},{"bike_id":"3f7401d9-d29b-4d8f-a46e-088d196d4511","system_id":"levelo_inurba_marseille","lat":43.29528,"lon":5.38543,"is_reserved":false,"is_disabled":false,"rental_uris":{"android":"levelo://app?vid=3f7401d9-d29b-4d8f-a46e-088d196d4511","ios":"levelo://app?vid=3f7401d9-d29b-4d8f-a46e-088d196d4511"},"vehicle_type_id":"4","last_reported":1751753354,"current_range_meters":14800,"station_id":"ce4bgih2rcd13ifvqba0","pricing_plan_id":"cebpf4jnsgd1na2vs0mg"},{"bike_id":"a1bf8a79-3de3-4ad6-ac80-317ac3c7b4a2","system_id":"levelo_inurba_marseille","lat":43.290975,"lon":5.381364,"is_reserved":false,"is_disabled":false,"rental_uris":{"android":"levelo://app?vid=a1bf8a79-3de3-4ad6-ac80-317ac3c7b4a2","ios":"levelo://app?vid=a1bf8a79-3de3-4ad6-ac80-317ac3c7b4a2"},"vehicle_type_id":"4","last_reported":1751753354,"current_range_meters":14800,"station_id":"ce4bh512rcd13ifvqe2g","pricing_plan_id":"cebpf4jnsgd1na2vs0mg"},{"bike_id":"7f0c1e3c-145d-459e-b135-55934e2c45cf","system_id":"levelo_inurba_marseille","lat":43.28147,"lon":5.42639,"is_reserved":false,"is_disabled":false,"rental_uris":{"android":"levelo://app?vid=7f0c1e3c-145d-459e-b135-55934e2c45cf","ios":"levelo://app?vid=7f0c1e3c-145d-459e-b135-55934e2c45cf"},"vehicle_type_id":"4","last_reported":1751753354,"current_range_meters":14800,"station_id":"ce4bhnh2rcd13ifvqgug","pricing_plan_id":"cebpf4jnsgd1na2vs0mg"},{"bike_id":"ec9a6424-4252-4e36-ba52-55e5884ef621","system_id":"levelo_inurba_marseille","lat":43.23188,"lon":5.35552,"is_reserved":false,"is_disabled":false,"rental_uris":{"android":"levelo://app?vid=ec9a6424-4252-4e36-ba52-55e5884ef621","ios":"levelo://app?vid=ec9a6424-4252-4e36-ba52-55e5884ef621"},"vehicle_type_id":"4","last_reported":1751753354,"current_range_meters":14800,"station_id":"ce4bhu92rcd13ifvqi70","pricing_plan_id":"cebpf4jnsgd1na2vs0mg"},{"bike_id":"1bdb02c3-7bbc-4c30-abd2-cd7dee2e633d","system_id":"levelo_inurba_marseille","lat":43.26946,"lon":5.40246,"is_reserved":false,"is_disabled":false,"rental_uris":{"android":"levelo://app?vid=1bdb02c3-7bbc-4c30-abd2-cd7dee2e633d","ios":"levelo://app?vid=1bdb02c3-7bbc-4c30-abd2-cd7dee2e633d"},"vehicle_type_id":"4","last_reported":1751753354,"current_range_meters":14800,"station_id":"cjm6bp8fraef2m0cb0m0","pricing_plan_id":"cebpf4jnsgd1na2vs0mg"},{"bike_id":"9cf0249f-eeef-4d62-bbc1-75b39c7cd182","system_id":"levelo_inurba_marseille","lat":43.29541,"lon":5.38559,"is_reserved":false,"is_disabled":false,"rental_uris":{"android":"levelo://app?vid=9cf0249f-eeef-4d62-bbc1-75b39c7cd182","ios":"levelo://app?vid=9cf0249f-eeef-4d62-bbc1-75b39c7cd182"},"vehicle_type_id":"4","last_reported":1751753354,"current_range_meters":15200,"station_id":"ce4bgih2rcd13ifvqba0","pricing_plan_id":"cebpf4jnsgd1na2vs0mg"},{"bike_id":"b4874045-0c5d-4605-88e4-a531167312cd","system_id":"levelo_inurba_marseille","lat":43.29968,"lon":5.38496,"is_reserved":false,"is_disabled":false,"rental_uris":{"android":"levelo://app?vid=b4874045-0c5d-4605-88e4-a531167312cd","ios":"levelo://app?vid=b4874045-0c5d-4605-88e4-a531167312cd"},"vehicle_type_id":"4","last_reported":1751753354,"current_range_meters":15200,"station_id":"ce4bgj92rcd13ifvqbd0","pricing_plan_id":"cebpf4jnsgd1na2vs0mg"},{"bike_id":"c2605c04-ed62-4cd1-a921-b67e24362106","system_id":"levelo_inurba_marseille","lat":43.31359,"lon":5.38508,"is_reserved":false,"is_disabled":false,"rental_uris":{"android":"levelo://app?vid=c2605c04-ed62-4cd1-a921-b67e24362106","ios":"levelo://app?vid=c2605c04-ed62-4cd1-a921-b67e24362106"},"vehicle_type_id":"4","last_reported":1751753354,"current_range_meters":15200,"station_id":"ce4bgt92rcd13ifvqcf0","pricing_plan_id":"cebpf4jnsgd1na2vs0mg"},{"bike_id":"9824f38e-cfcc-4e55-b8d0-95e4626abab9","system_id":"levelo_inurba_marseille","lat":43.27072,"lon":5.42279,"is_reserved":false,"is_disabled":false,"rental_uris":{"android":"levelo://app?vid=9824f38e-cfcc-4e55-b8d0-95e4626abab9","ios":"levelo://app?vid=9824f38e-cfcc-4e55-b8d0-95e4626abab9"},"vehicle_type_id":"4","last_reported":1751753354,"current_range_meters":15200,"station_id":"ce4bhk92rcd13ifvqgb0","pricing_plan_id":"cebpf4jnsgd1na2vs0mg"},{"bike_id":"d858b784-4fd9-41d7-8169-6d2f7e176251","system_id":"levelo_inurba_marseille","lat":43.3004,"lon":5.37809,"is_reserved":false,"is_disabled":false,"rental_uris":{"android":"levelo://app?vid=d858b784-4fd9-41d7-8169-6d2f7e176251","ios":"levelo://app?vid=d858b784-4fd9-41d7-8169-6d2f7e176251"},"vehicle_type_id":"4","last_reported":1751753354,"current_range_meters":16000,"station_id":"","pricing_plan_id":"cebpf4jnsgd1na2vs0mg"},{"bike_id":"f39db753-3c10-4016-9256-7f3c551cdab6","system_id":"levelo_inurba_marseille","lat":43.30467,"lon":5.379,"is_reserved":false,"is_disabled":false,"rental_uris":{"android":"levelo://app?vid=f39db753-3c10-4016-9256-7f3c551cdab6","ios":"levelo://app?vid=f39db753-3c10-4016-9256-7f3c551cdab6"},"vehicle_type_id":"4","last_reported":1751753354,"current_range_meters":16000,"station_id":"ce4bgup2rcd13ifvqcn0","pricing_plan_id":"cebpf4jnsgd1na2vs0mg"},{"bike_id":"affd2cdd-8e3c-4786-9921-d4a56a34bdc4","system_id":"levelo_inurba_marseille","lat":43.31169,"lon":5.38723,"is_reserved":false,"is_disabled":false,"rental_uris":{"android":"levelo://app?vid=affd2cdd-8e3c-4786-9921-d4a56a34bdc4","ios":"levelo://app?vid=affd2cdd-8e3c-4786-9921-d4a56a34bdc4"},"vehicle_type_id":"4","last_reported":1751753354,"current_range_meters":16000,"station_id":"ce4bgv12rcd13ifvqcp0","pricing_plan_id":"cebpf4jnsgd1na2vs0mg"},{"bike_id":"18e903c3-bd69-4cad-bc4b-fefd2f289489","system_id":"levelo_inurba_marseille","lat":43.26232,"lon":5.40455,"is_reserved":false,"is_disabled":false,"rental_uris":{"android":"levelo://app?vid=18e903c3-bd69-4cad-bc4b-fefd2f289489","ios":"levelo://app?vid=18e903c3-bd69-4cad-bc4b-fefd2f289489"},"vehicle_type_id":"4","last_reported":1751753354,"current_range_meters":16000,"station_id":"ce4bhmh2rcd13ifvqgmg","pricing_plan_id":"cebpf4jnsgd1na2vs0mg"},{"bike_id":"f4083786-8573-439f-9aac-f7840641a4f4","system_id":"levelo_inurba_marseille","lat":43.23188,"lon":5.39998,"is_reserved":false,"is_disabled":false,"rental_uris":{"android":"levelo://app?vid=f4083786-8573-439f-9aac-f7840641a4f4","ios":"levelo://app?vid=f4083786-8573-439f-9aac-f7840641a4f4"},"vehicle_type_id":"4","last_reported":1751753354,"current_range_meters":16000,"station_id":"ce4bhn12rcd13ifvqgqg","pricing_plan_id":"cebpf4jnsgd1na2vs0mg"},{"bike_id":"e934df3a-55ad-4287-be0e-970eb81a614c","system_id":"levelo_inurba_marseille","lat":43.3374,"lon":5.39196,"is_reserved":false,"is_disabled":false,"rental_uris":{"android":"levelo://app?vid=e934df3a-55ad-4287-be0e-970eb81a614c","ios":"levelo://app?vid=e934df3a-55ad-4287-be0e-970eb81a614c"},"vehicle_type_id":"4","last_reported":1751753354,"current_range_meters":16000,"station_id":"ce4bhr92rcd13ifvqhsg","pricing_plan_id":"cebpf4jnsgd1na2vs0mg"},{"bike_id":"452e8211-4f44-45d0-814a-3e9e25b8c44e","system_id":"levelo_inurba_marseille","lat":43.21198,"lon":5.35074,"is_reserved":false,"is_disabled":false,"rental_uris":{"android":"levelo://app?vid=452e8211-4f44-45d0-814a-3e9e25b8c44e","ios":"levelo://app?vid=452e8211-4f44-45d0-814a-3e9e25b8c44e"},"vehicle_type_id":"4","last_reported":1751753354,"current_range_meters":16000,"station_id":"st_cvj6sg6p6f1abm77japg","pricing_plan_id":"cebpf4jnsgd1na2vs0mg"},{"bike_id":"336ecdac-5394-4653-baf1-4b616e9b91fa","system_id":"levelo_inurba_marseille","lat":43.30325,"lon":5.40447,"is_reserved":false,"is_disabled":false,"rental_uris":{"android":"levelo://app?vid=336ecdac-5394-4653-baf1-4b616e9b91fa","ios":"levelo://app?vid=336ecdac-5394-4653-baf1-4b616e9b91fa"},"vehicle_type_id":"4","last_reported":1751753354,"current_range_meters":16400,"station_id":"ce4bh012rcd13ifvqd10","pricing_plan_id":"cebpf4jnsgd1na2vs0mg"},{"bike_id":"9f43e116-fbd8-47cf-985b-1e1a37c12d3b","system_id":"levelo_inurba_marseille","lat":43.2926,"lon":5.40912,"is_reserved":false,"is_disabled":false,"rental_uris":{"android":"levelo://app?vid=9f43e116-fbd8-47cf-985b-1e1a37c12d3b","ios":"levelo://app?vid=9f43e116-fbd8-47cf-985b-1e1a37c12d3b"},"vehicle_type_id":"4","last_reported":1751753354,"current_range_meters":16400,"station_id":"ce4bh192rcd13ifvqdc0","pricing_plan_id":"cebpf4jnsgd1na2vs0mg"},{"bike_id":"cfc641f1-7e19-4002-b630-9ad60ce98b37","system_id":"levelo_inurba_marseille","lat":43.29417,"lon":5.38614,"is_reserved":false,"is_disabled":false,"rental_uris":{"android":"levelo://app?vid=cfc641f1-7e19-4002-b630-9ad60ce98b37","ios":"levelo://app?vid=cfc641f1-7e19-4002-b630-9ad60ce98b37"},"vehicle_type_id":"4","last_reported":1751753354,"current_range_meters":16400,"station_id":"ce4bh2h2rcd13ifvqdh0","pricing_plan_id":"cebpf4jnsgd1na2vs0mg"},{"bike_id":"2839a6fa-69e6-491b-846d-9ad46f5e4b06","system_id":"levelo_inurba_marseille","lat":43.3211,"lon":5.3677,"is_reserved":false,"is_disabled":false,"rental_uris":{"android":"levelo://app?vid=2839a6fa-69e6-491b-846d-9ad46f5e4b06","ios":"levelo://app?vid=2839a6fa-69e6-491b-846d-9ad46f5e4b06"},"vehicle_type_id":"4","last_reported":1751753354,"current_range_meters":16400,"station_id":"ce4bhrh2rcd13ifvqhug","pricing_plan_id":"cebpf4jnsgd1na2vs0mg"},{"bike_id":"cd6f91d4-bdaf-4e38-b4f5-14f6e83055e8","system_id":"levelo_inurba_marseille","lat":43.21175,"lon":5.35076,"is_reserved":false,"is_disabled":false,"rental_uris":{"android":"levelo://app?vid=cd6f91d4-bdaf-4e38-b4f5-14f6e83055e8","ios":"levelo://app?vid=cd6f91d4-bdaf-4e38-b4f5-14f6e83055e8"},"vehicle_type_id":"4","last_reported":1751753354,"current_range_meters":16400,"station_id":"st_cvj6sg6p6f1abm77japg","pricing_plan_id":"cebpf4jnsgd1na2vs0mg"},{"bike_id":"52928a1c-1edc-47ad-9463-56de5df1ff03","system_id":"levelo_inurba_marseille","lat":43.29532,"lon":5.38546,"is_reserved":false,"is_disabled":false,"rental_uris":{"android":"levelo://app?vid=52928a1c-1edc-47ad-9463-56de5df1ff03","ios":"levelo://app?vid=52928a1c-1edc-47ad-9463-56de5df1ff03"},"vehicle_type_id":"4","last_reported":1751753354,"current_range_meters":16800,"station_id":"ce4bgih2rcd13ifvqba0","pricing_plan_id":"cebpf4jnsgd1na2vs0mg"},{"bike_id":"9f28415b-5428-4d1e-be25-244ff4d00520","system_id":"levelo_inurba_marseille","lat":43.305999,"lon":5.372328,"is_reserved":false,"is_disabled":false,"rental_uris":{"android":"levelo://app?vid=9f28415b-5428-4d1e-be25-244ff4d00520","ios":"levelo://app?vid=9f28415b-5428-4d1e-be25-244ff4d00520"},"vehicle_type_id":"4","last_reported":1751753354,"current_range_meters":16800,"station_id":"ce4bgqh2rcd13ifvqc4g","pricing_plan_id":"cebpf4jnsgd1na2vs0mg"},{"bike_id":"57eb87ae-ada6-4ec3-8528-9064837e5876","system_id":"levelo_inurba_marseille","lat":43.31356,"lon":5.38502,"is_reserved":false,"is_disabled":false,"rental_uris":{"android":"levelo://app?vid=57eb87ae-ada6-4ec3-8528-9064837e5876","ios":"levelo://app?vid=57eb87ae-ada6-4ec3-8528-9064837e5876"},"vehicle_type_id":"4","last_reported":1751753354,"current_range_meters":16800,"station_id":"ce4bgt92rcd13ifvqcf0","pricing_plan_id":"cebpf4jnsgd1na2vs0mg"},{"bike_id":"d3378bf5-79bc-4076-8203-d9ef1a33097e","system_id":"levelo_inurba_marseille","lat":43.30881,"lon":5.39647,"is_reserved":false,"is_disabled":false,"rental_uris":{"android":"levelo://app?vid=d3378bf5-79bc-4076-8203-d9ef1a33097e","ios":"levelo://app?vid=d3378bf5-79bc-4076-8203-d9ef1a33097e"},"vehicle_type_id":"4","last_reported":1751753354,"current_range_meters":16800,"station_id":"ce4bh012rcd13ifvqcv0","pricing_plan_id":"cebpf4jnsgd1na2vs0mg"},{"bike_id":"5923701a-f94d-4f4d-870a-d95e621cfbee","system_id":"levelo_inurba_marseille","lat":43.29632,"lon":5.40595,"is_reserved":false,"is_disabled":false,"rental_uris":{"android":"levelo://app?vid=5923701a-f94d-4f4d-870a-d95e621cfbee","ios":"levelo://app?vid=5923701a-f94d-4f4d-870a-d95e621cfbee"},"vehicle_type_id":"4","last_reported":1751753354,"current_range_meters":16800,"station_id":"ce4bh0h2rcd13ifvqd60","pricing_plan_id":"cebpf4jnsgd1na2vs0mg"},{"bike_id":"9bd05094-4d76-4fe2-94fc-e599a1f35145","system_id":"levelo_inurba_marseille","lat":43.28347,"lon":5.38102,"is_reserved":false,"is_disabled":false,"rental_uris":{"android":"levelo://app?vid=9bd05094-4d76-4fe2-94fc-e599a1f35145","ios":"levelo://app?vid=9bd05094-4d76-4fe2-94fc-e599a1f35145"},"vehicle_type_id":"4","last_reported":1751753354,"current_range_meters":16800,"station_id":"ce4bh412rcd13ifvqdr0","pricing_plan_id":"cebpf4jnsgd1na2vs0mg"},{"bike_id":"499d3f54-2cd6-4287-a69a-b233d09f3341","system_id":"levelo_inurba_marseille","lat":43.29257,"lon":5.38463,"is_reserved":false,"is_disabled":false,"rental_uris":{"android":"levelo://app?vid=499d3f54-2cd6-4287-a69a-b233d09f3341","ios":"levelo://app?vid=499d3f54-2cd6-4287-a69a-b233d09f3341"},"vehicle_type_id":"4","last_reported":1751753354,"current_range_meters":16800,"station_id":"ce4bh692rcd13ifvqea0","pricing_plan_id":"cebpf4jnsgd1na2vs0mg"},{"bike_id":"43f0d512-4503-4af1-8237-dc9ce98e5e2a","system_id":"levelo_inurba_marseille","lat":43.28105,"lon":5.3784,"is_reserved":false,"is_disabled":false,"rental_uris":{"android":"levelo://app?vid=43f0d512-4503-4af1-8237-dc9ce98e5e2a","ios":"levelo://app?vid=43f0d512-4503-4af1-8237-dc9ce98e5e2a"},"vehicle_type_id":"4","last_reported":1751753354,"current_range_meters":16800,"station_id":"ce4bha12rcd13ifvqee0","pricing_plan_id":"cebpf4jnsgd1na2vs0mg"},{"bike_id":"41d928e6-b9b0-4e48-84e1-7ba52781d76b","system_id":"levelo_inurba_marseille","lat":43.24662,"lon":5.38157,"is_reserved":false,"is_disabled":false,"rental_uris":{"android":"levelo://app?vid=41d928e6-b9b0-4e48-84e1-7ba52781d76b","ios":"levelo://app?vid=41d928e6-b9b0-4e48-84e1-7ba52781d76b"},"vehicle_type_id":"4","last_reported":1751753354,"current_range_meters":16800,"station_id":"ce4bhih2rcd13ifvqfr0","pricing_plan_id":"cebpf4jnsgd1na2vs0mg"},{"bike_id":"2dfe9a6c-c017-4c3c-b211-38be4ceaca18","system_id":"levelo_inurba_marseille","lat":43.25091,"lon":5.39494,"is_reserved":false,"is_disabled":false,"rental_uris":{"android":"levelo://app?vid=2dfe9a6c-c017-4c3c-b211-38be4ceaca18","ios":"levelo://app?vid=2dfe9a6c-c017-4c3c-b211-38be4ceaca18"},"vehicle_type_id":"4","last_reported":1751753354,"current_range_meters":16800,"station_id":"ce4bhm12rcd13ifvqgkg","pricing_plan_id":"cebpf4jnsgd1na2vs0mg"},{"bike_id":"f0f5480c-40ba-4897-b55b-fcab9ada1fbe","system_id":"levelo_inurba_marseille","lat":43.27937,"lon":5.41049,"is_reserved":false,"is_disabled":false,"rental_uris":{"android":"levelo://app?vid=f0f5480c-40ba-4897-b55b-fcab9ada1fbe","ios":"levelo://app?vid=f0f5480c-40ba-4897-b55b-fcab9ada1fbe"},"vehicle_type_id":"4","last_reported":1751753354,"current_range_meters":16800,"station_id":"ce4bhnp2rcd13ifvqh0g","pricing_plan_id":"cebpf4jnsgd1na2vs0mg"},{"bike_id":"96a0f744-b0b6-4347-85f0-0896ec669583","system_id":"levelo_inurba_marseille","lat":43.3199,"lon":5.38159,"is_reserved":false,"is_disabled":false,"rental_uris":{"android":"levelo://app?vid=96a0f744-b0b6-4347-85f0-0896ec669583","ios":"levelo://app?vid=96a0f744-b0b6-4347-85f0-0896ec669583"},"vehicle_type_id":"4","last_reported":1751753354,"current_range_meters":16800,"station_id":"ce4bhr12rcd13ifvqhpg","pricing_plan_id":"cebpf4jnsgd1na2vs0mg"},{"bike_id":"aca47642-4ceb-4a40-bae0-66b7f0d6dee2","system_id":"levelo_inurba_marseille","lat":43.22504,"lon":5.34785,"is_reserved":false,"is_disabled":false,"rental_uris":{"android":"levelo://app?vid=aca47642-4ceb-4a40-bae0-66b7f0d6dee2","ios":"levelo://app?vid=aca47642-4ceb-4a40-bae0-66b7f0d6dee2"},"vehicle_type_id":"4","last_reported":1751753354,"current_range_meters":16800,"station_id":"st_cvj5dfep6f1abm77gieg","pricing_plan_id":"cebpf4jnsgd1na2vs0mg"},{"bike_id":"19c552da-55bc-46d8-97cb-d1fbabdad01a","system_id":"levelo_inurba_marseille","lat":43.2119,"lon":5.35073,"is_reserved":false,"is_disabled":false,"rental_uris":{"android":"levelo://app?vid=19c552da-55bc-46d8-97cb-d1fbabdad01a","ios":"levelo://app?vid=19c552da-55bc-46d8-97cb-d1fbabdad01a"},"vehicle_type_id":"4","last_reported":1751753354,"current_range_meters":16800,"station_id":"st_cvj6sg6p6f1abm77japg","pricing_plan_id":"cebpf4jnsgd1na2vs0mg"},{"bike_id":"1a9e6ed3-9341-44e7-8d80-ee44edf98142","system_id":"levelo_inurba_marseille","lat":43.29532,"lon":5.38524,"is_reserved":false,"is_disabled":false,"rental_uris":{"android":"levelo://app?vid=1a9e6ed3-9341-44e7-8d80-ee44edf98142","ios":"levelo://app?vid=1a9e6ed3-9341-44e7-8d80-ee44edf98142"},"vehicle_type_id":"4","last_reported":1751753354,"current_range_meters":17200,"station_id":"ce4bgih2rcd13ifvqba0","pricing_plan_id":"cebpf4jnsgd1na2vs0mg"},{"bike_id":"c36c1dd5-94de-479e-9aa2-37440e999633","system_id":"levelo_inurba_marseille","lat":43.31169,"lon":5.38727,"is_reserved":false,"is_disabled":false,"rental_uris":{"android":"levelo://app?vid=c36c1dd5-94de-479e-9aa2-37440e999633","ios":"levelo://app?vid=c36c1dd5-94de-479e-9aa2-37440e999633"},"vehicle_type_id":"4","last_reported":1751753354,"current_range_meters":17200,"station_id":"ce4bgv12rcd13ifvqcp0","pricing_plan_id":"cebpf4jnsgd1na2vs0mg"},{"bike_id":"4166c441-fb53-4762-b247-67dc013ab031","system_id":"levelo_inurba_marseille","lat":43.29883,"lon":5.39733,"is_reserved":false,"is_disabled":false,"rental_uris":{"android":"levelo://app?vid=4166c441-fb53-4762-b247-67dc013ab031","ios":"levelo://app?vid=4166c441-fb53-4762-b247-67dc013ab031"},"vehicle_type_id":"4","last_reported":1751753354,"current_range_meters":17200,"station_id":"ce4bh0h2rcd13ifvqd50","pricing_plan_id":"cebpf4jnsgd1na2vs0mg"},{"bike_id":"51d4d77c-0374-4108-b7d2-962ceefa4559","system_id":"levelo_inurba_marseille","lat":43.24661,"lon":5.38164,"is_reserved":false,"is_disabled":false,"rental_uris":{"android":"levelo://app?vid=51d4d77c-0374-4108-b7d2-962ceefa4559","ios":"levelo://app?vid=51d4d77c-0374-4108-b7d2-962ceefa4559"},"vehicle_type_id":"4","last_reported":1751753354,"current_range_meters":17200,"station_id":"ce4bhih2rcd13ifvqfr0","pricing_plan_id":"cebpf4jnsgd1na2vs0mg"},{"bike_id":"8ff468c8-d5a3-466e-88fc-90eac9be3f72","system_id":"levelo_inurba_marseille","lat":43.25071,"lon":5.39498,"is_reserved":false,"is_disabled":false,"rental_uris":{"android":"levelo://app?vid=8ff468c8-d5a3-466e-88fc-90eac9be3f72","ios":"levelo://app?vid=8ff468c8-d5a3-466e-88fc-90eac9be3f72"},"vehicle_type_id":"4","last_reported":1751753354,"current_range_meters":17200,"station_id":"ce4bhm12rcd13ifvqgkg","pricing_plan_id":"cebpf4jnsgd1na2vs0mg"},{"bike_id":"2cf2f7e6-fdee-46ee-9a63-b754d7e424bf","system_id":"levelo_inurba_marseille","lat":43.2919,"lon":5.39317,"is_reserved":false,"is_disabled":false,"rental_uris":{"android":"levelo://app?vid=2cf2f7e6-fdee-46ee-9a63-b754d7e424bf","ios":"levelo://app?vid=2cf2f7e6-fdee-46ee-9a63-b754d7e424bf"},"vehicle_type_id":"4","last_reported":1751753354,"current_range_meters":17600,"station_id":"ce4bh192rcd13ifvqdd0","pricing_plan_id":"cebpf4jnsgd1na2vs0mg"},{"bike_id":"5c103641-7aca-446e-a0ba-923982afd491","system_id":"levelo_inurba_marseille","lat":43.29265,"lon":5.38435,"is_reserved":false,"is_disabled":false,"rental_uris":{"android":"levelo://app?vid=5c103641-7aca-446e-a0ba-923982afd491","ios":"levelo://app?vid=5c103641-7aca-446e-a0ba-923982afd491"},"vehicle_type_id":"4","last_reported":1751753354,"current_range_meters":17600,"station_id":"ce4bh692rcd13ifvqea0","pricing_plan_id":"cebpf4jnsgd1na2vs0mg"},{"bike_id":"da211476-c1fc-49af-98b9-ea6b5846176f","system_id":"levelo_inurba_marseille","lat":43.26062,"lon":5.39401,"is_reserved":false,"is_disabled":false,"rental_uris":{"android":"levelo://app?vid=da211476-c1fc-49af-98b9-ea6b5846176f","ios":"levelo://app?vid=da211476-c1fc-49af-98b9-ea6b5846176f"},"vehicle_type_id":"4","last_reported":1751753354,"current_range_meters":17600,"station_id":"ce4bhh92rcd13ifvqfj0","pricing_plan_id":"cebpf4jnsgd1na2vs0mg"},{"bike_id":"9c84e6bf-7181-4f55-9501-4734f5c5ee3d","system_id":"levelo_inurba_marseille","lat":43.276785,"lon":5.388746,"is_reserved":false,"is_disabled":false,"rental_uris":{"android":"levelo://app?vid=9c84e6bf-7181-4f55-9501-4734f5c5ee3d","ios":"levelo://app?vid=9c84e6bf-7181-4f55-9501-4734f5c5ee3d"},"vehicle_type_id":"4","last_reported":1751753354,"current_range_meters":17600,"station_id":"ce4bhi12rcd13ifvqfo0","pricing_plan_id":"cebpf4jnsgd1na2vs0mg"},{"bike_id":"f6a86765-c626-42dc-b436-5d5f093f6792","system_id":"levelo_inurba_marseille","lat":43.24663,"lon":5.3816,"is_reserved":false,"is_disabled":false,"rental_uris":{"android":"levelo://app?vid=f6a86765-c626-42dc-b436-5d5f093f6792","ios":"levelo://app?vid=f6a86765-c626-42dc-b436-5d5f093f6792"},"vehicle_type_id":"4","last_reported":1751753354,"current_range_meters":17600,"station_id":"ce4bhih2rcd13ifvqfr0","pricing_plan_id":"cebpf4jnsgd1na2vs0mg"},{"bike_id":"29b0eea3-e23a-4866-bf8f-3f219b5af86d","system_id":"levelo_inurba_marseille","lat":43.31703,"lon":5.37729,"is_reserved":false,"is_disabled":false,"rental_uris":{"android":"levelo://app?vid=29b0eea3-e23a-4866-bf8f-3f219b5af86d","ios":"levelo://app?vid=29b0eea3-e23a-4866-bf8f-3f219b5af86d"},"vehicle_type_id":"4","last_reported":1751753354,"current_range_meters":18000,"station_id":"ce4bgth2rcd13ifvqch0","pricing_plan_id":"cebpf4jnsgd1na2vs0mg"},{"bike_id":"7970b8ac-5a2b-47ae-8147-57c745850f74","system_id":"levelo_inurba_marseille","lat":43.29264,"lon":5.4091,"is_reserved":false,"is_disabled":false,"rental_uris":{"android":"levelo://app?vid=7970b8ac-5a2b-47ae-8147-57c745850f74","ios":"levelo://app?vid=7970b8ac-5a2b-47ae-8147-57c745850f74"},"vehicle_type_id":"4","last_reported":1751753354,"current_range_meters":18000,"station_id":"ce4bh192rcd13ifvqdc0","pricing_plan_id":"cebpf4jnsgd1na2vs0mg"},{"bike_id":"c2d602b1-41c8-4704-8c6e-47951f969f4d","system_id":"levelo_inurba_marseille","lat":43.28402,"lon":5.37538,"is_reserved":false,"is_disabled":false,"rental_uris":{"android":"levelo://app?vid=c2d602b1-41c8-4704-8c6e-47951f969f4d","ios":"levelo://app?vid=c2d602b1-41c8-4704-8c6e-47951f969f4d"},"vehicle_type_id":"4","last_reported":1751753354,"current_range_meters":18000,"station_id":"ce4bh412rcd13ifvqds0","pricing_plan_id":"cebpf4jnsgd1na2vs0mg"},{"bike_id":"28fc6484-e023-4ba9-829b-ef0c954b6413","system_id":"levelo_inurba_marseille","lat":43.25498,"lon":5.37651,"is_reserved":false,"is_disabled":false,"rental_uris":{"android":"levelo://app?vid=28fc6484-e023-4ba9-829b-ef0c954b6413","ios":"levelo://app?vid=28fc6484-e023-4ba9-829b-ef0c954b6413"},"vehicle_type_id":"4","last_reported":1751753354,"current_range_meters":18000,"station_id":"ce4bhh12rcd13ifvqff0","pricing_plan_id":"cebpf4jnsgd1na2vs0mg"},{"bike_id":"001c84d9-0c03-4f27-9212-9eb28e27f49d","system_id":"levelo_inurba_marseille","lat":43.25125,"lon":5.40314,"is_reserved":false,"is_disabled":false,"rental_uris":{"android":"levelo://app?vid=001c84d9-0c03-4f27-9212-9eb28e27f49d","ios":"levelo://app?vid=001c84d9-0c03-4f27-9212-9eb28e27f49d"},"vehicle_type_id":"4","last_reported":1751753354,"current_range_meters":18000,"station_id":"ce4bhlh2rcd13ifvqgig","pricing_plan_id":"cebpf4jnsgd1na2vs0mg"},{"bike_id":"d5ef770d-9759-47e3-b3a5-7d2785ef76db","system_id":"levelo_inurba_marseille","lat":43.3293,"lon":5.39006,"is_reserved":false,"is_disabled":false,"rental_uris":{"android":"levelo://app?vid=d5ef770d-9759-47e3-b3a5-7d2785ef76db","ios":"levelo://app?vid=d5ef770d-9759-47e3-b3a5-7d2785ef76db"},"vehicle_type_id":"4","last_reported":1751753354,"current_range_meters":18800,"station_id":"","pricing_plan_id":"cebpf4jnsgd1na2vs0mg"},{"bike_id":"83b675fd-1904-4cf7-bde7-95cad47ffafe","system_id":"levelo_inurba_marseille","lat":43.29413,"lon":5.38547,"is_reserved":false,"is_disabled":false,"rental_uris":{"android":"levelo://app?vid=83b675fd-1904-4cf7-bde7-95cad47ffafe","ios":"levelo://app?vid=83b675fd-1904-4cf7-bde7-95cad47ffafe"},"vehicle_type_id":"4","last_reported":1751753354,"current_range_meters":18800,"station_id":"","pricing_plan_id":"cebpf4jnsgd1na2vs0mg"},{"bike_id":"9b346f10-a955-4089-b466-e5754562e5e4","system_id":"levelo_inurba_marseille","lat":43.29531,"lon":5.38544,"is_reserved":false,"is_disabled":false,"rental_uris":{"android":"levelo://app?vid=9b346f10-a955-4089-b466-e5754562e5e4","ios":"levelo://app?vid=9b346f10-a955-4089-b466-e5754562e5e4"},"vehicle_type_id":"4","last_reported":1751753354,"current_range_meters":18800,"station_id":"ce4bgih2rcd13ifvqba0","pricing_plan_id":"cebpf4jnsgd1na2vs0mg"},{"bike_id":"dd5e2502-f64a-4e35-9b7f-2a4387b5208f","system_id":"levelo_inurba_marseille","lat":43.260628,"lon":5.393987,"is_reserved":false,"is_disabled":false,"rental_uris":{"android":"levelo://app?vid=dd5e2502-f64a-4e35-9b7f-2a4387b5208f","ios":"levelo://app?vid=dd5e2502-f64a-4e35-9b7f-2a4387b5208f"},"vehicle_type_id":"4","last_reported":1751753354,"current_range_meters":18800,"station_id":"ce4bhh92rcd13ifvqfj0","pricing_plan_id":"cebpf4jnsgd1na2vs0mg"},{"bike_id":"25fb851a-3784-4b5b-8574-e7b8ee9ae933","system_id":"levelo_inurba_marseille","lat":43.25577,"lon":5.38229,"is_reserved":false,"is_disabled":false,"rental_uris":{"android":"levelo://app?vid=25fb851a-3784-4b5b-8574-e7b8ee9ae933","ios":"levelo://app?vid=25fb851a-3784-4b5b-8574-e7b8ee9ae933"},"vehicle_type_id":"4","last_reported":1751753354,"current_range_meters":18800,"station_id":"ce4bhih2rcd13ifvqfs0","pricing_plan_id":"cebpf4jnsgd1na2vs0mg"},{"bike_id":"09477c97-98e3-42fd-800d-d7e6e7d10e81","system_id":"levelo_inurba_marseille","lat":43.24069,"lon":5.37765,"is_reserved":false,"is_disabled":false,"rental_uris":{"android":"levelo://app?vid=09477c97-98e3-42fd-800d-d7e6e7d10e81","ios":"levelo://app?vid=09477c97-98e3-42fd-800d-d7e6e7d10e81"},"vehicle_type_id":"4","last_reported":1751753354,"current_range_meters":18800,"station_id":"ce4bhnp2rcd13ifvqgvg","pricing_plan_id":"cebpf4jnsgd1na2vs0mg"},{"bike_id":"80955d0f-8669-4c02-b90f-c6fe20790c37","system_id":"levelo_inurba_marseille","lat":43.23193,"lon":5.35054,"is_reserved":false,"is_disabled":false,"rental_uris":{"android":"levelo://app?vid=80955d0f-8669-4c02-b90f-c6fe20790c37","ios":"levelo://app?vid=80955d0f-8669-4c02-b90f-c6fe20790c37"},"vehicle_type_id":"4","last_reported":1751753354,"current_range_meters":19200,"station_id":"","pricing_plan_id":"cebpf4jnsgd1na2vs0mg"},{"bike_id":"3b22f952-d0bc-4c00-8fd3-7e27b88aea23","system_id":"levelo_inurba_marseille","lat":43.29659,"lon":5.36245,"is_reserved":false,"is_disabled":false,"rental_uris":{"android":"levelo://app?vid=3b22f952-d0bc-4c00-8fd3-7e27b88aea23","ios":"levelo://app?vid=3b22f952-d0bc-4c00-8fd3-7e27b88aea23"},"vehicle_type_id":"4","last_reported":1751753354,"current_range_meters":19200,"station_id":"","pricing_plan_id":"cebpf4jnsgd1na2vs0mg"},{"bike_id":"aef85d74-548e-4bb9-b4e6-0b256b1d7647","system_id":"levelo_inurba_marseille","lat":43.28984,"lon":5.37837,"is_reserved":false,"is_disabled":false,"rental_uris":{"android":"levelo://app?vid=aef85d74-548e-4bb9-b4e6-0b256b1d7647","ios":"levelo://app?vid=aef85d74-548e-4bb9-b4e6-0b256b1d7647"},"vehicle_type_id":"4","last_reported":1751753354,"current_range_meters":19200,"station_id":"ce4bh9p2rcd13ifvqed0","pricing_plan_id":"cebpf4jnsgd1na2vs0mg"},{"bike_id":"e7b27882-db58-46b9-af01-d83c8e28dced","system_id":"levelo_inurba_marseille","lat":43.2621,"lon":5.37446,"is_reserved":false,"is_disabled":false,"rental_uris":{"android":"levelo://app?vid=e7b27882-db58-46b9-af01-d83c8e28dced","ios":"levelo://app?vid=e7b27882-db58-46b9-af01-d83c8e28dced"},"vehicle_type_id":"4","last_reported":1751753354,"current_range_meters":19200,"station_id":"ce4bhgp2rcd13ifvqfc0","pricing_plan_id":"cebpf4jnsgd1na2vs0mg"},{"bike_id":"9ef698f4-18f6-4b48-b73c-075baff69d4c","system_id":"levelo_inurba_marseille","lat":43.271183,"lon":5.386198,"is_reserved":false,"is_disabled":false,"rental_uris":{"android":"levelo://app?vid=9ef698f4-18f6-4b48-b73c-075baff69d4c","ios":"levelo://app?vid=9ef698f4-18f6-4b48-b73c-075baff69d4c"},"vehicle_type_id":"4","last_reported":1751753354,"current_range_meters":19200,"station_id":"ce4bhh92rcd13ifvqfh0","pricing_plan_id":"cebpf4jnsgd1na2vs0mg"},{"bike_id":"e113175a-26c2-4709-bd2e-8b90ec8dd3ee","system_id":"levelo_inurba_marseille","lat":43.27497,"lon":5.42458,"is_reserved":false,"is_disabled":false,"rental_uris":{"android":"levelo://app?vid=e113175a-26c2-4709-bd2e-8b90ec8dd3ee","ios":"levelo://app?vid=e113175a-26c2-4709-bd2e-8b90ec8dd3ee"},"vehicle_type_id":"4","last_reported":1751753354,"current_range_meters":19200,"station_id":"ce4bhn92rcd13ifvqgrg","pricing_plan_id":"cebpf4jnsgd1na2vs0mg"},{"bike_id":"aa8f61d8-323f-47e5-890f-90ad80dab82c","system_id":"levelo_inurba_marseille","lat":43.33731,"lon":5.39197,"is_reserved":false,"is_disabled":false,"rental_uris":{"android":"levelo://app?vid=aa8f61d8-323f-47e5-890f-90ad80dab82c","ios":"levelo://app?vid=aa8f61d8-323f-47e5-890f-90ad80dab82c"},"vehicle_type_id":"4","last_reported":1751753354,"current_range_meters":19200,"station_id":"ce4bhr92rcd13ifvqhsg","pricing_plan_id":"cebpf4jnsgd1na2vs0mg"},{"bike_id":"e8d7fcf5-14a0-430b-a247-ddceafd06b95","system_id":"levelo_inurba_marseille","lat":43.22513,"lon":5.34774,"is_reserved":false,"is_disabled":false,"rental_uris":{"android":"levelo://app?vid=e8d7fcf5-14a0-430b-a247-ddceafd06b95","ios":"levelo://app?vid=e8d7fcf5-14a0-430b-a247-ddceafd06b95"},"vehicle_type_id":"4","last_reported":1751753354,"current_range_meters":19200,"station_id":"st_cvj5dfep6f1abm77gieg","pricing_plan_id":"cebpf4jnsgd1na2vs0mg"},{"bike_id":"d0f90c24-dd03-411b-9731-55305f76b7c8","system_id":"levelo_inurba_marseille","lat":43.21217,"lon":5.35091,"is_reserved":false,"is_disabled":false,"rental_uris":{"android":"levelo://app?vid=d0f90c24-dd03-411b-9731-55305f76b7c8","ios":"levelo://app?vid=d0f90c24-dd03-411b-9731-55305f76b7c8"},"vehicle_type_id":"4","last_reported":1751753354,"current_range_meters":19200,"station_id":"st_cvj6sg6p6f1abm77japg","pricing_plan_id":"cebpf4jnsgd1na2vs0mg"},{"bike_id":"37f2becd-23f9-4f13-a711-38b8024eeec7","system_id":"levelo_inurba_marseille","lat":43.33768,"lon":5.37516,"is_reserved":false,"is_disabled":false,"rental_uris":{"android":"levelo://app?vid=37f2becd-23f9-4f13-a711-38b8024eeec7","ios":"levelo://app?vid=37f2becd-23f9-4f13-a711-38b8024eeec7"},"vehicle_type_id":"4","last_reported":1751753354,"current_range_meters":19600,"station_id":"","pricing_plan_id":"cebpf4jnsgd1na2vs0mg"},{"bike_id":"94944134-dabd-43fb-b264-fe256d8d4270","system_id":"levelo_inurba_marseille","lat":43.26035,"lon":5.37547,"is_reserved":false,"is_disabled":false,"rental_uris":{"android":"levelo://app?vid=94944134-dabd-43fb-b264-fe256d8d4270","ios":"levelo://app?vid=94944134-dabd-43fb-b264-fe256d8d4270"},"vehicle_type_id":"4","last_reported":1751753354,"current_range_meters":19600,"station_id":"ce4bhgh2rcd13ifvqfa0","pricing_plan_id":"cebpf4jnsgd1na2vs0mg"},{"bike_id":"ad35e9c5-194e-450b-bed8-7ca855cfff07","system_id":"levelo_inurba_marseille","lat":43.24815,"lon":5.37457,"is_reserved":false,"is_disabled":false,"rental_uris":{"android":"levelo://app?vid=ad35e9c5-194e-450b-bed8-7ca855cfff07","ios":"levelo://app?vid=ad35e9c5-194e-450b-bed8-7ca855cfff07"},"vehicle_type_id":"4","last_reported":1751753354,"current_range_meters":19600,"station_id":"ce4bhgh2rcd13ifvqfb0","pricing_plan_id":"cebpf4jnsgd1na2vs0mg"},{"bike_id":"2bf4b9e0-53d7-40d0-88f8-3e7c1317d4b5","system_id":"levelo_inurba_marseille","lat":43.286932,"lon":5.399871,"is_reserved":false,"is_disabled":false,"rental_uris":{"android":"levelo://app?vid=2bf4b9e0-53d7-40d0-88f8-3e7c1317d4b5","ios":"levelo://app?vid=2bf4b9e0-53d7-40d0-88f8-3e7c1317d4b5"},"vehicle_type_id":"4","last_reported":1751753354,"current_range_meters":19600,"station_id":"ce4bho92rcd13ifvqh3g","pricing_plan_id":"cebpf4jnsgd1na2vs0mg"},{"bike_id":"ab52247b-5360-4609-8e6c-17288817534c","system_id":"levelo_inurba_marseille","lat":43.303107,"lon":5.404397,"is_reserved":false,"is_disabled":false,"rental_uris":{"android":"levelo://app?vid=ab52247b-5360-4609-8e6c-17288817534c","ios":"levelo://app?vid=ab52247b-5360-4609-8e6c-17288817534c"},"vehicle_type_id":"4","last_reported":1751753354,"current_range_meters":20000,"station_id":"ce4bh012rcd13ifvqd10","pricing_plan_id":"cebpf4jnsgd1na2vs0mg"},{"bike_id":"6dc6ebca-5b26-4ce5-8c4f-b8e201944964","system_id":"levelo_inurba_marseille","lat":43.28574,"lon":5.39499,"is_reserved":false,"is_disabled":false,"rental_uris":{"android":"levelo://app?vid=6dc6ebca-5b26-4ce5-8c4f-b8e201944964","ios":"levelo://app?vid=6dc6ebca-5b26-4ce5-8c4f-b8e201944964"},"vehicle_type_id":"4","last_reported":1751753354,"current_range_meters":20000,"station_id":"ce4bh292rcd13ifvqdg0","pricing_plan_id":"cebpf4jnsgd1na2vs0mg"},{"bike_id":"91a64cb4-47db-453c-a8f1-ef9f11081023","system_id":"levelo_inurba_marseille","lat":43.31172,"lon":5.38714,"is_reserved":false,"is_disabled":false,"rental_uris":{"android":"levelo://app?vid=91a64cb4-47db-453c-a8f1-ef9f11081023","ios":"levelo://app?vid=91a64cb4-47db-453c-a8f1-ef9f11081023"},"vehicle_type_id":"4","last_reported":1751753354,"current_range_meters":20400,"station_id":"ce4bgv12rcd13ifvqcp0","pricing_plan_id":"cebpf4jnsgd1na2vs0mg"},{"bike_id":"3dd81c21-8709-4be6-a37b-f263d5765d29","system_id":"levelo_inurba_marseille","lat":43.28351,"lon":5.38102,"is_reserved":false,"is_disabled":false,"rental_uris":{"android":"levelo://app?vid=3dd81c21-8709-4be6-a37b-f263d5765d29","ios":"levelo://app?vid=3dd81c21-8709-4be6-a37b-f263d5765d29"},"vehicle_type_id":"4","last_reported":1751753354,"current_range_meters":20400,"station_id":"ce4bh412rcd13ifvqdr0","pricing_plan_id":"cebpf4jnsgd1na2vs0mg"},{"bike_id":"739cb164-70d5-4bf0-8a42-cb2a2f19b753","system_id":"levelo_inurba_marseille","lat":43.25865,"lon":5.39906,"is_reserved":false,"is_disabled":false,"rental_uris":{"android":"levelo://app?vid=739cb164-70d5-4bf0-8a42-cb2a2f19b753","ios":"levelo://app?vid=739cb164-70d5-4bf0-8a42-cb2a2f19b753"},"vehicle_type_id":"4","last_reported":1751753354,"current_range_meters":20400,"station_id":"ce4bhl92rcd13ifvqghg","pricing_plan_id":"cebpf4jnsgd1na2vs0mg"},{"bike_id":"7febba82-4ee5-4c18-8db2-651774aa92ef","system_id":"levelo_inurba_marseille","lat":43.24074,"lon":5.3776,"is_reserved":false,"is_disabled":false,"rental_uris":{"android":"levelo://app?vid=7febba82-4ee5-4c18-8db2-651774aa92ef","ios":"levelo://app?vid=7febba82-4ee5-4c18-8db2-651774aa92ef"},"vehicle_type_id":"4","last_reported":1751753354,"current_range_meters":20400,"station_id":"ce4bhnp2rcd13ifvqgvg","pricing_plan_id":"cebpf4jnsgd1na2vs0mg"},{"bike_id":"d1a72572-4347-4d66-b9ca-75ff8f8b0210","system_id":"levelo_inurba_marseille","lat":43.32002,"lon":5.38161,"is_reserved":false,"is_disabled":false,"rental_uris":{"android":"levelo://app?vid=d1a72572-4347-4d66-b9ca-75ff8f8b0210","ios":"levelo://app?vid=d1a72572-4347-4d66-b9ca-75ff8f8b0210"},"vehicle_type_id":"4","last_reported":1751753354,"current_range_meters":20400,"station_id":"ce4bhr12rcd13ifvqhpg","pricing_plan_id":"cebpf4jnsgd1na2vs0mg"},{"bike_id":"dc4d1d68-e685-4133-a44f-2028dcd38608","system_id":"levelo_inurba_marseille","lat":43.29526,"lon":5.38536,"is_reserved":false,"is_disabled":false,"rental_uris":{"android":"levelo://app?vid=dc4d1d68-e685-4133-a44f-2028dcd38608","ios":"levelo://app?vid=dc4d1d68-e685-4133-a44f-2028dcd38608"},"vehicle_type_id":"4","last_reported":1751753354,"current_range_meters":20800,"station_id":"ce4bgih2rcd13ifvqba0","pricing_plan_id":"cebpf4jnsgd1na2vs0mg"},{"bike_id":"29f534f3-f43b-40a1-972c-ff4928125cc6","system_id":"levelo_inurba_marseille","lat":43.31363,"lon":5.385,"is_reserved":false,"is_disabled":false,"rental_uris":{"android":"levelo://app?vid=29f534f3-f43b-40a1-972c-ff4928125cc6","ios":"levelo://app?vid=29f534f3-f43b-40a1-972c-ff4928125cc6"},"vehicle_type_id":"4","last_reported":1751753354,"current_range_meters":20800,"station_id":"ce4bgt92rcd13ifvqcf0","pricing_plan_id":"cebpf4jnsgd1na2vs0mg"},{"bike_id":"ed37718d-a2c7-4530-ba9e-c767d8b21c15","system_id":"levelo_inurba_marseille","lat":43.301752,"lon":5.398473,"is_reserved":false,"is_disabled":false,"rental_uris":{"android":"levelo://app?vid=ed37718d-a2c7-4530-ba9e-c767d8b21c15","ios":"levelo://app?vid=ed37718d-a2c7-4530-ba9e-c767d8b21c15"},"vehicle_type_id":"4","last_reported":1751753354,"current_range_meters":20800,"station_id":"ce4bh0h2rcd13ifvqd40","pricing_plan_id":"cebpf4jnsgd1na2vs0mg"},{"bike_id":"ac7989dc-e98d-4e49-9807-ea88ffe36c68","system_id":"levelo_inurba_marseille","lat":43.293346,"lon":5.376779,"is_reserved":false,"is_disabled":false,"rental_uris":{"android":"levelo://app?vid=ac7989dc-e98d-4e49-9807-ea88ffe36c68","ios":"levelo://app?vid=ac7989dc-e98d-4e49-9807-ea88ffe36c68"},"vehicle_type_id":"4","last_reported":1751753354,"current_range_meters":20800,"station_id":"ce4bh9p2rcd13ifvqed0","pricing_plan_id":"cebpf4jnsgd1na2vs0mg"},{"bike_id":"e7489b30-6335-41fb-a812-66bbfd351672","system_id":"levelo_inurba_marseille","lat":43.29226,"lon":5.3606,"is_reserved":false,"is_disabled":false,"rental_uris":{"android":"levelo://app?vid=e7489b30-6335-41fb-a812-66bbfd351672","ios":"levelo://app?vid=e7489b30-6335-41fb-a812-66bbfd351672"},"vehicle_type_id":"4","last_reported":1751753354,"current_range_meters":20800,"station_id":"ce4bhbh2rcd13ifvqeqg","pricing_plan_id":"cebpf4jnsgd1na2vs0mg"},{"bike_id":"782b3025-334b-495f-abfb-7f1d25f8b2ce","system_id":"levelo_inurba_marseille","lat":43.29553,"lon":5.42298,"is_reserved":false,"is_disabled":false,"rental_uris":{"android":"levelo://app?vid=782b3025-334b-495f-abfb-7f1d25f8b2ce","ios":"levelo://app?vid=782b3025-334b-495f-abfb-7f1d25f8b2ce"},"vehicle_type_id":"4","last_reported":1751753354,"current_range_meters":20800,"station_id":"ce4bhph2rcd13ifvqhdg","pricing_plan_id":"cebpf4jnsgd1na2vs0mg"},{"bike_id":"5a5fcf8f-78fc-4aa3-9c4d-16dcbf7a9f1c","system_id":"levelo_inurba_marseille","lat":43.29533,"lon":5.38544,"is_reserved":false,"is_disabled":false,"rental_uris":{"android":"levelo://app?vid=5a5fcf8f-78fc-4aa3-9c4d-16dcbf7a9f1c","ios":"levelo://app?vid=5a5fcf8f-78fc-4aa3-9c4d-16dcbf7a9f1c"},"vehicle_type_id":"4","last_reported":1751753354,"current_range_meters":21600,"station_id":"ce4bgih2rcd13ifvqba0","pricing_plan_id":"cebpf4jnsgd1na2vs0mg"},{"bike_id":"050c59a1-4ec3-4883-a100-ece3c45ac0a4","system_id":"levelo_inurba_marseille","lat":43.28673,"lon":5.38657,"is_reserved":false,"is_disabled":false,"rental_uris":{"android":"levelo://app?vid=050c59a1-4ec3-4883-a100-ece3c45ac0a4","ios":"levelo://app?vid=050c59a1-4ec3-4883-a100-ece3c45ac0a4"},"vehicle_type_id":"4","last_reported":1751753354,"current_range_meters":21600,"station_id":"ce4bh492rcd13ifvqdug","pricing_plan_id":"cebpf4jnsgd1na2vs0mg"},{"bike_id":"2549007a-d790-4b44-ba7a-efd367d5a1df","system_id":"levelo_inurba_marseille","lat":43.28035,"lon":5.36952,"is_reserved":false,"is_disabled":false,"rental_uris":{"android":"levelo://app?vid=2549007a-d790-4b44-ba7a-efd367d5a1df","ios":"levelo://app?vid=2549007a-d790-4b44-ba7a-efd367d5a1df"},"vehicle_type_id":"4","last_reported":1751753354,"current_range_meters":21600,"station_id":"ce4bha12rcd13ifvqef0","pricing_plan_id":"cebpf4jnsgd1na2vs0mg"},{"bike_id":"7fa809a8-ad88-4ecd-b549-be0feac7c1e8","system_id":"levelo_inurba_marseille","lat":43.24388,"lon":5.37055,"is_reserved":false,"is_disabled":false,"rental_uris":{"android":"levelo://app?vid=7fa809a8-ad88-4ecd-b549-be0feac7c1e8","ios":"levelo://app?vid=7fa809a8-ad88-4ecd-b549-be0feac7c1e8"},"vehicle_type_id":"4","last_reported":1751753354,"current_range_meters":21600,"station_id":"ce4bhhh2rcd13ifvqfk0","pricing_plan_id":"cebpf4jnsgd1na2vs0mg"},{"bike_id":"369c8dd5-1813-419d-a4e5-23b99d5734f3","system_id":"levelo_inurba_marseille","lat":43.21198,"lon":5.35094,"is_reserved":false,"is_disabled":false,"rental_uris":{"android":"levelo://app?vid=369c8dd5-1813-419d-a4e5-23b99d5734f3","ios":"levelo://app?vid=369c8dd5-1813-419d-a4e5-23b99d5734f3"},"vehicle_type_id":"4","last_reported":1751753354,"current_range_meters":22000,"station_id":"","pricing_plan_id":"cebpf4jnsgd1na2vs0mg"},{"bike_id":"4e77bc58-0d8c-4d4f-95e8-e7330563ba72","system_id":"levelo_inurba_marseille","lat":43.29575,"lon":5.3999,"is_reserved":false,"is_disabled":false,"rental_uris":{"android":"levelo://app?vid=4e77bc58-0d8c-4d4f-95e8-e7330563ba72","ios":"levelo://app?vid=4e77bc58-0d8c-4d4f-95e8-e7330563ba72"},"vehicle_type_id":"4","last_reported":1751753354,"current_range_meters":22000,"station_id":"ce4bh312rcd13ifvqdj0","pricing_plan_id":"cebpf4jnsgd1na2vs0mg"},{"bike_id":"8ebfd25a-e2f5-4b64-8815-88dd33e0b5f8","system_id":"levelo_inurba_marseille","lat":43.269412,"lon":5.402652,"is_reserved":false,"is_disabled":false,"rental_uris":{"android":"levelo://app?vid=8ebfd25a-e2f5-4b64-8815-88dd33e0b5f8","ios":"levelo://app?vid=8ebfd25a-e2f5-4b64-8815-88dd33e0b5f8"},"vehicle_type_id":"4","last_reported":1751753354,"current_range_meters":22000,"station_id":"cjm6bp8fraef2m0cb0m0","pricing_plan_id":"cebpf4jnsgd1na2vs0mg"},{"bike_id":"e7137259-a8cc-465f-80c9-301193a6bbc3","system_id":"levelo_inurba_marseille","lat":43.21206,"lon":5.35096,"is_reserved":false,"is_disabled":false,"rental_uris":{"android":"levelo://app?vid=e7137259-a8cc-465f-80c9-301193a6bbc3","ios":"levelo://app?vid=e7137259-a8cc-465f-80c9-301193a6bbc3"},"vehicle_type_id":"4","last_reported":1751753354,"current_range_meters":22000,"station_id":"st_cvj6sg6p6f1abm77japg","pricing_plan_id":"cebpf4jnsgd1na2vs0mg"},{"bike_id":"79c25de2-5607-4a11-b0a7-37ebd490bcc3","system_id":"levelo_inurba_marseille","lat":43.27975,"lon":5.3876,"is_reserved":false,"is_disabled":false,"rental_uris":{"android":"levelo://app?vid=79c25de2-5607-4a11-b0a7-37ebd490bcc3","ios":"levelo://app?vid=79c25de2-5607-4a11-b0a7-37ebd490bcc3"},"vehicle_type_id":"4","last_reported":1751753354,"current_range_meters":22400,"station_id":"ce4bhg12rcd13ifvqf80","pricing_plan_id":"cebpf4jnsgd1na2vs0mg"},{"bike_id":"3c2aa2cd-f034-450e-acce-1e09f038dee8","system_id":"levelo_inurba_marseille","lat":43.25112,"lon":5.4033,"is_reserved":false,"is_disabled":false,"rental_uris":{"android":"levelo://app?vid=3c2aa2cd-f034-450e-acce-1e09f038dee8","ios":"levelo://app?vid=3c2aa2cd-f034-450e-acce-1e09f038dee8"},"vehicle_type_id":"4","last_reported":1751753354,"current_range_meters":22400,"station_id":"ce4bhlh2rcd13ifvqgig","pricing_plan_id":"cebpf4jnsgd1na2vs0mg"},{"bike_id":"cb89440e-5507-479e-8f72-87930af17d8e","system_id":"levelo_inurba_marseille","lat":43.24174,"lon":5.39727,"is_reserved":false,"is_disabled":false,"rental_uris":{"android":"levelo://app?vid=cb89440e-5507-479e-8f72-87930af17d8e","ios":"levelo://app?vid=cb89440e-5507-479e-8f72-87930af17d8e"},"vehicle_type_id":"4","last_reported":1751753354,"current_range_meters":22400,"station_id":"ce4bhn12rcd13ifvqgpg","pricing_plan_id":"cebpf4jnsgd1na2vs0mg"},{"bike_id":"e6d6a01f-f4b0-4083-9bc9-f82e7280e7df","system_id":"levelo_inurba_marseille","lat":43.23194,"lon":5.35552,"is_reserved":false,"is_disabled":false,"rental_uris":{"android":"levelo://app?vid=e6d6a01f-f4b0-4083-9bc9-f82e7280e7df","ios":"levelo://app?vid=e6d6a01f-f4b0-4083-9bc9-f82e7280e7df"},"vehicle_type_id":"4","last_reported":1751753354,"current_range_meters":22400,"station_id":"ce4bhu92rcd13ifvqi70","pricing_plan_id":"cebpf4jnsgd1na2vs0mg"},{"bike_id":"e37e8cf5-b34e-4171-845d-774a1306b78c","system_id":"levelo_inurba_marseille","lat":43.30267,"lon":5.40071,"is_reserved":false,"is_disabled":false,"rental_uris":{"android":"levelo://app?vid=e37e8cf5-b34e-4171-845d-774a1306b78c","ios":"levelo://app?vid=e37e8cf5-b34e-4171-845d-774a1306b78c"},"vehicle_type_id":"4","last_reported":1751753354,"current_range_meters":22800,"station_id":"ce4bgvh2rcd13ifvqcs0","pricing_plan_id":"cebpf4jnsgd1na2vs0mg"},{"bike_id":"f723588c-5019-4049-bb23-d1e8f5fe6288","system_id":"levelo_inurba_marseille","lat":43.28683,"lon":5.38676,"is_reserved":false,"is_disabled":false,"rental_uris":{"android":"levelo://app?vid=f723588c-5019-4049-bb23-d1e8f5fe6288","ios":"levelo://app?vid=f723588c-5019-4049-bb23-d1e8f5fe6288"},"vehicle_type_id":"4","last_reported":1751753354,"current_range_meters":22800,"station_id":"ce4bh492rcd13ifvqdug","pricing_plan_id":"cebpf4jnsgd1na2vs0mg"},{"bike_id":"85a4a00b-b3ef-4c84-aac1-8148d9d30bb9","system_id":"levelo_inurba_marseille","lat":43.29018,"lon":5.38649,"is_reserved":false,"is_disabled":false,"rental_uris":{"android":"levelo://app?vid=85a4a00b-b3ef-4c84-aac1-8148d9d30bb9","ios":"levelo://app?vid=85a4a00b-b3ef-4c84-aac1-8148d9d30bb9"},"vehicle_type_id":"4","last_reported":1751753354,"current_range_meters":22800,"station_id":"ce4bh4p2rcd13ifvqe0g","pricing_plan_id":"cebpf4jnsgd1na2vs0mg"},{"bike_id":"e7af0a00-6167-4e68-bd0f-3f5a807e7848","system_id":"levelo_inurba_marseille","lat":43.323604,"lon":5.388866,"is_reserved":false,"is_disabled":false,"rental_uris":{"android":"levelo://app?vid=e7af0a00-6167-4e68-bd0f-3f5a807e7848","ios":"levelo://app?vid=e7af0a00-6167-4e68-bd0f-3f5a807e7848"},"vehicle_type_id":"4","last_reported":1751753354,"current_range_meters":22800,"station_id":"ce4bhqp2rcd13ifvqhog","pricing_plan_id":"cebpf4jnsgd1na2vs0mg"},{"bike_id":"999bf1d9-3a81-447e-922b-375213cb8f9c","system_id":"levelo_inurba_marseille","lat":43.33031,"lon":5.39052,"is_reserved":false,"is_disabled":false,"rental_uris":{"android":"levelo://app?vid=999bf1d9-3a81-447e-922b-375213cb8f9c","ios":"levelo://app?vid=999bf1d9-3a81-447e-922b-375213cb8f9c"},"vehicle_type_id":"4","last_reported":1751753354,"current_range_meters":22800,"station_id":"ce4bhr92rcd13ifvqhrg","pricing_plan_id":"cebpf4jnsgd1na2vs0mg"},{"bike_id":"166898d0-1db3-45bd-ba13-ca56587caba8","system_id":"levelo_inurba_marseille","lat":43.29521,"lon":5.39401,"is_reserved":false,"is_disabled":false,"rental_uris":{"android":"levelo://app?vid=166898d0-1db3-45bd-ba13-ca56587caba8","ios":"levelo://app?vid=166898d0-1db3-45bd-ba13-ca56587caba8"},"vehicle_type_id":"4","last_reported":1751753354,"current_range_meters":23200,"station_id":"ce4bh292rcd13ifvqdf0","pricing_plan_id":"cebpf4jnsgd1na2vs0mg"},{"bike_id":"aab26c55-c81e-4c4e-a9ac-4136e53c05d7","system_id":"levelo_inurba_marseille","lat":43.286636,"lon":5.386708,"is_reserved":false,"is_disabled":false,"rental_uris":{"android":"levelo://app?vid=aab26c55-c81e-4c4e-a9ac-4136e53c05d7","ios":"levelo://app?vid=aab26c55-c81e-4c4e-a9ac-4136e53c05d7"},"vehicle_type_id":"4","last_reported":1751753354,"current_range_meters":23200,"station_id":"ce4bh492rcd13ifvqdug","pricing_plan_id":"cebpf4jnsgd1na2vs0mg"},{"bike_id":"4e84bf91-5378-40f7-a68e-92b62a09cb80","system_id":"levelo_inurba_marseille","lat":43.30987,"lon":5.41746,"is_reserved":false,"is_disabled":false,"rental_uris":{"android":"levelo://app?vid=4e84bf91-5378-40f7-a68e-92b62a09cb80","ios":"levelo://app?vid=4e84bf91-5378-40f7-a68e-92b62a09cb80"},"vehicle_type_id":"4","last_reported":1751753354,"current_range_meters":24000,"station_id":"","pricing_plan_id":"cebpf4jnsgd1na2vs0mg"},{"bike_id":"7b527f00-f6ea-4963-b59d-8da04a2feedb","system_id":"levelo_inurba_marseille","lat":43.32091,"lon":5.40128,"is_reserved":false,"is_disabled":false,"rental_uris":{"android":"levelo://app?vid=7b527f00-f6ea-4963-b59d-8da04a2feedb","ios":"levelo://app?vid=7b527f00-f6ea-4963-b59d-8da04a2feedb"},"vehicle_type_id":"4","last_reported":1751753354,"current_range_meters":24000,"station_id":"","pricing_plan_id":"cebpf4jnsgd1na2vs0mg"},{"bike_id":"a2b50646-4c18-4b70-b2c3-71ab544ab4ae","system_id":"levelo_inurba_marseille","lat":43.29537,"lon":5.38546,"is_reserved":false,"is_disabled":false,"rental_uris":{"android":"levelo://app?vid=a2b50646-4c18-4b70-b2c3-71ab544ab4ae","ios":"levelo://app?vid=a2b50646-4c18-4b70-b2c3-71ab544ab4ae"},"vehicle_type_id":"4","last_reported":1751753354,"current_range_meters":24000,"station_id":"ce4bgih2rcd13ifvqba0","pricing_plan_id":"cebpf4jnsgd1na2vs0mg"},{"bike_id":"8c5b62fb-9f59-4659-8624-7dbdcbbd2f42","system_id":"levelo_inurba_marseille","lat":43.31707,"lon":5.37738,"is_reserved":false,"is_disabled":false,"rental_uris":{"android":"levelo://app?vid=8c5b62fb-9f59-4659-8624-7dbdcbbd2f42","ios":"levelo://app?vid=8c5b62fb-9f59-4659-8624-7dbdcbbd2f42"},"vehicle_type_id":"4","last_reported":1751753354,"current_range_meters":24000,"station_id":"ce4bgth2rcd13ifvqch0","pricing_plan_id":"cebpf4jnsgd1na2vs0mg"},{"bike_id":"437f9c06-3126-47b5-b17a-65ff32a7c641","system_id":"levelo_inurba_marseille","lat":43.30654,"lon":5.40103,"is_reserved":false,"is_disabled":false,"rental_uris":{"android":"levelo://app?vid=437f9c06-3126-47b5-b17a-65ff32a7c641","ios":"levelo://app?vid=437f9c06-3126-47b5-b17a-65ff32a7c641"},"vehicle_type_id":"4","last_reported":1751753354,"current_range_meters":24000,"station_id":"ce4bh112rcd13ifvqda0","pricing_plan_id":"cebpf4jnsgd1na2vs0mg"},{"bike_id":"62a1bd2b-eb88-4764-89d5-3871585d5620","system_id":"levelo_inurba_marseille","lat":43.29277,"lon":5.40115,"is_reserved":false,"is_disabled":false,"rental_uris":{"android":"levelo://app?vid=62a1bd2b-eb88-4764-89d5-3871585d5620","ios":"levelo://app?vid=62a1bd2b-eb88-4764-89d5-3871585d5620"},"vehicle_type_id":"4","last_reported":1751753354,"current_range_meters":24000,"station_id":"ce4bh312rcd13ifvqdk0","pricing_plan_id":"cebpf4jnsgd1na2vs0mg"},{"bike_id":"ae5a51e5-54f3-47e4-bcb1-f9e739d698a0","system_id":"levelo_inurba_marseille","lat":43.27912,"lon":5.38017,"is_reserved":false,"is_disabled":false,"rental_uris":{"android":"levelo://app?vid=ae5a51e5-54f3-47e4-bcb1-f9e739d698a0","ios":"levelo://app?vid=ae5a51e5-54f3-47e4-bcb1-f9e739d698a0"},"vehicle_type_id":"4","last_reported":1751753354,"current_range_meters":24000,"station_id":"ce4bhf92rcd13ifvqf50","pricing_plan_id":"cebpf4jnsgd1na2vs0mg"},{"bike_id":"80906c92-fb35-4b5e-a01d-5031ba008412","system_id":"levelo_inurba_marseille","lat":43.248193,"lon":5.374537,"is_reserved":false,"is_disabled":false,"rental_uris":{"android":"levelo://app?vid=80906c92-fb35-4b5e-a01d-5031ba008412","ios":"levelo://app?vid=80906c92-fb35-4b5e-a01d-5031ba008412"},"vehicle_type_id":"4","last_reported":1751753354,"current_range_meters":24000,"station_id":"ce4bhgh2rcd13ifvqfb0","pricing_plan_id":"cebpf4jnsgd1na2vs0mg"},{"bike_id":"01364353-84b6-4daf-b37d-39e1fc4cd596","system_id":"levelo_inurba_marseille","lat":43.24077,"lon":5.37754,"is_reserved":false,"is_disabled":false,"rental_uris":{"android":"levelo://app?vid=01364353-84b6-4daf-b37d-39e1fc4cd596","ios":"levelo://app?vid=01364353-84b6-4daf-b37d-39e1fc4cd596"},"vehicle_type_id":"4","last_reported":1751753354,"current_range_meters":24000,"station_id":"ce4bhnp2rcd13ifvqgvg","pricing_plan_id":"cebpf4jnsgd1na2vs0mg"},{"bike_id":"8054f38b-e5f9-4c48-bd64-dfa11b7866e7","system_id":"levelo_inurba_marseille","lat":43.29897,"lon":5.43654,"is_reserved":false,"is_disabled":false,"rental_uris":{"android":"levelo://app?vid=8054f38b-e5f9-4c48-bd64-dfa11b7866e7","ios":"levelo://app?vid=8054f38b-e5f9-4c48-bd64-dfa11b7866e7"},