{"last_updated":1745489458,"ttl":60,"version":"2.2","data":{"bikes":[{"bike_id":"3c986d49-4c59-4fce-9389-7b631455012c","system_id":"levelo_inurba_marseille","lat":43.23156,"lon":5.43704,"is_reserved":false,"is_disabled":false,"rental_uris":{"android":"levelo://app?vid=3c986d49-4c59-4fce-9389-7b631455012c","ios":"levelo://app?vid=3c986d49-4c59-4fce-9389-7b631455012c"},"vehicle_type_id":"4","last_reported":1745489458,"current_range_meters":2800,"station_id":"ce4bhmp2rcd13ifvqgog","pricing_plan_id":"cebpf4jnsgd1na2vs0mg"},{"bike_id":"d85ae503-cb73-4b5a-a577-a261870fa249","system_id":"levelo_inurba_marseille","lat":43.30426,"lon":5.38888,"is_reserved":false,"is_disabled":false,"rental_uris":{"android":"levelo://app?vid=d85ae503-cb73-4b5a-a577-a261870fa249","ios":"levelo://app?vid=d85ae503-cb73-4b5a-a577-a261870fa249"},"vehicle_type_id":"4","last_reported":1745489458,"current_range_meters":3200,"station_id":"ce4bgk12rcd13ifvqbi0","pricing_plan_id":"cebpf4jnsgd1na2vs0mg"},{"bike_id":"decade59-2d81-4b76-b883-c335bc70ca4c","system_id":"levelo_inurba_marseille","lat":43.307937,"lon":5.38162,"is_reserved":false,"is_disabled":false,"rental_uris":{"android":"levelo://app?vid=decade59-2d81-4b76-b883-c335bc70ca4c","ios":"levelo://app?vid=decade59-2d81-4b76-b883-c335bc70ca4c"},"vehicle_type_id":"4","last_reported":1745489458,"current_range_meters":3200,"station_id":"ce4bgt12rcd13ifvqce0","pricing_plan_id":"cebpf4jnsgd1na2vs0mg"},{"bike_id":"c94e26c1-7575-4802-86ec-0bd6f82482cc","system_id":"levelo_inurba_marseille","lat":43.28606,"lon":5.37072,"is_reserved":false,"is_disabled":false,"rental_uris":{"android":"levelo://app?vid=c94e26c1-7575-4802-86ec-0bd6f82482cc","ios":"levelo://app?vid=c94e26c1-7575-4802-86ec-0bd6f82482cc"},"vehicle_type_id":"4","last_reported":1745489458,"current_range_meters":3200,"station_id":"ce4bht12rcd13ifvqi60","pricing_plan_id":"cebpf4jnsgd1na2vs0mg"},{"bike_id":"95f4e4cd-5612-4974-b7f7-73488a5dfa06","system_id":"levelo_inurba_marseille","lat":43.29787,"lon":5.38092,"is_reserved":false,"is_disabled":false,"rental_uris":{"android":"levelo://app?vid=95f4e4cd-5612-4974-b7f7-73488a5dfa06","ios":"levelo://app?vid=95f4e4cd-5612-4974-b7f7-73488a5dfa06"},"vehicle_type_id":"4","last_reported":1745489458,"current_range_meters":1600,"station_id":"ce4bgip2rcd13ifvqbb0","pricing_plan_id":"cebpf4jnsgd1na2vs0mg"},{"bike_id":"2135c6bc-1641-4eaa-88cc-fa2a59763ad6","system_id":"levelo_inurba_marseille","lat":43.284155,"lon":5.349794,"is_reserved":false,"is_disabled":false,"rental_uris":{"android":"levelo://app?vid=2135c6bc-1641-4eaa-88cc-fa2a59763ad6","ios":"levelo://app?vid=2135c6bc-1641-4eaa-88cc-fa2a59763ad6"},"vehicle_type_id":"4","last_reported":1745489458,"current_range_meters":3200,"station_id":"ce4bhbh2rcd13ifvqepg","pricing_plan_id":"cebpf4jnsgd1na2vs0mg"},{"bike_id":"84201342-9cf2-4d0d-b05a-d367da877423","system_id":"levelo_inurba_marseille","lat":43.29264,"lon":5.38438,"is_reserved":false,"is_disabled":false,"rental_uris":{"android":"levelo://app?vid=84201342-9cf2-4d0d-b05a-d367da877423","ios":"levelo://app?vid=84201342-9cf2-4d0d-b05a-d367da877423"},"vehicle_type_id":"4","last_reported":1745489458,"current_range_meters":3200,"station_id":"ce4bh692rcd13ifvqea0","pricing_plan_id":"cebpf4jnsgd1na2vs0mg"},{"bike_id":"4ac1abdc-bfcb-4bfb-bb9f-72a84e866bf2","system_id":"levelo_inurba_marseille","lat":43.30133,"lon":5.39867,"is_reserved":false,"is_disabled":false,"rental_uris":{"android":"levelo://app?vid=4ac1abdc-bfcb-4bfb-bb9f-72a84e866bf2","ios":"levelo://app?vid=4ac1abdc-bfcb-4bfb-bb9f-72a84e866bf2"},"vehicle_type_id":"4","last_reported":1745489458,"current_range_meters":3200,"station_id":"ce4bh0h2rcd13ifvqd40","pricing_plan_id":"cebpf4jnsgd1na2vs0mg"},{"bike_id":"d2207e02-30b4-4eac-8045-59088e459ce3","system_id":"levelo_inurba_marseille","lat":43.295694,"lon":5.399726,"is_reserved":false,"is_disabled":false,"rental_uris":{"android":"levelo://app?vid=d2207e02-30b4-4eac-8045-59088e459ce3","ios":"levelo://app?vid=d2207e02-30b4-4eac-8045-59088e459ce3"},"vehicle_type_id":"4","last_reported":1745489458,"current_range_meters":3200,"station_id":"ce4bh312rcd13ifvqdj0","pricing_plan_id":"cebpf4jnsgd1na2vs0mg"},{"bike_id":"79002201-4bcb-4fd9-acde-ff5363d0e039","system_id":"levelo_inurba_marseille","lat":43.30522,"lon":5.3671,"is_reserved":false,"is_disabled":false,"rental_uris":{"android":"levelo://app?vid=79002201-4bcb-4fd9-acde-ff5363d0e039","ios":"levelo://app?vid=79002201-4bcb-4fd9-acde-ff5363d0e039"},"vehicle_type_id":"4","last_reported":1745489458,"current_range_meters":3600,"station_id":"ce4bgrp2rcd13ifvqc9g","pricing_plan_id":"cebpf4jnsgd1na2vs0mg"},{"bike_id":"0f36c06d-b34a-4b6a-9c76-b87640418fc7","system_id":"levelo_inurba_marseille","lat":43.23067,"lon":5.35479,"is_reserved":false,"is_disabled":false,"rental_uris":{"android":"levelo://app?vid=0f36c06d-b34a-4b6a-9c76-b87640418fc7","ios":"levelo://app?vid=0f36c06d-b34a-4b6a-9c76-b87640418fc7"},"vehicle_type_id":"4","last_reported":1745489458,"current_range_meters":3600,"station_id":"cpo3342slgdg3j2ifvpg","pricing_plan_id":"cebpf4jnsgd1na2vs0mg"},{"bike_id":"9def3467-0cd2-49a9-bac2-9f6af11579da","system_id":"levelo_inurba_marseille","lat":43.27617,"lon":5.3611,"is_reserved":false,"is_disabled":false,"rental_uris":{"android":"levelo://app?vid=9def3467-0cd2-49a9-bac2-9f6af11579da","ios":"levelo://app?vid=9def3467-0cd2-49a9-bac2-9f6af11579da"},"vehicle_type_id":"4","last_reported":1745489458,"current_range_meters":4000,"station_id":"ce4bgj92rcd13ifvqbe0","pricing_plan_id":"cebpf4jnsgd1na2vs0mg"},{"bike_id":"7f68df26-5919-4d20-a413-c1c8307ef91b","system_id":"levelo_inurba_marseille","lat":43.26789,"lon":5.39409,"is_reserved":false,"is_disabled":false,"rental_uris":{"android":"levelo://app?vid=7f68df26-5919-4d20-a413-c1c8307ef91b","ios":"levelo://app?vid=7f68df26-5919-4d20-a413-c1c8307ef91b"},"vehicle_type_id":"4","last_reported":1745489458,"current_range_meters":4000,"station_id":"ce4bhh12rcd13ifvqfg0","pricing_plan_id":"cebpf4jnsgd1na2vs0mg"},{"bike_id":"3665c3a9-3b33-4a02-8340-18e27807878d","system_id":"levelo_inurba_marseille","lat":43.30107,"lon":5.39841,"is_reserved":false,"is_disabled":false,"rental_uris":{"android":"levelo://app?vid=3665c3a9-3b33-4a02-8340-18e27807878d","ios":"levelo://app?vid=3665c3a9-3b33-4a02-8340-18e27807878d"},"vehicle_type_id":"4","last_reported":1745489458,"current_range_meters":4400,"station_id":"ce4bh0h2rcd13ifvqd40","pricing_plan_id":"cebpf4jnsgd1na2vs0mg"},{"bike_id":"288785be-2fa4-45f0-bc52-8b1f188de0bd","system_id":"levelo_inurba_marseille","lat":43.26209,"lon":5.37441,"is_reserved":false,"is_disabled":false,"rental_uris":{"android":"levelo://app?vid=288785be-2fa4-45f0-bc52-8b1f188de0bd","ios":"levelo://app?vid=288785be-2fa4-45f0-bc52-8b1f188de0bd"},"vehicle_type_id":"4","last_reported":1745489458,"current_range_meters":4400,"station_id":"ce4bhgp2rcd13ifvqfc0","pricing_plan_id":"cebpf4jnsgd1na2vs0mg"},{"bike_id":"1c5ec038-935d-45d4-ab05-1768d5c6745a","system_id":"levelo_inurba_marseille","lat":43.2406,"lon":5.37768,"is_reserved":false,"is_disabled":true,"rental_uris":{"android":"levelo://app?vid=1c5ec038-935d-45d4-ab05-1768d5c6745a","ios":"levelo://app?vid=1c5ec038-935d-45d4-ab05-1768d5c6745a"},"vehicle_type_id":"4","last_reported":1745489458,"current_range_meters":4400,"station_id":"ce4bhnp2rcd13ifvqgvg","pricing_plan_id":"cebpf4jnsgd1na2vs0mg"},{"bike_id":"7ec7500f-8859-47d2-a541-00bab60784c1","system_id":"levelo_inurba_marseille","lat":43.27055,"lon":5.40255,"is_reserved":false,"is_disabled":false,"rental_uris":{"android":"levelo://app?vid=7ec7500f-8859-47d2-a541-00bab60784c1","ios":"levelo://app?vid=7ec7500f-8859-47d2-a541-00bab60784c1"},"vehicle_type_id":"4","last_reported":1745489458,"current_range_meters":4800,"station_id":"ce4bhk92rcd13ifvqgc0","pricing_plan_id":"cebpf4jnsgd1na2vs0mg"},{"bike_id":"c7ba963a-ceec-4d21-81fd-30c671e1b7c3","system_id":"levelo_inurba_marseille","lat":43.28423,"lon":5.34977,"is_reserved":false,"is_disabled":false,"rental_uris":{"android":"levelo://app?vid=c7ba963a-ceec-4d21-81fd-30c671e1b7c3","ios":"levelo://app?vid=c7ba963a-ceec-4d21-81fd-30c671e1b7c3"},"vehicle_type_id":"4","last_reported":1745489458,"current_range_meters":5600,"station_id":"ce4bhbh2rcd13ifvqepg","pricing_plan_id":"cebpf4jnsgd1na2vs0mg"},{"bike_id":"5d88adbd-d67f-4ba3-8214-5b3d5c583caf","system_id":"levelo_inurba_marseille","lat":43.29567,"lon":5.37511,"is_reserved":false,"is_disabled":false,"rental_uris":{"android":"levelo://app?vid=5d88adbd-d67f-4ba3-8214-5b3d5c583caf","ios":"levelo://app?vid=5d88adbd-d67f-4ba3-8214-5b3d5c583caf"},"vehicle_type_id":"4","last_reported":1745489458,"current_range_meters":5600,"station_id":"ce4bgh92rcd13ifvqb50","pricing_plan_id":"cebpf4jnsgd1na2vs0mg"},{"bike_id":"b6553d69-feb1-4f55-99dc-e45ef526cd58","system_id":"levelo_inurba_marseille","lat":43.29536,"lon":5.42291,"is_reserved":false,"is_disabled":true,"rental_uris":{"android":"levelo://app?vid=b6553d69-feb1-4f55-99dc-e45ef526cd58","ios":"levelo://app?vid=b6553d69-feb1-4f55-99dc-e45ef526cd58"},"vehicle_type_id":"4","last_reported":1745489458,"current_range_meters":6000,"station_id":"ce4bhph2rcd13ifvqhdg","pricing_plan_id":"cebpf4jnsgd1na2vs0mg"},{"bike_id":"35ee1e7a-ed4b-489a-ad85-a78f3746e5e7","system_id":"levelo_inurba_marseille","lat":43.2315,"lon":5.43708,"is_reserved":false,"is_disabled":false,"rental_uris":{"android":"levelo://app?vid=35ee1e7a-ed4b-489a-ad85-a78f3746e5e7","ios":"levelo://app?vid=35ee1e7a-ed4b-489a-ad85-a78f3746e5e7"},"vehicle_type_id":"4","last_reported":1745489458,"current_range_meters":6400,"station_id":"ce4bhmp2rcd13ifvqgog","pricing_plan_id":"cebpf4jnsgd1na2vs0mg"},{"bike_id":"82ba0e00-e553-41e4-a716-c5929e6133e6","system_id":"levelo_inurba_marseille","lat":43.25925,"lon":5.40917,"is_reserved":false,"is_disabled":false,"rental_uris":{"android":"levelo://app?vid=82ba0e00-e553-41e4-a716-c5929e6133e6","ios":"levelo://app?vid=82ba0e00-e553-41e4-a716-c5929e6133e6"},"vehicle_type_id":"4","last_reported":1745489458,"current_range_meters":6400,"station_id":"ce4bhm92rcd13ifvqglg","pricing_plan_id":"cebpf4jnsgd1na2vs0mg"},{"bike_id":"7d454420-09c6-4629-89f1-5e97ae752af4","system_id":"levelo_inurba_marseille","lat":43.25579,"lon":5.38216,"is_reserved":false,"is_disabled":false,"rental_uris":{"android":"levelo://app?vid=7d454420-09c6-4629-89f1-5e97ae752af4","ios":"levelo://app?vid=7d454420-09c6-4629-89f1-5e97ae752af4"},"vehicle_type_id":"4","last_reported":1745489458,"current_range_meters":6800,"station_id":"ce4bhih2rcd13ifvqfs0","pricing_plan_id":"cebpf4jnsgd1na2vs0mg"},{"bike_id":"49c0f902-eac7-4a79-adf0-d142aff51e11","system_id":"levelo_inurba_marseille","lat":43.24164,"lon":5.36394,"is_reserved":false,"is_disabled":false,"rental_uris":{"android":"levelo://app?vid=49c0f902-eac7-4a79-adf0-d142aff51e11","ios":"levelo://app?vid=49c0f902-eac7-4a79-adf0-d142aff51e11"},"vehicle_type_id":"4","last_reported":1745489458,"current_range_meters":6800,"station_id":"cpo36qri1sfpv3e86is0","pricing_plan_id":"cebpf4jnsgd1na2vs0mg"},{"bike_id":"9f82b50f-8b39-4fbd-b8b4-8e8808b42037","system_id":"levelo_inurba_marseille","lat":43.29599,"lon":5.380914,"is_reserved":false,"is_disabled":false,"rental_uris":{"android":"levelo://app?vid=9f82b50f-8b39-4fbd-b8b4-8e8808b42037","ios":"levelo://app?vid=9f82b50f-8b39-4fbd-b8b4-8e8808b42037"},"vehicle_type_id":"4","last_reported":1745489458,"current_range_meters":6800,"station_id":"ce4bgl12rcd13ifvqbo0","pricing_plan_id":"cebpf4jnsgd1na2vs0mg"},{"bike_id":"2a042979-5dbd-4e13-9d3a-ed4653e165d3","system_id":"levelo_inurba_marseille","lat":43.33608,"lon":5.41038,"is_reserved":false,"is_disabled":false,"rental_uris":{"android":"levelo://app?vid=2a042979-5dbd-4e13-9d3a-ed4653e165d3","ios":"levelo://app?vid=2a042979-5dbd-4e13-9d3a-ed4653e165d3"},"vehicle_type_id":"4","last_reported":1745489458,"current_range_meters":8000,"station_id":"ce4bhqh2rcd13ifvqhmg","pricing_plan_id":"cebpf4jnsgd1na2vs0mg"},{"bike_id":"7e9d26b8-b748-4e10-b3e2-977d9fd05087","system_id":"levelo_inurba_marseille","lat":43.32614,"lon":5.3613,"is_reserved":false,"is_disabled":false,"rental_uris":{"android":"levelo://app?vid=7e9d26b8-b748-4e10-b3e2-977d9fd05087","ios":"levelo://app?vid=7e9d26b8-b748-4e10-b3e2-977d9fd05087"},"vehicle_type_id":"4","last_reported":1745489458,"current_range_meters":8000,"station_id":"","pricing_plan_id":"cebpf4jnsgd1na2vs0mg"},{"bike_id":"c3569a44-0824-4dff-8a4f-ab1830c624b3","system_id":"levelo_inurba_marseille","lat":43.2593,"lon":5.40893,"is_reserved":false,"is_disabled":false,"rental_uris":{"android":"levelo://app?vid=c3569a44-0824-4dff-8a4f-ab1830c624b3","ios":"levelo://app?vid=c3569a44-0824-4dff-8a4f-ab1830c624b3"},"vehicle_type_id":"4","last_reported":1745489458,"current_range_meters":8000,"station_id":"ce4bhm92rcd13ifvqglg","pricing_plan_id":"cebpf4jnsgd1na2vs0mg"},{"bike_id":"90de9e08-ed9a-4f84-a605-6303347df831","system_id":"levelo_inurba_marseille","lat":43.30302,"lon":5.39197,"is_reserved":false,"is_disabled":true,"rental_uris":{"android":"levelo://app?vid=90de9e08-ed9a-4f84-a605-6303347df831","ios":"levelo://app?vid=90de9e08-ed9a-4f84-a605-6303347df831"},"vehicle_type_id":"4","last_reported":1745489458,"current_range_meters":7200,"station_id":"ce4bgkh2rcd13ifvqbk0","pricing_plan_id":"cebpf4jnsgd1na2vs0mg"},{"bike_id":"92c3b340-d069-4f1c-b55b-44c52f19597b","system_id":"levelo_inurba_marseille","lat":43.28243,"lon":5.37785,"is_reserved":false,"is_disabled":false,"rental_uris":{"android":"levelo://app?vid=92c3b340-d069-4f1c-b55b-44c52f19597b","ios":"levelo://app?vid=92c3b340-d069-4f1c-b55b-44c52f19597b"},"vehicle_type_id":"4","last_reported":1745489458,"current_range_meters":8400,"station_id":"","pricing_plan_id":"cebpf4jnsgd1na2vs0mg"},{"bike_id":"b96d48d5-fc65-423b-9a30-5d2c864e8939","system_id":"levelo_inurba_marseille","lat":43.22515,"lon":5.3477,"is_reserved":false,"is_disabled":false,"rental_uris":{"android":"levelo://app?vid=b96d48d5-fc65-423b-9a30-5d2c864e8939","ios":"levelo://app?vid=b96d48d5-fc65-423b-9a30-5d2c864e8939"},"vehicle_type_id":"4","last_reported":1745489458,"current_range_meters":8400,"station_id":"st_cvj5dfep6f1abm77gieg","pricing_plan_id":"cebpf4jnsgd1na2vs0mg"},{"bike_id":"f99a6f6e-a4ec-4c64-b22d-a331365c67ce","system_id":"levelo_inurba_marseille","lat":43.2926,"lon":5.37611,"is_reserved":false,"is_disabled":false,"rental_uris":{"android":"levelo://app?vid=f99a6f6e-a4ec-4c64-b22d-a331365c67ce","ios":"levelo://app?vid=f99a6f6e-a4ec-4c64-b22d-a331365c67ce"},"vehicle_type_id":"4","last_reported":1745489458,"current_range_meters":8400,"station_id":"ce4bgi12rcd13ifvqb80","pricing_plan_id":"cebpf4jnsgd1na2vs0mg"},{"bike_id":"a866dc2a-5e6e-4871-91fd-f754855dd69f","system_id":"levelo_inurba_marseille","lat":43.289406,"lon":5.396266,"is_reserved":false,"is_disabled":false,"rental_uris":{"android":"levelo://app?vid=a866dc2a-5e6e-4871-91fd-f754855dd69f","ios":"levelo://app?vid=a866dc2a-5e6e-4871-91fd-f754855dd69f"},"vehicle_type_id":"4","last_reported":1745489458,"current_range_meters":8400,"station_id":"ce4bh3h2rcd13ifvqdn0","pricing_plan_id":"cebpf4jnsgd1na2vs0mg"},{"bike_id":"c97a8321-d4b7-4562-8ef3-855a605e6cf6","system_id":"levelo_inurba_marseille","lat":43.25944,"lon":5.4089,"is_reserved":false,"is_disabled":false,"rental_uris":{"android":"levelo://app?vid=c97a8321-d4b7-4562-8ef3-855a605e6cf6","ios":"levelo://app?vid=c97a8321-d4b7-4562-8ef3-855a605e6cf6"},"vehicle_type_id":"4","last_reported":1745489458,"current_range_meters":8400,"station_id":"ce4bhm92rcd13ifvqglg","pricing_plan_id":"cebpf4jnsgd1na2vs0mg"},{"bike_id":"b5004210-35fd-4e7f-9665-5d0c0225f1cb","system_id":"levelo_inurba_marseille","lat":43.30549,"lon":5.36525,"is_reserved":false,"is_disabled":false,"rental_uris":{"android":"levelo://app?vid=b5004210-35fd-4e7f-9665-5d0c0225f1cb","ios":"levelo://app?vid=b5004210-35fd-4e7f-9665-5d0c0225f1cb"},"vehicle_type_id":"4","last_reported":1745489458,"current_range_meters":8400,"station_id":"ce4bgs12rcd13ifvqcag","pricing_plan_id":"cebpf4jnsgd1na2vs0mg"},{"bike_id":"598308e8-54b2-4393-82d7-bc22069fa447","system_id":"levelo_inurba_marseille","lat":43.29892,"lon":5.43673,"is_reserved":false,"is_disabled":false,"rental_uris":{"android":"levelo://app?vid=598308e8-54b2-4393-82d7-bc22069fa447","ios":"levelo://app?vid=598308e8-54b2-4393-82d7-bc22069fa447"},"vehicle_type_id":"4","last_reported":1745489458,"current_range_meters":8400,"station_id":"ce4bhpp2rcd13ifvqhfg","pricing_plan_id":"cebpf4jnsgd1na2vs0mg"},{"bike_id":"8c7cba96-a3d5-439a-9e64-c18b09dd7aa5","system_id":"levelo_inurba_marseille","lat":43.295441,"lon":5.422768,"is_reserved":false,"is_disabled":false,"rental_uris":{"android":"levelo://app?vid=8c7cba96-a3d5-439a-9e64-c18b09dd7aa5","ios":"levelo://app?vid=8c7cba96-a3d5-439a-9e64-c18b09dd7aa5"},"vehicle_type_id":"4","last_reported":1745489458,"current_range_meters":8400,"station_id":"ce4bhph2rcd13ifvqhdg","pricing_plan_id":"cebpf4jnsgd1na2vs0mg"},{"bike_id":"5cec985c-475e-4a47-afd7-2118745a458f","system_id":"levelo_inurba_marseille","lat":43.22935,"lon":5.35372,"is_reserved":false,"is_disabled":false,"rental_uris":{"android":"levelo://app?vid=5cec985c-475e-4a47-afd7-2118745a458f","ios":"levelo://app?vid=5cec985c-475e-4a47-afd7-2118745a458f"},"vehicle_type_id":"4","last_reported":1745489458,"current_range_meters":8400,"station_id":"cpo3532slgdg3j2ikp40","pricing_plan_id":"cebpf4jnsgd1na2vs0mg"},{"bike_id":"abd226a8-d003-4133-b9d2-b7c952b7ead1","system_id":"levelo_inurba_marseille","lat":43.23067,"lon":5.35476,"is_reserved":false,"is_disabled":false,"rental_uris":{"android":"levelo://app?vid=abd226a8-d003-4133-b9d2-b7c952b7ead1","ios":"levelo://app?vid=abd226a8-d003-4133-b9d2-b7c952b7ead1"},"vehicle_type_id":"4","last_reported":1745489458,"current_range_meters":9200,"station_id":"cpo3342slgdg3j2ifvpg","pricing_plan_id":"cebpf4jnsgd1na2vs0mg"},{"bike_id":"1b8b7145-49a7-4fe1-96a2-72a1d6e84a54","system_id":"levelo_inurba_marseille","lat":43.23056,"lon":5.35492,"is_reserved":false,"is_disabled":false,"rental_uris":{"android":"levelo://app?vid=1b8b7145-49a7-4fe1-96a2-72a1d6e84a54","ios":"levelo://app?vid=1b8b7145-49a7-4fe1-96a2-72a1d6e84a54"},"vehicle_type_id":"4","last_reported":1745489458,"current_range_meters":9200,"station_id":"cpo3342slgdg3j2ifvpg","pricing_plan_id":"cebpf4jnsgd1na2vs0mg"},{"bike_id":"42c4d805-af28-4fb3-8d1a-032fd934199d","system_id":"levelo_inurba_marseille","lat":43.27435,"lon":5.39383,"is_reserved":false,"is_disabled":false,"rental_uris":{"android":"levelo://app?vid=42c4d805-af28-4fb3-8d1a-032fd934199d","ios":"levelo://app?vid=42c4d805-af28-4fb3-8d1a-032fd934199d"},"vehicle_type_id":"4","last_reported":1745489458,"current_range_meters":9200,"station_id":"ce4bhdp2rcd13ifvqf20","pricing_plan_id":"cebpf4jnsgd1na2vs0mg"},{"bike_id":"f7204dbe-aaf9-4564-8c1a-52cfb9b35b31","system_id":"levelo_inurba_marseille","lat":43.29845,"lon":5.36278,"is_reserved":false,"is_disabled":false,"rental_uris":{"android":"levelo://app?vid=f7204dbe-aaf9-4564-8c1a-52cfb9b35b31","ios":"levelo://app?vid=f7204dbe-aaf9-4564-8c1a-52cfb9b35b31"},"vehicle_type_id":"4","last_reported":1745489458,"current_range_meters":9200,"station_id":"ce4bgpp2rcd13ifvqc3g","pricing_plan_id":"cebpf4jnsgd1na2vs0mg"},{"bike_id":"ece2cecb-63ad-4fd0-8bee-543249017e33","system_id":"levelo_inurba_marseille","lat":43.2846,"lon":5.35884,"is_reserved":false,"is_disabled":false,"rental_uris":{"android":"levelo://app?vid=ece2cecb-63ad-4fd0-8bee-543249017e33","ios":"levelo://app?vid=ece2cecb-63ad-4fd0-8bee-543249017e33"},"vehicle_type_id":"4","last_reported":1745489458,"current_range_meters":9200,"station_id":"ce4bhah2rcd13ifvqei0","pricing_plan_id":"cebpf4jnsgd1na2vs0mg"},{"bike_id":"bdcc29ba-c9ac-42ac-9da0-b21f9c5bf966","system_id":"levelo_inurba_marseille","lat":43.23161,"lon":5.43717,"is_reserved":false,"is_disabled":false,"rental_uris":{"android":"levelo://app?vid=bdcc29ba-c9ac-42ac-9da0-b21f9c5bf966","ios":"levelo://app?vid=bdcc29ba-c9ac-42ac-9da0-b21f9c5bf966"},"vehicle_type_id":"4","last_reported":1745489458,"current_range_meters":9600,"station_id":"ce4bhmp2rcd13ifvqgog","pricing_plan_id":"cebpf4jnsgd1na2vs0mg"},{"bike_id":"fc2594f5-29c2-4736-a3e8-a8cef3a2f2f6","system_id":"levelo_inurba_marseille","lat":43.25925,"lon":5.40927,"is_reserved":false,"is_disabled":false,"rental_uris":{"android":"levelo://app?vid=fc2594f5-29c2-4736-a3e8-a8cef3a2f2f6","ios":"levelo://app?vid=fc2594f5-29c2-4736-a3e8-a8cef3a2f2f6"},"vehicle_type_id":"4","last_reported":1745489458,"current_range_meters":9600,"station_id":"ce4bhm92rcd13ifvqglg","pricing_plan_id":"cebpf4jnsgd1na2vs0mg"},{"bike_id":"bc3a43c3-9292-4106-94c3-7ce8f0302d1b","system_id":"levelo_inurba_marseille","lat":43.29497,"lon":5.37515,"is_reserved":false,"is_disabled":false,"rental_uris":{"android":"levelo://app?vid=bc3a43c3-9292-4106-94c3-7ce8f0302d1b","ios":"levelo://app?vid=bc3a43c3-9292-4106-94c3-7ce8f0302d1b"},"vehicle_type_id":"4","last_reported":1745489458,"current_range_meters":9600,"station_id":"ce4bgkp2rcd13ifvqbmg","pricing_plan_id":"cebpf4jnsgd1na2vs0mg"},{"bike_id":"6b6a18fd-55ec-4663-bdf3-cc7a4c9a1c13","system_id":"levelo_inurba_marseille","lat":43.303,"lon":5.36876,"is_reserved":false,"is_disabled":false,"rental_uris":{"android":"levelo://app?vid=6b6a18fd-55ec-4663-bdf3-cc7a4c9a1c13","ios":"levelo://app?vid=6b6a18fd-55ec-4663-bdf3-cc7a4c9a1c13"},"vehicle_type_id":"4","last_reported":1745489458,"current_range_meters":9600,"station_id":"ce4bgqh2rcd13ifvqc5g","pricing_plan_id":"cebpf4jnsgd1na2vs0mg"},{"bike_id":"4390b373-4b57-4040-b21d-893f139aba53","system_id":"levelo_inurba_marseille","lat":43.33706,"lon":5.39177,"is_reserved":false,"is_disabled":false,"rental_uris":{"android":"levelo://app?vid=4390b373-4b57-4040-b21d-893f139aba53","ios":"levelo://app?vid=4390b373-4b57-4040-b21d-893f139aba53"},"vehicle_type_id":"4","last_reported":1745489458,"current_range_meters":9600,"station_id":"ce4bhr92rcd13ifvqhsg","pricing_plan_id":"cebpf4jnsgd1na2vs0mg"},{"bike_id":"90175442-553b-4d98-a5d7-1325c42f89d2","system_id":"levelo_inurba_marseille","lat":43.25001,"lon":5.38923,"is_reserved":false,"is_disabled":false,"rental_uris":{"android":"levelo://app?vid=90175442-553b-4d98-a5d7-1325c42f89d2","ios":"levelo://app?vid=90175442-553b-4d98-a5d7-1325c42f89d2"},"vehicle_type_id":"4","last_reported":1745489458,"current_range_meters":9600,"station_id":"ce4bhgp2rcd13ifvqfd0","pricing_plan_id":"cebpf4jnsgd1na2vs0mg"},{"bike_id":"3f457773-5510-4efd-b8a2-37813cc6f115","system_id":"levelo_inurba_marseille","lat":43.31486,"lon":5.37306,"is_reserved":false,"is_disabled":false,"rental_uris":{"android":"levelo://app?vid=3f457773-5510-4efd-b8a2-37813cc6f115","ios":"levelo://app?vid=3f457773-5510-4efd-b8a2-37813cc6f115"},"vehicle_type_id":"4","last_reported":1745489458,"current_range_meters":10000,"station_id":"ce4bgt12rcd13ifvqcd0","pricing_plan_id":"cebpf4jnsgd1na2vs0mg"},{"bike_id":"758a8f8f-5924-457b-8756-717925bbb604","system_id":"levelo_inurba_marseille","lat":43.29842,"lon":5.36263,"is_reserved":false,"is_disabled":false,"rental_uris":{"android":"levelo://app?vid=758a8f8f-5924-457b-8756-717925bbb604","ios":"levelo://app?vid=758a8f8f-5924-457b-8756-717925bbb604"},"vehicle_type_id":"4","last_reported":1745489458,"current_range_meters":10000,"station_id":"ce4bgpp2rcd13ifvqc3g","pricing_plan_id":"cebpf4jnsgd1na2vs0mg"},{"bike_id":"e01cccf2-359b-44da-b48a-ba029d9719ee","system_id":"levelo_inurba_marseille","lat":43.30947,"lon":5.39018,"is_reserved":false,"is_disabled":false,"rental_uris":{"android":"levelo://app?vid=e01cccf2-359b-44da-b48a-ba029d9719ee","ios":"levelo://app?vid=e01cccf2-359b-44da-b48a-ba029d9719ee"},"vehicle_type_id":"4","last_reported":1745489458,"current_range_meters":10800,"station_id":"ce4bgup2rcd13ifvqco0","pricing_plan_id":"cebpf4jnsgd1na2vs0mg"},{"bike_id":"148ce16c-04ed-4af3-9660-c086179406e9","system_id":"levelo_inurba_marseille","lat":43.27318,"lon":5.39077,"is_reserved":false,"is_disabled":false,"rental_uris":{"android":"levelo://app?vid=148ce16c-04ed-4af3-9660-c086179406e9","ios":"levelo://app?vid=148ce16c-04ed-4af3-9660-c086179406e9"},"vehicle_type_id":"4","last_reported":1745489458,"current_range_meters":10800,"station_id":"ce4bhgp2rcd13ifvqfe0","pricing_plan_id":"cebpf4jnsgd1na2vs0mg"},{"bike_id":"064cedb9-c127-4838-a435-04881e5498a9","system_id":"levelo_inurba_marseille","lat":43.29955,"lon":5.41317,"is_reserved":false,"is_disabled":false,"rental_uris":{"android":"levelo://app?vid=064cedb9-c127-4838-a435-04881e5498a9","ios":"levelo://app?vid=064cedb9-c127-4838-a435-04881e5498a9"},"vehicle_type_id":"4","last_reported":1745489458,"current_range_meters":10800,"station_id":"ce4bhp12rcd13ifvqh9g","pricing_plan_id":"cebpf4jnsgd1na2vs0mg"},{"bike_id":"6caeee23-4243-4619-bed0-0c06e29dba93","system_id":"levelo_inurba_marseille","lat":43.28267,"lon":5.350643,"is_reserved":false,"is_disabled":false,"rental_uris":{"android":"levelo://app?vid=6caeee23-4243-4619-bed0-0c06e29dba93","ios":"levelo://app?vid=6caeee23-4243-4619-bed0-0c06e29dba93"},"vehicle_type_id":"4","last_reported":1745489458,"current_range_meters":10800,"station_id":"ce4bhbp2rcd13ifvqerg","pricing_plan_id":"cebpf4jnsgd1na2vs0mg"},{"bike_id":"92553329-8efe-4d2d-beb5-a64745f2dedc","system_id":"levelo_inurba_marseille","lat":43.28611,"lon":5.35099,"is_reserved":false,"is_disabled":false,"rental_uris":{"android":"levelo://app?vid=92553329-8efe-4d2d-beb5-a64745f2dedc","ios":"levelo://app?vid=92553329-8efe-4d2d-beb5-a64745f2dedc"},"vehicle_type_id":"4","last_reported":1745489458,"current_range_meters":11200,"station_id":"ce4bhch2rcd13ifvqeug","pricing_plan_id":"cebpf4jnsgd1na2vs0mg"},{"bike_id":"ea00cadb-3157-44fa-9a7d-ef82ba9234fb","system_id":"levelo_inurba_marseille","lat":43.25099,"lon":5.40316,"is_reserved":false,"is_disabled":false,"rental_uris":{"android":"levelo://app?vid=ea00cadb-3157-44fa-9a7d-ef82ba9234fb","ios":"levelo://app?vid=ea00cadb-3157-44fa-9a7d-ef82ba9234fb"},"vehicle_type_id":"4","last_reported":1745489458,"current_range_meters":11600,"station_id":"ce4bhlh2rcd13ifvqgig","pricing_plan_id":"cebpf4jnsgd1na2vs0mg"},{"bike_id":"11ce02ec-5de1-4d28-b35b-b9d2498a4135","system_id":"levelo_inurba_marseille","lat":43.23067,"lon":5.35493,"is_reserved":false,"is_disabled":false,"rental_uris":{"android":"levelo://app?vid=11ce02ec-5de1-4d28-b35b-b9d2498a4135","ios":"levelo://app?vid=11ce02ec-5de1-4d28-b35b-b9d2498a4135"},"vehicle_type_id":"4","last_reported":1745489458,"current_range_meters":11600,"station_id":"cpo3342slgdg3j2ifvpg","pricing_plan_id":"cebpf4jnsgd1na2vs0mg"},{"bike_id":"758a3d12-066c-4cef-b22c-0460d41b2afa","system_id":"levelo_inurba_marseille","lat":43.24055,"lon":5.37777,"is_reserved":false,"is_disabled":false,"rental_uris":{"android":"levelo://app?vid=758a3d12-066c-4cef-b22c-0460d41b2afa","ios":"levelo://app?vid=758a3d12-066c-4cef-b22c-0460d41b2afa"},"vehicle_type_id":"4","last_reported":1745489458,"current_range_meters":11600,"station_id":"ce4bhnp2rcd13ifvqgvg","pricing_plan_id":"cebpf4jnsgd1na2vs0mg"},{"bike_id":"30e08c8c-a2b6-45d6-9704-9460af4f4d07","system_id":"levelo_inurba_marseille","lat":43.31082,"lon":5.4242,"is_reserved":false,"is_disabled":false,"rental_uris":{"android":"levelo://app?vid=30e08c8c-a2b6-45d6-9704-9460af4f4d07","ios":"levelo://app?vid=30e08c8c-a2b6-45d6-9704-9460af4f4d07"},"vehicle_type_id":"4","last_reported":1745489458,"current_range_meters":11600,"station_id":"ce4bhp92rcd13ifvqhag","pricing_plan_id":"cebpf4jnsgd1na2vs0mg"},{"bike_id":"964824b3-c6c4-41e5-b897-dc99d2dddafe","system_id":"levelo_inurba_marseille","lat":43.27051,"lon":5.40258,"is_reserved":false,"is_disabled":false,"rental_uris":{"android":"levelo://app?vid=964824b3-c6c4-41e5-b897-dc99d2dddafe","ios":"levelo://app?vid=964824b3-c6c4-41e5-b897-dc99d2dddafe"},"vehicle_type_id":"4","last_reported":1745489458,"current_range_meters":12000,"station_id":"ce4bhk92rcd13ifvqgc0","pricing_plan_id":"cebpf4jnsgd1na2vs0mg"},{"bike_id":"46374c49-3adc-4c5a-8966-e00f056c0d57","system_id":"levelo_inurba_marseille","lat":43.27846,"lon":5.35442,"is_reserved":false,"is_disabled":false,"rental_uris":{"android":"levelo://app?vid=46374c49-3adc-4c5a-8966-e00f056c0d57","ios":"levelo://app?vid=46374c49-3adc-4c5a-8966-e00f056c0d57"},"vehicle_type_id":"4","last_reported":1745489458,"current_range_meters":12000,"station_id":"","pricing_plan_id":"cebpf4jnsgd1na2vs0mg"},{"bike_id":"5da75937-e378-4079-a662-5a56f8bc57d1","system_id":"levelo_inurba_marseille","lat":43.29924,"lon":5.39792,"is_reserved":false,"is_disabled":false,"rental_uris":{"android":"levelo://app?vid=5da75937-e378-4079-a662-5a56f8bc57d1","ios":"levelo://app?vid=5da75937-e378-4079-a662-5a56f8bc57d1"},"vehicle_type_id":"4","last_reported":1745489458,"current_range_meters":12000,"station_id":"","pricing_plan_id":"cebpf4jnsgd1na2vs0mg"},{"bike_id":"0a4aab9f-8a71-4fe1-9d7a-a1171198a2d7","system_id":"levelo_inurba_marseille","lat":43.23145,"lon":5.43717,"is_reserved":false,"is_disabled":false,"rental_uris":{"android":"levelo://app?vid=0a4aab9f-8a71-4fe1-9d7a-a1171198a2d7","ios":"levelo://app?vid=0a4aab9f-8a71-4fe1-9d7a-a1171198a2d7"},"vehicle_type_id":"4","last_reported":1745489458,"current_range_meters":12000,"station_id":"ce4bhmp2rcd13ifvqgog","pricing_plan_id":"cebpf4jnsgd1na2vs0mg"},{"bike_id":"bceaa416-6cc7-4224-ab04-2484b1ad27d6","system_id":"levelo_inurba_marseille","lat":43.25725,"lon":5.41108,"is_reserved":false,"is_disabled":false,"rental_uris":{"android":"levelo://app?vid=bceaa416-6cc7-4224-ab04-2484b1ad27d6","ios":"levelo://app?vid=bceaa416-6cc7-4224-ab04-2484b1ad27d6"},"vehicle_type_id":"4","last_reported":1745489458,"current_range_meters":12000,"station_id":"ce4bhkp2rcd13ifvqgd0","pricing_plan_id":"cebpf4jnsgd1na2vs0mg"},{"bike_id":"df11b469-c9ef-41ef-a3ff-e21b4cfee7c7","system_id":"levelo_inurba_marseille","lat":43.32355,"lon":5.36761,"is_reserved":false,"is_disabled":false,"rental_uris":{"android":"levelo://app?vid=df11b469-c9ef-41ef-a3ff-e21b4cfee7c7","ios":"levelo://app?vid=df11b469-c9ef-41ef-a3ff-e21b4cfee7c7"},"vehicle_type_id":"4","last_reported":1745489458,"current_range_meters":12400,"station_id":"ce4bhsh2rcd13ifvqi2g","pricing_plan_id":"cebpf4jnsgd1na2vs0mg"},{"bike_id":"bb00ca7a-9e74-417d-a011-59d0be31d267","system_id":"levelo_inurba_marseille","lat":43.295332,"lon":5.390398,"is_reserved":false,"is_disabled":false,"rental_uris":{"android":"levelo://app?vid=bb00ca7a-9e74-417d-a011-59d0be31d267","ios":"levelo://app?vid=bb00ca7a-9e74-417d-a011-59d0be31d267"},"vehicle_type_id":"4","last_reported":1745489458,"current_range_meters":12400,"station_id":"ce4bh3p2rcd13ifvqdp0","pricing_plan_id":"cebpf4jnsgd1na2vs0mg"},{"bike_id":"9ab7bf5e-724a-45c5-a946-61afe36b1204","system_id":"levelo_inurba_marseille","lat":43.30318,"lon":5.40442,"is_reserved":false,"is_disabled":true,"rental_uris":{"android":"levelo://app?vid=9ab7bf5e-724a-45c5-a946-61afe36b1204","ios":"levelo://app?vid=9ab7bf5e-724a-45c5-a946-61afe36b1204"},"vehicle_type_id":"4","last_reported":1745489458,"current_range_meters":12800,"station_id":"ce4bh012rcd13ifvqd10","pricing_plan_id":"cebpf4jnsgd1na2vs0mg"},{"bike_id":"63c1e8b7-e07a-4e12-9884-50afc3dbd62e","system_id":"levelo_inurba_marseille","lat":43.21191,"lon":5.35072,"is_reserved":false,"is_disabled":false,"rental_uris":{"android":"levelo://app?vid=63c1e8b7-e07a-4e12-9884-50afc3dbd62e","ios":"levelo://app?vid=63c1e8b7-e07a-4e12-9884-50afc3dbd62e"},"vehicle_type_id":"4","last_reported":1745489458,"current_range_meters":12800,"station_id":"st_cvj6sg6p6f1abm77japg","pricing_plan_id":"cebpf4jnsgd1na2vs0mg"},{"bike_id":"f7c13b48-86c5-4ae0-875b-8a996e5c4ae0","system_id":"levelo_inurba_marseille","lat":43.29574,"lon":5.36736,"is_reserved":false,"is_disabled":false,"rental_uris":{"android":"levelo://app?vid=f7c13b48-86c5-4ae0-875b-8a996e5c4ae0","ios":"levelo://app?vid=f7c13b48-86c5-4ae0-875b-8a996e5c4ae0"},"vehicle_type_id":"4","last_reported":1745489458,"current_range_meters":12800,"station_id":"ce4bgph2rcd13ifvqc2g","pricing_plan_id":"cebpf4jnsgd1na2vs0mg"},{"bike_id":"c6c874af-8aca-44b2-aa39-ba0c6d7abc67","system_id":"levelo_inurba_marseille","lat":43.23152,"lon":5.43712,"is_reserved":false,"is_disabled":false,"rental_uris":{"android":"levelo://app?vid=c6c874af-8aca-44b2-aa39-ba0c6d7abc67","ios":"levelo://app?vid=c6c874af-8aca-44b2-aa39-ba0c6d7abc67"},"vehicle_type_id":"4","last_reported":1745489458,"current_range_meters":13600,"station_id":"ce4bhmp2rcd13ifvqgog","pricing_plan_id":"cebpf4jnsgd1na2vs0mg"},{"bike_id":"d6a28369-c85e-4f77-8bbb-e08b0cdd02e6","system_id":"levelo_inurba_marseille","lat":43.30955,"lon":5.39046,"is_reserved":false,"is_disabled":false,"rental_uris":{"android":"levelo://app?vid=d6a28369-c85e-4f77-8bbb-e08b0cdd02e6","ios":"levelo://app?vid=d6a28369-c85e-4f77-8bbb-e08b0cdd02e6"},"vehicle_type_id":"4","last_reported":1745489458,"current_range_meters":13600,"station_id":"ce4bgup2rcd13ifvqco0","pricing_plan_id":"cebpf4jnsgd1na2vs0mg"},{"bike_id":"3905a23d-85ef-4e14-9bbe-020696cbd345","system_id":"levelo_inurba_marseille","lat":43.27564,"lon":5.38429,"is_reserved":false,"is_disabled":false,"rental_uris":{"android":"levelo://app?vid=3905a23d-85ef-4e14-9bbe-020696cbd345","ios":"levelo://app?vid=3905a23d-85ef-4e14-9bbe-020696cbd345"},"vehicle_type_id":"4","last_reported":1745489458,"current_range_meters":12800,"station_id":"ce4bhh92rcd13ifvqfi0","pricing_plan_id":"cebpf4jnsgd1na2vs0mg"},{"bike_id":"1b618b30-b14f-4033-bd0a-c50d2a31af75","system_id":"levelo_inurba_marseille","lat":43.25501,"lon":5.37649,"is_reserved":false,"is_disabled":false,"rental_uris":{"android":"levelo://app?vid=1b618b30-b14f-4033-bd0a-c50d2a31af75","ios":"levelo://app?vid=1b618b30-b14f-4033-bd0a-c50d2a31af75"},"vehicle_type_id":"4","last_reported":1745489458,"current_range_meters":13600,"station_id":"ce4bhh12rcd13ifvqff0","pricing_plan_id":"cebpf4jnsgd1na2vs0mg"},{"bike_id":"882322fa-e38e-4ba4-8595-8ea00b0c5c68","system_id":"levelo_inurba_marseille","lat":43.26957,"lon":5.38625,"is_reserved":false,"is_disabled":false,"rental_uris":{"android":"levelo://app?vid=882322fa-e38e-4ba4-8595-8ea00b0c5c68","ios":"levelo://app?vid=882322fa-e38e-4ba4-8595-8ea00b0c5c68"},"vehicle_type_id":"4","last_reported":1745489458,"current_range_meters":12000,"station_id":"ce4bhh92rcd13ifvqfh0","pricing_plan_id":"cebpf4jnsgd1na2vs0mg"},{"bike_id":"84f42031-c468-47af-a3f4-5b7139796eb0","system_id":"levelo_inurba_marseille","lat":43.25584,"lon":5.3823,"is_reserved":false,"is_disabled":false,"rental_uris":{"android":"levelo://app?vid=84f42031-c468-47af-a3f4-5b7139796eb0","ios":"levelo://app?vid=84f42031-c468-47af-a3f4-5b7139796eb0"},"vehicle_type_id":"4","last_reported":1745489458,"current_range_meters":14000,"station_id":"ce4bhih2rcd13ifvqfs0","pricing_plan_id":"cebpf4jnsgd1na2vs0mg"},{"bike_id":"5d598f50-0289-4d7e-b163-7f0386e0682b","system_id":"levelo_inurba_marseille","lat":43.23146,"lon":5.43696,"is_reserved":false,"is_disabled":false,"rental_uris":{"android":"levelo://app?vid=5d598f50-0289-4d7e-b163-7f0386e0682b","ios":"levelo://app?vid=5d598f50-0289-4d7e-b163-7f0386e0682b"},"vehicle_type_id":"4","last_reported":1745489458,"current_range_meters":14000,"station_id":"ce4bhmp2rcd13ifvqgog","pricing_plan_id":"cebpf4jnsgd1na2vs0mg"},{"bike_id":"11823a51-ce6a-4329-86c9-73570c28fb5e","system_id":"levelo_inurba_marseille","lat":43.29589,"lon":5.37518,"is_reserved":false,"is_disabled":false,"rental_uris":{"android":"levelo://app?vid=11823a51-ce6a-4329-86c9-73570c28fb5e","ios":"levelo://app?vid=11823a51-ce6a-4329-86c9-73570c28fb5e"},"vehicle_type_id":"4","last_reported":1745489458,"current_range_meters":14000,"station_id":"ce4bgh92rcd13ifvqb50","pricing_plan_id":"cebpf4jnsgd1na2vs0mg"},{"bike_id":"e7b7cc0a-8da7-4f98-befb-242189be16fb","system_id":"levelo_inurba_marseille","lat":43.26201,"lon":5.37928,"is_reserved":false,"is_disabled":false,"rental_uris":{"android":"levelo://app?vid=e7b7cc0a-8da7-4f98-befb-242189be16fb","ios":"levelo://app?vid=e7b7cc0a-8da7-4f98-befb-242189be16fb"},"vehicle_type_id":"4","last_reported":1745489458,"current_range_meters":14400,"station_id":"ce4bhjp2rcd13ifvqg90","pricing_plan_id":"cebpf4jnsgd1na2vs0mg"},{"bike_id":"051e4bd2-ccb0-4829-957f-c16919c9a3f0","system_id":"levelo_inurba_marseille","lat":43.29536,"lon":5.42268,"is_reserved":false,"is_disabled":false,"rental_uris":{"android":"levelo://app?vid=051e4bd2-ccb0-4829-957f-c16919c9a3f0","ios":"levelo://app?vid=051e4bd2-ccb0-4829-957f-c16919c9a3f0"},"vehicle_type_id":"4","last_reported":1745489458,"current_range_meters":14400,"station_id":"ce4bhph2rcd13ifvqhdg","pricing_plan_id":"cebpf4jnsgd1na2vs0mg"},{"bike_id":"6f92f117-db41-48e4-8e04-0cb28a1484e0","system_id":"levelo_inurba_marseille","lat":43.30538,"lon":5.36708,"is_reserved":false,"is_disabled":false,"rental_uris":{"android":"levelo://app?vid=6f92f117-db41-48e4-8e04-0cb28a1484e0","ios":"levelo://app?vid=6f92f117-db41-48e4-8e04-0cb28a1484e0"},"vehicle_type_id":"4","last_reported":1745489458,"current_range_meters":14800,"station_id":"ce4bgrp2rcd13ifvqc9g","pricing_plan_id":"cebpf4jnsgd1na2vs0mg"},{"bike_id":"382baf77-1a90-4a91-807e-68d00c31fc76","system_id":"levelo_inurba_marseille","lat":43.29841,"lon":5.36275,"is_reserved":false,"is_disabled":false,"rental_uris":{"android":"levelo://app?vid=382baf77-1a90-4a91-807e-68d00c31fc76","ios":"levelo://app?vid=382baf77-1a90-4a91-807e-68d00c31fc76"},"vehicle_type_id":"4","last_reported":1745489458,"current_range_meters":14800,"station_id":"ce4bgpp2rcd13ifvqc3g","pricing_plan_id":"cebpf4jnsgd1na2vs0mg"},{"bike_id":"552ca33f-b1b5-4f34-9c9d-42b8f25d0821","system_id":"levelo_inurba_marseille","lat":43.27572,"lon":5.38422,"is_reserved":false,"is_disabled":false,"rental_uris":{"android":"levelo://app?vid=552ca33f-b1b5-4f34-9c9d-42b8f25d0821","ios":"levelo://app?vid=552ca33f-b1b5-4f34-9c9d-42b8f25d0821"},"vehicle_type_id":"4","last_reported":1745489458,"current_range_meters":14800,"station_id":"ce4bhh92rcd13ifvqfi0","pricing_plan_id":"cebpf4jnsgd1na2vs0mg"},{"bike_id":"fa8a552a-d2d3-4e8d-8d8e-02bdba037836","system_id":"levelo_inurba_marseille","lat":43.230712,"lon":5.354879,"is_reserved":false,"is_disabled":false,"rental_uris":{"android":"levelo://app?vid=fa8a552a-d2d3-4e8d-8d8e-02bdba037836","ios":"levelo://app?vid=fa8a552a-d2d3-4e8d-8d8e-02bdba037836"},"vehicle_type_id":"4","last_reported":1745489458,"current_range_meters":14800,"station_id":"cpo3342slgdg3j2ifvpg","pricing_plan_id":"cebpf4jnsgd1na2vs0mg"},{"bike_id":"5f47d0c6-ea7f-4031-beca-108ca52404d8","system_id":"levelo_inurba_marseille","lat":43.30545,"lon":5.3656,"is_reserved":false,"is_disabled":false,"rental_uris":{"android":"levelo://app?vid=5f47d0c6-ea7f-4031-beca-108ca52404d8","ios":"levelo://app?vid=5f47d0c6-ea7f-4031-beca-108ca52404d8"},"vehicle_type_id":"4","last_reported":1745489458,"current_range_meters":14800,"station_id":"ce4bgs12rcd13ifvqcag","pricing_plan_id":"cebpf4jnsgd1na2vs0mg"},{"bike_id":"d517b521-37c1-4380-9600-6e69fd78877b","system_id":"levelo_inurba_marseille","lat":43.21191,"lon":5.35076,"is_reserved":false,"is_disabled":false,"rental_uris":{"android":"levelo://app?vid=d517b521-37c1-4380-9600-6e69fd78877b","ios":"levelo://app?vid=d517b521-37c1-4380-9600-6e69fd78877b"},"vehicle_type_id":"4","last_reported":1745489458,"current_range_meters":15200,"station_id":"st_cvj6sg6p6f1abm77japg","pricing_plan_id":"cebpf4jnsgd1na2vs0mg"},{"bike_id":"09b01845-6a6c-47d1-a012-9a99cb48ea07","system_id":"levelo_inurba_marseille","lat":43.25844,"lon":5.39415,"is_reserved":false,"is_disabled":false,"rental_uris":{"android":"levelo://app?vid=09b01845-6a6c-47d1-a012-9a99cb48ea07","ios":"levelo://app?vid=09b01845-6a6c-47d1-a012-9a99cb48ea07"},"vehicle_type_id":"4","last_reported":1745489458,"current_range_meters":15200,"station_id":"ce4bhip2rcd13ifvqft0","pricing_plan_id":"cebpf4jnsgd1na2vs0mg"},{"bike_id":"527999c3-7431-407e-96d9-15db82eb0dac","system_id":"levelo_inurba_marseille","lat":43.31457,"lon":5.36816,"is_reserved":false,"is_disabled":false,"rental_uris":{"android":"levelo://app?vid=527999c3-7431-407e-96d9-15db82eb0dac","ios":"levelo://app?vid=527999c3-7431-407e-96d9-15db82eb0dac"},"vehicle_type_id":"4","last_reported":1745489458,"current_range_meters":16000,"station_id":"","pricing_plan_id":"cebpf4jnsgd1na2vs0mg"},{"bike_id":"3ac7a256-bc93-444a-b034-fb7fdc853f81","system_id":"levelo_inurba_marseille","lat":43.26224,"lon":5.40456,"is_reserved":false,"is_disabled":false,"rental_uris":{"android":"levelo://app?vid=3ac7a256-bc93-444a-b034-fb7fdc853f81","ios":"levelo://app?vid=3ac7a256-bc93-444a-b034-fb7fdc853f81"},"vehicle_type_id":"4","last_reported":1745489458,"current_range_meters":16000,"station_id":"ce4bhmh2rcd13ifvqgmg","pricing_plan_id":"cebpf4jnsgd1na2vs0mg"},{"bike_id":"9e3ec1b8-90aa-41f8-b4cf-95d8498727ff","system_id":"levelo_inurba_marseille","lat":43.29858,"lon":5.36283,"is_reserved":false,"is_disabled":false,"rental_uris":{"android":"levelo://app?vid=9e3ec1b8-90aa-41f8-b4cf-95d8498727ff","ios":"levelo://app?vid=9e3ec1b8-90aa-41f8-b4cf-95d8498727ff"},"vehicle_type_id":"4","last_reported":1745489458,"current_range_meters":16400,"station_id":"ce4bgpp2rcd13ifvqc3g","pricing_plan_id":"cebpf4jnsgd1na2vs0mg"},{"bike_id":"8492447e-6a4e-4de2-8526-5f1e1e6fd6a3","system_id":"levelo_inurba_marseille","lat":43.29252,"lon":5.37626,"is_reserved":false,"is_disabled":false,"rental_uris":{"android":"levelo://app?vid=8492447e-6a4e-4de2-8526-5f1e1e6fd6a3","ios":"levelo://app?vid=8492447e-6a4e-4de2-8526-5f1e1e6fd6a3"},"vehicle_type_id":"4","last_reported":1745489458,"current_range_meters":16400,"station_id":"ce4bgi12rcd13ifvqb80","pricing_plan_id":"cebpf4jnsgd1na2vs0mg"},{"bike_id":"092fd50f-2132-4d9c-91d2-48416c515adf","system_id":"levelo_inurba_marseille","lat":43.29975,"lon":5.37172,"is_reserved":false,"is_disabled":false,"rental_uris":{"android":"levelo://app?vid=092fd50f-2132-4d9c-91d2-48416c515adf","ios":"levelo://app?vid=092fd50f-2132-4d9c-91d2-48416c515adf"},"vehicle_type_id":"4","last_reported":1745489458,"current_range_meters":16000,"station_id":"ce4bgr92rcd13ifvqc7g","pricing_plan_id":"cebpf4jnsgd1na2vs0mg"},{"bike_id":"2363c920-de54-4a63-be5f-c116e587f1c1","system_id":"levelo_inurba_marseille","lat":43.29796,"lon":5.39341,"is_reserved":false,"is_disabled":false,"rental_uris":{"android":"levelo://app?vid=2363c920-de54-4a63-be5f-c116e587f1c1","ios":"levelo://app?vid=2363c920-de54-4a63-be5f-c116e587f1c1"},"vehicle_type_id":"4","last_reported":1745489458,"current_range_meters":16400,"station_id":"chh1huq6cuj3fo74tm60","pricing_plan_id":"cebpf4jnsgd1na2vs0mg"},{"bike_id":"885dba09-5268-463f-bfac-c2b8a32dbaab","system_id":"levelo_inurba_marseille","lat":43.23163,"lon":5.43692,"is_reserved":false,"is_disabled":false,"rental_uris":{"android":"levelo://app?vid=885dba09-5268-463f-bfac-c2b8a32dbaab","ios":"levelo://app?vid=885dba09-5268-463f-bfac-c2b8a32dbaab"},"vehicle_type_id":"4","last_reported":1745489458,"current_range_meters":16400,"station_id":"ce4bhmp2rcd13ifvqgog","pricing_plan_id":"cebpf4jnsgd1na2vs0mg"},{"bike_id":"ab660249-0742-4ee6-9f3c-cbf7eabd0145","system_id":"levelo_inurba_marseille","lat":43.28615,"lon":5.3707,"is_reserved":false,"is_disabled":false,"rental_uris":{"android":"levelo://app?vid=ab660249-0742-4ee6-9f3c-cbf7eabd0145","ios":"levelo://app?vid=ab660249-0742-4ee6-9f3c-cbf7eabd0145"},"vehicle_type_id":"4","last_reported":1745489458,"current_range_meters":16400,"station_id":"ce4bht12rcd13ifvqi60","pricing_plan_id":"cebpf4jnsgd1na2vs0mg"},{"bike_id":"4e259911-67c1-4742-976c-ddc411ce90fd","system_id":"levelo_inurba_marseille","lat":43.24049,"lon":5.37751,"is_reserved":false,"is_disabled":false,"rental_uris":{"android":"levelo://app?vid=4e259911-67c1-4742-976c-ddc411ce90fd","ios":"levelo://app?vid=4e259911-67c1-4742-976c-ddc411ce90fd"},"vehicle_type_id":"4","last_reported":1745489458,"current_range_meters":16400,"station_id":"ce4bhnp2rcd13ifvqgvg","pricing_plan_id":"cebpf4jnsgd1na2vs0mg"},{"bike_id":"d802d433-91f5-46da-9a5b-42a725289286","system_id":"levelo_inurba_marseille","lat":43.30917,"lon":5.36842,"is_reserved":false,"is_disabled":false,"rental_uris":{"android":"levelo://app?vid=d802d433-91f5-46da-9a5b-42a725289286","ios":"levelo://app?vid=d802d433-91f5-46da-9a5b-42a725289286"},"vehicle_type_id":"4","last_reported":1745489458,"current_range_meters":16400,"station_id":"ce4bgn92rcd13ifvqbvg","pricing_plan_id":"cebpf4jnsgd1na2vs0mg"},{"bike_id":"935293bd-3858-4f68-8680-7e84c86afa06","system_id":"levelo_inurba_marseille","lat":43.306458,"lon":5.400978,"is_reserved":false,"is_disabled":false,"rental_uris":{"android":"levelo://app?vid=935293bd-3858-4f68-8680-7e84c86afa06","ios":"levelo://app?vid=935293bd-3858-4f68-8680-7e84c86afa06"},"vehicle_type_id":"4","last_reported":1745489458,"current_range_meters":16800,"station_id":"ce4bgi92rcd13ifvqb90","pricing_plan_id":"cebpf4jnsgd1na2vs0mg"},{"bike_id":"cd906bce-52be-45be-8f08-cdeb623de131","system_id":"levelo_inurba_marseille","lat":43.28171,"lon":5.40397,"is_reserved":false,"is_disabled":false,"rental_uris":{"android":"levelo://app?vid=cd906bce-52be-45be-8f08-cdeb623de131","ios":"levelo://app?vid=cd906bce-52be-45be-8f08-cdeb623de131"},"vehicle_type_id":"4","last_reported":1745489458,"current_range_meters":16800,"station_id":"","pricing_plan_id":"cebpf4jnsgd1na2vs0mg"},{"bike_id":"cb1f9331-2c00-47a7-9fcc-a8a45907cd5d","system_id":"levelo_inurba_marseille","lat":43.29616,"lon":5.37149,"is_reserved":false,"is_disabled":false,"rental_uris":{"android":"levelo://app?vid=cb1f9331-2c00-47a7-9fcc-a8a45907cd5d","ios":"levelo://app?vid=cb1f9331-2c00-47a7-9fcc-a8a45907cd5d"},"vehicle_type_id":"4","last_reported":1745489458,"current_range_meters":16800,"station_id":"ce4bgnh2rcd13ifvqc0g","pricing_plan_id":"cebpf4jnsgd1na2vs0mg"},{"bike_id":"ba43ec62-1e11-4255-86ac-3dfc4d9593a4","system_id":"levelo_inurba_marseille","lat":43.29628,"lon":5.3717,"is_reserved":false,"is_disabled":false,"rental_uris":{"android":"levelo://app?vid=ba43ec62-1e11-4255-86ac-3dfc4d9593a4","ios":"levelo://app?vid=ba43ec62-1e11-4255-86ac-3dfc4d9593a4"},"vehicle_type_id":"4","last_reported":1745489458,"current_range_meters":17200,"station_id":"ce4bgnh2rcd13ifvqc0g","pricing_plan_id":"cebpf4jnsgd1na2vs0mg"},{"bike_id":"97f00e91-4a81-4998-8f3d-60d5de3cea7c","system_id":"levelo_inurba_marseille","lat":43.30526,"lon":5.36699,"is_reserved":false,"is_disabled":false,"rental_uris":{"android":"levelo://app?vid=97f00e91-4a81-4998-8f3d-60d5de3cea7c","ios":"levelo://app?vid=97f00e91-4a81-4998-8f3d-60d5de3cea7c"},"vehicle_type_id":"4","last_reported":1745489458,"current_range_meters":17200,"station_id":"ce4bgrp2rcd13ifvqc9g","pricing_plan_id":"cebpf4jnsgd1na2vs0mg"},{"bike_id":"63116a32-869c-46c2-ba94-22a1d1ab5f50","system_id":"levelo_inurba_marseille","lat":43.311676,"lon":5.387184,"is_reserved":false,"is_disabled":false,"rental_uris":{"android":"levelo://app?vid=63116a32-869c-46c2-ba94-22a1d1ab5f50","ios":"levelo://app?vid=63116a32-869c-46c2-ba94-22a1d1ab5f50"},"vehicle_type_id":"4","last_reported":1745489458,"current_range_meters":17200,"station_id":"ce4bgv12rcd13ifvqcp0","pricing_plan_id":"cebpf4jnsgd1na2vs0mg"},{"bike_id":"5bbcc998-da8c-429a-a2f0-08cf4eaac56f","system_id":"levelo_inurba_marseille","lat":43.30533,"lon":5.36696,"is_reserved":false,"is_disabled":false,"rental_uris":{"android":"levelo://app?vid=5bbcc998-da8c-429a-a2f0-08cf4eaac56f","ios":"levelo://app?vid=5bbcc998-da8c-429a-a2f0-08cf4eaac56f"},"vehicle_type_id":"4","last_reported":1745489458,"current_range_meters":17200,"station_id":"ce4bgrp2rcd13ifvqc9g","pricing_plan_id":"cebpf4jnsgd1na2vs0mg"},{"bike_id":"76ea871c-aa24-4cff-b7ba-8a3d05708377","system_id":"levelo_inurba_marseille","lat":43.26951,"lon":5.38639,"is_reserved":false,"is_disabled":false,"rental_uris":{"android":"levelo://app?vid=76ea871c-aa24-4cff-b7ba-8a3d05708377","ios":"levelo://app?vid=76ea871c-aa24-4cff-b7ba-8a3d05708377"},"vehicle_type_id":"4","last_reported":1745489458,"current_range_meters":16800,"station_id":"ce4bhh92rcd13ifvqfh0","pricing_plan_id":"cebpf4jnsgd1na2vs0mg"},{"bike_id":"d26691ad-eb04-46c6-ac7a-e471272f54e2","system_id":"levelo_inurba_marseille","lat":43.26226,"lon":5.40451,"is_reserved":false,"is_disabled":false,"rental_uris":{"android":"levelo://app?vid=d26691ad-eb04-46c6-ac7a-e471272f54e2","ios":"levelo://app?vid=d26691ad-eb04-46c6-ac7a-e471272f54e2"},"vehicle_type_id":"4","last_reported":1745489458,"current_range_meters":17600,"station_id":"ce4bhmh2rcd13ifvqgmg","pricing_plan_id":"cebpf4jnsgd1na2vs0mg"},{"bike_id":"f490c58e-6b44-4708-bbd5-e498310200e2","system_id":"levelo_inurba_marseille","lat":43.29794,"lon":5.39336,"is_reserved":false,"is_disabled":false,"rental_uris":{"android":"levelo://app?vid=f490c58e-6b44-4708-bbd5-e498310200e2","ios":"levelo://app?vid=f490c58e-6b44-4708-bbd5-e498310200e2"},"vehicle_type_id":"4","last_reported":1745489458,"current_range_meters":17600,"station_id":"chh1huq6cuj3fo74tm60","pricing_plan_id":"cebpf4jnsgd1na2vs0mg"},{"bike_id":"6c8a3000-5081-4d91-a139-2ac9ff5601d8","system_id":"levelo_inurba_marseille","lat":43.25489,"lon":5.37644,"is_reserved":false,"is_disabled":false,"rental_uris":{"android":"levelo://app?vid=6c8a3000-5081-4d91-a139-2ac9ff5601d8","ios":"levelo://app?vid=6c8a3000-5081-4d91-a139-2ac9ff5601d8"},"vehicle_type_id":"4","last_reported":1745489458,"current_range_meters":17600,"station_id":"ce4bhh12rcd13ifvqff0","pricing_plan_id":"cebpf4jnsgd1na2vs0mg"},{"bike_id":"682f953a-6f71-48c9-96df-42b89c42b78c","system_id":"levelo_inurba_marseille","lat":43.26953,"lon":5.38633,"is_reserved":false,"is_disabled":false,"rental_uris":{"android":"levelo://app?vid=682f953a-6f71-48c9-96df-42b89c42b78c","ios":"levelo://app?vid=682f953a-6f71-48c9-96df-42b89c42b78c"},"vehicle_type_id":"4","last_reported":1745489458,"current_range_meters":17600,"station_id":"ce4bhh92rcd13ifvqfh0","pricing_plan_id":"cebpf4jnsgd1na2vs0mg"},{"bike_id":"511b03e0-2c42-42b4-bb64-0faed2aa4637","system_id":"levelo_inurba_marseille","lat":43.23072,"lon":5.35504,"is_reserved":false,"is_disabled":false,"rental_uris":{"android":"levelo://app?vid=511b03e0-2c42-42b4-bb64-0faed2aa4637","ios":"levelo://app?vid=511b03e0-2c42-42b4-bb64-0faed2aa4637"},"vehicle_type_id":"4","last_reported":1745489458,"current_range_meters":17600,"station_id":"cpo3342slgdg3j2ifvpg","pricing_plan_id":"cebpf4jnsgd1na2vs0mg"},{"bike_id":"0efc1613-2cb6-47b5-8cea-b053c6332984","system_id":"levelo_inurba_marseille","lat":43.24997,"lon":5.38928,"is_reserved":false,"is_disabled":false,"rental_uris":{"android":"levelo://app?vid=0efc1613-2cb6-47b5-8cea-b053c6332984","ios":"levelo://app?vid=0efc1613-2cb6-47b5-8cea-b053c6332984"},"vehicle_type_id":"4","last_reported":1745489458,"current_range_meters":17600,"station_id":"ce4bhgp2rcd13ifvqfd0","pricing_plan_id":"cebpf4jnsgd1na2vs0mg"},{"bike_id":"55c60548-a6dc-40bb-a829-32622b5f419e","system_id":"levelo_inurba_marseille","lat":43.259349,"lon":5.409072,"is_reserved":false,"is_disabled":false,"rental_uris":{"android":"levelo://app?vid=55c60548-a6dc-40bb-a829-32622b5f419e","ios":"levelo://app?vid=55c60548-a6dc-40bb-a829-32622b5f419e"},"vehicle_type_id":"4","last_reported":1745489458,"current_range_meters":17600,"station_id":"ce4bhm92rcd13ifvqglg","pricing_plan_id":"cebpf4jnsgd1na2vs0mg"},{"bike_id":"4ad44271-4ca7-4dac-b8d2-6bb546d4598b","system_id":"levelo_inurba_marseille","lat":43.30949,"lon":5.39045,"is_reserved":false,"is_disabled":false,"rental_uris":{"android":"levelo://app?vid=4ad44271-4ca7-4dac-b8d2-6bb546d4598b","ios":"levelo://app?vid=4ad44271-4ca7-4dac-b8d2-6bb546d4598b"},"vehicle_type_id":"4","last_reported":1745489458,"current_range_meters":18000,"station_id":"ce4bgup2rcd13ifvqco0","pricing_plan_id":"cebpf4jnsgd1na2vs0mg"},{"bike_id":"30da752e-5450-4da3-965e-773778ce5d7d","system_id":"levelo_inurba_marseille","lat":43.24152,"lon":5.36409,"is_reserved":false,"is_disabled":false,"rental_uris":{"android":"levelo://app?vid=30da752e-5450-4da3-965e-773778ce5d7d","ios":"levelo://app?vid=30da752e-5450-4da3-965e-773778ce5d7d"},"vehicle_type_id":"4","last_reported":1745489458,"current_range_meters":18000,"station_id":"cpo36qri1sfpv3e86is0","pricing_plan_id":"cebpf4jnsgd1na2vs0mg"},{"bike_id":"0ee89ba8-b5a2-4a2e-aed6-7ffedbe4a722","system_id":"levelo_inurba_marseille","lat":43.2893,"lon":5.38397,"is_reserved":false,"is_disabled":false,"rental_uris":{"android":"levelo://app?vid=0ee89ba8-b5a2-4a2e-aed6-7ffedbe4a722","ios":"levelo://app?vid=0ee89ba8-b5a2-4a2e-aed6-7ffedbe4a722"},"vehicle_type_id":"4","last_reported":1745489458,"current_range_meters":18000,"station_id":"ce4bh612rcd13ifvqe6g","pricing_plan_id":"cebpf4jnsgd1na2vs0mg"},{"bike_id":"abf2df00-70d9-4a3b-b09a-35d6c9e9796f","system_id":"levelo_inurba_marseille","lat":43.2955,"lon":5.42262,"is_reserved":false,"is_disabled":false,"rental_uris":{"android":"levelo://app?vid=abf2df00-70d9-4a3b-b09a-35d6c9e9796f","ios":"levelo://app?vid=abf2df00-70d9-4a3b-b09a-35d6c9e9796f"},"vehicle_type_id":"4","last_reported":1745489458,"current_range_meters":18000,"station_id":"ce4bhph2rcd13ifvqhdg","pricing_plan_id":"cebpf4jnsgd1na2vs0mg"},{"bike_id":"a97490a9-4306-4780-9ea6-61d28a56e6b1","system_id":"levelo_inurba_marseille","lat":43.29841,"lon":5.36271,"is_reserved":false,"is_disabled":false,"rental_uris":{"android":"levelo://app?vid=a97490a9-4306-4780-9ea6-61d28a56e6b1","ios":"levelo://app?vid=a97490a9-4306-4780-9ea6-61d28a56e6b1"},"vehicle_type_id":"4","last_reported":1745489458,"current_range_meters":18000,"station_id":"ce4bgpp2rcd13ifvqc3g","pricing_plan_id":"cebpf4jnsgd1na2vs0mg"},{"bike_id":"63a6bc35-fffa-4297-9597-45b8d37858d9","system_id":"levelo_inurba_marseille","lat":43.2465,"lon":5.3889,"is_reserved":false,"is_disabled":false,"rental_uris":{"android":"levelo://app?vid=63a6bc35-fffa-4297-9597-45b8d37858d9","ios":"levelo://app?vid=63a6bc35-fffa-4297-9597-45b8d37858d9"},"vehicle_type_id":"4","last_reported":1745489458,"current_range_meters":18800,"station_id":"ce4bhg12rcd13ifvqf60","pricing_plan_id":"cebpf4jnsgd1na2vs0mg"},{"bike_id":"f106f414-13c3-4e0d-b872-f4010c13d223","system_id":"levelo_inurba_marseille","lat":43.30884,"lon":5.36881,"is_reserved":false,"is_disabled":false,"rental_uris":{"android":"levelo://app?vid=f106f414-13c3-4e0d-b872-f4010c13d223","ios":"levelo://app?vid=f106f414-13c3-4e0d-b872-f4010c13d223"},"vehicle_type_id":"4","last_reported":1745489458,"current_range_meters":18800,"station_id":"ce4bgn92rcd13ifvqbvg","pricing_plan_id":"cebpf4jnsgd1na2vs0mg"},{"bike_id":"4b0ada37-3caa-4bc6-ba95-da3d07fb1c36","system_id":"levelo_inurba_marseille","lat":43.25935,"lon":5.40899,"is_reserved":false,"is_disabled":false,"rental_uris":{"android":"levelo://app?vid=4b0ada37-3caa-4bc6-ba95-da3d07fb1c36","ios":"levelo://app?vid=4b0ada37-3caa-4bc6-ba95-da3d07fb1c36"},"vehicle_type_id":"4","last_reported":1745489458,"current_range_meters":18800,"station_id":"ce4bhm92rcd13ifvqglg","pricing_plan_id":"cebpf4jnsgd1na2vs0mg"},{"bike_id":"ef65a62a-5b2f-43c6-938c-f56d12bae755","system_id":"levelo_inurba_marseille","lat":43.28847,"lon":5.3931,"is_reserved":false,"is_disabled":false,"rental_uris":{"android":"levelo://app?vid=ef65a62a-5b2f-43c6-938c-f56d12bae755","ios":"levelo://app?vid=ef65a62a-5b2f-43c6-938c-f56d12bae755"},"vehicle_type_id":"4","last_reported":1745489458,"current_range_meters":19600,"station_id":"ce4bh2p2rcd13ifvqdi0","pricing_plan_id":"cebpf4jnsgd1na2vs0mg"},{"bike_id":"e2dcabcf-64d8-4394-bb9a-ff877bee611a","system_id":"levelo_inurba_marseille","lat":43.32045,"lon":5.41514,"is_reserved":false,"is_disabled":false,"rental_uris":{"android":"levelo://app?vid=e2dcabcf-64d8-4394-bb9a-ff877bee611a","ios":"levelo://app?vid=e2dcabcf-64d8-4394-bb9a-ff877bee611a"},"vehicle_type_id":"4","last_reported":1745489458,"current_range_meters":18800,"station_id":"ce4bhq92rcd13ifvqhkg","pricing_plan_id":"cebpf4jnsgd1na2vs0mg"},{"bike_id":"9d62c9dd-8739-44b0-98a4-6fbfa8f33370","system_id":"levelo_inurba_marseille","lat":43.25929,"lon":5.40911,"is_reserved":false,"is_disabled":false,"rental_uris":{"android":"levelo://app?vid=9d62c9dd-8739-44b0-98a4-6fbfa8f33370","ios":"levelo://app?vid=9d62c9dd-8739-44b0-98a4-6fbfa8f33370"},"vehicle_type_id":"4","last_reported":1745489458,"current_range_meters":18800,"station_id":"ce4bhm92rcd13ifvqglg","pricing_plan_id":"cebpf4jnsgd1na2vs0mg"},{"bike_id":"dc488267-f8e6-497d-9fa0-cfb286474b9e","system_id":"levelo_inurba_marseille","lat":43.28146,"lon":5.42646,"is_reserved":false,"is_disabled":false,"rental_uris":{"android":"levelo://app?vid=dc488267-f8e6-497d-9fa0-cfb286474b9e","ios":"levelo://app?vid=dc488267-f8e6-497d-9fa0-cfb286474b9e"},"vehicle_type_id":"4","last_reported":1745489458,"current_range_meters":18800,"station_id":"ce4bhnh2rcd13ifvqgug","pricing_plan_id":"cebpf4jnsgd1na2vs0mg"},{"bike_id":"95d57124-1efa-48b8-ba13-32ad31e77801","system_id":"levelo_inurba_marseille","lat":43.28567,"lon":5.3949,"is_reserved":false,"is_disabled":false,"rental_uris":{"android":"levelo://app?vid=95d57124-1efa-48b8-ba13-32ad31e77801","ios":"levelo://app?vid=95d57124-1efa-48b8-ba13-32ad31e77801"},"vehicle_type_id":"4","last_reported":1745489458,"current_range_meters":18800,"station_id":"ce4bh292rcd13ifvqdg0","pricing_plan_id":"cebpf4jnsgd1na2vs0mg"},{"bike_id":"1fad0618-6d26-4697-9bee-ec5e0a80c437","system_id":"levelo_inurba_marseille","lat":43.31401,"lon":5.36821,"is_reserved":false,"is_disabled":false,"rental_uris":{"android":"levelo://app?vid=1fad0618-6d26-4697-9bee-ec5e0a80c437","ios":"levelo://app?vid=1fad0618-6d26-4697-9bee-ec5e0a80c437"},"vehicle_type_id":"4","last_reported":1745489458,"current_range_meters":18800,"station_id":"","pricing_plan_id":"cebpf4jnsgd1na2vs0mg"},{"bike_id":"e84c91b3-94e6-4162-8312-54d39cbc4733","system_id":"levelo_inurba_marseille","lat":43.29785,"lon":5.37097,"is_reserved":false,"is_disabled":false,"rental_uris":{"android":"levelo://app?vid=e84c91b3-94e6-4162-8312-54d39cbc4733","ios":"levelo://app?vid=e84c91b3-94e6-4162-8312-54d39cbc4733"},"vehicle_type_id":"4","last_reported":1745489458,"current_range_meters":19200,"station_id":"ce4bgop2rcd13ifvqc1g","pricing_plan_id":"cebpf4jnsgd1na2vs0mg"},{"bike_id":"15849669-eb0e-4ddf-9c01-b3b64a9ffcbe","system_id":"levelo_inurba_marseille","lat":43.25929,"lon":5.40922,"is_reserved":false,"is_disabled":false,"rental_uris":{"android":"levelo://app?vid=15849669-eb0e-4ddf-9c01-b3b64a9ffcbe","ios":"levelo://app?vid=15849669-eb0e-4ddf-9c01-b3b64a9ffcbe"},"vehicle_type_id":"4","last_reported":1745489458,"current_range_meters":19200,"station_id":"ce4bhm92rcd13ifvqglg","pricing_plan_id":"cebpf4jnsgd1na2vs0mg"},{"bike_id":"81c822d8-ebbe-4d24-aa97-095046fd1c36","system_id":"levelo_inurba_marseille","lat":43.23161,"lon":5.43722,"is_reserved":false,"is_disabled":false,"rental_uris":{"android":"levelo://app?vid=81c822d8-ebbe-4d24-aa97-095046fd1c36","ios":"levelo://app?vid=81c822d8-ebbe-4d24-aa97-095046fd1c36"},"vehicle_type_id":"4","last_reported":1745489458,"current_range_meters":19200,"station_id":"ce4bhmp2rcd13ifvqgog","pricing_plan_id":"cebpf4jnsgd1na2vs0mg"},{"bike_id":"e932ccb1-9a20-4841-8846-fce8f6ff7f48","system_id":"levelo_inurba_marseille","lat":43.29311,"lon":5.37176,"is_reserved":false,"is_disabled":false,"rental_uris":{"android":"levelo://app?vid=e932ccb1-9a20-4841-8846-fce8f6ff7f48","ios":"levelo://app?vid=e932ccb1-9a20-4841-8846-fce8f6ff7f48"},"vehicle_type_id":"4","last_reported":1745489458,"current_range_meters":19200,"station_id":"ce4bgh92rcd13ifvqb40","pricing_plan_id":"cebpf4jnsgd1na2vs0mg"},{"bike_id":"ecc2bb2b-d522-48c7-ba6c-7294d73b8bd4","system_id":"levelo_inurba_marseille","lat":43.297323,"lon":5.40502,"is_reserved":false,"is_disabled":true,"rental_uris":{"android":"levelo://app?vid=ecc2bb2b-d522-48c7-ba6c-7294d73b8bd4","ios":"levelo://app?vid=ecc2bb2b-d522-48c7-ba6c-7294d73b8bd4"},"vehicle_type_id":"4","last_reported":1745489458,"current_range_meters":19600,"station_id":"","pricing_plan_id":"cebpf4jnsgd1na2vs0mg"},{"bike_id":"c2f7a788-c936-453c-a344-dae81f52ba6c","system_id":"levelo_inurba_marseille","lat":43.30536,"lon":5.36677,"is_reserved":false,"is_disabled":false,"rental_uris":{"android":"levelo://app?vid=c2f7a788-c936-453c-a344-dae81f52ba6c","ios":"levelo://app?vid=c2f7a788-c936-453c-a344-dae81f52ba6c"},"vehicle_type_id":"4","last_reported":1745489458,"current_range_meters":19600,"station_id":"ce4bgrp2rcd13ifvqc9g","pricing_plan_id":"cebpf4jnsgd1na2vs0mg"},{"bike_id":"27fc9594-b16a-4e7d-8925-56d936c07a2f","system_id":"levelo_inurba_marseille","lat":43.29851,"lon":5.3633,"is_reserved":false,"is_disabled":false,"rental_uris":{"android":"levelo://app?vid=27fc9594-b16a-4e7d-8925-56d936c07a2f","ios":"levelo://app?vid=27fc9594-b16a-4e7d-8925-56d936c07a2f"},"vehicle_type_id":"4","last_reported":1745489458,"current_range_meters":19600,"station_id":"ce4bgpp2rcd13ifvqc3g","pricing_plan_id":"cebpf4jnsgd1na2vs0mg"},{"bike_id":"10a8f9a9-9eff-48eb-beb0-8266082802a3","system_id":"levelo_inurba_marseille","lat":43.29217,"lon":5.36045,"is_reserved":false,"is_disabled":false,"rental_uris":{"android":"levelo://app?vid=10a8f9a9-9eff-48eb-beb0-8266082802a3","ios":"levelo://app?vid=10a8f9a9-9eff-48eb-beb0-8266082802a3"},"vehicle_type_id":"4","last_reported":1745489458,"current_range_meters":19600,"station_id":"ce4bhbh2rcd13ifvqeqg","pricing_plan_id":"cebpf4jnsgd1na2vs0mg"},{"bike_id":"ea5dd29e-f7f0-401a-adda-e0cb0dfe66df","system_id":"levelo_inurba_marseille","lat":43.33624,"lon":5.41019,"is_reserved":false,"is_disabled":false,"rental_uris":{"android":"levelo://app?vid=ea5dd29e-f7f0-401a-adda-e0cb0dfe66df","ios":"levelo://app?vid=ea5dd29e-f7f0-401a-adda-e0cb0dfe66df"},"vehicle_type_id":"4","last_reported":1745489458,"current_range_meters":19600,"station_id":"ce4bhqh2rcd13ifvqhmg","pricing_plan_id":"cebpf4jnsgd1na2vs0mg"},{"bike_id":"43d625fd-17de-4c1b-bb61-5a6466579f2e","system_id":"levelo_inurba_marseille","lat":43.240702,"lon":5.377601,"is_reserved":false,"is_disabled":false,"rental_uris":{"android":"levelo://app?vid=43d625fd-17de-4c1b-bb61-5a6466579f2e","ios":"levelo://app?vid=43d625fd-17de-4c1b-bb61-5a6466579f2e"},"vehicle_type_id":"4","last_reported":1745489458,"current_range_meters":19600,"station_id":"ce4bhih2rcd13ifvqfr0","pricing_plan_id":"cebpf4jnsgd1na2vs0mg"},{"bike_id":"0bfff189-ec6a-4439-b345-e9dd168ab867","system_id":"levelo_inurba_marseille","lat":43.33748,"lon":5.39176,"is_reserved":false,"is_disabled":false,"rental_uris":{"android":"levelo://app?vid=0bfff189-ec6a-4439-b345-e9dd168ab867","ios":"levelo://app?vid=0bfff189-ec6a-4439-b345-e9dd168ab867"},"vehicle_type_id":"4","last_reported":1745489458,"current_range_meters":19600,"station_id":"ce4bhr92rcd13ifvqhsg","pricing_plan_id":"cebpf4jnsgd1na2vs0mg"},{"bike_id":"6be89220-9965-49f2-89c7-fddc5b9f71a9","system_id":"levelo_inurba_marseille","lat":43.28436,"lon":5.39206,"is_reserved":false,"is_disabled":false,"rental_uris":{"android":"levelo://app?vid=6be89220-9965-49f2-89c7-fddc5b9f71a9","ios":"levelo://app?vid=6be89220-9965-49f2-89c7-fddc5b9f71a9"},"vehicle_type_id":"4","last_reported":1745489458,"current_range_meters":19600,"station_id":"ce4bhoh2rcd13ifvqh5g","pricing_plan_id":"cebpf4jnsgd1na2vs0mg"},{"bike_id":"87809443-3762-40b4-9db2-b82aa77fb1b1","system_id":"levelo_inurba_marseille","lat":43.2969,"lon":5.37287,"is_reserved":false,"is_disabled":false,"rental_uris":{"android":"levelo://app?vid=87809443-3762-40b4-9db2-b82aa77fb1b1","ios":"levelo://app?vid=87809443-3762-40b4-9db2-b82aa77fb1b1"},"vehicle_type_id":"4","last_reported":1745489458,"current_range_meters":20000,"station_id":"ce4bgk12rcd13ifvqbj0","pricing_plan_id":"cebpf4jnsgd1na2vs0mg"},{"bike_id":"0511eaef-e620-4443-8c39-8b9425063ec4","system_id":"levelo_inurba_marseille","lat":43.29112,"lon":5.38151,"is_reserved":false,"is_disabled":true,"rental_uris":{"android":"levelo://app?vid=0511eaef-e620-4443-8c39-8b9425063ec4","ios":"levelo://app?vid=0511eaef-e620-4443-8c39-8b9425063ec4"},"vehicle_type_id":"4","last_reported":1745489458,"current_range_meters":20000,"station_id":"ce4bh512rcd13ifvqe2g","pricing_plan_id":"cebpf4jnsgd1na2vs0mg"},{"bike_id":"58727b13-3ca0-4842-baa1-1faeff5caa77","system_id":"levelo_inurba_marseille","lat":43.23154,"lon":5.43702,"is_reserved":false,"is_disabled":true,"rental_uris":{"android":"levelo://app?vid=58727b13-3ca0-4842-baa1-1faeff5caa77","ios":"levelo://app?vid=58727b13-3ca0-4842-baa1-1faeff5caa77"},"vehicle_type_id":"4","last_reported":1745489458,"current_range_meters":20000,"station_id":"ce4bhmp2rcd13ifvqgog","pricing_plan_id":"cebpf4jnsgd1na2vs0mg"},{"bike_id":"4e723fd1-fd6f-4f10-baaf-ec3931a0792e","system_id":"levelo_inurba_marseille","lat":43.239667,"lon":5.366173,"is_reserved":false,"is_disabled":false,"rental_uris":{"android":"levelo://app?vid=4e723fd1-fd6f-4f10-baaf-ec3931a0792e","ios":"levelo://app?vid=4e723fd1-fd6f-4f10-baaf-ec3931a0792e"},"vehicle_type_id":"4","last_reported":1745489458,"current_range_meters":20000,"station_id":"ce4bhi12rcd13ifvqfp0","pricing_plan_id":"cebpf4jnsgd1na2vs0mg"},{"bike_id":"37ad80ce-6daf-4248-aea1-11a85f32a470","system_id":"levelo_inurba_marseille","lat":43.26786,"lon":5.39417,"is_reserved":false,"is_disabled":false,"rental_uris":{"android":"levelo://app?vid=37ad80ce-6daf-4248-aea1-11a85f32a470","ios":"levelo://app?vid=37ad80ce-6daf-4248-aea1-11a85f32a470"},"vehicle_type_id":"4","last_reported":1745489458,"current_range_meters":20000,"station_id":"ce4bhh12rcd13ifvqfg0","pricing_plan_id":"cebpf4jnsgd1na2vs0mg"},{"bike_id":"9a1c0be7-bd1a-4081-ab84-3ef05258b407","system_id":"levelo_inurba_marseille","lat":43.21199,"lon":5.3507,"is_reserved":false,"is_disabled":false,"rental_uris":{"android":"levelo://app?vid=9a1c0be7-bd1a-4081-ab84-3ef05258b407","ios":"levelo://app?vid=9a1c0be7-bd1a-4081-ab84-3ef05258b407"},"vehicle_type_id":"4","last_reported":1745489458,"current_range_meters":20400,"station_id":"","pricing_plan_id":"cebpf4jnsgd1na2vs0mg"},{"bike_id":"73b05d89-8586-4d94-8ac2-7f53dfee0c5a","system_id":"levelo_inurba_marseille","lat":43.25918,"lon":5.4091,"is_reserved":false,"is_disabled":false,"rental_uris":{"android":"levelo://app?vid=73b05d89-8586-4d94-8ac2-7f53dfee0c5a","ios":"levelo://app?vid=73b05d89-8586-4d94-8ac2-7f53dfee0c5a"},"vehicle_type_id":"4","last_reported":1745489458,"current_range_meters":20400,"station_id":"ce4bhm92rcd13ifvqglg","pricing_plan_id":"cebpf4jnsgd1na2vs0mg"},{"bike_id":"28c655a4-6907-4d6b-b598-69019c264ec2","system_id":"levelo_inurba_marseille","lat":43.337444,"lon":5.374475,"is_reserved":false,"is_disabled":false,"rental_uris":{"android":"levelo://app?vid=28c655a4-6907-4d6b-b598-69019c264ec2","ios":"levelo://app?vid=28c655a4-6907-4d6b-b598-69019c264ec2"},"vehicle_type_id":"4","last_reported":1745489458,"current_range_meters":20800,"station_id":"","pricing_plan_id":"cebpf4jnsgd1na2vs0mg"},{"bike_id":"4a8adebb-3588-4cce-9594-264be6de3db5","system_id":"levelo_inurba_marseille","lat":43.261972,"lon":5.379333,"is_reserved":false,"is_disabled":false,"rental_uris":{"android":"levelo://app?vid=4a8adebb-3588-4cce-9594-264be6de3db5","ios":"levelo://app?vid=4a8adebb-3588-4cce-9594-264be6de3db5"},"vehicle_type_id":"4","last_reported":1745489458,"current_range_meters":20800,"station_id":"ce4bhjp2rcd13ifvqg90","pricing_plan_id":"cebpf4jnsgd1na2vs0mg"},{"bike_id":"87d02d3e-1d42-4c2e-83e3-9322d951b909","system_id":"levelo_inurba_marseille","lat":43.29873,"lon":5.36288,"is_reserved":false,"is_disabled":false,"rental_uris":{"android":"levelo://app?vid=87d02d3e-1d42-4c2e-83e3-9322d951b909","ios":"levelo://app?vid=87d02d3e-1d42-4c2e-83e3-9322d951b909"},"vehicle_type_id":"4","last_reported":1745489458,"current_range_meters":20800,"station_id":"ce4bgpp2rcd13ifvqc3g","pricing_plan_id":"cebpf4jnsgd1na2vs0mg"},{"bike_id":"5677c08f-ac38-4a40-b7f6-ba4b82cd2a24","system_id":"levelo_inurba_marseille","lat":43.29301,"lon":5.37454,"is_reserved":false,"is_disabled":false,"rental_uris":{"android":"levelo://app?vid=5677c08f-ac38-4a40-b7f6-ba4b82cd2a24","ios":"levelo://app?vid=5677c08f-ac38-4a40-b7f6-ba4b82cd2a24"},"vehicle_type_id":"4","last_reported":1745489458,"current_range_meters":20800,"station_id":"ce4bgi12rcd13ifvqb70","pricing_plan_id":"cebpf4jnsgd1na2vs0mg"},{"bike_id":"dbcc8341-1ea9-4491-b87b-0670e10555a4","system_id":"levelo_inurba_marseille","lat":43.292197,"lon":5.360553,"is_reserved":false,"is_disabled":false,"rental_uris":{"android":"levelo://app?vid=dbcc8341-1ea9-4491-b87b-0670e10555a4","ios":"levelo://app?vid=dbcc8341-1ea9-4491-b87b-0670e10555a4"},"vehicle_type_id":"4","last_reported":1745489458,"current_range_meters":20800,"station_id":"","pricing_plan_id":"cebpf4jnsgd1na2vs0mg"},{"bike_id":"de176d11-fc50-43f3-85f2-db96c4b6be15","system_id":"levelo_inurba_marseille","lat":43.21187,"lon":5.35099,"is_reserved":false,"is_disabled":false,"rental_uris":{"android":"levelo://app?vid=de176d11-fc50-43f3-85f2-db96c4b6be15","ios":"levelo://app?vid=de176d11-fc50-43f3-85f2-db96c4b6be15"},"vehicle_type_id":"4","last_reported":1745489458,"current_range_meters":20800,"station_id":"st_cvj6sg6p6f1abm77japg","pricing_plan_id":"cebpf4jnsgd1na2vs0mg"},{"bike_id":"a5b9de02-6592-43ee-bbb3-e5ae6e8cd0fc","system_id":"levelo_inurba_marseille","lat":43.28677,"lon":5.38665,"is_reserved":false,"is_disabled":false,"rental_uris":{"android":"levelo://app?vid=a5b9de02-6592-43ee-bbb3-e5ae6e8cd0fc","ios":"levelo://app?vid=a5b9de02-6592-43ee-bbb3-e5ae6e8cd0fc"},"vehicle_type_id":"4","last_reported":1745489458,"current_range_meters":20800,"station_id":"ce4bh492rcd13ifvqdug","pricing_plan_id":"cebpf4jnsgd1na2vs0mg"},{"bike_id":"0012ebfd-4713-4e60-81fd-a8501d9e9476","system_id":"levelo_inurba_marseille","lat":43.31482,"lon":5.37309,"is_reserved":false,"is_disabled":false,"rental_uris":{"android":"levelo://app?vid=0012ebfd-4713-4e60-81fd-a8501d9e9476","ios":"levelo://app?vid=0012ebfd-4713-4e60-81fd-a8501d9e9476"},"vehicle_type_id":"4","last_reported":1745489458,"current_range_meters":20800,"station_id":"ce4bgt12rcd13ifvqcd0","pricing_plan_id":"cebpf4jnsgd1na2vs0mg"},{"bike_id":"82797cfe-34c4-43c4-ae41-8a7cd4c74ae2","system_id":"levelo_inurba_marseille","lat":43.301293,"lon":5.392109,"is_reserved":false,"is_disabled":false,"rental_uris":{"android":"levelo://app?vid=82797cfe-34c4-43c4-ae41-8a7cd4c74ae2","ios":"levelo://app?vid=82797cfe-34c4-43c4-ae41-8a7cd4c74ae2"},"vehicle_type_id":"4","last_reported":1745489458,"current_range_meters":20800,"station_id":"ce4bgih2rcd13ifvqba0","pricing_plan_id":"cebpf4jnsgd1na2vs0mg"},{"bike_id":"f7005c66-5b15-4aae-a1e5-2999e4d28acb","system_id":"levelo_inurba_marseille","lat":43.30804,"lon":5.38147,"is_reserved":false,"is_disabled":false,"rental_uris":{"android":"levelo://app?vid=f7005c66-5b15-4aae-a1e5-2999e4d28acb","ios":"levelo://app?vid=f7005c66-5b15-4aae-a1e5-2999e4d28acb"},"vehicle_type_id":"4","last_reported":1745489458,"current_range_meters":21600,"station_id":"ce4bgt12rcd13ifvqce0","pricing_plan_id":"cebpf4jnsgd1na2vs0mg"},{"bike_id":"28754767-1ff8-4c83-add6-beabe0beeb34","system_id":"levelo_inurba_marseille","lat":43.2989,"lon":5.43667,"is_reserved":false,"is_disabled":false,"rental_uris":{"android":"levelo://app?vid=28754767-1ff8-4c83-add6-beabe0beeb34","ios":"levelo://app?vid=28754767-1ff8-4c83-add6-beabe0beeb34"},"vehicle_type_id":"4","last_reported":1745489458,"current_range_meters":21600,"station_id":"ce4bhpp2rcd13ifvqhfg","pricing_plan_id":"cebpf4jnsgd1na2vs0mg"},{"bike_id":"7899a8eb-0bb4-4092-851d-ba08edc3fd60","system_id":"levelo_inurba_marseille","lat":43.27568,"lon":5.38413,"is_reserved":false,"is_disabled":false,"rental_uris":{"android":"levelo://app?vid=7899a8eb-0bb4-4092-851d-ba08edc3fd60","ios":"levelo://app?vid=7899a8eb-0bb4-4092-851d-ba08edc3fd60"},"vehicle_type_id":"4","last_reported":1745489458,"current_range_meters":21600,"station_id":"ce4bhh92rcd13ifvqfi0","pricing_plan_id":"cebpf4jnsgd1na2vs0mg"},{"bike_id":"ba26b299-ecfd-4c46-adab-21a0e91df5e4","system_id":"levelo_inurba_marseille","lat":43.29874,"lon":5.38908,"is_reserved":false,"is_disabled":false,"rental_uris":{"android":"levelo://app?vid=ba26b299-ecfd-4c46-adab-21a0e91df5e4","ios":"levelo://app?vid=ba26b299-ecfd-4c46-adab-21a0e91df5e4"},"vehicle_type_id":"4","last_reported":1745489458,"current_range_meters":20800,"station_id":"ce4bh392rcd13ifvqdl0","pricing_plan_id":"cebpf4jnsgd1na2vs0mg"},{"bike_id":"917b7fb6-8521-41d9-9f3a-5b869b7a38e5","system_id":"levelo_inurba_marseille","lat":43.30777,"lon":5.37657,"is_reserved":false,"is_disabled":false,"rental_uris":{"android":"levelo://app?vid=917b7fb6-8521-41d9-9f3a-5b869b7a38e5","ios":"levelo://app?vid=917b7fb6-8521-41d9-9f3a-5b869b7a38e5"},"vehicle_type_id":"4","last_reported":1745489458,"current_range_meters":20800,"station_id":"ce4bgv92rcd13ifvqcq0","pricing_plan_id":"cebpf4jnsgd1na2vs0mg"},{"bike_id":"f5222fbb-aed5-4ae0-a798-77557f4cc313","system_id":"levelo_inurba_marseille","lat":43.29835,"lon":5.36285,"is_reserved":false,"is_disabled":false,"rental_uris":{"android":"levelo://app?vid=f5222fbb-aed5-4ae0-a798-77557f4cc313","ios":"levelo://app?vid=f5222fbb-aed5-4ae0-a798-77557f4cc313"},"vehicle_type_id":"4","last_reported":1745489458,"current_range_meters":21600,"station_id":"ce4bgpp2rcd13ifvqc3g","pricing_plan_id":"cebpf4jnsgd1na2vs0mg"},{"bike_id":"987d7900-bb2a-45cb-bed7-6d69f6fd4fa3","system_id":"levelo_inurba_marseille","lat":43.284946,"lon":5.384627,"is_reserved":false,"is_disabled":false,"rental_uris":{"android":"levelo://app?vid=987d7900-bb2a-45cb-bed7-6d69f6fd4fa3","ios":"levelo://app?vid=987d7900-bb2a-45cb-bed7-6d69f6fd4fa3"},"vehicle_type_id":"4","last_reported":1745489458,"current_range_meters":21600,"station_id":"ce4bh512rcd13ifvqe3g","pricing_plan_id":"cebpf4jnsgd1na2vs0mg"},{"bike_id":"f2314f08-cf4a-4d8c-bd3d-b9b8baea6582","system_id":"levelo_inurba_marseille","lat":43.25931,"lon":5.40889,"is_reserved":false,"is_disabled":false,"rental_uris":{"android":"levelo://app?vid=f2314f08-cf4a-4d8c-bd3d-b9b8baea6582","ios":"levelo://app?vid=f2314f08-cf4a-4d8c-bd3d-b9b8baea6582"},"vehicle_type_id":"4","last_reported":1745489458,"current_range_meters":21600,"station_id":"ce4bhm92rcd13ifvqglg","pricing_plan_id":"cebpf4jnsgd1na2vs0mg"},{"bike_id":"ff1e2f5b-071c-4283-a49b-9c9f51ff4981","system_id":"levelo_inurba_marseille","lat":43.30556,"lon":5.3657,"is_reserved":false,"is_disabled":false,"rental_uris":{"android":"levelo://app?vid=ff1e2f5b-071c-4283-a49b-9c9f51ff4981","ios":"levelo://app?vid=ff1e2f5b-071c-4283-a49b-9c9f51ff4981"},"vehicle_type_id":"4","last_reported":1745489458,"current_range_meters":20800,"station_id":"ce4bgs12rcd13ifvqcag","pricing_plan_id":"cebpf4jnsgd1na2vs0mg"},{"bike_id":"77b08791-a389-4d81-ab9d-c340b9a2080b","system_id":"levelo_inurba_marseille","lat":43.24388,"lon":5.37049,"is_reserved":false,"is_disabled":false,"rental_uris":{"android":"levelo://app?vid=77b08791-a389-4d81-ab9d-c340b9a2080b","ios":"levelo://app?vid=77b08791-a389-4d81-ab9d-c340b9a2080b"},"vehicle_type_id":"4","last_reported":1745489458,"current_range_meters":21600,"station_id":"ce4bhhh2rcd13ifvqfk0","pricing_plan_id":"cebpf4jnsgd1na2vs0mg"},{"bike_id":"829e6027-c98c-4052-9336-7fe801b0bc22","system_id":"levelo_inurba_marseille","lat":43.2315,"lon":5.43697,"is_reserved":false,"is_disabled":true,"rental_uris":{"android":"levelo://app?vid=829e6027-c98c-4052-9336-7fe801b0bc22","ios":"levelo://app?vid=829e6027-c98c-4052-9336-7fe801b0bc22"},"vehicle_type_id":"4","last_reported":1745489458,"current_range_meters":22000,"station_id":"ce4bhmp2rcd13ifvqgog","pricing_plan_id":"cebpf4jnsgd1na2vs0mg"},{"bike_id":"a59aee05-fbe4-4480-8c8b-0a4d781c18cc","system_id":"levelo_inurba_marseille","lat":43.29195,"lon":5.358,"is_reserved":false,"is_disabled":false,"rental_uris":{"android":"levelo://app?vid=a59aee05-fbe4-4480-8c8b-0a4d781c18cc","ios":"levelo://app?vid=a59aee05-fbe4-4480-8c8b-0a4d781c18cc"},"vehicle_type_id":"4","last_reported":1745489458,"current_range_meters":21600,"station_id":"ce4bhb12rcd13ifvqel0","pricing_plan_id":"cebpf4jnsgd1na2vs0mg"},{"bike_id":"d422d973-5089-424f-a3be-81d8b817efe8","system_id":"levelo_inurba_marseille","lat":43.2558,"lon":5.38226,"is_reserved":false,"is_disabled":false,"rental_uris":{"android":"levelo://app?vid=d422d973-5089-424f-a3be-81d8b817efe8","ios":"levelo://app?vid=d422d973-5089-424f-a3be-81d8b817efe8"},"vehicle_type_id":"4","last_reported":1745489458,"current_range_meters":22000,"station_id":"ce4bhih2rcd13ifvqfs0","pricing_plan_id":"cebpf4jnsgd1na2vs0mg"},{"bike_id":"cca02057-be85-4dbc-b033-ab10e8d969fc","system_id":"levelo_inurba_marseille","lat":43.21191,"lon":5.35076,"is_reserved":false,"is_disabled":false,"rental_uris":{"android":"levelo://app?vid=cca02057-be85-4dbc-b033-ab10e8d969fc","ios":"levelo://app?vid=cca02057-be85-4dbc-b033-ab10e8d969fc"},"vehicle_type_id":"4","last_reported":1745489458,"current_range_meters":22000,"station_id":"ce4bhap2rcd13ifvqek0","pricing_plan_id":"cebpf4jnsgd1na2vs0mg"},{"bike_id":"244bbfbf-97ed-4a83-b6ae-33a828dedf46","system_id":"levelo_inurba_marseille","lat":43.22933,"lon":5.35375,"is_reserved":false,"is_disabled":false,"rental_uris":{"android":"levelo://app?vid=244bbfbf-97ed-4a83-b6ae-33a828dedf46","ios":"levelo://app?vid=244bbfbf-97ed-4a83-b6ae-33a828dedf46"},"vehicle_type_id":"4","last_reported":1745489458,"current_range_meters":22000,"station_id":"cpo3532slgdg3j2ikp40","pricing_plan_id":"cebpf4jnsgd1na2vs0mg"},{"bike_id":"3e80f4ae-ac8d-4223-b459-b594a005b5fe","system_id":"levelo_inurba_marseille","lat":43.27559,"lon":5.38405,"is_reserved":false,"is_disabled":false,"rental_uris":{"android":"levelo://app?vid=3e80f4ae-ac8d-4223-b459-b594a005b5fe","ios":"levelo://app?vid=3e80f4ae-ac8d-4223-b459-b594a005b5fe"},"vehicle_type_id":"4","last_reported":1745489458,"current_range_meters":22000,"station_id":"ce4bhh92rcd13ifvqfi0","pricing_plan_id":"cebpf4jnsgd1na2vs0mg"},{"bike_id":"0cd4cd0c-81ee-4057-998a-519d8bc9bfcb","system_id":"levelo_inurba_marseille","lat":43.28036,"lon":5.36943,"is_reserved":false,"is_disabled":false,"rental_uris":{"android":"levelo://app?vid=0cd4cd0c-81ee-4057-998a-519d8bc9bfcb","ios":"levelo://app?vid=0cd4cd0c-81ee-4057-998a-519d8bc9bfcb"},"vehicle_type_id":"4","last_reported":1745489458,"current_range_meters":22400,"station_id":"ce4bha12rcd13ifvqef0","pricing_plan_id":"cebpf4jnsgd1na2vs0mg"},{"bike_id":"b7b393f0-b786-42df-989c-4a6cb72210f4","system_id":"levelo_inurba_marseille","lat":43.32359,"lon":5.36771,"is_reserved":false,"is_disabled":false,"rental_uris":{"android":"levelo://app?vid=b7b393f0-b786-42df-989c-4a6cb72210f4","ios":"levelo://app?vid=b7b393f0-b786-42df-989c-4a6cb72210f4"},"vehicle_type_id":"4","last_reported":1745489458,"current_range_meters":22400,"station_id":"ce4bhsh2rcd13ifvqi2g","pricing_plan_id":"cebpf4jnsgd1na2vs0mg"},{"bike_id":"96fcada9-a9e4-43b6-8285-c0f4cb34f2e8","system_id":"levelo_inurba_marseille","lat":43.28266,"lon":5.35092,"is_reserved":false,"is_disabled":false,"rental_uris":{"android":"levelo://app?vid=96fcada9-a9e4-43b6-8285-c0f4cb34f2e8","ios":"levelo://app?vid=96fcada9-a9e4-43b6-8285-c0f4cb34f2e8"},"vehicle_type_id":"4","last_reported":1745489458,"current_range_meters":22400,"station_id":"ce4bhbp2rcd13ifvqerg","pricing_plan_id":"cebpf4jnsgd1na2vs0mg"},{"bike_id":"5c0de8bf-cc64-4a34-ac0b-2af951aabd22","system_id":"levelo_inurba_marseille","lat":43.30559,"lon":5.36665,"is_reserved":false,"is_disabled":false,"rental_uris":{"android":"levelo://app?vid=5c0de8bf-cc64-4a34-ac0b-2af951aabd22","ios":"levelo://app?vid=5c0de8bf-cc64-4a34-ac0b-2af951aabd22"},"vehicle_type_id":"4","last_reported":1745489458,"current_range_meters":22400,"station_id":"","pricing_plan_id":"cebpf4jnsgd1na2vs0mg"},{"bike_id":"c161a87f-2be8-4ae7-9647-b5c784939fdd","system_id":"levelo_inurba_marseille","lat":43.30129,"lon":5.38772,"is_reserved":false,"is_disabled":true,"rental_uris":{"android":"levelo://app?vid=c161a87f-2be8-4ae7-9647-b5c784939fdd","ios":"levelo://app?vid=c161a87f-2be8-4ae7-9647-b5c784939fdd"},"vehicle_type_id":"4","last_reported":1745489458,"current_range_meters":22400,"station_id":"ce4bghh2rcd13ifvqb60","pricing_plan_id":"cebpf4jnsgd1na2vs0mg"},{"bike_id":"89b04bb5-3e61-4482-99b1-05491f1251c0","system_id":"levelo_inurba_marseille","lat":43.25907,"lon":5.40915,"is_reserved":false,"is_disabled":false,"rental_uris":{"android":"levelo://app?vid=89b04bb5-3e61-4482-99b1-05491f1251c0","ios":"levelo://app?vid=89b04bb5-3e61-4482-99b1-05491f1251c0"},"vehicle_type_id":"4","last_reported":1745489458,"current_range_meters":22800,"station_id":"ce4bhm92rcd13ifvqglg","pricing_plan_id":"cebpf4jnsgd1na2vs0mg"},{"bike_id":"46656495-6958-4a61-8347-f42ccccdb635","system_id":"levelo_inurba_marseille","lat":43.30179,"lon":5.36598,"is_reserved":false,"is_disabled":false,"rental_uris":{"android":"levelo://app?vid=46656495-6958-4a61-8347-f42ccccdb635","ios":"levelo://app?vid=46656495-6958-4a61-8347-f42ccccdb635"},"vehicle_type_id":"4","last_reported":1745489458,"current_range_meters":22800,"station_id":"ce4bgrh2rcd13ifvqc8g","pricing_plan_id":"cebpf4jnsgd1na2vs0mg"},{"bike_id":"12158853-1355-4048-96de-d143098831d1","system_id":"levelo_inurba_marseille","lat":43.30152,"lon":5.3808,"is_reserved":false,"is_disabled":false,"rental_uris":{"android":"levelo://app?vid=12158853-1355-4048-96de-d143098831d1","ios":"levelo://app?vid=12158853-1355-4048-96de-d143098831d1"},"vehicle_type_id":"4","last_reported":1745489458,"current_range_meters":22800,"station_id":"ce4bgjp2rcd13ifvqbh0","pricing_plan_id":"cebpf4jnsgd1na2vs0mg"},{"bike_id":"32cf6b11-cb0c-4b25-97c3-8426f8a735a5","system_id":"levelo_inurba_marseille","lat":43.254903,"lon":5.376445,"is_reserved":false,"is_disabled":false,"rental_uris":{"android":"levelo://app?vid=32cf6b11-cb0c-4b25-97c3-8426f8a735a5","ios":"levelo://app?vid=32cf6b11-cb0c-4b25-97c3-8426f8a735a5"},"vehicle_type_id":"4","last_reported":1745489458,"current_range_meters":22800,"station_id":"ce4bhh12rcd13ifvqff0","pricing_plan_id":"cebpf4jnsgd1na2vs0mg"},{"bike_id":"620cd473-6436-4e04-a5d8-64a795038887","system_id":"levelo_inurba_marseille","lat":43.25963,"lon":5.4089,"is_reserved":false,"is_disabled":false,"rental_uris":{"android":"levelo://app?vid=620cd473-6436-4e04-a5d8-64a795038887","ios":"levelo://app?vid=620cd473-6436-4e04-a5d8-64a795038887"},"vehicle_type_id":"4","last_reported":1745489458,"current_range_meters":22800,"station_id":"ce4bhm92rcd13ifvqglg","pricing_plan_id":"cebpf4jnsgd1na2vs0mg"},{"bike_id":"cb45bf0c-d8be-447d-afc4-9bda82794846","system_id":"levelo_inurba_marseille","lat":43.29965,"lon":5.38496,"is_reserved":false,"is_disabled":false,"rental_uris":{"android":"levelo://app?vid=cb45bf0c-d8be-447d-afc4-9bda82794846","ios":"levelo://app?vid=cb45bf0c-d8be-447d-afc4-9bda82794846"},"vehicle_type_id":"4","last_reported":1745489458,"current_range_meters":22800,"station_id":"ce4bgj92rcd13ifvqbd0","pricing_plan_id":"cebpf4jnsgd1na2vs0mg"},{"bike_id":"9b58d957-60f6-4447-917c-90682a59d82e","system_id":"levelo_inurba_marseille","lat":43.27055,"lon":5.40261,"is_reserved":false,"is_disabled":false,"rental_uris":{"android":"levelo://app?vid=9b58d957-60f6-4447-917c-90682a59d82e","ios":"levelo://app?vid=9b58d957-60f6-4447-917c-90682a59d82e"},"vehicle_type_id":"4","last_reported":1745489458,"current_range_meters":24000,"station_id":"ce4bhk92rcd13ifvqgc0","pricing_plan_id":"cebpf4jnsgd1na2vs0mg"},{"bike_id":"5319400f-ba02-44ef-baa5-baf3d1c2b836","system_id":"levelo_inurba_marseille","lat":43.285705,"lon":5.396105,"is_reserved":false,"is_disabled":false,"rental_uris":{"android":"levelo://app?vid=5319400f-ba02-44ef-baa5-baf3d1c2b836","ios":"levelo://app?vid=5319400f-ba02-44ef-baa5-baf3d1c2b836"},"vehicle_type_id":"4","last_reported":1745489458,"current_range_meters":23200,"station_id":"ce4bh292rcd13ifvqdg0","pricing_plan_id":"cebpf4jnsgd1na2vs0mg"},{"bike_id":"54a65ea7-93b8-42ec-8567-ce2db234e6bd","system_id":"levelo_inurba_marseille","lat":43.29866,"lon":5.36259,"is_reserved":false,"is_disabled":false,"rental_uris":{"android":"levelo://app?vid=54a65ea7-93b8-42ec-8567-ce2db234e6bd","ios":"levelo://app?vid=54a65ea7-93b8-42ec-8567-ce2db234e6bd"},"vehicle_type_id":"4","last_reported":1745489458,"current_range_meters":23200,"station_id":"ce4bgpp2rcd13ifvqc3g","pricing_plan_id":"cebpf4jnsgd1na2vs0mg"},{"bike_id":"82f5d043-56e4-44b9-a8dc-b2ef1e437195","system_id":"levelo_inurba_marseille","lat":43.2409,"lon":5.37747,"is_reserved":false,"is_disabled":false,"rental_uris":{"android":"levelo://app?vid=82f5d043-56e4-44b9-a8dc-b2ef1e437195","ios":"levelo://app?vid=82f5d043-56e4-44b9-a8dc-b2ef1e437195"},"vehicle_type_id":"4","last_reported":1745489458,"current_range_meters":23200,"station_id":"ce4bhnp2rcd13ifvqgvg","pricing_plan_id":"cebpf4jnsgd1na2vs0mg"},{"bike_id":"9503f5fb-8354-42f2-9ae5-acf6f2a13c12","system_id":"levelo_inurba_marseille","lat":43.29622,"lon":5.37731,"is_reserved":false,"is_disabled":false,"rental_uris":{"android":"levelo://app?vid=9503f5fb-8354-42f2-9ae5-acf6f2a13c12","ios":"levelo://app?vid=9503f5fb-8354-42f2-9ae5-acf6f2a13c12"},"vehicle_type_id":"4","last_reported":1745489458,"current_range_meters":24000,"station_id":"ce4bgi92rcd13ifvqb90","pricing_plan_id":"cebpf4jnsgd1na2vs0mg"},{"bike_id":"e9b40b8c-aa8b-493b-9704-ac204b4fdb74","system_id":"levelo_inurba_marseille","lat":43.22496,"lon":5.34788,"is_reserved":false,"is_disabled":false,"rental_uris":{"android":"levelo://app?vid=e9b40b8c-aa8b-493b-9704-ac204b4fdb74","ios":"levelo://app?vid=e9b40b8c-aa8b-493b-9704-ac204b4fdb74"},"vehicle_type_id":"4","last_reported":1745489458,"current_range_meters":24000,"station_id":"st_cvj5dfep6f1abm77gieg","pricing_plan_id":"cebpf4jnsgd1na2vs0mg"},{"bike_id":"af5a4e4a-6ea9-4dee-9d2c-e61040e8c37b","system_id":"levelo_inurba_marseille","lat":43.25918,"lon":5.40903,"is_reserved":false,"is_disabled":false,"rental_uris":{"android":"levelo://app?vid=af5a4e4a-6ea9-4dee-9d2c-e61040e8c37b","ios":"levelo://app?vid=af5a4e4a-6ea9-4dee-9d2c-e61040e8c37b"},"vehicle_type_id":"4","last_reported":1745489458,"current_range_meters":24000,"station_id":"ce4bhm92rcd13ifvqglg","pricing_plan_id":"cebpf4jnsgd1na2vs0mg"},{"bike_id":"a78ff32e-3f45-47a7-b55a-d166b0efcbbe","system_id":"levelo_inurba_marseille","lat":43.2315,"lon":5.43716,"is_reserved":false,"is_disabled":false,"rental_uris":{"android":"levelo://app?vid=a78ff32e-3f45-47a7-b55a-d166b0efcbbe","ios":"levelo://app?vid=a78ff32e-3f45-47a7-b55a-d166b0efcbbe"},"vehicle_type_id":"4","last_reported":1745489458,"current_range_meters":24000,"station_id":"ce4bhmp2rcd13ifvqgog","pricing_plan_id":"cebpf4jnsgd1na2vs0mg"},{"bike_id":"06cf2021-f654-405e-8e9b-d8e548605069","system_id":"levelo_inurba_marseille","lat":43.23146,"lon":5.43722,"is_reserved":false,"is_disabled":false,"rental_uris":{"android":"levelo://app?vid=06cf2021-f654-405e-8e9b-d8e548605069","ios":"levelo://app?vid=06cf2021-f654-405e-8e9b-d8e548605069"},"vehicle_type_id":"4","last_reported":1745489458,"current_range_meters":24000,"station_id":"ce4bhmp2rcd13ifvqgog","pricing_plan_id":"cebpf4jnsgd1na2vs0mg"},{"bike_id":"9b704221-61cd-4393-892b-cbe05d5ea383","system_id":"levelo_inurba_marseille","lat":43.2558,"lon":5.38229,"is_reserved":false,"is_disabled":false,"rental_uris":{"android":"levelo://app?vid=9b704221-61cd-4393-892b-cbe05d5ea383","ios":"levelo://app?vid=9b704221-61cd-4393-892b-cbe05d5ea383"},"vehicle_type_id":"4","last_reported":1745489458,"current_range_meters":24000,"station_id":"ce4bhih2rcd13ifvqfs0","pricing_plan_id":"cebpf4jnsgd1na2vs0mg"},{"bike_id":"1fa0f404-64bd-44db-97b1-31dc9c433fa2","system_id":"levelo_inurba_marseille","lat":43.28271,"lon":5.3507,"is_reserved":false,"is_disabled":false,"rental_uris":{"android":"levelo://app?vid=1fa0f404-64bd-44db-97b1-31dc9c433fa2","ios":"levelo://app?vid=1fa0f404-64bd-44db-97b1-31dc9c433fa2"},"vehicle_type_id":"4","last_reported":1745489458,"current_range_meters":24000,"station_id":"ce4bhbp2rcd13ifvqerg","pricing_plan_id":"cebpf4jnsgd1na2vs0mg"},{"bike_id":"b7ba069e-32ef-417c-9b5b-8572c87bd32c","system_id":"levelo_inurba_marseille","lat":43.30545,"lon":5.3667,"is_reserved":false,"is_disabled":false,"rental_uris":{"android":"levelo://app?vid=b7ba069e-32ef-417c-9b5b-8572c87bd32c","ios":"levelo://app?vid=b7ba069e-32ef-417c-9b5b-8572c87bd32c"},"vehicle_type_id":"4","last_reported":1745489458,"current_range_meters":24000,"station_id":"","pricing_plan_id":"cebpf4jnsgd1na2vs0mg"},{"bike_id":"7511a6e4-aa47-44dd-9868-1f5467c57be4","system_id":"levelo_inurba_marseille","lat":43.33619,"lon":5.40988,"is_reserved":false,"is_disabled":false,"rental_uris":{"android":"levelo://app?vid=7511a6e4-aa47-44dd-9868-1f5467c57be4","ios":"levelo://app?vid=7511a6e4-aa47-44dd-9868-1f5467c57be4"},"vehicle_type_id":"4","last_reported":1745489458,"current_range_meters":24000,"station_id":"ce4bhqh2rcd13ifvqhmg","pricing_plan_id":"cebpf4jnsgd1na2vs0mg"},{"bike_id":"d2e51879-3511-40d2-9067-e8e759633a2f","system_id":"levelo_inurba_marseille","lat":43.31486,"lon":5.37311,"is_reserved":false,"is_disabled":false,"rental_uris":{"android":"levelo://app?vid=d2e51879-3511-40d2-9067-e8e759633a2f","ios":"levelo://app?vid=d2e51879-3511-40d2-9067-e8e759633a2f"},"vehicle_type_id":"4","last_reported":1745489458,"current_range_meters":24000,"station_id":"ce4bgt12rcd13ifvqcd0","pricing_plan_id":"cebpf4jnsgd1na2vs0mg"},{"bike_id":"c0fe295c-8c56-48f7-af2d-a5e7561615ab","system_id":"levelo_inurba_marseille","lat":43.28938,"lon":5.366443,"is_reserved":false,"is_disabled":false,"rental_uris":{"android":"levelo://app?vid=c0fe295c-8c56-48f7-af2d-a5e7561615ab","ios":"levelo://app?vid=c0fe295c-8c56-48f7-af2d-a5e7561615ab"},"vehicle_type_id":"4","last_reported":1745489458,"current_range_meters":23200,"station_id":"ce4bh9p2rcd13ifvqec0","pricing_plan_id":"cebpf4jnsgd1na2vs0mg"},{"bike_id":"ee08943a-ea78-49bb-a397-b42b8fb7e862","system_id":"levelo_inurba_marseille","lat":43.286,"lon":5.37063,"is_reserved":false,"is_disabled":true,"rental_uris":{"android":"levelo://app?vid=ee08943a-ea78-49bb-a397-b42b8fb7e862","ios":"levelo://app?vid=ee08943a-ea78-49bb-a397-b42b8fb7e862"},"vehicle_type_id":"4","last_reported":1745489458,"current_range_meters":24000,"station_id":"ce4bht12rcd13ifvqi60","pricing_plan_id":"cebpf4jnsgd1na2vs0mg"},{"bike_id":"8e405da4-5fb0-498a-aa6a-5b11e8896733","system_id":"levelo_inurba_marseille","lat":43.28619,"lon":5.37057,"is_reserved":false,"is_disabled":false,"rental_uris":{"android":"levelo://app?vid=8e405da4-5fb0-498a-aa6a-5b11e8896733","ios":"levelo://app?vid=8e405da4-5fb0-498a-aa6a-5b11e8896733"},"vehicle_type_id":"4","last_reported":1745489458,"current_range_meters":24400,"station_id":"ce4bht12rcd13ifvqi60","pricing_plan_id":"cebpf4jnsgd1na2vs0mg"},{"bike_id":"bef22f04-9d2a-4735-99f3-b5fc8b63df9a","system_id":"levelo_inurba_marseille","lat":43.29022,"lon":5.38641,"is_reserved":false,"is_disabled":true,"rental_uris":{"android":"levelo://app?vid=bef22f04-9d2a-4735-99f3-b5fc8b63df9a","ios":"levelo://app?vid=bef22f04-9d2a-4735-99f3-b5fc8b63df9a"},"vehicle_type_id":"4","last_reported":1745489458,"current_range_meters":24400,"station_id":"ce4bh4p2rcd13ifvqe0g","pricing_plan_id":"cebpf4jnsgd1na2vs0mg"},{"bike_id":"c2ee5412-ea94-4790-a352-5c63a3402aaa","system_id":"levelo_inurba_marseille","lat":43.290408,"lon":5.400083,"is_reserved":false,"is_disabled":true,"rental_uris":{"android":"levelo://app?vid=c2ee5412-ea94-4790-a352-5c63a3402aaa","ios":"levelo://app?vid=c2ee5412-ea94-4790-a352-5c63a3402aaa"},"vehicle_type_id":"4","last_reported":1745489458,"current_range_meters":24400,"station_id":"ce4bh392rcd13ifvqdm0","pricing_plan_id":"cebpf4jnsgd1na2vs0mg"},{"bike_id":"532176c0-bb9e-42cb-b4d0-0d5318320268","system_id":"levelo_inurba_marseille","lat":43.30957,"lon":5.39045,"is_reserved":false,"is_disabled":false,"rental_uris":{"android":"levelo://app?vid=532176c0-bb9e-42cb-b4d0-0d5318320268","ios":"levelo://app?vid=532176c0-bb9e-42cb-b4d0-0d5318320268"},"vehicle_type_id":"4","last_reported":1745489458,"current_range_meters":24400,"station_id":"ce4bgup2rcd13ifvqco0","pricing_plan_id":"cebpf4jnsgd1na2vs0mg"},{"bike_id":"10f6eaa4-1921-45c0-9ff3-e6bc254050b3","system_id":"levelo_inurba_marseille","lat":43.27671,"lon":5.38876,"is_reserved":false,"is_disabled":false,"rental_uris":{"android":"levelo://app?vid=10f6eaa4-1921-45c0-9ff3-e6bc254050b3","ios":"levelo://app?vid=10f6eaa4-1921-45c0-9ff3-e6bc254050b3"},"vehicle_type_id":"4","last_reported":1745489458,"current_range_meters":24400,"station_id":"ce4bhi12rcd13ifvqfo0","pricing_plan_id":"cebpf4jnsgd1na2vs0mg"},{"bike_id":"a0c2dae2-e363-4583-8f8d-83c891c980ea","system_id":"levelo_inurba_marseille","lat":43.32477,"lon":5.366,"is_reserved":false,"is_disabled":false,"rental_uris":{"android":"levelo://app?vid=a0c2dae2-e363-4583-8f8d-83c891c980ea","ios":"levelo://app?vid=a0c2dae2-e363-4583-8f8d-83c891c980ea"},"vehicle_type_id":"4","last_reported":1745489458,"current_range_meters":24400,"station_id":"ce4bhs12rcd13ifvqhvg","pricing_plan_id":"cebpf4jnsgd1na2vs0mg"},{"bike_id":"d6d51e54-3f5e-4cf0-967e-bd26d25ce1cb","system_id":"levelo_inurba_marseille","lat":43.29264,"lon":5.37636,"is_reserved":false,"is_disabled":false,"rental_uris":{"android":"levelo://app?vid=d6d51e54-3f5e-4cf0-967e-bd26d25ce1cb","ios":"levelo://app?vid=d6d51e54-3f5e-4cf0-967e-bd26d25ce1cb"},"vehicle_type_id":"4","last_reported":1745489458,"current_range_meters":24400,"station_id":"ce4bgi12rcd13ifvqb80","pricing_plan_id":"cebpf4jnsgd1na2vs0mg"},{"bike_id":"cae30cf0-8add-476a-8acb-268586558f99","system_id":"levelo_inurba_marseille","lat":43.29794,"lon":5.38086,"is_reserved":false,"is_disabled":false,"rental_uris":{"android":"levelo://app?vid=cae30cf0-8add-476a-8acb-268586558f99","ios":"levelo://app?vid=cae30cf0-8add-476a-8acb-268586558f99"},"vehicle_type_id":"4","last_reported":1745489458,"current_range_meters":24400,"station_id":"ce4bgip2rcd13ifvqbb0","pricing_plan_id":"cebpf4jnsgd1na2vs0mg"},{"bike_id":"11ae780f-3f83-44f6-8da1-b37bb91b5c2e","system_id":"levelo_inurba_marseille","lat":43.33024,"lon":5.39018,"is_reserved":false,"is_disabled":false,"rental_uris":{"android":"levelo://app?vid=11ae780f-3f83-44f6-8da1-b37bb91b5c2e","ios":"levelo://app?vid=11ae780f-3f83-44f6-8da1-b37bb91b5c2e"},"vehicle_type_id":"4","last_reported":1745489458,"current_range_meters":24400,"station_id":"ce4bhr92rcd13ifvqhrg","pricing_plan_id":"cebpf4jnsgd1na2vs0mg"},{"bike_id":"ce4e5a44-be67-4065-a239-e85b2d4c3cbb","system_id":"levelo_inurba_marseille","lat":43.26786,"lon":5.39413,"is_reserved":false,"is_disabled":false,"rental_uris":{"android":"levelo://app?vid=ce4e5a44-be67-4065-a239-e85b2d4c3cbb","ios":"levelo://app?vid=ce4e5a44-be67-4065-a239-e85b2d4c3cbb"},"vehicle_type_id":"4","last_reported":1745489458,"current_range_meters":24000,"station_id":"ce4bhh12rcd13ifvqfg0","pricing_plan_id":"cebpf4jnsgd1na2vs0mg"},{"bike_id":"91909662-f943-4aca-b7a5-756b44b63f7f","system_id":"levelo_inurba_marseille","lat":43.259344,"lon":5.408978,"is_reserved":false,"is_disabled":false,"rental_uris":{"android":"levelo://app?vid=91909662-f943-4aca-b7a5-756b44b63f7f","ios":"levelo://app?vid=91909662-f943-4aca-b7a5-756b44b63f7f"},"vehicle_type_id":"4","last_reported":1745489458,"current_range_meters":24400,"station_id":"ce4bhm92rcd13ifvqglg","pricing_plan_id":"cebpf4jnsgd1na2vs0mg"},{"bike_id":"a6bd1ec4-a35c-48a0-bbf9-c9bc04f484fb","system_id":"levelo_inurba_marseille","lat":43.31684,"lon":5.40466,"is_reserved":false,"is_disabled":false,"rental_uris":{"android":"levelo://app?vid=a6bd1ec4-a35c-48a0-bbf9-c9bc04f484fb","ios":"levelo://app?vid=a6bd1ec4-a35c-48a0-bbf9-c9bc04f484fb"},"vehicle_type_id":"4","last_reported":1745489458,"current_range_meters":24800,"station_id":"ce4bh012rcd13ifvqd00","pricing_plan_id":"cebpf4jnsgd1na2vs0mg"},{"bike_id":"50a55632-6fd8-4db2-ae5c-4de55477e98d","system_id":"levelo_inurba_marseille","lat":43.25102,"lon":5.40338,"is_reserved":false,"is_disabled":true,"rental_uris":{"android":"levelo://app?vid=50a55632-6fd8-4db2-ae5c-4de55477e98d","ios":"levelo://app?vid=50a55632-6fd8-4db2-ae5c-4de55477e98d"},"vehicle_type_id":"4","last_reported":1745489458,"current_range_meters":24800,"station_id":"ce4bhlh2rcd13ifvqgig","pricing_plan_id":"cebpf4jnsgd1na2vs0mg"},{"bike_id":"8699896d-b6bd-46d4-817e-07ac193ce9c8","system_id":"levelo_inurba_marseille","lat":43.30789,"lon":5.38159,"is_reserved":false,"is_disabled":false,"rental_uris":{"android":"levelo://app?vid=8699896d-b6bd-46d4-817e-07ac193ce9c8","ios":"levelo://app?vid=8699896d-b6bd-46d4-817e-07ac193ce9c8"},"vehicle_type_id":"4","last_reported":1745489458,"current_range_meters":24800,"station_id":"ce4bgt12rcd13ifvqce0","pricing_plan_id":"cebpf4jnsgd1na2vs0mg"},{"bike_id":"e1f2d64c-d195-43ed-9b31-e0fe99bbfc5f","system_id":"levelo_inurba_marseille","lat":43.31943,"lon":5.37427,"is_reserved":false,"is_disabled":false,"rental_uris":{"android":"levelo://app?vid=e1f2d64c-d195-43ed-9b31-e0fe99bbfc5f","ios":"levelo://app?vid=e1f2d64c-d195-43ed-9b31-e0fe99bbfc5f"},"vehicle_type_id":"4","last_reported":1745489458,"current_range_meters":24800,"station_id":"","pricing_plan_id":"cebpf4jnsgd1na2vs0mg"},{"bike_id":"3688528a-28aa-474d-9a66-2386f541adac","system_id":"levelo_inurba_marseille","lat":43.3089,"lon":5.36864,"is_reserved":false,"is_disabled":false,"rental_uris":{"android":"levelo://app?vid=3688528a-28aa-474d-9a66-2386f541adac","ios":"levelo://app?vid=3688528a-28aa-474d-9a66-2386f541adac"},"vehicle_type_id":"4","last_reported":1745489458,"current_range_meters":24800,"station_id":"ce4bgn92rcd13ifvqbvg","pricing_plan_id":"cebpf4jnsgd1na2vs0mg"},{"bike_id":"5eaad631-b024-4bf3-8f1f-84947f236e02","system_id":"levelo_inurba_marseille","lat":43.2825,"lon":5.35088,"is_reserved":false,"is_disabled":false,"rental_uris":{"android":"levelo://app?vid=5eaad631-b024-4bf3-8f1f-84947f236e02","ios":"levelo://app?vid=5eaad631-b024-4bf3-8f1f-84947f236e02"},"vehicle_type_id":"4","last_reported":1745489458,"current_range_meters":24800,"station_id":"ce4bhbp2rcd13ifvqerg","pricing_plan_id":"cebpf4jnsgd1na2vs0mg"},{"bike_id":"eaeb5388-3b9e-4f6c-b017-b1a0d8c072a9","system_id":"levelo_inurba_marseille","lat":43.23151,"lon":5.43717,"is_reserved":false,"is_disabled":false,"rental_uris":{"android":"levelo://app?vid=eaeb5388-3b9e-4f6c-b017-b1a0d8c072a9","ios":"levelo://app?vid=eaeb5388-3b9e-4f6c-b017-b1a0d8c072a9"},"vehicle_type_id":"4","last_reported":1745489458,"current_range_meters":25200,"station_id":"ce4bhmp2rcd13ifvqgog","pricing_plan_id":"cebpf4jnsgd1na2vs0mg"},{"bike_id":"6487b254-26bd-4651-ae9a-785f28e2cbf5","system_id":"levelo_inurba_marseille","lat":43.23149,"lon":5.43716,"is_reserved":false,"is_disabled":false,"rental_uris":{"android":"levelo://app?vid=6487b254-26bd-4651-ae9a-785f28e2cbf5","ios":"levelo://app?vid=6487b254-26bd-4651-ae9a-785f28e2cbf5"},"vehicle_type_id":"4","last_reported":1745489458,"current_range_meters":25200,"station_id":"ce4bhmp2rcd13ifvqgog","pricing_plan_id":"cebpf4jnsgd1na2vs0mg"},{"bike_id":"abf7ca30-2a37-43a5-a755-8cd682f346c0","system_id":"levelo_inurba_marseille","lat":43.25497,"lon":5.37643,"is_reserved":false,"is_disabled":false,"rental_uris":{"android":"levelo://app?vid=abf7ca30-2a37-43a5-a755-8cd682f346c0","ios":"levelo://app?vid=abf7ca30-2a37-43a5-a755-8cd682f346c0"},"vehicle_type_id":"4","last_reported":1745489458,"current_range_meters":24800,"station_id":"ce4bhh12rcd13ifvqff0","pricing_plan_id":"cebpf4jnsgd1na2vs0mg"},{"bike_id":"f6341b5b-1f7b-4d13-869e-e14c081b350b","system_id":"levelo_inurba_marseille","lat":43.33036,"lon":5.39032,"is_reserved":false,"is_disabled":false,"rental_uris":{"android":"levelo://app?vid=f6341b5b-1f7b-4d13-869e-e14c081b350b","ios":"levelo://app?vid=f6341b5b-1f7b-4d13-869e-e14c081b350b"},"vehicle_type_id":"4","last_reported":1745489458,"current_range_meters":25200,"station_id":"ce4bhr92rcd13ifvqhrg","pricing_plan_id":"cebpf4jnsgd1na2vs0mg"},{"bike_id":"b48edf42-5930-4d46-8921-0bccd0adbe75","system_id":"levelo_inurba_marseille","lat":43.25819,"lon":5.3943,"is_reserved":false,"is_disabled":false,"rental_uris":{"android":"levelo://app?vid=b48edf42-5930-4d46-8921-0bccd0adbe75","ios":"levelo://app?vid=b48edf42-5930-4d46-8921-0bccd0adbe75"},"vehicle_type_id":"4","last_reported":1745489458,"current_range_meters":25200,"station_id":"ce4bhip2rcd13ifvqft0","pricing_plan_id":"cebpf4jnsgd1na2vs0mg"},