{"last_updated":1740334250,"ttl":60,"version":"2.2","data":{"bikes":[{"bike_id":"91cd9c50-a708-4ca7-8c38-9684716b8855","system_id":"levelo_inurba_marseille","lat":43.3378,"lon":5.37435,"is_reserved":false,"is_disabled":false,"rental_uris":{"android":"levelo://app?vid=91cd9c50-a708-4ca7-8c38-9684716b8855","ios":"levelo://app?vid=91cd9c50-a708-4ca7-8c38-9684716b8855"},"vehicle_type_id":"4","last_reported":1740334250,"current_range_meters":2800,"station_id":"","pricing_plan_id":"cebpf4jnsgd1na2vs0mg"},{"bike_id":"cd99b496-a74f-49e2-8672-a646db8e2637","system_id":"levelo_inurba_marseille","lat":43.25866,"lon":5.39892,"is_reserved":false,"is_disabled":false,"rental_uris":{"android":"levelo://app?vid=cd99b496-a74f-49e2-8672-a646db8e2637","ios":"levelo://app?vid=cd99b496-a74f-49e2-8672-a646db8e2637"},"vehicle_type_id":"4","last_reported":1740334250,"current_range_meters":2800,"station_id":"ce4bhl92rcd13ifvqghg","pricing_plan_id":"cebpf4jnsgd1na2vs0mg"},{"bike_id":"55733c85-96ca-46dc-9cc3-347978c276b0","system_id":"levelo_inurba_marseille","lat":43.29539,"lon":5.37443,"is_reserved":false,"is_disabled":false,"rental_uris":{"android":"levelo://app?vid=55733c85-96ca-46dc-9cc3-347978c276b0","ios":"levelo://app?vid=55733c85-96ca-46dc-9cc3-347978c276b0"},"vehicle_type_id":"4","last_reported":1740334250,"current_range_meters":2800,"station_id":"","pricing_plan_id":"cebpf4jnsgd1na2vs0mg"},{"bike_id":"3a8604cb-7d3a-48d8-8952-9243347ff612","system_id":"levelo_inurba_marseille","lat":43.30127,"lon":5.39871,"is_reserved":false,"is_disabled":true,"rental_uris":{"android":"levelo://app?vid=3a8604cb-7d3a-48d8-8952-9243347ff612","ios":"levelo://app?vid=3a8604cb-7d3a-48d8-8952-9243347ff612"},"vehicle_type_id":"4","last_reported":1740334250,"current_range_meters":2800,"station_id":"ce4bh0h2rcd13ifvqd40","pricing_plan_id":"cebpf4jnsgd1na2vs0mg"},{"bike_id":"8bfe7f7a-721f-4be6-825e-e8de2f4be402","system_id":"levelo_inurba_marseille","lat":43.27901,"lon":5.39593,"is_reserved":false,"is_disabled":false,"rental_uris":{"android":"levelo://app?vid=8bfe7f7a-721f-4be6-825e-e8de2f4be402","ios":"levelo://app?vid=8bfe7f7a-721f-4be6-825e-e8de2f4be402"},"vehicle_type_id":"4","last_reported":1740334250,"current_range_meters":2800,"station_id":"ce4bhf92rcd13ifvqf40","pricing_plan_id":"cebpf4jnsgd1na2vs0mg"},{"bike_id":"e909aeee-a67a-4c34-b44f-2a719e323673","system_id":"levelo_inurba_marseille","lat":43.27974,"lon":5.38725,"is_reserved":false,"is_disabled":false,"rental_uris":{"android":"levelo://app?vid=e909aeee-a67a-4c34-b44f-2a719e323673","ios":"levelo://app?vid=e909aeee-a67a-4c34-b44f-2a719e323673"},"vehicle_type_id":"4","last_reported":1740334250,"current_range_meters":3200,"station_id":"ce4bhg12rcd13ifvqf80","pricing_plan_id":"cebpf4jnsgd1na2vs0mg"},{"bike_id":"597f22d2-3d4a-4b91-8dd6-0882bac65463","system_id":"levelo_inurba_marseille","lat":43.27614,"lon":5.36116,"is_reserved":false,"is_disabled":true,"rental_uris":{"android":"levelo://app?vid=597f22d2-3d4a-4b91-8dd6-0882bac65463","ios":"levelo://app?vid=597f22d2-3d4a-4b91-8dd6-0882bac65463"},"vehicle_type_id":"4","last_reported":1740334250,"current_range_meters":3200,"station_id":"ce4bgj92rcd13ifvqbe0","pricing_plan_id":"cebpf4jnsgd1na2vs0mg"},{"bike_id":"7bcfad37-7315-4c09-adc3-40984ca51db3","system_id":"levelo_inurba_marseille","lat":43.29699,"lon":5.37681,"is_reserved":false,"is_disabled":false,"rental_uris":{"android":"levelo://app?vid=7bcfad37-7315-4c09-adc3-40984ca51db3","ios":"levelo://app?vid=7bcfad37-7315-4c09-adc3-40984ca51db3"},"vehicle_type_id":"4","last_reported":1740334250,"current_range_meters":3200,"station_id":"ce4bgkh2rcd13ifvqbl0","pricing_plan_id":"cebpf4jnsgd1na2vs0mg"},{"bike_id":"ba14765b-0fcb-4dfe-97f0-2ea1a72003c9","system_id":"levelo_inurba_marseille","lat":43.292143,"lon":5.392506,"is_reserved":false,"is_disabled":false,"rental_uris":{"android":"levelo://app?vid=ba14765b-0fcb-4dfe-97f0-2ea1a72003c9","ios":"levelo://app?vid=ba14765b-0fcb-4dfe-97f0-2ea1a72003c9"},"vehicle_type_id":"4","last_reported":1740334250,"current_range_meters":3200,"station_id":"ce4bh192rcd13ifvqdd0","pricing_plan_id":"cebpf4jnsgd1na2vs0mg"},{"bike_id":"dc732b31-6921-4428-b177-5bec1a1a11dd","system_id":"levelo_inurba_marseille","lat":43.30144,"lon":5.38081,"is_reserved":false,"is_disabled":false,"rental_uris":{"android":"levelo://app?vid=dc732b31-6921-4428-b177-5bec1a1a11dd","ios":"levelo://app?vid=dc732b31-6921-4428-b177-5bec1a1a11dd"},"vehicle_type_id":"4","last_reported":1740334250,"current_range_meters":3600,"station_id":"ce4bgjp2rcd13ifvqbh0","pricing_plan_id":"cebpf4jnsgd1na2vs0mg"},{"bike_id":"aa9e4017-d721-4a06-9330-3fdfb21b1be3","system_id":"levelo_inurba_marseille","lat":43.29198,"lon":5.39317,"is_reserved":false,"is_disabled":false,"rental_uris":{"android":"levelo://app?vid=aa9e4017-d721-4a06-9330-3fdfb21b1be3","ios":"levelo://app?vid=aa9e4017-d721-4a06-9330-3fdfb21b1be3"},"vehicle_type_id":"4","last_reported":1740334250,"current_range_meters":3600,"station_id":"ce4bh192rcd13ifvqdd0","pricing_plan_id":"cebpf4jnsgd1na2vs0mg"},{"bike_id":"fa24ff6b-a138-444d-8e7e-bd144bee0c07","system_id":"levelo_inurba_marseille","lat":43.31692,"lon":5.40463,"is_reserved":false,"is_disabled":false,"rental_uris":{"android":"levelo://app?vid=fa24ff6b-a138-444d-8e7e-bd144bee0c07","ios":"levelo://app?vid=fa24ff6b-a138-444d-8e7e-bd144bee0c07"},"vehicle_type_id":"4","last_reported":1740334250,"current_range_meters":3600,"station_id":"ce4bh012rcd13ifvqd00","pricing_plan_id":"cebpf4jnsgd1na2vs0mg"},{"bike_id":"4758ea11-4e98-4d0a-871d-ed0022e8f417","system_id":"levelo_inurba_marseille","lat":43.29278,"lon":5.38424,"is_reserved":false,"is_disabled":false,"rental_uris":{"android":"levelo://app?vid=4758ea11-4e98-4d0a-871d-ed0022e8f417","ios":"levelo://app?vid=4758ea11-4e98-4d0a-871d-ed0022e8f417"},"vehicle_type_id":"4","last_reported":1740334250,"current_range_meters":3600,"station_id":"ce4bh692rcd13ifvqea0","pricing_plan_id":"cebpf4jnsgd1na2vs0mg"},{"bike_id":"ab46b189-6bae-4129-a7fd-10b3ccd5a48e","system_id":"levelo_inurba_marseille","lat":43.27199,"lon":5.39987,"is_reserved":false,"is_disabled":false,"rental_uris":{"android":"levelo://app?vid=ab46b189-6bae-4129-a7fd-10b3ccd5a48e","ios":"levelo://app?vid=ab46b189-6bae-4129-a7fd-10b3ccd5a48e"},"vehicle_type_id":"4","last_reported":1740334250,"current_range_meters":3600,"station_id":"","pricing_plan_id":"cebpf4jnsgd1na2vs0mg"},{"bike_id":"fa83beb1-2405-4db0-9826-c091cb751783","system_id":"levelo_inurba_marseille","lat":43.25102,"lon":5.40342,"is_reserved":false,"is_disabled":true,"rental_uris":{"android":"levelo://app?vid=fa83beb1-2405-4db0-9826-c091cb751783","ios":"levelo://app?vid=fa83beb1-2405-4db0-9826-c091cb751783"},"vehicle_type_id":"4","last_reported":1740334250,"current_range_meters":3600,"station_id":"ce4bhlh2rcd13ifvqgig","pricing_plan_id":"cebpf4jnsgd1na2vs0mg"},{"bike_id":"bcda9898-36e8-46a1-83b5-be115c35a2d4","system_id":"levelo_inurba_marseille","lat":43.28001,"lon":5.41662,"is_reserved":false,"is_disabled":false,"rental_uris":{"android":"levelo://app?vid=bcda9898-36e8-46a1-83b5-be115c35a2d4","ios":"levelo://app?vid=bcda9898-36e8-46a1-83b5-be115c35a2d4"},"vehicle_type_id":"4","last_reported":1740334250,"current_range_meters":3600,"station_id":"ce4bho12rcd13ifvqh1g","pricing_plan_id":"cebpf4jnsgd1na2vs0mg"},{"bike_id":"60d071a9-e30a-4120-8c4e-38a8bf6689ed","system_id":"levelo_inurba_marseille","lat":43.28157,"lon":5.42643,"is_reserved":false,"is_disabled":false,"rental_uris":{"android":"levelo://app?vid=60d071a9-e30a-4120-8c4e-38a8bf6689ed","ios":"levelo://app?vid=60d071a9-e30a-4120-8c4e-38a8bf6689ed"},"vehicle_type_id":"4","last_reported":1740334250,"current_range_meters":3600,"station_id":"ce4bhnh2rcd13ifvqgug","pricing_plan_id":"cebpf4jnsgd1na2vs0mg"},{"bike_id":"499b5446-2460-4492-84de-aba14e5c7471","system_id":"levelo_inurba_marseille","lat":43.29268,"lon":5.38439,"is_reserved":false,"is_disabled":false,"rental_uris":{"android":"levelo://app?vid=499b5446-2460-4492-84de-aba14e5c7471","ios":"levelo://app?vid=499b5446-2460-4492-84de-aba14e5c7471"},"vehicle_type_id":"4","last_reported":1740334250,"current_range_meters":4000,"station_id":"ce4bh692rcd13ifvqea0","pricing_plan_id":"cebpf4jnsgd1na2vs0mg"},{"bike_id":"60667e76-c3b5-44ba-a3bc-6e41d5eb78df","system_id":"levelo_inurba_marseille","lat":43.26502,"lon":5.39533,"is_reserved":false,"is_disabled":false,"rental_uris":{"android":"levelo://app?vid=60667e76-c3b5-44ba-a3bc-6e41d5eb78df","ios":"levelo://app?vid=60667e76-c3b5-44ba-a3bc-6e41d5eb78df"},"vehicle_type_id":"4","last_reported":1740334250,"current_range_meters":4000,"station_id":"ce4bhi12rcd13ifvqfq0","pricing_plan_id":"cebpf4jnsgd1na2vs0mg"},{"bike_id":"1dc5727d-9c35-4b07-8316-b959d223f418","system_id":"levelo_inurba_marseille","lat":43.29904,"lon":5.38136,"is_reserved":false,"is_disabled":false,"rental_uris":{"android":"levelo://app?vid=1dc5727d-9c35-4b07-8316-b959d223f418","ios":"levelo://app?vid=1dc5727d-9c35-4b07-8316-b959d223f418"},"vehicle_type_id":"4","last_reported":1740334250,"current_range_meters":4000,"station_id":"ce4bgj12rcd13ifvqbc0","pricing_plan_id":"cebpf4jnsgd1na2vs0mg"},{"bike_id":"7292c1e5-6964-4d8a-a212-eddc90011189","system_id":"levelo_inurba_marseille","lat":43.31114,"lon":5.37784,"is_reserved":false,"is_disabled":false,"rental_uris":{"android":"levelo://app?vid=7292c1e5-6964-4d8a-a212-eddc90011189","ios":"levelo://app?vid=7292c1e5-6964-4d8a-a212-eddc90011189"},"vehicle_type_id":"4","last_reported":1740334250,"current_range_meters":6800,"station_id":"ce4bgt92rcd13ifvqcg0","pricing_plan_id":"cebpf4jnsgd1na2vs0mg"},{"bike_id":"b8fdf114-f8ca-4423-b314-1c8125dc6717","system_id":"levelo_inurba_marseille","lat":43.25084,"lon":5.395246,"is_reserved":false,"is_disabled":false,"rental_uris":{"android":"levelo://app?vid=b8fdf114-f8ca-4423-b314-1c8125dc6717","ios":"levelo://app?vid=b8fdf114-f8ca-4423-b314-1c8125dc6717"},"vehicle_type_id":"4","last_reported":1740334250,"current_range_meters":4000,"station_id":"ce4bhm12rcd13ifvqgkg","pricing_plan_id":"cebpf4jnsgd1na2vs0mg"},{"bike_id":"362a3965-ca2d-4dd3-a119-082516fba0a5","system_id":"levelo_inurba_marseille","lat":43.32289,"lon":5.38271,"is_reserved":false,"is_disabled":false,"rental_uris":{"android":"levelo://app?vid=362a3965-ca2d-4dd3-a119-082516fba0a5","ios":"levelo://app?vid=362a3965-ca2d-4dd3-a119-082516fba0a5"},"vehicle_type_id":"4","last_reported":1740334250,"current_range_meters":4400,"station_id":"ce4bhr12rcd13ifvqhqg","pricing_plan_id":"cebpf4jnsgd1na2vs0mg"},{"bike_id":"c6be1383-b427-471b-8c96-446ff1236c06","system_id":"levelo_inurba_marseille","lat":43.30122,"lon":5.39868,"is_reserved":false,"is_disabled":false,"rental_uris":{"android":"levelo://app?vid=c6be1383-b427-471b-8c96-446ff1236c06","ios":"levelo://app?vid=c6be1383-b427-471b-8c96-446ff1236c06"},"vehicle_type_id":"4","last_reported":1740334250,"current_range_meters":0,"station_id":"ce4bh0h2rcd13ifvqd40","pricing_plan_id":"cebpf4jnsgd1na2vs0mg"},{"bike_id":"4d6e32c4-2130-4597-b1fa-efbde5941ce6","system_id":"levelo_inurba_marseille","lat":43.29266,"lon":5.38448,"is_reserved":false,"is_disabled":false,"rental_uris":{"android":"levelo://app?vid=4d6e32c4-2130-4597-b1fa-efbde5941ce6","ios":"levelo://app?vid=4d6e32c4-2130-4597-b1fa-efbde5941ce6"},"vehicle_type_id":"4","last_reported":1740334250,"current_range_meters":4400,"station_id":"ce4bh692rcd13ifvqea0","pricing_plan_id":"cebpf4jnsgd1na2vs0mg"},{"bike_id":"30dc027b-862b-4eee-b5e9-748f55bddfeb","system_id":"levelo_inurba_marseille","lat":43.26225,"lon":5.40471,"is_reserved":false,"is_disabled":false,"rental_uris":{"android":"levelo://app?vid=30dc027b-862b-4eee-b5e9-748f55bddfeb","ios":"levelo://app?vid=30dc027b-862b-4eee-b5e9-748f55bddfeb"},"vehicle_type_id":"4","last_reported":1740334250,"current_range_meters":4400,"station_id":"ce4bhmh2rcd13ifvqgmg","pricing_plan_id":"cebpf4jnsgd1na2vs0mg"},{"bike_id":"b4f83b3d-7f5d-4c5b-9a74-b368ca60e5da","system_id":"levelo_inurba_marseille","lat":43.27966,"lon":5.38735,"is_reserved":false,"is_disabled":false,"rental_uris":{"android":"levelo://app?vid=b4f83b3d-7f5d-4c5b-9a74-b368ca60e5da","ios":"levelo://app?vid=b4f83b3d-7f5d-4c5b-9a74-b368ca60e5da"},"vehicle_type_id":"4","last_reported":1740334250,"current_range_meters":4400,"station_id":"ce4bhg12rcd13ifvqf80","pricing_plan_id":"cebpf4jnsgd1na2vs0mg"},{"bike_id":"106ea2b8-feff-4dd7-8c33-f4457290b038","system_id":"levelo_inurba_marseille","lat":43.30806,"lon":5.38137,"is_reserved":false,"is_disabled":false,"rental_uris":{"android":"levelo://app?vid=106ea2b8-feff-4dd7-8c33-f4457290b038","ios":"levelo://app?vid=106ea2b8-feff-4dd7-8c33-f4457290b038"},"vehicle_type_id":"4","last_reported":1740334250,"current_range_meters":4400,"station_id":"ce4bgt12rcd13ifvqce0","pricing_plan_id":"cebpf4jnsgd1na2vs0mg"},{"bike_id":"e8b59b6b-cba7-4bbc-896c-c0eeab497aec","system_id":"levelo_inurba_marseille","lat":43.25826,"lon":5.39423,"is_reserved":false,"is_disabled":false,"rental_uris":{"android":"levelo://app?vid=e8b59b6b-cba7-4bbc-896c-c0eeab497aec","ios":"levelo://app?vid=e8b59b6b-cba7-4bbc-896c-c0eeab497aec"},"vehicle_type_id":"4","last_reported":1740334250,"current_range_meters":4400,"station_id":"ce4bhip2rcd13ifvqft0","pricing_plan_id":"cebpf4jnsgd1na2vs0mg"},{"bike_id":"668ac8f7-d0e9-4c22-a731-68579392840e","system_id":"levelo_inurba_marseille","lat":43.29039,"lon":5.40138,"is_reserved":false,"is_disabled":false,"rental_uris":{"android":"levelo://app?vid=668ac8f7-d0e9-4c22-a731-68579392840e","ios":"levelo://app?vid=668ac8f7-d0e9-4c22-a731-68579392840e"},"vehicle_type_id":"4","last_reported":1740334250,"current_range_meters":4400,"station_id":"","pricing_plan_id":"cebpf4jnsgd1na2vs0mg"},{"bike_id":"7884cd6e-6571-446d-ad19-a2a8bc8f14f8","system_id":"levelo_inurba_marseille","lat":43.28361,"lon":5.38635,"is_reserved":false,"is_disabled":false,"rental_uris":{"android":"levelo://app?vid=7884cd6e-6571-446d-ad19-a2a8bc8f14f8","ios":"levelo://app?vid=7884cd6e-6571-446d-ad19-a2a8bc8f14f8"},"vehicle_type_id":"4","last_reported":1740334250,"current_range_meters":4800,"station_id":"ce4bh492rcd13ifvqdvg","pricing_plan_id":"cebpf4jnsgd1na2vs0mg"},{"bike_id":"9ef50ed4-4122-4deb-aee3-f538409113f2","system_id":"levelo_inurba_marseille","lat":43.30315,"lon":5.39194,"is_reserved":false,"is_disabled":false,"rental_uris":{"android":"levelo://app?vid=9ef50ed4-4122-4deb-aee3-f538409113f2","ios":"levelo://app?vid=9ef50ed4-4122-4deb-aee3-f538409113f2"},"vehicle_type_id":"4","last_reported":1740334250,"current_range_meters":4800,"station_id":"ce4bgkh2rcd13ifvqbk0","pricing_plan_id":"cebpf4jnsgd1na2vs0mg"},{"bike_id":"af1c5902-ca24-432d-ae7b-f8e1803daa4b","system_id":"levelo_inurba_marseille","lat":43.31987,"lon":5.38107,"is_reserved":false,"is_disabled":false,"rental_uris":{"android":"levelo://app?vid=af1c5902-ca24-432d-ae7b-f8e1803daa4b","ios":"levelo://app?vid=af1c5902-ca24-432d-ae7b-f8e1803daa4b"},"vehicle_type_id":"4","last_reported":1740334250,"current_range_meters":5600,"station_id":"ce4bhr12rcd13ifvqhpg","pricing_plan_id":"cebpf4jnsgd1na2vs0mg"},{"bike_id":"f8812183-2a7f-4612-bd78-a321cf2ab341","system_id":"levelo_inurba_marseille","lat":43.32341,"lon":5.40615,"is_reserved":false,"is_disabled":false,"rental_uris":{"android":"levelo://app?vid=f8812183-2a7f-4612-bd78-a321cf2ab341","ios":"levelo://app?vid=f8812183-2a7f-4612-bd78-a321cf2ab341"},"vehicle_type_id":"4","last_reported":1740334250,"current_range_meters":5600,"station_id":"ce4bhq92rcd13ifvqhjg","pricing_plan_id":"cebpf4jnsgd1na2vs0mg"},{"bike_id":"5be81403-e80e-49df-8f5d-218571205bc6","system_id":"levelo_inurba_marseille","lat":43.28406,"lon":5.37509,"is_reserved":false,"is_disabled":true,"rental_uris":{"android":"levelo://app?vid=5be81403-e80e-49df-8f5d-218571205bc6","ios":"levelo://app?vid=5be81403-e80e-49df-8f5d-218571205bc6"},"vehicle_type_id":"4","last_reported":1740334250,"current_range_meters":5600,"station_id":"ce4bh412rcd13ifvqds0","pricing_plan_id":"cebpf4jnsgd1na2vs0mg"},{"bike_id":"2a7165b4-60a1-4418-90cd-83d9915280e2","system_id":"levelo_inurba_marseille","lat":43.28019,"lon":5.40605,"is_reserved":false,"is_disabled":false,"rental_uris":{"android":"levelo://app?vid=2a7165b4-60a1-4418-90cd-83d9915280e2","ios":"levelo://app?vid=2a7165b4-60a1-4418-90cd-83d9915280e2"},"vehicle_type_id":"4","last_reported":1740334250,"current_range_meters":5600,"station_id":"","pricing_plan_id":"cebpf4jnsgd1na2vs0mg"},{"bike_id":"9116b8ac-629d-459b-b44d-248b2c2649b7","system_id":"levelo_inurba_marseille","lat":43.27959,"lon":5.41039,"is_reserved":false,"is_disabled":true,"rental_uris":{"android":"levelo://app?vid=9116b8ac-629d-459b-b44d-248b2c2649b7","ios":"levelo://app?vid=9116b8ac-629d-459b-b44d-248b2c2649b7"},"vehicle_type_id":"4","last_reported":1740334250,"current_range_meters":5600,"station_id":"ce4bhnp2rcd13ifvqh0g","pricing_plan_id":"cebpf4jnsgd1na2vs0mg"},{"bike_id":"de2af38e-8549-4db4-b2a9-1a67f89772b3","system_id":"levelo_inurba_marseille","lat":43.28847,"lon":5.39304,"is_reserved":false,"is_disabled":false,"rental_uris":{"android":"levelo://app?vid=de2af38e-8549-4db4-b2a9-1a67f89772b3","ios":"levelo://app?vid=de2af38e-8549-4db4-b2a9-1a67f89772b3"},"vehicle_type_id":"4","last_reported":1740334250,"current_range_meters":5600,"station_id":"ce4bh2p2rcd13ifvqdi0","pricing_plan_id":"cebpf4jnsgd1na2vs0mg"},{"bike_id":"ad897e9a-47c9-4b11-b12a-3f029095f3c7","system_id":"levelo_inurba_marseille","lat":43.27439,"lon":5.39408,"is_reserved":false,"is_disabled":false,"rental_uris":{"android":"levelo://app?vid=ad897e9a-47c9-4b11-b12a-3f029095f3c7","ios":"levelo://app?vid=ad897e9a-47c9-4b11-b12a-3f029095f3c7"},"vehicle_type_id":"4","last_reported":1740334250,"current_range_meters":5600,"station_id":"ce4bhdp2rcd13ifvqf20","pricing_plan_id":"cebpf4jnsgd1na2vs0mg"},{"bike_id":"48e02ba3-10da-45f7-a184-47af717355f8","system_id":"levelo_inurba_marseille","lat":43.28947,"lon":5.36638,"is_reserved":false,"is_disabled":false,"rental_uris":{"android":"levelo://app?vid=48e02ba3-10da-45f7-a184-47af717355f8","ios":"levelo://app?vid=48e02ba3-10da-45f7-a184-47af717355f8"},"vehicle_type_id":"4","last_reported":1740334250,"current_range_meters":5600,"station_id":"ce4bhap2rcd13ifvqek0","pricing_plan_id":"cebpf4jnsgd1na2vs0mg"},{"bike_id":"c473e8fb-6a25-4ed5-a48f-8283e99011f7","system_id":"levelo_inurba_marseille","lat":43.28719,"lon":5.37947,"is_reserved":false,"is_disabled":false,"rental_uris":{"android":"levelo://app?vid=c473e8fb-6a25-4ed5-a48f-8283e99011f7","ios":"levelo://app?vid=c473e8fb-6a25-4ed5-a48f-8283e99011f7"},"vehicle_type_id":"4","last_reported":1740334250,"current_range_meters":6000,"station_id":"ce4bh9p2rcd13ifvqec0","pricing_plan_id":"cebpf4jnsgd1na2vs0mg"},{"bike_id":"18269796-569b-426f-b5d7-3e42fa888589","system_id":"levelo_inurba_marseille","lat":43.29277,"lon":5.38441,"is_reserved":false,"is_disabled":false,"rental_uris":{"android":"levelo://app?vid=18269796-569b-426f-b5d7-3e42fa888589","ios":"levelo://app?vid=18269796-569b-426f-b5d7-3e42fa888589"},"vehicle_type_id":"4","last_reported":1740334250,"current_range_meters":6000,"station_id":"ce4bh692rcd13ifvqea0","pricing_plan_id":"cebpf4jnsgd1na2vs0mg"},{"bike_id":"38325a3f-a2fb-452f-aa79-ad3fbfcd433b","system_id":"levelo_inurba_marseille","lat":43.29012,"lon":5.38135,"is_reserved":false,"is_disabled":false,"rental_uris":{"android":"levelo://app?vid=38325a3f-a2fb-452f-aa79-ad3fbfcd433b","ios":"levelo://app?vid=38325a3f-a2fb-452f-aa79-ad3fbfcd433b"},"vehicle_type_id":"4","last_reported":1740334250,"current_range_meters":6000,"station_id":"ce4bh4p2rcd13ifvqe1g","pricing_plan_id":"cebpf4jnsgd1na2vs0mg"},{"bike_id":"c244c90d-0a11-4bf0-adbb-b0973427dac5","system_id":"levelo_inurba_marseille","lat":43.2957,"lon":5.39967,"is_reserved":false,"is_disabled":false,"rental_uris":{"android":"levelo://app?vid=c244c90d-0a11-4bf0-adbb-b0973427dac5","ios":"levelo://app?vid=c244c90d-0a11-4bf0-adbb-b0973427dac5"},"vehicle_type_id":"4","last_reported":1740334250,"current_range_meters":6000,"station_id":"ce4bh312rcd13ifvqdj0","pricing_plan_id":"cebpf4jnsgd1na2vs0mg"},{"bike_id":"322cc6f0-fb4c-4a6e-9d02-d99e68ddd9cc","system_id":"levelo_inurba_marseille","lat":43.30147,"lon":5.38781,"is_reserved":false,"is_disabled":false,"rental_uris":{"android":"levelo://app?vid=322cc6f0-fb4c-4a6e-9d02-d99e68ddd9cc","ios":"levelo://app?vid=322cc6f0-fb4c-4a6e-9d02-d99e68ddd9cc"},"vehicle_type_id":"4","last_reported":1740334250,"current_range_meters":6000,"station_id":"ce4bghh2rcd13ifvqb60","pricing_plan_id":"cebpf4jnsgd1na2vs0mg"},{"bike_id":"0b18af74-2c32-42c3-8734-fc36b87e5c98","system_id":"levelo_inurba_marseille","lat":43.31394,"lon":5.40379,"is_reserved":false,"is_disabled":false,"rental_uris":{"android":"levelo://app?vid=0b18af74-2c32-42c3-8734-fc36b87e5c98","ios":"levelo://app?vid=0b18af74-2c32-42c3-8734-fc36b87e5c98"},"vehicle_type_id":"4","last_reported":1740334250,"current_range_meters":6400,"station_id":"","pricing_plan_id":"cebpf4jnsgd1na2vs0mg"},{"bike_id":"3eb1b4fa-77f2-4b80-8b4f-96752761ed8f","system_id":"levelo_inurba_marseille","lat":43.29261,"lon":5.38438,"is_reserved":false,"is_disabled":false,"rental_uris":{"android":"levelo://app?vid=3eb1b4fa-77f2-4b80-8b4f-96752761ed8f","ios":"levelo://app?vid=3eb1b4fa-77f2-4b80-8b4f-96752761ed8f"},"vehicle_type_id":"4","last_reported":1740334250,"current_range_meters":6400,"station_id":"ce4bh692rcd13ifvqea0","pricing_plan_id":"cebpf4jnsgd1na2vs0mg"},{"bike_id":"327a9ffb-0bfd-4f9e-9cd7-147f2b64d145","system_id":"levelo_inurba_marseille","lat":43.28436,"lon":5.39186,"is_reserved":false,"is_disabled":false,"rental_uris":{"android":"levelo://app?vid=327a9ffb-0bfd-4f9e-9cd7-147f2b64d145","ios":"levelo://app?vid=327a9ffb-0bfd-4f9e-9cd7-147f2b64d145"},"vehicle_type_id":"4","last_reported":1740334250,"current_range_meters":6400,"station_id":"ce4bhoh2rcd13ifvqh5g","pricing_plan_id":"cebpf4jnsgd1na2vs0mg"},{"bike_id":"f4c73116-43d3-41d9-88bb-9461dbbb405f","system_id":"levelo_inurba_marseille","lat":43.25449,"lon":5.41621,"is_reserved":false,"is_disabled":false,"rental_uris":{"android":"levelo://app?vid=f4c73116-43d3-41d9-88bb-9461dbbb405f","ios":"levelo://app?vid=f4c73116-43d3-41d9-88bb-9461dbbb405f"},"vehicle_type_id":"4","last_reported":1740334250,"current_range_meters":6400,"station_id":"","pricing_plan_id":"cebpf4jnsgd1na2vs0mg"},{"bike_id":"2e4d9ef6-4dd9-45eb-8687-42db3850d70a","system_id":"levelo_inurba_marseille","lat":43.27462,"lon":5.40714,"is_reserved":false,"is_disabled":false,"rental_uris":{"android":"levelo://app?vid=2e4d9ef6-4dd9-45eb-8687-42db3850d70a","ios":"levelo://app?vid=2e4d9ef6-4dd9-45eb-8687-42db3850d70a"},"vehicle_type_id":"4","last_reported":1740334250,"current_range_meters":6400,"station_id":"","pricing_plan_id":"cebpf4jnsgd1na2vs0mg"},{"bike_id":"f8bf2c4c-c979-41a7-9f23-3a2fc7d72e63","system_id":"levelo_inurba_marseille","lat":43.29968,"lon":5.38502,"is_reserved":false,"is_disabled":false,"rental_uris":{"android":"levelo://app?vid=f8bf2c4c-c979-41a7-9f23-3a2fc7d72e63","ios":"levelo://app?vid=f8bf2c4c-c979-41a7-9f23-3a2fc7d72e63"},"vehicle_type_id":"4","last_reported":1740334250,"current_range_meters":6400,"station_id":"ce4bgj92rcd13ifvqbd0","pricing_plan_id":"cebpf4jnsgd1na2vs0mg"},{"bike_id":"68eaf70c-86da-4a55-b86e-08db94ec71f8","system_id":"levelo_inurba_marseille","lat":43.30875,"lon":5.39644,"is_reserved":false,"is_disabled":false,"rental_uris":{"android":"levelo://app?vid=68eaf70c-86da-4a55-b86e-08db94ec71f8","ios":"levelo://app?vid=68eaf70c-86da-4a55-b86e-08db94ec71f8"},"vehicle_type_id":"4","last_reported":1740334250,"current_range_meters":6800,"station_id":"ce4bh012rcd13ifvqcv0","pricing_plan_id":"cebpf4jnsgd1na2vs0mg"},{"bike_id":"23517121-7e75-4600-a3af-ba8df80f13ac","system_id":"levelo_inurba_marseille","lat":43.29524,"lon":5.3903,"is_reserved":false,"is_disabled":false,"rental_uris":{"android":"levelo://app?vid=23517121-7e75-4600-a3af-ba8df80f13ac","ios":"levelo://app?vid=23517121-7e75-4600-a3af-ba8df80f13ac"},"vehicle_type_id":"4","last_reported":1740334250,"current_range_meters":6800,"station_id":"ce4bh3p2rcd13ifvqdp0","pricing_plan_id":"cebpf4jnsgd1na2vs0mg"},{"bike_id":"1284377d-613e-4b0e-b8b9-30807af03316","system_id":"levelo_inurba_marseille","lat":43.27813,"lon":5.39202,"is_reserved":false,"is_disabled":true,"rental_uris":{"android":"levelo://app?vid=1284377d-613e-4b0e-b8b9-30807af03316","ios":"levelo://app?vid=1284377d-613e-4b0e-b8b9-30807af03316"},"vehicle_type_id":"4","last_reported":1740334250,"current_range_meters":6800,"station_id":"ce4bhjp2rcd13ifvqga0","pricing_plan_id":"cebpf4jnsgd1na2vs0mg"},{"bike_id":"45a1e6ec-ce0d-4a04-b79b-7dfd714f0abe","system_id":"levelo_inurba_marseille","lat":43.28493,"lon":5.38418,"is_reserved":false,"is_disabled":false,"rental_uris":{"android":"levelo://app?vid=45a1e6ec-ce0d-4a04-b79b-7dfd714f0abe","ios":"levelo://app?vid=45a1e6ec-ce0d-4a04-b79b-7dfd714f0abe"},"vehicle_type_id":"4","last_reported":1740334250,"current_range_meters":6800,"station_id":"ce4bh512rcd13ifvqe3g","pricing_plan_id":"cebpf4jnsgd1na2vs0mg"},{"bike_id":"6271f398-d900-4b7b-8fd8-103353e46f80","system_id":"levelo_inurba_marseille","lat":43.29621,"lon":5.37166,"is_reserved":false,"is_disabled":false,"rental_uris":{"android":"levelo://app?vid=6271f398-d900-4b7b-8fd8-103353e46f80","ios":"levelo://app?vid=6271f398-d900-4b7b-8fd8-103353e46f80"},"vehicle_type_id":"4","last_reported":1740334250,"current_range_meters":4400,"station_id":"ce4bgnh2rcd13ifvqc0g","pricing_plan_id":"cebpf4jnsgd1na2vs0mg"},{"bike_id":"c48e7869-1093-4d1b-b1c9-241dee4d119b","system_id":"levelo_inurba_marseille","lat":43.3169,"lon":5.40472,"is_reserved":false,"is_disabled":false,"rental_uris":{"android":"levelo://app?vid=c48e7869-1093-4d1b-b1c9-241dee4d119b","ios":"levelo://app?vid=c48e7869-1093-4d1b-b1c9-241dee4d119b"},"vehicle_type_id":"4","last_reported":1740334250,"current_range_meters":6800,"station_id":"ce4bh012rcd13ifvqd00","pricing_plan_id":"cebpf4jnsgd1na2vs0mg"},{"bike_id":"08d3c49f-b378-451a-b094-0dca00f63d21","system_id":"levelo_inurba_marseille","lat":43.27213,"lon":5.39182,"is_reserved":false,"is_disabled":false,"rental_uris":{"android":"levelo://app?vid=08d3c49f-b378-451a-b094-0dca00f63d21","ios":"levelo://app?vid=08d3c49f-b378-451a-b094-0dca00f63d21"},"vehicle_type_id":"4","last_reported":1740334250,"current_range_meters":7200,"station_id":"ce4bho92rcd13ifvqh4g","pricing_plan_id":"cebpf4jnsgd1na2vs0mg"},{"bike_id":"519c0d90-c598-4074-9c80-d5e1565ff705","system_id":"levelo_inurba_marseille","lat":43.23051,"lon":5.35489,"is_reserved":false,"is_disabled":false,"rental_uris":{"android":"levelo://app?vid=519c0d90-c598-4074-9c80-d5e1565ff705","ios":"levelo://app?vid=519c0d90-c598-4074-9c80-d5e1565ff705"},"vehicle_type_id":"4","last_reported":1740334250,"current_range_meters":7200,"station_id":"cpo3342slgdg3j2ifvpg","pricing_plan_id":"cebpf4jnsgd1na2vs0mg"},{"bike_id":"db5d9613-c30a-48a3-8624-2effcc292914","system_id":"levelo_inurba_marseille","lat":43.32104,"lon":5.36781,"is_reserved":false,"is_disabled":false,"rental_uris":{"android":"levelo://app?vid=db5d9613-c30a-48a3-8624-2effcc292914","ios":"levelo://app?vid=db5d9613-c30a-48a3-8624-2effcc292914"},"vehicle_type_id":"4","last_reported":1740334250,"current_range_meters":7200,"station_id":"ce4bhrh2rcd13ifvqhug","pricing_plan_id":"cebpf4jnsgd1na2vs0mg"},{"bike_id":"6005231b-a7b8-4315-8a6b-a1ed8f97906c","system_id":"levelo_inurba_marseille","lat":43.25116,"lon":5.40321,"is_reserved":false,"is_disabled":false,"rental_uris":{"android":"levelo://app?vid=6005231b-a7b8-4315-8a6b-a1ed8f97906c","ios":"levelo://app?vid=6005231b-a7b8-4315-8a6b-a1ed8f97906c"},"vehicle_type_id":"4","last_reported":1740334250,"current_range_meters":7200,"station_id":"ce4bhlh2rcd13ifvqgig","pricing_plan_id":"cebpf4jnsgd1na2vs0mg"},{"bike_id":"e9a07c77-8570-4dce-866e-af6e94e74252","system_id":"levelo_inurba_marseille","lat":43.301,"lon":5.39066,"is_reserved":false,"is_disabled":false,"rental_uris":{"android":"levelo://app?vid=e9a07c77-8570-4dce-866e-af6e94e74252","ios":"levelo://app?vid=e9a07c77-8570-4dce-866e-af6e94e74252"},"vehicle_type_id":"4","last_reported":1740334250,"current_range_meters":6000,"station_id":"ce4bh192rcd13ifvqdb0","pricing_plan_id":"cebpf4jnsgd1na2vs0mg"},{"bike_id":"41b8905f-5d71-47d2-981b-cd5802ac227d","system_id":"levelo_inurba_marseille","lat":43.28153,"lon":5.42642,"is_reserved":false,"is_disabled":false,"rental_uris":{"android":"levelo://app?vid=41b8905f-5d71-47d2-981b-cd5802ac227d","ios":"levelo://app?vid=41b8905f-5d71-47d2-981b-cd5802ac227d"},"vehicle_type_id":"4","last_reported":1740334250,"current_range_meters":7200,"station_id":"ce4bhnh2rcd13ifvqgug","pricing_plan_id":"cebpf4jnsgd1na2vs0mg"},{"bike_id":"aef7f4ac-952b-4bb2-becf-875b00a5de94","system_id":"levelo_inurba_marseille","lat":43.30957,"lon":5.39037,"is_reserved":false,"is_disabled":false,"rental_uris":{"android":"levelo://app?vid=aef7f4ac-952b-4bb2-becf-875b00a5de94","ios":"levelo://app?vid=aef7f4ac-952b-4bb2-becf-875b00a5de94"},"vehicle_type_id":"4","last_reported":1740334250,"current_range_meters":7200,"station_id":"ce4bgup2rcd13ifvqco0","pricing_plan_id":"cebpf4jnsgd1na2vs0mg"},{"bike_id":"590c2d4d-a6f8-41f2-86bc-cf779452c419","system_id":"levelo_inurba_marseille","lat":43.2718,"lon":5.40992,"is_reserved":false,"is_disabled":false,"rental_uris":{"android":"levelo://app?vid=590c2d4d-a6f8-41f2-86bc-cf779452c419","ios":"levelo://app?vid=590c2d4d-a6f8-41f2-86bc-cf779452c419"},"vehicle_type_id":"4","last_reported":1740334250,"current_range_meters":7200,"station_id":"ce4bhl12rcd13ifvqgf0","pricing_plan_id":"cebpf4jnsgd1na2vs0mg"},{"bike_id":"b6c77459-26f3-43ec-baac-b2da52ec6895","system_id":"levelo_inurba_marseille","lat":43.28496,"lon":5.39488,"is_reserved":false,"is_disabled":false,"rental_uris":{"android":"levelo://app?vid=b6c77459-26f3-43ec-baac-b2da52ec6895","ios":"levelo://app?vid=b6c77459-26f3-43ec-baac-b2da52ec6895"},"vehicle_type_id":"4","last_reported":1740334250,"current_range_meters":7200,"station_id":"","pricing_plan_id":"cebpf4jnsgd1na2vs0mg"},{"bike_id":"bd611ffb-a5b6-417c-8795-28d0c572d91f","system_id":"levelo_inurba_marseille","lat":43.28728,"lon":5.37946,"is_reserved":false,"is_disabled":false,"rental_uris":{"android":"levelo://app?vid=bd611ffb-a5b6-417c-8795-28d0c572d91f","ios":"levelo://app?vid=bd611ffb-a5b6-417c-8795-28d0c572d91f"},"vehicle_type_id":"4","last_reported":1740334250,"current_range_meters":8000,"station_id":"ce4bh9p2rcd13ifvqec0","pricing_plan_id":"cebpf4jnsgd1na2vs0mg"},{"bike_id":"7655f48f-cc03-4216-87c7-b56c46caf945","system_id":"levelo_inurba_marseille","lat":43.29263,"lon":5.40906,"is_reserved":false,"is_disabled":false,"rental_uris":{"android":"levelo://app?vid=7655f48f-cc03-4216-87c7-b56c46caf945","ios":"levelo://app?vid=7655f48f-cc03-4216-87c7-b56c46caf945"},"vehicle_type_id":"4","last_reported":1740334250,"current_range_meters":8000,"station_id":"ce4bh192rcd13ifvqdc0","pricing_plan_id":"cebpf4jnsgd1na2vs0mg"},{"bike_id":"49d725a6-8d4e-4b31-93ea-a13a98369a85","system_id":"levelo_inurba_marseille","lat":43.30602,"lon":5.39345,"is_reserved":false,"is_disabled":false,"rental_uris":{"android":"levelo://app?vid=49d725a6-8d4e-4b31-93ea-a13a98369a85","ios":"levelo://app?vid=49d725a6-8d4e-4b31-93ea-a13a98369a85"},"vehicle_type_id":"4","last_reported":1740334250,"current_range_meters":8000,"station_id":"ce4bh0p2rcd13ifvqd80","pricing_plan_id":"cebpf4jnsgd1na2vs0mg"},{"bike_id":"99c0b403-3eae-45e7-9566-489955f44f49","system_id":"levelo_inurba_marseille","lat":43.29981,"lon":5.3849,"is_reserved":false,"is_disabled":false,"rental_uris":{"android":"levelo://app?vid=99c0b403-3eae-45e7-9566-489955f44f49","ios":"levelo://app?vid=99c0b403-3eae-45e7-9566-489955f44f49"},"vehicle_type_id":"4","last_reported":1740334250,"current_range_meters":8000,"station_id":"ce4bgj92rcd13ifvqbd0","pricing_plan_id":"cebpf4jnsgd1na2vs0mg"},{"bike_id":"cc42a8c0-db27-4634-b2b7-32de4f5a4f68","system_id":"levelo_inurba_marseille","lat":43.2481,"lon":5.37463,"is_reserved":false,"is_disabled":false,"rental_uris":{"android":"levelo://app?vid=cc42a8c0-db27-4634-b2b7-32de4f5a4f68","ios":"levelo://app?vid=cc42a8c0-db27-4634-b2b7-32de4f5a4f68"},"vehicle_type_id":"4","last_reported":1740334250,"current_range_meters":8400,"station_id":"ce4bhgh2rcd13ifvqfb0","pricing_plan_id":"cebpf4jnsgd1na2vs0mg"},{"bike_id":"09486dc5-7654-4904-afc6-3b8a40308aeb","system_id":"levelo_inurba_marseille","lat":43.25394,"lon":5.41569,"is_reserved":false,"is_disabled":false,"rental_uris":{"android":"levelo://app?vid=09486dc5-7654-4904-afc6-3b8a40308aeb","ios":"levelo://app?vid=09486dc5-7654-4904-afc6-3b8a40308aeb"},"vehicle_type_id":"4","last_reported":1740334250,"current_range_meters":8400,"station_id":"","pricing_plan_id":"cebpf4jnsgd1na2vs0mg"},{"bike_id":"d96a811e-7000-43af-9b3e-6a5e4d5580d3","system_id":"levelo_inurba_marseille","lat":43.28404,"lon":5.37523,"is_reserved":false,"is_disabled":false,"rental_uris":{"android":"levelo://app?vid=d96a811e-7000-43af-9b3e-6a5e4d5580d3","ios":"levelo://app?vid=d96a811e-7000-43af-9b3e-6a5e4d5580d3"},"vehicle_type_id":"4","last_reported":1740334250,"current_range_meters":8400,"station_id":"ce4bh412rcd13ifvqds0","pricing_plan_id":"cebpf4jnsgd1na2vs0mg"},{"bike_id":"63b322d1-2857-4aec-b25e-5db2b426ed7c","system_id":"levelo_inurba_marseille","lat":43.23969,"lon":5.36624,"is_reserved":false,"is_disabled":false,"rental_uris":{"android":"levelo://app?vid=63b322d1-2857-4aec-b25e-5db2b426ed7c","ios":"levelo://app?vid=63b322d1-2857-4aec-b25e-5db2b426ed7c"},"vehicle_type_id":"4","last_reported":1740334250,"current_range_meters":8400,"station_id":"ce4bhi12rcd13ifvqfp0","pricing_plan_id":"cebpf4jnsgd1na2vs0mg"},{"bike_id":"7d0b7d68-b458-4eb0-9679-38c899751945","system_id":"levelo_inurba_marseille","lat":43.28,"lon":5.4166,"is_reserved":false,"is_disabled":false,"rental_uris":{"android":"levelo://app?vid=7d0b7d68-b458-4eb0-9679-38c899751945","ios":"levelo://app?vid=7d0b7d68-b458-4eb0-9679-38c899751945"},"vehicle_type_id":"4","last_reported":1740334250,"current_range_meters":8400,"station_id":"ce4bho12rcd13ifvqh1g","pricing_plan_id":"cebpf4jnsgd1na2vs0mg"},{"bike_id":"1af71967-b274-4269-9655-88715abf61c6","system_id":"levelo_inurba_marseille","lat":43.26545,"lon":5.3729,"is_reserved":false,"is_disabled":true,"rental_uris":{"android":"levelo://app?vid=1af71967-b274-4269-9655-88715abf61c6","ios":"levelo://app?vid=1af71967-b274-4269-9655-88715abf61c6"},"vehicle_type_id":"4","last_reported":1740334250,"current_range_meters":8400,"station_id":"ce4bhg12rcd13ifvqf70","pricing_plan_id":"cebpf4jnsgd1na2vs0mg"},{"bike_id":"a0f40846-6cee-405d-8e1e-51fc52ce1647","system_id":"levelo_inurba_marseille","lat":43.29881,"lon":5.38914,"is_reserved":false,"is_disabled":false,"rental_uris":{"android":"levelo://app?vid=a0f40846-6cee-405d-8e1e-51fc52ce1647","ios":"levelo://app?vid=a0f40846-6cee-405d-8e1e-51fc52ce1647"},"vehicle_type_id":"4","last_reported":1740334250,"current_range_meters":8400,"station_id":"ce4bh392rcd13ifvqdl0","pricing_plan_id":"cebpf4jnsgd1na2vs0mg"},{"bike_id":"26a2d076-f5f2-45a7-98f5-29542790fe7d","system_id":"levelo_inurba_marseille","lat":43.32369,"lon":5.3676,"is_reserved":false,"is_disabled":false,"rental_uris":{"android":"levelo://app?vid=26a2d076-f5f2-45a7-98f5-29542790fe7d","ios":"levelo://app?vid=26a2d076-f5f2-45a7-98f5-29542790fe7d"},"vehicle_type_id":"4","last_reported":1740334250,"current_range_meters":8400,"station_id":"ce4bhsh2rcd13ifvqi2g","pricing_plan_id":"cebpf4jnsgd1na2vs0mg"},{"bike_id":"49294de7-f86b-4b56-8a17-8471b94a7d8e","system_id":"levelo_inurba_marseille","lat":43.305426,"lon":5.384283,"is_reserved":false,"is_disabled":false,"rental_uris":{"android":"levelo://app?vid=49294de7-f86b-4b56-8a17-8471b94a7d8e","ios":"levelo://app?vid=49294de7-f86b-4b56-8a17-8471b94a7d8e"},"vehicle_type_id":"4","last_reported":1740334250,"current_range_meters":8400,"station_id":"ce4bgg92rcd13ifvqb30","pricing_plan_id":"cebpf4jnsgd1na2vs0mg"},{"bike_id":"46baa71e-e9c6-4f8e-90b5-39eecb8d85b7","system_id":"levelo_inurba_marseille","lat":43.26682,"lon":5.38266,"is_reserved":false,"is_disabled":false,"rental_uris":{"android":"levelo://app?vid=46baa71e-e9c6-4f8e-90b5-39eecb8d85b7","ios":"levelo://app?vid=46baa71e-e9c6-4f8e-90b5-39eecb8d85b7"},"vehicle_type_id":"4","last_reported":1740334250,"current_range_meters":8400,"station_id":"ce4bhg92rcd13ifvqf90","pricing_plan_id":"cebpf4jnsgd1na2vs0mg"},{"bike_id":"3a6da2eb-9572-401f-90a3-a1078da566b8","system_id":"levelo_inurba_marseille","lat":43.27566,"lon":5.38414,"is_reserved":false,"is_disabled":false,"rental_uris":{"android":"levelo://app?vid=3a6da2eb-9572-401f-90a3-a1078da566b8","ios":"levelo://app?vid=3a6da2eb-9572-401f-90a3-a1078da566b8"},"vehicle_type_id":"4","last_reported":1740334250,"current_range_meters":8400,"station_id":"ce4bhh92rcd13ifvqfi0","pricing_plan_id":"cebpf4jnsgd1na2vs0mg"},{"bike_id":"43f290f3-b4c1-4764-bf9b-458150126102","system_id":"levelo_inurba_marseille","lat":43.28684,"lon":5.38662,"is_reserved":false,"is_disabled":false,"rental_uris":{"android":"levelo://app?vid=43f290f3-b4c1-4764-bf9b-458150126102","ios":"levelo://app?vid=43f290f3-b4c1-4764-bf9b-458150126102"},"vehicle_type_id":"4","last_reported":1740334250,"current_range_meters":8800,"station_id":"ce4bh492rcd13ifvqdug","pricing_plan_id":"cebpf4jnsgd1na2vs0mg"},{"bike_id":"d3dc4114-38c6-48d5-81b2-55fe1924872f","system_id":"levelo_inurba_marseille","lat":43.23189,"lon":5.39991,"is_reserved":false,"is_disabled":false,"rental_uris":{"android":"levelo://app?vid=d3dc4114-38c6-48d5-81b2-55fe1924872f","ios":"levelo://app?vid=d3dc4114-38c6-48d5-81b2-55fe1924872f"},"vehicle_type_id":"4","last_reported":1740334250,"current_range_meters":8800,"station_id":"ce4bhn12rcd13ifvqgqg","pricing_plan_id":"cebpf4jnsgd1na2vs0mg"},{"bike_id":"635358ac-9eda-4885-8bd1-c4da2a571fd0","system_id":"levelo_inurba_marseille","lat":43.28162,"lon":5.42643,"is_reserved":false,"is_disabled":false,"rental_uris":{"android":"levelo://app?vid=635358ac-9eda-4885-8bd1-c4da2a571fd0","ios":"levelo://app?vid=635358ac-9eda-4885-8bd1-c4da2a571fd0"},"vehicle_type_id":"4","last_reported":1740334250,"current_range_meters":8800,"station_id":"ce4bhnh2rcd13ifvqgug","pricing_plan_id":"cebpf4jnsgd1na2vs0mg"},{"bike_id":"96687f10-46b7-450c-aec9-7f287818eea4","system_id":"levelo_inurba_marseille","lat":43.30254,"lon":5.40088,"is_reserved":false,"is_disabled":false,"rental_uris":{"android":"levelo://app?vid=96687f10-46b7-450c-aec9-7f287818eea4","ios":"levelo://app?vid=96687f10-46b7-450c-aec9-7f287818eea4"},"vehicle_type_id":"4","last_reported":1740334250,"current_range_meters":8800,"station_id":"ce4bgvh2rcd13ifvqcs0","pricing_plan_id":"cebpf4jnsgd1na2vs0mg"},{"bike_id":"49e1c317-c43a-4e17-be08-ea23dc8d6739","system_id":"levelo_inurba_marseille","lat":43.30182,"lon":5.39599,"is_reserved":false,"is_disabled":true,"rental_uris":{"android":"levelo://app?vid=49e1c317-c43a-4e17-be08-ea23dc8d6739","ios":"levelo://app?vid=49e1c317-c43a-4e17-be08-ea23dc8d6739"},"vehicle_type_id":"4","last_reported":1740334250,"current_range_meters":8800,"station_id":"","pricing_plan_id":"cebpf4jnsgd1na2vs0mg"},{"bike_id":"e4f1895c-9df9-425b-9619-e869991b5754","system_id":"levelo_inurba_marseille","lat":43.299133,"lon":5.381411,"is_reserved":false,"is_disabled":false,"rental_uris":{"android":"levelo://app?vid=e4f1895c-9df9-425b-9619-e869991b5754","ios":"levelo://app?vid=e4f1895c-9df9-425b-9619-e869991b5754"},"vehicle_type_id":"4","last_reported":1740334250,"current_range_meters":8800,"station_id":"ce4bgj12rcd13ifvqbc0","pricing_plan_id":"cebpf4jnsgd1na2vs0mg"},{"bike_id":"5c89da34-efd7-46ec-88fb-42cf783587ce","system_id":"levelo_inurba_marseille","lat":43.28294,"lon":5.43228,"is_reserved":false,"is_disabled":false,"rental_uris":{"android":"levelo://app?vid=5c89da34-efd7-46ec-88fb-42cf783587ce","ios":"levelo://app?vid=5c89da34-efd7-46ec-88fb-42cf783587ce"},"vehicle_type_id":"4","last_reported":1740334250,"current_range_meters":8800,"station_id":"","pricing_plan_id":"cebpf4jnsgd1na2vs0mg"},{"bike_id":"1f7411cd-9379-4bab-a8bc-411b928d8602","system_id":"levelo_inurba_marseille","lat":43.2749,"lon":5.42463,"is_reserved":false,"is_disabled":false,"rental_uris":{"android":"levelo://app?vid=1f7411cd-9379-4bab-a8bc-411b928d8602","ios":"levelo://app?vid=1f7411cd-9379-4bab-a8bc-411b928d8602"},"vehicle_type_id":"4","last_reported":1740334250,"current_range_meters":9200,"station_id":"ce4bhn92rcd13ifvqgrg","pricing_plan_id":"cebpf4jnsgd1na2vs0mg"},{"bike_id":"8dc51aab-29d3-43fa-a37e-6c47cc4c2e69","system_id":"levelo_inurba_marseille","lat":43.24161,"lon":5.36406,"is_reserved":false,"is_disabled":false,"rental_uris":{"android":"levelo://app?vid=8dc51aab-29d3-43fa-a37e-6c47cc4c2e69","ios":"levelo://app?vid=8dc51aab-29d3-43fa-a37e-6c47cc4c2e69"},"vehicle_type_id":"4","last_reported":1740334250,"current_range_meters":9200,"station_id":"cpo36qri1sfpv3e86is0","pricing_plan_id":"cebpf4jnsgd1na2vs0mg"},{"bike_id":"1cc3827a-5639-4796-a7d3-84bae7b1c6bd","system_id":"levelo_inurba_marseille","lat":43.30931,"lon":5.4014,"is_reserved":false,"is_disabled":false,"rental_uris":{"android":"levelo://app?vid=1cc3827a-5639-4796-a7d3-84bae7b1c6bd","ios":"levelo://app?vid=1cc3827a-5639-4796-a7d3-84bae7b1c6bd"},"vehicle_type_id":"4","last_reported":1740334250,"current_range_meters":9200,"station_id":"ce4bgvp2rcd13ifvqct0","pricing_plan_id":"cebpf4jnsgd1na2vs0mg"},{"bike_id":"80e30e07-59ff-4807-b06b-c6dc1a9e08e2","system_id":"levelo_inurba_marseille","lat":43.33625,"lon":5.40986,"is_reserved":false,"is_disabled":true,"rental_uris":{"android":"levelo://app?vid=80e30e07-59ff-4807-b06b-c6dc1a9e08e2","ios":"levelo://app?vid=80e30e07-59ff-4807-b06b-c6dc1a9e08e2"},"vehicle_type_id":"4","last_reported":1740334250,"current_range_meters":9200,"station_id":"ce4bhqh2rcd13ifvqhmg","pricing_plan_id":"cebpf4jnsgd1na2vs0mg"},{"bike_id":"e3991bf5-74ea-47f3-b966-8aae3ab90bf9","system_id":"levelo_inurba_marseille","lat":43.29518,"lon":5.39029,"is_reserved":false,"is_disabled":false,"rental_uris":{"android":"levelo://app?vid=e3991bf5-74ea-47f3-b966-8aae3ab90bf9","ios":"levelo://app?vid=e3991bf5-74ea-47f3-b966-8aae3ab90bf9"},"vehicle_type_id":"4","last_reported":1740334250,"current_range_meters":9200,"station_id":"ce4bh3p2rcd13ifvqdp0","pricing_plan_id":"cebpf4jnsgd1na2vs0mg"},{"bike_id":"29650867-8940-4841-a916-364c03d32b37","system_id":"levelo_inurba_marseille","lat":43.29552,"lon":5.42281,"is_reserved":false,"is_disabled":false,"rental_uris":{"android":"levelo://app?vid=29650867-8940-4841-a916-364c03d32b37","ios":"levelo://app?vid=29650867-8940-4841-a916-364c03d32b37"},"vehicle_type_id":"4","last_reported":1740334250,"current_range_meters":8800,"station_id":"ce4bhph2rcd13ifvqhdg","pricing_plan_id":"cebpf4jnsgd1na2vs0mg"},{"bike_id":"e0c1d965-9bb5-48f6-93c4-81a00c3e7849","system_id":"levelo_inurba_marseille","lat":43.27072,"lon":5.42275,"is_reserved":false,"is_disabled":false,"rental_uris":{"android":"levelo://app?vid=e0c1d965-9bb5-48f6-93c4-81a00c3e7849","ios":"levelo://app?vid=e0c1d965-9bb5-48f6-93c4-81a00c3e7849"},"vehicle_type_id":"4","last_reported":1740334250,"current_range_meters":9200,"station_id":"ce4bhk92rcd13ifvqgb0","pricing_plan_id":"cebpf4jnsgd1na2vs0mg"},{"bike_id":"f1d259fc-9177-4a5c-a847-5b547d294945","system_id":"levelo_inurba_marseille","lat":43.28338,"lon":5.38111,"is_reserved":false,"is_disabled":false,"rental_uris":{"android":"levelo://app?vid=f1d259fc-9177-4a5c-a847-5b547d294945","ios":"levelo://app?vid=f1d259fc-9177-4a5c-a847-5b547d294945"},"vehicle_type_id":"4","last_reported":1740334250,"current_range_meters":9200,"station_id":"ce4bh412rcd13ifvqdr0","pricing_plan_id":"cebpf4jnsgd1na2vs0mg"},{"bike_id":"94b4bc71-e527-48bf-887a-633df7141cac","system_id":"levelo_inurba_marseille","lat":43.28702,"lon":5.39975,"is_reserved":false,"is_disabled":false,"rental_uris":{"android":"levelo://app?vid=94b4bc71-e527-48bf-887a-633df7141cac","ios":"levelo://app?vid=94b4bc71-e527-48bf-887a-633df7141cac"},"vehicle_type_id":"4","last_reported":1740334250,"current_range_meters":9200,"station_id":"ce4bho92rcd13ifvqh3g","pricing_plan_id":"cebpf4jnsgd1na2vs0mg"},{"bike_id":"c9ab8718-ee5f-4f69-a672-13c52d404469","system_id":"levelo_inurba_marseille","lat":43.29102,"lon":5.3813,"is_reserved":false,"is_disabled":false,"rental_uris":{"android":"levelo://app?vid=c9ab8718-ee5f-4f69-a672-13c52d404469","ios":"levelo://app?vid=c9ab8718-ee5f-4f69-a672-13c52d404469"},"vehicle_type_id":"4","last_reported":1740334250,"current_range_meters":8400,"station_id":"ce4bh512rcd13ifvqe2g","pricing_plan_id":"cebpf4jnsgd1na2vs0mg"},{"bike_id":"f915e2e3-065b-45e4-9be9-314b89e9e457","system_id":"levelo_inurba_marseille","lat":43.29197,"lon":5.35803,"is_reserved":false,"is_disabled":false,"rental_uris":{"android":"levelo://app?vid=f915e2e3-065b-45e4-9be9-314b89e9e457","ios":"levelo://app?vid=f915e2e3-065b-45e4-9be9-314b89e9e457"},"vehicle_type_id":"4","last_reported":1740334250,"current_range_meters":8800,"station_id":"ce4bhb12rcd13ifvqel0","pricing_plan_id":"cebpf4jnsgd1na2vs0mg"},{"bike_id":"1204372a-9085-4664-8bdd-e79bd3d3695c","system_id":"levelo_inurba_marseille","lat":43.28479,"lon":5.38429,"is_reserved":false,"is_disabled":false,"rental_uris":{"android":"levelo://app?vid=1204372a-9085-4664-8bdd-e79bd3d3695c","ios":"levelo://app?vid=1204372a-9085-4664-8bdd-e79bd3d3695c"},"vehicle_type_id":"4","last_reported":1740334250,"current_range_meters":9600,"station_id":"ce4bh512rcd13ifvqe3g","pricing_plan_id":"cebpf4jnsgd1na2vs0mg"},{"bike_id":"659f5779-fc22-47e7-8468-a2002ffd5727","system_id":"levelo_inurba_marseille","lat":43.29798,"lon":5.3934,"is_reserved":false,"is_disabled":false,"rental_uris":{"android":"levelo://app?vid=659f5779-fc22-47e7-8468-a2002ffd5727","ios":"levelo://app?vid=659f5779-fc22-47e7-8468-a2002ffd5727"},"vehicle_type_id":"4","last_reported":1740334250,"current_range_meters":9200,"station_id":"chh1huq6cuj3fo74tm60","pricing_plan_id":"cebpf4jnsgd1na2vs0mg"},{"bike_id":"331722d8-2645-4b84-81df-6a2aef51a19e","system_id":"levelo_inurba_marseille","lat":43.25136,"lon":5.40318,"is_reserved":false,"is_disabled":false,"rental_uris":{"android":"levelo://app?vid=331722d8-2645-4b84-81df-6a2aef51a19e","ios":"levelo://app?vid=331722d8-2645-4b84-81df-6a2aef51a19e"},"vehicle_type_id":"4","last_reported":1740334250,"current_range_meters":9600,"station_id":"ce4bhlh2rcd13ifvqgig","pricing_plan_id":"cebpf4jnsgd1na2vs0mg"},{"bike_id":"4740243d-2a32-4df0-bbfe-2a7211c92627","system_id":"levelo_inurba_marseille","lat":43.28427,"lon":5.37531,"is_reserved":false,"is_disabled":false,"rental_uris":{"android":"levelo://app?vid=4740243d-2a32-4df0-bbfe-2a7211c92627","ios":"levelo://app?vid=4740243d-2a32-4df0-bbfe-2a7211c92627"},"vehicle_type_id":"4","last_reported":1740334250,"current_range_meters":9600,"station_id":"ce4bh412rcd13ifvqds0","pricing_plan_id":"cebpf4jnsgd1na2vs0mg"},{"bike_id":"8a61dfa2-9beb-462e-8fd7-bbce2f43c5ea","system_id":"levelo_inurba_marseille","lat":43.29259,"lon":5.38437,"is_reserved":false,"is_disabled":false,"rental_uris":{"android":"levelo://app?vid=8a61dfa2-9beb-462e-8fd7-bbce2f43c5ea","ios":"levelo://app?vid=8a61dfa2-9beb-462e-8fd7-bbce2f43c5ea"},"vehicle_type_id":"4","last_reported":1740334250,"current_range_meters":9600,"station_id":"ce4bh692rcd13ifvqea0","pricing_plan_id":"cebpf4jnsgd1na2vs0mg"},{"bike_id":"e081d557-188e-4e25-ac23-e03c2aa9ae41","system_id":"levelo_inurba_marseille","lat":43.29521,"lon":5.394,"is_reserved":false,"is_disabled":false,"rental_uris":{"android":"levelo://app?vid=e081d557-188e-4e25-ac23-e03c2aa9ae41","ios":"levelo://app?vid=e081d557-188e-4e25-ac23-e03c2aa9ae41"},"vehicle_type_id":"4","last_reported":1740334250,"current_range_meters":9600,"station_id":"ce4bh292rcd13ifvqdf0","pricing_plan_id":"cebpf4jnsgd1na2vs0mg"},{"bike_id":"ea7e3de9-37ca-4851-8757-99555fe7bbaf","system_id":"levelo_inurba_marseille","lat":43.2509,"lon":5.39534,"is_reserved":false,"is_disabled":false,"rental_uris":{"android":"levelo://app?vid=ea7e3de9-37ca-4851-8757-99555fe7bbaf","ios":"levelo://app?vid=ea7e3de9-37ca-4851-8757-99555fe7bbaf"},"vehicle_type_id":"4","last_reported":1740334250,"current_range_meters":9600,"station_id":"ce4bhm12rcd13ifvqgkg","pricing_plan_id":"cebpf4jnsgd1na2vs0mg"},{"bike_id":"56ea01ce-cd35-4f93-9e6c-b2e5f8e6e8ca","system_id":"levelo_inurba_marseille","lat":43.28477,"lon":5.3841,"is_reserved":false,"is_disabled":false,"rental_uris":{"android":"levelo://app?vid=56ea01ce-cd35-4f93-9e6c-b2e5f8e6e8ca","ios":"levelo://app?vid=56ea01ce-cd35-4f93-9e6c-b2e5f8e6e8ca"},"vehicle_type_id":"4","last_reported":1740334250,"current_range_meters":9600,"station_id":"ce4bh512rcd13ifvqe3g","pricing_plan_id":"cebpf4jnsgd1na2vs0mg"},{"bike_id":"aa2ee352-5a91-4b04-8ca1-d76b46e145bb","system_id":"levelo_inurba_marseille","lat":43.29782,"lon":5.39342,"is_reserved":false,"is_disabled":false,"rental_uris":{"android":"levelo://app?vid=aa2ee352-5a91-4b04-8ca1-d76b46e145bb","ios":"levelo://app?vid=aa2ee352-5a91-4b04-8ca1-d76b46e145bb"},"vehicle_type_id":"4","last_reported":1740334250,"current_range_meters":9200,"station_id":"chh1huq6cuj3fo74tm60","pricing_plan_id":"cebpf4jnsgd1na2vs0mg"},{"bike_id":"c9488d5f-a1d7-494f-b1d5-67657d9a80b2","system_id":"levelo_inurba_marseille","lat":43.28712,"lon":5.37384,"is_reserved":false,"is_disabled":false,"rental_uris":{"android":"levelo://app?vid=c9488d5f-a1d7-494f-b1d5-67657d9a80b2","ios":"levelo://app?vid=c9488d5f-a1d7-494f-b1d5-67657d9a80b2"},"vehicle_type_id":"4","last_reported":1740334250,"current_range_meters":10000,"station_id":"ce4bh3p2rcd13ifvqdq0","pricing_plan_id":"cebpf4jnsgd1na2vs0mg"},{"bike_id":"095d5026-b6cb-411c-ab71-6c60703e2b2f","system_id":"levelo_inurba_marseille","lat":43.23056,"lon":5.3549,"is_reserved":false,"is_disabled":true,"rental_uris":{"android":"levelo://app?vid=095d5026-b6cb-411c-ab71-6c60703e2b2f","ios":"levelo://app?vid=095d5026-b6cb-411c-ab71-6c60703e2b2f"},"vehicle_type_id":"4","last_reported":1740334250,"current_range_meters":10000,"station_id":"cpo3342slgdg3j2ifvpg","pricing_plan_id":"cebpf4jnsgd1na2vs0mg"},{"bike_id":"083be3b9-5c59-42c6-9d75-c0fa0769423a","system_id":"levelo_inurba_marseille","lat":43.30336,"lon":5.3689,"is_reserved":false,"is_disabled":false,"rental_uris":{"android":"levelo://app?vid=083be3b9-5c59-42c6-9d75-c0fa0769423a","ios":"levelo://app?vid=083be3b9-5c59-42c6-9d75-c0fa0769423a"},"vehicle_type_id":"4","last_reported":1740334250,"current_range_meters":10000,"station_id":"ce4bgqh2rcd13ifvqc5g","pricing_plan_id":"cebpf4jnsgd1na2vs0mg"},{"bike_id":"78e9d158-cff5-4979-bb21-e9672a057a56","system_id":"levelo_inurba_marseille","lat":43.2957,"lon":5.3998,"is_reserved":false,"is_disabled":false,"rental_uris":{"android":"levelo://app?vid=78e9d158-cff5-4979-bb21-e9672a057a56","ios":"levelo://app?vid=78e9d158-cff5-4979-bb21-e9672a057a56"},"vehicle_type_id":"4","last_reported":1740334250,"current_range_meters":10800,"station_id":"ce4bh312rcd13ifvqdj0","pricing_plan_id":"cebpf4jnsgd1na2vs0mg"},{"bike_id":"5cc9c3bc-17a9-4dc8-b57e-faa94ac9530d","system_id":"levelo_inurba_marseille","lat":43.29258,"lon":5.40913,"is_reserved":false,"is_disabled":false,"rental_uris":{"android":"levelo://app?vid=5cc9c3bc-17a9-4dc8-b57e-faa94ac9530d","ios":"levelo://app?vid=5cc9c3bc-17a9-4dc8-b57e-faa94ac9530d"},"vehicle_type_id":"4","last_reported":1740334250,"current_range_meters":10800,"station_id":"ce4bh192rcd13ifvqdc0","pricing_plan_id":"cebpf4jnsgd1na2vs0mg"},{"bike_id":"72229c8a-2dc9-4b8d-83ab-082b79d7a411","system_id":"levelo_inurba_marseille","lat":43.30335,"lon":5.40424,"is_reserved":false,"is_disabled":false,"rental_uris":{"android":"levelo://app?vid=72229c8a-2dc9-4b8d-83ab-082b79d7a411","ios":"levelo://app?vid=72229c8a-2dc9-4b8d-83ab-082b79d7a411"},"vehicle_type_id":"4","last_reported":1740334250,"current_range_meters":10800,"station_id":"ce4bh012rcd13ifvqd10","pricing_plan_id":"cebpf4jnsgd1na2vs0mg"},{"bike_id":"a34024d2-bd78-4aa2-b9dd-e4711b4f4101","system_id":"levelo_inurba_marseille","lat":43.24391,"lon":5.37057,"is_reserved":false,"is_disabled":false,"rental_uris":{"android":"levelo://app?vid=a34024d2-bd78-4aa2-b9dd-e4711b4f4101","ios":"levelo://app?vid=a34024d2-bd78-4aa2-b9dd-e4711b4f4101"},"vehicle_type_id":"4","last_reported":1740334250,"current_range_meters":10800,"station_id":"ce4bhhh2rcd13ifvqfk0","pricing_plan_id":"cebpf4jnsgd1na2vs0mg"},{"bike_id":"f481d7c9-fee3-4476-9deb-273f37692d87","system_id":"levelo_inurba_marseille","lat":43.301453,"lon":5.38086,"is_reserved":false,"is_disabled":false,"rental_uris":{"android":"levelo://app?vid=f481d7c9-fee3-4476-9deb-273f37692d87","ios":"levelo://app?vid=f481d7c9-fee3-4476-9deb-273f37692d87"},"vehicle_type_id":"4","last_reported":1740334250,"current_range_meters":10000,"station_id":"ce4bhih2rcd13ifvqfr0","pricing_plan_id":"cebpf4jnsgd1na2vs0mg"},{"bike_id":"f038b90f-7238-4381-906a-e07a8d66f02a","system_id":"levelo_inurba_marseille","lat":43.25083,"lon":5.39507,"is_reserved":false,"is_disabled":false,"rental_uris":{"android":"levelo://app?vid=f038b90f-7238-4381-906a-e07a8d66f02a","ios":"levelo://app?vid=f038b90f-7238-4381-906a-e07a8d66f02a"},"vehicle_type_id":"4","last_reported":1740334250,"current_range_meters":10800,"station_id":"ce4bhm12rcd13ifvqgkg","pricing_plan_id":"cebpf4jnsgd1na2vs0mg"},{"bike_id":"8cd8e855-556a-49bb-858e-094e7857f894","system_id":"levelo_inurba_marseille","lat":43.2919,"lon":5.35794,"is_reserved":false,"is_disabled":true,"rental_uris":{"android":"levelo://app?vid=8cd8e855-556a-49bb-858e-094e7857f894","ios":"levelo://app?vid=8cd8e855-556a-49bb-858e-094e7857f894"},"vehicle_type_id":"4","last_reported":1740334250,"current_range_meters":10800,"station_id":"ce4bhb12rcd13ifvqel0","pricing_plan_id":"cebpf4jnsgd1na2vs0mg"},{"bike_id":"2eee6a4f-ea29-4df1-aba1-adb6bfdef7ad","system_id":"levelo_inurba_marseille","lat":43.30541,"lon":5.3656,"is_reserved":false,"is_disabled":false,"rental_uris":{"android":"levelo://app?vid=2eee6a4f-ea29-4df1-aba1-adb6bfdef7ad","ios":"levelo://app?vid=2eee6a4f-ea29-4df1-aba1-adb6bfdef7ad"},"vehicle_type_id":"4","last_reported":1740334250,"current_range_meters":10800,"station_id":"ce4bgs12rcd13ifvqcag","pricing_plan_id":"cebpf4jnsgd1na2vs0mg"},{"bike_id":"d8fe9461-3f19-4646-9471-9345bfd53bad","system_id":"levelo_inurba_marseille","lat":43.24386,"lon":5.37052,"is_reserved":false,"is_disabled":false,"rental_uris":{"android":"levelo://app?vid=d8fe9461-3f19-4646-9471-9345bfd53bad","ios":"levelo://app?vid=d8fe9461-3f19-4646-9471-9345bfd53bad"},"vehicle_type_id":"4","last_reported":1740334250,"current_range_meters":11200,"station_id":"ce4bhhh2rcd13ifvqfk0","pricing_plan_id":"cebpf4jnsgd1na2vs0mg"},{"bike_id":"30ed7215-be25-4896-860f-4f25f168022c","system_id":"levelo_inurba_marseille","lat":43.30142,"lon":5.38772,"is_reserved":false,"is_disabled":false,"rental_uris":{"android":"levelo://app?vid=30ed7215-be25-4896-860f-4f25f168022c","ios":"levelo://app?vid=30ed7215-be25-4896-860f-4f25f168022c"},"vehicle_type_id":"4","last_reported":1740334250,"current_range_meters":9600,"station_id":"ce4bghh2rcd13ifvqb60","pricing_plan_id":"cebpf4jnsgd1na2vs0mg"},{"bike_id":"618f913e-cba8-4c50-a313-a42d4485f0ce","system_id":"levelo_inurba_marseille","lat":43.30555,"lon":5.36707,"is_reserved":false,"is_disabled":true,"rental_uris":{"android":"levelo://app?vid=618f913e-cba8-4c50-a313-a42d4485f0ce","ios":"levelo://app?vid=618f913e-cba8-4c50-a313-a42d4485f0ce"},"vehicle_type_id":"4","last_reported":1740334250,"current_range_meters":11200,"station_id":"ce4bgrp2rcd13ifvqc9g","pricing_plan_id":"cebpf4jnsgd1na2vs0mg"},{"bike_id":"dffe7dfd-2479-4305-8f56-7a085afa46c5","system_id":"levelo_inurba_marseille","lat":43.26791,"lon":5.39409,"is_reserved":false,"is_disabled":false,"rental_uris":{"android":"levelo://app?vid=dffe7dfd-2479-4305-8f56-7a085afa46c5","ios":"levelo://app?vid=dffe7dfd-2479-4305-8f56-7a085afa46c5"},"vehicle_type_id":"4","last_reported":1740334250,"current_range_meters":11200,"station_id":"ce4bhh12rcd13ifvqfg0","pricing_plan_id":"cebpf4jnsgd1na2vs0mg"},{"bike_id":"6041431c-f644-4933-9ef4-c81e48d4ab9f","system_id":"levelo_inurba_marseille","lat":43.28159,"lon":5.42642,"is_reserved":false,"is_disabled":false,"rental_uris":{"android":"levelo://app?vid=6041431c-f644-4933-9ef4-c81e48d4ab9f","ios":"levelo://app?vid=6041431c-f644-4933-9ef4-c81e48d4ab9f"},"vehicle_type_id":"4","last_reported":1740334250,"current_range_meters":11200,"station_id":"ce4bhnh2rcd13ifvqgug","pricing_plan_id":"cebpf4jnsgd1na2vs0mg"},{"bike_id":"0ccc8745-e25f-4c29-b232-f4827e16145d","system_id":"levelo_inurba_marseille","lat":43.30432,"lon":5.38891,"is_reserved":false,"is_disabled":false,"rental_uris":{"android":"levelo://app?vid=0ccc8745-e25f-4c29-b232-f4827e16145d","ios":"levelo://app?vid=0ccc8745-e25f-4c29-b232-f4827e16145d"},"vehicle_type_id":"4","last_reported":1740334250,"current_range_meters":11200,"station_id":"ce4bgk12rcd13ifvqbi0","pricing_plan_id":"cebpf4jnsgd1na2vs0mg"},{"bike_id":"3eabed55-1755-4c8a-a17a-112cf1b90e1c","system_id":"levelo_inurba_marseille","lat":43.30921,"lon":5.39677,"is_reserved":false,"is_disabled":false,"rental_uris":{"android":"levelo://app?vid=3eabed55-1755-4c8a-a17a-112cf1b90e1c","ios":"levelo://app?vid=3eabed55-1755-4c8a-a17a-112cf1b90e1c"},"vehicle_type_id":"4","last_reported":1740334250,"current_range_meters":14400,"station_id":"ce4bh012rcd13ifvqcv0","pricing_plan_id":"cebpf4jnsgd1na2vs0mg"},{"bike_id":"a325bed6-7fa3-4389-bac0-25373636330e","system_id":"levelo_inurba_marseille","lat":43.23191,"lon":5.39972,"is_reserved":false,"is_disabled":false,"rental_uris":{"android":"levelo://app?vid=a325bed6-7fa3-4389-bac0-25373636330e","ios":"levelo://app?vid=a325bed6-7fa3-4389-bac0-25373636330e"},"vehicle_type_id":"4","last_reported":1740334250,"current_range_meters":11600,"station_id":"ce4bhn12rcd13ifvqgqg","pricing_plan_id":"cebpf4jnsgd1na2vs0mg"},{"bike_id":"ab7da9df-c7ed-482b-9961-43b5cca3e34b","system_id":"levelo_inurba_marseille","lat":43.31125,"lon":5.37777,"is_reserved":false,"is_disabled":true,"rental_uris":{"android":"levelo://app?vid=ab7da9df-c7ed-482b-9961-43b5cca3e34b","ios":"levelo://app?vid=ab7da9df-c7ed-482b-9961-43b5cca3e34b"},"vehicle_type_id":"4","last_reported":1740334250,"current_range_meters":11600,"station_id":"ce4bgt92rcd13ifvqcg0","pricing_plan_id":"cebpf4jnsgd1na2vs0mg"},{"bike_id":"fb44b31f-7afc-4a5c-8b14-6d56005aa669","system_id":"levelo_inurba_marseille","lat":43.28989,"lon":5.43249,"is_reserved":false,"is_disabled":false,"rental_uris":{"android":"levelo://app?vid=fb44b31f-7afc-4a5c-8b14-6d56005aa669","ios":"levelo://app?vid=fb44b31f-7afc-4a5c-8b14-6d56005aa669"},"vehicle_type_id":"4","last_reported":1740334250,"current_range_meters":11600,"station_id":"","pricing_plan_id":"cebpf4jnsgd1na2vs0mg"},{"bike_id":"6a187c08-05e9-422a-9b38-659c962c07cc","system_id":"levelo_inurba_marseille","lat":43.26934,"lon":5.38913,"is_reserved":false,"is_disabled":false,"rental_uris":{"android":"levelo://app?vid=6a187c08-05e9-422a-9b38-659c962c07cc","ios":"levelo://app?vid=6a187c08-05e9-422a-9b38-659c962c07cc"},"vehicle_type_id":"4","last_reported":1740334250,"current_range_meters":11600,"station_id":"ce4bhhh2rcd13ifvqfl0","pricing_plan_id":"cebpf4jnsgd1na2vs0mg"},{"bike_id":"e18ee7ec-5031-40eb-9e8f-c04eb69cbf8d","system_id":"levelo_inurba_marseille","lat":43.280232,"lon":5.375305,"is_reserved":false,"is_disabled":false,"rental_uris":{"android":"levelo://app?vid=e18ee7ec-5031-40eb-9e8f-c04eb69cbf8d","ios":"levelo://app?vid=e18ee7ec-5031-40eb-9e8f-c04eb69cbf8d"},"vehicle_type_id":"4","last_reported":1740334250,"current_range_meters":11600,"station_id":"ce4bh512rcd13ifvqe3g","pricing_plan_id":"cebpf4jnsgd1na2vs0mg"},{"bike_id":"47c58b1f-0f04-4a95-ba73-4d794abee5f2","system_id":"levelo_inurba_marseille","lat":43.30433,"lon":5.38896,"is_reserved":false,"is_disabled":true,"rental_uris":{"android":"levelo://app?vid=47c58b1f-0f04-4a95-ba73-4d794abee5f2","ios":"levelo://app?vid=47c58b1f-0f04-4a95-ba73-4d794abee5f2"},"vehicle_type_id":"4","last_reported":1740334250,"current_range_meters":12000,"station_id":"ce4bgk12rcd13ifvqbi0","pricing_plan_id":"cebpf4jnsgd1na2vs0mg"},{"bike_id":"1127a561-55dc-461d-840d-fc4e71e9155a","system_id":"levelo_inurba_marseille","lat":43.29906,"lon":5.43673,"is_reserved":false,"is_disabled":false,"rental_uris":{"android":"levelo://app?vid=1127a561-55dc-461d-840d-fc4e71e9155a","ios":"levelo://app?vid=1127a561-55dc-461d-840d-fc4e71e9155a"},"vehicle_type_id":"4","last_reported":1740334250,"current_range_meters":12000,"station_id":"ce4bhpp2rcd13ifvqhfg","pricing_plan_id":"cebpf4jnsgd1na2vs0mg"},{"bike_id":"54a6b0ba-8381-4a72-830c-622766c32199","system_id":"levelo_inurba_marseille","lat":43.32101,"lon":5.36786,"is_reserved":false,"is_disabled":false,"rental_uris":{"android":"levelo://app?vid=54a6b0ba-8381-4a72-830c-622766c32199","ios":"levelo://app?vid=54a6b0ba-8381-4a72-830c-622766c32199"},"vehicle_type_id":"4","last_reported":1740334250,"current_range_meters":12000,"station_id":"ce4bhrh2rcd13ifvqhug","pricing_plan_id":"cebpf4jnsgd1na2vs0mg"},{"bike_id":"e61c2b74-4ece-46bf-bf8e-6ea12dcb1ec2","system_id":"levelo_inurba_marseille","lat":43.30599,"lon":5.39352,"is_reserved":false,"is_disabled":true,"rental_uris":{"android":"levelo://app?vid=e61c2b74-4ece-46bf-bf8e-6ea12dcb1ec2","ios":"levelo://app?vid=e61c2b74-4ece-46bf-bf8e-6ea12dcb1ec2"},"vehicle_type_id":"4","last_reported":1740334250,"current_range_meters":12000,"station_id":"ce4bh0p2rcd13ifvqd80","pricing_plan_id":"cebpf4jnsgd1na2vs0mg"},{"bike_id":"c5f83301-2f6c-477d-b7e8-6acbef8c3157","system_id":"levelo_inurba_marseille","lat":43.29106,"lon":5.38132,"is_reserved":false,"is_disabled":false,"rental_uris":{"android":"levelo://app?vid=c5f83301-2f6c-477d-b7e8-6acbef8c3157","ios":"levelo://app?vid=c5f83301-2f6c-477d-b7e8-6acbef8c3157"},"vehicle_type_id":"4","last_reported":1740334250,"current_range_meters":12000,"station_id":"ce4bh512rcd13ifvqe2g","pricing_plan_id":"cebpf4jnsgd1na2vs0mg"},{"bike_id":"c5efbbdb-3a7b-4ee0-a029-cdb10561b873","system_id":"levelo_inurba_marseille","lat":43.289557,"lon":5.366562,"is_reserved":false,"is_disabled":false,"rental_uris":{"android":"levelo://app?vid=c5efbbdb-3a7b-4ee0-a029-cdb10561b873","ios":"levelo://app?vid=c5efbbdb-3a7b-4ee0-a029-cdb10561b873"},"vehicle_type_id":"4","last_reported":1740334250,"current_range_meters":11600,"station_id":"ce4bhn12rcd13ifvqgqg","pricing_plan_id":"cebpf4jnsgd1na2vs0mg"},{"bike_id":"a3610751-bbe4-4d3e-a717-1a0eebd2fb2a","system_id":"levelo_inurba_marseille","lat":43.30673,"lon":5.37522,"is_reserved":false,"is_disabled":false,"rental_uris":{"android":"levelo://app?vid=a3610751-bbe4-4d3e-a717-1a0eebd2fb2a","ios":"levelo://app?vid=a3610751-bbe4-4d3e-a717-1a0eebd2fb2a"},"vehicle_type_id":"4","last_reported":1740334250,"current_range_meters":12000,"station_id":"","pricing_plan_id":"cebpf4jnsgd1na2vs0mg"},{"bike_id":"7750f438-e28b-41d7-ab3d-3867ef02efd6","system_id":"levelo_inurba_marseille","lat":43.30775,"lon":5.38136,"is_reserved":false,"is_disabled":false,"rental_uris":{"android":"levelo://app?vid=7750f438-e28b-41d7-ab3d-3867ef02efd6","ios":"levelo://app?vid=7750f438-e28b-41d7-ab3d-3867ef02efd6"},"vehicle_type_id":"4","last_reported":1740334250,"current_range_meters":12400,"station_id":"ce4bgt12rcd13ifvqce0","pricing_plan_id":"cebpf4jnsgd1na2vs0mg"},{"bike_id":"0e17628e-77f1-4b2d-9900-e51a8c9f0181","system_id":"levelo_inurba_marseille","lat":43.28885,"lon":5.44999,"is_reserved":false,"is_disabled":false,"rental_uris":{"android":"levelo://app?vid=0e17628e-77f1-4b2d-9900-e51a8c9f0181","ios":"levelo://app?vid=0e17628e-77f1-4b2d-9900-e51a8c9f0181"},"vehicle_type_id":"4","last_reported":1740334250,"current_range_meters":12400,"station_id":"","pricing_plan_id":"cebpf4jnsgd1na2vs0mg"},{"bike_id":"5b11e0e4-4d93-4d98-8d41-3835be00a81b","system_id":"levelo_inurba_marseille","lat":43.29265,"lon":5.38426,"is_reserved":false,"is_disabled":false,"rental_uris":{"android":"levelo://app?vid=5b11e0e4-4d93-4d98-8d41-3835be00a81b","ios":"levelo://app?vid=5b11e0e4-4d93-4d98-8d41-3835be00a81b"},"vehicle_type_id":"4","last_reported":1740334250,"current_range_meters":12400,"station_id":"ce4bh692rcd13ifvqea0","pricing_plan_id":"cebpf4jnsgd1na2vs0mg"},{"bike_id":"8d60d634-973e-4a82-8ea0-70920e472946","system_id":"levelo_inurba_marseille","lat":43.27923,"lon":5.3961,"is_reserved":false,"is_disabled":false,"rental_uris":{"android":"levelo://app?vid=8d60d634-973e-4a82-8ea0-70920e472946","ios":"levelo://app?vid=8d60d634-973e-4a82-8ea0-70920e472946"},"vehicle_type_id":"4","last_reported":1740334250,"current_range_meters":12400,"station_id":"ce4bhf92rcd13ifvqf40","pricing_plan_id":"cebpf4jnsgd1na2vs0mg"},{"bike_id":"8f0d6d50-5d87-443d-b4dd-e47f48ed5999","system_id":"levelo_inurba_marseille","lat":43.30133,"lon":5.39854,"is_reserved":false,"is_disabled":false,"rental_uris":{"android":"levelo://app?vid=8f0d6d50-5d87-443d-b4dd-e47f48ed5999","ios":"levelo://app?vid=8f0d6d50-5d87-443d-b4dd-e47f48ed5999"},"vehicle_type_id":"4","last_reported":1740334250,"current_range_meters":12400,"station_id":"ce4bh0h2rcd13ifvqd40","pricing_plan_id":"cebpf4jnsgd1na2vs0mg"},{"bike_id":"cd66933e-7fc9-43c1-90fd-5c673a7bb230","system_id":"levelo_inurba_marseille","lat":43.26502,"lon":5.39541,"is_reserved":false,"is_disabled":false,"rental_uris":{"android":"levelo://app?vid=cd66933e-7fc9-43c1-90fd-5c673a7bb230","ios":"levelo://app?vid=cd66933e-7fc9-43c1-90fd-5c673a7bb230"},"vehicle_type_id":"4","last_reported":1740334250,"current_range_meters":12000,"station_id":"ce4bhi12rcd13ifvqfq0","pricing_plan_id":"cebpf4jnsgd1na2vs0mg"},{"bike_id":"35f7fe5f-b05d-405c-a155-dda0758733e2","system_id":"levelo_inurba_marseille","lat":43.2815,"lon":5.42636,"is_reserved":false,"is_disabled":true,"rental_uris":{"android":"levelo://app?vid=35f7fe5f-b05d-405c-a155-dda0758733e2","ios":"levelo://app?vid=35f7fe5f-b05d-405c-a155-dda0758733e2"},"vehicle_type_id":"4","last_reported":1740334250,"current_range_meters":12400,"station_id":"ce4bhnh2rcd13ifvqgug","pricing_plan_id":"cebpf4jnsgd1na2vs0mg"},{"bike_id":"d5e7bc80-f6f2-43a0-8146-d58d5a7d3fb1","system_id":"levelo_inurba_marseille","lat":43.26787,"lon":5.39408,"is_reserved":false,"is_disabled":false,"rental_uris":{"android":"levelo://app?vid=d5e7bc80-f6f2-43a0-8146-d58d5a7d3fb1","ios":"levelo://app?vid=d5e7bc80-f6f2-43a0-8146-d58d5a7d3fb1"},"vehicle_type_id":"4","last_reported":1740334250,"current_range_meters":12400,"station_id":"ce4bhh12rcd13ifvqfg0","pricing_plan_id":"cebpf4jnsgd1na2vs0mg"},{"bike_id":"70dd6c6d-97df-46a6-9f93-1c3e41882d39","system_id":"levelo_inurba_marseille","lat":43.29267,"lon":5.38439,"is_reserved":false,"is_disabled":false,"rental_uris":{"android":"levelo://app?vid=70dd6c6d-97df-46a6-9f93-1c3e41882d39","ios":"levelo://app?vid=70dd6c6d-97df-46a6-9f93-1c3e41882d39"},"vehicle_type_id":"4","last_reported":1740334250,"current_range_meters":12400,"station_id":"ce4bh692rcd13ifvqea0","pricing_plan_id":"cebpf4jnsgd1na2vs0mg"},{"bike_id":"a41e6b05-94ec-4009-89d4-9d01ed4a507d","system_id":"levelo_inurba_marseille","lat":43.30885,"lon":5.37204,"is_reserved":false,"is_disabled":false,"rental_uris":{"android":"levelo://app?vid=a41e6b05-94ec-4009-89d4-9d01ed4a507d","ios":"levelo://app?vid=a41e6b05-94ec-4009-89d4-9d01ed4a507d"},"vehicle_type_id":"4","last_reported":1740334250,"current_range_meters":12400,"station_id":"ce4bguh2rcd13ifvqckg","pricing_plan_id":"cebpf4jnsgd1na2vs0mg"},{"bike_id":"1c922568-9aa9-49f3-947b-5cda9646a869","system_id":"levelo_inurba_marseille","lat":43.2816,"lon":5.42639,"is_reserved":false,"is_disabled":false,"rental_uris":{"android":"levelo://app?vid=1c922568-9aa9-49f3-947b-5cda9646a869","ios":"levelo://app?vid=1c922568-9aa9-49f3-947b-5cda9646a869"},"vehicle_type_id":"4","last_reported":1740334250,"current_range_meters":12400,"station_id":"ce4bhnh2rcd13ifvqgug","pricing_plan_id":"cebpf4jnsgd1na2vs0mg"},{"bike_id":"7ca97e69-d258-4d13-b7d3-f8a5e2d4295c","system_id":"levelo_inurba_marseille","lat":43.29203,"lon":5.39316,"is_reserved":false,"is_disabled":false,"rental_uris":{"android":"levelo://app?vid=7ca97e69-d258-4d13-b7d3-f8a5e2d4295c","ios":"levelo://app?vid=7ca97e69-d258-4d13-b7d3-f8a5e2d4295c"},"vehicle_type_id":"4","last_reported":1740334250,"current_range_meters":12400,"station_id":"ce4bh192rcd13ifvqdd0","pricing_plan_id":"cebpf4jnsgd1na2vs0mg"},{"bike_id":"63840aff-b135-4a66-a3e1-1592eb73987c","system_id":"levelo_inurba_marseille","lat":43.28933,"lon":5.39626,"is_reserved":false,"is_disabled":false,"rental_uris":{"android":"levelo://app?vid=63840aff-b135-4a66-a3e1-1592eb73987c","ios":"levelo://app?vid=63840aff-b135-4a66-a3e1-1592eb73987c"},"vehicle_type_id":"4","last_reported":1740334250,"current_range_meters":12800,"station_id":"ce4bh3h2rcd13ifvqdn0","pricing_plan_id":"cebpf4jnsgd1na2vs0mg"},{"bike_id":"6e15618d-4d2d-4cdc-9d90-2b87c6806ce4","system_id":"levelo_inurba_marseille","lat":43.27169,"lon":5.41002,"is_reserved":false,"is_disabled":false,"rental_uris":{"android":"levelo://app?vid=6e15618d-4d2d-4cdc-9d90-2b87c6806ce4","ios":"levelo://app?vid=6e15618d-4d2d-4cdc-9d90-2b87c6806ce4"},"vehicle_type_id":"4","last_reported":1740334250,"current_range_meters":12800,"station_id":"ce4bhl12rcd13ifvqgf0","pricing_plan_id":"cebpf4jnsgd1na2vs0mg"},{"bike_id":"99336520-3ecc-4a8a-afa1-32a05d41d3c8","system_id":"levelo_inurba_marseille","lat":43.27927,"lon":5.39584,"is_reserved":false,"is_disabled":false,"rental_uris":{"android":"levelo://app?vid=99336520-3ecc-4a8a-afa1-32a05d41d3c8","ios":"levelo://app?vid=99336520-3ecc-4a8a-afa1-32a05d41d3c8"},"vehicle_type_id":"4","last_reported":1740334250,"current_range_meters":13600,"station_id":"ce4bhf92rcd13ifvqf40","pricing_plan_id":"cebpf4jnsgd1na2vs0mg"},{"bike_id":"d0faabc9-8e18-4f11-8f01-8ceb29a478f6","system_id":"levelo_inurba_marseille","lat":43.28474,"lon":5.38415,"is_reserved":false,"is_disabled":false,"rental_uris":{"android":"levelo://app?vid=d0faabc9-8e18-4f11-8f01-8ceb29a478f6","ios":"levelo://app?vid=d0faabc9-8e18-4f11-8f01-8ceb29a478f6"},"vehicle_type_id":"4","last_reported":1740334250,"current_range_meters":13600,"station_id":"ce4bh512rcd13ifvqe3g","pricing_plan_id":"cebpf4jnsgd1na2vs0mg"},{"bike_id":"cada3c73-c554-4e0d-907b-733b2e3d2515","system_id":"levelo_inurba_marseille","lat":43.29048,"lon":5.39967,"is_reserved":false,"is_disabled":false,"rental_uris":{"android":"levelo://app?vid=cada3c73-c554-4e0d-907b-733b2e3d2515","ios":"levelo://app?vid=cada3c73-c554-4e0d-907b-733b2e3d2515"},"vehicle_type_id":"4","last_reported":1740334250,"current_range_meters":13600,"station_id":"ce4bh392rcd13ifvqdm0","pricing_plan_id":"cebpf4jnsgd1na2vs0mg"},{"bike_id":"bd3cd35d-8872-4079-b434-dfe718238ac3","system_id":"levelo_inurba_marseille","lat":43.32365,"lon":5.38885,"is_reserved":false,"is_disabled":false,"rental_uris":{"android":"levelo://app?vid=bd3cd35d-8872-4079-b434-dfe718238ac3","ios":"levelo://app?vid=bd3cd35d-8872-4079-b434-dfe718238ac3"},"vehicle_type_id":"4","last_reported":1740334250,"current_range_meters":13600,"station_id":"ce4bhqp2rcd13ifvqhog","pricing_plan_id":"cebpf4jnsgd1na2vs0mg"},{"bike_id":"9fdc5228-e835-4793-ad30-e5834cfd975b","system_id":"levelo_inurba_marseille","lat":43.2586,"lon":5.39904,"is_reserved":false,"is_disabled":false,"rental_uris":{"android":"levelo://app?vid=9fdc5228-e835-4793-ad30-e5834cfd975b","ios":"levelo://app?vid=9fdc5228-e835-4793-ad30-e5834cfd975b"},"vehicle_type_id":"4","last_reported":1740334250,"current_range_meters":13600,"station_id":"ce4bhl92rcd13ifvqghg","pricing_plan_id":"cebpf4jnsgd1na2vs0mg"},{"bike_id":"b49d5e52-ea0b-48d3-8a70-3d9ea3251436","system_id":"levelo_inurba_marseille","lat":43.30124,"lon":5.39871,"is_reserved":false,"is_disabled":true,"rental_uris":{"android":"levelo://app?vid=b49d5e52-ea0b-48d3-8a70-3d9ea3251436","ios":"levelo://app?vid=b49d5e52-ea0b-48d3-8a70-3d9ea3251436"},"vehicle_type_id":"4","last_reported":1740334250,"current_range_meters":14000,"station_id":"ce4bh0h2rcd13ifvqd40","pricing_plan_id":"cebpf4jnsgd1na2vs0mg"},{"bike_id":"0fb3d653-f99f-4896-bc45-6c89fdb9f8b3","system_id":"levelo_inurba_marseille","lat":43.25076,"lon":5.39514,"is_reserved":false,"is_disabled":false,"rental_uris":{"android":"levelo://app?vid=0fb3d653-f99f-4896-bc45-6c89fdb9f8b3","ios":"levelo://app?vid=0fb3d653-f99f-4896-bc45-6c89fdb9f8b3"},"vehicle_type_id":"4","last_reported":1740334250,"current_range_meters":14000,"station_id":"ce4bhm12rcd13ifvqgkg","pricing_plan_id":"cebpf4jnsgd1na2vs0mg"},{"bike_id":"9faf844a-413f-419f-bdea-64830f7f2bfb","system_id":"levelo_inurba_marseille","lat":43.29902,"lon":5.37851,"is_reserved":false,"is_disabled":false,"rental_uris":{"android":"levelo://app?vid=9faf844a-413f-419f-bdea-64830f7f2bfb","ios":"levelo://app?vid=9faf844a-413f-419f-bdea-64830f7f2bfb"},"vehicle_type_id":"4","last_reported":1740334250,"current_range_meters":14000,"station_id":"","pricing_plan_id":"cebpf4jnsgd1na2vs0mg"},{"bike_id":"e2a24ef5-94ed-43ec-86aa-bcc71aae6935","system_id":"levelo_inurba_marseille","lat":43.2903,"lon":5.3813,"is_reserved":false,"is_disabled":false,"rental_uris":{"android":"levelo://app?vid=e2a24ef5-94ed-43ec-86aa-bcc71aae6935","ios":"levelo://app?vid=e2a24ef5-94ed-43ec-86aa-bcc71aae6935"},"vehicle_type_id":"4","last_reported":1740334250,"current_range_meters":14000,"station_id":"ce4bh4p2rcd13ifvqe1g","pricing_plan_id":"cebpf4jnsgd1na2vs0mg"},{"bike_id":"860eff15-4aff-4d92-8690-98414ae73df2","system_id":"levelo_inurba_marseille","lat":43.26519,"lon":5.39031,"is_reserved":false,"is_disabled":true,"rental_uris":{"android":"levelo://app?vid=860eff15-4aff-4d92-8690-98414ae73df2","ios":"levelo://app?vid=860eff15-4aff-4d92-8690-98414ae73df2"},"vehicle_type_id":"4","last_reported":1740334250,"current_range_meters":14000,"station_id":"ce4bhe12rcd13ifvqf30","pricing_plan_id":"cebpf4jnsgd1na2vs0mg"},{"bike_id":"34b60e4e-03ef-486b-8103-9545ecdbc1e1","system_id":"levelo_inurba_marseille","lat":43.267795,"lon":5.39416,"is_reserved":false,"is_disabled":true,"rental_uris":{"android":"levelo://app?vid=34b60e4e-03ef-486b-8103-9545ecdbc1e1","ios":"levelo://app?vid=34b60e4e-03ef-486b-8103-9545ecdbc1e1"},"vehicle_type_id":"4","last_reported":1740334250,"current_range_meters":14400,"station_id":"ce4bhh12rcd13ifvqfg0","pricing_plan_id":"cebpf4jnsgd1na2vs0mg"},{"bike_id":"da7df266-28fd-4384-9928-1f7d6ae1c9ea","system_id":"levelo_inurba_marseille","lat":43.30219,"lon":5.39466,"is_reserved":false,"is_disabled":false,"rental_uris":{"android":"levelo://app?vid=da7df266-28fd-4384-9928-1f7d6ae1c9ea","ios":"levelo://app?vid=da7df266-28fd-4384-9928-1f7d6ae1c9ea"},"vehicle_type_id":"4","last_reported":1740334250,"current_range_meters":14400,"station_id":"ce4bh0p2rcd13ifvqd70","pricing_plan_id":"cebpf4jnsgd1na2vs0mg"},{"bike_id":"fe4b28eb-a54d-408b-a453-9901b4ea55ae","system_id":"levelo_inurba_marseille","lat":43.26684,"lon":5.38261,"is_reserved":false,"is_disabled":false,"rental_uris":{"android":"levelo://app?vid=fe4b28eb-a54d-408b-a453-9901b4ea55ae","ios":"levelo://app?vid=fe4b28eb-a54d-408b-a453-9901b4ea55ae"},"vehicle_type_id":"4","last_reported":1740334250,"current_range_meters":14400,"station_id":"ce4bhg92rcd13ifvqf90","pricing_plan_id":"cebpf4jnsgd1na2vs0mg"},{"bike_id":"6d3a28fb-ad8e-4099-ab7e-2f1842cf0da6","system_id":"levelo_inurba_marseille","lat":43.31996,"lon":5.38149,"is_reserved":false,"is_disabled":false,"rental_uris":{"android":"levelo://app?vid=6d3a28fb-ad8e-4099-ab7e-2f1842cf0da6","ios":"levelo://app?vid=6d3a28fb-ad8e-4099-ab7e-2f1842cf0da6"},"vehicle_type_id":"4","last_reported":1740334250,"current_range_meters":14800,"station_id":"ce4bhr12rcd13ifvqhpg","pricing_plan_id":"cebpf4jnsgd1na2vs0mg"},{"bike_id":"f4434e29-5640-48c8-baa8-5cca863a5ca0","system_id":"levelo_inurba_marseille","lat":43.25839,"lon":5.39449,"is_reserved":false,"is_disabled":false,"rental_uris":{"android":"levelo://app?vid=f4434e29-5640-48c8-baa8-5cca863a5ca0","ios":"levelo://app?vid=f4434e29-5640-48c8-baa8-5cca863a5ca0"},"vehicle_type_id":"4","last_reported":1740334250,"current_range_meters":14800,"station_id":"ce4bhip2rcd13ifvqft0","pricing_plan_id":"cebpf4jnsgd1na2vs0mg"},{"bike_id":"a502f599-e684-42e0-95e9-ce86b84d119a","system_id":"levelo_inurba_marseille","lat":43.27183,"lon":5.40997,"is_reserved":false,"is_disabled":false,"rental_uris":{"android":"levelo://app?vid=a502f599-e684-42e0-95e9-ce86b84d119a","ios":"levelo://app?vid=a502f599-e684-42e0-95e9-ce86b84d119a"},"vehicle_type_id":"4","last_reported":1740334250,"current_range_meters":14800,"station_id":"ce4bhl12rcd13ifvqgf0","pricing_plan_id":"cebpf4jnsgd1na2vs0mg"},{"bike_id":"fa0b5a55-f40d-4c9a-980c-5c80a2d53eea","system_id":"levelo_inurba_marseille","lat":43.24078,"lon":5.37756,"is_reserved":false,"is_disabled":false,"rental_uris":{"android":"levelo://app?vid=fa0b5a55-f40d-4c9a-980c-5c80a2d53eea","ios":"levelo://app?vid=fa0b5a55-f40d-4c9a-980c-5c80a2d53eea"},"vehicle_type_id":"4","last_reported":1740334250,"current_range_meters":14800,"station_id":"ce4bhnp2rcd13ifvqgvg","pricing_plan_id":"cebpf4jnsgd1na2vs0mg"},{"bike_id":"fc93a0cd-d658-4fe7-9e6a-52a49333f268","system_id":"levelo_inurba_marseille","lat":43.30817,"lon":5.3818,"is_reserved":false,"is_disabled":false,"rental_uris":{"android":"levelo://app?vid=fc93a0cd-d658-4fe7-9e6a-52a49333f268","ios":"levelo://app?vid=fc93a0cd-d658-4fe7-9e6a-52a49333f268"},"vehicle_type_id":"4","last_reported":1740334250,"current_range_meters":14800,"station_id":"ce4bgt12rcd13ifvqce0","pricing_plan_id":"cebpf4jnsgd1na2vs0mg"},{"bike_id":"26cb051d-7919-4602-ac82-634b7bf1e422","system_id":"levelo_inurba_marseille","lat":43.28099,"lon":5.37832,"is_reserved":false,"is_disabled":false,"rental_uris":{"android":"levelo://app?vid=26cb051d-7919-4602-ac82-634b7bf1e422","ios":"levelo://app?vid=26cb051d-7919-4602-ac82-634b7bf1e422"},"vehicle_type_id":"4","last_reported":1740334250,"current_range_meters":15200,"station_id":"ce4bha12rcd13ifvqee0","pricing_plan_id":"cebpf4jnsgd1na2vs0mg"},{"bike_id":"68c1cb49-7da1-4934-a025-4e78e338d091","system_id":"levelo_inurba_marseille","lat":43.337638,"lon":5.374412,"is_reserved":false,"is_disabled":false,"rental_uris":{"android":"levelo://app?vid=68c1cb49-7da1-4934-a025-4e78e338d091","ios":"levelo://app?vid=68c1cb49-7da1-4934-a025-4e78e338d091"},"vehicle_type_id":"4","last_reported":1740334250,"current_range_meters":15200,"station_id":"","pricing_plan_id":"cebpf4jnsgd1na2vs0mg"},{"bike_id":"ed9bb409-4650-44fb-9637-84e1052bef0b","system_id":"levelo_inurba_marseille","lat":43.29973,"lon":5.38481,"is_reserved":false,"is_disabled":false,"rental_uris":{"android":"levelo://app?vid=ed9bb409-4650-44fb-9637-84e1052bef0b","ios":"levelo://app?vid=ed9bb409-4650-44fb-9637-84e1052bef0b"},"vehicle_type_id":"4","last_reported":1740334250,"current_range_meters":15200,"station_id":"ce4bgj92rcd13ifvqbd0","pricing_plan_id":"cebpf4jnsgd1na2vs0mg"},{"bike_id":"3414b944-a9b7-4b1e-b288-cbf493bce065","system_id":"levelo_inurba_marseille","lat":43.29875,"lon":5.38897,"is_reserved":false,"is_disabled":false,"rental_uris":{"android":"levelo://app?vid=3414b944-a9b7-4b1e-b288-cbf493bce065","ios":"levelo://app?vid=3414b944-a9b7-4b1e-b288-cbf493bce065"},"vehicle_type_id":"4","last_reported":1740334250,"current_range_meters":16000,"station_id":"ce4bh392rcd13ifvqdl0","pricing_plan_id":"cebpf4jnsgd1na2vs0mg"},{"bike_id":"6d037411-3779-4371-a075-7368fc024295","system_id":"levelo_inurba_marseille","lat":43.28439,"lon":5.3918,"is_reserved":false,"is_disabled":false,"rental_uris":{"android":"levelo://app?vid=6d037411-3779-4371-a075-7368fc024295","ios":"levelo://app?vid=6d037411-3779-4371-a075-7368fc024295"},"vehicle_type_id":"4","last_reported":1740334250,"current_range_meters":16000,"station_id":"ce4bhoh2rcd13ifvqh5g","pricing_plan_id":"cebpf4jnsgd1na2vs0mg"},{"bike_id":"5c5e70b3-06e7-4cd5-b908-e29fd19ba3ea","system_id":"levelo_inurba_marseille","lat":43.30977,"lon":5.40085,"is_reserved":false,"is_disabled":false,"rental_uris":{"android":"levelo://app?vid=5c5e70b3-06e7-4cd5-b908-e29fd19ba3ea","ios":"levelo://app?vid=5c5e70b3-06e7-4cd5-b908-e29fd19ba3ea"},"vehicle_type_id":"4","last_reported":1740334250,"current_range_meters":16000,"station_id":"ce4bgvp2rcd13ifvqct0","pricing_plan_id":"cebpf4jnsgd1na2vs0mg"},{"bike_id":"aa73ce2e-9b14-4e71-8506-2e7b8cf492f7","system_id":"levelo_inurba_marseille","lat":43.29516,"lon":5.39392,"is_reserved":false,"is_disabled":false,"rental_uris":{"android":"levelo://app?vid=aa73ce2e-9b14-4e71-8506-2e7b8cf492f7","ios":"levelo://app?vid=aa73ce2e-9b14-4e71-8506-2e7b8cf492f7"},"vehicle_type_id":"4","last_reported":1740334250,"current_range_meters":16000,"station_id":"ce4bh292rcd13ifvqdf0","pricing_plan_id":"cebpf4jnsgd1na2vs0mg"},{"bike_id":"a85dea3d-d4f1-4002-bf3e-2b6ec1fa25b3","system_id":"levelo_inurba_marseille","lat":43.26226,"lon":5.40449,"is_reserved":false,"is_disabled":false,"rental_uris":{"android":"levelo://app?vid=a85dea3d-d4f1-4002-bf3e-2b6ec1fa25b3","ios":"levelo://app?vid=a85dea3d-d4f1-4002-bf3e-2b6ec1fa25b3"},"vehicle_type_id":"4","last_reported":1740334250,"current_range_meters":16000,"station_id":"ce4bhmh2rcd13ifvqgmg","pricing_plan_id":"cebpf4jnsgd1na2vs0mg"},{"bike_id":"b4e0215b-f2ff-46db-ba8e-290afa8d74a4","system_id":"levelo_inurba_marseille","lat":43.28931,"lon":5.36623,"is_reserved":false,"is_disabled":false,"rental_uris":{"android":"levelo://app?vid=b4e0215b-f2ff-46db-ba8e-290afa8d74a4","ios":"levelo://app?vid=b4e0215b-f2ff-46db-ba8e-290afa8d74a4"},"vehicle_type_id":"4","last_reported":1740334250,"current_range_meters":16000,"station_id":"ce4bhap2rcd13ifvqek0","pricing_plan_id":"cebpf4jnsgd1na2vs0mg"},{"bike_id":"9a2aa4dd-64da-4ff9-80ee-f00c626d69dc","system_id":"levelo_inurba_marseille","lat":43.32367,"lon":5.3889,"is_reserved":false,"is_disabled":false,"rental_uris":{"android":"levelo://app?vid=9a2aa4dd-64da-4ff9-80ee-f00c626d69dc","ios":"levelo://app?vid=9a2aa4dd-64da-4ff9-80ee-f00c626d69dc"},"vehicle_type_id":"4","last_reported":1740334250,"current_range_meters":16000,"station_id":"ce4bhqp2rcd13ifvqhog","pricing_plan_id":"cebpf4jnsgd1na2vs0mg"},{"bike_id":"cc83fd8b-e377-45ea-a62b-4928e4e4d221","system_id":"levelo_inurba_marseille","lat":43.28149,"lon":5.42642,"is_reserved":false,"is_disabled":false,"rental_uris":{"android":"levelo://app?vid=cc83fd8b-e377-45ea-a62b-4928e4e4d221","ios":"levelo://app?vid=cc83fd8b-e377-45ea-a62b-4928e4e4d221"},"vehicle_type_id":"4","last_reported":1740334250,"current_range_meters":16400,"station_id":"ce4bhnh2rcd13ifvqgug","pricing_plan_id":"cebpf4jnsgd1na2vs0mg"},{"bike_id":"51c7c09f-82e9-4a4b-a201-54869c0fba8f","system_id":"levelo_inurba_marseille","lat":43.25083,"lon":5.39513,"is_reserved":false,"is_disabled":true,"rental_uris":{"android":"levelo://app?vid=51c7c09f-82e9-4a4b-a201-54869c0fba8f","ios":"levelo://app?vid=51c7c09f-82e9-4a4b-a201-54869c0fba8f"},"vehicle_type_id":"4","last_reported":1740334250,"current_range_meters":16400,"station_id":"ce4bhm12rcd13ifvqgkg","pricing_plan_id":"cebpf4jnsgd1na2vs0mg"},{"bike_id":"87c93845-143c-4613-9a0d-08836448a26d","system_id":"levelo_inurba_marseille","lat":43.23963,"lon":5.36623,"is_reserved":false,"is_disabled":false,"rental_uris":{"android":"levelo://app?vid=87c93845-143c-4613-9a0d-08836448a26d","ios":"levelo://app?vid=87c93845-143c-4613-9a0d-08836448a26d"},"vehicle_type_id":"4","last_reported":1740334250,"current_range_meters":16400,"station_id":"ce4bhi12rcd13ifvqfp0","pricing_plan_id":"cebpf4jnsgd1na2vs0mg"},{"bike_id":"84ab67a6-6b3c-4b92-ac7d-399df2658698","system_id":"levelo_inurba_marseille","lat":43.30198,"lon":5.38076,"is_reserved":false,"is_disabled":false,"rental_uris":{"android":"levelo://app?vid=84ab67a6-6b3c-4b92-ac7d-399df2658698","ios":"levelo://app?vid=84ab67a6-6b3c-4b92-ac7d-399df2658698"},"vehicle_type_id":"4","last_reported":1740334250,"current_range_meters":16400,"station_id":"","pricing_plan_id":"cebpf4jnsgd1na2vs0mg"},{"bike_id":"a0dff11b-c127-4861-9a80-fa69368c2e62","system_id":"levelo_inurba_marseille","lat":43.28933,"lon":5.39625,"is_reserved":false,"is_disabled":false,"rental_uris":{"android":"levelo://app?vid=a0dff11b-c127-4861-9a80-fa69368c2e62","ios":"levelo://app?vid=a0dff11b-c127-4861-9a80-fa69368c2e62"},"vehicle_type_id":"4","last_reported":1740334250,"current_range_meters":16400,"station_id":"ce4bh3h2rcd13ifvqdn0","pricing_plan_id":"cebpf4jnsgd1na2vs0mg"},{"bike_id":"df531ccb-671c-40c7-b56f-ff7cf15bcad9","system_id":"levelo_inurba_marseille","lat":43.29031,"lon":5.39966,"is_reserved":false,"is_disabled":false,"rental_uris":{"android":"levelo://app?vid=df531ccb-671c-40c7-b56f-ff7cf15bcad9","ios":"levelo://app?vid=df531ccb-671c-40c7-b56f-ff7cf15bcad9"},"vehicle_type_id":"4","last_reported":1740334250,"current_range_meters":16800,"station_id":"ce4bh392rcd13ifvqdm0","pricing_plan_id":"cebpf4jnsgd1na2vs0mg"},{"bike_id":"81d7a458-6763-4549-a78f-b8ac6acab053","system_id":"levelo_inurba_marseille","lat":43.29099,"lon":5.38134,"is_reserved":false,"is_disabled":false,"rental_uris":{"android":"levelo://app?vid=81d7a458-6763-4549-a78f-b8ac6acab053","ios":"levelo://app?vid=81d7a458-6763-4549-a78f-b8ac6acab053"},"vehicle_type_id":"4","last_reported":1740334250,"current_range_meters":16800,"station_id":"ce4bh512rcd13ifvqe2g","pricing_plan_id":"cebpf4jnsgd1na2vs0mg"},{"bike_id":"022a32ce-7ed7-4dca-a233-e56a706a55f4","system_id":"levelo_inurba_marseille","lat":43.31119,"lon":5.37767,"is_reserved":false,"is_disabled":false,"rental_uris":{"android":"levelo://app?vid=022a32ce-7ed7-4dca-a233-e56a706a55f4","ios":"levelo://app?vid=022a32ce-7ed7-4dca-a233-e56a706a55f4"},"vehicle_type_id":"4","last_reported":1740334250,"current_range_meters":15200,"station_id":"ce4bgt92rcd13ifvqcg0","pricing_plan_id":"cebpf4jnsgd1na2vs0mg"},{"bike_id":"07133508-4066-4dc7-b956-5ea79c43700d","system_id":"levelo_inurba_marseille","lat":43.31268,"lon":5.40168,"is_reserved":false,"is_disabled":false,"rental_uris":{"android":"levelo://app?vid=07133508-4066-4dc7-b956-5ea79c43700d","ios":"levelo://app?vid=07133508-4066-4dc7-b956-5ea79c43700d"},"vehicle_type_id":"4","last_reported":1740334250,"current_range_meters":16400,"station_id":"ce4bh092rcd13ifvqd30","pricing_plan_id":"cebpf4jnsgd1na2vs0mg"},{"bike_id":"7fe0996e-2e24-4a3a-b975-03a2a20f6506","system_id":"levelo_inurba_marseille","lat":43.32366,"lon":5.36746,"is_reserved":false,"is_disabled":false,"rental_uris":{"android":"levelo://app?vid=7fe0996e-2e24-4a3a-b975-03a2a20f6506","ios":"levelo://app?vid=7fe0996e-2e24-4a3a-b975-03a2a20f6506"},"vehicle_type_id":"4","last_reported":1740334250,"current_range_meters":16800,"station_id":"ce4bhsh2rcd13ifvqi2g","pricing_plan_id":"cebpf4jnsgd1na2vs0mg"},{"bike_id":"f7fa3824-8b42-4bff-87c1-0df9b719385c","system_id":"levelo_inurba_marseille","lat":43.30883,"lon":5.39649,"is_reserved":false,"is_disabled":false,"rental_uris":{"android":"levelo://app?vid=f7fa3824-8b42-4bff-87c1-0df9b719385c","ios":"levelo://app?vid=f7fa3824-8b42-4bff-87c1-0df9b719385c"},"vehicle_type_id":"4","last_reported":1740334250,"current_range_meters":15200,"station_id":"ce4bh012rcd13ifvqcv0","pricing_plan_id":"cebpf4jnsgd1na2vs0mg"},{"bike_id":"d5259184-ba3a-4ef8-baa9-a623b2d430bd","system_id":"levelo_inurba_marseille","lat":43.29265,"lon":5.409,"is_reserved":false,"is_disabled":false,"rental_uris":{"android":"levelo://app?vid=d5259184-ba3a-4ef8-baa9-a623b2d430bd","ios":"levelo://app?vid=d5259184-ba3a-4ef8-baa9-a623b2d430bd"},"vehicle_type_id":"4","last_reported":1740334250,"current_range_meters":16800,"station_id":"ce4bh192rcd13ifvqdc0","pricing_plan_id":"cebpf4jnsgd1na2vs0mg"},{"bike_id":"5af9f220-0472-48cc-8979-84246ae4cf3d","system_id":"levelo_inurba_marseille","lat":43.28419,"lon":5.3751,"is_reserved":false,"is_disabled":false,"rental_uris":{"android":"levelo://app?vid=5af9f220-0472-48cc-8979-84246ae4cf3d","ios":"levelo://app?vid=5af9f220-0472-48cc-8979-84246ae4cf3d"},"vehicle_type_id":"4","last_reported":1740334250,"current_range_meters":16800,"station_id":"ce4bh412rcd13ifvqds0","pricing_plan_id":"cebpf4jnsgd1na2vs0mg"},{"bike_id":"1ef41376-cd3a-40a3-ae4a-f23a2a34fc30","system_id":"levelo_inurba_marseille","lat":43.27677,"lon":5.38907,"is_reserved":false,"is_disabled":true,"rental_uris":{"android":"levelo://app?vid=1ef41376-cd3a-40a3-ae4a-f23a2a34fc30","ios":"levelo://app?vid=1ef41376-cd3a-40a3-ae4a-f23a2a34fc30"},"vehicle_type_id":"4","last_reported":1740334250,"current_range_meters":17200,"station_id":"ce4bhi12rcd13ifvqfo0","pricing_plan_id":"cebpf4jnsgd1na2vs0mg"},{"bike_id":"6a24638d-50de-4446-87ae-efe953d22470","system_id":"levelo_inurba_marseille","lat":43.28933,"lon":5.383897,"is_reserved":false,"is_disabled":false,"rental_uris":{"android":"levelo://app?vid=6a24638d-50de-4446-87ae-efe953d22470","ios":"levelo://app?vid=6a24638d-50de-4446-87ae-efe953d22470"},"vehicle_type_id":"4","last_reported":1740334250,"current_range_meters":17200,"station_id":"ce4bh612rcd13ifvqe6g","pricing_plan_id":"cebpf4jnsgd1na2vs0mg"},{"bike_id":"33fe3978-debb-48af-a09a-67b7194363d8","system_id":"levelo_inurba_marseille","lat":43.25833,"lon":5.39432,"is_reserved":false,"is_disabled":false,"rental_uris":{"android":"levelo://app?vid=33fe3978-debb-48af-a09a-67b7194363d8","ios":"levelo://app?vid=33fe3978-debb-48af-a09a-67b7194363d8"},"vehicle_type_id":"4","last_reported":1740334250,"current_range_meters":17200,"station_id":"ce4bhip2rcd13ifvqft0","pricing_plan_id":"cebpf4jnsgd1na2vs0mg"},{"bike_id":"bfee4918-65bc-4430-8c1c-387fa672d48d","system_id":"levelo_inurba_marseille","lat":43.28699,"lon":5.39983,"is_reserved":false,"is_disabled":false,"rental_uris":{"android":"levelo://app?vid=bfee4918-65bc-4430-8c1c-387fa672d48d","ios":"levelo://app?vid=bfee4918-65bc-4430-8c1c-387fa672d48d"},"vehicle_type_id":"4","last_reported":1740334250,"current_range_meters":17200,"station_id":"ce4bho92rcd13ifvqh3g","pricing_plan_id":"cebpf4jnsgd1na2vs0mg"},{"bike_id":"8144d768-d95e-483c-8771-5a5a78fc17ce","system_id":"levelo_inurba_marseille","lat":43.24661,"lon":5.38162,"is_reserved":false,"is_disabled":false,"rental_uris":{"android":"levelo://app?vid=8144d768-d95e-483c-8771-5a5a78fc17ce","ios":"levelo://app?vid=8144d768-d95e-483c-8771-5a5a78fc17ce"},"vehicle_type_id":"4","last_reported":1740334250,"current_range_meters":17600,"station_id":"ce4bhih2rcd13ifvqfr0","pricing_plan_id":"cebpf4jnsgd1na2vs0mg"},{"bike_id":"34168c40-3b8d-4627-9191-5e845802f26a","system_id":"levelo_inurba_marseille","lat":43.32746,"lon":5.39243,"is_reserved":false,"is_disabled":false,"rental_uris":{"android":"levelo://app?vid=34168c40-3b8d-4627-9191-5e845802f26a","ios":"levelo://app?vid=34168c40-3b8d-4627-9191-5e845802f26a"},"vehicle_type_id":"4","last_reported":1740334250,"current_range_meters":17600,"station_id":"","pricing_plan_id":"cebpf4jnsgd1na2vs0mg"},{"bike_id":"da805173-c32f-4615-b8c5-69bdaf0f2e7f","system_id":"levelo_inurba_marseille","lat":43.29001,"lon":5.35602,"is_reserved":false,"is_disabled":true,"rental_uris":{"android":"levelo://app?vid=da805173-c32f-4615-b8c5-69bdaf0f2e7f","ios":"levelo://app?vid=da805173-c32f-4615-b8c5-69bdaf0f2e7f"},"vehicle_type_id":"4","last_reported":1740334250,"current_range_meters":17600,"station_id":"ce4bhb92rcd13ifvqen0","pricing_plan_id":"cebpf4jnsgd1na2vs0mg"},{"bike_id":"a2d6ae3f-66f4-4649-ba0a-99967149441d","system_id":"levelo_inurba_marseille","lat":43.29519,"lon":5.3614,"is_reserved":false,"is_disabled":false,"rental_uris":{"android":"levelo://app?vid=a2d6ae3f-66f4-4649-ba0a-99967149441d","ios":"levelo://app?vid=a2d6ae3f-66f4-4649-ba0a-99967149441d"},"vehicle_type_id":"4","last_reported":1740334250,"current_range_meters":17600,"station_id":"","pricing_plan_id":"cebpf4jnsgd1na2vs0mg"},{"bike_id":"e4014815-dfb9-4595-84a8-b0d4cec83330","system_id":"levelo_inurba_marseille","lat":43.29977,"lon":5.38482,"is_reserved":false,"is_disabled":false,"rental_uris":{"android":"levelo://app?vid=e4014815-dfb9-4595-84a8-b0d4cec83330","ios":"levelo://app?vid=e4014815-dfb9-4595-84a8-b0d4cec83330"},"vehicle_type_id":"4","last_reported":1740334250,"current_range_meters":17600,"station_id":"ce4bgj92rcd13ifvqbd0","pricing_plan_id":"cebpf4jnsgd1na2vs0mg"},{"bike_id":"738d7062-e684-48a6-b108-52fbc1509e4e","system_id":"levelo_inurba_marseille","lat":43.292111,"lon":5.393291,"is_reserved":false,"is_disabled":false,"rental_uris":{"android":"levelo://app?vid=738d7062-e684-48a6-b108-52fbc1509e4e","ios":"levelo://app?vid=738d7062-e684-48a6-b108-52fbc1509e4e"},"vehicle_type_id":"4","last_reported":1740334250,"current_range_meters":17600,"station_id":"ce4bh192rcd13ifvqdd0","pricing_plan_id":"cebpf4jnsgd1na2vs0mg"},{"bike_id":"b5a1d484-9e63-43b3-9bbc-06f2df1a2c91","system_id":"levelo_inurba_marseille","lat":43.292101,"lon":5.393133,"is_reserved":false,"is_disabled":false,"rental_uris":{"android":"levelo://app?vid=b5a1d484-9e63-43b3-9bbc-06f2df1a2c91","ios":"levelo://app?vid=b5a1d484-9e63-43b3-9bbc-06f2df1a2c91"},"vehicle_type_id":"4","last_reported":1740334250,"current_range_meters":18000,"station_id":"ce4bh192rcd13ifvqdd0","pricing_plan_id":"cebpf4jnsgd1na2vs0mg"},{"bike_id":"41a2216f-8b22-4f4f-9eac-5e2283bcdb4b","system_id":"levelo_inurba_marseille","lat":43.2815,"lon":5.42639,"is_reserved":false,"is_disabled":true,"rental_uris":{"android":"levelo://app?vid=41a2216f-8b22-4f4f-9eac-5e2283bcdb4b","ios":"levelo://app?vid=41a2216f-8b22-4f4f-9eac-5e2283bcdb4b"},"vehicle_type_id":"4","last_reported":1740334250,"current_range_meters":18000,"station_id":"ce4bhnh2rcd13ifvqgug","pricing_plan_id":"cebpf4jnsgd1na2vs0mg"},{"bike_id":"b74b70b7-2ee4-40f6-9bb9-a30abcb56606","system_id":"levelo_inurba_marseille","lat":43.292084,"lon":5.393346,"is_reserved":false,"is_disabled":false,"rental_uris":{"android":"levelo://app?vid=b74b70b7-2ee4-40f6-9bb9-a30abcb56606","ios":"levelo://app?vid=b74b70b7-2ee4-40f6-9bb9-a30abcb56606"},"vehicle_type_id":"4","last_reported":1740334250,"current_range_meters":18000,"station_id":"ce4bh192rcd13ifvqdd0","pricing_plan_id":"cebpf4jnsgd1na2vs0mg"},{"bike_id":"15dccaeb-8ea1-4d90-9fad-8997dd8b2717","system_id":"levelo_inurba_marseille","lat":43.26502,"lon":5.39535,"is_reserved":false,"is_disabled":false,"rental_uris":{"android":"levelo://app?vid=15dccaeb-8ea1-4d90-9fad-8997dd8b2717","ios":"levelo://app?vid=15dccaeb-8ea1-4d90-9fad-8997dd8b2717"},"vehicle_type_id":"4","last_reported":1740334250,"current_range_meters":18000,"station_id":"ce4bhi12rcd13ifvqfq0","pricing_plan_id":"cebpf4jnsgd1na2vs0mg"},{"bike_id":"d4456d0e-1b4f-4682-978a-5ee9ce9725df","system_id":"levelo_inurba_marseille","lat":43.29806,"lon":5.38094,"is_reserved":false,"is_disabled":false,"rental_uris":{"android":"levelo://app?vid=d4456d0e-1b4f-4682-978a-5ee9ce9725df","ios":"levelo://app?vid=d4456d0e-1b4f-4682-978a-5ee9ce9725df"},"vehicle_type_id":"4","last_reported":1740334250,"current_range_meters":18000,"station_id":"ce4bgip2rcd13ifvqbb0","pricing_plan_id":"cebpf4jnsgd1na2vs0mg"},{"bike_id":"166dce3b-4080-49ab-8845-35854708b72d","system_id":"levelo_inurba_marseille","lat":43.30789,"lon":5.38128,"is_reserved":false,"is_disabled":false,"rental_uris":{"android":"levelo://app?vid=166dce3b-4080-49ab-8845-35854708b72d","ios":"levelo://app?vid=166dce3b-4080-49ab-8845-35854708b72d"},"vehicle_type_id":"4","last_reported":1740334250,"current_range_meters":18000,"station_id":"ce4bgt12rcd13ifvqce0","pricing_plan_id":"cebpf4jnsgd1na2vs0mg"},{"bike_id":"11d2fe39-d9d4-48dc-add1-83528bf8cf2e","system_id":"levelo_inurba_marseille","lat":43.23183,"lon":5.39987,"is_reserved":false,"is_disabled":false,"rental_uris":{"android":"levelo://app?vid=11d2fe39-d9d4-48dc-add1-83528bf8cf2e","ios":"levelo://app?vid=11d2fe39-d9d4-48dc-add1-83528bf8cf2e"},"vehicle_type_id":"4","last_reported":1740334250,"current_range_meters":18000,"station_id":"ce4bhn12rcd13ifvqgqg","pricing_plan_id":"cebpf4jnsgd1na2vs0mg"},{"bike_id":"b6c67d47-6b6c-433b-9cf7-69638e23cd88","system_id":"levelo_inurba_marseille","lat":43.28414,"lon":5.3752,"is_reserved":false,"is_disabled":false,"rental_uris":{"android":"levelo://app?vid=b6c67d47-6b6c-433b-9cf7-69638e23cd88","ios":"levelo://app?vid=b6c67d47-6b6c-433b-9cf7-69638e23cd88"},"vehicle_type_id":"4","last_reported":1740334250,"current_range_meters":18000,"station_id":"ce4bh412rcd13ifvqds0","pricing_plan_id":"cebpf4jnsgd1na2vs0mg"},{"bike_id":"0137837b-f58f-4b3f-bc5f-e0213327f186","system_id":"levelo_inurba_marseille","lat":43.286072,"lon":5.35101,"is_reserved":false,"is_disabled":false,"rental_uris":{"android":"levelo://app?vid=0137837b-f58f-4b3f-bc5f-e0213327f186","ios":"levelo://app?vid=0137837b-f58f-4b3f-bc5f-e0213327f186"},"vehicle_type_id":"4","last_reported":1740334250,"current_range_meters":18000,"station_id":"ce4bhch2rcd13ifvqeug","pricing_plan_id":"cebpf4jnsgd1na2vs0mg"},{"bike_id":"c0553ce2-1e21-4424-ae14-30f158e9755d","system_id":"levelo_inurba_marseille","lat":43.29895,"lon":5.38907,"is_reserved":false,"is_disabled":true,"rental_uris":{"android":"levelo://app?vid=c0553ce2-1e21-4424-ae14-30f158e9755d","ios":"levelo://app?vid=c0553ce2-1e21-4424-ae14-30f158e9755d"},"vehicle_type_id":"4","last_reported":1740334250,"current_range_meters":18000,"station_id":"ce4bh392rcd13ifvqdl0","pricing_plan_id":"cebpf4jnsgd1na2vs0mg"},{"bike_id":"6ad8fd96-6bcf-4c67-ad50-e4e41ce79aff","system_id":"levelo_inurba_marseille","lat":43.30537,"lon":5.36539,"is_reserved":false,"is_disabled":false,"rental_uris":{"android":"levelo://app?vid=6ad8fd96-6bcf-4c67-ad50-e4e41ce79aff","ios":"levelo://app?vid=6ad8fd96-6bcf-4c67-ad50-e4e41ce79aff"},"vehicle_type_id":"4","last_reported":1740334250,"current_range_meters":16000,"station_id":"ce4bgs12rcd13ifvqcag","pricing_plan_id":"cebpf4jnsgd1na2vs0mg"},{"bike_id":"9ebb4377-a040-47b2-9275-b07203a69b44","system_id":"levelo_inurba_marseille","lat":43.29966,"lon":5.38503,"is_reserved":false,"is_disabled":false,"rental_uris":{"android":"levelo://app?vid=9ebb4377-a040-47b2-9275-b07203a69b44","ios":"levelo://app?vid=9ebb4377-a040-47b2-9275-b07203a69b44"},"vehicle_type_id":"4","last_reported":1740334250,"current_range_meters":18800,"station_id":"ce4bgj92rcd13ifvqbd0","pricing_plan_id":"cebpf4jnsgd1na2vs0mg"},{"bike_id":"2c226df1-fd18-49fa-937a-6cfcc5f50412","system_id":"levelo_inurba_marseille","lat":43.28694,"lon":5.4001,"is_reserved":false,"is_disabled":false,"rental_uris":{"android":"levelo://app?vid=2c226df1-fd18-49fa-937a-6cfcc5f50412","ios":"levelo://app?vid=2c226df1-fd18-49fa-937a-6cfcc5f50412"},"vehicle_type_id":"4","last_reported":1740334250,"current_range_meters":18800,"station_id":"ce4bho92rcd13ifvqh3g","pricing_plan_id":"cebpf4jnsgd1na2vs0mg"},{"bike_id":"5e0eae88-9b3a-4b6f-b115-aa22e8f99307","system_id":"levelo_inurba_marseille","lat":43.29909,"lon":5.38136,"is_reserved":false,"is_disabled":false,"rental_uris":{"android":"levelo://app?vid=5e0eae88-9b3a-4b6f-b115-aa22e8f99307","ios":"levelo://app?vid=5e0eae88-9b3a-4b6f-b115-aa22e8f99307"},"vehicle_type_id":"4","last_reported":1740334250,"current_range_meters":18800,"station_id":"ce4bgj12rcd13ifvqbc0","pricing_plan_id":"cebpf4jnsgd1na2vs0mg"},{"bike_id":"9ec80d5d-5365-4fe8-b1b8-741c81741c1c","system_id":"levelo_inurba_marseille","lat":43.27715,"lon":5.40811,"is_reserved":false,"is_disabled":false,"rental_uris":{"android":"levelo://app?vid=9ec80d5d-5365-4fe8-b1b8-741c81741c1c","ios":"levelo://app?vid=9ec80d5d-5365-4fe8-b1b8-741c81741c1c"},"vehicle_type_id":"4","last_reported":1740334250,"current_range_meters":18800,"station_id":"","pricing_plan_id":"cebpf4jnsgd1na2vs0mg"},{"bike_id":"2cb3f284-7b8f-46db-a012-ff6c476270a8","system_id":"levelo_inurba_marseille","lat":43.23185,"lon":5.35555,"is_reserved":false,"is_disabled":false,"rental_uris":{"android":"levelo://app?vid=2cb3f284-7b8f-46db-a012-ff6c476270a8","ios":"levelo://app?vid=2cb3f284-7b8f-46db-a012-ff6c476270a8"},"vehicle_type_id":"4","last_reported":1740334250,"current_range_meters":18800,"station_id":"ce4bhu92rcd13ifvqi70","pricing_plan_id":"cebpf4jnsgd1na2vs0mg"},{"bike_id":"b0c1389a-f924-4511-b81a-1d5209a0bc3a","system_id":"levelo_inurba_marseille","lat":43.326575,"lon":5.409952,"is_reserved":false,"is_disabled":false,"rental_uris":{"android":"levelo://app?vid=b0c1389a-f924-4511-b81a-1d5209a0bc3a","ios":"levelo://app?vid=b0c1389a-f924-4511-b81a-1d5209a0bc3a"},