{"last_updated":1737662957,"ttl":60,"version":"2.2","data":{"bikes":[{"bike_id":"efaf8603-0bec-433e-97a0-3f9a4e56efbc","system_id":"levelo_inurba_marseille","lat":43.26571,"lon":5.38996,"is_reserved":false,"is_disabled":false,"rental_uris":{"android":"levelo://app?vid=efaf8603-0bec-433e-97a0-3f9a4e56efbc","ios":"levelo://app?vid=efaf8603-0bec-433e-97a0-3f9a4e56efbc"},"vehicle_type_id":"4","last_reported":1737662957,"current_range_meters":38800,"station_id":"ce4bhe12rcd13ifvqf30","pricing_plan_id":"cebpf4jnsgd1na2vs0mg"},{"bike_id":"5b0f23e0-30c9-479c-af2a-0d39d7adb7f8","system_id":"levelo_inurba_marseille","lat":43.30784,"lon":5.3765,"is_reserved":false,"is_disabled":false,"rental_uris":{"android":"levelo://app?vid=5b0f23e0-30c9-479c-af2a-0d39d7adb7f8","ios":"levelo://app?vid=5b0f23e0-30c9-479c-af2a-0d39d7adb7f8"},"vehicle_type_id":"4","last_reported":1737662957,"current_range_meters":38800,"station_id":"ce4bgv92rcd13ifvqcq0","pricing_plan_id":"cebpf4jnsgd1na2vs0mg"},{"bike_id":"6038a21d-ddd9-48cc-b41b-c7d265bcdf42","system_id":"levelo_inurba_marseille","lat":43.25858,"lon":5.39909,"is_reserved":false,"is_disabled":false,"rental_uris":{"android":"levelo://app?vid=6038a21d-ddd9-48cc-b41b-c7d265bcdf42","ios":"levelo://app?vid=6038a21d-ddd9-48cc-b41b-c7d265bcdf42"},"vehicle_type_id":"4","last_reported":1737662957,"current_range_meters":38800,"station_id":"ce4bhl92rcd13ifvqghg","pricing_plan_id":"cebpf4jnsgd1na2vs0mg"},{"bike_id":"eccf0d1b-bc05-4442-912e-9450590b779a","system_id":"levelo_inurba_marseille","lat":43.31976,"lon":5.38132,"is_reserved":false,"is_disabled":false,"rental_uris":{"android":"levelo://app?vid=eccf0d1b-bc05-4442-912e-9450590b779a","ios":"levelo://app?vid=eccf0d1b-bc05-4442-912e-9450590b779a"},"vehicle_type_id":"4","last_reported":1737662957,"current_range_meters":17200,"station_id":"ce4bhr12rcd13ifvqhpg","pricing_plan_id":"cebpf4jnsgd1na2vs0mg"},{"bike_id":"bb837106-5fe6-4c19-83c9-a4ca3cad7964","system_id":"levelo_inurba_marseille","lat":43.29226,"lon":5.36045,"is_reserved":false,"is_disabled":false,"rental_uris":{"android":"levelo://app?vid=bb837106-5fe6-4c19-83c9-a4ca3cad7964","ios":"levelo://app?vid=bb837106-5fe6-4c19-83c9-a4ca3cad7964"},"vehicle_type_id":"4","last_reported":1737662957,"current_range_meters":24800,"station_id":"ce4bhbh2rcd13ifvqeqg","pricing_plan_id":"cebpf4jnsgd1na2vs0mg"},{"bike_id":"d5e872fd-88ad-4d26-bf6b-08aaaf1253ee","system_id":"levelo_inurba_marseille","lat":43.28458,"lon":5.35888,"is_reserved":false,"is_disabled":false,"rental_uris":{"android":"levelo://app?vid=d5e872fd-88ad-4d26-bf6b-08aaaf1253ee","ios":"levelo://app?vid=d5e872fd-88ad-4d26-bf6b-08aaaf1253ee"},"vehicle_type_id":"4","last_reported":1737662957,"current_range_meters":17600,"station_id":"ce4bhah2rcd13ifvqei0","pricing_plan_id":"cebpf4jnsgd1na2vs0mg"},{"bike_id":"075ada91-4864-495f-848a-fb5d2234b213","system_id":"levelo_inurba_marseille","lat":43.24807,"lon":5.37454,"is_reserved":false,"is_disabled":false,"rental_uris":{"android":"levelo://app?vid=075ada91-4864-495f-848a-fb5d2234b213","ios":"levelo://app?vid=075ada91-4864-495f-848a-fb5d2234b213"},"vehicle_type_id":"4","last_reported":1737662957,"current_range_meters":4800,"station_id":"ce4bhgh2rcd13ifvqfb0","pricing_plan_id":"cebpf4jnsgd1na2vs0mg"},{"bike_id":"b5cb07e6-6ffd-4db4-8954-0084503b2aef","system_id":"levelo_inurba_marseille","lat":43.33004,"lon":5.39069,"is_reserved":false,"is_disabled":false,"rental_uris":{"android":"levelo://app?vid=b5cb07e6-6ffd-4db4-8954-0084503b2aef","ios":"levelo://app?vid=b5cb07e6-6ffd-4db4-8954-0084503b2aef"},"vehicle_type_id":"4","last_reported":1737662957,"current_range_meters":38800,"station_id":"ce4bhr92rcd13ifvqhrg","pricing_plan_id":"cebpf4jnsgd1na2vs0mg"},{"bike_id":"7c97edd8-6c29-4193-a84b-e4f93b7def1b","system_id":"levelo_inurba_marseille","lat":43.26952,"lon":5.38624,"is_reserved":false,"is_disabled":false,"rental_uris":{"android":"levelo://app?vid=7c97edd8-6c29-4193-a84b-e4f93b7def1b","ios":"levelo://app?vid=7c97edd8-6c29-4193-a84b-e4f93b7def1b"},"vehicle_type_id":"4","last_reported":1737662957,"current_range_meters":38000,"station_id":"ce4bhh92rcd13ifvqfh0","pricing_plan_id":"cebpf4jnsgd1na2vs0mg"},{"bike_id":"ec016e4b-1100-4b80-a9e8-7ce8bce9aee4","system_id":"levelo_inurba_marseille","lat":43.280029,"lon":5.400208,"is_reserved":false,"is_disabled":false,"rental_uris":{"android":"levelo://app?vid=ec016e4b-1100-4b80-a9e8-7ce8bce9aee4","ios":"levelo://app?vid=ec016e4b-1100-4b80-a9e8-7ce8bce9aee4"},"vehicle_type_id":"4","last_reported":1737662957,"current_range_meters":22000,"station_id":"ce4bho92rcd13ifvqh4g","pricing_plan_id":"cebpf4jnsgd1na2vs0mg"},{"bike_id":"7f462366-a3d8-4c57-bc02-78cb8da92980","system_id":"levelo_inurba_marseille","lat":43.30585,"lon":5.39354,"is_reserved":false,"is_disabled":false,"rental_uris":{"android":"levelo://app?vid=7f462366-a3d8-4c57-bc02-78cb8da92980","ios":"levelo://app?vid=7f462366-a3d8-4c57-bc02-78cb8da92980"},"vehicle_type_id":"4","last_reported":1737662957,"current_range_meters":12800,"station_id":"ce4bh0p2rcd13ifvqd80","pricing_plan_id":"cebpf4jnsgd1na2vs0mg"},{"bike_id":"1a092bf7-35e4-40a3-a6a3-f4c3e6f23ce6","system_id":"levelo_inurba_marseille","lat":43.28266,"lon":5.35072,"is_reserved":false,"is_disabled":false,"rental_uris":{"android":"levelo://app?vid=1a092bf7-35e4-40a3-a6a3-f4c3e6f23ce6","ios":"levelo://app?vid=1a092bf7-35e4-40a3-a6a3-f4c3e6f23ce6"},"vehicle_type_id":"4","last_reported":1737662957,"current_range_meters":21600,"station_id":"ce4bhbp2rcd13ifvqerg","pricing_plan_id":"cebpf4jnsgd1na2vs0mg"},{"bike_id":"bbf6ccfc-86e8-4139-8f8f-db52679ecb02","system_id":"levelo_inurba_marseille","lat":43.2872,"lon":5.37926,"is_reserved":false,"is_disabled":false,"rental_uris":{"android":"levelo://app?vid=bbf6ccfc-86e8-4139-8f8f-db52679ecb02","ios":"levelo://app?vid=bbf6ccfc-86e8-4139-8f8f-db52679ecb02"},"vehicle_type_id":"4","last_reported":1737662957,"current_range_meters":36400,"station_id":"ce4bh9p2rcd13ifvqec0","pricing_plan_id":"cebpf4jnsgd1na2vs0mg"},{"bike_id":"9fb75c83-fac5-406a-b234-60d9a7bb3685","system_id":"levelo_inurba_marseille","lat":43.32,"lon":5.38167,"is_reserved":false,"is_disabled":false,"rental_uris":{"android":"levelo://app?vid=9fb75c83-fac5-406a-b234-60d9a7bb3685","ios":"levelo://app?vid=9fb75c83-fac5-406a-b234-60d9a7bb3685"},"vehicle_type_id":"4","last_reported":1737662957,"current_range_meters":20400,"station_id":"ce4bhr12rcd13ifvqhpg","pricing_plan_id":"cebpf4jnsgd1na2vs0mg"},{"bike_id":"039d560d-49b1-4348-b5dd-d20e5bbfa221","system_id":"levelo_inurba_marseille","lat":43.29075,"lon":5.35913,"is_reserved":false,"is_disabled":false,"rental_uris":{"android":"levelo://app?vid=039d560d-49b1-4348-b5dd-d20e5bbfa221","ios":"levelo://app?vid=039d560d-49b1-4348-b5dd-d20e5bbfa221"},"vehicle_type_id":"4","last_reported":1737662957,"current_range_meters":26000,"station_id":"ce4bha92rcd13ifvqeg0","pricing_plan_id":"cebpf4jnsgd1na2vs0mg"},{"bike_id":"066f6b5f-96d8-4640-a8fe-d92b7cd9d110","system_id":"levelo_inurba_marseille","lat":43.27815,"lon":5.4071,"is_reserved":false,"is_disabled":false,"rental_uris":{"android":"levelo://app?vid=066f6b5f-96d8-4640-a8fe-d92b7cd9d110","ios":"levelo://app?vid=066f6b5f-96d8-4640-a8fe-d92b7cd9d110"},"vehicle_type_id":"4","last_reported":1737662957,"current_range_meters":30800,"station_id":"ce4bhnh2rcd13ifvqgtg","pricing_plan_id":"cebpf4jnsgd1na2vs0mg"},{"bike_id":"fb25aff4-7712-412a-885d-4665f45586cc","system_id":"levelo_inurba_marseille","lat":43.24669,"lon":5.38159,"is_reserved":false,"is_disabled":false,"rental_uris":{"android":"levelo://app?vid=fb25aff4-7712-412a-885d-4665f45586cc","ios":"levelo://app?vid=fb25aff4-7712-412a-885d-4665f45586cc"},"vehicle_type_id":"4","last_reported":1737662957,"current_range_meters":28000,"station_id":"ce4bhih2rcd13ifvqfr0","pricing_plan_id":"cebpf4jnsgd1na2vs0mg"},{"bike_id":"7dbb9d34-c7b8-41c5-b6d4-fee3aa6edf6f","system_id":"levelo_inurba_marseille","lat":43.32458,"lon":5.36563,"is_reserved":false,"is_disabled":false,"rental_uris":{"android":"levelo://app?vid=7dbb9d34-c7b8-41c5-b6d4-fee3aa6edf6f","ios":"levelo://app?vid=7dbb9d34-c7b8-41c5-b6d4-fee3aa6edf6f"},"vehicle_type_id":"4","last_reported":1737662957,"current_range_meters":38800,"station_id":"ce4bhs12rcd13ifvqhvg","pricing_plan_id":"cebpf4jnsgd1na2vs0mg"},{"bike_id":"43be34c3-96cf-4550-a67d-c00bb6e5e0df","system_id":"levelo_inurba_marseille","lat":43.29527,"lon":5.375,"is_reserved":false,"is_disabled":false,"rental_uris":{"android":"levelo://app?vid=43be34c3-96cf-4550-a67d-c00bb6e5e0df","ios":"levelo://app?vid=43be34c3-96cf-4550-a67d-c00bb6e5e0df"},"vehicle_type_id":"4","last_reported":1737662957,"current_range_meters":25200,"station_id":"ce4bgkp2rcd13ifvqbmg","pricing_plan_id":"cebpf4jnsgd1na2vs0mg"},{"bike_id":"ccb54584-a457-4fbc-a2cc-a16750377d08","system_id":"levelo_inurba_marseille","lat":43.30872,"lon":5.36841,"is_reserved":false,"is_disabled":false,"rental_uris":{"android":"levelo://app?vid=ccb54584-a457-4fbc-a2cc-a16750377d08","ios":"levelo://app?vid=ccb54584-a457-4fbc-a2cc-a16750377d08"},"vehicle_type_id":"4","last_reported":1737662957,"current_range_meters":23200,"station_id":"ce4bgn92rcd13ifvqbvg","pricing_plan_id":"cebpf4jnsgd1na2vs0mg"},{"bike_id":"8306911c-1b49-4f25-b658-2afe8ce20858","system_id":"levelo_inurba_marseille","lat":43.284576,"lon":5.358918,"is_reserved":false,"is_disabled":false,"rental_uris":{"android":"levelo://app?vid=8306911c-1b49-4f25-b658-2afe8ce20858","ios":"levelo://app?vid=8306911c-1b49-4f25-b658-2afe8ce20858"},"vehicle_type_id":"4","last_reported":1737662957,"current_range_meters":30800,"station_id":"ce4bhah2rcd13ifvqei0","pricing_plan_id":"cebpf4jnsgd1na2vs0mg"},{"bike_id":"e38da209-d8d9-4680-be99-11d1954272ef","system_id":"levelo_inurba_marseille","lat":43.26203,"lon":5.37919,"is_reserved":false,"is_disabled":false,"rental_uris":{"android":"levelo://app?vid=e38da209-d8d9-4680-be99-11d1954272ef","ios":"levelo://app?vid=e38da209-d8d9-4680-be99-11d1954272ef"},"vehicle_type_id":"4","last_reported":1737662957,"current_range_meters":39200,"station_id":"ce4bhjp2rcd13ifvqg90","pricing_plan_id":"cebpf4jnsgd1na2vs0mg"},{"bike_id":"1a87f163-95aa-44fd-b2d0-ded4d159ad4c","system_id":"levelo_inurba_marseille","lat":43.29534,"lon":5.39027,"is_reserved":false,"is_disabled":false,"rental_uris":{"android":"levelo://app?vid=1a87f163-95aa-44fd-b2d0-ded4d159ad4c","ios":"levelo://app?vid=1a87f163-95aa-44fd-b2d0-ded4d159ad4c"},"vehicle_type_id":"4","last_reported":1737662957,"current_range_meters":28000,"station_id":"ce4bh3p2rcd13ifvqdp0","pricing_plan_id":"cebpf4jnsgd1na2vs0mg"},{"bike_id":"90ddeeab-cf02-42a5-bdea-aa27e7ee3fe7","system_id":"levelo_inurba_marseille","lat":43.29306,"lon":5.37187,"is_reserved":false,"is_disabled":false,"rental_uris":{"android":"levelo://app?vid=90ddeeab-cf02-42a5-bdea-aa27e7ee3fe7","ios":"levelo://app?vid=90ddeeab-cf02-42a5-bdea-aa27e7ee3fe7"},"vehicle_type_id":"4","last_reported":1737662957,"current_range_meters":38800,"station_id":"ce4bgh92rcd13ifvqb40","pricing_plan_id":"cebpf4jnsgd1na2vs0mg"},{"bike_id":"644e1c08-c502-4c85-94d4-d4a064391ff0","system_id":"levelo_inurba_marseille","lat":43.31855,"lon":5.3797,"is_reserved":false,"is_disabled":false,"rental_uris":{"android":"levelo://app?vid=644e1c08-c502-4c85-94d4-d4a064391ff0","ios":"levelo://app?vid=644e1c08-c502-4c85-94d4-d4a064391ff0"},"vehicle_type_id":"4","last_reported":1737662957,"current_range_meters":7200,"station_id":"","pricing_plan_id":"cebpf4jnsgd1na2vs0mg"},{"bike_id":"60d6bd6c-3c1e-4ed7-aea1-57024152bec1","system_id":"levelo_inurba_marseille","lat":43.29793,"lon":5.40405,"is_reserved":false,"is_disabled":true,"rental_uris":{"android":"levelo://app?vid=60d6bd6c-3c1e-4ed7-aea1-57024152bec1","ios":"levelo://app?vid=60d6bd6c-3c1e-4ed7-aea1-57024152bec1"},"vehicle_type_id":"4","last_reported":1737662957,"current_range_meters":0,"station_id":"ce4bh112rcd13ifvqd90","pricing_plan_id":"cebpf4jnsgd1na2vs0mg"},{"bike_id":"2e1961ea-cc50-4ce5-bd0e-43fe5c2fb5e3","system_id":"levelo_inurba_marseille","lat":43.25861,"lon":5.39903,"is_reserved":false,"is_disabled":false,"rental_uris":{"android":"levelo://app?vid=2e1961ea-cc50-4ce5-bd0e-43fe5c2fb5e3","ios":"levelo://app?vid=2e1961ea-cc50-4ce5-bd0e-43fe5c2fb5e3"},"vehicle_type_id":"4","last_reported":1737662957,"current_range_meters":29600,"station_id":"ce4bhl92rcd13ifvqghg","pricing_plan_id":"cebpf4jnsgd1na2vs0mg"},{"bike_id":"553e4976-b27f-47dc-8e32-f79d8de69447","system_id":"levelo_inurba_marseille","lat":43.28997,"lon":5.35624,"is_reserved":false,"is_disabled":false,"rental_uris":{"android":"levelo://app?vid=553e4976-b27f-47dc-8e32-f79d8de69447","ios":"levelo://app?vid=553e4976-b27f-47dc-8e32-f79d8de69447"},"vehicle_type_id":"4","last_reported":1737662957,"current_range_meters":38800,"station_id":"ce4bhb92rcd13ifvqen0","pricing_plan_id":"cebpf4jnsgd1na2vs0mg"},{"bike_id":"193315e2-36f8-42b2-9f1c-169237b7a901","system_id":"levelo_inurba_marseille","lat":43.26046,"lon":5.39402,"is_reserved":false,"is_disabled":false,"rental_uris":{"android":"levelo://app?vid=193315e2-36f8-42b2-9f1c-169237b7a901","ios":"levelo://app?vid=193315e2-36f8-42b2-9f1c-169237b7a901"},"vehicle_type_id":"4","last_reported":1737662957,"current_range_meters":38800,"station_id":"ce4bhh92rcd13ifvqfj0","pricing_plan_id":"cebpf4jnsgd1na2vs0mg"},{"bike_id":"a8eeaa56-6dc8-438b-ad4c-73df5f49227b","system_id":"levelo_inurba_marseille","lat":43.30656,"lon":5.39293,"is_reserved":false,"is_disabled":false,"rental_uris":{"android":"levelo://app?vid=a8eeaa56-6dc8-438b-ad4c-73df5f49227b","ios":"levelo://app?vid=a8eeaa56-6dc8-438b-ad4c-73df5f49227b"},"vehicle_type_id":"4","last_reported":1737662957,"current_range_meters":28400,"station_id":"ce4bgv12rcd13ifvqcp0","pricing_plan_id":"cebpf4jnsgd1na2vs0mg"},{"bike_id":"d176d05d-f592-4680-9312-b4c47d85e9a1","system_id":"levelo_inurba_marseille","lat":43.28419,"lon":5.375203,"is_reserved":false,"is_disabled":false,"rental_uris":{"android":"levelo://app?vid=d176d05d-f592-4680-9312-b4c47d85e9a1","ios":"levelo://app?vid=d176d05d-f592-4680-9312-b4c47d85e9a1"},"vehicle_type_id":"4","last_reported":1737662957,"current_range_meters":8400,"station_id":"ce4bh412rcd13ifvqds0","pricing_plan_id":"cebpf4jnsgd1na2vs0mg"},{"bike_id":"820d236e-1578-4ddc-b946-1dd3b5ad3eb4","system_id":"levelo_inurba_marseille","lat":43.30877,"lon":5.39643,"is_reserved":false,"is_disabled":false,"rental_uris":{"android":"levelo://app?vid=820d236e-1578-4ddc-b946-1dd3b5ad3eb4","ios":"levelo://app?vid=820d236e-1578-4ddc-b946-1dd3b5ad3eb4"},"vehicle_type_id":"4","last_reported":1737662957,"current_range_meters":30000,"station_id":"ce4bh012rcd13ifvqcv0","pricing_plan_id":"cebpf4jnsgd1na2vs0mg"},{"bike_id":"936d6b24-b73c-45c1-8bb4-126add00984c","system_id":"levelo_inurba_marseille","lat":43.289275,"lon":5.38397,"is_reserved":false,"is_disabled":false,"rental_uris":{"android":"levelo://app?vid=936d6b24-b73c-45c1-8bb4-126add00984c","ios":"levelo://app?vid=936d6b24-b73c-45c1-8bb4-126add00984c"},"vehicle_type_id":"4","last_reported":1737662957,"current_range_meters":9600,"station_id":"ce4bh612rcd13ifvqe6g","pricing_plan_id":"cebpf4jnsgd1na2vs0mg"},{"bike_id":"abc60fff-dd66-4aec-926e-90acfc4baba7","system_id":"levelo_inurba_marseille","lat":43.29023,"lon":5.38622,"is_reserved":false,"is_disabled":false,"rental_uris":{"android":"levelo://app?vid=abc60fff-dd66-4aec-926e-90acfc4baba7","ios":"levelo://app?vid=abc60fff-dd66-4aec-926e-90acfc4baba7"},"vehicle_type_id":"4","last_reported":1737662957,"current_range_meters":34800,"station_id":"ce4bh4p2rcd13ifvqe0g","pricing_plan_id":"cebpf4jnsgd1na2vs0mg"},{"bike_id":"1fbcfb52-8929-4f0c-a9d8-51ffbe3630c4","system_id":"levelo_inurba_marseille","lat":43.31331,"lon":5.39693,"is_reserved":false,"is_disabled":false,"rental_uris":{"android":"levelo://app?vid=1fbcfb52-8929-4f0c-a9d8-51ffbe3630c4","ios":"levelo://app?vid=1fbcfb52-8929-4f0c-a9d8-51ffbe3630c4"},"vehicle_type_id":"4","last_reported":1737662957,"current_range_meters":32800,"station_id":"ce4bgvp2rcd13ifvqcu0","pricing_plan_id":"cebpf4jnsgd1na2vs0mg"},{"bike_id":"545ed6e3-0d7c-44d7-afc3-19d942ccdead","system_id":"levelo_inurba_marseille","lat":43.28274,"lon":5.35083,"is_reserved":false,"is_disabled":false,"rental_uris":{"android":"levelo://app?vid=545ed6e3-0d7c-44d7-afc3-19d942ccdead","ios":"levelo://app?vid=545ed6e3-0d7c-44d7-afc3-19d942ccdead"},"vehicle_type_id":"4","last_reported":1737662957,"current_range_meters":25200,"station_id":"ce4bhbp2rcd13ifvqerg","pricing_plan_id":"cebpf4jnsgd1na2vs0mg"},{"bike_id":"0672c778-6d96-43cb-9618-48f187d64dea","system_id":"levelo_inurba_marseille","lat":43.25585,"lon":5.38237,"is_reserved":false,"is_disabled":false,"rental_uris":{"android":"levelo://app?vid=0672c778-6d96-43cb-9618-48f187d64dea","ios":"levelo://app?vid=0672c778-6d96-43cb-9618-48f187d64dea"},"vehicle_type_id":"4","last_reported":1737662957,"current_range_meters":38800,"station_id":"ce4bhih2rcd13ifvqfs0","pricing_plan_id":"cebpf4jnsgd1na2vs0mg"},{"bike_id":"37592b2b-0451-4a2f-aa4f-aafc563fa475","system_id":"levelo_inurba_marseille","lat":43.2952,"lon":5.39043,"is_reserved":false,"is_disabled":false,"rental_uris":{"android":"levelo://app?vid=37592b2b-0451-4a2f-aa4f-aafc563fa475","ios":"levelo://app?vid=37592b2b-0451-4a2f-aa4f-aafc563fa475"},"vehicle_type_id":"4","last_reported":1737662957,"current_range_meters":12400,"station_id":"ce4bh3p2rcd13ifvqdp0","pricing_plan_id":"cebpf4jnsgd1na2vs0mg"},{"bike_id":"71ebb7a1-23b0-4621-b58d-f41888021343","system_id":"levelo_inurba_marseille","lat":43.29293,"lon":5.37153,"is_reserved":false,"is_disabled":false,"rental_uris":{"android":"levelo://app?vid=71ebb7a1-23b0-4621-b58d-f41888021343","ios":"levelo://app?vid=71ebb7a1-23b0-4621-b58d-f41888021343"},"vehicle_type_id":"4","last_reported":1737662957,"current_range_meters":38800,"station_id":"ce4bgh92rcd13ifvqb40","pricing_plan_id":"cebpf4jnsgd1na2vs0mg"},{"bike_id":"bfc7c4c8-160f-422f-88d7-f1006cae57bb","system_id":"levelo_inurba_marseille","lat":43.31113,"lon":5.37764,"is_reserved":false,"is_disabled":false,"rental_uris":{"android":"levelo://app?vid=bfc7c4c8-160f-422f-88d7-f1006cae57bb","ios":"levelo://app?vid=bfc7c4c8-160f-422f-88d7-f1006cae57bb"},"vehicle_type_id":"4","last_reported":1737662957,"current_range_meters":14400,"station_id":"ce4bgt92rcd13ifvqcg0","pricing_plan_id":"cebpf4jnsgd1na2vs0mg"},{"bike_id":"274e4258-aed1-4a6c-bc7d-1158086de7c3","system_id":"levelo_inurba_marseille","lat":43.3021,"lon":5.38929,"is_reserved":false,"is_disabled":false,"rental_uris":{"android":"levelo://app?vid=274e4258-aed1-4a6c-bc7d-1158086de7c3","ios":"levelo://app?vid=274e4258-aed1-4a6c-bc7d-1158086de7c3"},"vehicle_type_id":"4","last_reported":1737662957,"current_range_meters":16800,"station_id":"","pricing_plan_id":"cebpf4jnsgd1na2vs0mg"},{"bike_id":"bbdfc660-e997-4a11-9591-bbb56c89be46","system_id":"levelo_inurba_marseille","lat":43.33023,"lon":5.39036,"is_reserved":false,"is_disabled":false,"rental_uris":{"android":"levelo://app?vid=bbdfc660-e997-4a11-9591-bbb56c89be46","ios":"levelo://app?vid=bbdfc660-e997-4a11-9591-bbb56c89be46"},"vehicle_type_id":"4","last_reported":1737662957,"current_range_meters":36800,"station_id":"ce4bhr92rcd13ifvqhrg","pricing_plan_id":"cebpf4jnsgd1na2vs0mg"},{"bike_id":"5e75dd30-ab3b-44d3-8dcb-cb5fd4a0eb65","system_id":"levelo_inurba_marseille","lat":43.24647,"lon":5.38884,"is_reserved":false,"is_disabled":false,"rental_uris":{"android":"levelo://app?vid=5e75dd30-ab3b-44d3-8dcb-cb5fd4a0eb65","ios":"levelo://app?vid=5e75dd30-ab3b-44d3-8dcb-cb5fd4a0eb65"},"vehicle_type_id":"4","last_reported":1737662957,"current_range_meters":36800,"station_id":"ce4bhg12rcd13ifvqf60","pricing_plan_id":"cebpf4jnsgd1na2vs0mg"},{"bike_id":"ebcd7348-62f6-499d-9377-eaf8f056d917","system_id":"levelo_inurba_marseille","lat":43.27538,"lon":5.38425,"is_reserved":false,"is_disabled":false,"rental_uris":{"android":"levelo://app?vid=ebcd7348-62f6-499d-9377-eaf8f056d917","ios":"levelo://app?vid=ebcd7348-62f6-499d-9377-eaf8f056d917"},"vehicle_type_id":"4","last_reported":1737662957,"current_range_meters":38800,"station_id":"ce4bhh92rcd13ifvqfi0","pricing_plan_id":"cebpf4jnsgd1na2vs0mg"},{"bike_id":"61a6fd35-8230-406d-9c91-96dcbb32f3bd","system_id":"levelo_inurba_marseille","lat":43.28701,"lon":5.3738,"is_reserved":false,"is_disabled":false,"rental_uris":{"android":"levelo://app?vid=61a6fd35-8230-406d-9c91-96dcbb32f3bd","ios":"levelo://app?vid=61a6fd35-8230-406d-9c91-96dcbb32f3bd"},"vehicle_type_id":"4","last_reported":1737662957,"current_range_meters":22400,"station_id":"ce4bh3p2rcd13ifvqdq0","pricing_plan_id":"cebpf4jnsgd1na2vs0mg"},{"bike_id":"a91de40a-fe02-4524-b41d-48baf20f2b0d","system_id":"levelo_inurba_marseille","lat":43.27556,"lon":5.38405,"is_reserved":false,"is_disabled":false,"rental_uris":{"android":"levelo://app?vid=a91de40a-fe02-4524-b41d-48baf20f2b0d","ios":"levelo://app?vid=a91de40a-fe02-4524-b41d-48baf20f2b0d"},"vehicle_type_id":"4","last_reported":1737662957,"current_range_meters":9200,"station_id":"ce4bhh92rcd13ifvqfi0","pricing_plan_id":"cebpf4jnsgd1na2vs0mg"},{"bike_id":"1f4cc9a1-a6f1-42ee-8f62-d3fd1b2849a6","system_id":"levelo_inurba_marseille","lat":43.23184,"lon":5.39989,"is_reserved":false,"is_disabled":false,"rental_uris":{"android":"levelo://app?vid=1f4cc9a1-a6f1-42ee-8f62-d3fd1b2849a6","ios":"levelo://app?vid=1f4cc9a1-a6f1-42ee-8f62-d3fd1b2849a6"},"vehicle_type_id":"4","last_reported":1737662957,"current_range_meters":7200,"station_id":"ce4bhn12rcd13ifvqgqg","pricing_plan_id":"cebpf4jnsgd1na2vs0mg"},{"bike_id":"dbe2d962-47ba-41d5-b845-dff1f2f4936a","system_id":"levelo_inurba_marseille","lat":43.2937,"lon":5.3784,"is_reserved":false,"is_disabled":false,"rental_uris":{"android":"levelo://app?vid=dbe2d962-47ba-41d5-b845-dff1f2f4936a","ios":"levelo://app?vid=dbe2d962-47ba-41d5-b845-dff1f2f4936a"},"vehicle_type_id":"4","last_reported":1737662957,"current_range_meters":20000,"station_id":"ce4bgjh2rcd13ifvqbf0","pricing_plan_id":"cebpf4jnsgd1na2vs0mg"},{"bike_id":"071539da-84e9-408d-ace9-6801b87e83b6","system_id":"levelo_inurba_marseille","lat":43.2942,"lon":5.38618,"is_reserved":false,"is_disabled":false,"rental_uris":{"android":"levelo://app?vid=071539da-84e9-408d-ace9-6801b87e83b6","ios":"levelo://app?vid=071539da-84e9-408d-ace9-6801b87e83b6"},"vehicle_type_id":"4","last_reported":1737662957,"current_range_meters":38800,"station_id":"ce4bh2h2rcd13ifvqdh0","pricing_plan_id":"cebpf4jnsgd1na2vs0mg"},{"bike_id":"77a12100-d260-4f7f-997e-94d8d05bfd42","system_id":"levelo_inurba_marseille","lat":43.28042,"lon":5.36946,"is_reserved":false,"is_disabled":false,"rental_uris":{"android":"levelo://app?vid=77a12100-d260-4f7f-997e-94d8d05bfd42","ios":"levelo://app?vid=77a12100-d260-4f7f-997e-94d8d05bfd42"},"vehicle_type_id":"4","last_reported":1737662957,"current_range_meters":12400,"station_id":"ce4bha12rcd13ifvqef0","pricing_plan_id":"cebpf4jnsgd1na2vs0mg"},{"bike_id":"9838cc78-2b53-49d3-ae13-82df62c4fd64","system_id":"levelo_inurba_marseille","lat":43.28417,"lon":5.40928,"is_reserved":false,"is_disabled":false,"rental_uris":{"android":"levelo://app?vid=9838cc78-2b53-49d3-ae13-82df62c4fd64","ios":"levelo://app?vid=9838cc78-2b53-49d3-ae13-82df62c4fd64"},"vehicle_type_id":"4","last_reported":1737662957,"current_range_meters":4800,"station_id":"","pricing_plan_id":"cebpf4jnsgd1na2vs0mg"},{"bike_id":"cf80fd66-51d2-45da-a957-8dd48a7f896f","system_id":"levelo_inurba_marseille","lat":43.30325,"lon":5.40438,"is_reserved":false,"is_disabled":false,"rental_uris":{"android":"levelo://app?vid=cf80fd66-51d2-45da-a957-8dd48a7f896f","ios":"levelo://app?vid=cf80fd66-51d2-45da-a957-8dd48a7f896f"},"vehicle_type_id":"4","last_reported":1737662957,"current_range_meters":14000,"station_id":"ce4bh012rcd13ifvqd10","pricing_plan_id":"cebpf4jnsgd1na2vs0mg"},{"bike_id":"d9d67e50-ff60-4024-bb97-06b4cc192a7e","system_id":"levelo_inurba_marseille","lat":43.302151,"lon":5.374911,"is_reserved":false,"is_disabled":true,"rental_uris":{"android":"levelo://app?vid=d9d67e50-ff60-4024-bb97-06b4cc192a7e","ios":"levelo://app?vid=d9d67e50-ff60-4024-bb97-06b4cc192a7e"},"vehicle_type_id":"4","last_reported":1737662957,"current_range_meters":38400,"station_id":"","pricing_plan_id":"cebpf4jnsgd1na2vs0mg"},{"bike_id":"73d834fb-e5b5-46db-8e60-2e0f290ea695","system_id":"levelo_inurba_marseille","lat":43.29522,"lon":5.39038,"is_reserved":false,"is_disabled":false,"rental_uris":{"android":"levelo://app?vid=73d834fb-e5b5-46db-8e60-2e0f290ea695","ios":"levelo://app?vid=73d834fb-e5b5-46db-8e60-2e0f290ea695"},"vehicle_type_id":"4","last_reported":1737662957,"current_range_meters":38800,"station_id":"ce4bh3p2rcd13ifvqdp0","pricing_plan_id":"cebpf4jnsgd1na2vs0mg"},{"bike_id":"4f75b1fa-536e-45b4-921f-e2ada745ee42","system_id":"levelo_inurba_marseille","lat":43.27967,"lon":5.38745,"is_reserved":false,"is_disabled":false,"rental_uris":{"android":"levelo://app?vid=4f75b1fa-536e-45b4-921f-e2ada745ee42","ios":"levelo://app?vid=4f75b1fa-536e-45b4-921f-e2ada745ee42"},"vehicle_type_id":"4","last_reported":1737662957,"current_range_meters":20400,"station_id":"ce4bhg12rcd13ifvqf80","pricing_plan_id":"cebpf4jnsgd1na2vs0mg"},{"bike_id":"bf096a89-ee72-4f37-85bd-7b3cf9f0cb41","system_id":"levelo_inurba_marseille","lat":43.319389,"lon":5.378974,"is_reserved":false,"is_disabled":false,"rental_uris":{"android":"levelo://app?vid=bf096a89-ee72-4f37-85bd-7b3cf9f0cb41","ios":"levelo://app?vid=bf096a89-ee72-4f37-85bd-7b3cf9f0cb41"},"vehicle_type_id":"4","last_reported":1737662957,"current_range_meters":37600,"station_id":"","pricing_plan_id":"cebpf4jnsgd1na2vs0mg"},{"bike_id":"81a1ee1f-b7a3-487f-abfc-c81babfe5d0a","system_id":"levelo_inurba_marseille","lat":43.23192,"lon":5.39982,"is_reserved":false,"is_disabled":false,"rental_uris":{"android":"levelo://app?vid=81a1ee1f-b7a3-487f-abfc-c81babfe5d0a","ios":"levelo://app?vid=81a1ee1f-b7a3-487f-abfc-c81babfe5d0a"},"vehicle_type_id":"4","last_reported":1737662957,"current_range_meters":8400,"station_id":"ce4bhn12rcd13ifvqgqg","pricing_plan_id":"cebpf4jnsgd1na2vs0mg"},{"bike_id":"634d56c1-a2c0-4178-97ec-f77ccc52b51c","system_id":"levelo_inurba_marseille","lat":43.231928,"lon":5.399761,"is_reserved":false,"is_disabled":false,"rental_uris":{"android":"levelo://app?vid=634d56c1-a2c0-4178-97ec-f77ccc52b51c","ios":"levelo://app?vid=634d56c1-a2c0-4178-97ec-f77ccc52b51c"},"vehicle_type_id":"4","last_reported":1737662957,"current_range_meters":34800,"station_id":"ce4bhn12rcd13ifvqgqg","pricing_plan_id":"cebpf4jnsgd1na2vs0mg"},{"bike_id":"7da2dc43-ec86-444b-b170-22e5a144ea03","system_id":"levelo_inurba_marseille","lat":43.28569,"lon":5.3949,"is_reserved":false,"is_disabled":false,"rental_uris":{"android":"levelo://app?vid=7da2dc43-ec86-444b-b170-22e5a144ea03","ios":"levelo://app?vid=7da2dc43-ec86-444b-b170-22e5a144ea03"},"vehicle_type_id":"4","last_reported":1737662957,"current_range_meters":12000,"station_id":"ce4bh292rcd13ifvqdg0","pricing_plan_id":"cebpf4jnsgd1na2vs0mg"},{"bike_id":"f672922c-4cb7-46a1-8093-07992af6e753","system_id":"levelo_inurba_marseille","lat":43.30193,"lon":5.39479,"is_reserved":false,"is_disabled":false,"rental_uris":{"android":"levelo://app?vid=f672922c-4cb7-46a1-8093-07992af6e753","ios":"levelo://app?vid=f672922c-4cb7-46a1-8093-07992af6e753"},"vehicle_type_id":"4","last_reported":1737662957,"current_range_meters":38800,"station_id":"ce4bh0p2rcd13ifvqd70","pricing_plan_id":"cebpf4jnsgd1na2vs0mg"},{"bike_id":"759b4fd4-fee8-48b7-bdb6-323496263dba","system_id":"levelo_inurba_marseille","lat":43.29518,"lon":5.39041,"is_reserved":false,"is_disabled":false,"rental_uris":{"android":"levelo://app?vid=759b4fd4-fee8-48b7-bdb6-323496263dba","ios":"levelo://app?vid=759b4fd4-fee8-48b7-bdb6-323496263dba"},"vehicle_type_id":"4","last_reported":1737662957,"current_range_meters":8000,"station_id":"ce4bh3p2rcd13ifvqdp0","pricing_plan_id":"cebpf4jnsgd1na2vs0mg"},{"bike_id":"2b79e43b-432b-49ef-b88b-b47a2c4aaf14","system_id":"levelo_inurba_marseille","lat":43.27178,"lon":5.40979,"is_reserved":false,"is_disabled":false,"rental_uris":{"android":"levelo://app?vid=2b79e43b-432b-49ef-b88b-b47a2c4aaf14","ios":"levelo://app?vid=2b79e43b-432b-49ef-b88b-b47a2c4aaf14"},"vehicle_type_id":"4","last_reported":1737662957,"current_range_meters":38800,"station_id":"ce4bhl12rcd13ifvqgf0","pricing_plan_id":"cebpf4jnsgd1na2vs0mg"},{"bike_id":"585eeb18-2506-4cb2-b41d-728fbd1f3fc8","system_id":"levelo_inurba_marseille","lat":43.311195,"lon":5.377449,"is_reserved":false,"is_disabled":false,"rental_uris":{"android":"levelo://app?vid=585eeb18-2506-4cb2-b41d-728fbd1f3fc8","ios":"levelo://app?vid=585eeb18-2506-4cb2-b41d-728fbd1f3fc8"},"vehicle_type_id":"4","last_reported":1737662957,"current_range_meters":8400,"station_id":"ce4bgt92rcd13ifvqcg0","pricing_plan_id":"cebpf4jnsgd1na2vs0mg"},{"bike_id":"2b6a0d91-799a-4bab-bccc-7b2343e4dd47","system_id":"levelo_inurba_marseille","lat":43.29093,"lon":5.38143,"is_reserved":false,"is_disabled":false,"rental_uris":{"android":"levelo://app?vid=2b6a0d91-799a-4bab-bccc-7b2343e4dd47","ios":"levelo://app?vid=2b6a0d91-799a-4bab-bccc-7b2343e4dd47"},"vehicle_type_id":"4","last_reported":1737662957,"current_range_meters":33600,"station_id":"ce4bh512rcd13ifvqe2g","pricing_plan_id":"cebpf4jnsgd1na2vs0mg"},{"bike_id":"48abaa4a-2251-4b1a-985d-736d5322fef9","system_id":"levelo_inurba_marseille","lat":43.26562,"lon":5.3729,"is_reserved":false,"is_disabled":false,"rental_uris":{"android":"levelo://app?vid=48abaa4a-2251-4b1a-985d-736d5322fef9","ios":"levelo://app?vid=48abaa4a-2251-4b1a-985d-736d5322fef9"},"vehicle_type_id":"4","last_reported":1737662957,"current_range_meters":16400,"station_id":"ce4bhg12rcd13ifvqf70","pricing_plan_id":"cebpf4jnsgd1na2vs0mg"},{"bike_id":"c02142ed-2ca3-4518-8243-f41117608462","system_id":"levelo_inurba_marseille","lat":43.29931,"lon":5.3653,"is_reserved":false,"is_disabled":false,"rental_uris":{"android":"levelo://app?vid=c02142ed-2ca3-4518-8243-f41117608462","ios":"levelo://app?vid=c02142ed-2ca3-4518-8243-f41117608462"},"vehicle_type_id":"4","last_reported":1737662957,"current_range_meters":27600,"station_id":"ce4bgm92rcd13ifvqbr0","pricing_plan_id":"cebpf4jnsgd1na2vs0mg"},{"bike_id":"58e04e08-346e-461f-85c7-12eadb78d927","system_id":"levelo_inurba_marseille","lat":43.3132,"lon":5.3971,"is_reserved":false,"is_disabled":false,"rental_uris":{"android":"levelo://app?vid=58e04e08-346e-461f-85c7-12eadb78d927","ios":"levelo://app?vid=58e04e08-346e-461f-85c7-12eadb78d927"},"vehicle_type_id":"4","last_reported":1737662957,"current_range_meters":38800,"station_id":"ce4bgvp2rcd13ifvqcu0","pricing_plan_id":"cebpf4jnsgd1na2vs0mg"},{"bike_id":"536484ed-d967-41c5-8f88-22ed70378acb","system_id":"levelo_inurba_marseille","lat":43.275,"lon":5.39752,"is_reserved":false,"is_disabled":false,"rental_uris":{"android":"levelo://app?vid=536484ed-d967-41c5-8f88-22ed70378acb","ios":"levelo://app?vid=536484ed-d967-41c5-8f88-22ed70378acb"},"vehicle_type_id":"4","last_reported":1737662957,"current_range_meters":7200,"station_id":"","pricing_plan_id":"cebpf4jnsgd1na2vs0mg"},{"bike_id":"a48a1d35-3f13-45af-a2ef-e29bf30d3d17","system_id":"levelo_inurba_marseille","lat":43.30805,"lon":5.43536,"is_reserved":false,"is_disabled":false,"rental_uris":{"android":"levelo://app?vid=a48a1d35-3f13-45af-a2ef-e29bf30d3d17","ios":"levelo://app?vid=a48a1d35-3f13-45af-a2ef-e29bf30d3d17"},"vehicle_type_id":"4","last_reported":1737662957,"current_range_meters":9600,"station_id":"ce4bhph2rcd13ifvqheg","pricing_plan_id":"cebpf4jnsgd1na2vs0mg"},{"bike_id":"43554216-5b65-4b78-a805-db76eef8eee0","system_id":"levelo_inurba_marseille","lat":43.29031,"lon":5.38647,"is_reserved":false,"is_disabled":false,"rental_uris":{"android":"levelo://app?vid=43554216-5b65-4b78-a805-db76eef8eee0","ios":"levelo://app?vid=43554216-5b65-4b78-a805-db76eef8eee0"},"vehicle_type_id":"4","last_reported":1737662957,"current_range_meters":38800,"station_id":"ce4bh4p2rcd13ifvqe0g","pricing_plan_id":"cebpf4jnsgd1na2vs0mg"},{"bike_id":"050bd42b-0fa4-4ea3-8a02-3c1196960ece","system_id":"levelo_inurba_marseille","lat":43.31646,"lon":5.37339,"is_reserved":false,"is_disabled":false,"rental_uris":{"android":"levelo://app?vid=050bd42b-0fa4-4ea3-8a02-3c1196960ece","ios":"levelo://app?vid=050bd42b-0fa4-4ea3-8a02-3c1196960ece"},"vehicle_type_id":"4","last_reported":1737662957,"current_range_meters":26000,"station_id":"","pricing_plan_id":"cebpf4jnsgd1na2vs0mg"},{"bike_id":"3a59db95-3ba3-45d9-9d51-35faeb1e0f2b","system_id":"levelo_inurba_marseille","lat":43.25122,"lon":5.40345,"is_reserved":false,"is_disabled":false,"rental_uris":{"android":"levelo://app?vid=3a59db95-3ba3-45d9-9d51-35faeb1e0f2b","ios":"levelo://app?vid=3a59db95-3ba3-45d9-9d51-35faeb1e0f2b"},"vehicle_type_id":"4","last_reported":1737662957,"current_range_meters":28800,"station_id":"ce4bhlh2rcd13ifvqgig","pricing_plan_id":"cebpf4jnsgd1na2vs0mg"},{"bike_id":"0ad149d9-6e33-405d-aa3c-5e42e0c0ed7d","system_id":"levelo_inurba_marseille","lat":43.28158,"lon":5.4264,"is_reserved":false,"is_disabled":true,"rental_uris":{"android":"levelo://app?vid=0ad149d9-6e33-405d-aa3c-5e42e0c0ed7d","ios":"levelo://app?vid=0ad149d9-6e33-405d-aa3c-5e42e0c0ed7d"},"vehicle_type_id":"4","last_reported":1737662957,"current_range_meters":800,"station_id":"ce4bhnh2rcd13ifvqgug","pricing_plan_id":"cebpf4jnsgd1na2vs0mg"},{"bike_id":"2f4fa984-4c44-4974-abb6-1d4b539de1f0","system_id":"levelo_inurba_marseille","lat":43.28703,"lon":5.38646,"is_reserved":false,"is_disabled":true,"rental_uris":{"android":"levelo://app?vid=2f4fa984-4c44-4974-abb6-1d4b539de1f0","ios":"levelo://app?vid=2f4fa984-4c44-4974-abb6-1d4b539de1f0"},"vehicle_type_id":"4","last_reported":1737662957,"current_range_meters":35600,"station_id":"","pricing_plan_id":"cebpf4jnsgd1na2vs0mg"},{"bike_id":"347dd29e-9a9e-4a37-8ddd-6e2050aaff03","system_id":"levelo_inurba_marseille","lat":43.3373,"lon":5.3919,"is_reserved":false,"is_disabled":true,"rental_uris":{"android":"levelo://app?vid=347dd29e-9a9e-4a37-8ddd-6e2050aaff03","ios":"levelo://app?vid=347dd29e-9a9e-4a37-8ddd-6e2050aaff03"},"vehicle_type_id":"4","last_reported":1737662957,"current_range_meters":0,"station_id":"ce4bhr92rcd13ifvqhsg","pricing_plan_id":"cebpf4jnsgd1na2vs0mg"},{"bike_id":"e171ea3d-34a7-4bed-9418-eb3dcd6fd5da","system_id":"levelo_inurba_marseille","lat":43.30156,"lon":5.38098,"is_reserved":false,"is_disabled":true,"rental_uris":{"android":"levelo://app?vid=e171ea3d-34a7-4bed-9418-eb3dcd6fd5da","ios":"levelo://app?vid=e171ea3d-34a7-4bed-9418-eb3dcd6fd5da"},"vehicle_type_id":"4","last_reported":1737662957,"current_range_meters":37600,"station_id":"ce4bgjp2rcd13ifvqbh0","pricing_plan_id":"cebpf4jnsgd1na2vs0mg"},{"bike_id":"33bdb648-9d21-4884-aef8-a671389b4fbb","system_id":"levelo_inurba_marseille","lat":43.29256,"lon":5.36844,"is_reserved":false,"is_disabled":false,"rental_uris":{"android":"levelo://app?vid=33bdb648-9d21-4884-aef8-a671389b4fbb","ios":"levelo://app?vid=33bdb648-9d21-4884-aef8-a671389b4fbb"},"vehicle_type_id":"4","last_reported":1737662957,"current_range_meters":38800,"station_id":"ce4bhbp2rcd13ifvqesg","pricing_plan_id":"cebpf4jnsgd1na2vs0mg"},{"bike_id":"caab0559-f2ef-469f-83ee-8a2645a0e47d","system_id":"levelo_inurba_marseille","lat":43.29015,"lon":5.38131,"is_reserved":false,"is_disabled":false,"rental_uris":{"android":"levelo://app?vid=caab0559-f2ef-469f-83ee-8a2645a0e47d","ios":"levelo://app?vid=caab0559-f2ef-469f-83ee-8a2645a0e47d"},"vehicle_type_id":"4","last_reported":1737662957,"current_range_meters":38000,"station_id":"ce4bh4p2rcd13ifvqe1g","pricing_plan_id":"cebpf4jnsgd1na2vs0mg"},{"bike_id":"f98a7ee0-f9fe-4556-933e-ecf6827038e5","system_id":"levelo_inurba_marseille","lat":43.29182,"lon":5.35709,"is_reserved":false,"is_disabled":false,"rental_uris":{"android":"levelo://app?vid=f98a7ee0-f9fe-4556-933e-ecf6827038e5","ios":"levelo://app?vid=f98a7ee0-f9fe-4556-933e-ecf6827038e5"},"vehicle_type_id":"4","last_reported":1737662957,"current_range_meters":11600,"station_id":"","pricing_plan_id":"cebpf4jnsgd1na2vs0mg"},{"bike_id":"79916f81-d534-4521-9b84-3c003ba0e1ae","system_id":"levelo_inurba_marseille","lat":43.28844,"lon":5.39313,"is_reserved":false,"is_disabled":false,"rental_uris":{"android":"levelo://app?vid=79916f81-d534-4521-9b84-3c003ba0e1ae","ios":"levelo://app?vid=79916f81-d534-4521-9b84-3c003ba0e1ae"},"vehicle_type_id":"4","last_reported":1737662957,"current_range_meters":18000,"station_id":"ce4bh2p2rcd13ifvqdi0","pricing_plan_id":"cebpf4jnsgd1na2vs0mg"},{"bike_id":"90b8a1b1-ad54-458d-9362-f5197bbdf048","system_id":"levelo_inurba_marseille","lat":43.22947,"lon":5.35352,"is_reserved":false,"is_disabled":false,"rental_uris":{"android":"levelo://app?vid=90b8a1b1-ad54-458d-9362-f5197bbdf048","ios":"levelo://app?vid=90b8a1b1-ad54-458d-9362-f5197bbdf048"},"vehicle_type_id":"4","last_reported":1737662957,"current_range_meters":38800,"station_id":"cpo3532slgdg3j2ikp40","pricing_plan_id":"cebpf4jnsgd1na2vs0mg"},{"bike_id":"bdbe4378-2ce5-4101-aa11-d43bce89b992","system_id":"levelo_inurba_marseille","lat":43.25001,"lon":5.3892,"is_reserved":false,"is_disabled":false,"rental_uris":{"android":"levelo://app?vid=bdbe4378-2ce5-4101-aa11-d43bce89b992","ios":"levelo://app?vid=bdbe4378-2ce5-4101-aa11-d43bce89b992"},"vehicle_type_id":"4","last_reported":1737662957,"current_range_meters":27600,"station_id":"ce4bhgp2rcd13ifvqfd0","pricing_plan_id":"cebpf4jnsgd1na2vs0mg"},{"bike_id":"19297b81-000d-40d5-aab0-671db058173f","system_id":"levelo_inurba_marseille","lat":43.29186,"lon":5.35806,"is_reserved":false,"is_disabled":false,"rental_uris":{"android":"levelo://app?vid=19297b81-000d-40d5-aab0-671db058173f","ios":"levelo://app?vid=19297b81-000d-40d5-aab0-671db058173f"},"vehicle_type_id":"4","last_reported":1737662957,"current_range_meters":38000,"station_id":"ce4bhb12rcd13ifvqel0","pricing_plan_id":"cebpf4jnsgd1na2vs0mg"},{"bike_id":"f8a9c055-babf-446a-a15e-cd4fca1e681f","system_id":"levelo_inurba_marseille","lat":43.3028,"lon":5.37738,"is_reserved":false,"is_disabled":false,"rental_uris":{"android":"levelo://app?vid=f8a9c055-babf-446a-a15e-cd4fca1e681f","ios":"levelo://app?vid=f8a9c055-babf-446a-a15e-cd4fca1e681f"},"vehicle_type_id":"4","last_reported":1737662957,"current_range_meters":20000,"station_id":"ce4bguh2rcd13ifvqcj0","pricing_plan_id":"cebpf4jnsgd1na2vs0mg"},{"bike_id":"d1338c39-3c83-4495-8214-c15d39c6cf89","system_id":"levelo_inurba_marseille","lat":43.29778,"lon":5.3935,"is_reserved":false,"is_disabled":false,"rental_uris":{"android":"levelo://app?vid=d1338c39-3c83-4495-8214-c15d39c6cf89","ios":"levelo://app?vid=d1338c39-3c83-4495-8214-c15d39c6cf89"},"vehicle_type_id":"4","last_reported":1737662957,"current_range_meters":28800,"station_id":"chh1huq6cuj3fo74tm60","pricing_plan_id":"cebpf4jnsgd1na2vs0mg"},{"bike_id":"62069f6c-3dd9-4b79-9f44-941214b1a57f","system_id":"levelo_inurba_marseille","lat":43.29956,"lon":5.36526,"is_reserved":false,"is_disabled":false,"rental_uris":{"android":"levelo://app?vid=62069f6c-3dd9-4b79-9f44-941214b1a57f","ios":"levelo://app?vid=62069f6c-3dd9-4b79-9f44-941214b1a57f"},"vehicle_type_id":"4","last_reported":1737662957,"current_range_meters":38800,"station_id":"ce4bgm92rcd13ifvqbr0","pricing_plan_id":"cebpf4jnsgd1na2vs0mg"},{"bike_id":"1c521484-0b29-41a9-9bd2-15ebb17b6cb5","system_id":"levelo_inurba_marseille","lat":43.27619,"lon":5.36119,"is_reserved":false,"is_disabled":false,"rental_uris":{"android":"levelo://app?vid=1c521484-0b29-41a9-9bd2-15ebb17b6cb5","ios":"levelo://app?vid=1c521484-0b29-41a9-9bd2-15ebb17b6cb5"},"vehicle_type_id":"4","last_reported":1737662957,"current_range_meters":39200,"station_id":"ce4bgj92rcd13ifvqbe0","pricing_plan_id":"cebpf4jnsgd1na2vs0mg"},{"bike_id":"ce90fea6-ff2a-4d0b-bd4f-45ced0acf4c0","system_id":"levelo_inurba_marseille","lat":43.3236,"lon":5.36751,"is_reserved":false,"is_disabled":false,"rental_uris":{"android":"levelo://app?vid=ce90fea6-ff2a-4d0b-bd4f-45ced0acf4c0","ios":"levelo://app?vid=ce90fea6-ff2a-4d0b-bd4f-45ced0acf4c0"},"vehicle_type_id":"4","last_reported":1737662957,"current_range_meters":10000,"station_id":"ce4bhsh2rcd13ifvqi2g","pricing_plan_id":"cebpf4jnsgd1na2vs0mg"},{"bike_id":"05eb4e75-cd59-4343-82d1-c95d3b887f99","system_id":"levelo_inurba_marseille","lat":43.2903,"lon":5.38646,"is_reserved":false,"is_disabled":false,"rental_uris":{"android":"levelo://app?vid=05eb4e75-cd59-4343-82d1-c95d3b887f99","ios":"levelo://app?vid=05eb4e75-cd59-4343-82d1-c95d3b887f99"},"vehicle_type_id":"4","last_reported":1737662957,"current_range_meters":17200,"station_id":"ce4bh4p2rcd13ifvqe0g","pricing_plan_id":"cebpf4jnsgd1na2vs0mg"},{"bike_id":"ab13439f-1c4b-4b83-ac72-9f4e6d1f64cb","system_id":"levelo_inurba_marseille","lat":43.31243,"lon":5.37974,"is_reserved":false,"is_disabled":true,"rental_uris":{"android":"levelo://app?vid=ab13439f-1c4b-4b83-ac72-9f4e6d1f64cb","ios":"levelo://app?vid=ab13439f-1c4b-4b83-ac72-9f4e6d1f64cb"},"vehicle_type_id":"4","last_reported":1737662957,"current_range_meters":9200,"station_id":"","pricing_plan_id":"cebpf4jnsgd1na2vs0mg"},{"bike_id":"d2c3071e-adcf-41bd-b088-c6978a9812a5","system_id":"levelo_inurba_marseille","lat":43.31063,"lon":5.40081,"is_reserved":false,"is_disabled":false,"rental_uris":{"android":"levelo://app?vid=d2c3071e-adcf-41bd-b088-c6978a9812a5","ios":"levelo://app?vid=d2c3071e-adcf-41bd-b088-c6978a9812a5"},"vehicle_type_id":"4","last_reported":1737662957,"current_range_meters":38800,"station_id":"","pricing_plan_id":"cebpf4jnsgd1na2vs0mg"},{"bike_id":"02394dc5-85af-47df-a8e1-31c154c9e2cc","system_id":"levelo_inurba_marseille","lat":43.23183,"lon":5.39983,"is_reserved":false,"is_disabled":false,"rental_uris":{"android":"levelo://app?vid=02394dc5-85af-47df-a8e1-31c154c9e2cc","ios":"levelo://app?vid=02394dc5-85af-47df-a8e1-31c154c9e2cc"},"vehicle_type_id":"4","last_reported":1737662957,"current_range_meters":36800,"station_id":"ce4bhn12rcd13ifvqgqg","pricing_plan_id":"cebpf4jnsgd1na2vs0mg"},{"bike_id":"f727cadd-b012-439d-9f69-5c90e77b0085","system_id":"levelo_inurba_marseille","lat":43.31756,"lon":5.39017,"is_reserved":false,"is_disabled":false,"rental_uris":{"android":"levelo://app?vid=f727cadd-b012-439d-9f69-5c90e77b0085","ios":"levelo://app?vid=f727cadd-b012-439d-9f69-5c90e77b0085"},"vehicle_type_id":"4","last_reported":1737662957,"current_range_meters":10800,"station_id":"ce4bhqp2rcd13ifvqhng","pricing_plan_id":"cebpf4jnsgd1na2vs0mg"},{"bike_id":"342add80-ea70-40bd-8941-7296ac6ed737","system_id":"levelo_inurba_marseille","lat":43.29036,"lon":5.38648,"is_reserved":false,"is_disabled":false,"rental_uris":{"android":"levelo://app?vid=342add80-ea70-40bd-8941-7296ac6ed737","ios":"levelo://app?vid=342add80-ea70-40bd-8941-7296ac6ed737"},"vehicle_type_id":"4","last_reported":1737662957,"current_range_meters":27600,"station_id":"ce4bh4p2rcd13ifvqe0g","pricing_plan_id":"cebpf4jnsgd1na2vs0mg"},{"bike_id":"b1f8f522-3427-497a-818f-0acb1229afc9","system_id":"levelo_inurba_marseille","lat":43.29605,"lon":5.38101,"is_reserved":false,"is_disabled":false,"rental_uris":{"android":"levelo://app?vid=b1f8f522-3427-497a-818f-0acb1229afc9","ios":"levelo://app?vid=b1f8f522-3427-497a-818f-0acb1229afc9"},"vehicle_type_id":"4","last_reported":1737662957,"current_range_meters":10000,"station_id":"ce4bgl12rcd13ifvqbo0","pricing_plan_id":"cebpf4jnsgd1na2vs0mg"},{"bike_id":"852c4b2c-ff0b-4349-b1ad-8f4566913b6c","system_id":"levelo_inurba_marseille","lat":43.29691,"lon":5.37655,"is_reserved":false,"is_disabled":true,"rental_uris":{"android":"levelo://app?vid=852c4b2c-ff0b-4349-b1ad-8f4566913b6c","ios":"levelo://app?vid=852c4b2c-ff0b-4349-b1ad-8f4566913b6c"},"vehicle_type_id":"4","last_reported":1737662957,"current_range_meters":0,"station_id":"ce4bgkh2rcd13ifvqbl0","pricing_plan_id":"cebpf4jnsgd1na2vs0mg"},{"bike_id":"78fdab03-275f-4f4e-89ae-49e9a29fa9c1","system_id":"levelo_inurba_marseille","lat":43.24174,"lon":5.39731,"is_reserved":false,"is_disabled":false,"rental_uris":{"android":"levelo://app?vid=78fdab03-275f-4f4e-89ae-49e9a29fa9c1","ios":"levelo://app?vid=78fdab03-275f-4f4e-89ae-49e9a29fa9c1"},"vehicle_type_id":"4","last_reported":1737662957,"current_range_meters":14000,"station_id":"ce4bhn12rcd13ifvqgpg","pricing_plan_id":"cebpf4jnsgd1na2vs0mg"},{"bike_id":"1b1b1e1a-6b16-4682-ba4c-0fb44481fe5f","system_id":"levelo_inurba_marseille","lat":43.29973,"lon":5.38488,"is_reserved":false,"is_disabled":false,"rental_uris":{"android":"levelo://app?vid=1b1b1e1a-6b16-4682-ba4c-0fb44481fe5f","ios":"levelo://app?vid=1b1b1e1a-6b16-4682-ba4c-0fb44481fe5f"},"vehicle_type_id":"4","last_reported":1737662957,"current_range_meters":26000,"station_id":"ce4bgj92rcd13ifvqbd0","pricing_plan_id":"cebpf4jnsgd1na2vs0mg"},{"bike_id":"b908caa5-f3a7-40cb-a00e-5d24943280f5","system_id":"levelo_inurba_marseille","lat":43.301339,"lon":5.398617,"is_reserved":false,"is_disabled":false,"rental_uris":{"android":"levelo://app?vid=b908caa5-f3a7-40cb-a00e-5d24943280f5","ios":"levelo://app?vid=b908caa5-f3a7-40cb-a00e-5d24943280f5"},"vehicle_type_id":"4","last_reported":1737662957,"current_range_meters":36400,"station_id":"ce4bh0h2rcd13ifvqd40","pricing_plan_id":"cebpf4jnsgd1na2vs0mg"},{"bike_id":"a6589423-f81d-43db-8547-4d93d0a4d5b1","system_id":"levelo_inurba_marseille","lat":43.30931,"lon":5.40147,"is_reserved":false,"is_disabled":false,"rental_uris":{"android":"levelo://app?vid=a6589423-f81d-43db-8547-4d93d0a4d5b1","ios":"levelo://app?vid=a6589423-f81d-43db-8547-4d93d0a4d5b1"},"vehicle_type_id":"4","last_reported":1737662957,"current_range_meters":38400,"station_id":"ce4bgvp2rcd13ifvqct0","pricing_plan_id":"cebpf4jnsgd1na2vs0mg"},{"bike_id":"d9116d70-9fe4-4bfa-813f-a05c0ef23908","system_id":"levelo_inurba_marseille","lat":43.28578,"lon":5.39499,"is_reserved":false,"is_disabled":false,"rental_uris":{"android":"levelo://app?vid=d9116d70-9fe4-4bfa-813f-a05c0ef23908","ios":"levelo://app?vid=d9116d70-9fe4-4bfa-813f-a05c0ef23908"},"vehicle_type_id":"4","last_reported":1737662957,"current_range_meters":37600,"station_id":"ce4bh292rcd13ifvqdg0","pricing_plan_id":"cebpf4jnsgd1na2vs0mg"},{"bike_id":"96e5c1aa-2307-4bf8-9467-9f5d0ba83fc7","system_id":"levelo_inurba_marseille","lat":43.32367,"lon":5.38881,"is_reserved":false,"is_disabled":false,"rental_uris":{"android":"levelo://app?vid=96e5c1aa-2307-4bf8-9467-9f5d0ba83fc7","ios":"levelo://app?vid=96e5c1aa-2307-4bf8-9467-9f5d0ba83fc7"},"vehicle_type_id":"4","last_reported":1737662957,"current_range_meters":4400,"station_id":"ce4bhqp2rcd13ifvqhog","pricing_plan_id":"cebpf4jnsgd1na2vs0mg"},{"bike_id":"08e327aa-4f5b-4e8a-b7e7-01baaa34cbd9","system_id":"levelo_inurba_marseille","lat":43.28006,"lon":5.40004,"is_reserved":false,"is_disabled":false,"rental_uris":{"android":"levelo://app?vid=08e327aa-4f5b-4e8a-b7e7-01baaa34cbd9","ios":"levelo://app?vid=08e327aa-4f5b-4e8a-b7e7-01baaa34cbd9"},"vehicle_type_id":"4","last_reported":1737662957,"current_range_meters":38800,"station_id":"ce4bho92rcd13ifvqh4g","pricing_plan_id":"cebpf4jnsgd1na2vs0mg"},{"bike_id":"acb23a67-c708-4e69-adcd-37fdba94603e","system_id":"levelo_inurba_marseille","lat":43.27965,"lon":5.38679,"is_reserved":false,"is_disabled":false,"rental_uris":{"android":"levelo://app?vid=acb23a67-c708-4e69-adcd-37fdba94603e","ios":"levelo://app?vid=acb23a67-c708-4e69-adcd-37fdba94603e"},"vehicle_type_id":"4","last_reported":1737662957,"current_range_meters":9200,"station_id":"","pricing_plan_id":"cebpf4jnsgd1na2vs0mg"},{"bike_id":"1d5451bc-9200-4258-8cfb-d03210e0a5bd","system_id":"levelo_inurba_marseille","lat":43.29264,"lon":5.38456,"is_reserved":false,"is_disabled":false,"rental_uris":{"android":"levelo://app?vid=1d5451bc-9200-4258-8cfb-d03210e0a5bd","ios":"levelo://app?vid=1d5451bc-9200-4258-8cfb-d03210e0a5bd"},"vehicle_type_id":"4","last_reported":1737662957,"current_range_meters":17600,"station_id":"ce4bh692rcd13ifvqea0","pricing_plan_id":"cebpf4jnsgd1na2vs0mg"},{"bike_id":"1cf55402-87c5-435d-85af-2c6c0e9ef152","system_id":"levelo_inurba_marseille","lat":43.32474,"lon":5.36569,"is_reserved":false,"is_disabled":false,"rental_uris":{"android":"levelo://app?vid=1cf55402-87c5-435d-85af-2c6c0e9ef152","ios":"levelo://app?vid=1cf55402-87c5-435d-85af-2c6c0e9ef152"},"vehicle_type_id":"4","last_reported":1737662957,"current_range_meters":7200,"station_id":"ce4bhs12rcd13ifvqhvg","pricing_plan_id":"cebpf4jnsgd1na2vs0mg"},{"bike_id":"85c4b304-0a15-4fc1-b75d-cfc16b5afe60","system_id":"levelo_inurba_marseille","lat":43.22932,"lon":5.35372,"is_reserved":false,"is_disabled":false,"rental_uris":{"android":"levelo://app?vid=85c4b304-0a15-4fc1-b75d-cfc16b5afe60","ios":"levelo://app?vid=85c4b304-0a15-4fc1-b75d-cfc16b5afe60"},"vehicle_type_id":"4","last_reported":1737662957,"current_range_meters":35600,"station_id":"cpo3532slgdg3j2ikp40","pricing_plan_id":"cebpf4jnsgd1na2vs0mg"},{"bike_id":"3b7f2939-fa4b-4741-bee8-72ae789f905a","system_id":"levelo_inurba_marseille","lat":43.29968,"lon":5.38493,"is_reserved":false,"is_disabled":false,"rental_uris":{"android":"levelo://app?vid=3b7f2939-fa4b-4741-bee8-72ae789f905a","ios":"levelo://app?vid=3b7f2939-fa4b-4741-bee8-72ae789f905a"},"vehicle_type_id":"4","last_reported":1737662957,"current_range_meters":36800,"station_id":"ce4bgj92rcd13ifvqbd0","pricing_plan_id":"cebpf4jnsgd1na2vs0mg"},{"bike_id":"f7f20ea8-ac89-40b3-bd17-c73f31722701","system_id":"levelo_inurba_marseille","lat":43.29896,"lon":5.43665,"is_reserved":false,"is_disabled":false,"rental_uris":{"android":"levelo://app?vid=f7f20ea8-ac89-40b3-bd17-c73f31722701","ios":"levelo://app?vid=f7f20ea8-ac89-40b3-bd17-c73f31722701"},"vehicle_type_id":"4","last_reported":1737662957,"current_range_meters":6000,"station_id":"ce4bhpp2rcd13ifvqhfg","pricing_plan_id":"cebpf4jnsgd1na2vs0mg"},{"bike_id":"d7c147af-d33c-4d5f-826c-e178adad30bd","system_id":"levelo_inurba_marseille","lat":43.28161,"lon":5.42646,"is_reserved":false,"is_disabled":false,"rental_uris":{"android":"levelo://app?vid=d7c147af-d33c-4d5f-826c-e178adad30bd","ios":"levelo://app?vid=d7c147af-d33c-4d5f-826c-e178adad30bd"},"vehicle_type_id":"4","last_reported":1737662957,"current_range_meters":38800,"station_id":"ce4bhnh2rcd13ifvqgug","pricing_plan_id":"cebpf4jnsgd1na2vs0mg"},{"bike_id":"529ebab8-9842-40f3-ac8e-baef3a72d246","system_id":"levelo_inurba_marseille","lat":43.29533,"lon":5.3854,"is_reserved":false,"is_disabled":false,"rental_uris":{"android":"levelo://app?vid=529ebab8-9842-40f3-ac8e-baef3a72d246","ios":"levelo://app?vid=529ebab8-9842-40f3-ac8e-baef3a72d246"},"vehicle_type_id":"4","last_reported":1737662957,"current_range_meters":13600,"station_id":"ce4bgih2rcd13ifvqba0","pricing_plan_id":"cebpf4jnsgd1na2vs0mg"},{"bike_id":"57ce499e-d4f7-4b47-be4a-ba8113d200a0","system_id":"levelo_inurba_marseille","lat":43.27983,"lon":5.41652,"is_reserved":false,"is_disabled":false,"rental_uris":{"android":"levelo://app?vid=57ce499e-d4f7-4b47-be4a-ba8113d200a0","ios":"levelo://app?vid=57ce499e-d4f7-4b47-be4a-ba8113d200a0"},"vehicle_type_id":"4","last_reported":1737662957,"current_range_meters":30400,"station_id":"ce4bho12rcd13ifvqh1g","pricing_plan_id":"cebpf4jnsgd1na2vs0mg"},{"bike_id":"232b25b7-fa81-4630-9104-082348ac0480","system_id":"levelo_inurba_marseille","lat":43.27991,"lon":5.40029,"is_reserved":false,"is_disabled":false,"rental_uris":{"android":"levelo://app?vid=232b25b7-fa81-4630-9104-082348ac0480","ios":"levelo://app?vid=232b25b7-fa81-4630-9104-082348ac0480"},"vehicle_type_id":"4","last_reported":1737662957,"current_range_meters":38800,"station_id":"ce4bho92rcd13ifvqh4g","pricing_plan_id":"cebpf4jnsgd1na2vs0mg"},{"bike_id":"8af1c3bf-d95a-49d2-9e41-e6224116f20e","system_id":"levelo_inurba_marseille","lat":43.29192,"lon":5.35804,"is_reserved":false,"is_disabled":false,"rental_uris":{"android":"levelo://app?vid=8af1c3bf-d95a-49d2-9e41-e6224116f20e","ios":"levelo://app?vid=8af1c3bf-d95a-49d2-9e41-e6224116f20e"},"vehicle_type_id":"4","last_reported":1737662957,"current_range_meters":39200,"station_id":"ce4bhb12rcd13ifvqel0","pricing_plan_id":"cebpf4jnsgd1na2vs0mg"},{"bike_id":"4e380639-d598-4a58-a3ac-ac21b5057d06","system_id":"levelo_inurba_marseille","lat":43.29418,"lon":5.38631,"is_reserved":false,"is_disabled":false,"rental_uris":{"android":"levelo://app?vid=4e380639-d598-4a58-a3ac-ac21b5057d06","ios":"levelo://app?vid=4e380639-d598-4a58-a3ac-ac21b5057d06"},"vehicle_type_id":"4","last_reported":1737662957,"current_range_meters":32400,"station_id":"ce4bh2h2rcd13ifvqdh0","pricing_plan_id":"cebpf4jnsgd1na2vs0mg"},{"bike_id":"7a55f28a-5a5b-4ca4-9825-dee123c17d08","system_id":"levelo_inurba_marseille","lat":43.32108,"lon":5.36774,"is_reserved":false,"is_disabled":false,"rental_uris":{"android":"levelo://app?vid=7a55f28a-5a5b-4ca4-9825-dee123c17d08","ios":"levelo://app?vid=7a55f28a-5a5b-4ca4-9825-dee123c17d08"},"vehicle_type_id":"4","last_reported":1737662957,"current_range_meters":39200,"station_id":"ce4bhrh2rcd13ifvqhug","pricing_plan_id":"cebpf4jnsgd1na2vs0mg"},{"bike_id":"08e778bf-db0c-4c38-be6c-0bfadd4782d0","system_id":"levelo_inurba_marseille","lat":43.29203,"lon":5.39312,"is_reserved":false,"is_disabled":false,"rental_uris":{"android":"levelo://app?vid=08e778bf-db0c-4c38-be6c-0bfadd4782d0","ios":"levelo://app?vid=08e778bf-db0c-4c38-be6c-0bfadd4782d0"},"vehicle_type_id":"4","last_reported":1737662957,"current_range_meters":5600,"station_id":"ce4bh192rcd13ifvqdd0","pricing_plan_id":"cebpf4jnsgd1na2vs0mg"},{"bike_id":"1f19e2c0-0446-47cd-964f-885966fbfc63","system_id":"levelo_inurba_marseille","lat":43.25589,"lon":5.38234,"is_reserved":false,"is_disabled":false,"rental_uris":{"android":"levelo://app?vid=1f19e2c0-0446-47cd-964f-885966fbfc63","ios":"levelo://app?vid=1f19e2c0-0446-47cd-964f-885966fbfc63"},"vehicle_type_id":"4","last_reported":1737662957,"current_range_meters":10000,"station_id":"ce4bhih2rcd13ifvqfs0","pricing_plan_id":"cebpf4jnsgd1na2vs0mg"},{"bike_id":"0257a80f-281f-4d9c-9d7c-64d0373906f3","system_id":"levelo_inurba_marseille","lat":43.26684,"lon":5.38255,"is_reserved":false,"is_disabled":false,"rental_uris":{"android":"levelo://app?vid=0257a80f-281f-4d9c-9d7c-64d0373906f3","ios":"levelo://app?vid=0257a80f-281f-4d9c-9d7c-64d0373906f3"},"vehicle_type_id":"4","last_reported":1737662957,"current_range_meters":39200,"station_id":"ce4bhg92rcd13ifvqf90","pricing_plan_id":"cebpf4jnsgd1na2vs0mg"},{"bike_id":"553fb1e9-2cc4-4af4-b989-6ce7ea1c8a84","system_id":"levelo_inurba_marseille","lat":43.28453,"lon":5.35889,"is_reserved":false,"is_disabled":false,"rental_uris":{"android":"levelo://app?vid=553fb1e9-2cc4-4af4-b989-6ce7ea1c8a84","ios":"levelo://app?vid=553fb1e9-2cc4-4af4-b989-6ce7ea1c8a84"},"vehicle_type_id":"4","last_reported":1737662957,"current_range_meters":38800,"station_id":"ce4bhah2rcd13ifvqei0","pricing_plan_id":"cebpf4jnsgd1na2vs0mg"},{"bike_id":"7ae57d4a-987c-4a94-bf67-7089b41c8d83","system_id":"levelo_inurba_marseille","lat":43.27614,"lon":5.3611,"is_reserved":false,"is_disabled":false,"rental_uris":{"android":"levelo://app?vid=7ae57d4a-987c-4a94-bf67-7089b41c8d83","ios":"levelo://app?vid=7ae57d4a-987c-4a94-bf67-7089b41c8d83"},"vehicle_type_id":"4","last_reported":1737662957,"current_range_meters":38800,"station_id":"ce4bgj92rcd13ifvqbe0","pricing_plan_id":"cebpf4jnsgd1na2vs0mg"},{"bike_id":"30179832-5a65-44ae-a5a5-1af37f487ed1","system_id":"levelo_inurba_marseille","lat":43.31505,"lon":5.37288,"is_reserved":false,"is_disabled":false,"rental_uris":{"android":"levelo://app?vid=30179832-5a65-44ae-a5a5-1af37f487ed1","ios":"levelo://app?vid=30179832-5a65-44ae-a5a5-1af37f487ed1"},"vehicle_type_id":"4","last_reported":1737662957,"current_range_meters":38800,"station_id":"ce4bgt12rcd13ifvqcd0","pricing_plan_id":"cebpf4jnsgd1na2vs0mg"},{"bike_id":"acc9e968-42f2-443f-bb58-cd32856c66f2","system_id":"levelo_inurba_marseille","lat":43.28404,"lon":5.37515,"is_reserved":false,"is_disabled":false,"rental_uris":{"android":"levelo://app?vid=acc9e968-42f2-443f-bb58-cd32856c66f2","ios":"levelo://app?vid=acc9e968-42f2-443f-bb58-cd32856c66f2"},"vehicle_type_id":"4","last_reported":1737662957,"current_range_meters":28000,"station_id":"ce4bh412rcd13ifvqds0","pricing_plan_id":"cebpf4jnsgd1na2vs0mg"},{"bike_id":"6a200a6c-be29-4daf-8a99-35eadd55ad94","system_id":"levelo_inurba_marseille","lat":43.29422,"lon":5.38619,"is_reserved":false,"is_disabled":false,"rental_uris":{"android":"levelo://app?vid=6a200a6c-be29-4daf-8a99-35eadd55ad94","ios":"levelo://app?vid=6a200a6c-be29-4daf-8a99-35eadd55ad94"},"vehicle_type_id":"4","last_reported":1737662957,"current_range_meters":38800,"station_id":"ce4bh2h2rcd13ifvqdh0","pricing_plan_id":"cebpf4jnsgd1na2vs0mg"},{"bike_id":"df8b68b0-a61c-401e-bc1c-616ed6cec7e0","system_id":"levelo_inurba_marseille","lat":43.26943,"lon":5.38633,"is_reserved":false,"is_disabled":true,"rental_uris":{"android":"levelo://app?vid=df8b68b0-a61c-401e-bc1c-616ed6cec7e0","ios":"levelo://app?vid=df8b68b0-a61c-401e-bc1c-616ed6cec7e0"},"vehicle_type_id":"4","last_reported":1737662957,"current_range_meters":38800,"station_id":"ce4bhh92rcd13ifvqfh0","pricing_plan_id":"cebpf4jnsgd1na2vs0mg"},{"bike_id":"35614ed7-a0df-4792-bca2-a1978fcd9fab","system_id":"levelo_inurba_marseille","lat":43.30804,"lon":5.43531,"is_reserved":false,"is_disabled":true,"rental_uris":{"android":"levelo://app?vid=35614ed7-a0df-4792-bca2-a1978fcd9fab","ios":"levelo://app?vid=35614ed7-a0df-4792-bca2-a1978fcd9fab"},"vehicle_type_id":"4","last_reported":1737662957,"current_range_meters":0,"station_id":"ce4bhph2rcd13ifvqheg","pricing_plan_id":"cebpf4jnsgd1na2vs0mg"},{"bike_id":"59330309-df9a-48c4-9235-796da7a2782d","system_id":"levelo_inurba_marseille","lat":43.30789,"lon":5.43515,"is_reserved":false,"is_disabled":true,"rental_uris":{"android":"levelo://app?vid=59330309-df9a-48c4-9235-796da7a2782d","ios":"levelo://app?vid=59330309-df9a-48c4-9235-796da7a2782d"},"vehicle_type_id":"4","last_reported":1737662957,"current_range_meters":0,"station_id":"ce4bhph2rcd13ifvqheg","pricing_plan_id":"cebpf4jnsgd1na2vs0mg"},{"bike_id":"a8ca4551-7448-462b-add1-48ebda2d606e","system_id":"levelo_inurba_marseille","lat":43.29099,"lon":5.38135,"is_reserved":false,"is_disabled":false,"rental_uris":{"android":"levelo://app?vid=a8ca4551-7448-462b-add1-48ebda2d606e","ios":"levelo://app?vid=a8ca4551-7448-462b-add1-48ebda2d606e"},"vehicle_type_id":"4","last_reported":1737662957,"current_range_meters":12400,"station_id":"ce4bh512rcd13ifvqe2g","pricing_plan_id":"cebpf4jnsgd1na2vs0mg"},{"bike_id":"8661b5e3-5c50-41b5-9990-f6cea7332865","system_id":"levelo_inurba_marseille","lat":43.29204,"lon":5.35781,"is_reserved":false,"is_disabled":false,"rental_uris":{"android":"levelo://app?vid=8661b5e3-5c50-41b5-9990-f6cea7332865","ios":"levelo://app?vid=8661b5e3-5c50-41b5-9990-f6cea7332865"},"vehicle_type_id":"4","last_reported":1737662957,"current_range_meters":38800,"station_id":"ce4bhb12rcd13ifvqel0","pricing_plan_id":"cebpf4jnsgd1na2vs0mg"},{"bike_id":"d46258ed-a962-4de8-8236-a55809280d9c","system_id":"levelo_inurba_marseille","lat":43.31757,"lon":5.39021,"is_reserved":false,"is_disabled":false,"rental_uris":{"android":"levelo://app?vid=d46258ed-a962-4de8-8236-a55809280d9c","ios":"levelo://app?vid=d46258ed-a962-4de8-8236-a55809280d9c"},"vehicle_type_id":"4","last_reported":1737662957,"current_range_meters":27200,"station_id":"ce4bhqp2rcd13ifvqhng","pricing_plan_id":"cebpf4jnsgd1na2vs0mg"},{"bike_id":"5e0169dd-cfb6-4345-b9e5-59ab64e75e4d","system_id":"levelo_inurba_marseille","lat":43.32283,"lon":5.38272,"is_reserved":false,"is_disabled":false,"rental_uris":{"android":"levelo://app?vid=5e0169dd-cfb6-4345-b9e5-59ab64e75e4d","ios":"levelo://app?vid=5e0169dd-cfb6-4345-b9e5-59ab64e75e4d"},"vehicle_type_id":"4","last_reported":1737662957,"current_range_meters":38800,"station_id":"ce4bhr12rcd13ifvqhqg","pricing_plan_id":"cebpf4jnsgd1na2vs0mg"},{"bike_id":"bf49bae2-9c26-4641-9558-b17e1f3df312","system_id":"levelo_inurba_marseille","lat":43.23192,"lon":5.39959,"is_reserved":false,"is_disabled":false,"rental_uris":{"android":"levelo://app?vid=bf49bae2-9c26-4641-9558-b17e1f3df312","ios":"levelo://app?vid=bf49bae2-9c26-4641-9558-b17e1f3df312"},"vehicle_type_id":"4","last_reported":1737662957,"current_range_meters":38800,"station_id":"ce4bhn12rcd13ifvqgqg","pricing_plan_id":"cebpf4jnsgd1na2vs0mg"},{"bike_id":"96bd9e64-ec79-445f-af92-f8aeeeeb8575","system_id":"levelo_inurba_marseille","lat":43.28407,"lon":5.37515,"is_reserved":false,"is_disabled":false,"rental_uris":{"android":"levelo://app?vid=96bd9e64-ec79-445f-af92-f8aeeeeb8575","ios":"levelo://app?vid=96bd9e64-ec79-445f-af92-f8aeeeeb8575"},"vehicle_type_id":"4","last_reported":1737662957,"current_range_meters":10800,"station_id":"ce4bh412rcd13ifvqds0","pricing_plan_id":"cebpf4jnsgd1na2vs0mg"},{"bike_id":"1f435d6e-5396-4e52-9170-20c8b82a82eb","system_id":"levelo_inurba_marseille","lat":43.31065,"lon":5.38336,"is_reserved":false,"is_disabled":false,"rental_uris":{"android":"levelo://app?vid=1f435d6e-5396-4e52-9170-20c8b82a82eb","ios":"levelo://app?vid=1f435d6e-5396-4e52-9170-20c8b82a82eb"},"vehicle_type_id":"4","last_reported":1737662957,"current_range_meters":17200,"station_id":"ce4bgv92rcd13ifvqcr0","pricing_plan_id":"cebpf4jnsgd1na2vs0mg"},{"bike_id":"eb3ca7ae-a1ea-4fc7-908d-1a734718f0d6","system_id":"levelo_inurba_marseille","lat":43.28417,"lon":5.37506,"is_reserved":false,"is_disabled":false,"rental_uris":{"android":"levelo://app?vid=eb3ca7ae-a1ea-4fc7-908d-1a734718f0d6","ios":"levelo://app?vid=eb3ca7ae-a1ea-4fc7-908d-1a734718f0d6"},"vehicle_type_id":"4","last_reported":1737662957,"current_range_meters":10000,"station_id":"ce4bh412rcd13ifvqds0","pricing_plan_id":"cebpf4jnsgd1na2vs0mg"},{"bike_id":"3712a428-072f-4484-89bb-69b0e4e24233","system_id":"levelo_inurba_marseille","lat":43.31261,"lon":5.40159,"is_reserved":false,"is_disabled":false,"rental_uris":{"android":"levelo://app?vid=3712a428-072f-4484-89bb-69b0e4e24233","ios":"levelo://app?vid=3712a428-072f-4484-89bb-69b0e4e24233"},"vehicle_type_id":"4","last_reported":1737662957,"current_range_meters":37600,"station_id":"ce4bh092rcd13ifvqd30","pricing_plan_id":"cebpf4jnsgd1na2vs0mg"},{"bike_id":"0835fdee-96cd-4bac-a68b-50000a930abe","system_id":"levelo_inurba_marseille","lat":43.29866,"lon":5.36276,"is_reserved":false,"is_disabled":false,"rental_uris":{"android":"levelo://app?vid=0835fdee-96cd-4bac-a68b-50000a930abe","ios":"levelo://app?vid=0835fdee-96cd-4bac-a68b-50000a930abe"},"vehicle_type_id":"4","last_reported":1737662957,"current_range_meters":38800,"station_id":"ce4bgpp2rcd13ifvqc3g","pricing_plan_id":"cebpf4jnsgd1na2vs0mg"},{"bike_id":"61e72528-5de1-4c6b-b1a4-02485f947e82","system_id":"levelo_inurba_marseille","lat":43.30891,"lon":5.39652,"is_reserved":false,"is_disabled":false,"rental_uris":{"android":"levelo://app?vid=61e72528-5de1-4c6b-b1a4-02485f947e82","ios":"levelo://app?vid=61e72528-5de1-4c6b-b1a4-02485f947e82"},"vehicle_type_id":"4","last_reported":1737662957,"current_range_meters":37600,"station_id":"ce4bh012rcd13ifvqcv0","pricing_plan_id":"cebpf4jnsgd1na2vs0mg"},{"bike_id":"730a19d7-8638-4500-9d66-b33219f24537","system_id":"levelo_inurba_marseille","lat":43.30802,"lon":5.4352,"is_reserved":false,"is_disabled":false,"rental_uris":{"android":"levelo://app?vid=730a19d7-8638-4500-9d66-b33219f24537","ios":"levelo://app?vid=730a19d7-8638-4500-9d66-b33219f24537"},"vehicle_type_id":"4","last_reported":1737662957,"current_range_meters":24800,"station_id":"ce4bhph2rcd13ifvqheg","pricing_plan_id":"cebpf4jnsgd1na2vs0mg"},{"bike_id":"d2b4ed73-d7f8-4c49-bef7-db3f88698c80","system_id":"levelo_inurba_marseille","lat":43.30327,"lon":5.40441,"is_reserved":false,"is_disabled":false,"rental_uris":{"android":"levelo://app?vid=d2b4ed73-d7f8-4c49-bef7-db3f88698c80","ios":"levelo://app?vid=d2b4ed73-d7f8-4c49-bef7-db3f88698c80"},"vehicle_type_id":"4","last_reported":1737662957,"current_range_meters":38800,"station_id":"ce4bh012rcd13ifvqd10","pricing_plan_id":"cebpf4jnsgd1na2vs0mg"},{"bike_id":"f2a423d2-541a-4d27-98b1-bbdc8f11174c","system_id":"levelo_inurba_marseille","lat":43.30591,"lon":5.39331,"is_reserved":false,"is_disabled":true,"rental_uris":{"android":"levelo://app?vid=f2a423d2-541a-4d27-98b1-bbdc8f11174c","ios":"levelo://app?vid=f2a423d2-541a-4d27-98b1-bbdc8f11174c"},"vehicle_type_id":"4","last_reported":1737662957,"current_range_meters":8800,"station_id":"ce4bh0p2rcd13ifvqd80","pricing_plan_id":"cebpf4jnsgd1na2vs0mg"},{"bike_id":"90562b19-8802-4e76-a682-f90dad6ec469","system_id":"levelo_inurba_marseille","lat":43.29544,"lon":5.38547,"is_reserved":false,"is_disabled":true,"rental_uris":{"android":"levelo://app?vid=90562b19-8802-4e76-a682-f90dad6ec469","ios":"levelo://app?vid=90562b19-8802-4e76-a682-f90dad6ec469"},"vehicle_type_id":"4","last_reported":1737662957,"current_range_meters":800,"station_id":"ce4bgih2rcd13ifvqba0","pricing_plan_id":"cebpf4jnsgd1na2vs0mg"},{"bike_id":"9863b7f9-4316-4322-9f6c-3cc66b0448e2","system_id":"levelo_inurba_marseille","lat":43.279439,"lon":5.389008,"is_reserved":false,"is_disabled":true,"rental_uris":{"android":"levelo://app?vid=9863b7f9-4316-4322-9f6c-3cc66b0448e2","ios":"levelo://app?vid=9863b7f9-4316-4322-9f6c-3cc66b0448e2"},"vehicle_type_id":"4","last_reported":1737662957,"current_range_meters":23200,"station_id":"","pricing_plan_id":"cebpf4jnsgd1na2vs0mg"},{"bike_id":"a500873e-6683-42d5-9071-d5e5d7732db1","system_id":"levelo_inurba_marseille","lat":43.25874,"lon":5.39901,"is_reserved":false,"is_disabled":false,"rental_uris":{"android":"levelo://app?vid=a500873e-6683-42d5-9071-d5e5d7732db1","ios":"levelo://app?vid=a500873e-6683-42d5-9071-d5e5d7732db1"},"vehicle_type_id":"4","last_reported":1737662957,"current_range_meters":33200,"station_id":"ce4bhl92rcd13ifvqghg","pricing_plan_id":"cebpf4jnsgd1na2vs0mg"},{"bike_id":"ab927040-bfc3-4782-b1b3-ffbf9d71bc34","system_id":"levelo_inurba_marseille","lat":43.26694,"lon":5.38272,"is_reserved":false,"is_disabled":true,"rental_uris":{"android":"levelo://app?vid=ab927040-bfc3-4782-b1b3-ffbf9d71bc34","ios":"levelo://app?vid=ab927040-bfc3-4782-b1b3-ffbf9d71bc34"},"vehicle_type_id":"4","last_reported":1737662957,"current_range_meters":38800,"station_id":"ce4bhg92rcd13ifvqf90","pricing_plan_id":"cebpf4jnsgd1na2vs0mg"},{"bike_id":"76a448b4-1bb4-495c-8be7-e91bbdf5d93d","system_id":"levelo_inurba_marseille","lat":43.30824,"lon":5.36778,"is_reserved":false,"is_disabled":false,"rental_uris":{"android":"levelo://app?vid=76a448b4-1bb4-495c-8be7-e91bbdf5d93d","ios":"levelo://app?vid=76a448b4-1bb4-495c-8be7-e91bbdf5d93d"},"vehicle_type_id":"4","last_reported":1737662957,"current_range_meters":31200,"station_id":"","pricing_plan_id":"cebpf4jnsgd1na2vs0mg"},{"bike_id":"b2fbce03-fc73-43fc-8310-00d51a36d835","system_id":"levelo_inurba_marseille","lat":43.29419,"lon":5.38633,"is_reserved":false,"is_disabled":false,"rental_uris":{"android":"levelo://app?vid=b2fbce03-fc73-43fc-8310-00d51a36d835","ios":"levelo://app?vid=b2fbce03-fc73-43fc-8310-00d51a36d835"},"vehicle_type_id":"4","last_reported":1737662957,"current_range_meters":12400,"station_id":"ce4bh2h2rcd13ifvqdh0","pricing_plan_id":"cebpf4jnsgd1na2vs0mg"},{"bike_id":"e11d5e25-e272-47e7-bd8a-065bf108edeb","system_id":"levelo_inurba_marseille","lat":43.29258,"lon":5.38434,"is_reserved":false,"is_disabled":true,"rental_uris":{"android":"levelo://app?vid=e11d5e25-e272-47e7-bd8a-065bf108edeb","ios":"levelo://app?vid=e11d5e25-e272-47e7-bd8a-065bf108edeb"},"vehicle_type_id":"4","last_reported":1737662957,"current_range_meters":17600,"station_id":"ce4bh692rcd13ifvqea0","pricing_plan_id":"cebpf4jnsgd1na2vs0mg"},{"bike_id":"59b67cbc-6780-48d5-90a1-d0a5806837c9","system_id":"levelo_inurba_marseille","lat":43.29274,"lon":5.40892,"is_reserved":false,"is_disabled":false,"rental_uris":{"android":"levelo://app?vid=59b67cbc-6780-48d5-90a1-d0a5806837c9","ios":"levelo://app?vid=59b67cbc-6780-48d5-90a1-d0a5806837c9"},"vehicle_type_id":"4","last_reported":1737662957,"current_range_meters":29600,"station_id":"ce4bh192rcd13ifvqdc0","pricing_plan_id":"cebpf4jnsgd1na2vs0mg"},{"bike_id":"7555df76-45e5-4931-82aa-7216ceb1ea14","system_id":"levelo_inurba_marseille","lat":43.25862,"lon":5.39887,"is_reserved":false,"is_disabled":false,"rental_uris":{"android":"levelo://app?vid=7555df76-45e5-4931-82aa-7216ceb1ea14","ios":"levelo://app?vid=7555df76-45e5-4931-82aa-7216ceb1ea14"},"vehicle_type_id":"4","last_reported":1737662957,"current_range_meters":9600,"station_id":"ce4bhl92rcd13ifvqghg","pricing_plan_id":"cebpf4jnsgd1na2vs0mg"},{"bike_id":"4dd035c2-8bfe-47d6-9f60-337813e84467","system_id":"levelo_inurba_marseille","lat":43.31081,"lon":5.38349,"is_reserved":false,"is_disabled":false,"rental_uris":{"android":"levelo://app?vid=4dd035c2-8bfe-47d6-9f60-337813e84467","ios":"levelo://app?vid=4dd035c2-8bfe-47d6-9f60-337813e84467"},"vehicle_type_id":"4","last_reported":1737662957,"current_range_meters":33200,"station_id":"ce4bgv92rcd13ifvqcr0","pricing_plan_id":"cebpf4jnsgd1na2vs0mg"},{"bike_id":"89755512-a191-4337-a2e9-b7f75b594ae4","system_id":"levelo_inurba_marseille","lat":43.29789,"lon":5.393393,"is_reserved":false,"is_disabled":true,"rental_uris":{"android":"levelo://app?vid=89755512-a191-4337-a2e9-b7f75b594ae4","ios":"levelo://app?vid=89755512-a191-4337-a2e9-b7f75b594ae4"},"vehicle_type_id":"4","last_reported":1737662957,"current_range_meters":1600,"station_id":"chh1huq6cuj3fo74tm60","pricing_plan_id":"cebpf4jnsgd1na2vs0mg"},{"bike_id":"3c2e08d8-61dc-48d1-a5b2-8e18420ecf7c","system_id":"levelo_inurba_marseille","lat":43.30329,"lon":5.37703,"is_reserved":false,"is_disabled":true,"rental_uris":{"android":"levelo://app?vid=3c2e08d8-61dc-48d1-a5b2-8e18420ecf7c","ios":"levelo://app?vid=3c2e08d8-61dc-48d1-a5b2-8e18420ecf7c"},"vehicle_type_id":"4","last_reported":1737662957,"current_range_meters":0,"station_id":"ce4bguh2rcd13ifvqcj0","pricing_plan_id":"cebpf4jnsgd1na2vs0mg"},{"bike_id":"de0b815b-0972-42a1-b5c0-b465f84342ac","system_id":"levelo_inurba_marseille","lat":43.23958,"lon":5.3664,"is_reserved":false,"is_disabled":false,"rental_uris":{"android":"levelo://app?vid=de0b815b-0972-42a1-b5c0-b465f84342ac","ios":"levelo://app?vid=de0b815b-0972-42a1-b5c0-b465f84342ac"},"vehicle_type_id":"4","last_reported":1737662957,"current_range_meters":28000,"station_id":"ce4bhi12rcd13ifvqfp0","pricing_plan_id":"cebpf4jnsgd1na2vs0mg"},{"bike_id":"88c68bd3-ae6d-44f9-8c55-92579b0843ad","system_id":"levelo_inurba_marseille","lat":43.31991,"lon":5.38155,"is_reserved":false,"is_disabled":false,"rental_uris":{"android":"levelo://app?vid=88c68bd3-ae6d-44f9-8c55-92579b0843ad","ios":"levelo://app?vid=88c68bd3-ae6d-44f9-8c55-92579b0843ad"},"vehicle_type_id":"4","last_reported":1737662957,"current_range_meters":38800,"station_id":"ce4bhr12rcd13ifvqhpg","pricing_plan_id":"cebpf4jnsgd1na2vs0mg"},{"bike_id":"4f55d06d-86a5-4457-9f9b-0d66dd972c6a","system_id":"levelo_inurba_marseille","lat":43.24974,"lon":5.38928,"is_reserved":false,"is_disabled":false,"rental_uris":{"android":"levelo://app?vid=4f55d06d-86a5-4457-9f9b-0d66dd972c6a","ios":"levelo://app?vid=4f55d06d-86a5-4457-9f9b-0d66dd972c6a"},"vehicle_type_id":"4","last_reported":1737662957,"current_range_meters":23200,"station_id":"ce4bhgp2rcd13ifvqfd0","pricing_plan_id":"cebpf4jnsgd1na2vs0mg"},{"bike_id":"1bba46c1-7fad-4ee7-ba18-d02e7e9a4403","system_id":"levelo_inurba_marseille","lat":43.28685,"lon":5.38669,"is_reserved":false,"is_disabled":false,"rental_uris":{"android":"levelo://app?vid=1bba46c1-7fad-4ee7-ba18-d02e7e9a4403","ios":"levelo://app?vid=1bba46c1-7fad-4ee7-ba18-d02e7e9a4403"},"vehicle_type_id":"4","last_reported":1737662957,"current_range_meters":18000,"station_id":"ce4bh492rcd13ifvqdug","pricing_plan_id":"cebpf4jnsgd1na2vs0mg"},{"bike_id":"53b4d0d2-1b7e-46d0-a241-fdc99cdf5a94","system_id":"levelo_inurba_marseille","lat":43.29261,"lon":5.40896,"is_reserved":false,"is_disabled":false,"rental_uris":{"android":"levelo://app?vid=53b4d0d2-1b7e-46d0-a241-fdc99cdf5a94","ios":"levelo://app?vid=53b4d0d2-1b7e-46d0-a241-fdc99cdf5a94"},"vehicle_type_id":"4","last_reported":1737662957,"current_range_meters":12800,"station_id":"ce4bh192rcd13ifvqdc0","pricing_plan_id":"cebpf4jnsgd1na2vs0mg"},{"bike_id":"e8e3328c-c400-4d7f-abab-6dd462c7dcf5","system_id":"levelo_inurba_marseille","lat":43.29535,"lon":5.39048,"is_reserved":false,"is_disabled":false,"rental_uris":{"android":"levelo://app?vid=e8e3328c-c400-4d7f-abab-6dd462c7dcf5","ios":"levelo://app?vid=e8e3328c-c400-4d7f-abab-6dd462c7dcf5"},"vehicle_type_id":"4","last_reported":1737662957,"current_range_meters":38800,"station_id":"ce4bh3p2rcd13ifvqdp0","pricing_plan_id":"cebpf4jnsgd1na2vs0mg"},{"bike_id":"be48aa8d-21b2-4ab9-89b3-9ea8a82b40a8","system_id":"levelo_inurba_marseille","lat":43.27957,"lon":5.41044,"is_reserved":false,"is_disabled":false,"rental_uris":{"android":"levelo://app?vid=be48aa8d-21b2-4ab9-89b3-9ea8a82b40a8","ios":"levelo://app?vid=be48aa8d-21b2-4ab9-89b3-9ea8a82b40a8"},"vehicle_type_id":"4","last_reported":1737662957,"current_range_meters":38800,"station_id":"ce4bhnp2rcd13ifvqh0g","pricing_plan_id":"cebpf4jnsgd1na2vs0mg"},{"bike_id":"7c78a755-c7f5-4f07-a96b-621451d47948","system_id":"levelo_inurba_marseille","lat":43.29897,"lon":5.43674,"is_reserved":false,"is_disabled":false,"rental_uris":{"android":"levelo://app?vid=7c78a755-c7f5-4f07-a96b-621451d47948","ios":"levelo://app?vid=7c78a755-c7f5-4f07-a96b-621451d47948"},"vehicle_type_id":"4","last_reported":1737662957,"current_range_meters":10000,"station_id":"ce4bhpp2rcd13ifvqhfg","pricing_plan_id":"cebpf4jnsgd1na2vs0mg"},{"bike_id":"cc080866-b103-425b-9e93-7c678a113fa0","system_id":"levelo_inurba_marseille","lat":43.29299,"lon":5.37174,"is_reserved":false,"is_disabled":false,"rental_uris":{"android":"levelo://app?vid=cc080866-b103-425b-9e93-7c678a113fa0","ios":"levelo://app?vid=cc080866-b103-425b-9e93-7c678a113fa0"},"vehicle_type_id":"4","last_reported":1737662957,"current_range_meters":28800,"station_id":"ce4bgh92rcd13ifvqb40","pricing_plan_id":"cebpf4jnsgd1na2vs0mg"},{"bike_id":"8a885f24-4df8-4afa-9f68-8be36e0cea79","system_id":"levelo_inurba_marseille","lat":43.25102,"lon":5.40325,"is_reserved":false,"is_disabled":false,"rental_uris":{"android":"levelo://app?vid=8a885f24-4df8-4afa-9f68-8be36e0cea79","ios":"levelo://app?vid=8a885f24-4df8-4afa-9f68-8be36e0cea79"},"vehicle_type_id":"4","last_reported":1737662957,"current_range_meters":17600,"station_id":"ce4bhlh2rcd13ifvqgig","pricing_plan_id":"cebpf4jnsgd1na2vs0mg"},{"bike_id":"52e3375d-f2b1-471c-bdfe-8428c026fbdc","system_id":"levelo_inurba_marseille","lat":43.29259,"lon":5.38442,"is_reserved":false,"is_disabled":true,"rental_uris":{"android":"levelo://app?vid=52e3375d-f2b1-471c-bdfe-8428c026fbdc","ios":"levelo://app?vid=52e3375d-f2b1-471c-bdfe-8428c026fbdc"},"vehicle_type_id":"4","last_reported":1737662957,"current_range_meters":0,"station_id":"ce4bh692rcd13ifvqea0","pricing_plan_id":"cebpf4jnsgd1na2vs0mg"},{"bike_id":"b01fce57-63c8-454c-9252-5518a237155b","system_id":"levelo_inurba_marseille","lat":43.23186,"lon":5.39968,"is_reserved":false,"is_disabled":false,"rental_uris":{"android":"levelo://app?vid=b01fce57-63c8-454c-9252-5518a237155b","ios":"levelo://app?vid=b01fce57-63c8-454c-9252-5518a237155b"},"vehicle_type_id":"4","last_reported":1737662957,"current_range_meters":18800,"station_id":"ce4bhn12rcd13ifvqgqg","pricing_plan_id":"cebpf4jnsgd1na2vs0mg"},{"bike_id":"cd1680d3-9e89-4add-921b-b8e7af2be884","system_id":"levelo_inurba_marseille","lat":43.27987,"lon":5.40013,"is_reserved":false,"is_disabled":false,"rental_uris":{"android":"levelo://app?vid=cd1680d3-9e89-4add-921b-b8e7af2be884","ios":"levelo://app?vid=cd1680d3-9e89-4add-921b-b8e7af2be884"},"vehicle_type_id":"4","last_reported":1737662957,"current_range_meters":30800,"station_id":"ce4bho92rcd13ifvqh4g","pricing_plan_id":"cebpf4jnsgd1na2vs0mg"},{"bike_id":"be81e2f7-9a8e-4339-b1b5-551a0a5db6fc","system_id":"levelo_inurba_marseille","lat":43.23182,"lon":5.39986,"is_reserved":false,"is_disabled":false,"rental_uris":{"android":"levelo://app?vid=be81e2f7-9a8e-4339-b1b5-551a0a5db6fc","ios":"levelo://app?vid=be81e2f7-9a8e-4339-b1b5-551a0a5db6fc"},"vehicle_type_id":"4","last_reported":1737662957,"current_range_meters":30000,"station_id":"ce4bhn12rcd13ifvqgqg","pricing_plan_id":"cebpf4jnsgd1na2vs0mg"},{"bike_id":"9746bde7-9aa4-4650-b100-68d6e1990512","system_id":"levelo_inurba_marseille","lat":43.29269,"lon":5.38436,"is_reserved":false,"is_disabled":false,"rental_uris":{"android":"levelo://app?vid=9746bde7-9aa4-4650-b100-68d6e1990512","ios":"levelo://app?vid=9746bde7-9aa4-4650-b100-68d6e1990512"},"vehicle_type_id":"4","last_reported":1737662957,"current_range_meters":38800,"station_id":"ce4bh692rcd13ifvqea0","pricing_plan_id":"cebpf4jnsgd1na2vs0mg"},{"bike_id":"e834d110-9757-4aa5-8921-77cbfa7c7c6e","system_id":"levelo_inurba_marseille","lat":43.2857,"lon":5.39498,"is_reserved":false,"is_disabled":true,"rental_uris":{"android":"levelo://app?vid=e834d110-9757-4aa5-8921-77cbfa7c7c6e","ios":"levelo://app?vid=e834d110-9757-4aa5-8921-77cbfa7c7c6e"},"vehicle_type_id":"4","last_reported":1737662957,"current_range_meters":22800,"station_id":"ce4bh292rcd13ifvqdg0","pricing_plan_id":"cebpf4jnsgd1na2vs0mg"},{"bike_id":"0926b16d-5df4-482a-9b28-2666555ad5f2","system_id":"levelo_inurba_marseille","lat":43.28725,"lon":5.36088,"is_reserved":false,"is_disabled":false,"rental_uris":{"android":"levelo://app?vid=0926b16d-5df4-482a-9b28-2666555ad5f2","ios":"levelo://app?vid=0926b16d-5df4-482a-9b28-2666555ad5f2"},"vehicle_type_id":"4","last_reported":1737662957,"current_range_meters":38000,"station_id":"cki0cbj6b192h4jlfktg","pricing_plan_id":"cebpf4jnsgd1na2vs0mg"},{"bike_id":"24660fe4-5b8c-44d0-880c-f84e257e5528","system_id":"levelo_inurba_marseille","lat":43.30131,"lon":5.39866,"is_reserved":false,"is_disabled":false,"rental_uris":{"android":"levelo://app?vid=24660fe4-5b8c-44d0-880c-f84e257e5528","ios":"levelo://app?vid=24660fe4-5b8c-44d0-880c-f84e257e5528"},"vehicle_type_id":"4","last_reported":1737662957,"current_range_meters":25600,"station_id":"ce4bh0h2rcd13ifvqd40","pricing_plan_id":"cebpf4jnsgd1na2vs0mg"},{"bike_id":"b950cc4f-ccdd-492f-b523-853a0e8ec42a","system_id":"levelo_inurba_marseille","lat":43.302554,"lon":5.400794,"is_reserved":false,"is_disabled":false,"rental_uris":{"android":"levelo://app?vid=b950cc4f-ccdd-492f-b523-853a0e8ec42a","ios":"levelo://app?vid=b950cc4f-ccdd-492f-b523-853a0e8ec42a"},"vehicle_type_id":"4","last_reported":1737662957,"current_range_meters":38400,"station_id":"ce4bgvh2rcd13ifvqcs0","pricing_plan_id":"cebpf4jnsgd1na2vs0mg"},{"bike_id":"8091da5a-cc04-462d-bb09-ae380ca5e4ce","system_id":"levelo_inurba_marseille","lat":43.23249,"lon":5.39941,"is_reserved":false,"is_disabled":false,"rental_uris":{"android":"levelo://app?vid=8091da5a-cc04-462d-bb09-ae380ca5e4ce","ios":"levelo://app?vid=8091da5a-cc04-462d-bb09-ae380ca5e4ce"},"vehicle_type_id":"4","last_reported":1737662957,"current_range_meters":9600,"station_id":"","pricing_plan_id":"cebpf4jnsgd1na2vs0mg"},{"bike_id":"5ee3fabf-29a9-468d-969d-8ce1d141b6b2","system_id":"levelo_inurba_marseille","lat":43.29276,"lon":5.40108,"is_reserved":false,"is_disabled":false,"rental_uris":{"android":"levelo://app?vid=5ee3fabf-29a9-468d-969d-8ce1d141b6b2","ios":"levelo://app?vid=5ee3fabf-29a9-468d-969d-8ce1d141b6b2"},"vehicle_type_id":"4","last_reported":1737662957,"current_range_meters":8800,"station_id":"ce4bh312rcd13ifvqdk0","pricing_plan_id":"cebpf4jnsgd1na2vs0mg"},{"bike_id":"7e916c70-1472-4e6d-89ea-6d1e635df53b","system_id":"levelo_inurba_marseille","lat":43.27814,"lon":5.40713,"is_reserved":false,"is_disabled":false,"rental_uris":{"android":"levelo://app?vid=7e916c70-1472-4e6d-89ea-6d1e635df53b","ios":"levelo://app?vid=7e916c70-1472-4e6d-89ea-6d1e635df53b"},"vehicle_type_id":"4","last_reported":1737662957,"current_range_meters":38800,"station_id":"ce4bhnh2rcd13ifvqgtg","pricing_plan_id":"cebpf4jnsgd1na2vs0mg"},{"bike_id":"72428ff6-b760-4407-bd52-28cdb9f11441","system_id":"levelo_inurba_marseille","lat":43.27378,"lon":5.36254,"is_reserved":false,"is_disabled":false,"rental_uris":{"android":"levelo://app?vid=72428ff6-b760-4407-bd52-28cdb9f11441","ios":"levelo://app?vid=72428ff6-b760-4407-bd52-28cdb9f11441"},"vehicle_type_id":"4","last_reported":1737662957,"current_range_meters":22000,"station_id":"ce4bhbh2rcd13ifvqeo0","pricing_plan_id":"cebpf4jnsgd1na2vs0mg"},{"bike_id":"51b693ec-6376-489f-b989-9f78de29a1f3","system_id":"levelo_inurba_marseille","lat":43.241666,"lon":5.363931,"is_reserved":false,"is_disabled":false,"rental_uris":{"android":"levelo://app?vid=51b693ec-6376-489f-b989-9f78de29a1f3","ios":"levelo://app?vid=51b693ec-6376-489f-b989-9f78de29a1f3"},"vehicle_type_id":"4","last_reported":1737662957,"current_range_meters":20800,"station_id":"cpo36qri1sfpv3e86is0","pricing_plan_id":"cebpf4jnsgd1na2vs0mg"},{"bike_id":"409d514d-4505-4ffc-949d-c84a2b617895","system_id":"levelo_inurba_marseille","lat":43.29634,"lon":5.40601,"is_reserved":false,"is_disabled":false,"rental_uris":{"android":"levelo://app?vid=409d514d-4505-4ffc-949d-c84a2b617895","ios":"levelo://app?vid=409d514d-4505-4ffc-949d-c84a2b617895"},"vehicle_type_id":"4","last_reported":1737662957,"current_range_meters":36400,"station_id":"ce4bh0h2rcd13ifvqd60","pricing_plan_id":"cebpf4jnsgd1na2vs0mg"},{"bike_id":"13ff516e-16cf-4543-8540-9030b8b296b4","system_id":"levelo_inurba_marseille","lat":43.23192,"lon":5.3555,"is_reserved":false,"is_disabled":false,"rental_uris":{"android":"levelo://app?vid=13ff516e-16cf-4543-8540-9030b8b296b4","ios":"levelo://app?vid=13ff516e-16cf-4543-8540-9030b8b296b4"},"vehicle_type_id":"4","last_reported":1737662957,"current_range_meters":28000,"station_id":"ce4bhu92rcd13ifvqi70","pricing_plan_id":"cebpf4jnsgd1na2vs0mg"},{"bike_id":"3ba423cf-324e-4899-a600-82fbcd3f10d9","system_id":"levelo_inurba_marseille","lat":43.29263,"lon":5.38434,"is_reserved":false,"is_disabled":false,"rental_uris":{"android":"levelo://app?vid=3ba423cf-324e-4899-a600-82fbcd3f10d9","ios":"levelo://app?vid=3ba423cf-324e-4899-a600-82fbcd3f10d9"},"vehicle_type_id":"4","last_reported":1737662957,"current_range_meters":16400,"station_id":"ce4bh692rcd13ifvqea0","pricing_plan_id":"cebpf4jnsgd1na2vs0mg"},{"bike_id":"382b1d8c-119f-472b-8efe-763a8ffd1020","system_id":"levelo_inurba_marseille","lat":43.27971,"lon":5.41022,"is_reserved":false,"is_disabled":false,"rental_uris":{"android":"levelo://app?vid=382b1d8c-119f-472b-8efe-763a8ffd1020","ios":"levelo://app?vid=382b1d8c-119f-472b-8efe-763a8ffd1020"},"vehicle_type_id":"4","last_reported":1737662957,"current_range_meters":38800,"station_id":"ce4bhnp2rcd13ifvqh0g","pricing_plan_id":"cebpf4jnsgd1na2vs0mg"},{"bike_id":"a78efafd-f2cf-4133-81b9-5cd00b023e26","system_id":"levelo_inurba_marseille","lat":43.27805,"lon":5.40703,"is_reserved":false,"is_disabled":false,"rental_uris":{"android":"levelo://app?vid=a78efafd-f2cf-4133-81b9-5cd00b023e26","ios":"levelo://app?vid=a78efafd-f2cf-4133-81b9-5cd00b023e26"},"vehicle_type_id":"4","last_reported":1737662957,"current_range_meters":25200,"station_id":"ce4bhnh2rcd13ifvqgtg","pricing_plan_id":"cebpf4jnsgd1na2vs0mg"},{"bike_id":"8a151ccc-edf6-40ab-a6a3-42b4ac96f698","system_id":"levelo_inurba_marseille","lat":43.28269,"lon":5.35059,"is_reserved":false,"is_disabled":true,"rental_uris":{"android":"levelo://app?vid=8a151ccc-edf6-40ab-a6a3-42b4ac96f698","ios":"levelo://app?vid=8a151ccc-edf6-40ab-a6a3-42b4ac96f698"},"vehicle_type_id":"4","last_reported":1737662957,"current_range_meters":26800,"station_id":"ce4bhbp2rcd13ifvqerg","pricing_plan_id":"cebpf4jnsgd1na2vs0mg"},{"bike_id":"e8b710dd-620a-414f-bade-0290d186a909","system_id":"levelo_inurba_marseille","lat":43.24647,"lon":5.38899,"is_reserved":false,"is_disabled":false,"rental_uris":{"android":"levelo://app?vid=e8b710dd-620a-414f-bade-0290d186a909","ios":"levelo://app?vid=e8b710dd-620a-414f-bade-0290d186a909"},"vehicle_type_id":"4","last_reported":1737662957,"current_range_meters":38800,"station_id":"ce4bhg12rcd13ifvqf60","pricing_plan_id":"cebpf4jnsgd1na2vs0mg"},{"bike_id":"2c53799b-84e4-4908-8821-8a5affb867af","system_id":"levelo_inurba_marseille","lat":43.29933,"lon":5.36545,"is_reserved":false,"is_disabled":false,"rental_uris":{"android":"levelo://app?vid=2c53799b-84e4-4908-8821-8a5affb867af","ios":"levelo://app?vid=2c53799b-84e4-4908-8821-8a5affb867af"},"vehicle_type_id":"4","last_reported":1737662957,"current_range_meters":30400,"station_id":"ce4bgm92rcd13ifvqbr0","pricing_plan_id":"cebpf4jnsgd1na2vs0mg"},{"bike_id":"7e1f924e-11fb-4663-a7ad-10ec1970688d","system_id":"levelo_inurba_marseille","lat":43.28709,"lon":5.37909,"is_reserved":false,"is_disabled":false,"rental_uris":{"android":"levelo://app?vid=7e1f924e-11fb-4663-a7ad-10ec1970688d","ios":"levelo://app?vid=7e1f924e-11fb-4663-a7ad-10ec1970688d"},"vehicle_type_id":"4","last_reported":1737662957,"current_range_meters":37600,"station_id":"ce4bh9p2rcd13ifvqec0","pricing_plan_id":"cebpf4jnsgd1na2vs0mg"},{"bike_id":"5cefcaef-c8d0-426e-85a3-d6a61a1b5e27","system_id":"levelo_inurba_marseille","lat":43.27815,"lon":5.40716,"is_reserved":false,"is_disabled":false,"rental_uris":{"android":"levelo://app?vid=5cefcaef-c8d0-426e-85a3-d6a61a1b5e27","ios":"levelo://app?vid=5cefcaef-c8d0-426e-85a3-d6a61a1b5e27"},"vehicle_type_id":"4","last_reported":1737662957,"current_range_meters":36800,"station_id":"ce4bhnh2rcd13ifvqgtg","pricing_plan_id":"cebpf4jnsgd1na2vs0mg"},{"bike_id":"5ba89a38-2294-4a3f-a884-84d53abdc93f","system_id":"levelo_inurba_marseille","lat":43.30913,"lon":5.39651,"is_reserved":false,"is_disabled":false,"rental_uris":{"android":"levelo://app?vid=5ba89a38-2294-4a3f-a884-84d53abdc93f","ios":"levelo://app?vid=5ba89a38-2294-4a3f-a884-84d53abdc93f"},"vehicle_type_id":"4","last_reported":1737662957,"current_range_meters":27200,"station_id":"ce4bh012rcd13ifvqcv0","pricing_plan_id":"cebpf4jnsgd1na2vs0mg"},{"bike_id":"c149c6e4-98da-47c0-a441-66414b31d9d8","system_id":"levelo_inurba_marseille","lat":43.29025,"lon":5.38636,"is_reserved":false,"is_disabled":false,"rental_uris":{"android":"levelo://app?vid=c149c6e4-98da-47c0-a441-66414b31d9d8","ios":"levelo://app?vid=c149c6e4-98da-47c0-a441-66414b31d9d8"},"vehicle_type_id":"4","last_reported":1737662957,"current_range_meters":36000,"station_id":"ce4bh4p2rcd13ifvqe0g","pricing_plan_id":"cebpf4jnsgd1na2vs0mg"},{"bike_id":"a7a5e5ac-a8ef-4955-b1ae-1d314c428a63","system_id":"levelo_inurba_marseille","lat":43.3172,"lon":5.37757,"is_reserved":false,"is_disabled":false,"rental_uris":{"android":"levelo://app?vid=a7a5e5ac-a8ef-4955-b1ae-1d314c428a63","ios":"levelo://app?vid=a7a5e5ac-a8ef-4955-b1ae-1d314c428a63"},"vehicle_type_id":"4","last_reported":1737662957,"current_range_meters":33600,"station_id":"ce4bgth2rcd13ifvqch0","pricing_plan_id":"cebpf4jnsgd1na2vs0mg"},{"bike_id":"caa30493-616a-4890-af9b-1f4a106c82f0","system_id":"levelo_inurba_marseille","lat":43.30934,"lon":5.40141,"is_reserved":false,"is_disabled":false,"rental_uris":{"android":"levelo://app?vid=caa30493-616a-4890-af9b-1f4a106c82f0","ios":"levelo://app?vid=caa30493-616a-4890-af9b-1f4a106c82f0"},"vehicle_type_id":"4","last_reported":1737662957,"current_range_meters":11600,"station_id":"ce4bgvp2rcd13ifvqct0","pricing_plan_id":"cebpf4jnsgd1na2vs0mg"},{"bike_id":"b51731b6-9fd4-4fbb-bd7d-cf2871718f3b","system_id":"levelo_inurba_marseille","lat":43.29269,"lon":5.3844,"is_reserved":false,"is_disabled":false,"rental_uris":{"android":"levelo://app?vid=b51731b6-9fd4-4fbb-bd7d-cf2871718f3b","ios":"levelo://app?vid=b51731b6-9fd4-4fbb-bd7d-cf2871718f3b"},"vehicle_type_id":"4","last_reported":1737662957,"current_range_meters":38000,"station_id":"ce4bh692rcd13ifvqea0","pricing_plan_id":"cebpf4jnsgd1na2vs0mg"},{"bike_id":"e1cd9866-5b4a-4efe-a8a6-5860705b5fe2","system_id":"levelo_inurba_marseille","lat":43.25101,"lon":5.40302,"is_reserved":false,"is_disabled":false,"rental_uris":{"android":"levelo://app?vid=e1cd9866-5b4a-4efe-a8a6-5860705b5fe2","ios":"levelo://app?vid=e1cd9866-5b4a-4efe-a8a6-5860705b5fe2"},"vehicle_type_id":"4","last_reported":1737662957,"current_range_meters":38800,"station_id":"ce4bhlh2rcd13ifvqgig","pricing_plan_id":"cebpf4jnsgd1na2vs0mg"},{"bike_id":"ce517140-57ec-4f49-a849-59870706ab8f","system_id":"levelo_inurba_marseille","lat":43.29542,"lon":5.37503,"is_reserved":false,"is_disabled":false,"rental_uris":{"android":"levelo://app?vid=ce517140-57ec-4f49-a849-59870706ab8f","ios":"levelo://app?vid=ce517140-57ec-4f49-a849-59870706ab8f"},"vehicle_type_id":"4","last_reported":1737662957,"current_range_meters":38000,"station_id":"ce4bgkp2rcd13ifvqbmg","pricing_plan_id":"cebpf4jnsgd1na2vs0mg"},{"bike_id":"8cec88b6-5987-4fdd-a71c-a36410e8b4a8","system_id":"levelo_inurba_marseille","lat":43.30926,"lon":5.40144,"is_reserved":false,"is_disabled":false,"rental_uris":{"android":"levelo://app?vid=8cec88b6-5987-4fdd-a71c-a36410e8b4a8","ios":"levelo://app?vid=8cec88b6-5987-4fdd-a71c-a36410e8b4a8"},"vehicle_type_id":"4","last_reported":1737662957,"current_range_meters":12000,"station_id":"ce4bgvp2rcd13ifvqct0","pricing_plan_id":"cebpf4jnsgd1na2vs0mg"},{"bike_id":"421d447e-f137-48f8-b50a-3cef6ba73d00","system_id":"levelo_inurba_marseille","lat":43.32366,"lon":5.36763,"is_reserved":false,"is_disabled":false,"rental_uris":{"android":"levelo://app?vid=421d447e-f137-48f8-b50a-3cef6ba73d00","ios":"levelo://app?vid=421d447e-f137-48f8-b50a-3cef6ba73d00"},"vehicle_type_id":"4","last_reported":1737662957,"current_range_meters":12800,"station_id":"ce4bhsh2rcd13ifvqi2g","pricing_plan_id":"cebpf4jnsgd1na2vs0mg"},{"bike_id":"d56d9245-121e-414f-aa4e-2e5c31a6f89f","system_id":"levelo_inurba_marseille","lat":43.28699,"lon":5.37388,"is_reserved":false,"is_disabled":false,"rental_uris":{"android":"levelo://app?vid=d56d9245-121e-414f-aa4e-2e5c31a6f89f","ios":"levelo://app?vid=d56d9245-121e-414f-aa4e-2e5c31a6f89f"},"vehicle_type_id":"4","last_reported":1737662957,"current_range_meters":6800,"station_id":"ce4bh3p2rcd13ifvqdq0","pricing_plan_id":"cebpf4jnsgd1na2vs0mg"},{"bike_id":"f38f63fd-8f6f-4b91-9c49-8b65f256ffe9","system_id":"levelo_inurba_marseille","lat":43.29836,"lon":5.36261,"is_reserved":false,"is_disabled":true,"rental_uris":{"android":"levelo://app?vid=f38f63fd-8f6f-4b91-9c49-8b65f256ffe9","ios":"levelo://app?vid=f38f63fd-8f6f-4b91-9c49-8b65f256ffe9"},"vehicle_type_id":"4","last_reported":1737662957,"current_range_meters":38000,"station_id":"ce4bgpp2rcd13ifvqc3g","pricing_plan_id":"cebpf4jnsgd1na2vs0mg"},{"bike_id":"cef8cdc3-4e57-4992-ae0b-2d07be32a5a3","system_id":"levelo_inurba_marseille","lat":43.26199,"lon":5.37925,"is_reserved":false,"is_disabled":false,"rental_uris":{"android":"levelo://app?vid=cef8cdc3-4e57-4992-ae0b-2d07be32a5a3","ios":"levelo://app?vid=cef8cdc3-4e57-4992-ae0b-2d07be32a5a3"},"vehicle_type_id":"4","last_reported":1737662957,"current_range_meters":38000,"station_id":"ce4bhjp2rcd13ifvqg90","pricing_plan_id":"cebpf4jnsgd1na2vs0mg"},{"bike_id":"75495e7c-20bd-4569-84c6-35df34ab244d","system_id":"levelo_inurba_marseille","lat":43.29912,"lon":5.43645,"is_reserved":false,"is_disabled":true,"rental_uris":{"android":"levelo://app?vid=75495e7c-20bd-4569-84c6-35df34ab244d","ios":"levelo://app?vid=75495e7c-20bd-4569-84c6-35df34ab244d"},"vehicle_type_id":"4","last_reported":1737662957,"current_range_meters":1600,"station_id":"ce4bhpp2rcd13ifvqhfg","pricing_plan_id":"cebpf4jnsgd1na2vs0mg"},{"bike_id":"61152fc2-9835-49e6-9cce-dab2af8e3553","system_id":"levelo_inurba_marseille","lat":43.29033,"lon":5.38647,"is_reserved":false,"is_disabled":false,"rental_uris":{"android":"levelo://app?vid=61152fc2-9835-49e6-9cce-dab2af8e3553","ios":"levelo://app?vid=61152fc2-9835-49e6-9cce-dab2af8e3553"},"vehicle_type_id":"4","last_reported":1737662957,"current_range_meters":38800,"station_id":"ce4bh4p2rcd13ifvqe0g","pricing_plan_id":"cebpf4jnsgd1na2vs0mg"},{"bike_id":"5c6dd2ff-5977-45ea-9ab6-79ed70b4ade5","system_id":"levelo_inurba_marseille","lat":43.29418,"lon":5.38609,"is_reserved":false,"is_disabled":true,"rental_uris":{"android":"levelo://app?vid=5c6dd2ff-5977-45ea-9ab6-79ed70b4ade5","ios":"levelo://app?vid=5c6dd2ff-5977-45ea-9ab6-79ed70b4ade5"},"vehicle_type_id":"4","last_reported":1737662957,"current_range_meters":34800,"station_id":"ce4bh2h2rcd13ifvqdh0","pricing_plan_id":"cebpf4jnsgd1na2vs0mg"},{"bike_id":"2693e099-578a-4462-b03c-cb6a658dc0f3","system_id":"levelo_inurba_marseille","lat":43.29897,"lon":5.43651,"is_reserved":false,"is_disabled":false,"rental_uris":{"android":"levelo://app?vid=2693e099-578a-4462-b03c-cb6a658dc0f3","ios":"levelo://app?vid=2693e099-578a-4462-b03c-cb6a658dc0f3"},"vehicle_type_id":"4","last_reported":1737662957,"current_range_meters":36000,"station_id":"ce4bhpp2rcd13ifvqhfg","pricing_plan_id":"cebpf4jnsgd1na2vs0mg"},{"bike_id":"f15a3926-03ea-4c4b-9f1b-6e7324acfe94","system_id":"levelo_inurba_marseille","lat":43.28727,"lon":5.37638,"is_reserved":false,"is_disabled":true,"rental_uris":{"android":"levelo://app?vid=f15a3926-03ea-4c4b-9f1b-6e7324acfe94","ios":"levelo://app?vid=f15a3926-03ea-4c4b-9f1b-6e7324acfe94"},"vehicle_type_id":"4","last_reported":1737662957,"current_range_meters":9200,"station_id":"","pricing_plan_id":"cebpf4jnsgd1na2vs0mg"},{"bike_id":"ecb45593-36be-46f7-b498-33d1312d6293","system_id":"levelo_inurba_marseille","lat":43.2885,"lon":5.39318,"is_reserved":false,"is_disabled":false,"rental_uris":{"android":"levelo://app?vid=ecb45593-36be-46f7-b498-33d1312d6293","ios":"levelo://app?vid=ecb45593-36be-46f7-b498-33d1312d6293"},"vehicle_type_id":"4","last_reported":1737662957,"current_range_meters":10000,"station_id":"ce4bh2p2rcd13ifvqdi0","pricing_plan_id":"cebpf4jnsgd1na2vs0mg"},{"bike_id":"0683b8fa-bf66-4a85-b23f-305b1ef8e2c5","system_id":"levelo_inurba_marseille","lat":43.29893,"lon":5.43661,"is_reserved":false,"is_disabled":false,"rental_uris":{"android":"levelo://app?vid=0683b8fa-bf66-4a85-b23f-305b1ef8e2c5","ios":"levelo://app?vid=0683b8fa-bf66-4a85-b23f-305b1ef8e2c5"},"vehicle_type_id":"4","last_reported":1737662957,"current_range_meters":13600,"station_id":"ce4bhpp2rcd13ifvqhfg","pricing_plan_id":"cebpf4jnsgd1na2vs0mg"},{"bike_id":"816ce5bc-6f01-4c7d-9505-e64c949e1170","system_id":"levelo_inurba_marseille","lat":43.30305,"lon":5.39205,"is_reserved":false,"is_disabled":false,"rental_uris":{"android":"levelo://app?vid=816ce5bc-6f01-4c7d-9505-e64c949e1170","ios":"levelo://app?vid=816ce5bc-6f01-4c7d-9505-e64c949e1170"},"vehicle_type_id":"4","last_reported":1737662957,"current_range_meters":27600,"station_id":"ce4bgkh2rcd13ifvqbk0","pricing_plan_id":"cebpf4jnsgd1na2vs0mg"},{"bike_id":"10161fde-ed89-472a-a6f6-a457225f9e9a","system_id":"levelo_inurba_marseille","lat":43.23965,"lon":5.36619,"is_reserved":false,"is_disabled":false,"rental_uris":{"android":"levelo://app?vid=10161fde-ed89-472a-a6f6-a457225f9e9a","ios":"levelo://app?vid=10161fde-ed89-472a-a6f6-a457225f9e9a"},"vehicle_type_id":"4","last_reported":1737662957,"current_range_meters":22000,"station_id":"ce4bhi12rcd13ifvqfp0","pricing_plan_id":"cebpf4jnsgd1na2vs0mg"},{"bike_id":"0a8791d3-7d5d-4e9e-8e24-fb8a88bfd804","system_id":"levelo_inurba_marseille","lat":43.31757,"lon":5.39019,"is_reserved":false,"is_disabled":false,"rental_uris":{"android":"levelo://app?vid=0a8791d3-7d5d-4e9e-8e24-fb8a88bfd804","ios":"levelo://app?vid=0a8791d3-7d5d-4e9e-8e24-fb8a88bfd804"},"vehicle_type_id":"4","last_reported":1737662957,"current_range_meters":24000,"station_id":"ce4bhqp2rcd13ifvqhng","pricing_plan_id":"cebpf4jnsgd1na2vs0mg"},{"bike_id":"f7370ae5-48f8-4e8b-b4c1-b41fa8dd388f","system_id":"levelo_inurba_marseille","lat":43.29624,"lon":5.37163,"is_reserved":false,"is_disabled":false,"rental_uris":{"android":"levelo://app?vid=f7370ae5-48f8-4e8b-b4c1-b41fa8dd388f","ios":"levelo://app?vid=f7370ae5-48f8-4e8b-b4c1-b41fa8dd388f"},"vehicle_type_id":"4","last_reported":1737662957,"current_range_meters":19200,"station_id":"ce4bgnh2rcd13ifvqc0g","pricing_plan_id":"cebpf4jnsgd1na2vs0mg"},{"bike_id":"ce9b6775-622a-4006-8fb5-f269869a0dfc","system_id":"levelo_inurba_marseille","lat":43.313591,"lon":5.384994,"is_reserved":false,"is_disabled":true,"rental_uris":{"android":"levelo://app?vid=ce9b6775-622a-4006-8fb5-f269869a0dfc","ios":"levelo://app?vid=ce9b6775-622a-4006-8fb5-f269869a0dfc"},"vehicle_type_id":"4","last_reported":1737662957,"current_range_meters":28800,"station_id":"ce4bgt92rcd13ifvqcf0","pricing_plan_id":"cebpf4jnsgd1na2vs0mg"},{"bike_id":"88b6673a-f599-4348-8320-6a2317babfb0","system_id":"levelo_inurba_marseille","lat":43.30587,"lon":5.39351,"is_reserved":false,"is_disabled":false,"rental_uris":{"android":"levelo://app?vid=88b6673a-f599-4348-8320-6a2317babfb0","ios":"levelo://app?vid=88b6673a-f599-4348-8320-6a2317babfb0"},"vehicle_type_id":"4","last_reported":1737662957,"current_range_meters":20400,"station_id":"ce4bh0p2rcd13ifvqd80","pricing_plan_id":"cebpf4jnsgd1na2vs0mg"},{"bike_id":"c709a6f6-06c6-414a-b7e4-50a0683e65e2","system_id":"levelo_inurba_marseille","lat":43.27616,"lon":5.36114,"is_reserved":false,"is_disabled":false,"rental_uris":{"android":"levelo://app?vid=c709a6f6-06c6-414a-b7e4-50a0683e65e2","ios":"levelo://app?vid=c709a6f6-06c6-414a-b7e4-50a0683e65e2"},"vehicle_type_id":"4","last_reported":1737662957,"current_range_meters":39200,"station_id":"ce4bgj92rcd13ifvqbe0","pricing_plan_id":"cebpf4jnsgd1na2vs0mg"},{"bike_id":"9d0a1296-bc68-4335-9e8a-2b917ca7e52b","system_id":"levelo_inurba_marseille","lat":43.27628,"lon":5.36107,"is_reserved":false,"is_disabled":false,"rental_uris":{"android":"levelo://app?vid=9d0a1296-bc68-4335-9e8a-2b917ca7e52b","ios":"levelo://app?vid=9d0a1296-bc68-4335-9e8a-2b917ca7e52b"},"vehicle_type_id":"4","last_reported":1737662957,"current_range_meters":18000,"station_id":"ce4bgj92rcd13ifvqbe0","pricing_plan_id":"cebpf4jnsgd1na2vs0mg"},{"bike_id":"693102e7-1939-44cf-a9bd-acad2b527e6d","system_id":"levelo_inurba_marseille","lat":43.28075,"lon":5.39654,"is_reserved":false,"is_disabled":false,"rental_uris":{"android":"levelo://app?vid=693102e7-1939-44cf-a9bd-acad2b527e6d","ios":"levelo://app?vid=693102e7-1939-44cf-a9bd-acad2b527e6d"},"vehicle_type_id":"4","last_reported":1737662957,"current_range_meters":25600,"station_id":"ce4bho12rcd13ifvqh2g","pricing_plan_id":"cebpf4jnsgd1na2vs0mg"},{"bike_id":"e732c4f6-4aab-4f4d-8529-e9311b47a0d1","system_id":"levelo_inurba_marseille","lat":43.31168,"lon":5.38718,"is_reserved":false,"is_disabled":false,"rental_uris":{"android":"levelo://app?vid=e732c4f6-4aab-4f4d-8529-e9311b47a0d1","ios":"levelo://app?vid=e732c4f6-4aab-4f4d-8529-e9311b47a0d1"},"vehicle_type_id":"4","last_reported":1737662957,"current_range_meters":18800,"station_id":"ce4bgv12rcd13ifvqcp0","pricing_plan_id":"cebpf4jnsgd1na2vs0mg"},{"bike_id":"a042f1bb-7d4c-4a43-a7ab-8547dd83cc80","system_id":"levelo_inurba_marseille","lat":43.30097,"lon":5.39063,"is_reserved":false,"is_disabled":false,"rental_uris":{"android":"levelo://app?vid=a042f1bb-7d4c-4a43-a7ab-8547dd83cc80","ios":"levelo://app?vid=a042f1bb-7d4c-4a43-a7ab-8547dd83cc80"},"vehicle_type_id":"4","last_reported":1737662957,"current_range_meters":36800,"station_id":"ce4bh192rcd13ifvqdb0","pricing_plan_id":"cebpf4jnsgd1na2vs0mg"},{"bike_id":"e0c7473c-8a2c-49b7-b118-bb3719f01f0f","system_id":"levelo_inurba_marseille","lat":43.30905,"lon":5.37191,"is_reserved":false,"is_disabled":false,"rental_uris":{"android":"levelo://app?vid=e0c7473c-8a2c-49b7-b118-bb3719f01f0f","ios":"levelo://app?vid=e0c7473c-8a2c-49b7-b118-bb3719f01f0f"},"vehicle_type_id":"4","last_reported":1737662957,"current_range_meters":38800,"station_id":"ce4bguh2rcd13ifvqckg","pricing_plan_id":"cebpf4jnsgd1na2vs0mg"},{"bike_id":"f8463185-c470-4b3f-aa71-eb3873635162","system_id":"levelo_inurba_marseille","lat":43.29434,"lon":5.38175,"is_reserved":false,"is_disabled":false,"rental_uris":{"android":"levelo://app?vid=f8463185-c470-4b3f-aa71-eb3873635162","ios":"levelo://app?vid=f8463185-c470-4b3f-aa71-eb3873635162"},"vehicle_type_id":"4","last_reported":1737662957,"current_range_meters":4400,"station_id":"","pricing_plan_id":"cebpf4jnsgd1na2vs0mg"},