{"last_updated":1774106193,"ttl":60,"version":"2.2","data":{"bikes":[{"bike_id":"a885d8ad-5b06-4f54-9cfc-152f85ff4259","system_id":"levelo_inurba_marseille","lat":43.28626,"lon":5.35078,"is_reserved":false,"is_disabled":false,"rental_uris":{"android":"levelo://app?vid=a885d8ad-5b06-4f54-9cfc-152f85ff4259","ios":"levelo://app?vid=a885d8ad-5b06-4f54-9cfc-152f85ff4259"},"vehicle_type_id":"4","last_reported":1774106193,"current_range_meters":2800,"station_id":"ce4bhch2rcd13ifvqeug","pricing_plan_id":"cebpf4jnsgd1na2vs0mg"},{"bike_id":"f3d32cf5-5cc8-4657-8958-6745a40d0054","system_id":"levelo_inurba_marseille","lat":43.292491,"lon":5.376365,"is_reserved":false,"is_disabled":false,"rental_uris":{"android":"levelo://app?vid=f3d32cf5-5cc8-4657-8958-6745a40d0054","ios":"levelo://app?vid=f3d32cf5-5cc8-4657-8958-6745a40d0054"},"vehicle_type_id":"4","last_reported":1774106193,"current_range_meters":2800,"station_id":"","pricing_plan_id":"cebpf4jnsgd1na2vs0mg"},{"bike_id":"d5c0409a-df03-4cb1-9783-94e95a0842de","system_id":"levelo_inurba_marseille","lat":43.29027,"lon":5.35616,"is_reserved":false,"is_disabled":false,"rental_uris":{"android":"levelo://app?vid=d5c0409a-df03-4cb1-9783-94e95a0842de","ios":"levelo://app?vid=d5c0409a-df03-4cb1-9783-94e95a0842de"},"vehicle_type_id":"4","last_reported":1774106193,"current_range_meters":2800,"station_id":"ce4bhb92rcd13ifvqen0","pricing_plan_id":"cebpf4jnsgd1na2vs0mg"},{"bike_id":"03f9e81d-4c04-4dcf-a32f-f8aca54cc313","system_id":"levelo_inurba_marseille","lat":43.2886,"lon":5.3586,"is_reserved":false,"is_disabled":false,"rental_uris":{"android":"levelo://app?vid=03f9e81d-4c04-4dcf-a32f-f8aca54cc313","ios":"levelo://app?vid=03f9e81d-4c04-4dcf-a32f-f8aca54cc313"},"vehicle_type_id":"4","last_reported":1774106193,"current_range_meters":2800,"station_id":"ce4bhb12rcd13ifvqem0","pricing_plan_id":"cebpf4jnsgd1na2vs0mg"},{"bike_id":"29566880-e84c-416b-8659-6d926641aa90","system_id":"levelo_inurba_marseille","lat":43.28615,"lon":5.35112,"is_reserved":false,"is_disabled":false,"rental_uris":{"android":"levelo://app?vid=29566880-e84c-416b-8659-6d926641aa90","ios":"levelo://app?vid=29566880-e84c-416b-8659-6d926641aa90"},"vehicle_type_id":"4","last_reported":1774106193,"current_range_meters":2800,"station_id":"ce4bhch2rcd13ifvqeug","pricing_plan_id":"cebpf4jnsgd1na2vs0mg"},{"bike_id":"e47d0268-a1ba-4c2a-8e2b-96fcc5a2c059","system_id":"levelo_inurba_marseille","lat":43.30544,"lon":5.36532,"is_reserved":false,"is_disabled":false,"rental_uris":{"android":"levelo://app?vid=e47d0268-a1ba-4c2a-8e2b-96fcc5a2c059","ios":"levelo://app?vid=e47d0268-a1ba-4c2a-8e2b-96fcc5a2c059"},"vehicle_type_id":"4","last_reported":1774106193,"current_range_meters":2800,"station_id":"ce4bgs12rcd13ifvqcag","pricing_plan_id":"cebpf4jnsgd1na2vs0mg"},{"bike_id":"690c4f96-b12c-4e3c-aad6-709a94dcd014","system_id":"levelo_inurba_marseille","lat":43.21189,"lon":5.35077,"is_reserved":false,"is_disabled":false,"rental_uris":{"android":"levelo://app?vid=690c4f96-b12c-4e3c-aad6-709a94dcd014","ios":"levelo://app?vid=690c4f96-b12c-4e3c-aad6-709a94dcd014"},"vehicle_type_id":"4","last_reported":1774106193,"current_range_meters":2800,"station_id":"st_cvj6sg6p6f1abm77japg","pricing_plan_id":"cebpf4jnsgd1na2vs0mg"},{"bike_id":"4a6677a1-d710-489a-a0f3-d3d14c63700e","system_id":"levelo_inurba_marseille","lat":43.299174,"lon":5.385255,"is_reserved":false,"is_disabled":false,"rental_uris":{"android":"levelo://app?vid=4a6677a1-d710-489a-a0f3-d3d14c63700e","ios":"levelo://app?vid=4a6677a1-d710-489a-a0f3-d3d14c63700e"},"vehicle_type_id":"4","last_reported":1774106193,"current_range_meters":2800,"station_id":"ce4bgk12rcd13ifvqbi0","pricing_plan_id":"cebpf4jnsgd1na2vs0mg"},{"bike_id":"119d24bc-e3dd-4e47-a0b9-64bbbcc5b1ee","system_id":"levelo_inurba_marseille","lat":43.21745,"lon":5.34594,"is_reserved":false,"is_disabled":true,"rental_uris":{"android":"levelo://app?vid=119d24bc-e3dd-4e47-a0b9-64bbbcc5b1ee","ios":"levelo://app?vid=119d24bc-e3dd-4e47-a0b9-64bbbcc5b1ee"},"vehicle_type_id":"4","last_reported":1774106193,"current_range_meters":2800,"station_id":"st_cvj6r9ubvosntc0bgbag","pricing_plan_id":"cebpf4jnsgd1na2vs0mg"},{"bike_id":"c142af26-b83c-4aa3-ab8b-699576493d34","system_id":"levelo_inurba_marseille","lat":43.21197,"lon":5.35067,"is_reserved":false,"is_disabled":true,"rental_uris":{"android":"levelo://app?vid=c142af26-b83c-4aa3-ab8b-699576493d34","ios":"levelo://app?vid=c142af26-b83c-4aa3-ab8b-699576493d34"},"vehicle_type_id":"4","last_reported":1774106193,"current_range_meters":2800,"station_id":"st_cvj6sg6p6f1abm77japg","pricing_plan_id":"cebpf4jnsgd1na2vs0mg"},{"bike_id":"29705345-7a8e-4bdd-8b65-5ba8856c877f","system_id":"levelo_inurba_marseille","lat":43.30305,"lon":5.4497,"is_reserved":false,"is_disabled":false,"rental_uris":{"android":"levelo://app?vid=29705345-7a8e-4bdd-8b65-5ba8856c877f","ios":"levelo://app?vid=29705345-7a8e-4bdd-8b65-5ba8856c877f"},"vehicle_type_id":"4","last_reported":1774106193,"current_range_meters":2800,"station_id":"","pricing_plan_id":"cebpf4jnsgd1na2vs0mg"},{"bike_id":"16eacde5-25c2-4581-8ce1-c05187d35939","system_id":"levelo_inurba_marseille","lat":43.26952,"lon":5.38642,"is_reserved":false,"is_disabled":false,"rental_uris":{"android":"levelo://app?vid=16eacde5-25c2-4581-8ce1-c05187d35939","ios":"levelo://app?vid=16eacde5-25c2-4581-8ce1-c05187d35939"},"vehicle_type_id":"4","last_reported":1774106193,"current_range_meters":2800,"station_id":"ce4bhh92rcd13ifvqfh0","pricing_plan_id":"cebpf4jnsgd1na2vs0mg"},{"bike_id":"ec327ac2-9680-48a1-8584-22f43bc41c50","system_id":"levelo_inurba_marseille","lat":43.29269,"lon":5.37614,"is_reserved":false,"is_disabled":true,"rental_uris":{"android":"levelo://app?vid=ec327ac2-9680-48a1-8584-22f43bc41c50","ios":"levelo://app?vid=ec327ac2-9680-48a1-8584-22f43bc41c50"},"vehicle_type_id":"4","last_reported":1774106193,"current_range_meters":2800,"station_id":"","pricing_plan_id":"cebpf4jnsgd1na2vs0mg"},{"bike_id":"3d8b9441-846b-4bc6-a99f-7538b53156c2","system_id":"levelo_inurba_marseille","lat":43.29786,"lon":5.38065,"is_reserved":false,"is_disabled":true,"rental_uris":{"android":"levelo://app?vid=3d8b9441-846b-4bc6-a99f-7538b53156c2","ios":"levelo://app?vid=3d8b9441-846b-4bc6-a99f-7538b53156c2"},"vehicle_type_id":"4","last_reported":1774106193,"current_range_meters":3200,"station_id":"ce4bgip2rcd13ifvqbb0","pricing_plan_id":"cebpf4jnsgd1na2vs0mg"},{"bike_id":"feef55a9-165c-40b0-ab63-0afc18b21d07","system_id":"levelo_inurba_marseille","lat":43.2738,"lon":5.36261,"is_reserved":false,"is_disabled":false,"rental_uris":{"android":"levelo://app?vid=feef55a9-165c-40b0-ab63-0afc18b21d07","ios":"levelo://app?vid=feef55a9-165c-40b0-ab63-0afc18b21d07"},"vehicle_type_id":"4","last_reported":1774106193,"current_range_meters":3200,"station_id":"ce4bhbh2rcd13ifvqeo0","pricing_plan_id":"cebpf4jnsgd1na2vs0mg"},{"bike_id":"5cceaff6-9c88-4f93-855f-0673da52c4f7","system_id":"levelo_inurba_marseille","lat":43.23189,"lon":5.3555,"is_reserved":false,"is_disabled":false,"rental_uris":{"android":"levelo://app?vid=5cceaff6-9c88-4f93-855f-0673da52c4f7","ios":"levelo://app?vid=5cceaff6-9c88-4f93-855f-0673da52c4f7"},"vehicle_type_id":"4","last_reported":1774106193,"current_range_meters":3200,"station_id":"ce4bhu92rcd13ifvqi70","pricing_plan_id":"cebpf4jnsgd1na2vs0mg"},{"bike_id":"45f343c6-d246-4003-b6a7-edca73dbc20b","system_id":"levelo_inurba_marseille","lat":43.27908,"lon":5.39175,"is_reserved":false,"is_disabled":false,"rental_uris":{"android":"levelo://app?vid=45f343c6-d246-4003-b6a7-edca73dbc20b","ios":"levelo://app?vid=45f343c6-d246-4003-b6a7-edca73dbc20b"},"vehicle_type_id":"4","last_reported":1774106193,"current_range_meters":3200,"station_id":"","pricing_plan_id":"cebpf4jnsgd1na2vs0mg"},{"bike_id":"c7cc5081-8a90-4664-8378-0ac0db8d74fb","system_id":"levelo_inurba_marseille","lat":43.29823,"lon":5.36739,"is_reserved":false,"is_disabled":false,"rental_uris":{"android":"levelo://app?vid=c7cc5081-8a90-4664-8378-0ac0db8d74fb","ios":"levelo://app?vid=c7cc5081-8a90-4664-8378-0ac0db8d74fb"},"vehicle_type_id":"4","last_reported":1774106193,"current_range_meters":3200,"station_id":"","pricing_plan_id":"cebpf4jnsgd1na2vs0mg"},{"bike_id":"519f6e7c-6cc5-48c4-a57b-fe93221876fc","system_id":"levelo_inurba_marseille","lat":43.28289,"lon":5.35053,"is_reserved":false,"is_disabled":false,"rental_uris":{"android":"levelo://app?vid=519f6e7c-6cc5-48c4-a57b-fe93221876fc","ios":"levelo://app?vid=519f6e7c-6cc5-48c4-a57b-fe93221876fc"},"vehicle_type_id":"4","last_reported":1774106193,"current_range_meters":3200,"station_id":"ce4bhbp2rcd13ifvqerg","pricing_plan_id":"cebpf4jnsgd1na2vs0mg"},{"bike_id":"3c8d104d-f5f5-4bef-93db-26fe66900f8e","system_id":"levelo_inurba_marseille","lat":43.21748,"lon":5.34606,"is_reserved":false,"is_disabled":false,"rental_uris":{"android":"levelo://app?vid=3c8d104d-f5f5-4bef-93db-26fe66900f8e","ios":"levelo://app?vid=3c8d104d-f5f5-4bef-93db-26fe66900f8e"},"vehicle_type_id":"4","last_reported":1774106193,"current_range_meters":3200,"station_id":"st_cvj6r9ubvosntc0bgbag","pricing_plan_id":"cebpf4jnsgd1na2vs0mg"},{"bike_id":"3a7b0819-8650-474a-b496-1d6498466760","system_id":"levelo_inurba_marseille","lat":43.28272,"lon":5.35064,"is_reserved":false,"is_disabled":false,"rental_uris":{"android":"levelo://app?vid=3a7b0819-8650-474a-b496-1d6498466760","ios":"levelo://app?vid=3a7b0819-8650-474a-b496-1d6498466760"},"vehicle_type_id":"4","last_reported":1774106193,"current_range_meters":3200,"station_id":"ce4bhbp2rcd13ifvqerg","pricing_plan_id":"cebpf4jnsgd1na2vs0mg"},{"bike_id":"29ceb06a-4df8-4e2a-9dd9-b070e185b37f","system_id":"levelo_inurba_marseille","lat":43.28476,"lon":5.48406,"is_reserved":false,"is_disabled":false,"rental_uris":{"android":"levelo://app?vid=29ceb06a-4df8-4e2a-9dd9-b070e185b37f","ios":"levelo://app?vid=29ceb06a-4df8-4e2a-9dd9-b070e185b37f"},"vehicle_type_id":"4","last_reported":1774106193,"current_range_meters":3200,"station_id":"","pricing_plan_id":"cebpf4jnsgd1na2vs0mg"},{"bike_id":"3a4ed66c-c5bf-40e3-91cb-d57a18eb08f2","system_id":"levelo_inurba_marseille","lat":43.25588,"lon":5.38236,"is_reserved":false,"is_disabled":false,"rental_uris":{"android":"levelo://app?vid=3a4ed66c-c5bf-40e3-91cb-d57a18eb08f2","ios":"levelo://app?vid=3a4ed66c-c5bf-40e3-91cb-d57a18eb08f2"},"vehicle_type_id":"4","last_reported":1774106193,"current_range_meters":3200,"station_id":"ce4bhih2rcd13ifvqfs0","pricing_plan_id":"cebpf4jnsgd1na2vs0mg"},{"bike_id":"3497df4a-f201-4578-a926-9335fc5f47b3","system_id":"levelo_inurba_marseille","lat":43.28409,"lon":5.34996,"is_reserved":false,"is_disabled":false,"rental_uris":{"android":"levelo://app?vid=3497df4a-f201-4578-a926-9335fc5f47b3","ios":"levelo://app?vid=3497df4a-f201-4578-a926-9335fc5f47b3"},"vehicle_type_id":"4","last_reported":1774106193,"current_range_meters":3200,"station_id":"ce4bhbh2rcd13ifvqepg","pricing_plan_id":"cebpf4jnsgd1na2vs0mg"},{"bike_id":"e5eba928-e3a4-441b-9540-937747ee47b9","system_id":"levelo_inurba_marseille","lat":43.22567,"lon":5.41629,"is_reserved":false,"is_disabled":false,"rental_uris":{"android":"levelo://app?vid=e5eba928-e3a4-441b-9540-937747ee47b9","ios":"levelo://app?vid=e5eba928-e3a4-441b-9540-937747ee47b9"},"vehicle_type_id":"4","last_reported":1774106193,"current_range_meters":3200,"station_id":"st_d2o4gvlbi1j2169b742g","pricing_plan_id":"cebpf4jnsgd1na2vs0mg"},{"bike_id":"2442a9c0-c3ba-43b0-9f62-e55f753440d2","system_id":"levelo_inurba_marseille","lat":43.27919,"lon":5.39578,"is_reserved":false,"is_disabled":false,"rental_uris":{"android":"levelo://app?vid=2442a9c0-c3ba-43b0-9f62-e55f753440d2","ios":"levelo://app?vid=2442a9c0-c3ba-43b0-9f62-e55f753440d2"},"vehicle_type_id":"4","last_reported":1774106193,"current_range_meters":3200,"station_id":"ce4bhf92rcd13ifvqf40","pricing_plan_id":"cebpf4jnsgd1na2vs0mg"},{"bike_id":"a775511c-9985-4a58-8c4c-775aad7f3e36","system_id":"levelo_inurba_marseille","lat":43.29893,"lon":5.43673,"is_reserved":false,"is_disabled":false,"rental_uris":{"android":"levelo://app?vid=a775511c-9985-4a58-8c4c-775aad7f3e36","ios":"levelo://app?vid=a775511c-9985-4a58-8c4c-775aad7f3e36"},"vehicle_type_id":"4","last_reported":1774106193,"current_range_meters":3600,"station_id":"ce4bhpp2rcd13ifvqhfg","pricing_plan_id":"cebpf4jnsgd1na2vs0mg"},{"bike_id":"7e3fe35a-02a8-4e9a-bafd-ecb393f71d00","system_id":"levelo_inurba_marseille","lat":43.28862,"lon":5.42517,"is_reserved":false,"is_disabled":false,"rental_uris":{"android":"levelo://app?vid=7e3fe35a-02a8-4e9a-bafd-ecb393f71d00","ios":"levelo://app?vid=7e3fe35a-02a8-4e9a-bafd-ecb393f71d00"},"vehicle_type_id":"4","last_reported":1774106193,"current_range_meters":3600,"station_id":"","pricing_plan_id":"cebpf4jnsgd1na2vs0mg"},{"bike_id":"5ce2c6fe-467d-43fe-aa2c-436283f5edb4","system_id":"levelo_inurba_marseille","lat":43.21736,"lon":5.34606,"is_reserved":false,"is_disabled":false,"rental_uris":{"android":"levelo://app?vid=5ce2c6fe-467d-43fe-aa2c-436283f5edb4","ios":"levelo://app?vid=5ce2c6fe-467d-43fe-aa2c-436283f5edb4"},"vehicle_type_id":"4","last_reported":1774106193,"current_range_meters":3600,"station_id":"st_cvj6r9ubvosntc0bgbag","pricing_plan_id":"cebpf4jnsgd1na2vs0mg"},{"bike_id":"89ad46cf-ad84-4e5e-be57-87ac2cebe69c","system_id":"levelo_inurba_marseille","lat":43.28469,"lon":5.48384,"is_reserved":false,"is_disabled":false,"rental_uris":{"android":"levelo://app?vid=89ad46cf-ad84-4e5e-be57-87ac2cebe69c","ios":"levelo://app?vid=89ad46cf-ad84-4e5e-be57-87ac2cebe69c"},"vehicle_type_id":"4","last_reported":1774106193,"current_range_meters":3600,"station_id":"st_d3svhcjqgbts73a3dn0g","pricing_plan_id":"cebpf4jnsgd1na2vs0mg"},{"bike_id":"d2a0c235-4591-4a4e-a5a6-0cfc619d0675","system_id":"levelo_inurba_marseille","lat":43.25119,"lon":5.40316,"is_reserved":false,"is_disabled":false,"rental_uris":{"android":"levelo://app?vid=d2a0c235-4591-4a4e-a5a6-0cfc619d0675","ios":"levelo://app?vid=d2a0c235-4591-4a4e-a5a6-0cfc619d0675"},"vehicle_type_id":"4","last_reported":1774106193,"current_range_meters":3600,"station_id":"ce4bhlh2rcd13ifvqgig","pricing_plan_id":"cebpf4jnsgd1na2vs0mg"},{"bike_id":"4dfecfc8-955f-4f5a-ae9a-4e408bcd2399","system_id":"levelo_inurba_marseille","lat":43.24809,"lon":5.37458,"is_reserved":false,"is_disabled":false,"rental_uris":{"android":"levelo://app?vid=4dfecfc8-955f-4f5a-ae9a-4e408bcd2399","ios":"levelo://app?vid=4dfecfc8-955f-4f5a-ae9a-4e408bcd2399"},"vehicle_type_id":"4","last_reported":1774106193,"current_range_meters":3600,"station_id":"ce4bhgh2rcd13ifvqfb0","pricing_plan_id":"cebpf4jnsgd1na2vs0mg"},{"bike_id":"407e68e8-cb78-48b3-b08e-e788239306ef","system_id":"levelo_inurba_marseille","lat":43.28417,"lon":5.34973,"is_reserved":false,"is_disabled":false,"rental_uris":{"android":"levelo://app?vid=407e68e8-cb78-48b3-b08e-e788239306ef","ios":"levelo://app?vid=407e68e8-cb78-48b3-b08e-e788239306ef"},"vehicle_type_id":"4","last_reported":1774106193,"current_range_meters":3600,"station_id":"ce4bhbh2rcd13ifvqepg","pricing_plan_id":"cebpf4jnsgd1na2vs0mg"},{"bike_id":"5daa7b99-a795-4481-8f02-5815bcbecc1c","system_id":"levelo_inurba_marseille","lat":43.211905,"lon":5.350677,"is_reserved":false,"is_disabled":false,"rental_uris":{"android":"levelo://app?vid=5daa7b99-a795-4481-8f02-5815bcbecc1c","ios":"levelo://app?vid=5daa7b99-a795-4481-8f02-5815bcbecc1c"},"vehicle_type_id":"4","last_reported":1774106193,"current_range_meters":3600,"station_id":"st_cvj6sg6p6f1abm77japg","pricing_plan_id":"cebpf4jnsgd1na2vs0mg"},{"bike_id":"8f957662-a2f8-434b-b9b1-ac7debf94d1c","system_id":"levelo_inurba_marseille","lat":43.232,"lon":5.35547,"is_reserved":false,"is_disabled":false,"rental_uris":{"android":"levelo://app?vid=8f957662-a2f8-434b-b9b1-ac7debf94d1c","ios":"levelo://app?vid=8f957662-a2f8-434b-b9b1-ac7debf94d1c"},"vehicle_type_id":"4","last_reported":1774106193,"current_range_meters":3600,"station_id":"ce4bhu92rcd13ifvqi70","pricing_plan_id":"cebpf4jnsgd1na2vs0mg"},{"bike_id":"3235ef11-8ad1-4bf5-9732-97c346a1f7e2","system_id":"levelo_inurba_marseille","lat":43.26197,"lon":5.37492,"is_reserved":false,"is_disabled":false,"rental_uris":{"android":"levelo://app?vid=3235ef11-8ad1-4bf5-9732-97c346a1f7e2","ios":"levelo://app?vid=3235ef11-8ad1-4bf5-9732-97c346a1f7e2"},"vehicle_type_id":"4","last_reported":1774106193,"current_range_meters":3600,"station_id":"ce4bhgp2rcd13ifvqfc0","pricing_plan_id":"cebpf4jnsgd1na2vs0mg"},{"bike_id":"d13beb39-6370-4275-bcf3-5e08790510bd","system_id":"levelo_inurba_marseille","lat":43.28538,"lon":5.44104,"is_reserved":false,"is_disabled":false,"rental_uris":{"android":"levelo://app?vid=d13beb39-6370-4275-bcf3-5e08790510bd","ios":"levelo://app?vid=d13beb39-6370-4275-bcf3-5e08790510bd"},"vehicle_type_id":"4","last_reported":1774106193,"current_range_meters":3600,"station_id":"st_d3j3df2ikq2c7380ej80","pricing_plan_id":"cebpf4jnsgd1na2vs0mg"},{"bike_id":"53f48266-4564-420b-96ab-d243233055dc","system_id":"levelo_inurba_marseille","lat":43.28477,"lon":5.48404,"is_reserved":false,"is_disabled":false,"rental_uris":{"android":"levelo://app?vid=53f48266-4564-420b-96ab-d243233055dc","ios":"levelo://app?vid=53f48266-4564-420b-96ab-d243233055dc"},"vehicle_type_id":"4","last_reported":1774106193,"current_range_meters":4000,"station_id":"","pricing_plan_id":"cebpf4jnsgd1na2vs0mg"},{"bike_id":"265d135a-cdab-4a3a-be63-cdd9ae4f42ff","system_id":"levelo_inurba_marseille","lat":43.23191,"lon":5.35545,"is_reserved":false,"is_disabled":false,"rental_uris":{"android":"levelo://app?vid=265d135a-cdab-4a3a-be63-cdd9ae4f42ff","ios":"levelo://app?vid=265d135a-cdab-4a3a-be63-cdd9ae4f42ff"},"vehicle_type_id":"4","last_reported":1774106193,"current_range_meters":4000,"station_id":"ce4bhu92rcd13ifvqi70","pricing_plan_id":"cebpf4jnsgd1na2vs0mg"},{"bike_id":"25711bef-13f9-48fd-8f33-592148b8dc65","system_id":"levelo_inurba_marseille","lat":43.25364,"lon":5.42115,"is_reserved":false,"is_disabled":false,"rental_uris":{"android":"levelo://app?vid=25711bef-13f9-48fd-8f33-592148b8dc65","ios":"levelo://app?vid=25711bef-13f9-48fd-8f33-592148b8dc65"},"vehicle_type_id":"4","last_reported":1774106193,"current_range_meters":4000,"station_id":"","pricing_plan_id":"cebpf4jnsgd1na2vs0mg"},{"bike_id":"d5c561ae-734a-48fd-bcb6-4c6281b79b1a","system_id":"levelo_inurba_marseille","lat":43.276124,"lon":5.36105,"is_reserved":false,"is_disabled":false,"rental_uris":{"android":"levelo://app?vid=d5c561ae-734a-48fd-bcb6-4c6281b79b1a","ios":"levelo://app?vid=d5c561ae-734a-48fd-bcb6-4c6281b79b1a"},"vehicle_type_id":"4","last_reported":1774106193,"current_range_meters":4000,"station_id":"ce4bgj92rcd13ifvqbe0","pricing_plan_id":"cebpf4jnsgd1na2vs0mg"},{"bike_id":"b0a23fe5-02fe-4b02-b91a-84484aa5dca7","system_id":"levelo_inurba_marseille","lat":43.21756,"lon":5.34595,"is_reserved":false,"is_disabled":false,"rental_uris":{"android":"levelo://app?vid=b0a23fe5-02fe-4b02-b91a-84484aa5dca7","ios":"levelo://app?vid=b0a23fe5-02fe-4b02-b91a-84484aa5dca7"},"vehicle_type_id":"4","last_reported":1774106193,"current_range_meters":4000,"station_id":"st_cvj6r9ubvosntc0bgbag","pricing_plan_id":"cebpf4jnsgd1na2vs0mg"},{"bike_id":"b14bb5e1-7882-4380-b389-98bb380dac81","system_id":"levelo_inurba_marseille","lat":43.23959,"lon":5.36622,"is_reserved":false,"is_disabled":false,"rental_uris":{"android":"levelo://app?vid=b14bb5e1-7882-4380-b389-98bb380dac81","ios":"levelo://app?vid=b14bb5e1-7882-4380-b389-98bb380dac81"},"vehicle_type_id":"4","last_reported":1774106193,"current_range_meters":4000,"station_id":"ce4bhi12rcd13ifvqfp0","pricing_plan_id":"cebpf4jnsgd1na2vs0mg"},{"bike_id":"f3c240e8-e46d-4337-89e6-10da27f23d3d","system_id":"levelo_inurba_marseille","lat":43.2938,"lon":5.37843,"is_reserved":false,"is_disabled":false,"rental_uris":{"android":"levelo://app?vid=f3c240e8-e46d-4337-89e6-10da27f23d3d","ios":"levelo://app?vid=f3c240e8-e46d-4337-89e6-10da27f23d3d"},"vehicle_type_id":"4","last_reported":1774106193,"current_range_meters":4400,"station_id":"ce4bgjh2rcd13ifvqbf0","pricing_plan_id":"cebpf4jnsgd1na2vs0mg"},{"bike_id":"0f699794-8202-4161-a052-1d39a341c5fa","system_id":"levelo_inurba_marseille","lat":43.31195,"lon":5.38701,"is_reserved":false,"is_disabled":true,"rental_uris":{"android":"levelo://app?vid=0f699794-8202-4161-a052-1d39a341c5fa","ios":"levelo://app?vid=0f699794-8202-4161-a052-1d39a341c5fa"},"vehicle_type_id":"4","last_reported":1774106193,"current_range_meters":4400,"station_id":"ce4bgv12rcd13ifvqcp0","pricing_plan_id":"cebpf4jnsgd1na2vs0mg"},{"bike_id":"413c8cf9-6791-47b6-99ea-36fa6e796074","system_id":"levelo_inurba_marseille","lat":43.23182,"lon":5.39986,"is_reserved":false,"is_disabled":false,"rental_uris":{"android":"levelo://app?vid=413c8cf9-6791-47b6-99ea-36fa6e796074","ios":"levelo://app?vid=413c8cf9-6791-47b6-99ea-36fa6e796074"},"vehicle_type_id":"4","last_reported":1774106193,"current_range_meters":4400,"station_id":"ce4bhn12rcd13ifvqgqg","pricing_plan_id":"cebpf4jnsgd1na2vs0mg"},{"bike_id":"02890a69-b4c0-45c7-83fe-503fa8a62589","system_id":"levelo_inurba_marseille","lat":43.27608,"lon":5.36107,"is_reserved":false,"is_disabled":false,"rental_uris":{"android":"levelo://app?vid=02890a69-b4c0-45c7-83fe-503fa8a62589","ios":"levelo://app?vid=02890a69-b4c0-45c7-83fe-503fa8a62589"},"vehicle_type_id":"4","last_reported":1774106193,"current_range_meters":4400,"station_id":"ce4bgj92rcd13ifvqbe0","pricing_plan_id":"cebpf4jnsgd1na2vs0mg"},{"bike_id":"7fa64d84-cd92-4f02-a79d-c348b129b15f","system_id":"levelo_inurba_marseille","lat":43.24212,"lon":5.36393,"is_reserved":false,"is_disabled":false,"rental_uris":{"android":"levelo://app?vid=7fa64d84-cd92-4f02-a79d-c348b129b15f","ios":"levelo://app?vid=7fa64d84-cd92-4f02-a79d-c348b129b15f"},"vehicle_type_id":"4","last_reported":1774106193,"current_range_meters":4400,"station_id":"cpo36qri1sfpv3e86is0","pricing_plan_id":"cebpf4jnsgd1na2vs0mg"},{"bike_id":"19002125-2806-4d33-9a79-02f683857dc1","system_id":"levelo_inurba_marseille","lat":43.32362,"lon":5.38887,"is_reserved":false,"is_disabled":false,"rental_uris":{"android":"levelo://app?vid=19002125-2806-4d33-9a79-02f683857dc1","ios":"levelo://app?vid=19002125-2806-4d33-9a79-02f683857dc1"},"vehicle_type_id":"4","last_reported":1774106193,"current_range_meters":4400,"station_id":"ce4bhqp2rcd13ifvqhog","pricing_plan_id":"cebpf4jnsgd1na2vs0mg"},{"bike_id":"1f8d0a13-557e-425c-8fbc-f6fc64ab076e","system_id":"levelo_inurba_marseille","lat":43.29162,"lon":5.3582,"is_reserved":false,"is_disabled":false,"rental_uris":{"android":"levelo://app?vid=1f8d0a13-557e-425c-8fbc-f6fc64ab076e","ios":"levelo://app?vid=1f8d0a13-557e-425c-8fbc-f6fc64ab076e"},"vehicle_type_id":"4","last_reported":1774106193,"current_range_meters":4400,"station_id":"ce4bhb12rcd13ifvqel0","pricing_plan_id":"cebpf4jnsgd1na2vs0mg"},{"bike_id":"561d39a9-9ee7-4de0-89fa-fa311359c492","system_id":"levelo_inurba_marseille","lat":43.23969,"lon":5.36626,"is_reserved":false,"is_disabled":false,"rental_uris":{"android":"levelo://app?vid=561d39a9-9ee7-4de0-89fa-fa311359c492","ios":"levelo://app?vid=561d39a9-9ee7-4de0-89fa-fa311359c492"},"vehicle_type_id":"4","last_reported":1774106193,"current_range_meters":4800,"station_id":"ce4bhi12rcd13ifvqfp0","pricing_plan_id":"cebpf4jnsgd1na2vs0mg"},{"bike_id":"8aeb1ffc-b432-4235-8304-c0a4c58e7fe3","system_id":"levelo_inurba_marseille","lat":43.29734,"lon":5.3835,"is_reserved":false,"is_disabled":false,"rental_uris":{"android":"levelo://app?vid=8aeb1ffc-b432-4235-8304-c0a4c58e7fe3","ios":"levelo://app?vid=8aeb1ffc-b432-4235-8304-c0a4c58e7fe3"},"vehicle_type_id":"4","last_reported":1774106193,"current_range_meters":4800,"station_id":"","pricing_plan_id":"cebpf4jnsgd1na2vs0mg"},{"bike_id":"bc398ecf-f942-4bfc-a54a-d88839d57af0","system_id":"levelo_inurba_marseille","lat":43.21191,"lon":5.35067,"is_reserved":false,"is_disabled":false,"rental_uris":{"android":"levelo://app?vid=bc398ecf-f942-4bfc-a54a-d88839d57af0","ios":"levelo://app?vid=bc398ecf-f942-4bfc-a54a-d88839d57af0"},"vehicle_type_id":"4","last_reported":1774106193,"current_range_meters":4800,"station_id":"st_cvj6sg6p6f1abm77japg","pricing_plan_id":"cebpf4jnsgd1na2vs0mg"},{"bike_id":"a8c8307b-e1e9-4950-a785-578e1a82f805","system_id":"levelo_inurba_marseille","lat":43.3129,"lon":5.37811,"is_reserved":false,"is_disabled":false,"rental_uris":{"android":"levelo://app?vid=a8c8307b-e1e9-4950-a785-578e1a82f805","ios":"levelo://app?vid=a8c8307b-e1e9-4950-a785-578e1a82f805"},"vehicle_type_id":"4","last_reported":1774106193,"current_range_meters":4800,"station_id":"","pricing_plan_id":"cebpf4jnsgd1na2vs0mg"},{"bike_id":"79e1d481-f674-4635-8039-0838a7e7306a","system_id":"levelo_inurba_marseille","lat":43.26555,"lon":5.37292,"is_reserved":false,"is_disabled":false,"rental_uris":{"android":"levelo://app?vid=79e1d481-f674-4635-8039-0838a7e7306a","ios":"levelo://app?vid=79e1d481-f674-4635-8039-0838a7e7306a"},"vehicle_type_id":"4","last_reported":1774106193,"current_range_meters":4800,"station_id":"ce4bhg12rcd13ifvqf70","pricing_plan_id":"cebpf4jnsgd1na2vs0mg"},{"bike_id":"dcb7fa85-9576-461b-9db4-bfb93259aa75","system_id":"levelo_inurba_marseille","lat":43.25507,"lon":5.37653,"is_reserved":false,"is_disabled":true,"rental_uris":{"android":"levelo://app?vid=dcb7fa85-9576-461b-9db4-bfb93259aa75","ios":"levelo://app?vid=dcb7fa85-9576-461b-9db4-bfb93259aa75"},"vehicle_type_id":"4","last_reported":1774106193,"current_range_meters":4800,"station_id":"ce4bhh12rcd13ifvqff0","pricing_plan_id":"cebpf4jnsgd1na2vs0mg"},{"bike_id":"2f338bc2-688d-468d-8098-cfd97c1fbe53","system_id":"levelo_inurba_marseille","lat":43.27839,"lon":5.39208,"is_reserved":false,"is_disabled":false,"rental_uris":{"android":"levelo://app?vid=2f338bc2-688d-468d-8098-cfd97c1fbe53","ios":"levelo://app?vid=2f338bc2-688d-468d-8098-cfd97c1fbe53"},"vehicle_type_id":"4","last_reported":1774106193,"current_range_meters":4800,"station_id":"ce4bhjp2rcd13ifvqga0","pricing_plan_id":"cebpf4jnsgd1na2vs0mg"},{"bike_id":"7ba80008-60b8-4bf7-9180-542631266876","system_id":"levelo_inurba_marseille","lat":43.2738,"lon":5.36253,"is_reserved":false,"is_disabled":false,"rental_uris":{"android":"levelo://app?vid=7ba80008-60b8-4bf7-9180-542631266876","ios":"levelo://app?vid=7ba80008-60b8-4bf7-9180-542631266876"},"vehicle_type_id":"4","last_reported":1774106193,"current_range_meters":4800,"station_id":"ce4bhbh2rcd13ifvqeo0","pricing_plan_id":"cebpf4jnsgd1na2vs0mg"},{"bike_id":"9bedb971-6887-4d43-88c8-1762430f453d","system_id":"levelo_inurba_marseille","lat":43.24658,"lon":5.38173,"is_reserved":false,"is_disabled":true,"rental_uris":{"android":"levelo://app?vid=9bedb971-6887-4d43-88c8-1762430f453d","ios":"levelo://app?vid=9bedb971-6887-4d43-88c8-1762430f453d"},"vehicle_type_id":"4","last_reported":1774106193,"current_range_meters":4800,"station_id":"ce4bhih2rcd13ifvqfr0","pricing_plan_id":"cebpf4jnsgd1na2vs0mg"},{"bike_id":"e2fd64be-ef92-4ab0-9bda-d5ca24315292","system_id":"levelo_inurba_marseille","lat":43.29912,"lon":5.38151,"is_reserved":false,"is_disabled":false,"rental_uris":{"android":"levelo://app?vid=e2fd64be-ef92-4ab0-9bda-d5ca24315292","ios":"levelo://app?vid=e2fd64be-ef92-4ab0-9bda-d5ca24315292"},"vehicle_type_id":"4","last_reported":1774106193,"current_range_meters":4800,"station_id":"ce4bgj12rcd13ifvqbc0","pricing_plan_id":"cebpf4jnsgd1na2vs0mg"},{"bike_id":"d8d1cc46-8f29-4c68-aa1a-7630fe151414","system_id":"levelo_inurba_marseille","lat":43.26027,"lon":5.37553,"is_reserved":false,"is_disabled":false,"rental_uris":{"android":"levelo://app?vid=d8d1cc46-8f29-4c68-aa1a-7630fe151414","ios":"levelo://app?vid=d8d1cc46-8f29-4c68-aa1a-7630fe151414"},"vehicle_type_id":"4","last_reported":1774106193,"current_range_meters":4800,"station_id":"ce4bhgh2rcd13ifvqfa0","pricing_plan_id":"cebpf4jnsgd1na2vs0mg"},{"bike_id":"cc068a75-5b70-4660-8d8d-3a2a461ea05b","system_id":"levelo_inurba_marseille","lat":43.27366,"lon":5.36256,"is_reserved":false,"is_disabled":false,"rental_uris":{"android":"levelo://app?vid=cc068a75-5b70-4660-8d8d-3a2a461ea05b","ios":"levelo://app?vid=cc068a75-5b70-4660-8d8d-3a2a461ea05b"},"vehicle_type_id":"4","last_reported":1774106193,"current_range_meters":4800,"station_id":"ce4bhbh2rcd13ifvqeo0","pricing_plan_id":"cebpf4jnsgd1na2vs0mg"},{"bike_id":"c1370cbd-10ec-4a63-a477-b5ca4593e8d4","system_id":"levelo_inurba_marseille","lat":43.29723,"lon":5.36617,"is_reserved":false,"is_disabled":false,"rental_uris":{"android":"levelo://app?vid=c1370cbd-10ec-4a63-a477-b5ca4593e8d4","ios":"levelo://app?vid=c1370cbd-10ec-4a63-a477-b5ca4593e8d4"},"vehicle_type_id":"4","last_reported":1774106193,"current_range_meters":4800,"station_id":"ce4bgn12rcd13ifvqbt0","pricing_plan_id":"cebpf4jnsgd1na2vs0mg"},{"bike_id":"8fd3b6f9-6597-459b-bca3-6e940ae31dd1","system_id":"levelo_inurba_marseille","lat":43.28468,"lon":5.35893,"is_reserved":false,"is_disabled":false,"rental_uris":{"android":"levelo://app?vid=8fd3b6f9-6597-459b-bca3-6e940ae31dd1","ios":"levelo://app?vid=8fd3b6f9-6597-459b-bca3-6e940ae31dd1"},"vehicle_type_id":"4","last_reported":1774106193,"current_range_meters":5600,"station_id":"ce4bhah2rcd13ifvqei0","pricing_plan_id":"cebpf4jnsgd1na2vs0mg"},{"bike_id":"fdc655d4-8c99-4d97-9c1e-46ec98ef8979","system_id":"levelo_inurba_marseille","lat":43.28606,"lon":5.3509,"is_reserved":false,"is_disabled":true,"rental_uris":{"android":"levelo://app?vid=fdc655d4-8c99-4d97-9c1e-46ec98ef8979","ios":"levelo://app?vid=fdc655d4-8c99-4d97-9c1e-46ec98ef8979"},"vehicle_type_id":"4","last_reported":1774106193,"current_range_meters":5600,"station_id":"","pricing_plan_id":"cebpf4jnsgd1na2vs0mg"},{"bike_id":"e2420c11-4646-4145-aa2e-baedb91a43dc","system_id":"levelo_inurba_marseille","lat":43.32355,"lon":5.36742,"is_reserved":false,"is_disabled":false,"rental_uris":{"android":"levelo://app?vid=e2420c11-4646-4145-aa2e-baedb91a43dc","ios":"levelo://app?vid=e2420c11-4646-4145-aa2e-baedb91a43dc"},"vehicle_type_id":"4","last_reported":1774106193,"current_range_meters":5600,"station_id":"ce4bhsh2rcd13ifvqi2g","pricing_plan_id":"cebpf4jnsgd1na2vs0mg"},{"bike_id":"65d9038f-1df8-4f17-bf03-e7338e7299fe","system_id":"levelo_inurba_marseille","lat":43.28419,"lon":5.34978,"is_reserved":false,"is_disabled":false,"rental_uris":{"android":"levelo://app?vid=65d9038f-1df8-4f17-bf03-e7338e7299fe","ios":"levelo://app?vid=65d9038f-1df8-4f17-bf03-e7338e7299fe"},"vehicle_type_id":"4","last_reported":1774106193,"current_range_meters":5600,"station_id":"ce4bhbh2rcd13ifvqepg","pricing_plan_id":"cebpf4jnsgd1na2vs0mg"},{"bike_id":"286fba00-1c70-49c5-9491-0b3044de24cb","system_id":"levelo_inurba_marseille","lat":43.26208,"lon":5.4045,"is_reserved":false,"is_disabled":true,"rental_uris":{"android":"levelo://app?vid=286fba00-1c70-49c5-9491-0b3044de24cb","ios":"levelo://app?vid=286fba00-1c70-49c5-9491-0b3044de24cb"},"vehicle_type_id":"4","last_reported":1774106193,"current_range_meters":5600,"station_id":"ce4bhmh2rcd13ifvqgmg","pricing_plan_id":"cebpf4jnsgd1na2vs0mg"},{"bike_id":"f3414e99-2d7c-4b03-96db-df8c1c6d3f2b","system_id":"levelo_inurba_marseille","lat":43.28483,"lon":5.48403,"is_reserved":false,"is_disabled":false,"rental_uris":{"android":"levelo://app?vid=f3414e99-2d7c-4b03-96db-df8c1c6d3f2b","ios":"levelo://app?vid=f3414e99-2d7c-4b03-96db-df8c1c6d3f2b"},"vehicle_type_id":"4","last_reported":1774106193,"current_range_meters":5600,"station_id":"","pricing_plan_id":"cebpf4jnsgd1na2vs0mg"},{"bike_id":"15470403-feb1-41d6-819b-85b32133a4cc","system_id":"levelo_inurba_marseille","lat":43.28268,"lon":5.35067,"is_reserved":false,"is_disabled":false,"rental_uris":{"android":"levelo://app?vid=15470403-feb1-41d6-819b-85b32133a4cc","ios":"levelo://app?vid=15470403-feb1-41d6-819b-85b32133a4cc"},"vehicle_type_id":"4","last_reported":1774106193,"current_range_meters":5600,"station_id":"ce4bhbp2rcd13ifvqerg","pricing_plan_id":"cebpf4jnsgd1na2vs0mg"},{"bike_id":"ced5bc18-68db-465c-be14-a80079579d67","system_id":"levelo_inurba_marseille","lat":43.28411,"lon":5.34988,"is_reserved":false,"is_disabled":false,"rental_uris":{"android":"levelo://app?vid=ced5bc18-68db-465c-be14-a80079579d67","ios":"levelo://app?vid=ced5bc18-68db-465c-be14-a80079579d67"},"vehicle_type_id":"4","last_reported":1774106193,"current_range_meters":5600,"station_id":"ce4bhbh2rcd13ifvqepg","pricing_plan_id":"cebpf4jnsgd1na2vs0mg"},{"bike_id":"962e3e51-db50-4f61-a079-9b1c6a103eb5","system_id":"levelo_inurba_marseille","lat":43.30963,"lon":5.36814,"is_reserved":false,"is_disabled":false,"rental_uris":{"android":"levelo://app?vid=962e3e51-db50-4f61-a079-9b1c6a103eb5","ios":"levelo://app?vid=962e3e51-db50-4f61-a079-9b1c6a103eb5"},"vehicle_type_id":"4","last_reported":1774106193,"current_range_meters":5600,"station_id":"","pricing_plan_id":"cebpf4jnsgd1na2vs0mg"},{"bike_id":"3fb6d249-dea4-410c-82da-99fa8cfef2b2","system_id":"levelo_inurba_marseille","lat":43.28097,"lon":5.37841,"is_reserved":false,"is_disabled":false,"rental_uris":{"android":"levelo://app?vid=3fb6d249-dea4-410c-82da-99fa8cfef2b2","ios":"levelo://app?vid=3fb6d249-dea4-410c-82da-99fa8cfef2b2"},"vehicle_type_id":"4","last_reported":1774106193,"current_range_meters":5600,"station_id":"ce4bha12rcd13ifvqee0","pricing_plan_id":"cebpf4jnsgd1na2vs0mg"},{"bike_id":"5838f222-7433-4cf6-86d8-026e99fd3e4f","system_id":"levelo_inurba_marseille","lat":43.21195,"lon":5.3508,"is_reserved":false,"is_disabled":false,"rental_uris":{"android":"levelo://app?vid=5838f222-7433-4cf6-86d8-026e99fd3e4f","ios":"levelo://app?vid=5838f222-7433-4cf6-86d8-026e99fd3e4f"},"vehicle_type_id":"4","last_reported":1774106193,"current_range_meters":5600,"station_id":"st_cvj6sg6p6f1abm77japg","pricing_plan_id":"cebpf4jnsgd1na2vs0mg"},{"bike_id":"2cea9d46-c32a-4a24-9abe-5dc099975957","system_id":"levelo_inurba_marseille","lat":43.28473,"lon":5.4839,"is_reserved":false,"is_disabled":false,"rental_uris":{"android":"levelo://app?vid=2cea9d46-c32a-4a24-9abe-5dc099975957","ios":"levelo://app?vid=2cea9d46-c32a-4a24-9abe-5dc099975957"},"vehicle_type_id":"4","last_reported":1774106193,"current_range_meters":5600,"station_id":"","pricing_plan_id":"cebpf4jnsgd1na2vs0mg"},{"bike_id":"2d9e4754-9b17-40b5-bbeb-5b1c9c5bbe64","system_id":"levelo_inurba_marseille","lat":43.30119,"lon":5.38766,"is_reserved":false,"is_disabled":true,"rental_uris":{"android":"levelo://app?vid=2d9e4754-9b17-40b5-bbeb-5b1c9c5bbe64","ios":"levelo://app?vid=2d9e4754-9b17-40b5-bbeb-5b1c9c5bbe64"},"vehicle_type_id":"4","last_reported":1774106193,"current_range_meters":5600,"station_id":"ce4bghh2rcd13ifvqb60","pricing_plan_id":"cebpf4jnsgd1na2vs0mg"},{"bike_id":"84fd5b4a-fba4-42d8-8fb1-6da57b2250a9","system_id":"levelo_inurba_marseille","lat":43.23068,"lon":5.3549,"is_reserved":false,"is_disabled":false,"rental_uris":{"android":"levelo://app?vid=84fd5b4a-fba4-42d8-8fb1-6da57b2250a9","ios":"levelo://app?vid=84fd5b4a-fba4-42d8-8fb1-6da57b2250a9"},"vehicle_type_id":"4","last_reported":1774106193,"current_range_meters":5600,"station_id":"cpo3342slgdg3j2ifvpg","pricing_plan_id":"cebpf4jnsgd1na2vs0mg"},{"bike_id":"ac26d19b-4a49-455e-8b2f-857ae1df076d","system_id":"levelo_inurba_marseille","lat":43.27837,"lon":5.39213,"is_reserved":false,"is_disabled":false,"rental_uris":{"android":"levelo://app?vid=ac26d19b-4a49-455e-8b2f-857ae1df076d","ios":"levelo://app?vid=ac26d19b-4a49-455e-8b2f-857ae1df076d"},"vehicle_type_id":"4","last_reported":1774106193,"current_range_meters":5600,"station_id":"ce4bhjp2rcd13ifvqga0","pricing_plan_id":"cebpf4jnsgd1na2vs0mg"},{"bike_id":"a28d15da-66d7-4384-a3c2-0104d747c144","system_id":"levelo_inurba_marseille","lat":43.28272,"lon":5.35083,"is_reserved":false,"is_disabled":false,"rental_uris":{"android":"levelo://app?vid=a28d15da-66d7-4384-a3c2-0104d747c144","ios":"levelo://app?vid=a28d15da-66d7-4384-a3c2-0104d747c144"},"vehicle_type_id":"4","last_reported":1774106193,"current_range_meters":5600,"station_id":"ce4bhbp2rcd13ifvqerg","pricing_plan_id":"cebpf4jnsgd1na2vs0mg"},{"bike_id":"adc5ac07-5147-43c6-b3e9-46b364b058d3","system_id":"levelo_inurba_marseille","lat":43.21808,"lon":5.34455,"is_reserved":false,"is_disabled":true,"rental_uris":{"android":"levelo://app?vid=adc5ac07-5147-43c6-b3e9-46b364b058d3","ios":"levelo://app?vid=adc5ac07-5147-43c6-b3e9-46b364b058d3"},"vehicle_type_id":"4","last_reported":1774106193,"current_range_meters":5600,"station_id":"","pricing_plan_id":"cebpf4jnsgd1na2vs0mg"},{"bike_id":"83f604fd-fbd3-4119-89eb-8edf907f67f1","system_id":"levelo_inurba_marseille","lat":43.28692,"lon":5.37404,"is_reserved":false,"is_disabled":false,"rental_uris":{"android":"levelo://app?vid=83f604fd-fbd3-4119-89eb-8edf907f67f1","ios":"levelo://app?vid=83f604fd-fbd3-4119-89eb-8edf907f67f1"},"vehicle_type_id":"4","last_reported":1774106193,"current_range_meters":5600,"station_id":"ce4bh3p2rcd13ifvqdq0","pricing_plan_id":"cebpf4jnsgd1na2vs0mg"},{"bike_id":"61e925bc-2990-4fed-b657-61301fde1905","system_id":"levelo_inurba_marseille","lat":43.28404,"lon":5.34993,"is_reserved":false,"is_disabled":false,"rental_uris":{"android":"levelo://app?vid=61e925bc-2990-4fed-b657-61301fde1905","ios":"levelo://app?vid=61e925bc-2990-4fed-b657-61301fde1905"},"vehicle_type_id":"4","last_reported":1774106193,"current_range_meters":5600,"station_id":"ce4bhbh2rcd13ifvqepg","pricing_plan_id":"cebpf4jnsgd1na2vs0mg"},{"bike_id":"21ff0bd8-1db2-4b32-9d6e-477512760f83","system_id":"levelo_inurba_marseille","lat":43.21748,"lon":5.34603,"is_reserved":false,"is_disabled":false,"rental_uris":{"android":"levelo://app?vid=21ff0bd8-1db2-4b32-9d6e-477512760f83","ios":"levelo://app?vid=21ff0bd8-1db2-4b32-9d6e-477512760f83"},"vehicle_type_id":"4","last_reported":1774106193,"current_range_meters":5600,"station_id":"st_cvj6r9ubvosntc0bgbag","pricing_plan_id":"cebpf4jnsgd1na2vs0mg"},{"bike_id":"b94ca44d-26c4-4d47-98c6-89b88ba8910d","system_id":"levelo_inurba_marseille","lat":43.2993,"lon":5.37471,"is_reserved":false,"is_disabled":false,"rental_uris":{"android":"levelo://app?vid=b94ca44d-26c4-4d47-98c6-89b88ba8910d","ios":"levelo://app?vid=b94ca44d-26c4-4d47-98c6-89b88ba8910d"},"vehicle_type_id":"4","last_reported":1774106193,"current_range_meters":6000,"station_id":"ce4bgjh2rcd13ifvqbg0","pricing_plan_id":"cebpf4jnsgd1na2vs0mg"},{"bike_id":"53663f10-c972-4dad-83a0-96ec19d2a37e","system_id":"levelo_inurba_marseille","lat":43.25001,"lon":5.38932,"is_reserved":false,"is_disabled":true,"rental_uris":{"android":"levelo://app?vid=53663f10-c972-4dad-83a0-96ec19d2a37e","ios":"levelo://app?vid=53663f10-c972-4dad-83a0-96ec19d2a37e"},"vehicle_type_id":"4","last_reported":1774106193,"current_range_meters":6000,"station_id":"ce4bhgp2rcd13ifvqfd0","pricing_plan_id":"cebpf4jnsgd1na2vs0mg"},{"bike_id":"d00ce6b1-d263-4644-9ac8-801c3d34ac19","system_id":"levelo_inurba_marseille","lat":43.22571,"lon":5.4161,"is_reserved":false,"is_disabled":false,"rental_uris":{"android":"levelo://app?vid=d00ce6b1-d263-4644-9ac8-801c3d34ac19","ios":"levelo://app?vid=d00ce6b1-d263-4644-9ac8-801c3d34ac19"},"vehicle_type_id":"4","last_reported":1774106193,"current_range_meters":6000,"station_id":"st_d2o4gvlbi1j2169b742g","pricing_plan_id":"cebpf4jnsgd1na2vs0mg"},{"bike_id":"8648ff3d-a49d-4491-be6c-bab3f9812603","system_id":"levelo_inurba_marseille","lat":43.28269,"lon":5.43834,"is_reserved":false,"is_disabled":false,"rental_uris":{"android":"levelo://app?vid=8648ff3d-a49d-4491-be6c-bab3f9812603","ios":"levelo://app?vid=8648ff3d-a49d-4491-be6c-bab3f9812603"},"vehicle_type_id":"4","last_reported":1774106193,"current_range_meters":6000,"station_id":"","pricing_plan_id":"cebpf4jnsgd1na2vs0mg"},{"bike_id":"aa1c74ba-e540-45ce-8e97-4868fa0e5a19","system_id":"levelo_inurba_marseille","lat":43.25373,"lon":5.41741,"is_reserved":false,"is_disabled":false,"rental_uris":{"android":"levelo://app?vid=aa1c74ba-e540-45ce-8e97-4868fa0e5a19","ios":"levelo://app?vid=aa1c74ba-e540-45ce-8e97-4868fa0e5a19"},"vehicle_type_id":"4","last_reported":1774106193,"current_range_meters":6000,"station_id":"","pricing_plan_id":"cebpf4jnsgd1na2vs0mg"},{"bike_id":"7fd7bef8-f1ba-43a5-acd0-aa6543ca790f","system_id":"levelo_inurba_marseille","lat":43.24163,"lon":5.36404,"is_reserved":false,"is_disabled":false,"rental_uris":{"android":"levelo://app?vid=7fd7bef8-f1ba-43a5-acd0-aa6543ca790f","ios":"levelo://app?vid=7fd7bef8-f1ba-43a5-acd0-aa6543ca790f"},"vehicle_type_id":"4","last_reported":1774106193,"current_range_meters":6000,"station_id":"cpo36qri1sfpv3e86is0","pricing_plan_id":"cebpf4jnsgd1na2vs0mg"},{"bike_id":"93f77257-fc99-4ef8-88b3-66def1669777","system_id":"levelo_inurba_marseille","lat":43.26222,"lon":5.40464,"is_reserved":false,"is_disabled":false,"rental_uris":{"android":"levelo://app?vid=93f77257-fc99-4ef8-88b3-66def1669777","ios":"levelo://app?vid=93f77257-fc99-4ef8-88b3-66def1669777"},"vehicle_type_id":"4","last_reported":1774106193,"current_range_meters":6000,"station_id":"ce4bhmh2rcd13ifvqgmg","pricing_plan_id":"cebpf4jnsgd1na2vs0mg"},{"bike_id":"21dcff95-3114-402a-9713-10e340a8f8dd","system_id":"levelo_inurba_marseille","lat":43.29293,"lon":5.37158,"is_reserved":false,"is_disabled":false,"rental_uris":{"android":"levelo://app?vid=21dcff95-3114-402a-9713-10e340a8f8dd","ios":"levelo://app?vid=21dcff95-3114-402a-9713-10e340a8f8dd"},"vehicle_type_id":"4","last_reported":1774106193,"current_range_meters":6000,"station_id":"ce4bgh92rcd13ifvqb40","pricing_plan_id":"cebpf4jnsgd1na2vs0mg"},{"bike_id":"c8b26585-e8d5-43be-95b8-09825f29c990","system_id":"levelo_inurba_marseille","lat":43.23964,"lon":5.36638,"is_reserved":false,"is_disabled":false,"rental_uris":{"android":"levelo://app?vid=c8b26585-e8d5-43be-95b8-09825f29c990","ios":"levelo://app?vid=c8b26585-e8d5-43be-95b8-09825f29c990"},"vehicle_type_id":"4","last_reported":1774106193,"current_range_meters":6000,"station_id":"ce4bhi12rcd13ifvqfp0","pricing_plan_id":"cebpf4jnsgd1na2vs0mg"},{"bike_id":"0c744d67-74b3-4bed-8fa1-274d8c3afbea","system_id":"levelo_inurba_marseille","lat":43.23788,"lon":5.36624,"is_reserved":false,"is_disabled":false,"rental_uris":{"android":"levelo://app?vid=0c744d67-74b3-4bed-8fa1-274d8c3afbea","ios":"levelo://app?vid=0c744d67-74b3-4bed-8fa1-274d8c3afbea"},"vehicle_type_id":"4","last_reported":1774106193,"current_range_meters":6000,"station_id":"st_d3nk18o9ro0c73en2l3g","pricing_plan_id":"cebpf4jnsgd1na2vs0mg"},{"bike_id":"07ea90c2-dc9f-4182-b36a-2c9efdcd08d9","system_id":"levelo_inurba_marseille","lat":43.3088,"lon":5.39623,"is_reserved":false,"is_disabled":false,"rental_uris":{"android":"levelo://app?vid=07ea90c2-dc9f-4182-b36a-2c9efdcd08d9","ios":"levelo://app?vid=07ea90c2-dc9f-4182-b36a-2c9efdcd08d9"},"vehicle_type_id":"4","last_reported":1774106193,"current_range_meters":6400,"station_id":"ce4bh012rcd13ifvqcv0","pricing_plan_id":"cebpf4jnsgd1na2vs0mg"},{"bike_id":"5672f140-f178-4766-bb60-5301b26a0e4e","system_id":"levelo_inurba_marseille","lat":43.28476,"lon":5.48392,"is_reserved":false,"is_disabled":false,"rental_uris":{"android":"levelo://app?vid=5672f140-f178-4766-bb60-5301b26a0e4e","ios":"levelo://app?vid=5672f140-f178-4766-bb60-5301b26a0e4e"},"vehicle_type_id":"4","last_reported":1774106193,"current_range_meters":6400,"station_id":"","pricing_plan_id":"cebpf4jnsgd1na2vs0mg"},{"bike_id":"72e035d0-dcc2-4dcf-8660-2e348be6861e","system_id":"levelo_inurba_marseille","lat":43.3146,"lon":5.4539,"is_reserved":false,"is_disabled":false,"rental_uris":{"android":"levelo://app?vid=72e035d0-dcc2-4dcf-8660-2e348be6861e","ios":"levelo://app?vid=72e035d0-dcc2-4dcf-8660-2e348be6861e"},"vehicle_type_id":"4","last_reported":1774106193,"current_range_meters":6400,"station_id":"","pricing_plan_id":"cebpf4jnsgd1na2vs0mg"},{"bike_id":"92f32112-8a58-4a2d-8380-c50aa46da344","system_id":"levelo_inurba_marseille","lat":43.24062,"lon":5.36371,"is_reserved":false,"is_disabled":false,"rental_uris":{"android":"levelo://app?vid=92f32112-8a58-4a2d-8380-c50aa46da344","ios":"levelo://app?vid=92f32112-8a58-4a2d-8380-c50aa46da344"},"vehicle_type_id":"4","last_reported":1774106193,"current_range_meters":6400,"station_id":"","pricing_plan_id":"cebpf4jnsgd1na2vs0mg"},{"bike_id":"84c11551-1d18-4796-be36-74162c7cde37","system_id":"levelo_inurba_marseille","lat":43.30108,"lon":5.4307,"is_reserved":false,"is_disabled":false,"rental_uris":{"android":"levelo://app?vid=84c11551-1d18-4796-be36-74162c7cde37","ios":"levelo://app?vid=84c11551-1d18-4796-be36-74162c7cde37"},"vehicle_type_id":"4","last_reported":1774106193,"current_range_meters":6400,"station_id":"st_d3js3co5814s73ftftug","pricing_plan_id":"cebpf4jnsgd1na2vs0mg"},{"bike_id":"ab77a418-345e-453b-bca3-3815a5ee3842","system_id":"levelo_inurba_marseille","lat":43.23203,"lon":5.35539,"is_reserved":false,"is_disabled":false,"rental_uris":{"android":"levelo://app?vid=ab77a418-345e-453b-bca3-3815a5ee3842","ios":"levelo://app?vid=ab77a418-345e-453b-bca3-3815a5ee3842"},"vehicle_type_id":"4","last_reported":1774106193,"current_range_meters":6400,"station_id":"ce4bhu92rcd13ifvqi70","pricing_plan_id":"cebpf4jnsgd1na2vs0mg"},{"bike_id":"bfa999de-7a32-454a-b31e-f99ace51a3fc","system_id":"levelo_inurba_marseille","lat":43.28475,"lon":5.484,"is_reserved":false,"is_disabled":false,"rental_uris":{"android":"levelo://app?vid=bfa999de-7a32-454a-b31e-f99ace51a3fc","ios":"levelo://app?vid=bfa999de-7a32-454a-b31e-f99ace51a3fc"},"vehicle_type_id":"4","last_reported":1774106193,"current_range_meters":6400,"station_id":"","pricing_plan_id":"cebpf4jnsgd1na2vs0mg"},{"bike_id":"a068e9de-cdeb-4936-8a9b-bd068dca309c","system_id":"levelo_inurba_marseille","lat":43.2389,"lon":5.37443,"is_reserved":false,"is_disabled":false,"rental_uris":{"android":"levelo://app?vid=a068e9de-cdeb-4936-8a9b-bd068dca309c","ios":"levelo://app?vid=a068e9de-cdeb-4936-8a9b-bd068dca309c"},"vehicle_type_id":"4","last_reported":1774106193,"current_range_meters":6400,"station_id":"st_d6sm7csbq4hs73f8fpjg","pricing_plan_id":"cebpf4jnsgd1na2vs0mg"},{"bike_id":"cd20fdd3-8b99-4e14-bd4b-586d960abb1e","system_id":"levelo_inurba_marseille","lat":43.24359,"lon":5.37033,"is_reserved":false,"is_disabled":false,"rental_uris":{"android":"levelo://app?vid=cd20fdd3-8b99-4e14-bd4b-586d960abb1e","ios":"levelo://app?vid=cd20fdd3-8b99-4e14-bd4b-586d960abb1e"},"vehicle_type_id":"4","last_reported":1774106193,"current_range_meters":6400,"station_id":"ce4bhhh2rcd13ifvqfk0","pricing_plan_id":"cebpf4jnsgd1na2vs0mg"},{"bike_id":"16fe25c4-6472-47d6-882b-5ff94101fa7d","system_id":"levelo_inurba_marseille","lat":43.21219,"lon":5.35022,"is_reserved":false,"is_disabled":false,"rental_uris":{"android":"levelo://app?vid=16fe25c4-6472-47d6-882b-5ff94101fa7d","ios":"levelo://app?vid=16fe25c4-6472-47d6-882b-5ff94101fa7d"},"vehicle_type_id":"4","last_reported":1774106193,"current_range_meters":6400,"station_id":"","pricing_plan_id":"cebpf4jnsgd1na2vs0mg"},{"bike_id":"a52ba6dc-1b15-4a85-8d00-b41ad0623a75","system_id":"levelo_inurba_marseille","lat":43.32354,"lon":5.36753,"is_reserved":false,"is_disabled":false,"rental_uris":{"android":"levelo://app?vid=a52ba6dc-1b15-4a85-8d00-b41ad0623a75","ios":"levelo://app?vid=a52ba6dc-1b15-4a85-8d00-b41ad0623a75"},"vehicle_type_id":"4","last_reported":1774106193,"current_range_meters":6400,"station_id":"ce4bhsh2rcd13ifvqi2g","pricing_plan_id":"cebpf4jnsgd1na2vs0mg"},{"bike_id":"5c66a0b6-e896-45f6-90d8-c33355dc20e2","system_id":"levelo_inurba_marseille","lat":43.29014,"lon":5.38129,"is_reserved":false,"is_disabled":false,"rental_uris":{"android":"levelo://app?vid=5c66a0b6-e896-45f6-90d8-c33355dc20e2","ios":"levelo://app?vid=5c66a0b6-e896-45f6-90d8-c33355dc20e2"},"vehicle_type_id":"4","last_reported":1774106193,"current_range_meters":6400,"station_id":"ce4bh4p2rcd13ifvqe1g","pricing_plan_id":"cebpf4jnsgd1na2vs0mg"},{"bike_id":"acc2e4d3-be9e-4935-af6b-6e743dd35d5c","system_id":"levelo_inurba_marseille","lat":43.309522,"lon":5.390274,"is_reserved":false,"is_disabled":false,"rental_uris":{"android":"levelo://app?vid=acc2e4d3-be9e-4935-af6b-6e743dd35d5c","ios":"levelo://app?vid=acc2e4d3-be9e-4935-af6b-6e743dd35d5c"},"vehicle_type_id":"4","last_reported":1774106193,"current_range_meters":6400,"station_id":"ce4bgup2rcd13ifvqco0","pricing_plan_id":"cebpf4jnsgd1na2vs0mg"},{"bike_id":"0f4200e3-694a-4e51-9e9d-aed0b729a266","system_id":"levelo_inurba_marseille","lat":43.28263,"lon":5.35077,"is_reserved":false,"is_disabled":false,"rental_uris":{"android":"levelo://app?vid=0f4200e3-694a-4e51-9e9d-aed0b729a266","ios":"levelo://app?vid=0f4200e3-694a-4e51-9e9d-aed0b729a266"},"vehicle_type_id":"4","last_reported":1774106193,"current_range_meters":6400,"station_id":"ce4bhbp2rcd13ifvqerg","pricing_plan_id":"cebpf4jnsgd1na2vs0mg"},{"bike_id":"b4e85a98-a314-4eba-80c0-1d83dff7c2ed","system_id":"levelo_inurba_marseille","lat":43.2827,"lon":5.35055,"is_reserved":false,"is_disabled":false,"rental_uris":{"android":"levelo://app?vid=b4e85a98-a314-4eba-80c0-1d83dff7c2ed","ios":"levelo://app?vid=b4e85a98-a314-4eba-80c0-1d83dff7c2ed"},"vehicle_type_id":"4","last_reported":1774106193,"current_range_meters":6400,"station_id":"ce4bhbp2rcd13ifvqerg","pricing_plan_id":"cebpf4jnsgd1na2vs0mg"},{"bike_id":"e6b21bdd-9f67-40ed-a208-4615a7ae2d14","system_id":"levelo_inurba_marseille","lat":43.27058,"lon":5.4026,"is_reserved":false,"is_disabled":false,"rental_uris":{"android":"levelo://app?vid=e6b21bdd-9f67-40ed-a208-4615a7ae2d14","ios":"levelo://app?vid=e6b21bdd-9f67-40ed-a208-4615a7ae2d14"},"vehicle_type_id":"4","last_reported":1774106193,"current_range_meters":6400,"station_id":"ce4bhk92rcd13ifvqgc0","pricing_plan_id":"cebpf4jnsgd1na2vs0mg"},{"bike_id":"ec531884-8bfa-420b-bd77-1512f322e6f0","system_id":"levelo_inurba_marseille","lat":43.29896,"lon":5.43671,"is_reserved":false,"is_disabled":false,"rental_uris":{"android":"levelo://app?vid=ec531884-8bfa-420b-bd77-1512f322e6f0","ios":"levelo://app?vid=ec531884-8bfa-420b-bd77-1512f322e6f0"},"vehicle_type_id":"4","last_reported":1774106193,"current_range_meters":6400,"station_id":"ce4bhpp2rcd13ifvqhfg","pricing_plan_id":"cebpf4jnsgd1na2vs0mg"},{"bike_id":"3f77e7aa-5fe1-4fdf-b8a9-5a15dc0fbb4d","system_id":"levelo_inurba_marseille","lat":43.2655,"lon":5.3729,"is_reserved":false,"is_disabled":false,"rental_uris":{"android":"levelo://app?vid=3f77e7aa-5fe1-4fdf-b8a9-5a15dc0fbb4d","ios":"levelo://app?vid=3f77e7aa-5fe1-4fdf-b8a9-5a15dc0fbb4d"},"vehicle_type_id":"4","last_reported":1774106193,"current_range_meters":6400,"station_id":"ce4bhg12rcd13ifvqf70","pricing_plan_id":"cebpf4jnsgd1na2vs0mg"},{"bike_id":"9a146979-a128-43d0-8494-52f2c97e2835","system_id":"levelo_inurba_marseille","lat":43.28406,"lon":5.37518,"is_reserved":false,"is_disabled":false,"rental_uris":{"android":"levelo://app?vid=9a146979-a128-43d0-8494-52f2c97e2835","ios":"levelo://app?vid=9a146979-a128-43d0-8494-52f2c97e2835"},"vehicle_type_id":"4","last_reported":1774106193,"current_range_meters":6400,"station_id":"ce4bh412rcd13ifvqds0","pricing_plan_id":"cebpf4jnsgd1na2vs0mg"},{"bike_id":"ac942cfe-445d-4fd5-8917-71f889a67188","system_id":"levelo_inurba_marseille","lat":43.28264,"lon":5.35078,"is_reserved":false,"is_disabled":false,"rental_uris":{"android":"levelo://app?vid=ac942cfe-445d-4fd5-8917-71f889a67188","ios":"levelo://app?vid=ac942cfe-445d-4fd5-8917-71f889a67188"},"vehicle_type_id":"4","last_reported":1774106193,"current_range_meters":6400,"station_id":"","pricing_plan_id":"cebpf4jnsgd1na2vs0mg"},{"bike_id":"92da367d-78a2-4ccb-9512-86d6c537cbde","system_id":"levelo_inurba_marseille","lat":43.26547,"lon":5.37287,"is_reserved":false,"is_disabled":false,"rental_uris":{"android":"levelo://app?vid=92da367d-78a2-4ccb-9512-86d6c537cbde","ios":"levelo://app?vid=92da367d-78a2-4ccb-9512-86d6c537cbde"},"vehicle_type_id":"4","last_reported":1774106193,"current_range_meters":6400,"station_id":"ce4bhg12rcd13ifvqf70","pricing_plan_id":"cebpf4jnsgd1na2vs0mg"},{"bike_id":"b555a9ad-d5c9-4425-96d1-64808f7a16b2","system_id":"levelo_inurba_marseille","lat":43.27372,"lon":5.36261,"is_reserved":false,"is_disabled":false,"rental_uris":{"android":"levelo://app?vid=b555a9ad-d5c9-4425-96d1-64808f7a16b2","ios":"levelo://app?vid=b555a9ad-d5c9-4425-96d1-64808f7a16b2"},"vehicle_type_id":"4","last_reported":1774106193,"current_range_meters":6400,"station_id":"ce4bhbh2rcd13ifvqeo0","pricing_plan_id":"cebpf4jnsgd1na2vs0mg"},{"bike_id":"db972dcd-8db0-492d-95bb-8938cb41c499","system_id":"levelo_inurba_marseille","lat":43.299648,"lon":5.384994,"is_reserved":false,"is_disabled":false,"rental_uris":{"android":"levelo://app?vid=db972dcd-8db0-492d-95bb-8938cb41c499","ios":"levelo://app?vid=db972dcd-8db0-492d-95bb-8938cb41c499"},"vehicle_type_id":"4","last_reported":1774106193,"current_range_meters":6400,"station_id":"ce4bgj92rcd13ifvqbd0","pricing_plan_id":"cebpf4jnsgd1na2vs0mg"},{"bike_id":"83509c08-5abf-41f3-a6f8-ffd8d279bb66","system_id":"levelo_inurba_marseille","lat":43.21745,"lon":5.34606,"is_reserved":false,"is_disabled":false,"rental_uris":{"android":"levelo://app?vid=83509c08-5abf-41f3-a6f8-ffd8d279bb66","ios":"levelo://app?vid=83509c08-5abf-41f3-a6f8-ffd8d279bb66"},"vehicle_type_id":"4","last_reported":1774106193,"current_range_meters":6800,"station_id":"st_cvj6r9ubvosntc0bgbag","pricing_plan_id":"cebpf4jnsgd1na2vs0mg"},{"bike_id":"71389fc3-a4c3-46c5-a0f9-4330fcbb165b","system_id":"levelo_inurba_marseille","lat":43.27967,"lon":5.41042,"is_reserved":false,"is_disabled":true,"rental_uris":{"android":"levelo://app?vid=71389fc3-a4c3-46c5-a0f9-4330fcbb165b","ios":"levelo://app?vid=71389fc3-a4c3-46c5-a0f9-4330fcbb165b"},"vehicle_type_id":"4","last_reported":1774106193,"current_range_meters":6800,"station_id":"ce4bhnp2rcd13ifvqh0g","pricing_plan_id":"cebpf4jnsgd1na2vs0mg"},{"bike_id":"5053a012-d646-439d-b591-468fdeaa8c67","system_id":"levelo_inurba_marseille","lat":43.25335,"lon":5.42177,"is_reserved":false,"is_disabled":false,"rental_uris":{"android":"levelo://app?vid=5053a012-d646-439d-b591-468fdeaa8c67","ios":"levelo://app?vid=5053a012-d646-439d-b591-468fdeaa8c67"},"vehicle_type_id":"4","last_reported":1774106193,"current_range_meters":6800,"station_id":"st_d2m65c5bi1j21697t3ng","pricing_plan_id":"cebpf4jnsgd1na2vs0mg"},{"bike_id":"afab17fe-5945-4eab-9129-fe150d6e725c","system_id":"levelo_inurba_marseille","lat":43.3109,"lon":5.37153,"is_reserved":false,"is_disabled":false,"rental_uris":{"android":"levelo://app?vid=afab17fe-5945-4eab-9129-fe150d6e725c","ios":"levelo://app?vid=afab17fe-5945-4eab-9129-fe150d6e725c"},"vehicle_type_id":"4","last_reported":1774106193,"current_range_meters":6800,"station_id":"st_d4kl2rp97mjs73e7tdfg","pricing_plan_id":"cebpf4jnsgd1na2vs0mg"},{"bike_id":"aca02e18-5940-4457-bade-a83a3729d2e4","system_id":"levelo_inurba_marseille","lat":43.29489,"lon":5.43312,"is_reserved":false,"is_disabled":false,"rental_uris":{"android":"levelo://app?vid=aca02e18-5940-4457-bade-a83a3729d2e4","ios":"levelo://app?vid=aca02e18-5940-4457-bade-a83a3729d2e4"},"vehicle_type_id":"4","last_reported":1774106193,"current_range_meters":6800,"station_id":"st_d3j5ugp08ojc73fj9d10","pricing_plan_id":"cebpf4jnsgd1na2vs0mg"},{"bike_id":"078b37af-b567-42cb-94a1-3e8423ff1604","system_id":"levelo_inurba_marseille","lat":43.28491,"lon":5.38582,"is_reserved":false,"is_disabled":false,"rental_uris":{"android":"levelo://app?vid=078b37af-b567-42cb-94a1-3e8423ff1604","ios":"levelo://app?vid=078b37af-b567-42cb-94a1-3e8423ff1604"},"vehicle_type_id":"4","last_reported":1774106193,"current_range_meters":6800,"station_id":"ce4bh8p2rcd13ifvqeb0","pricing_plan_id":"cebpf4jnsgd1na2vs0mg"},{"bike_id":"3e451d00-5fec-4d87-a09b-878c5d05c3dc","system_id":"levelo_inurba_marseille","lat":43.24801,"lon":5.3745,"is_reserved":false,"is_disabled":false,"rental_uris":{"android":"levelo://app?vid=3e451d00-5fec-4d87-a09b-878c5d05c3dc","ios":"levelo://app?vid=3e451d00-5fec-4d87-a09b-878c5d05c3dc"},"vehicle_type_id":"4","last_reported":1774106193,"current_range_meters":6800,"station_id":"ce4bhgh2rcd13ifvqfb0","pricing_plan_id":"cebpf4jnsgd1na2vs0mg"},{"bike_id":"3727d6e3-4577-49ea-959e-93a5e09450a3","system_id":"levelo_inurba_marseille","lat":43.31437,"lon":5.40048,"is_reserved":false,"is_disabled":false,"rental_uris":{"android":"levelo://app?vid=3727d6e3-4577-49ea-959e-93a5e09450a3","ios":"levelo://app?vid=3727d6e3-4577-49ea-959e-93a5e09450a3"},"vehicle_type_id":"4","last_reported":1774106193,"current_range_meters":6800,"station_id":"","pricing_plan_id":"cebpf4jnsgd1na2vs0mg"},{"bike_id":"aa12603a-2453-40c8-828d-a8acaa892596","system_id":"levelo_inurba_marseille","lat":43.21745,"lon":5.34604,"is_reserved":false,"is_disabled":false,"rental_uris":{"android":"levelo://app?vid=aa12603a-2453-40c8-828d-a8acaa892596","ios":"levelo://app?vid=aa12603a-2453-40c8-828d-a8acaa892596"},"vehicle_type_id":"4","last_reported":1774106193,"current_range_meters":6800,"station_id":"","pricing_plan_id":"cebpf4jnsgd1na2vs0mg"},{"bike_id":"ed8502d2-5248-44b9-8493-d669e884c4f2","system_id":"levelo_inurba_marseille","lat":43.21192,"lon":5.35077,"is_reserved":false,"is_disabled":false,"rental_uris":{"android":"levelo://app?vid=ed8502d2-5248-44b9-8493-d669e884c4f2","ios":"levelo://app?vid=ed8502d2-5248-44b9-8493-d669e884c4f2"},"vehicle_type_id":"4","last_reported":1774106193,"current_range_meters":6800,"station_id":"st_cvj6sg6p6f1abm77japg","pricing_plan_id":"cebpf4jnsgd1na2vs0mg"},{"bike_id":"0e573d86-e217-4996-ba4e-53129a2ba3e8","system_id":"levelo_inurba_marseille","lat":43.31329,"lon":5.39692,"is_reserved":false,"is_disabled":false,"rental_uris":{"android":"levelo://app?vid=0e573d86-e217-4996-ba4e-53129a2ba3e8","ios":"levelo://app?vid=0e573d86-e217-4996-ba4e-53129a2ba3e8"},"vehicle_type_id":"4","last_reported":1774106193,"current_range_meters":6800,"station_id":"ce4bgvp2rcd13ifvqcu0","pricing_plan_id":"cebpf4jnsgd1na2vs0mg"},{"bike_id":"27e71688-1e6b-4229-997e-c63412446203","system_id":"levelo_inurba_marseille","lat":43.24147,"lon":5.39721,"is_reserved":false,"is_disabled":false,"rental_uris":{"android":"levelo://app?vid=27e71688-1e6b-4229-997e-c63412446203","ios":"levelo://app?vid=27e71688-1e6b-4229-997e-c63412446203"},"vehicle_type_id":"4","last_reported":1774106193,"current_range_meters":7200,"station_id":"ce4bhn12rcd13ifvqgpg","pricing_plan_id":"cebpf4jnsgd1na2vs0mg"},{"bike_id":"34afc9b4-5db6-4e8d-be8e-dc47f26831fb","system_id":"levelo_inurba_marseille","lat":43.23053,"lon":5.35491,"is_reserved":false,"is_disabled":false,"rental_uris":{"android":"levelo://app?vid=34afc9b4-5db6-4e8d-be8e-dc47f26831fb","ios":"levelo://app?vid=34afc9b4-5db6-4e8d-be8e-dc47f26831fb"},"vehicle_type_id":"4","last_reported":1774106193,"current_range_meters":7200,"station_id":"cpo3342slgdg3j2ifvpg","pricing_plan_id":"cebpf4jnsgd1na2vs0mg"},{"bike_id":"c1cca866-7973-4757-aae7-2df2d6711c2d","system_id":"levelo_inurba_marseille","lat":43.28849,"lon":5.35861,"is_reserved":false,"is_disabled":false,"rental_uris":{"android":"levelo://app?vid=c1cca866-7973-4757-aae7-2df2d6711c2d","ios":"levelo://app?vid=c1cca866-7973-4757-aae7-2df2d6711c2d"},"vehicle_type_id":"4","last_reported":1774106193,"current_range_meters":7200,"station_id":"ce4bhb12rcd13ifvqem0","pricing_plan_id":"cebpf4jnsgd1na2vs0mg"},{"bike_id":"92125df4-2637-4665-a0a8-a08a53b4e621","system_id":"levelo_inurba_marseille","lat":43.23194,"lon":5.35547,"is_reserved":false,"is_disabled":false,"rental_uris":{"android":"levelo://app?vid=92125df4-2637-4665-a0a8-a08a53b4e621","ios":"levelo://app?vid=92125df4-2637-4665-a0a8-a08a53b4e621"},"vehicle_type_id":"4","last_reported":1774106193,"current_range_meters":7200,"station_id":"ce4bhu92rcd13ifvqi70","pricing_plan_id":"cebpf4jnsgd1na2vs0mg"},{"bike_id":"08695061-fb0a-42f6-8aee-50cd5a43fa26","system_id":"levelo_inurba_marseille","lat":43.25119,"lon":5.40315,"is_reserved":false,"is_disabled":false,"rental_uris":{"android":"levelo://app?vid=08695061-fb0a-42f6-8aee-50cd5a43fa26","ios":"levelo://app?vid=08695061-fb0a-42f6-8aee-50cd5a43fa26"},"vehicle_type_id":"4","last_reported":1774106193,"current_range_meters":7200,"station_id":"ce4bhlh2rcd13ifvqgig","pricing_plan_id":"cebpf4jnsgd1na2vs0mg"},{"bike_id":"37fd8b91-bebb-483f-9ede-850904204da2","system_id":"levelo_inurba_marseille","lat":43.33428,"lon":5.35694,"is_reserved":false,"is_disabled":false,"rental_uris":{"android":"levelo://app?vid=37fd8b91-bebb-483f-9ede-850904204da2","ios":"levelo://app?vid=37fd8b91-bebb-483f-9ede-850904204da2"},"vehicle_type_id":"4","last_reported":1774106193,"current_range_meters":7200,"station_id":"","pricing_plan_id":"cebpf4jnsgd1na2vs0mg"},{"bike_id":"55ec694a-4d13-442c-981f-40b12a44db63","system_id":"levelo_inurba_marseille","lat":43.28161,"lon":5.42647,"is_reserved":false,"is_disabled":false,"rental_uris":{"android":"levelo://app?vid=55ec694a-4d13-442c-981f-40b12a44db63","ios":"levelo://app?vid=55ec694a-4d13-442c-981f-40b12a44db63"},"vehicle_type_id":"4","last_reported":1774106193,"current_range_meters":7200,"station_id":"ce4bhnh2rcd13ifvqgug","pricing_plan_id":"cebpf4jnsgd1na2vs0mg"},{"bike_id":"d9a2340f-4dc0-456b-89f0-454af4d93a65","system_id":"levelo_inurba_marseille","lat":43.28494,"lon":5.35135,"is_reserved":false,"is_disabled":false,"rental_uris":{"android":"levelo://app?vid=d9a2340f-4dc0-456b-89f0-454af4d93a65","ios":"levelo://app?vid=d9a2340f-4dc0-456b-89f0-454af4d93a65"},"vehicle_type_id":"4","last_reported":1774106193,"current_range_meters":7200,"station_id":"","pricing_plan_id":"cebpf4jnsgd1na2vs0mg"},{"bike_id":"43843b13-c827-4699-9ecc-4b5c88c9cfd1","system_id":"levelo_inurba_marseille","lat":43.21751,"lon":5.34597,"is_reserved":false,"is_disabled":false,"rental_uris":{"android":"levelo://app?vid=43843b13-c827-4699-9ecc-4b5c88c9cfd1","ios":"levelo://app?vid=43843b13-c827-4699-9ecc-4b5c88c9cfd1"},"vehicle_type_id":"4","last_reported":1774106193,"current_range_meters":7200,"station_id":"st_cvj6r9ubvosntc0bgbag","pricing_plan_id":"cebpf4jnsgd1na2vs0mg"},{"bike_id":"7725ef36-e13f-4cca-906d-50e917ee717d","system_id":"levelo_inurba_marseille","lat":43.26206,"lon":5.37449,"is_reserved":false,"is_disabled":false,"rental_uris":{"android":"levelo://app?vid=7725ef36-e13f-4cca-906d-50e917ee717d","ios":"levelo://app?vid=7725ef36-e13f-4cca-906d-50e917ee717d"},"vehicle_type_id":"4","last_reported":1774106193,"current_range_meters":7200,"station_id":"ce4bhgp2rcd13ifvqfc0","pricing_plan_id":"cebpf4jnsgd1na2vs0mg"},{"bike_id":"b20df322-ce9a-46b9-9679-f0cbb76e28ad","system_id":"levelo_inurba_marseille","lat":43.22559,"lon":5.41626,"is_reserved":false,"is_disabled":false,"rental_uris":{"android":"levelo://app?vid=b20df322-ce9a-46b9-9679-f0cbb76e28ad","ios":"levelo://app?vid=b20df322-ce9a-46b9-9679-f0cbb76e28ad"},"vehicle_type_id":"4","last_reported":1774106193,"current_range_meters":7200,"station_id":"st_d2o4gvlbi1j2169b742g","pricing_plan_id":"cebpf4jnsgd1na2vs0mg"},{"bike_id":"f14e41d1-4100-4357-8074-462f97d186ed","system_id":"levelo_inurba_marseille","lat":43.26945,"lon":5.40261,"is_reserved":false,"is_disabled":false,"rental_uris":{"android":"levelo://app?vid=f14e41d1-4100-4357-8074-462f97d186ed","ios":"levelo://app?vid=f14e41d1-4100-4357-8074-462f97d186ed"},"vehicle_type_id":"4","last_reported":1774106193,"current_range_meters":7200,"station_id":"cjm6bp8fraef2m0cb0m0","pricing_plan_id":"cebpf4jnsgd1na2vs0mg"},{"bike_id":"d7907def-0121-4c2e-a58c-583ed9b110cf","system_id":"levelo_inurba_marseille","lat":43.29222,"lon":5.36056,"is_reserved":false,"is_disabled":false,"rental_uris":{"android":"levelo://app?vid=d7907def-0121-4c2e-a58c-583ed9b110cf","ios":"levelo://app?vid=d7907def-0121-4c2e-a58c-583ed9b110cf"},"vehicle_type_id":"4","last_reported":1774106193,"current_range_meters":7200,"station_id":"ce4bhbh2rcd13ifvqeqg","pricing_plan_id":"cebpf4jnsgd1na2vs0mg"},{"bike_id":"2269e68d-f48b-428d-993e-bfd909030469","system_id":"levelo_inurba_marseille","lat":43.28464,"lon":5.38801,"is_reserved":false,"is_disabled":false,"rental_uris":{"android":"levelo://app?vid=2269e68d-f48b-428d-993e-bfd909030469","ios":"levelo://app?vid=2269e68d-f48b-428d-993e-bfd909030469"},"vehicle_type_id":"4","last_reported":1774106193,"current_range_meters":7200,"station_id":"","pricing_plan_id":"cebpf4jnsgd1na2vs0mg"},{"bike_id":"b87d7938-28e4-46e7-994e-fdebd5392225","system_id":"levelo_inurba_marseille","lat":43.32109,"lon":5.36759,"is_reserved":false,"is_disabled":false,"rental_uris":{"android":"levelo://app?vid=b87d7938-28e4-46e7-994e-fdebd5392225","ios":"levelo://app?vid=b87d7938-28e4-46e7-994e-fdebd5392225"},"vehicle_type_id":"4","last_reported":1774106193,"current_range_meters":7200,"station_id":"ce4bhrh2rcd13ifvqhug","pricing_plan_id":"cebpf4jnsgd1na2vs0mg"},{"bike_id":"7c78801d-d85e-40ce-91a5-64af12550d57","system_id":"levelo_inurba_marseille","lat":43.26208,"lon":5.37446,"is_reserved":false,"is_disabled":false,"rental_uris":{"android":"levelo://app?vid=7c78801d-d85e-40ce-91a5-64af12550d57","ios":"levelo://app?vid=7c78801d-d85e-40ce-91a5-64af12550d57"},"vehicle_type_id":"4","last_reported":1774106193,"current_range_meters":8000,"station_id":"ce4bhgp2rcd13ifvqfc0","pricing_plan_id":"cebpf4jnsgd1na2vs0mg"},{"bike_id":"536be14a-2174-4c58-8b30-3ce501a0400e","system_id":"levelo_inurba_marseille","lat":43.25826,"lon":5.39443,"is_reserved":false,"is_disabled":false,"rental_uris":{"android":"levelo://app?vid=536be14a-2174-4c58-8b30-3ce501a0400e","ios":"levelo://app?vid=536be14a-2174-4c58-8b30-3ce501a0400e"},"vehicle_type_id":"4","last_reported":1774106193,"current_range_meters":8000,"station_id":"ce4bhip2rcd13ifvqft0","pricing_plan_id":"cebpf4jnsgd1na2vs0mg"},{"bike_id":"b7db1a5a-bb07-4d11-94d5-7022b854807e","system_id":"levelo_inurba_marseille","lat":43.24381,"lon":5.37034,"is_reserved":false,"is_disabled":false,"rental_uris":{"android":"levelo://app?vid=b7db1a5a-bb07-4d11-94d5-7022b854807e","ios":"levelo://app?vid=b7db1a5a-bb07-4d11-94d5-7022b854807e"},"vehicle_type_id":"4","last_reported":1774106193,"current_range_meters":8000,"station_id":"ce4bhhh2rcd13ifvqfk0","pricing_plan_id":"cebpf4jnsgd1na2vs0mg"},{"bike_id":"36750a5a-e715-404b-ab4e-4dfa557014c3","system_id":"levelo_inurba_marseille","lat":43.24466,"lon":5.42554,"is_reserved":false,"is_disabled":false,"rental_uris":{"android":"levelo://app?vid=36750a5a-e715-404b-ab4e-4dfa557014c3","ios":"levelo://app?vid=36750a5a-e715-404b-ab4e-4dfa557014c3"},"vehicle_type_id":"4","last_reported":1774106193,"current_range_meters":8000,"station_id":"st_d4a3vfp97mjs738cd8kg","pricing_plan_id":"cebpf4jnsgd1na2vs0mg"},{"bike_id":"2c8d5c30-577d-4925-9767-a3e8a27bf5b4","system_id":"levelo_inurba_marseille","lat":43.24075,"lon":5.38931,"is_reserved":false,"is_disabled":false,"rental_uris":{"android":"levelo://app?vid=2c8d5c30-577d-4925-9767-a3e8a27bf5b4","ios":"levelo://app?vid=2c8d5c30-577d-4925-9767-a3e8a27bf5b4"},"vehicle_type_id":"4","last_reported":1774106193,"current_range_meters":8000,"station_id":"","pricing_plan_id":"cebpf4jnsgd1na2vs0mg"},{"bike_id":"3951c833-764d-49ee-a217-c70904818b12","system_id":"levelo_inurba_marseille","lat":43.21188,"lon":5.35064,"is_reserved":false,"is_disabled":false,"rental_uris":{"android":"levelo://app?vid=3951c833-764d-49ee-a217-c70904818b12","ios":"levelo://app?vid=3951c833-764d-49ee-a217-c70904818b12"},"vehicle_type_id":"4","last_reported":1774106193,"current_range_meters":8000,"station_id":"st_cvj6sg6p6f1abm77japg","pricing_plan_id":"cebpf4jnsgd1na2vs0mg"},{"bike_id":"4a501649-1ae3-4f13-916a-d9d0102c5c57","system_id":"levelo_inurba_marseille","lat":43.22929,"lon":5.35375,"is_reserved":false,"is_disabled":false,"rental_uris":{"android":"levelo://app?vid=4a501649-1ae3-4f13-916a-d9d0102c5c57","ios":"levelo://app?vid=4a501649-1ae3-4f13-916a-d9d0102c5c57"},"vehicle_type_id":"4","last_reported":1774106193,"current_range_meters":8000,"station_id":"cpo3532slgdg3j2ikp40","pricing_plan_id":"cebpf4jnsgd1na2vs0mg"},{"bike_id":"df5ad533-8354-43dd-b4db-d4118becde63","system_id":"levelo_inurba_marseille","lat":43.28518,"lon":5.48295,"is_reserved":false,"is_disabled":false,"rental_uris":{"android":"levelo://app?vid=df5ad533-8354-43dd-b4db-d4118becde63","ios":"levelo://app?vid=df5ad533-8354-43dd-b4db-d4118becde63"},"vehicle_type_id":"4","last_reported":1774106193,"current_range_meters":8000,"station_id":"","pricing_plan_id":"cebpf4jnsgd1na2vs0mg"},{"bike_id":"37752f22-4e24-4242-a38c-e44293abad6b","system_id":"levelo_inurba_marseille","lat":43.27964,"lon":5.38721,"is_reserved":false,"is_disabled":true,"rental_uris":{"android":"levelo://app?vid=37752f22-4e24-4242-a38c-e44293abad6b","ios":"levelo://app?vid=37752f22-4e24-4242-a38c-e44293abad6b"},"vehicle_type_id":"4","last_reported":1774106193,"current_range_meters":8000,"station_id":"ce4bhg12rcd13ifvqf80","pricing_plan_id":"cebpf4jnsgd1na2vs0mg"},{"bike_id":"74dca33f-135b-4fc0-9ef5-a472726d5001","system_id":"levelo_inurba_marseille","lat":43.28276,"lon":5.35063,"is_reserved":false,"is_disabled":false,"rental_uris":{"android":"levelo://app?vid=74dca33f-135b-4fc0-9ef5-a472726d5001","ios":"levelo://app?vid=74dca33f-135b-4fc0-9ef5-a472726d5001"},"vehicle_type_id":"4","last_reported":1774106193,"current_range_meters":8000,"station_id":"ce4bhbp2rcd13ifvqerg","pricing_plan_id":"cebpf4jnsgd1na2vs0mg"},{"bike_id":"95fd7b5e-4624-483b-b506-5775f37aea99","system_id":"levelo_inurba_marseille","lat":43.21192,"lon":5.35069,"is_reserved":false,"is_disabled":false,"rental_uris":{"android":"levelo://app?vid=95fd7b5e-4624-483b-b506-5775f37aea99","ios":"levelo://app?vid=95fd7b5e-4624-483b-b506-5775f37aea99"},"vehicle_type_id":"4","last_reported":1774106193,"current_range_meters":8000,"station_id":"st_cvj6sg6p6f1abm77japg","pricing_plan_id":"cebpf4jnsgd1na2vs0mg"},{"bike_id":"23931f5a-5700-440d-8585-513d25cd8ea7","system_id":"levelo_inurba_marseille","lat":43.23966,"lon":5.36635,"is_reserved":false,"is_disabled":false,"rental_uris":{"android":"levelo://app?vid=23931f5a-5700-440d-8585-513d25cd8ea7","ios":"levelo://app?vid=23931f5a-5700-440d-8585-513d25cd8ea7"},"vehicle_type_id":"4","last_reported":1774106193,"current_range_meters":8000,"station_id":"ce4bhi12rcd13ifvqfp0","pricing_plan_id":"cebpf4jnsgd1na2vs0mg"},{"bike_id":"15fb4bb8-4c0f-4ee3-a727-89e0f28d0a52","system_id":"levelo_inurba_marseille","lat":43.23774,"lon":5.36634,"is_reserved":false,"is_disabled":false,"rental_uris":{"android":"levelo://app?vid=15fb4bb8-4c0f-4ee3-a727-89e0f28d0a52","ios":"levelo://app?vid=15fb4bb8-4c0f-4ee3-a727-89e0f28d0a52"},"vehicle_type_id":"4","last_reported":1774106193,"current_range_meters":8000,"station_id":"st_d3nk18o9ro0c73en2l3g","pricing_plan_id":"cebpf4jnsgd1na2vs0mg"},{"bike_id":"5a792fcc-c36a-4766-95e3-e09ea877070f","system_id":"levelo_inurba_marseille","lat":43.25581,"lon":5.3823,"is_reserved":false,"is_disabled":false,"rental_uris":{"android":"levelo://app?vid=5a792fcc-c36a-4766-95e3-e09ea877070f","ios":"levelo://app?vid=5a792fcc-c36a-4766-95e3-e09ea877070f"},"vehicle_type_id":"4","last_reported":1774106193,"current_range_meters":8000,"station_id":"ce4bhih2rcd13ifvqfs0","pricing_plan_id":"cebpf4jnsgd1na2vs0mg"},{"bike_id":"5206b1c0-ea28-4288-9fb7-15de647e09fa","system_id":"levelo_inurba_marseille","lat":43.27383,"lon":5.36252,"is_reserved":false,"is_disabled":true,"rental_uris":{"android":"levelo://app?vid=5206b1c0-ea28-4288-9fb7-15de647e09fa","ios":"levelo://app?vid=5206b1c0-ea28-4288-9fb7-15de647e09fa"},"vehicle_type_id":"4","last_reported":1774106193,"current_range_meters":8000,"station_id":"","pricing_plan_id":"cebpf4jnsgd1na2vs0mg"},{"bike_id":"e19c2675-28f0-4c2b-be9d-1cbf0f068710","system_id":"levelo_inurba_marseille","lat":43.24165,"lon":5.36399,"is_reserved":false,"is_disabled":false,"rental_uris":{"android":"levelo://app?vid=e19c2675-28f0-4c2b-be9d-1cbf0f068710","ios":"levelo://app?vid=e19c2675-28f0-4c2b-be9d-1cbf0f068710"},"vehicle_type_id":"4","last_reported":1774106193,"current_range_meters":8000,"station_id":"cpo36qri1sfpv3e86is0","pricing_plan_id":"cebpf4jnsgd1na2vs0mg"},{"bike_id":"fa79e307-d49a-48fe-844a-ed9c4610867e","system_id":"levelo_inurba_marseille","lat":43.24178,"lon":5.39728,"is_reserved":false,"is_disabled":false,"rental_uris":{"android":"levelo://app?vid=fa79e307-d49a-48fe-844a-ed9c4610867e","ios":"levelo://app?vid=fa79e307-d49a-48fe-844a-ed9c4610867e"},"vehicle_type_id":"4","last_reported":1774106193,"current_range_meters":8000,"station_id":"ce4bhn12rcd13ifvqgpg","pricing_plan_id":"cebpf4jnsgd1na2vs0mg"},{"bike_id":"bb64248e-0e5d-4ee1-9d8f-d48a0dd77d66","system_id":"levelo_inurba_marseille","lat":43.21624,"lon":5.3448,"is_reserved":false,"is_disabled":false,"rental_uris":{"android":"levelo://app?vid=bb64248e-0e5d-4ee1-9d8f-d48a0dd77d66","ios":"levelo://app?vid=bb64248e-0e5d-4ee1-9d8f-d48a0dd77d66"},"vehicle_type_id":"4","last_reported":1774106193,"current_range_meters":8000,"station_id":"","pricing_plan_id":"cebpf4jnsgd1na2vs0mg"},{"bike_id":"1531501f-b6ea-4a9e-8341-7e4be7f0687c","system_id":"levelo_inurba_marseille","lat":43.29944,"lon":5.38903,"is_reserved":false,"is_disabled":false,"rental_uris":{"android":"levelo://app?vid=1531501f-b6ea-4a9e-8341-7e4be7f0687c","ios":"levelo://app?vid=1531501f-b6ea-4a9e-8341-7e4be7f0687c"},"vehicle_type_id":"4","last_reported":1774106193,"current_range_meters":8000,"station_id":"","pricing_plan_id":"cebpf4jnsgd1na2vs0mg"},{"bike_id":"703efbe1-feef-417d-a9e3-0fca1a7eab74","system_id":"levelo_inurba_marseille","lat":43.34935,"lon":5.37931,"is_reserved":false,"is_disabled":false,"rental_uris":{"android":"levelo://app?vid=703efbe1-feef-417d-a9e3-0fca1a7eab74","ios":"levelo://app?vid=703efbe1-feef-417d-a9e3-0fca1a7eab74"},"vehicle_type_id":"4","last_reported":1774106193,"current_range_meters":8000,"station_id":"","pricing_plan_id":"cebpf4jnsgd1na2vs0mg"},{"bike_id":"dbd8a24c-bbb9-4988-ac49-15adfaa59b89","system_id":"levelo_inurba_marseille","lat":43.24658,"lon":5.38152,"is_reserved":false,"is_disabled":false,"rental_uris":{"android":"levelo://app?vid=dbd8a24c-bbb9-4988-ac49-15adfaa59b89","ios":"levelo://app?vid=dbd8a24c-bbb9-4988-ac49-15adfaa59b89"},"vehicle_type_id":"4","last_reported":1774106193,"current_range_meters":8000,"station_id":"ce4bhih2rcd13ifvqfr0","pricing_plan_id":"cebpf4jnsgd1na2vs0mg"},{"bike_id":"d090a803-95a9-45d8-9d0c-efd95354e4ef","system_id":"levelo_inurba_marseille","lat":43.28621,"lon":5.35087,"is_reserved":false,"is_disabled":false,"rental_uris":{"android":"levelo://app?vid=d090a803-95a9-45d8-9d0c-efd95354e4ef","ios":"levelo://app?vid=d090a803-95a9-45d8-9d0c-efd95354e4ef"},"vehicle_type_id":"4","last_reported":1774106193,"current_range_meters":8000,"station_id":"ce4bhch2rcd13ifvqeug","pricing_plan_id":"cebpf4jnsgd1na2vs0mg"},{"bike_id":"89d5b053-9e40-4e31-a28a-65d06dc45ab9","system_id":"levelo_inurba_marseille","lat":43.28626,"lon":5.35064,"is_reserved":false,"is_disabled":false,"rental_uris":{"android":"levelo://app?vid=89d5b053-9e40-4e31-a28a-65d06dc45ab9","ios":"levelo://app?vid=89d5b053-9e40-4e31-a28a-65d06dc45ab9"},"vehicle_type_id":"4","last_reported":1774106193,"current_range_meters":8400,"station_id":"ce4bhch2rcd13ifvqeug","pricing_plan_id":"cebpf4jnsgd1na2vs0mg"},{"bike_id":"fb2fe282-db9f-4047-a00d-9fa8876597bc","system_id":"levelo_inurba_marseille","lat":43.28638,"lon":5.36392,"is_reserved":false,"is_disabled":false,"rental_uris":{"android":"levelo://app?vid=fb2fe282-db9f-4047-a00d-9fa8876597bc","ios":"levelo://app?vid=fb2fe282-db9f-4047-a00d-9fa8876597bc"},"vehicle_type_id":"4","last_reported":1774106193,"current_range_meters":8400,"station_id":"","pricing_plan_id":"cebpf4jnsgd1na2vs0mg"},{"bike_id":"c1652945-4258-408b-839d-093a5dcdf66c","system_id":"levelo_inurba_marseille","lat":43.31661,"lon":5.36893,"is_reserved":false,"is_disabled":false,"rental_uris":{"android":"levelo://app?vid=c1652945-4258-408b-839d-093a5dcdf66c","ios":"levelo://app?vid=c1652945-4258-408b-839d-093a5dcdf66c"},"vehicle_type_id":"4","last_reported":1774106193,"current_range_meters":8400,"station_id":"","pricing_plan_id":"cebpf4jnsgd1na2vs0mg"},{"bike_id":"8a4c39b6-1604-4e3b-b597-213ce1e993fd","system_id":"levelo_inurba_marseille","lat":43.21188,"lon":5.35072,"is_reserved":false,"is_disabled":false,"rental_uris":{"android":"levelo://app?vid=8a4c39b6-1604-4e3b-b597-213ce1e993fd","ios":"levelo://app?vid=8a4c39b6-1604-4e3b-b597-213ce1e993fd"},"vehicle_type_id":"4","last_reported":1774106193,"current_range_meters":8400,"station_id":"st_cvj6sg6p6f1abm77japg","pricing_plan_id":"cebpf4jnsgd1na2vs0mg"},{"bike_id":"cdbd9807-1848-42b6-b041-930d1c6e3b8d","system_id":"levelo_inurba_marseille","lat":43.28678,"lon":5.36359,"is_reserved":false,"is_disabled":false,"rental_uris":{"android":"levelo://app?vid=cdbd9807-1848-42b6-b041-930d1c6e3b8d","ios":"levelo://app?vid=cdbd9807-1848-42b6-b041-930d1c6e3b8d"},"vehicle_type_id":"4","last_reported":1774106193,"current_range_meters":8400,"station_id":"ce4bhah2rcd13ifvqej0","pricing_plan_id":"cebpf4jnsgd1na2vs0mg"},{"bike_id":"9bb241ec-cf59-4082-89c3-5afc5b022aea","system_id":"levelo_inurba_marseille","lat":43.30891,"lon":5.39643,"is_reserved":false,"is_disabled":false,"rental_uris":{"android":"levelo://app?vid=9bb241ec-cf59-4082-89c3-5afc5b022aea","ios":"levelo://app?vid=9bb241ec-cf59-4082-89c3-5afc5b022aea"},"vehicle_type_id":"4","last_reported":1774106193,"current_range_meters":8400,"station_id":"ce4bh012rcd13ifvqcv0","pricing_plan_id":"cebpf4jnsgd1na2vs0mg"},{"bike_id":"7a6c934d-f179-4d5b-a10e-a720152ee8fd","system_id":"levelo_inurba_marseille","lat":43.25865,"lon":5.39896,"is_reserved":false,"is_disabled":false,"rental_uris":{"android":"levelo://app?vid=7a6c934d-f179-4d5b-a10e-a720152ee8fd","ios":"levelo://app?vid=7a6c934d-f179-4d5b-a10e-a720152ee8fd"},"vehicle_type_id":"4","last_reported":1774106193,"current_range_meters":8400,"station_id":"ce4bhl92rcd13ifvqghg","pricing_plan_id":"cebpf4jnsgd1na2vs0mg"},{"bike_id":"881552ad-57ca-4484-9a05-f159c58f50d9","system_id":"levelo_inurba_marseille","lat":43.31702,"lon":5.38678,"is_reserved":false,"is_disabled":false,"rental_uris":{"android":"levelo://app?vid=881552ad-57ca-4484-9a05-f159c58f50d9","ios":"levelo://app?vid=881552ad-57ca-4484-9a05-f159c58f50d9"},"vehicle_type_id":"4","last_reported":1774106193,"current_range_meters":8400,"station_id":"","pricing_plan_id":"cebpf4jnsgd1na2vs0mg"},{"bike_id":"1a71c1aa-5504-4069-88ae-43c4bfce63a1","system_id":"levelo_inurba_marseille","lat":43.25334,"lon":5.42166,"is_reserved":false,"is_disabled":false,"rental_uris":{"android":"levelo://app?vid=1a71c1aa-5504-4069-88ae-43c4bfce63a1","ios":"levelo://app?vid=1a71c1aa-5504-4069-88ae-43c4bfce63a1"},"vehicle_type_id":"4","last_reported":1774106193,"current_range_meters":8400,"station_id":"st_d2m65c5bi1j21697t3ng","pricing_plan_id":"cebpf4jnsgd1na2vs0mg"},{"bike_id":"5690451d-7c53-4b25-9218-07c7a52af0a5","system_id":"levelo_inurba_marseille","lat":43.27369,"lon":5.36253,"is_reserved":false,"is_disabled":false,"rental_uris":{"android":"levelo://app?vid=5690451d-7c53-4b25-9218-07c7a52af0a5","ios":"levelo://app?vid=5690451d-7c53-4b25-9218-07c7a52af0a5"},"vehicle_type_id":"4","last_reported":1774106193,"current_range_meters":8400,"station_id":"ce4bhbh2rcd13ifvqeo0","pricing_plan_id":"cebpf4jnsgd1na2vs0mg"},{"bike_id":"5369d941-756a-4a39-ae59-10b7c47d2be3","system_id":"levelo_inurba_marseille","lat":43.31042,"lon":5.37158,"is_reserved":false,"is_disabled":false,"rental_uris":{"android":"levelo://app?vid=5369d941-756a-4a39-ae59-10b7c47d2be3","ios":"levelo://app?vid=5369d941-756a-4a39-ae59-10b7c47d2be3"},"vehicle_type_id":"4","last_reported":1774106193,"current_range_meters":8400,"station_id":"st_d4kl2rp97mjs73e7tdfg","pricing_plan_id":"cebpf4jnsgd1na2vs0mg"},{"bike_id":"65258466-db56-4c9b-bb1e-482f62caad9f","system_id":"levelo_inurba_marseille","lat":43.22939,"lon":5.35373,"is_reserved":false,"is_disabled":false,"rental_uris":{"android":"levelo://app?vid=65258466-db56-4c9b-bb1e-482f62caad9f","ios":"levelo://app?vid=65258466-db56-4c9b-bb1e-482f62caad9f"},"vehicle_type_id":"4","last_reported":1774106193,"current_range_meters":8400,"station_id":"cpo3532slgdg3j2ikp40","pricing_plan_id":"cebpf4jnsgd1na2vs0mg"},{"bike_id":"67bec18c-f66e-4f66-a2dd-1c846c767543","system_id":"levelo_inurba_marseille","lat":43.27616,"lon":5.36113,"is_reserved":false,"is_disabled":false,"rental_uris":{"android":"levelo://app?vid=67bec18c-f66e-4f66-a2dd-1c846c767543","ios":"levelo://app?vid=67bec18c-f66e-4f66-a2dd-1c846c767543"},"vehicle_type_id":"4","last_reported":1774106193,"current_range_meters":8400,"station_id":"ce4bgj92rcd13ifvqbe0","pricing_plan_id":"cebpf4jnsgd1na2vs0mg"},{"bike_id":"c3f5b2fa-aa70-4c93-9207-84adc3ef048a","system_id":"levelo_inurba_marseille","lat":43.23183,"lon":5.35572,"is_reserved":false,"is_disabled":false,"rental_uris":{"android":"levelo://app?vid=c3f5b2fa-aa70-4c93-9207-84adc3ef048a","ios":"levelo://app?vid=c3f5b2fa-aa70-4c93-9207-84adc3ef048a"},"vehicle_type_id":"4","last_reported":1774106193,"current_range_meters":8400,"station_id":"ce4bhu92rcd13ifvqi70","pricing_plan_id":"cebpf4jnsgd1na2vs0mg"},{"bike_id":"9348671c-fdda-4c73-b8ea-ef7054b15bad","system_id":"levelo_inurba_marseille","lat":43.29628,"lon":5.40596,"is_reserved":false,"is_disabled":false,"rental_uris":{"android":"levelo://app?vid=9348671c-fdda-4c73-b8ea-ef7054b15bad","ios":"levelo://app?vid=9348671c-fdda-4c73-b8ea-ef7054b15bad"},"vehicle_type_id":"4","last_reported":1774106193,"current_range_meters":8400,"station_id":"ce4bh0h2rcd13ifvqd60","pricing_plan_id":"cebpf4jnsgd1na2vs0mg"},{"bike_id":"718f9d6d-764e-4e13-bc65-ad368fbc290e","system_id":"levelo_inurba_marseille","lat":43.2446,"lon":5.42542,"is_reserved":false,"is_disabled":false,"rental_uris":{"android":"levelo://app?vid=718f9d6d-764e-4e13-bc65-ad368fbc290e","ios":"levelo://app?vid=718f9d6d-764e-4e13-bc65-ad368fbc290e"},"vehicle_type_id":"4","last_reported":1774106193,"current_range_meters":8800,"station_id":"","pricing_plan_id":"cebpf4jnsgd1na2vs0mg"},{"bike_id":"62ccf4a8-0426-42c8-92c7-60b92e2221c9","system_id":"levelo_inurba_marseille","lat":43.28499,"lon":5.48403,"is_reserved":false,"is_disabled":false,"rental_uris":{"android":"levelo://app?vid=62ccf4a8-0426-42c8-92c7-60b92e2221c9","ios":"levelo://app?vid=62ccf4a8-0426-42c8-92c7-60b92e2221c9"},"vehicle_type_id":"4","last_reported":1774106193,"current_range_meters":8800,"station_id":"","pricing_plan_id":"cebpf4jnsgd1na2vs0mg"},{"bike_id":"f0885dbb-64a6-4ff8-94fa-a07eaad87691","system_id":"levelo_inurba_marseille","lat":43.28401,"lon":5.34968,"is_reserved":false,"is_disabled":false,"rental_uris":{"android":"levelo://app?vid=f0885dbb-64a6-4ff8-94fa-a07eaad87691","ios":"levelo://app?vid=f0885dbb-64a6-4ff8-94fa-a07eaad87691"},"vehicle_type_id":"4","last_reported":1774106193,"current_range_meters":8800,"station_id":"ce4bhbh2rcd13ifvqepg","pricing_plan_id":"cebpf4jnsgd1na2vs0mg"},{"bike_id":"6a0e5f42-628b-49f9-be58-7186fc3dc8d5","system_id":"levelo_inurba_marseille","lat":43.2305,"lon":5.3549,"is_reserved":false,"is_disabled":false,"rental_uris":{"android":"levelo://app?vid=6a0e5f42-628b-49f9-be58-7186fc3dc8d5","ios":"levelo://app?vid=6a0e5f42-628b-49f9-be58-7186fc3dc8d5"},"vehicle_type_id":"4","last_reported":1774106193,"current_range_meters":8800,"station_id":"cpo3342slgdg3j2ifvpg","pricing_plan_id":"cebpf4jnsgd1na2vs0mg"},{"bike_id":"f4ab0de3-dc79-4a98-80e3-f7a89f7628b3","system_id":"levelo_inurba_marseille","lat":43.29168,"lon":5.37186,"is_reserved":false,"is_disabled":false,"rental_uris":{"android":"levelo://app?vid=f4ab0de3-dc79-4a98-80e3-f7a89f7628b3","ios":"levelo://app?vid=f4ab0de3-dc79-4a98-80e3-f7a89f7628b3"},"vehicle_type_id":"4","last_reported":1774106193,"current_range_meters":8800,"station_id":"ce4bha92rcd13ifvqeh0","pricing_plan_id":"cebpf4jnsgd1na2vs0mg"},{"bike_id":"280578b9-60d3-4d63-bb0d-4693a52f0b6d","system_id":"levelo_inurba_marseille","lat":43.2904,"lon":5.3813,"is_reserved":false,"is_disabled":true,"rental_uris":{"android":"levelo://app?vid=280578b9-60d3-4d63-bb0d-4693a52f0b6d","ios":"levelo://app?vid=280578b9-60d3-4d63-bb0d-4693a52f0b6d"},"vehicle_type_id":"4","last_reported":1774106193,"current_range_meters":8800,"station_id":"ce4bh4p2rcd13ifvqe1g","pricing_plan_id":"cebpf4jnsgd1na2vs0mg"},{"bike_id":"503df8da-9118-4827-9af8-3aebdb519853","system_id":"levelo_inurba_marseille","lat":43.22557,"lon":5.41635,"is_reserved":false,"is_disabled":false,"rental_uris":{"android":"levelo://app?vid=503df8da-9118-4827-9af8-3aebdb519853","ios":"levelo://app?vid=503df8da-9118-4827-9af8-3aebdb519853"},"vehicle_type_id":"4","last_reported":1774106193,"current_range_meters":8800,"station_id":"st_d2o4gvlbi1j2169b742g","pricing_plan_id":"cebpf4jnsgd1na2vs0mg"},{"bike_id":"f84df946-1fe9-4d68-b54f-3a23cc20fde7","system_id":"levelo_inurba_marseille","lat":43.29858,"lon":5.42125,"is_reserved":false,"is_disabled":false,"rental_uris":{"android":"levelo://app?vid=f84df946-1fe9-4d68-b54f-3a23cc20fde7","ios":"levelo://app?vid=f84df946-1fe9-4d68-b54f-3a23cc20fde7"},"vehicle_type_id":"4","last_reported":1774106193,"current_range_meters":8800,"station_id":"st_d6tc004otcvc738tfe70","pricing_plan_id":"cebpf4jnsgd1na2vs0mg"},{"bike_id":"26e42e5f-4ec8-4044-9035-15ba7df567cd","system_id":"levelo_inurba_marseille","lat":43.2119,"lon":5.35065,"is_reserved":false,"is_disabled":false,"rental_uris":{"android":"levelo://app?vid=26e42e5f-4ec8-4044-9035-15ba7df567cd","ios":"levelo://app?vid=26e42e5f-4ec8-4044-9035-15ba7df567cd"},"vehicle_type_id":"4","last_reported":1774106193,"current_range_meters":8800,"station_id":"st_cvj6sg6p6f1abm77japg","pricing_plan_id":"cebpf4jnsgd1na2vs0mg"},{"bike_id":"d65bd890-bd76-40b1-a464-add252f480e6","system_id":"levelo_inurba_marseille","lat":43.31736,"lon":5.38999,"is_reserved":false,"is_disabled":false,"rental_uris":{"android":"levelo://app?vid=d65bd890-bd76-40b1-a464-add252f480e6","ios":"levelo://app?vid=d65bd890-bd76-40b1-a464-add252f480e6"},"vehicle_type_id":"4","last_reported":1774106193,"current_range_meters":8800,"station_id":"ce4bhqp2rcd13ifvqhng","pricing_plan_id":"cebpf4jnsgd1na2vs0mg"},{"bike_id":"67e1f5f0-0006-4bed-ab6b-01d5f1dfc1ff","system_id":"levelo_inurba_marseille","lat":43.28741,"lon":5.35211,"is_reserved":false,"is_disabled":false,"rental_uris":{"android":"levelo://app?vid=67e1f5f0-0006-4bed-ab6b-01d5f1dfc1ff","ios":"levelo://app?vid=67e1f5f0-0006-4bed-ab6b-01d5f1dfc1ff"},"vehicle_type_id":"4","last_reported":1774106193,"current_range_meters":8800,"station_id":"","pricing_plan_id":"cebpf4jnsgd1na2vs0mg"},{"bike_id":"3139e3bc-7e31-41ad-b393-0f19325c3386","system_id":"levelo_inurba_marseille","lat":43.22552,"lon":5.41622,"is_reserved":false,"is_disabled":false,"rental_uris":{"android":"levelo://app?vid=3139e3bc-7e31-41ad-b393-0f19325c3386","ios":"levelo://app?vid=3139e3bc-7e31-41ad-b393-0f19325c3386"},"vehicle_type_id":"4","last_reported":1774106193,"current_range_meters":8800,"station_id":"st_d2o4gvlbi1j2169b742g","pricing_plan_id":"cebpf4jnsgd1na2vs0mg"},{"bike_id":"b19a626a-93cd-41bf-8d4f-8b63d7aeec08","system_id":"levelo_inurba_marseille","lat":43.3013,"lon":5.43905,"is_reserved":false,"is_disabled":false,"rental_uris":{"android":"levelo://app?vid=b19a626a-93cd-41bf-8d4f-8b63d7aeec08","ios":"levelo://app?vid=b19a626a-93cd-41bf-8d4f-8b63d7aeec08"},"vehicle_type_id":"4","last_reported":1774106193,"current_range_meters":8800,"station_id":"","pricing_plan_id":"cebpf4jnsgd1na2vs0mg"},{"bike_id":"58d2236a-0295-48d1-9f32-3093e102ca03","system_id":"levelo_inurba_marseille","lat":43.24179,"lon":5.36401,"is_reserved":false,"is_disabled":false,"rental_uris":{"android":"levelo://app?vid=58d2236a-0295-48d1-9f32-3093e102ca03","ios":"levelo://app?vid=58d2236a-0295-48d1-9f32-3093e102ca03"},"vehicle_type_id":"4","last_reported":1774106193,"current_range_meters":8800,"station_id":"cpo36qri1sfpv3e86is0","pricing_plan_id":"cebpf4jnsgd1na2vs0mg"},{"bike_id":"e4a043e8-5007-4d6a-9116-d39ae9581796","system_id":"levelo_inurba_marseille","lat":43.29198,"lon":5.35796,"is_reserved":false,"is_disabled":false,"rental_uris":{"android":"levelo://app?vid=e4a043e8-5007-4d6a-9116-d39ae9581796","ios":"levelo://app?vid=e4a043e8-5007-4d6a-9116-d39ae9581796"},"vehicle_type_id":"4","last_reported":1774106193,"current_range_meters":8800,"station_id":"ce4bhb12rcd13ifvqel0","pricing_plan_id":"cebpf4jnsgd1na2vs0mg"},{"bike_id":"e9216789-2da6-4ca9-9883-2c1c48487abb","system_id":"levelo_inurba_marseille","lat":43.2924,"lon":5.3687,"is_reserved":false,"is_disabled":false,"rental_uris":{"android":"levelo://app?vid=e9216789-2da6-4ca9-9883-2c1c48487abb","ios":"levelo://app?vid=e9216789-2da6-4ca9-9883-2c1c48487abb"},"vehicle_type_id":"4","last_reported":1774106193,"current_range_meters":8800,"station_id":"ce4bhbp2rcd13ifvqesg","pricing_plan_id":"cebpf4jnsgd1na2vs0mg"},{"bike_id":"efe4b101-a4c2-4a36-bd51-36393273087f","system_id":"levelo_inurba_marseille","lat":43.28495,"lon":5.48431,"is_reserved":false,"is_disabled":false,"rental_uris":{"android":"levelo://app?vid=efe4b101-a4c2-4a36-bd51-36393273087f","ios":"levelo://app?vid=efe4b101-a4c2-4a36-bd51-36393273087f"},"vehicle_type_id":"4","last_reported":1774106193,"current_range_meters":8800,"station_id":"","pricing_plan_id":"cebpf4jnsgd1na2vs0mg"},{"bike_id":"de2f5eb1-7fa9-451f-aaaa-fa570d141def","system_id":"levelo_inurba_marseille","lat":43.25582,"lon":5.38252,"is_reserved":false,"is_disabled":false,"rental_uris":{"android":"levelo://app?vid=de2f5eb1-7fa9-451f-aaaa-fa570d141def","ios":"levelo://app?vid=de2f5eb1-7fa9-451f-aaaa-fa570d141def"},"vehicle_type_id":"4","last_reported":1774106193,"current_range_meters":8800,"station_id":"ce4bhih2rcd13ifvqfs0","pricing_plan_id":"cebpf4jnsgd1na2vs0mg"},{"bike_id":"4a83c3d6-a071-41e6-8788-a3d67213f2c5","system_id":"levelo_inurba_marseille","lat":43.27374,"lon":5.36254,"is_reserved":false,"is_disabled":false,"rental_uris":{"android":"levelo://app?vid=4a83c3d6-a071-41e6-8788-a3d67213f2c5","ios":"levelo://app?vid=4a83c3d6-a071-41e6-8788-a3d67213f2c5"},"vehicle_type_id":"4","last_reported":1774106193,"current_range_meters":8800,"station_id":"ce4bhbh2rcd13ifvqeo0","pricing_plan_id":"cebpf4jnsgd1na2vs0mg"},{"bike_id":"ea1128f6-3af1-4db3-9b7c-1d2eebed4c07","system_id":"levelo_inurba_marseille","lat":43.24171,"lon":5.36394,"is_reserved":false,"is_disabled":false,"rental_uris":{"android":"levelo://app?vid=ea1128f6-3af1-4db3-9b7c-1d2eebed4c07","ios":"levelo://app?vid=ea1128f6-3af1-4db3-9b7c-1d2eebed4c07"},"vehicle_type_id":"4","last_reported":1774106193,"current_range_meters":8800,"station_id":"cpo36qri1sfpv3e86is0","pricing_plan_id":"cebpf4jnsgd1na2vs0mg"},{"bike_id":"654ebf95-9ad5-4d65-8b9b-e7b238b8bb05","system_id":"levelo_inurba_marseille","lat":43.29305,"lon":5.37171,"is_reserved":false,"is_disabled":false,"rental_uris":{"android":"levelo://app?vid=654ebf95-9ad5-4d65-8b9b-e7b238b8bb05","ios":"levelo://app?vid=654ebf95-9ad5-4d65-8b9b-e7b238b8bb05"},"vehicle_type_id":"4","last_reported":1774106193,"current_range_meters":8800,"station_id":"ce4bgh92rcd13ifvqb40","pricing_plan_id":"cebpf4jnsgd1na2vs0mg"},{"bike_id":"91a0232f-36ba-41e1-a4fd-9b3710870b58","system_id":"levelo_inurba_marseille","lat":43.28266,"lon":5.35064,"is_reserved":false,"is_disabled":false,"rental_uris":{"android":"levelo://app?vid=91a0232f-36ba-41e1-a4fd-9b3710870b58","ios":"levelo://app?vid=91a0232f-36ba-41e1-a4fd-9b3710870b58"},"vehicle_type_id":"4","last_reported":1774106193,"current_range_meters":9200,"station_id":"ce4bhbp2rcd13ifvqerg","pricing_plan_id":"cebpf4jnsgd1na2vs0mg"},{"bike_id":"d4da46a1-3b9d-4dec-958a-07224dfcb10c","system_id":"levelo_inurba_marseille","lat":43.27205,"lon":5.39198,"is_reserved":false,"is_disabled":true,"rental_uris":{"android":"levelo://app?vid=d4da46a1-3b9d-4dec-958a-07224dfcb10c","ios":"levelo://app?vid=d4da46a1-3b9d-4dec-958a-07224dfcb10c"},"vehicle_type_id":"4","last_reported":1774106193,"current_range_meters":9200,"station_id":"ce4bhhp2rcd13ifvqfm0","pricing_plan_id":"cebpf4jnsgd1na2vs0mg"},{"bike_id":"8f6e8d8a-f5f2-4942-b56d-f35ff5bae9a3","system_id":"levelo_inurba_marseille","lat":43.27613,"lon":5.36111,"is_reserved":false,"is_disabled":false,"rental_uris":{"android":"levelo://app?vid=8f6e8d8a-f5f2-4942-b56d-f35ff5bae9a3","ios":"levelo://app?vid=8f6e8d8a-f5f2-4942-b56d-f35ff5bae9a3"},"vehicle_type_id":"4","last_reported":1774106193,"current_range_meters":9200,"station_id":"ce4bgj92rcd13ifvqbe0","pricing_plan_id":"cebpf4jnsgd1na2vs0mg"},{"bike_id":"e174566f-9f96-4175-8d0d-0afc92e5691a","system_id":"levelo_inurba_marseille","lat":43.28616,"lon":5.35104,"is_reserved":false,"is_disabled":false,"rental_uris":{"android":"levelo://app?vid=e174566f-9f96-4175-8d0d-0afc92e5691a","ios":"levelo://app?vid=e174566f-9f96-4175-8d0d-0afc92e5691a"},"vehicle_type_id":"4","last_reported":1774106193,"current_range_meters":9200,"station_id":"ce4bhch2rcd13ifvqeug","pricing_plan_id":"cebpf4jnsgd1na2vs0mg"},{"bike_id":"bc749995-a14f-4cb2-b913-5bac611c6816","system_id":"levelo_inurba_marseille","lat":43.23971,"lon":5.36645,"is_reserved":false,"is_disabled":false,"rental_uris":{"android":"levelo://app?vid=bc749995-a14f-4cb2-b913-5bac611c6816","ios":"levelo://app?vid=bc749995-a14f-4cb2-b913-5bac611c6816"},"vehicle_type_id":"4","last_reported":1774106193,"current_range_meters":9200,"station_id":"ce4bhi12rcd13ifvqfp0","pricing_plan_id":"cebpf4jnsgd1na2vs0mg"},{"bike_id":"09ad77b3-0310-4f70-a2a8-ab671a926728","system_id":"levelo_inurba_marseille","lat":43.26201,"lon":5.37934,"is_reserved":false,"is_disabled":false,"rental_uris":{"android":"levelo://app?vid=09ad77b3-0310-4f70-a2a8-ab671a926728","ios":"levelo://app?vid=09ad77b3-0310-4f70-a2a8-ab671a926728"},"vehicle_type_id":"4","last_reported":1774106193,"current_range_meters":9200,"station_id":"ce4bhjp2rcd13ifvqg90","pricing_plan_id":"cebpf4jnsgd1na2vs0mg"},{"bike_id":"3d877905-2c41-467a-8f2e-5f77866e01b5","system_id":"levelo_inurba_marseille","lat":43.21276,"lon":5.35082,"is_reserved":false,"is_disabled":false,"rental_uris":{"android":"levelo://app?vid=3d877905-2c41-467a-8f2e-5f77866e01b5","ios":"levelo://app?vid=3d877905-2c41-467a-8f2e-5f77866e01b5"},"vehicle_type_id":"4","last_reported":1774106193,"current_range_meters":9200,"station_id":"","pricing_plan_id":"cebpf4jnsgd1na2vs0mg"},{"bike_id":"8426d916-986a-429b-937b-7096866f035f","system_id":"levelo_inurba_marseille","lat":43.21192,"lon":5.3508,"is_reserved":false,"is_disabled":false,"rental_uris":{"android":"levelo://app?vid=8426d916-986a-429b-937b-7096866f035f","ios":"levelo://app?vid=8426d916-986a-429b-937b-7096866f035f"},"vehicle_type_id":"4","last_reported":1774106193,"current_range_meters":9200,"station_id":"st_cvj6sg6p6f1abm77japg","pricing_plan_id":"cebpf4jnsgd1na2vs0mg"},{"bike_id":"917a7251-d299-41be-b29c-1256cd6ba6b1","system_id":"levelo_inurba_marseille","lat":43.21185,"lon":5.35068,"is_reserved":false,"is_disabled":false,"rental_uris":{"android":"levelo://app?vid=917a7251-d299-41be-b29c-1256cd6ba6b1","ios":"levelo://app?vid=917a7251-d299-41be-b29c-1256cd6ba6b1"},"vehicle_type_id":"4","last_reported":1774106193,"current_range_meters":9200,"station_id":"st_cvj6sg6p6f1abm77japg","pricing_plan_id":"cebpf4jnsgd1na2vs0mg"},{"bike_id":"8827da7c-4553-4e45-8b96-33f6c2699a52","system_id":"levelo_inurba_marseille","lat":43.21742,"lon":5.34603,"is_reserved":false,"is_disabled":true,"rental_uris":{"android":"levelo://app?vid=8827da7c-4553-4e45-8b96-33f6c2699a52","ios":"levelo://app?vid=8827da7c-4553-4e45-8b96-33f6c2699a52"},"vehicle_type_id":"4","last_reported":1774106193,"current_range_meters":9200,"station_id":"st_cvj6r9ubvosntc0bgbag","pricing_plan_id":"cebpf4jnsgd1na2vs0mg"},{"bike_id":"c740e20c-eca7-406c-92dd-2b448718a645","system_id":"levelo_inurba_marseille","lat":43.28475,"lon":5.48396,"is_reserved":false,"is_disabled":false,"rental_uris":{"android":"levelo://app?vid=c740e20c-eca7-406c-92dd-2b448718a645","ios":"levelo://app?vid=c740e20c-eca7-406c-92dd-2b448718a645"},"vehicle_type_id":"4","last_reported":1774106193,"current_range_meters":9200,"station_id":"st_d3svhcjqgbts73a3dn0g","pricing_plan_id":"cebpf4jnsgd1na2vs0mg"},{"bike_id":"82918ebf-db0b-441c-be2e-745dd8531c0c","system_id":"levelo_inurba_marseille","lat":43.22576,"lon":5.41598,"is_reserved":false,"is_disabled":false,"rental_uris":{"android":"levelo://app?vid=82918ebf-db0b-441c-be2e-745dd8531c0c","ios":"levelo://app?vid=82918ebf-db0b-441c-be2e-745dd8531c0c"},"vehicle_type_id":"4","last_reported":1774106193,"current_range_meters":9200,"station_id":"st_d2o4gvlbi1j2169b742g","pricing_plan_id":"cebpf4jnsgd1na2vs0mg"},{"bike_id":"2198dd5a-8a9c-43a1-8743-28b676f91ab1","system_id":"levelo_inurba_marseille","lat":43.28992,"lon":5.36622,"is_reserved":false,"is_disabled":false,"rental_uris":{"android":"levelo://app?vid=2198dd5a-8a9c-43a1-8743-28b676f91ab1","ios":"levelo://app?vid=2198dd5a-8a9c-43a1-8743-28b676f91ab1"},"vehicle_type_id":"4","last_reported":1774106193,"current_range_meters":9200,"station_id":"","pricing_plan_id":"cebpf4jnsgd1na2vs0mg"},{"bike_id":"35939b35-432f-4730-9a4d-bca4477a51c8","system_id":"levelo_inurba_marseille","lat":43.3211,"lon":5.36799,"is_reserved":false,"is_disabled":false,"rental_uris":{"android":"levelo://app?vid=35939b35-432f-4730-9a4d-bca4477a51c8","ios":"levelo://app?vid=35939b35-432f-4730-9a4d-bca4477a51c8"},"vehicle_type_id":"4","last_reported":1774106193,"current_range_meters":9200,"station_id":"ce4bhrh2rcd13ifvqhug","pricing_plan_id":"cebpf4jnsgd1na2vs0mg"},{"bike_id":"6c1ac590-511b-4ef3-b19a-055f363bbc14","system_id":"levelo_inurba_marseille","lat":43.29902,"lon":5.43665,"is_reserved":false,"is_disabled":false,"rental_uris":{"android":"levelo://app?vid=6c1ac590-511b-4ef3-b19a-055f363bbc14","ios":"levelo://app?vid=6c1ac590-511b-4ef3-b19a-055f363bbc14"},"vehicle_type_id":"4","last_reported":1774106193,"current_range_meters":9200,"station_id":"ce4bhpp2rcd13ifvqhfg","pricing_plan_id":"cebpf4jnsgd1na2vs0mg"},{"bike_id":"e8d8a01b-d500-4352-81cb-1f46957b9061","system_id":"levelo_inurba_marseille","lat":43.24392,"lon":5.37041,"is_reserved":false,"is_disabled":false,"rental_uris":{"android":"levelo://app?vid=e8d8a01b-d500-4352-81cb-1f46957b9061","ios":"levelo://app?vid=e8d8a01b-d500-4352-81cb-1f46957b9061"},"vehicle_type_id":"4","last_reported":1774106193,"current_range_meters":9200,"station_id":"ce4bhhh2rcd13ifvqfk0","pricing_plan_id":"cebpf4jnsgd1na2vs0mg"},{"bike_id":"ef8cd562-295e-4308-aa28-51ee95bd4f8d","system_id":"levelo_inurba_marseille","lat":43.28126,"lon":5.42639,"is_reserved":false,"is_disabled":false,"rental_uris":{"android":"levelo://app?vid=ef8cd562-295e-4308-aa28-51ee95bd4f8d","ios":"levelo://app?vid=ef8cd562-295e-4308-aa28-51ee95bd4f8d"},"vehicle_type_id":"4","last_reported":1774106193,"current_range_meters":9600,"station_id":"ce4bhnh2rcd13ifvqgug","pricing_plan_id":"cebpf4jnsgd1na2vs0mg"},{"bike_id":"32e935cb-eb7b-4796-92f4-6022fdaaa610","system_id":"levelo_inurba_marseille","lat":43.27379,"lon":5.36261,"is_reserved":false,"is_disabled":false,"rental_uris":{"android":"levelo://app?vid=32e935cb-eb7b-4796-92f4-6022fdaaa610","ios":"levelo://app?vid=32e935cb-eb7b-4796-92f4-6022fdaaa610"},"vehicle_type_id":"4","last_reported":1774106193,"current_range_meters":9600,"station_id":"ce4bhbh2rcd13ifvqeo0","pricing_plan_id":"cebpf4jnsgd1na2vs0mg"},{"bike_id":"60ff1a65-2d43-4ef6-9d69-d6a86436c74d","system_id":"levelo_inurba_marseille","lat":43.28651,"lon":5.3638,"is_reserved":false,"is_disabled":false,"rental_uris":{"android":"levelo://app?vid=60ff1a65-2d43-4ef6-9d69-d6a86436c74d","ios":"levelo://app?vid=60ff1a65-2d43-4ef6-9d69-d6a86436c74d"},"vehicle_type_id":"4","last_reported":1774106193,"current_range_meters":9600,"station_id":"ce4bhah2rcd13ifvqej0","pricing_plan_id":"cebpf4jnsgd1na2vs0mg"},{"bike_id":"cc777a7e-f3d4-4026-819d-66c6f1a5d2b6","system_id":"levelo_inurba_marseille","lat":43.29221,"lon":5.42568,"is_reserved":false,"is_disabled":false,"rental_uris":{"android":"levelo://app?vid=cc777a7e-f3d4-4026-819d-66c6f1a5d2b6","ios":"levelo://app?vid=cc777a7e-f3d4-4026-819d-66c6f1a5d2b6"},"vehicle_type_id":"4","last_reported":1774106193,"current_range_meters":9600,"station_id":"","pricing_plan_id":"cebpf4jnsgd1na2vs0mg"},{"bike_id":"d2e4a4de-1e0d-4763-86b4-264b5c71a473","system_id":"levelo_inurba_marseille","lat":43.28674,"lon":5.36348,"is_reserved":false,"is_disabled":false,"rental_uris":{"android":"levelo://app?vid=d2e4a4de-1e0d-4763-86b4-264b5c71a473","ios":"levelo://app?vid=d2e4a4de-1e0d-4763-86b4-264b5c71a473"},"vehicle_type_id":"4","last_reported":1774106193,"current_range_meters":9600,"station_id":"ce4bhah2rcd13ifvqej0","pricing_plan_id":"cebpf4jnsgd1na2vs0mg"},