{"last_updated":1699016997,"ttl":30,"version":"2.2","data":{"bikes":[{"bike_id":"867abad4-3bf0-4651-9e10-d0569119d7a8","system_id":"levelo_inurba_marseille","lat":43.31341,"lon":5.367098,"is_reserved":false,"is_disabled":false,"rental_uris":{"android":"levelo://app?vid=867abad4-3bf0-4651-9e10-d0569119d7a8","ios":"levelo://app?vid=867abad4-3bf0-4651-9e10-d0569119d7a8"},"vehicle_type_id":"4","last_reported":1699016998,"current_range_meters":29200,"station_id":"ce4bgr92rcd13ifvqc6g","pricing_plan_id":"free"},{"bike_id":"eb842d2e-1957-4aca-abc8-8b6e09a8443c","system_id":"levelo_inurba_marseille","lat":43.31341,"lon":5.367098,"is_reserved":false,"is_disabled":false,"rental_uris":{"android":"levelo://app?vid=eb842d2e-1957-4aca-abc8-8b6e09a8443c","ios":"levelo://app?vid=eb842d2e-1957-4aca-abc8-8b6e09a8443c"},"vehicle_type_id":"4","last_reported":1699016998,"current_range_meters":30400,"station_id":"ce4bgr92rcd13ifvqc6g","pricing_plan_id":"free"},{"bike_id":"40fc46c6-88c6-4169-8d8c-19fa1230347f","system_id":"levelo_inurba_marseille","lat":43.312239,"lon":5.368562,"is_reserved":false,"is_disabled":false,"rental_uris":{"android":"levelo://app?vid=40fc46c6-88c6-4169-8d8c-19fa1230347f","ios":"levelo://app?vid=40fc46c6-88c6-4169-8d8c-19fa1230347f"},"vehicle_type_id":"4","last_reported":1699016998,"current_range_meters":31600,"station_id":"ce4bgl92rcd13ifvqbq0","pricing_plan_id":"free"},{"bike_id":"862696c2-0eea-4b2d-bc28-4391c88fb506","system_id":"levelo_inurba_marseille","lat":43.309076,"lon":5.368465,"is_reserved":false,"is_disabled":false,"rental_uris":{"android":"levelo://app?vid=862696c2-0eea-4b2d-bc28-4391c88fb506","ios":"levelo://app?vid=862696c2-0eea-4b2d-bc28-4391c88fb506"},"vehicle_type_id":"4","last_reported":1699016998,"current_range_meters":31600,"station_id":"ce4bgn92rcd13ifvqbvg","pricing_plan_id":"free"},{"bike_id":"636d2b55-b6ba-46af-8b70-d8d76efdcc7f","system_id":"levelo_inurba_marseille","lat":43.309076,"lon":5.368465,"is_reserved":false,"is_disabled":false,"rental_uris":{"android":"levelo://app?vid=636d2b55-b6ba-46af-8b70-d8d76efdcc7f","ios":"levelo://app?vid=636d2b55-b6ba-46af-8b70-d8d76efdcc7f"},"vehicle_type_id":"4","last_reported":1699016998,"current_range_meters":20000,"station_id":"ce4bgn92rcd13ifvqbvg","pricing_plan_id":"free"},{"bike_id":"744c9d2a-2a4b-4c91-b8f9-9b10821f1bb1","system_id":"levelo_inurba_marseille","lat":43.309039,"lon":5.371797,"is_reserved":false,"is_disabled":false,"rental_uris":{"android":"levelo://app?vid=744c9d2a-2a4b-4c91-b8f9-9b10821f1bb1","ios":"levelo://app?vid=744c9d2a-2a4b-4c91-b8f9-9b10821f1bb1"},"vehicle_type_id":"4","last_reported":1699016998,"current_range_meters":31600,"station_id":"ce4bguh2rcd13ifvqckg","pricing_plan_id":"free"},{"bike_id":"e8584f7f-3a22-4191-9ecd-5314ed574e4e","system_id":"levelo_inurba_marseille","lat":43.309299,"lon":5.374759,"is_reserved":false,"is_disabled":false,"rental_uris":{"android":"levelo://app?vid=e8584f7f-3a22-4191-9ecd-5314ed574e4e","ios":"levelo://app?vid=e8584f7f-3a22-4191-9ecd-5314ed574e4e"},"vehicle_type_id":"4","last_reported":1699016998,"current_range_meters":19600,"station_id":"ce4bhr12rcd13ifvqhpg","pricing_plan_id":"free"},{"bike_id":"7f6d1821-d960-4aa5-81c2-8064a10d310c","system_id":"levelo_inurba_marseille","lat":43.31885,"lon":5.370823,"is_reserved":false,"is_disabled":false,"rental_uris":{"android":"levelo://app?vid=7f6d1821-d960-4aa5-81c2-8064a10d310c","ios":"levelo://app?vid=7f6d1821-d960-4aa5-81c2-8064a10d310c"},"vehicle_type_id":"4","last_reported":1699016998,"current_range_meters":13200,"station_id":"","pricing_plan_id":"free"},{"bike_id":"f252b071-dddd-4e5f-ad07-506846af6d1a","system_id":"levelo_inurba_marseille","lat":43.305714,"lon":5.365633,"is_reserved":false,"is_disabled":false,"rental_uris":{"android":"levelo://app?vid=f252b071-dddd-4e5f-ad07-506846af6d1a","ios":"levelo://app?vid=f252b071-dddd-4e5f-ad07-506846af6d1a"},"vehicle_type_id":"4","last_reported":1699016998,"current_range_meters":9600,"station_id":"ce4bgs12rcd13ifvqcag","pricing_plan_id":"free"},{"bike_id":"d0228295-397b-4839-a023-fa94d84428a0","system_id":"levelo_inurba_marseille","lat":43.305533,"lon":5.36532,"is_reserved":false,"is_disabled":false,"rental_uris":{"android":"levelo://app?vid=d0228295-397b-4839-a023-fa94d84428a0","ios":"levelo://app?vid=d0228295-397b-4839-a023-fa94d84428a0"},"vehicle_type_id":"4","last_reported":1699016998,"current_range_meters":17600,"station_id":"ce4bgs12rcd13ifvqcag","pricing_plan_id":"free"},{"bike_id":"37a4167b-1c34-47cb-893f-35bdd8c1d825","system_id":"levelo_inurba_marseille","lat":43.30536,"lon":5.36699,"is_reserved":false,"is_disabled":false,"rental_uris":{"android":"levelo://app?vid=37a4167b-1c34-47cb-893f-35bdd8c1d825","ios":"levelo://app?vid=37a4167b-1c34-47cb-893f-35bdd8c1d825"},"vehicle_type_id":"4","last_reported":1699016998,"current_range_meters":18400,"station_id":"ce4bgrp2rcd13ifvqc9g","pricing_plan_id":"free"},{"bike_id":"cf394aeb-c690-4626-841a-987fe7dd5c61","system_id":"levelo_inurba_marseille","lat":43.305341,"lon":5.367014,"is_reserved":false,"is_disabled":false,"rental_uris":{"android":"levelo://app?vid=cf394aeb-c690-4626-841a-987fe7dd5c61","ios":"levelo://app?vid=cf394aeb-c690-4626-841a-987fe7dd5c61"},"vehicle_type_id":"4","last_reported":1699016998,"current_range_meters":12400,"station_id":"ce4bgrp2rcd13ifvqc9g","pricing_plan_id":"free"},{"bike_id":"10c5f63a-6ffe-457c-b896-299db30e656c","system_id":"levelo_inurba_marseille","lat":43.30534,"lon":5.36698,"is_reserved":false,"is_disabled":false,"rental_uris":{"android":"levelo://app?vid=10c5f63a-6ffe-457c-b896-299db30e656c","ios":"levelo://app?vid=10c5f63a-6ffe-457c-b896-299db30e656c"},"vehicle_type_id":"4","last_reported":1699016998,"current_range_meters":21600,"station_id":"ce4bgrp2rcd13ifvqc9g","pricing_plan_id":"free"},{"bike_id":"399486b1-0d21-41b8-9901-8e7405d25b82","system_id":"levelo_inurba_marseille","lat":43.305386,"lon":5.365569,"is_reserved":false,"is_disabled":false,"rental_uris":{"android":"levelo://app?vid=399486b1-0d21-41b8-9901-8e7405d25b82","ios":"levelo://app?vid=399486b1-0d21-41b8-9901-8e7405d25b82"},"vehicle_type_id":"4","last_reported":1699016998,"current_range_meters":26800,"station_id":"ce4bgs12rcd13ifvqcag","pricing_plan_id":"free"},{"bike_id":"1575b424-a49d-4af5-96f0-2860858aecf5","system_id":"levelo_inurba_marseille","lat":43.30538,"lon":5.36554,"is_reserved":false,"is_disabled":false,"rental_uris":{"android":"levelo://app?vid=1575b424-a49d-4af5-96f0-2860858aecf5","ios":"levelo://app?vid=1575b424-a49d-4af5-96f0-2860858aecf5"},"vehicle_type_id":"4","last_reported":1699016998,"current_range_meters":6000,"station_id":"ce4bgs12rcd13ifvqcag","pricing_plan_id":"free"},{"bike_id":"0bcd0d4c-794c-47fa-bb0a-9e4abc4d2259","system_id":"levelo_inurba_marseille","lat":43.305303,"lon":5.366947,"is_reserved":false,"is_disabled":false,"rental_uris":{"android":"levelo://app?vid=0bcd0d4c-794c-47fa-bb0a-9e4abc4d2259","ios":"levelo://app?vid=0bcd0d4c-794c-47fa-bb0a-9e4abc4d2259"},"vehicle_type_id":"4","last_reported":1699016998,"current_range_meters":24800,"station_id":"ce4bgrp2rcd13ifvqc9g","pricing_plan_id":"free"},{"bike_id":"caae5167-55d5-4546-a1c5-fecf6ce4c22c","system_id":"levelo_inurba_marseille","lat":43.30537,"lon":5.36548,"is_reserved":false,"is_disabled":false,"rental_uris":{"android":"levelo://app?vid=caae5167-55d5-4546-a1c5-fecf6ce4c22c","ios":"levelo://app?vid=caae5167-55d5-4546-a1c5-fecf6ce4c22c"},"vehicle_type_id":"4","last_reported":1699016998,"current_range_meters":16800,"station_id":"ce4bgs12rcd13ifvqcag","pricing_plan_id":"free"},{"bike_id":"fa9404c2-cf61-4f97-ac30-0b31ddc2816b","system_id":"levelo_inurba_marseille","lat":43.305387,"lon":5.365207,"is_reserved":false,"is_disabled":false,"rental_uris":{"android":"levelo://app?vid=fa9404c2-cf61-4f97-ac30-0b31ddc2816b","ios":"levelo://app?vid=fa9404c2-cf61-4f97-ac30-0b31ddc2816b"},"vehicle_type_id":"4","last_reported":1699016998,"current_range_meters":23200,"station_id":"ce4bgs12rcd13ifvqcag","pricing_plan_id":"free"},{"bike_id":"c9b5be2f-ef79-4103-863f-5c0411c15ef7","system_id":"levelo_inurba_marseille","lat":43.30536,"lon":5.36533,"is_reserved":false,"is_disabled":false,"rental_uris":{"android":"levelo://app?vid=c9b5be2f-ef79-4103-863f-5c0411c15ef7","ios":"levelo://app?vid=c9b5be2f-ef79-4103-863f-5c0411c15ef7"},"vehicle_type_id":"4","last_reported":1699016998,"current_range_meters":23600,"station_id":"ce4bgs12rcd13ifvqcag","pricing_plan_id":"free"},{"bike_id":"4c082991-af88-41e3-b1e7-aac5c0d50803","system_id":"levelo_inurba_marseille","lat":43.305336,"lon":5.365456,"is_reserved":false,"is_disabled":false,"rental_uris":{"android":"levelo://app?vid=4c082991-af88-41e3-b1e7-aac5c0d50803","ios":"levelo://app?vid=4c082991-af88-41e3-b1e7-aac5c0d50803"},"vehicle_type_id":"4","last_reported":1699016998,"current_range_meters":19200,"station_id":"","pricing_plan_id":"free"},{"bike_id":"5921ebfa-b129-433b-8d40-2ccd13c9c063","system_id":"levelo_inurba_marseille","lat":43.305706,"lon":5.365654,"is_reserved":false,"is_disabled":false,"rental_uris":{"android":"levelo://app?vid=5921ebfa-b129-433b-8d40-2ccd13c9c063","ios":"levelo://app?vid=5921ebfa-b129-433b-8d40-2ccd13c9c063"},"vehicle_type_id":"4","last_reported":1699016998,"current_range_meters":25200,"station_id":"ce4bgs12rcd13ifvqcag","pricing_plan_id":"free"},{"bike_id":"cc8dfeac-f6a3-48cb-a6f6-8ea1131c7668","system_id":"levelo_inurba_marseille","lat":43.305339,"lon":5.365304,"is_reserved":false,"is_disabled":false,"rental_uris":{"android":"levelo://app?vid=cc8dfeac-f6a3-48cb-a6f6-8ea1131c7668","ios":"levelo://app?vid=cc8dfeac-f6a3-48cb-a6f6-8ea1131c7668"},"vehicle_type_id":"4","last_reported":1699016998,"current_range_meters":5600,"station_id":"ce4bgs12rcd13ifvqcag","pricing_plan_id":"free"},{"bike_id":"61f4c91d-1850-4e38-afa7-d6d97c13b762","system_id":"levelo_inurba_marseille","lat":43.30533,"lon":5.36535,"is_reserved":false,"is_disabled":false,"rental_uris":{"android":"levelo://app?vid=61f4c91d-1850-4e38-afa7-d6d97c13b762","ios":"levelo://app?vid=61f4c91d-1850-4e38-afa7-d6d97c13b762"},"vehicle_type_id":"4","last_reported":1699016998,"current_range_meters":11600,"station_id":"ce4bgs12rcd13ifvqcag","pricing_plan_id":"free"},{"bike_id":"144ea899-5d77-456d-a2bd-1c9e7d68d7f8","system_id":"levelo_inurba_marseille","lat":43.305706,"lon":5.365654,"is_reserved":false,"is_disabled":false,"rental_uris":{"android":"levelo://app?vid=144ea899-5d77-456d-a2bd-1c9e7d68d7f8","ios":"levelo://app?vid=144ea899-5d77-456d-a2bd-1c9e7d68d7f8"},"vehicle_type_id":"4","last_reported":1699016998,"current_range_meters":18000,"station_id":"ce4bgs12rcd13ifvqcag","pricing_plan_id":"free"},{"bike_id":"ac516892-1ff1-4166-bd95-539f532a4cdd","system_id":"levelo_inurba_marseille","lat":43.297794,"lon":5.370888,"is_reserved":false,"is_disabled":false,"rental_uris":{"android":"levelo://app?vid=ac516892-1ff1-4166-bd95-539f532a4cdd","ios":"levelo://app?vid=ac516892-1ff1-4166-bd95-539f532a4cdd"},"vehicle_type_id":"4","last_reported":1699016998,"current_range_meters":26000,"station_id":"ce4bgop2rcd13ifvqc1g","pricing_plan_id":"free"},{"bike_id":"c9ebbfc0-4b0e-46d2-a016-64edd2d5b82c","system_id":"levelo_inurba_marseille","lat":43.30085,"lon":5.390856,"is_reserved":false,"is_disabled":false,"rental_uris":{"android":"levelo://app?vid=c9ebbfc0-4b0e-46d2-a016-64edd2d5b82c","ios":"levelo://app?vid=c9ebbfc0-4b0e-46d2-a016-64edd2d5b82c"},"vehicle_type_id":"4","last_reported":1699016998,"current_range_meters":0,"station_id":"ce4bh192rcd13ifvqdb0","pricing_plan_id":"free"},{"bike_id":"27bfa550-6a14-4508-bd19-656283e41e79","system_id":"levelo_inurba_marseille","lat":43.301939,"lon":5.366286,"is_reserved":false,"is_disabled":false,"rental_uris":{"android":"levelo://app?vid=27bfa550-6a14-4508-bd19-656283e41e79","ios":"levelo://app?vid=27bfa550-6a14-4508-bd19-656283e41e79"},"vehicle_type_id":"4","last_reported":1699016998,"current_range_meters":30800,"station_id":"ce4bgrh2rcd13ifvqc8g","pricing_plan_id":"free"},{"bike_id":"3f8a0900-c4f5-4eb3-b15b-74c1c151b0f4","system_id":"levelo_inurba_marseille","lat":43.301939,"lon":5.366286,"is_reserved":false,"is_disabled":false,"rental_uris":{"android":"levelo://app?vid=3f8a0900-c4f5-4eb3-b15b-74c1c151b0f4","ios":"levelo://app?vid=3f8a0900-c4f5-4eb3-b15b-74c1c151b0f4"},"vehicle_type_id":"4","last_reported":1699016998,"current_range_meters":18800,"station_id":"ce4bgrh2rcd13ifvqc8g","pricing_plan_id":"free"},{"bike_id":"8231ac3d-10af-470a-83a6-4044051c65a0","system_id":"levelo_inurba_marseille","lat":43.304606,"lon":5.379026,"is_reserved":false,"is_disabled":false,"rental_uris":{"android":"levelo://app?vid=8231ac3d-10af-470a-83a6-4044051c65a0","ios":"levelo://app?vid=8231ac3d-10af-470a-83a6-4044051c65a0"},"vehicle_type_id":"4","last_reported":1699016998,"current_range_meters":20000,"station_id":"ce4bgup2rcd13ifvqcn0","pricing_plan_id":"free"},{"bike_id":"476ae205-a03a-4395-ac01-40b6ccaa6cc8","system_id":"levelo_inurba_marseille","lat":43.304606,"lon":5.379026,"is_reserved":false,"is_disabled":false,"rental_uris":{"android":"levelo://app?vid=476ae205-a03a-4395-ac01-40b6ccaa6cc8","ios":"levelo://app?vid=476ae205-a03a-4395-ac01-40b6ccaa6cc8"},"vehicle_type_id":"4","last_reported":1699016998,"current_range_meters":24800,"station_id":"ce4bgup2rcd13ifvqcn0","pricing_plan_id":"free"},{"bike_id":"3ef14f8b-0ce2-42c3-89dc-3fd8cdc2bd72","system_id":"levelo_inurba_marseille","lat":43.304606,"lon":5.379026,"is_reserved":false,"is_disabled":false,"rental_uris":{"android":"levelo://app?vid=3ef14f8b-0ce2-42c3-89dc-3fd8cdc2bd72","ios":"levelo://app?vid=3ef14f8b-0ce2-42c3-89dc-3fd8cdc2bd72"},"vehicle_type_id":"4","last_reported":1699016998,"current_range_meters":0,"station_id":"ce4bgup2rcd13ifvqcn0","pricing_plan_id":"free"},{"bike_id":"e7a3e9db-cfd3-4784-b09c-89550ba4007f","system_id":"levelo_inurba_marseille","lat":43.304606,"lon":5.379026,"is_reserved":false,"is_disabled":false,"rental_uris":{"android":"levelo://app?vid=e7a3e9db-cfd3-4784-b09c-89550ba4007f","ios":"levelo://app?vid=e7a3e9db-cfd3-4784-b09c-89550ba4007f"},"vehicle_type_id":"4","last_reported":1699016998,"current_range_meters":18800,"station_id":"ce4bgup2rcd13ifvqcn0","pricing_plan_id":"free"},{"bike_id":"7421ac0b-fad0-4ebe-a358-40857f7a40fb","system_id":"levelo_inurba_marseille","lat":43.302784,"lon":5.377158,"is_reserved":false,"is_disabled":false,"rental_uris":{"android":"levelo://app?vid=7421ac0b-fad0-4ebe-a358-40857f7a40fb","ios":"levelo://app?vid=7421ac0b-fad0-4ebe-a358-40857f7a40fb"},"vehicle_type_id":"4","last_reported":1699016998,"current_range_meters":25600,"station_id":"ce4bguh2rcd13ifvqcj0","pricing_plan_id":"free"},{"bike_id":"b70add6f-b02c-4608-8ff2-406c68ff4397","system_id":"levelo_inurba_marseille","lat":43.302784,"lon":5.377158,"is_reserved":false,"is_disabled":false,"rental_uris":{"android":"levelo://app?vid=b70add6f-b02c-4608-8ff2-406c68ff4397","ios":"levelo://app?vid=b70add6f-b02c-4608-8ff2-406c68ff4397"},"vehicle_type_id":"4","last_reported":1699016998,"current_range_meters":22800,"station_id":"ce4bguh2rcd13ifvqcj0","pricing_plan_id":"free"},{"bike_id":"9c517786-8616-459a-8514-95b158f64c7b","system_id":"levelo_inurba_marseille","lat":43.302784,"lon":5.377158,"is_reserved":false,"is_disabled":false,"rental_uris":{"android":"levelo://app?vid=9c517786-8616-459a-8514-95b158f64c7b","ios":"levelo://app?vid=9c517786-8616-459a-8514-95b158f64c7b"},"vehicle_type_id":"4","last_reported":1699016998,"current_range_meters":28400,"station_id":"ce4bguh2rcd13ifvqcj0","pricing_plan_id":"free"},{"bike_id":"f4807155-e216-4b6f-aa41-a56ac5c485e6","system_id":"levelo_inurba_marseille","lat":43.30143,"lon":5.37413,"is_reserved":false,"is_disabled":false,"rental_uris":{"android":"levelo://app?vid=f4807155-e216-4b6f-aa41-a56ac5c485e6","ios":"levelo://app?vid=f4807155-e216-4b6f-aa41-a56ac5c485e6"},"vehicle_type_id":"4","last_reported":1699016998,"current_range_meters":31600,"station_id":"ce4bgs92rcd13ifvqcc0","pricing_plan_id":"free"},{"bike_id":"3d51e33f-f2d5-4d2c-a63c-e51aeb621478","system_id":"levelo_inurba_marseille","lat":43.301429,"lon":5.37413,"is_reserved":false,"is_disabled":false,"rental_uris":{"android":"levelo://app?vid=3d51e33f-f2d5-4d2c-a63c-e51aeb621478","ios":"levelo://app?vid=3d51e33f-f2d5-4d2c-a63c-e51aeb621478"},"vehicle_type_id":"4","last_reported":1699016998,"current_range_meters":27200,"station_id":"ce4bgs92rcd13ifvqcc0","pricing_plan_id":"free"},{"bike_id":"3c8936e6-e01b-4020-bbce-541713ec8ea2","system_id":"levelo_inurba_marseille","lat":43.301429,"lon":5.37413,"is_reserved":false,"is_disabled":false,"rental_uris":{"android":"levelo://app?vid=3c8936e6-e01b-4020-bbce-541713ec8ea2","ios":"levelo://app?vid=3c8936e6-e01b-4020-bbce-541713ec8ea2"},"vehicle_type_id":"4","last_reported":1699016998,"current_range_meters":31600,"station_id":"ce4bgs92rcd13ifvqcc0","pricing_plan_id":"free"},{"bike_id":"f1cea7b5-af8a-4c25-89ad-c029ce8cf4b1","system_id":"levelo_inurba_marseille","lat":43.30143,"lon":5.37413,"is_reserved":false,"is_disabled":false,"rental_uris":{"android":"levelo://app?vid=f1cea7b5-af8a-4c25-89ad-c029ce8cf4b1","ios":"levelo://app?vid=f1cea7b5-af8a-4c25-89ad-c029ce8cf4b1"},"vehicle_type_id":"4","last_reported":1699016998,"current_range_meters":28000,"station_id":"ce4bgs92rcd13ifvqcc0","pricing_plan_id":"free"},{"bike_id":"bc4689b4-137e-4c82-bc9c-d7279d018f36","system_id":"levelo_inurba_marseille","lat":43.30143,"lon":5.37413,"is_reserved":false,"is_disabled":false,"rental_uris":{"android":"levelo://app?vid=bc4689b4-137e-4c82-bc9c-d7279d018f36","ios":"levelo://app?vid=bc4689b4-137e-4c82-bc9c-d7279d018f36"},"vehicle_type_id":"4","last_reported":1699016998,"current_range_meters":25200,"station_id":"ce4bgs92rcd13ifvqcc0","pricing_plan_id":"free"},{"bike_id":"cde09343-cb34-42b4-bd82-ba3dc99ca7a9","system_id":"levelo_inurba_marseille","lat":43.31541,"lon":5.38404,"is_reserved":false,"is_disabled":false,"rental_uris":{"android":"levelo://app?vid=cde09343-cb34-42b4-bd82-ba3dc99ca7a9","ios":"levelo://app?vid=cde09343-cb34-42b4-bd82-ba3dc99ca7a9"},"vehicle_type_id":"4","last_reported":1699016998,"current_range_meters":16000,"station_id":"ce4bhqp2rcd13ifvqhng","pricing_plan_id":"free"},{"bike_id":"da613b65-82bb-48a2-acc2-43e8666d9500","system_id":"levelo_inurba_marseille","lat":43.314811,"lon":5.373103,"is_reserved":false,"is_disabled":false,"rental_uris":{"android":"levelo://app?vid=da613b65-82bb-48a2-acc2-43e8666d9500","ios":"levelo://app?vid=da613b65-82bb-48a2-acc2-43e8666d9500"},"vehicle_type_id":"4","last_reported":1699016998,"current_range_meters":22800,"station_id":"ce4bgt12rcd13ifvqcd0","pricing_plan_id":"free"},{"bike_id":"7c825a59-2b5f-4720-8b3b-2cdbc5d11a8c","system_id":"levelo_inurba_marseille","lat":43.314183,"lon":5.384473,"is_reserved":false,"is_disabled":false,"rental_uris":{"android":"levelo://app?vid=7c825a59-2b5f-4720-8b3b-2cdbc5d11a8c","ios":"levelo://app?vid=7c825a59-2b5f-4720-8b3b-2cdbc5d11a8c"},"vehicle_type_id":"4","last_reported":1699016998,"current_range_meters":22800,"station_id":"","pricing_plan_id":"free"},{"bike_id":"7b38baf5-efc4-4c45-901b-c1b5b291baf9","system_id":"levelo_inurba_marseille","lat":43.31992,"lon":5.3817,"is_reserved":false,"is_disabled":false,"rental_uris":{"android":"levelo://app?vid=7b38baf5-efc4-4c45-901b-c1b5b291baf9","ios":"levelo://app?vid=7b38baf5-efc4-4c45-901b-c1b5b291baf9"},"vehicle_type_id":"4","last_reported":1699016998,"current_range_meters":5200,"station_id":"ce4bhr12rcd13ifvqhpg","pricing_plan_id":"free"},{"bike_id":"5268ac2c-7f79-4460-acd6-be3125c31ce9","system_id":"levelo_inurba_marseille","lat":43.313571,"lon":5.384829,"is_reserved":false,"is_disabled":false,"rental_uris":{"android":"levelo://app?vid=5268ac2c-7f79-4460-acd6-be3125c31ce9","ios":"levelo://app?vid=5268ac2c-7f79-4460-acd6-be3125c31ce9"},"vehicle_type_id":"4","last_reported":1699016998,"current_range_meters":19600,"station_id":"ce4bgt92rcd13ifvqcf0","pricing_plan_id":"free"},{"bike_id":"94d0b18e-59e8-41f6-8348-cac7b374ad42","system_id":"levelo_inurba_marseille","lat":43.2994,"lon":5.36551,"is_reserved":false,"is_disabled":false,"rental_uris":{"android":"levelo://app?vid=94d0b18e-59e8-41f6-8348-cac7b374ad42","ios":"levelo://app?vid=94d0b18e-59e8-41f6-8348-cac7b374ad42"},"vehicle_type_id":"4","last_reported":1699016998,"current_range_meters":18800,"station_id":"ce4bgm92rcd13ifvqbr0","pricing_plan_id":"free"},{"bike_id":"6d05ab3d-9e96-484c-ab15-b8df51aaa371","system_id":"levelo_inurba_marseille","lat":43.299724,"lon":5.371829,"is_reserved":false,"is_disabled":false,"rental_uris":{"android":"levelo://app?vid=6d05ab3d-9e96-484c-ab15-b8df51aaa371","ios":"levelo://app?vid=6d05ab3d-9e96-484c-ab15-b8df51aaa371"},"vehicle_type_id":"4","last_reported":1699016998,"current_range_meters":24400,"station_id":"ce4bgr92rcd13ifvqc7g","pricing_plan_id":"free"},{"bike_id":"11ecb229-8274-458c-a7b8-4460b77e5043","system_id":"levelo_inurba_marseille","lat":43.29934,"lon":5.36543,"is_reserved":false,"is_disabled":false,"rental_uris":{"android":"levelo://app?vid=11ecb229-8274-458c-a7b8-4460b77e5043","ios":"levelo://app?vid=11ecb229-8274-458c-a7b8-4460b77e5043"},"vehicle_type_id":"4","last_reported":1699016998,"current_range_meters":18000,"station_id":"ce4bgm92rcd13ifvqbr0","pricing_plan_id":"free"},{"bike_id":"15d773b1-3f22-4650-bffa-931ef71f88cf","system_id":"levelo_inurba_marseille","lat":43.298433,"lon":5.362774,"is_reserved":false,"is_disabled":false,"rental_uris":{"android":"levelo://app?vid=15d773b1-3f22-4650-bffa-931ef71f88cf","ios":"levelo://app?vid=15d773b1-3f22-4650-bffa-931ef71f88cf"},"vehicle_type_id":"4","last_reported":1699016998,"current_range_meters":30800,"station_id":"ce4bgpp2rcd13ifvqc3g","pricing_plan_id":"free"},{"bike_id":"cffe800b-8e46-4367-92e9-d9a0f2cba0f2","system_id":"levelo_inurba_marseille","lat":43.299626,"lon":5.375372,"is_reserved":false,"is_disabled":false,"rental_uris":{"android":"levelo://app?vid=cffe800b-8e46-4367-92e9-d9a0f2cba0f2","ios":"levelo://app?vid=cffe800b-8e46-4367-92e9-d9a0f2cba0f2"},"vehicle_type_id":"4","last_reported":1699016998,"current_range_meters":30400,"station_id":"ce4bgjh2rcd13ifvqbg0","pricing_plan_id":"free"},{"bike_id":"7f8c4c25-602c-438f-ae92-13fc33fb00b8","system_id":"levelo_inurba_marseille","lat":43.298433,"lon":5.362774,"is_reserved":false,"is_disabled":false,"rental_uris":{"android":"levelo://app?vid=7f8c4c25-602c-438f-ae92-13fc33fb00b8","ios":"levelo://app?vid=7f8c4c25-602c-438f-ae92-13fc33fb00b8"},"vehicle_type_id":"4","last_reported":1699016998,"current_range_meters":18000,"station_id":"ce4bgpp2rcd13ifvqc3g","pricing_plan_id":"free"},{"bike_id":"74a81963-7c7b-49db-8056-8f10f35361e9","system_id":"levelo_inurba_marseille","lat":43.298433,"lon":5.362774,"is_reserved":false,"is_disabled":false,"rental_uris":{"android":"levelo://app?vid=74a81963-7c7b-49db-8056-8f10f35361e9","ios":"levelo://app?vid=74a81963-7c7b-49db-8056-8f10f35361e9"},"vehicle_type_id":"4","last_reported":1699016998,"current_range_meters":29200,"station_id":"ce4bgpp2rcd13ifvqc3g","pricing_plan_id":"free"},{"bike_id":"e67b5745-614a-416b-ae6f-4e21c044df23","system_id":"levelo_inurba_marseille","lat":43.298433,"lon":5.362774,"is_reserved":false,"is_disabled":false,"rental_uris":{"android":"levelo://app?vid=e67b5745-614a-416b-ae6f-4e21c044df23","ios":"levelo://app?vid=e67b5745-614a-416b-ae6f-4e21c044df23"},"vehicle_type_id":"4","last_reported":1699016998,"current_range_meters":24000,"station_id":"ce4bgpp2rcd13ifvqc3g","pricing_plan_id":"free"},{"bike_id":"42a5cafe-0301-4fa6-90f4-fe5ce9308bc5","system_id":"levelo_inurba_marseille","lat":43.298433,"lon":5.362774,"is_reserved":false,"is_disabled":false,"rental_uris":{"android":"levelo://app?vid=42a5cafe-0301-4fa6-90f4-fe5ce9308bc5","ios":"levelo://app?vid=42a5cafe-0301-4fa6-90f4-fe5ce9308bc5"},"vehicle_type_id":"4","last_reported":1699016998,"current_range_meters":31200,"station_id":"ce4bgpp2rcd13ifvqc3g","pricing_plan_id":"free"},{"bike_id":"1392af9c-26e0-4b1a-9016-7b1283c583f3","system_id":"levelo_inurba_marseille","lat":43.298433,"lon":5.362774,"is_reserved":false,"is_disabled":false,"rental_uris":{"android":"levelo://app?vid=1392af9c-26e0-4b1a-9016-7b1283c583f3","ios":"levelo://app?vid=1392af9c-26e0-4b1a-9016-7b1283c583f3"},"vehicle_type_id":"4","last_reported":1699016998,"current_range_meters":30000,"station_id":"ce4bgpp2rcd13ifvqc3g","pricing_plan_id":"free"},{"bike_id":"d91c3fb2-b119-4eaf-ab2b-47d112a637fa","system_id":"levelo_inurba_marseille","lat":43.298433,"lon":5.362774,"is_reserved":false,"is_disabled":false,"rental_uris":{"android":"levelo://app?vid=d91c3fb2-b119-4eaf-ab2b-47d112a637fa","ios":"levelo://app?vid=d91c3fb2-b119-4eaf-ab2b-47d112a637fa"},"vehicle_type_id":"4","last_reported":1699016998,"current_range_meters":27200,"station_id":"ce4bgpp2rcd13ifvqc3g","pricing_plan_id":"free"},{"bike_id":"96ae60d2-3181-4c29-a044-3e2f24aa9238","system_id":"levelo_inurba_marseille","lat":43.298433,"lon":5.362774,"is_reserved":false,"is_disabled":false,"rental_uris":{"android":"levelo://app?vid=96ae60d2-3181-4c29-a044-3e2f24aa9238","ios":"levelo://app?vid=96ae60d2-3181-4c29-a044-3e2f24aa9238"},"vehicle_type_id":"4","last_reported":1699016998,"current_range_meters":28800,"station_id":"ce4bgpp2rcd13ifvqc3g","pricing_plan_id":"free"},{"bike_id":"36c28fc5-7583-4448-aef5-bbe6361679ee","system_id":"levelo_inurba_marseille","lat":43.298433,"lon":5.362774,"is_reserved":false,"is_disabled":false,"rental_uris":{"android":"levelo://app?vid=36c28fc5-7583-4448-aef5-bbe6361679ee","ios":"levelo://app?vid=36c28fc5-7583-4448-aef5-bbe6361679ee"},"vehicle_type_id":"4","last_reported":1699016998,"current_range_meters":30400,"station_id":"ce4bgpp2rcd13ifvqc3g","pricing_plan_id":"free"},{"bike_id":"3799375e-b9b3-4767-9cfa-94c9d5374227","system_id":"levelo_inurba_marseille","lat":43.298433,"lon":5.362774,"is_reserved":false,"is_disabled":false,"rental_uris":{"android":"levelo://app?vid=3799375e-b9b3-4767-9cfa-94c9d5374227","ios":"levelo://app?vid=3799375e-b9b3-4767-9cfa-94c9d5374227"},"vehicle_type_id":"4","last_reported":1699016998,"current_range_meters":24400,"station_id":"ce4bgpp2rcd13ifvqc3g","pricing_plan_id":"free"},{"bike_id":"3efb1456-5127-43cd-8624-e69e33447cf5","system_id":"levelo_inurba_marseille","lat":43.298433,"lon":5.362774,"is_reserved":false,"is_disabled":false,"rental_uris":{"android":"levelo://app?vid=3efb1456-5127-43cd-8624-e69e33447cf5","ios":"levelo://app?vid=3efb1456-5127-43cd-8624-e69e33447cf5"},"vehicle_type_id":"4","last_reported":1699016998,"current_range_meters":10800,"station_id":"ce4bgpp2rcd13ifvqc3g","pricing_plan_id":"free"},{"bike_id":"3805640a-e980-4ace-91ee-714ad1610efb","system_id":"levelo_inurba_marseille","lat":43.298433,"lon":5.362774,"is_reserved":false,"is_disabled":false,"rental_uris":{"android":"levelo://app?vid=3805640a-e980-4ace-91ee-714ad1610efb","ios":"levelo://app?vid=3805640a-e980-4ace-91ee-714ad1610efb"},"vehicle_type_id":"4","last_reported":1699016998,"current_range_meters":15600,"station_id":"ce4bgpp2rcd13ifvqc3g","pricing_plan_id":"free"},{"bike_id":"69ab034c-d01d-47d8-8ab9-7b5c3a408df3","system_id":"levelo_inurba_marseille","lat":43.299243,"lon":5.37481,"is_reserved":false,"is_disabled":false,"rental_uris":{"android":"levelo://app?vid=69ab034c-d01d-47d8-8ab9-7b5c3a408df3","ios":"levelo://app?vid=69ab034c-d01d-47d8-8ab9-7b5c3a408df3"},"vehicle_type_id":"4","last_reported":1699016998,"current_range_meters":19200,"station_id":"ce4bgjh2rcd13ifvqbg0","pricing_plan_id":"free"},{"bike_id":"ae1fb769-6ed9-42ab-b0cd-1751b639b040","system_id":"levelo_inurba_marseille","lat":43.298433,"lon":5.362774,"is_reserved":false,"is_disabled":false,"rental_uris":{"android":"levelo://app?vid=ae1fb769-6ed9-42ab-b0cd-1751b639b040","ios":"levelo://app?vid=ae1fb769-6ed9-42ab-b0cd-1751b639b040"},"vehicle_type_id":"4","last_reported":1699016998,"current_range_meters":31600,"station_id":"ce4bgpp2rcd13ifvqc3g","pricing_plan_id":"free"},{"bike_id":"86e8f373-bfec-4e2e-991b-788af0f544b3","system_id":"levelo_inurba_marseille","lat":43.298433,"lon":5.362774,"is_reserved":false,"is_disabled":false,"rental_uris":{"android":"levelo://app?vid=86e8f373-bfec-4e2e-991b-788af0f544b3","ios":"levelo://app?vid=86e8f373-bfec-4e2e-991b-788af0f544b3"},"vehicle_type_id":"4","last_reported":1699016998,"current_range_meters":31200,"station_id":"ce4bgpp2rcd13ifvqc3g","pricing_plan_id":"free"},{"bike_id":"f4181cf9-5491-463a-aeab-3fc2ec32337c","system_id":"levelo_inurba_marseille","lat":43.299243,"lon":5.374807,"is_reserved":false,"is_disabled":false,"rental_uris":{"android":"levelo://app?vid=f4181cf9-5491-463a-aeab-3fc2ec32337c","ios":"levelo://app?vid=f4181cf9-5491-463a-aeab-3fc2ec32337c"},"vehicle_type_id":"4","last_reported":1699016998,"current_range_meters":31600,"station_id":"ce4bgjh2rcd13ifvqbg0","pricing_plan_id":"free"},{"bike_id":"3eda35bf-7176-4afc-a80d-3af09190f36e","system_id":"levelo_inurba_marseille","lat":43.311722,"lon":5.387247,"is_reserved":false,"is_disabled":false,"rental_uris":{"android":"levelo://app?vid=3eda35bf-7176-4afc-a80d-3af09190f36e","ios":"levelo://app?vid=3eda35bf-7176-4afc-a80d-3af09190f36e"},"vehicle_type_id":"4","last_reported":1699016998,"current_range_meters":30000,"station_id":"ce4bgv12rcd13ifvqcp0","pricing_plan_id":"free"},{"bike_id":"5e4721d9-9f2b-4ff5-9b09-5d063cfd6c8e","system_id":"levelo_inurba_marseille","lat":43.311722,"lon":5.387247,"is_reserved":false,"is_disabled":false,"rental_uris":{"android":"levelo://app?vid=5e4721d9-9f2b-4ff5-9b09-5d063cfd6c8e","ios":"levelo://app?vid=5e4721d9-9f2b-4ff5-9b09-5d063cfd6c8e"},"vehicle_type_id":"4","last_reported":1699016998,"current_range_meters":28800,"station_id":"ce4bgv12rcd13ifvqcp0","pricing_plan_id":"free"},{"bike_id":"6f1edc95-a68a-4372-8ba3-aeaa0954342d","system_id":"levelo_inurba_marseille","lat":43.299243,"lon":5.374807,"is_reserved":false,"is_disabled":false,"rental_uris":{"android":"levelo://app?vid=6f1edc95-a68a-4372-8ba3-aeaa0954342d","ios":"levelo://app?vid=6f1edc95-a68a-4372-8ba3-aeaa0954342d"},"vehicle_type_id":"4","last_reported":1699016998,"current_range_meters":6800,"station_id":"ce4bgjh2rcd13ifvqbg0","pricing_plan_id":"free"},{"bike_id":"d9360401-4d3e-4370-87b6-95dbc0b62019","system_id":"levelo_inurba_marseille","lat":43.299243,"lon":5.37481,"is_reserved":false,"is_disabled":false,"rental_uris":{"android":"levelo://app?vid=d9360401-4d3e-4370-87b6-95dbc0b62019","ios":"levelo://app?vid=d9360401-4d3e-4370-87b6-95dbc0b62019"},"vehicle_type_id":"4","last_reported":1699016998,"current_range_meters":31200,"station_id":"ce4bgjh2rcd13ifvqbg0","pricing_plan_id":"free"},{"bike_id":"a90fa80f-51a7-463b-a835-01edf572dfcf","system_id":"levelo_inurba_marseille","lat":43.311722,"lon":5.387247,"is_reserved":false,"is_disabled":false,"rental_uris":{"android":"levelo://app?vid=a90fa80f-51a7-463b-a835-01edf572dfcf","ios":"levelo://app?vid=a90fa80f-51a7-463b-a835-01edf572dfcf"},"vehicle_type_id":"4","last_reported":1699016998,"current_range_meters":20000,"station_id":"ce4bgv12rcd13ifvqcp0","pricing_plan_id":"free"},{"bike_id":"a77151ac-3931-4fdb-9a62-b53b3d76b79c","system_id":"levelo_inurba_marseille","lat":43.311782,"lon":5.387277,"is_reserved":false,"is_disabled":false,"rental_uris":{"android":"levelo://app?vid=a77151ac-3931-4fdb-9a62-b53b3d76b79c","ios":"levelo://app?vid=a77151ac-3931-4fdb-9a62-b53b3d76b79c"},"vehicle_type_id":"4","last_reported":1699016998,"current_range_meters":21200,"station_id":"","pricing_plan_id":"free"},{"bike_id":"ae3f43d0-511d-494f-a4f2-bc4f23ce2ce0","system_id":"levelo_inurba_marseille","lat":43.297794,"lon":5.370888,"is_reserved":false,"is_disabled":false,"rental_uris":{"android":"levelo://app?vid=ae3f43d0-511d-494f-a4f2-bc4f23ce2ce0","ios":"levelo://app?vid=ae3f43d0-511d-494f-a4f2-bc4f23ce2ce0"},"vehicle_type_id":"4","last_reported":1699016998,"current_range_meters":31600,"station_id":"ce4bgop2rcd13ifvqc1g","pricing_plan_id":"free"},{"bike_id":"938bc751-910e-48df-9583-860e636bee7e","system_id":"levelo_inurba_marseille","lat":43.297774,"lon":5.370875,"is_reserved":false,"is_disabled":false,"rental_uris":{"android":"levelo://app?vid=938bc751-910e-48df-9583-860e636bee7e","ios":"levelo://app?vid=938bc751-910e-48df-9583-860e636bee7e"},"vehicle_type_id":"4","last_reported":1699016998,"current_range_meters":23600,"station_id":"ce4bgop2rcd13ifvqc1g","pricing_plan_id":"free"},{"bike_id":"5ebfd27a-eb9e-42d1-8e72-d7a36ba1190e","system_id":"levelo_inurba_marseille","lat":43.297774,"lon":5.370875,"is_reserved":false,"is_disabled":false,"rental_uris":{"android":"levelo://app?vid=5ebfd27a-eb9e-42d1-8e72-d7a36ba1190e","ios":"levelo://app?vid=5ebfd27a-eb9e-42d1-8e72-d7a36ba1190e"},"vehicle_type_id":"4","last_reported":1699016998,"current_range_meters":24000,"station_id":"ce4bgop2rcd13ifvqc1g","pricing_plan_id":"free"},{"bike_id":"f5ccf5c7-2358-4436-a538-76626e591320","system_id":"levelo_inurba_marseille","lat":43.297774,"lon":5.370875,"is_reserved":false,"is_disabled":false,"rental_uris":{"android":"levelo://app?vid=f5ccf5c7-2358-4436-a538-76626e591320","ios":"levelo://app?vid=f5ccf5c7-2358-4436-a538-76626e591320"},"vehicle_type_id":"4","last_reported":1699016998,"current_range_meters":25200,"station_id":"ce4bgop2rcd13ifvqc1g","pricing_plan_id":"free"},{"bike_id":"79f08e6a-4a5c-43f6-9bb9-a81a44d9553b","system_id":"levelo_inurba_marseille","lat":43.297774,"lon":5.370875,"is_reserved":false,"is_disabled":false,"rental_uris":{"android":"levelo://app?vid=79f08e6a-4a5c-43f6-9bb9-a81a44d9553b","ios":"levelo://app?vid=79f08e6a-4a5c-43f6-9bb9-a81a44d9553b"},"vehicle_type_id":"4","last_reported":1699016998,"current_range_meters":11200,"station_id":"ce4bgop2rcd13ifvqc1g","pricing_plan_id":"free"},{"bike_id":"fc297adb-b32b-4a66-a725-795111b1cbfc","system_id":"levelo_inurba_marseille","lat":43.297774,"lon":5.370875,"is_reserved":false,"is_disabled":false,"rental_uris":{"android":"levelo://app?vid=fc297adb-b32b-4a66-a725-795111b1cbfc","ios":"levelo://app?vid=fc297adb-b32b-4a66-a725-795111b1cbfc"},"vehicle_type_id":"4","last_reported":1699016998,"current_range_meters":29600,"station_id":"ce4bgop2rcd13ifvqc1g","pricing_plan_id":"free"},{"bike_id":"e33ed51f-edb8-4186-ae51-477f95893491","system_id":"levelo_inurba_marseille","lat":43.297774,"lon":5.370875,"is_reserved":false,"is_disabled":false,"rental_uris":{"android":"levelo://app?vid=e33ed51f-edb8-4186-ae51-477f95893491","ios":"levelo://app?vid=e33ed51f-edb8-4186-ae51-477f95893491"},"vehicle_type_id":"4","last_reported":1699016998,"current_range_meters":32000,"station_id":"ce4bgop2rcd13ifvqc1g","pricing_plan_id":"free"},{"bike_id":"4b378eeb-6d87-4dce-9e78-ade8c1adff5d","system_id":"levelo_inurba_marseille","lat":43.297794,"lon":5.370888,"is_reserved":false,"is_disabled":false,"rental_uris":{"android":"levelo://app?vid=4b378eeb-6d87-4dce-9e78-ade8c1adff5d","ios":"levelo://app?vid=4b378eeb-6d87-4dce-9e78-ade8c1adff5d"},"vehicle_type_id":"4","last_reported":1699016998,"current_range_meters":10400,"station_id":"ce4bgop2rcd13ifvqc1g","pricing_plan_id":"free"},{"bike_id":"ad46fa55-5265-43b4-9fba-032228a18000","system_id":"levelo_inurba_marseille","lat":43.297794,"lon":5.370888,"is_reserved":false,"is_disabled":false,"rental_uris":{"android":"levelo://app?vid=ad46fa55-5265-43b4-9fba-032228a18000","ios":"levelo://app?vid=ad46fa55-5265-43b4-9fba-032228a18000"},"vehicle_type_id":"4","last_reported":1699016998,"current_range_meters":31600,"station_id":"ce4bgop2rcd13ifvqc1g","pricing_plan_id":"free"},{"bike_id":"c9428514-9197-4976-812b-d61139ef9187","system_id":"levelo_inurba_marseille","lat":43.318846,"lon":5.386473,"is_reserved":false,"is_disabled":false,"rental_uris":{"android":"levelo://app?vid=c9428514-9197-4976-812b-d61139ef9187","ios":"levelo://app?vid=c9428514-9197-4976-812b-d61139ef9187"},"vehicle_type_id":"4","last_reported":1699016998,"current_range_meters":12800,"station_id":"","pricing_plan_id":"free"},{"bike_id":"6bfea9c8-073d-417c-8c4d-58aaba57f679","system_id":"levelo_inurba_marseille","lat":43.32825,"lon":5.36685,"is_reserved":false,"is_disabled":false,"rental_uris":{"android":"levelo://app?vid=6bfea9c8-073d-417c-8c4d-58aaba57f679","ios":"levelo://app?vid=6bfea9c8-073d-417c-8c4d-58aaba57f679"},"vehicle_type_id":"4","last_reported":1699016998,"current_range_meters":18400,"station_id":"ce4bhs92rcd13ifvqi0g","pricing_plan_id":"free"},{"bike_id":"7654d496-15f6-460d-8aaa-7eaa097202e7","system_id":"levelo_inurba_marseille","lat":43.328295,"lon":5.366958,"is_reserved":false,"is_disabled":false,"rental_uris":{"android":"levelo://app?vid=7654d496-15f6-460d-8aaa-7eaa097202e7","ios":"levelo://app?vid=7654d496-15f6-460d-8aaa-7eaa097202e7"},"vehicle_type_id":"4","last_reported":1699016998,"current_range_meters":22000,"station_id":"ce4bhs92rcd13ifvqi0g","pricing_plan_id":"free"},{"bike_id":"7df2b6ae-47d0-436a-a76b-6a3ab3772986","system_id":"levelo_inurba_marseille","lat":43.328371,"lon":5.366909,"is_reserved":false,"is_disabled":false,"rental_uris":{"android":"levelo://app?vid=7df2b6ae-47d0-436a-a76b-6a3ab3772986","ios":"levelo://app?vid=7df2b6ae-47d0-436a-a76b-6a3ab3772986"},"vehicle_type_id":"4","last_reported":1699016998,"current_range_meters":15200,"station_id":"ce4bhs92rcd13ifvqi0g","pricing_plan_id":"free"},{"bike_id":"58b9fbad-3ab1-40ca-a4a3-d5bffbfd659c","system_id":"levelo_inurba_marseille","lat":43.297163,"lon":5.365866,"is_reserved":false,"is_disabled":false,"rental_uris":{"android":"levelo://app?vid=58b9fbad-3ab1-40ca-a4a3-d5bffbfd659c","ios":"levelo://app?vid=58b9fbad-3ab1-40ca-a4a3-d5bffbfd659c"},"vehicle_type_id":"4","last_reported":1699016998,"current_range_meters":24800,"station_id":"ce4bgn12rcd13ifvqbt0","pricing_plan_id":"free"},{"bike_id":"71e47a0a-b228-474d-80fd-7e356a39a5cc","system_id":"levelo_inurba_marseille","lat":43.297163,"lon":5.365866,"is_reserved":false,"is_disabled":false,"rental_uris":{"android":"levelo://app?vid=71e47a0a-b228-474d-80fd-7e356a39a5cc","ios":"levelo://app?vid=71e47a0a-b228-474d-80fd-7e356a39a5cc"},"vehicle_type_id":"4","last_reported":1699016998,"current_range_meters":25200,"station_id":"ce4bgn12rcd13ifvqbt0","pricing_plan_id":"free"},{"bike_id":"d45082e8-0cba-4fb3-a905-eaa10095d21e","system_id":"levelo_inurba_marseille","lat":43.297163,"lon":5.365866,"is_reserved":false,"is_disabled":false,"rental_uris":{"android":"levelo://app?vid=d45082e8-0cba-4fb3-a905-eaa10095d21e","ios":"levelo://app?vid=d45082e8-0cba-4fb3-a905-eaa10095d21e"},"vehicle_type_id":"4","last_reported":1699016998,"current_range_meters":10800,"station_id":"ce4bgn12rcd13ifvqbt0","pricing_plan_id":"free"},{"bike_id":"671fa751-9bb4-47af-a078-683ce4ee5e2f","system_id":"levelo_inurba_marseille","lat":43.320432,"lon":5.385863,"is_reserved":false,"is_disabled":false,"rental_uris":{"android":"levelo://app?vid=671fa751-9bb4-47af-a078-683ce4ee5e2f","ios":"levelo://app?vid=671fa751-9bb4-47af-a078-683ce4ee5e2f"},"vehicle_type_id":"4","last_reported":1699016998,"current_range_meters":5600,"station_id":"","pricing_plan_id":"free"},{"bike_id":"67bb7dbe-50ea-4249-bc98-d0ad4814b4a6","system_id":"levelo_inurba_marseille","lat":43.321453,"lon":5.385595,"is_reserved":false,"is_disabled":false,"rental_uris":{"android":"levelo://app?vid=67bb7dbe-50ea-4249-bc98-d0ad4814b4a6","ios":"levelo://app?vid=67bb7dbe-50ea-4249-bc98-d0ad4814b4a6"},"vehicle_type_id":"4","last_reported":1699016998,"current_range_meters":22800,"station_id":"","pricing_plan_id":"free"},{"bike_id":"ac64cfce-5505-455a-9537-62af5dd3a90a","system_id":"levelo_inurba_marseille","lat":43.32355,"lon":5.38416,"is_reserved":false,"is_disabled":false,"rental_uris":{"android":"levelo://app?vid=ac64cfce-5505-455a-9537-62af5dd3a90a","ios":"levelo://app?vid=ac64cfce-5505-455a-9537-62af5dd3a90a"},"vehicle_type_id":"4","last_reported":1699016998,"current_range_meters":24400,"station_id":"","pricing_plan_id":"free"},{"bike_id":"63233ee7-73f7-4fce-a898-a89656e60c34","system_id":"levelo_inurba_marseille","lat":43.29607,"lon":5.36798,"is_reserved":false,"is_disabled":false,"rental_uris":{"android":"levelo://app?vid=63233ee7-73f7-4fce-a898-a89656e60c34","ios":"levelo://app?vid=63233ee7-73f7-4fce-a898-a89656e60c34"},"vehicle_type_id":"4","last_reported":1699016998,"current_range_meters":26400,"station_id":"ce4bgph2rcd13ifvqc2g","pricing_plan_id":"free"},{"bike_id":"5a3e4389-a6dc-483b-abd6-709292f6e071","system_id":"levelo_inurba_marseille","lat":43.295879,"lon":5.367116,"is_reserved":false,"is_disabled":false,"rental_uris":{"android":"levelo://app?vid=5a3e4389-a6dc-483b-abd6-709292f6e071","ios":"levelo://app?vid=5a3e4389-a6dc-483b-abd6-709292f6e071"},"vehicle_type_id":"4","last_reported":1699016998,"current_range_meters":19200,"station_id":"ce4bgph2rcd13ifvqc2g","pricing_plan_id":"free"},{"bike_id":"5b6fd9ff-4e81-4160-b828-4c986f582cee","system_id":"levelo_inurba_marseille","lat":43.296131,"lon":5.370791,"is_reserved":false,"is_disabled":false,"rental_uris":{"android":"levelo://app?vid=5b6fd9ff-4e81-4160-b828-4c986f582cee","ios":"levelo://app?vid=5b6fd9ff-4e81-4160-b828-4c986f582cee"},"vehicle_type_id":"4","last_reported":1699016998,"current_range_meters":30800,"station_id":"ce4bgnh2rcd13ifvqc0g","pricing_plan_id":"free"},{"bike_id":"770aa8b0-74e4-477c-8cc4-fd5d552902a6","system_id":"levelo_inurba_marseille","lat":43.321356,"lon":5.386887,"is_reserved":false,"is_disabled":false,"rental_uris":{"android":"levelo://app?vid=770aa8b0-74e4-477c-8cc4-fd5d552902a6","ios":"levelo://app?vid=770aa8b0-74e4-477c-8cc4-fd5d552902a6"},"vehicle_type_id":"4","last_reported":1699016998,"current_range_meters":10800,"station_id":"","pricing_plan_id":"free"},{"bike_id":"43042b12-cdd0-4648-a030-9df2d357b9d4","system_id":"levelo_inurba_marseille","lat":43.296131,"lon":5.370773,"is_reserved":false,"is_disabled":false,"rental_uris":{"android":"levelo://app?vid=43042b12-cdd0-4648-a030-9df2d357b9d4","ios":"levelo://app?vid=43042b12-cdd0-4648-a030-9df2d357b9d4"},"vehicle_type_id":"4","last_reported":1699016998,"current_range_meters":30000,"station_id":"ce4bgnh2rcd13ifvqc0g","pricing_plan_id":"free"},{"bike_id":"1cdcb5e6-214c-4762-9546-6222175f10e7","system_id":"levelo_inurba_marseille","lat":43.29584,"lon":5.367357,"is_reserved":false,"is_disabled":false,"rental_uris":{"android":"levelo://app?vid=1cdcb5e6-214c-4762-9546-6222175f10e7","ios":"levelo://app?vid=1cdcb5e6-214c-4762-9546-6222175f10e7"},"vehicle_type_id":"4","last_reported":1699016998,"current_range_meters":26000,"station_id":"ce4bgph2rcd13ifvqc2g","pricing_plan_id":"free"},{"bike_id":"0bdbba7a-e5c7-4c43-a13f-25b1be7872d9","system_id":"levelo_inurba_marseille","lat":43.29583,"lon":5.36739,"is_reserved":false,"is_disabled":false,"rental_uris":{"android":"levelo://app?vid=0bdbba7a-e5c7-4c43-a13f-25b1be7872d9","ios":"levelo://app?vid=0bdbba7a-e5c7-4c43-a13f-25b1be7872d9"},"vehicle_type_id":"4","last_reported":1699016998,"current_range_meters":23600,"station_id":"ce4bgph2rcd13ifvqc2g","pricing_plan_id":"free"},{"bike_id":"efd49251-3155-4ae1-959b-3dbe1b8f8577","system_id":"levelo_inurba_marseille","lat":43.298731,"lon":5.380002,"is_reserved":false,"is_disabled":false,"rental_uris":{"android":"levelo://app?vid=efd49251-3155-4ae1-959b-3dbe1b8f8577","ios":"levelo://app?vid=efd49251-3155-4ae1-959b-3dbe1b8f8577"},"vehicle_type_id":"4","last_reported":1699016998,"current_range_meters":22000,"station_id":"","pricing_plan_id":"free"},{"bike_id":"f7a96ed2-d5fc-46e4-991b-d220b5c9a3f6","system_id":"levelo_inurba_marseille","lat":43.2958,"lon":5.36741,"is_reserved":false,"is_disabled":false,"rental_uris":{"android":"levelo://app?vid=f7a96ed2-d5fc-46e4-991b-d220b5c9a3f6","ios":"levelo://app?vid=f7a96ed2-d5fc-46e4-991b-d220b5c9a3f6"},"vehicle_type_id":"4","last_reported":1699016998,"current_range_meters":28800,"station_id":"ce4bgph2rcd13ifvqc2g","pricing_plan_id":"free"},{"bike_id":"5c228cb5-5e0d-4435-9efb-9a70d765a8c9","system_id":"levelo_inurba_marseille","lat":43.29579,"lon":5.36745,"is_reserved":false,"is_disabled":false,"rental_uris":{"android":"levelo://app?vid=5c228cb5-5e0d-4435-9efb-9a70d765a8c9","ios":"levelo://app?vid=5c228cb5-5e0d-4435-9efb-9a70d765a8c9"},"vehicle_type_id":"4","last_reported":1699016998,"current_range_meters":28000,"station_id":"ce4bgph2rcd13ifvqc2g","pricing_plan_id":"free"},{"bike_id":"f4e87dce-6b17-4491-81c5-ca31e500562a","system_id":"levelo_inurba_marseille","lat":43.29578,"lon":5.36738,"is_reserved":false,"is_disabled":false,"rental_uris":{"android":"levelo://app?vid=f4e87dce-6b17-4491-81c5-ca31e500562a","ios":"levelo://app?vid=f4e87dce-6b17-4491-81c5-ca31e500562a"},"vehicle_type_id":"4","last_reported":1699016998,"current_range_meters":5600,"station_id":"ce4bgph2rcd13ifvqc2g","pricing_plan_id":"free"},{"bike_id":"52c95a27-974d-479c-8de3-8cdd6cda5a26","system_id":"levelo_inurba_marseille","lat":43.29578,"lon":5.36747,"is_reserved":false,"is_disabled":false,"rental_uris":{"android":"levelo://app?vid=52c95a27-974d-479c-8de3-8cdd6cda5a26","ios":"levelo://app?vid=52c95a27-974d-479c-8de3-8cdd6cda5a26"},"vehicle_type_id":"4","last_reported":1699016998,"current_range_meters":25600,"station_id":"ce4bgph2rcd13ifvqc2g","pricing_plan_id":"free"},{"bike_id":"b085fbdc-73ff-4d1a-8394-5180663b00f0","system_id":"levelo_inurba_marseille","lat":43.29577,"lon":5.367341,"is_reserved":false,"is_disabled":false,"rental_uris":{"android":"levelo://app?vid=b085fbdc-73ff-4d1a-8394-5180663b00f0","ios":"levelo://app?vid=b085fbdc-73ff-4d1a-8394-5180663b00f0"},"vehicle_type_id":"4","last_reported":1699016998,"current_range_meters":29600,"station_id":"ce4bgph2rcd13ifvqc2g","pricing_plan_id":"free"},{"bike_id":"0d383a3e-2cdc-443e-8b65-c972b7387de6","system_id":"levelo_inurba_marseille","lat":43.296935,"lon":5.376544,"is_reserved":false,"is_disabled":false,"rental_uris":{"android":"levelo://app?vid=0d383a3e-2cdc-443e-8b65-c972b7387de6","ios":"levelo://app?vid=0d383a3e-2cdc-443e-8b65-c972b7387de6"},"vehicle_type_id":"4","last_reported":1699016998,"current_range_meters":23600,"station_id":"ce4bgkh2rcd13ifvqbl0","pricing_plan_id":"free"},{"bike_id":"e1d48d64-b187-4b9e-88ff-0d6b3fa229e4","system_id":"levelo_inurba_marseille","lat":43.297268,"lon":5.376845,"is_reserved":false,"is_disabled":false,"rental_uris":{"android":"levelo://app?vid=e1d48d64-b187-4b9e-88ff-0d6b3fa229e4","ios":"levelo://app?vid=e1d48d64-b187-4b9e-88ff-0d6b3fa229e4"},"vehicle_type_id":"4","last_reported":1699016998,"current_range_meters":26800,"station_id":"ce4bgkh2rcd13ifvqbl0","pricing_plan_id":"free"},{"bike_id":"0ffdd57e-8021-4ba4-b5e4-2dd290b90d3c","system_id":"levelo_inurba_marseille","lat":43.29724,"lon":5.37699,"is_reserved":false,"is_disabled":false,"rental_uris":{"android":"levelo://app?vid=0ffdd57e-8021-4ba4-b5e4-2dd290b90d3c","ios":"levelo://app?vid=0ffdd57e-8021-4ba4-b5e4-2dd290b90d3c"},"vehicle_type_id":"4","last_reported":1699016998,"current_range_meters":18400,"station_id":"ce4bgkh2rcd13ifvqbl0","pricing_plan_id":"free"},{"bike_id":"9854f471-8217-4fde-b8fa-ca2cbbf45db3","system_id":"levelo_inurba_marseille","lat":43.296935,"lon":5.376544,"is_reserved":false,"is_disabled":false,"rental_uris":{"android":"levelo://app?vid=9854f471-8217-4fde-b8fa-ca2cbbf45db3","ios":"levelo://app?vid=9854f471-8217-4fde-b8fa-ca2cbbf45db3"},"vehicle_type_id":"4","last_reported":1699016998,"current_range_meters":23600,"station_id":"ce4bgkh2rcd13ifvqbl0","pricing_plan_id":"free"},{"bike_id":"e69bca4d-d3db-4493-b548-4300e621f340","system_id":"levelo_inurba_marseille","lat":43.29717,"lon":5.37703,"is_reserved":false,"is_disabled":false,"rental_uris":{"android":"levelo://app?vid=e69bca4d-d3db-4493-b548-4300e621f340","ios":"levelo://app?vid=e69bca4d-d3db-4493-b548-4300e621f340"},"vehicle_type_id":"4","last_reported":1699016998,"current_range_meters":21200,"station_id":"ce4bgkh2rcd13ifvqbl0","pricing_plan_id":"free"},{"bike_id":"5411774c-f5b7-4449-a1d8-2f430ce441b1","system_id":"levelo_inurba_marseille","lat":43.29712,"lon":5.37698,"is_reserved":false,"is_disabled":false,"rental_uris":{"android":"levelo://app?vid=5411774c-f5b7-4449-a1d8-2f430ce441b1","ios":"levelo://app?vid=5411774c-f5b7-4449-a1d8-2f430ce441b1"},"vehicle_type_id":"4","last_reported":1699016998,"current_range_meters":15600,"station_id":"ce4bgkh2rcd13ifvqbl0","pricing_plan_id":"free"},{"bike_id":"05abf457-c781-4aac-9560-58310b46d28d","system_id":"levelo_inurba_marseille","lat":43.309589,"lon":5.390258,"is_reserved":false,"is_disabled":false,"rental_uris":{"android":"levelo://app?vid=05abf457-c781-4aac-9560-58310b46d28d","ios":"levelo://app?vid=05abf457-c781-4aac-9560-58310b46d28d"},"vehicle_type_id":"4","last_reported":1699016998,"current_range_meters":24800,"station_id":"ce4bgup2rcd13ifvqco0","pricing_plan_id":"free"},{"bike_id":"624ceb63-da25-407b-b0ec-bf8748ad21f9","system_id":"levelo_inurba_marseille","lat":43.309589,"lon":5.390258,"is_reserved":false,"is_disabled":false,"rental_uris":{"android":"levelo://app?vid=624ceb63-da25-407b-b0ec-bf8748ad21f9","ios":"levelo://app?vid=624ceb63-da25-407b-b0ec-bf8748ad21f9"},"vehicle_type_id":"4","last_reported":1699016998,"current_range_meters":0,"station_id":"ce4bgup2rcd13ifvqco0","pricing_plan_id":"free"},{"bike_id":"e1617315-de5c-482d-b5d6-7c8e5cdb9895","system_id":"levelo_inurba_marseille","lat":43.30961,"lon":5.39026,"is_reserved":false,"is_disabled":false,"rental_uris":{"android":"levelo://app?vid=e1617315-de5c-482d-b5d6-7c8e5cdb9895","ios":"levelo://app?vid=e1617315-de5c-482d-b5d6-7c8e5cdb9895"},"vehicle_type_id":"4","last_reported":1699016998,"current_range_meters":0,"station_id":"ce4bgup2rcd13ifvqco0","pricing_plan_id":"free"},{"bike_id":"ecd3a435-bcf1-4e5c-a9aa-d12e128a080b","system_id":"levelo_inurba_marseille","lat":43.296921,"lon":5.376579,"is_reserved":false,"is_disabled":false,"rental_uris":{"android":"levelo://app?vid=ecd3a435-bcf1-4e5c-a9aa-d12e128a080b","ios":"levelo://app?vid=ecd3a435-bcf1-4e5c-a9aa-d12e128a080b"},"vehicle_type_id":"4","last_reported":1699016998,"current_range_meters":30000,"station_id":"ce4bgkh2rcd13ifvqbl0","pricing_plan_id":"free"},{"bike_id":"3490064b-5aaa-4373-b0dc-8988537076d6","system_id":"levelo_inurba_marseille","lat":43.309589,"lon":5.390258,"is_reserved":false,"is_disabled":false,"rental_uris":{"android":"levelo://app?vid=3490064b-5aaa-4373-b0dc-8988537076d6","ios":"levelo://app?vid=3490064b-5aaa-4373-b0dc-8988537076d6"},"vehicle_type_id":"4","last_reported":1699016998,"current_range_meters":11600,"station_id":"ce4bgup2rcd13ifvqco0","pricing_plan_id":"free"},{"bike_id":"478dc627-4cea-4996-a5dc-c88e022a4295","system_id":"levelo_inurba_marseille","lat":43.309589,"lon":5.390258,"is_reserved":false,"is_disabled":false,"rental_uris":{"android":"levelo://app?vid=478dc627-4cea-4996-a5dc-c88e022a4295","ios":"levelo://app?vid=478dc627-4cea-4996-a5dc-c88e022a4295"},"vehicle_type_id":"4","last_reported":1699016998,"current_range_meters":29200,"station_id":"ce4bgup2rcd13ifvqco0","pricing_plan_id":"free"},{"bike_id":"0ffee7b0-8b76-4a8d-ab7f-454a81f815df","system_id":"levelo_inurba_marseille","lat":43.309589,"lon":5.390258,"is_reserved":false,"is_disabled":false,"rental_uris":{"android":"levelo://app?vid=0ffee7b0-8b76-4a8d-ab7f-454a81f815df","ios":"levelo://app?vid=0ffee7b0-8b76-4a8d-ab7f-454a81f815df"},"vehicle_type_id":"4","last_reported":1699016998,"current_range_meters":9600,"station_id":"ce4bgup2rcd13ifvqco0","pricing_plan_id":"free"},{"bike_id":"d7127997-bea9-4749-835d-05491819e22d","system_id":"levelo_inurba_marseille","lat":43.309589,"lon":5.390258,"is_reserved":false,"is_disabled":false,"rental_uris":{"android":"levelo://app?vid=d7127997-bea9-4749-835d-05491819e22d","ios":"levelo://app?vid=d7127997-bea9-4749-835d-05491819e22d"},"vehicle_type_id":"4","last_reported":1699016998,"current_range_meters":15600,"station_id":"ce4bgup2rcd13ifvqco0","pricing_plan_id":"free"},{"bike_id":"8b7418c6-c83f-440f-ad4e-4b94bc5596dd","system_id":"levelo_inurba_marseille","lat":43.309589,"lon":5.390258,"is_reserved":false,"is_disabled":false,"rental_uris":{"android":"levelo://app?vid=8b7418c6-c83f-440f-ad4e-4b94bc5596dd","ios":"levelo://app?vid=8b7418c6-c83f-440f-ad4e-4b94bc5596dd"},"vehicle_type_id":"4","last_reported":1699016998,"current_range_meters":27200,"station_id":"ce4bgup2rcd13ifvqco0","pricing_plan_id":"free"},{"bike_id":"1c0d5655-f0da-47e9-90fa-23d68f22e099","system_id":"levelo_inurba_marseille","lat":43.309589,"lon":5.390258,"is_reserved":false,"is_disabled":false,"rental_uris":{"android":"levelo://app?vid=1c0d5655-f0da-47e9-90fa-23d68f22e099","ios":"levelo://app?vid=1c0d5655-f0da-47e9-90fa-23d68f22e099"},"vehicle_type_id":"4","last_reported":1699016998,"current_range_meters":30800,"station_id":"ce4bgup2rcd13ifvqco0","pricing_plan_id":"free"},{"bike_id":"9766a47b-1d75-4af0-977d-f4f8b8af4324","system_id":"levelo_inurba_marseille","lat":43.309589,"lon":5.390258,"is_reserved":false,"is_disabled":false,"rental_uris":{"android":"levelo://app?vid=9766a47b-1d75-4af0-977d-f4f8b8af4324","ios":"levelo://app?vid=9766a47b-1d75-4af0-977d-f4f8b8af4324"},"vehicle_type_id":"4","last_reported":1699016998,"current_range_meters":20400,"station_id":"ce4bgup2rcd13ifvqco0","pricing_plan_id":"free"},{"bike_id":"3db0f6a9-32a5-4163-9c84-a45c7a81b184","system_id":"levelo_inurba_marseille","lat":43.309589,"lon":5.390258,"is_reserved":false,"is_disabled":false,"rental_uris":{"android":"levelo://app?vid=3db0f6a9-32a5-4163-9c84-a45c7a81b184","ios":"levelo://app?vid=3db0f6a9-32a5-4163-9c84-a45c7a81b184"},"vehicle_type_id":"4","last_reported":1699016998,"current_range_meters":14800,"station_id":"ce4bgup2rcd13ifvqco0","pricing_plan_id":"free"},{"bike_id":"760122de-3e12-4c12-bac0-961c197ec3ef","system_id":"levelo_inurba_marseille","lat":43.309589,"lon":5.390258,"is_reserved":false,"is_disabled":false,"rental_uris":{"android":"levelo://app?vid=760122de-3e12-4c12-bac0-961c197ec3ef","ios":"levelo://app?vid=760122de-3e12-4c12-bac0-961c197ec3ef"},"vehicle_type_id":"4","last_reported":1699016998,"current_range_meters":19200,"station_id":"ce4bgup2rcd13ifvqco0","pricing_plan_id":"free"},{"bike_id":"4345d155-a919-48a3-bd70-c18e44cb0761","system_id":"levelo_inurba_marseille","lat":43.309589,"lon":5.390258,"is_reserved":false,"is_disabled":false,"rental_uris":{"android":"levelo://app?vid=4345d155-a919-48a3-bd70-c18e44cb0761","ios":"levelo://app?vid=4345d155-a919-48a3-bd70-c18e44cb0761"},"vehicle_type_id":"4","last_reported":1699016998,"current_range_meters":32000,"station_id":"ce4bgup2rcd13ifvqco0","pricing_plan_id":"free"},{"bike_id":"f12b3c3a-feec-41ba-8a40-054410e732f0","system_id":"levelo_inurba_marseille","lat":43.3176,"lon":5.39018,"is_reserved":false,"is_disabled":false,"rental_uris":{"android":"levelo://app?vid=f12b3c3a-feec-41ba-8a40-054410e732f0","ios":"levelo://app?vid=f12b3c3a-feec-41ba-8a40-054410e732f0"},"vehicle_type_id":"4","last_reported":1699016998,"current_range_meters":22000,"station_id":"ce4bhqp2rcd13ifvqhng","pricing_plan_id":"free"},{"bike_id":"409b85c9-d93a-4a6e-a024-1bbc276d4609","system_id":"levelo_inurba_marseille","lat":43.298037,"lon":5.381066,"is_reserved":false,"is_disabled":false,"rental_uris":{"android":"levelo://app?vid=409b85c9-d93a-4a6e-a024-1bbc276d4609","ios":"levelo://app?vid=409b85c9-d93a-4a6e-a024-1bbc276d4609"},"vehicle_type_id":"4","last_reported":1699016998,"current_range_meters":1200,"station_id":"ce4bgip2rcd13ifvqbb0","pricing_plan_id":"free"},{"bike_id":"0a41095b-1824-4439-be98-aba276fd759e","system_id":"levelo_inurba_marseille","lat":43.295745,"lon":5.374989,"is_reserved":false,"is_disabled":false,"rental_uris":{"android":"levelo://app?vid=0a41095b-1824-4439-be98-aba276fd759e","ios":"levelo://app?vid=0a41095b-1824-4439-be98-aba276fd759e"},"vehicle_type_id":"4","last_reported":1699016998,"current_range_meters":24000,"station_id":"ce4bgh92rcd13ifvqb50","pricing_plan_id":"free"},{"bike_id":"1dde3a62-0283-477e-99e1-dcc581615361","system_id":"levelo_inurba_marseille","lat":43.297923,"lon":5.380944,"is_reserved":false,"is_disabled":false,"rental_uris":{"android":"levelo://app?vid=1dde3a62-0283-477e-99e1-dcc581615361","ios":"levelo://app?vid=1dde3a62-0283-477e-99e1-dcc581615361"},"vehicle_type_id":"4","last_reported":1699016998,"current_range_meters":0,"station_id":"ce4bgip2rcd13ifvqbb0","pricing_plan_id":"free"},{"bike_id":"b97e2d71-30f3-4351-8f3c-efb278566870","system_id":"levelo_inurba_marseille","lat":43.295748,"lon":5.37522,"is_reserved":false,"is_disabled":false,"rental_uris":{"android":"levelo://app?vid=b97e2d71-30f3-4351-8f3c-efb278566870","ios":"levelo://app?vid=b97e2d71-30f3-4351-8f3c-efb278566870"},"vehicle_type_id":"4","last_reported":1699016998,"current_range_meters":31600,"station_id":"ce4bgh92rcd13ifvqb50","pricing_plan_id":"free"},{"bike_id":"2687d498-7193-4a59-b820-d752db413fb6","system_id":"levelo_inurba_marseille","lat":43.295748,"lon":5.37522,"is_reserved":false,"is_disabled":false,"rental_uris":{"android":"levelo://app?vid=2687d498-7193-4a59-b820-d752db413fb6","ios":"levelo://app?vid=2687d498-7193-4a59-b820-d752db413fb6"},"vehicle_type_id":"4","last_reported":1699016998,"current_range_meters":30800,"station_id":"ce4bgh92rcd13ifvqb50","pricing_plan_id":"free"},{"bike_id":"2ffb1139-90af-4754-88fd-169dae7fe603","system_id":"levelo_inurba_marseille","lat":43.295748,"lon":5.37522,"is_reserved":false,"is_disabled":false,"rental_uris":{"android":"levelo://app?vid=2ffb1139-90af-4754-88fd-169dae7fe603","ios":"levelo://app?vid=2ffb1139-90af-4754-88fd-169dae7fe603"},"vehicle_type_id":"4","last_reported":1699016998,"current_range_meters":28000,"station_id":"ce4bgh92rcd13ifvqb50","pricing_plan_id":"free"},{"bike_id":"8ffaf024-cd6e-406c-91d5-58ee333c3fcc","system_id":"levelo_inurba_marseille","lat":43.295748,"lon":5.37522,"is_reserved":false,"is_disabled":false,"rental_uris":{"android":"levelo://app?vid=8ffaf024-cd6e-406c-91d5-58ee333c3fcc","ios":"levelo://app?vid=8ffaf024-cd6e-406c-91d5-58ee333c3fcc"},"vehicle_type_id":"4","last_reported":1699016998,"current_range_meters":10800,"station_id":"ce4bgh92rcd13ifvqb50","pricing_plan_id":"free"},{"bike_id":"1e2e75fc-d609-416e-bb75-a9154851ec0a","system_id":"levelo_inurba_marseille","lat":43.295748,"lon":5.37522,"is_reserved":false,"is_disabled":false,"rental_uris":{"android":"levelo://app?vid=1e2e75fc-d609-416e-bb75-a9154851ec0a","ios":"levelo://app?vid=1e2e75fc-d609-416e-bb75-a9154851ec0a"},"vehicle_type_id":"4","last_reported":1699016998,"current_range_meters":23200,"station_id":"ce4bgh92rcd13ifvqb50","pricing_plan_id":"free"},{"bike_id":"574f7aab-49e8-43d7-bbd7-842e3bb58e20","system_id":"levelo_inurba_marseille","lat":43.298037,"lon":5.381066,"is_reserved":false,"is_disabled":false,"rental_uris":{"android":"levelo://app?vid=574f7aab-49e8-43d7-bbd7-842e3bb58e20","ios":"levelo://app?vid=574f7aab-49e8-43d7-bbd7-842e3bb58e20"},"vehicle_type_id":"4","last_reported":1699016998,"current_range_meters":30000,"station_id":"ce4bgip2rcd13ifvqbb0","pricing_plan_id":"free"},{"bike_id":"d37ecaa1-30ef-40d1-b122-7b996a29c3e0","system_id":"levelo_inurba_marseille","lat":43.295748,"lon":5.37522,"is_reserved":false,"is_disabled":false,"rental_uris":{"android":"levelo://app?vid=d37ecaa1-30ef-40d1-b122-7b996a29c3e0","ios":"levelo://app?vid=d37ecaa1-30ef-40d1-b122-7b996a29c3e0"},"vehicle_type_id":"4","last_reported":1699016998,"current_range_meters":31600,"station_id":"ce4bgh92rcd13ifvqb50","pricing_plan_id":"free"},{"bike_id":"41599778-83d0-4926-a67e-402845cf555a","system_id":"levelo_inurba_marseille","lat":43.295748,"lon":5.37522,"is_reserved":false,"is_disabled":false,"rental_uris":{"android":"levelo://app?vid=41599778-83d0-4926-a67e-402845cf555a","ios":"levelo://app?vid=41599778-83d0-4926-a67e-402845cf555a"},"vehicle_type_id":"4","last_reported":1699016998,"current_range_meters":22400,"station_id":"ce4bgh92rcd13ifvqb50","pricing_plan_id":"free"},{"bike_id":"8dc71877-2627-4da3-92f0-fe8fe73b0426","system_id":"levelo_inurba_marseille","lat":43.296238,"lon":5.377179,"is_reserved":false,"is_disabled":false,"rental_uris":{"android":"levelo://app?vid=8dc71877-2627-4da3-92f0-fe8fe73b0426","ios":"levelo://app?vid=8dc71877-2627-4da3-92f0-fe8fe73b0426"},"vehicle_type_id":"4","last_reported":1699016998,"current_range_meters":20000,"station_id":"ce4bgh92rcd13ifvqb50","pricing_plan_id":"free"},{"bike_id":"5fed5561-53ef-49f2-8ecf-8b0821f44c53","system_id":"levelo_inurba_marseille","lat":43.295748,"lon":5.37522,"is_reserved":false,"is_disabled":false,"rental_uris":{"android":"levelo://app?vid=5fed5561-53ef-49f2-8ecf-8b0821f44c53","ios":"levelo://app?vid=5fed5561-53ef-49f2-8ecf-8b0821f44c53"},"vehicle_type_id":"4","last_reported":1699016998,"current_range_meters":28000,"station_id":"ce4bgh92rcd13ifvqb50","pricing_plan_id":"free"},{"bike_id":"f40f2a13-4435-46c6-a4ce-46e3067d31ba","system_id":"levelo_inurba_marseille","lat":43.296188,"lon":5.37716,"is_reserved":false,"is_disabled":false,"rental_uris":{"android":"levelo://app?vid=f40f2a13-4435-46c6-a4ce-46e3067d31ba","ios":"levelo://app?vid=f40f2a13-4435-46c6-a4ce-46e3067d31ba"},"vehicle_type_id":"4","last_reported":1699016998,"current_range_meters":31200,"station_id":"ce4bgi92rcd13ifvqb90","pricing_plan_id":"free"},{"bike_id":"92cd7f46-5380-4063-9f6b-efff98256ade","system_id":"levelo_inurba_marseille","lat":43.295748,"lon":5.37522,"is_reserved":false,"is_disabled":false,"rental_uris":{"android":"levelo://app?vid=92cd7f46-5380-4063-9f6b-efff98256ade","ios":"levelo://app?vid=92cd7f46-5380-4063-9f6b-efff98256ade"},"vehicle_type_id":"4","last_reported":1699016998,"current_range_meters":18000,"station_id":"ce4bgh92rcd13ifvqb50","pricing_plan_id":"free"},{"bike_id":"0398dbcb-9b77-4612-9f2b-3f3330f8b571","system_id":"levelo_inurba_marseille","lat":43.29608,"lon":5.37726,"is_reserved":false,"is_disabled":false,"rental_uris":{"android":"levelo://app?vid=0398dbcb-9b77-4612-9f2b-3f3330f8b571","ios":"levelo://app?vid=0398dbcb-9b77-4612-9f2b-3f3330f8b571"},"vehicle_type_id":"4","last_reported":1699016998,"current_range_meters":28800,"station_id":"ce4bgi92rcd13ifvqb90","pricing_plan_id":"free"},{"bike_id":"c6625974-6046-454e-b52e-71f05e6dca67","system_id":"levelo_inurba_marseille","lat":43.29539,"lon":5.37503,"is_reserved":false,"is_disabled":false,"rental_uris":{"android":"levelo://app?vid=c6625974-6046-454e-b52e-71f05e6dca67","ios":"levelo://app?vid=c6625974-6046-454e-b52e-71f05e6dca67"},"vehicle_type_id":"4","last_reported":1699016998,"current_range_meters":14400,"station_id":"ce4bgkp2rcd13ifvqbmg","pricing_plan_id":"free"},{"bike_id":"dd7af24d-8225-44aa-8180-de83d7b18f9b","system_id":"levelo_inurba_marseille","lat":43.295283,"lon":5.374985,"is_reserved":false,"is_disabled":false,"rental_uris":{"android":"levelo://app?vid=dd7af24d-8225-44aa-8180-de83d7b18f9b","ios":"levelo://app?vid=dd7af24d-8225-44aa-8180-de83d7b18f9b"},"vehicle_type_id":"4","last_reported":1699016998,"current_range_meters":20800,"station_id":"ce4bgkp2rcd13ifvqbmg","pricing_plan_id":"free"},{"bike_id":"6deada4b-7287-4009-899d-5f8928c039ce","system_id":"levelo_inurba_marseille","lat":43.29528,"lon":5.37502,"is_reserved":false,"is_disabled":false,"rental_uris":{"android":"levelo://app?vid=6deada4b-7287-4009-899d-5f8928c039ce","ios":"levelo://app?vid=6deada4b-7287-4009-899d-5f8928c039ce"},"vehicle_type_id":"4","last_reported":1699016998,"current_range_meters":30000,"station_id":"","pricing_plan_id":"free"},{"bike_id":"aa594897-6150-442d-99d3-9f49d3dd16b3","system_id":"levelo_inurba_marseille","lat":43.29523,"lon":5.374965,"is_reserved":false,"is_disabled":false,"rental_uris":{"android":"levelo://app?vid=aa594897-6150-442d-99d3-9f49d3dd16b3","ios":"levelo://app?vid=aa594897-6150-442d-99d3-9f49d3dd16b3"},"vehicle_type_id":"4","last_reported":1699016998,"current_range_meters":24400,"station_id":"ce4bgkp2rcd13ifvqbmg","pricing_plan_id":"free"},{"bike_id":"31729335-c502-4bfb-873b-45b188f0d138","system_id":"levelo_inurba_marseille","lat":43.29967,"lon":5.3849,"is_reserved":false,"is_disabled":false,"rental_uris":{"android":"levelo://app?vid=31729335-c502-4bfb-873b-45b188f0d138","ios":"levelo://app?vid=31729335-c502-4bfb-873b-45b188f0d138"},"vehicle_type_id":"4","last_reported":1699016998,"current_range_meters":4400,"station_id":"ce4bgj92rcd13ifvqbd0","pricing_plan_id":"free"},{"bike_id":"7b96ea25-3e6b-42ad-8fba-e20bd6a1d151","system_id":"levelo_inurba_marseille","lat":43.299724,"lon":5.384848,"is_reserved":false,"is_disabled":false,"rental_uris":{"android":"levelo://app?vid=7b96ea25-3e6b-42ad-8fba-e20bd6a1d151","ios":"levelo://app?vid=7b96ea25-3e6b-42ad-8fba-e20bd6a1d151"},"vehicle_type_id":"4","last_reported":1699016998,"current_range_meters":25600,"station_id":"ce4bgj92rcd13ifvqbd0","pricing_plan_id":"free"},{"bike_id":"547a7cfc-5b52-446d-9105-ee3d3597290f","system_id":"levelo_inurba_marseille","lat":43.328493,"lon":5.380444,"is_reserved":false,"is_disabled":false,"rental_uris":{"android":"levelo://app?vid=547a7cfc-5b52-446d-9105-ee3d3597290f","ios":"levelo://app?vid=547a7cfc-5b52-446d-9105-ee3d3597290f"},"vehicle_type_id":"4","last_reported":1699016998,"current_range_meters":24400,"station_id":"ce4bhqp2rcd13ifvqhog","pricing_plan_id":"free"},{"bike_id":"e10fe103-05c1-4dd7-8765-64aea8c0911b","system_id":"levelo_inurba_marseille","lat":43.29962,"lon":5.38503,"is_reserved":false,"is_disabled":false,"rental_uris":{"android":"levelo://app?vid=e10fe103-05c1-4dd7-8765-64aea8c0911b","ios":"levelo://app?vid=e10fe103-05c1-4dd7-8765-64aea8c0911b"},"vehicle_type_id":"4","last_reported":1699016998,"current_range_meters":26000,"station_id":"ce4bgj92rcd13ifvqbd0","pricing_plan_id":"free"},{"bike_id":"433664d0-f26e-47e1-ac6c-0cbf02d38407","system_id":"levelo_inurba_marseille","lat":43.295279,"lon":5.375048,"is_reserved":false,"is_disabled":false,"rental_uris":{"android":"levelo://app?vid=433664d0-f26e-47e1-ac6c-0cbf02d38407","ios":"levelo://app?vid=433664d0-f26e-47e1-ac6c-0cbf02d38407"},"vehicle_type_id":"4","last_reported":1699016998,"current_range_meters":22400,"station_id":"ce4bgkp2rcd13ifvqbmg","pricing_plan_id":"free"},{"bike_id":"1f580447-7b2c-4630-9a51-33e28281b372","system_id":"levelo_inurba_marseille","lat":43.329065,"lon":5.379814,"is_reserved":false,"is_disabled":false,"rental_uris":{"android":"levelo://app?vid=1f580447-7b2c-4630-9a51-33e28281b372","ios":"levelo://app?vid=1f580447-7b2c-4630-9a51-33e28281b372"},"vehicle_type_id":"4","last_reported":1699016998,"current_range_meters":19600,"station_id":"","pricing_plan_id":"free"},{"bike_id":"eab5d605-eaca-4660-a5fd-3fd2b2fdfd03","system_id":"levelo_inurba_marseille","lat":43.29476,"lon":5.37582,"is_reserved":false,"is_disabled":false,"rental_uris":{"android":"levelo://app?vid=eab5d605-eaca-4660-a5fd-3fd2b2fdfd03","ios":"levelo://app?vid=eab5d605-eaca-4660-a5fd-3fd2b2fdfd03"},"vehicle_type_id":"4","last_reported":1699016998,"current_range_meters":3600,"station_id":"","pricing_plan_id":"free"},{"bike_id":"642fb53d-6ca3-4e98-bc5c-4d2ce12da826","system_id":"levelo_inurba_marseille","lat":43.292799,"lon":5.368502,"is_reserved":false,"is_disabled":false,"rental_uris":{"android":"levelo://app?vid=642fb53d-6ca3-4e98-bc5c-4d2ce12da826","ios":"levelo://app?vid=642fb53d-6ca3-4e98-bc5c-4d2ce12da826"},"vehicle_type_id":"4","last_reported":1699016998,"current_range_meters":20400,"station_id":"","pricing_plan_id":"free"},{"bike_id":"253f802e-78f8-4edd-b051-cb4a6645cdca","system_id":"levelo_inurba_marseille","lat":43.293259,"lon":5.371586,"is_reserved":false,"is_disabled":false,"rental_uris":{"android":"levelo://app?vid=253f802e-78f8-4edd-b051-cb4a6645cdca","ios":"levelo://app?vid=253f802e-78f8-4edd-b051-cb4a6645cdca"},"vehicle_type_id":"4","last_reported":1699016998,"current_range_meters":23600,"station_id":"ce4bgh92rcd13ifvqb40","pricing_plan_id":"free"},{"bike_id":"bcc53501-cade-4b20-bb34-04d5da29c900","system_id":"levelo_inurba_marseille","lat":43.293259,"lon":5.371586,"is_reserved":false,"is_disabled":false,"rental_uris":{"android":"levelo://app?vid=bcc53501-cade-4b20-bb34-04d5da29c900","ios":"levelo://app?vid=bcc53501-cade-4b20-bb34-04d5da29c900"},"vehicle_type_id":"4","last_reported":1699016998,"current_range_meters":29200,"station_id":"ce4bgh92rcd13ifvqb40","pricing_plan_id":"free"},{"bike_id":"76077485-baba-480b-8b8c-74c3a80d666f","system_id":"levelo_inurba_marseille","lat":43.293259,"lon":5.371586,"is_reserved":false,"is_disabled":false,"rental_uris":{"android":"levelo://app?vid=76077485-baba-480b-8b8c-74c3a80d666f","ios":"levelo://app?vid=76077485-baba-480b-8b8c-74c3a80d666f"},"vehicle_type_id":"4","last_reported":1699016998,"current_range_meters":31600,"station_id":"ce4bgh92rcd13ifvqb40","pricing_plan_id":"free"},{"bike_id":"51835dfd-da4c-4243-81b6-b7e84226ab2c","system_id":"levelo_inurba_marseille","lat":43.293033,"lon":5.374369,"is_reserved":false,"is_disabled":false,"rental_uris":{"android":"levelo://app?vid=51835dfd-da4c-4243-81b6-b7e84226ab2c","ios":"levelo://app?vid=51835dfd-da4c-4243-81b6-b7e84226ab2c"},"vehicle_type_id":"4","last_reported":1699016998,"current_range_meters":14400,"station_id":"ce4bgi12rcd13ifvqb70","pricing_plan_id":"free"},{"bike_id":"fed63ffb-ac3e-4a50-8e75-8889d354f5a2","system_id":"levelo_inurba_marseille","lat":43.305994,"lon":5.393687,"is_reserved":false,"is_disabled":false,"rental_uris":{"android":"levelo://app?vid=fed63ffb-ac3e-4a50-8e75-8889d354f5a2","ios":"levelo://app?vid=fed63ffb-ac3e-4a50-8e75-8889d354f5a2"},"vehicle_type_id":"4","last_reported":1699016998,"current_range_meters":8800,"station_id":"ce4bh0p2rcd13ifvqd80","pricing_plan_id":"free"},{"bike_id":"95b38f76-361d-45af-93a5-4380100f8206","system_id":"levelo_inurba_marseille","lat":43.305994,"lon":5.393687,"is_reserved":false,"is_disabled":false,"rental_uris":{"android":"levelo://app?vid=95b38f76-361d-45af-93a5-4380100f8206","ios":"levelo://app?vid=95b38f76-361d-45af-93a5-4380100f8206"},"vehicle_type_id":"4","last_reported":1699016998,"current_range_meters":31600,"station_id":"ce4bh0p2rcd13ifvqd80","pricing_plan_id":"free"},{"bike_id":"412f6a52-69b2-437f-8df9-4c01f0a8489d","system_id":"levelo_inurba_marseille","lat":43.305994,"lon":5.393687,"is_reserved":false,"is_disabled":false,"rental_uris":{"android":"levelo://app?vid=412f6a52-69b2-437f-8df9-4c01f0a8489d","ios":"levelo://app?vid=412f6a52-69b2-437f-8df9-4c01f0a8489d"},"vehicle_type_id":"4","last_reported":1699016998,"current_range_meters":28000,"station_id":"ce4bh0p2rcd13ifvqd80","pricing_plan_id":"free"},{"bike_id":"9f92988f-fc12-4edd-b9df-aa7d614d1733","system_id":"levelo_inurba_marseille","lat":43.293009,"lon":5.374584,"is_reserved":false,"is_disabled":false,"rental_uris":{"android":"levelo://app?vid=9f92988f-fc12-4edd-b9df-aa7d614d1733","ios":"levelo://app?vid=9f92988f-fc12-4edd-b9df-aa7d614d1733"},"vehicle_type_id":"4","last_reported":1699016998,"current_range_meters":2400,"station_id":"ce4bgi12rcd13ifvqb70","pricing_plan_id":"free"},{"bike_id":"c355dd72-f5af-4ce7-a303-f6cee870417c","system_id":"levelo_inurba_marseille","lat":43.293633,"lon":5.378423,"is_reserved":false,"is_disabled":false,"rental_uris":{"android":"levelo://app?vid=c355dd72-f5af-4ce7-a303-f6cee870417c","ios":"levelo://app?vid=c355dd72-f5af-4ce7-a303-f6cee870417c"},"vehicle_type_id":"4","last_reported":1699016998,"current_range_meters":21200,"station_id":"","pricing_plan_id":"free"},{"bike_id":"5d071b63-5d69-44ee-af0a-da286dc157c1","system_id":"levelo_inurba_marseille","lat":43.292311,"lon":5.360731,"is_reserved":false,"is_disabled":false,"rental_uris":{"android":"levelo://app?vid=5d071b63-5d69-44ee-af0a-da286dc157c1","ios":"levelo://app?vid=5d071b63-5d69-44ee-af0a-da286dc157c1"},"vehicle_type_id":"4","last_reported":1699016998,"current_range_meters":10800,"station_id":"ce4bhbh2rcd13ifvqeqg","pricing_plan_id":"free"},{"bike_id":"6c5e3d38-c563-467d-a9d2-15e94af4b0d3","system_id":"levelo_inurba_marseille","lat":43.292311,"lon":5.360731,"is_reserved":false,"is_disabled":false,"rental_uris":{"android":"levelo://app?vid=6c5e3d38-c563-467d-a9d2-15e94af4b0d3","ios":"levelo://app?vid=6c5e3d38-c563-467d-a9d2-15e94af4b0d3"},"vehicle_type_id":"4","last_reported":1699016998,"current_range_meters":21600,"station_id":"ce4bhbh2rcd13ifvqeqg","pricing_plan_id":"free"},{"bike_id":"ecd5fcfb-e675-41c4-803e-df009ca85e60","system_id":"levelo_inurba_marseille","lat":43.309793,"lon":5.395495,"is_reserved":false,"is_disabled":false,"rental_uris":{"android":"levelo://app?vid=ecd5fcfb-e675-41c4-803e-df009ca85e60","ios":"levelo://app?vid=ecd5fcfb-e675-41c4-803e-df009ca85e60"},"vehicle_type_id":"4","last_reported":1699016998,"current_range_meters":18400,"station_id":"","pricing_plan_id":"free"},{"bike_id":"1b445fd4-1b80-4738-9507-f15326547357","system_id":"levelo_inurba_marseille","lat":43.292311,"lon":5.360731,"is_reserved":false,"is_disabled":false,"rental_uris":{"android":"levelo://app?vid=1b445fd4-1b80-4738-9507-f15326547357","ios":"levelo://app?vid=1b445fd4-1b80-4738-9507-f15326547357"},"vehicle_type_id":"4","last_reported":1699016998,"current_range_meters":9600,"station_id":"ce4bhbh2rcd13ifvqeqg","pricing_plan_id":"free"},{"bike_id":"4155fabb-cf91-4081-9bdb-15516be299e1","system_id":"levelo_inurba_marseille","lat":43.292311,"lon":5.360731,"is_reserved":false,"is_disabled":false,"rental_uris":{"android":"levelo://app?vid=4155fabb-cf91-4081-9bdb-15516be299e1","ios":"levelo://app?vid=4155fabb-cf91-4081-9bdb-15516be299e1"},"vehicle_type_id":"4","last_reported":1699016998,"current_range_meters":26400,"station_id":"ce4bhbh2rcd13ifvqeqg","pricing_plan_id":"free"},{"bike_id":"1575422b-f99f-4525-ab00-681f712b3765","system_id":"levelo_inurba_marseille","lat":43.333047,"lon":5.359521,"is_reserved":false,"is_disabled":false,"rental_uris":{"android":"levelo://app?vid=1575422b-f99f-4525-ab00-681f712b3765","ios":"levelo://app?vid=1575422b-f99f-4525-ab00-681f712b3765"},"vehicle_type_id":"4","last_reported":1699016998,"current_range_meters":11600,"station_id":"","pricing_plan_id":"free"},{"bike_id":"d797f1e6-f3ca-4ad7-8b56-5ed6191da53c","system_id":"levelo_inurba_marseille","lat":43.292598,"lon":5.376124,"is_reserved":false,"is_disabled":false,"rental_uris":{"android":"levelo://app?vid=d797f1e6-f3ca-4ad7-8b56-5ed6191da53c","ios":"levelo://app?vid=d797f1e6-f3ca-4ad7-8b56-5ed6191da53c"},"vehicle_type_id":"4","last_reported":1699016998,"current_range_meters":31200,"station_id":"ce4bgi12rcd13ifvqb80","pricing_plan_id":"free"},{"bike_id":"74fc8d48-a40f-477d-878a-8f162c0b24dd","system_id":"levelo_inurba_marseille","lat":43.291675,"lon":5.371583,"is_reserved":false,"is_disabled":false,"rental_uris":{"android":"levelo://app?vid=74fc8d48-a40f-477d-878a-8f162c0b24dd","ios":"levelo://app?vid=74fc8d48-a40f-477d-878a-8f162c0b24dd"},"vehicle_type_id":"4","last_reported":1699016998,"current_range_meters":32000,"station_id":"ce4bha92rcd13ifvqeh0","pricing_plan_id":"free"},{"bike_id":"0e8233d2-0d57-470f-8c07-e9f753046a4f","system_id":"levelo_inurba_marseille","lat":43.33217,"lon":5.3788,"is_reserved":false,"is_disabled":false,"rental_uris":{"android":"levelo://app?vid=0e8233d2-0d57-470f-8c07-e9f753046a4f","ios":"levelo://app?vid=0e8233d2-0d57-470f-8c07-e9f753046a4f"},"vehicle_type_id":"4","last_reported":1699016998,"current_range_meters":16800,"station_id":"","pricing_plan_id":"free"},{"bike_id":"345cd725-e48b-4d33-9df8-57fa65986905","system_id":"levelo_inurba_marseille","lat":43.291675,"lon":5.371583,"is_reserved":false,"is_disabled":false,"rental_uris":{"android":"levelo://app?vid=345cd725-e48b-4d33-9df8-57fa65986905","ios":"levelo://app?vid=345cd725-e48b-4d33-9df8-57fa65986905"},"vehicle_type_id":"4","last_reported":1699016998,"current_range_meters":26400,"station_id":"ce4bha92rcd13ifvqeh0","pricing_plan_id":"free"},{"bike_id":"9f6f2d51-7511-4b74-84e0-452dfabc5774","system_id":"levelo_inurba_marseille","lat":43.291671,"lon":5.371575,"is_reserved":false,"is_disabled":false,"rental_uris":{"android":"levelo://app?vid=9f6f2d51-7511-4b74-84e0-452dfabc5774","ios":"levelo://app?vid=9f6f2d51-7511-4b74-84e0-452dfabc5774"},"vehicle_type_id":"4","last_reported":1699016998,"current_range_meters":31200,"station_id":"ce4bha92rcd13ifvqeh0","pricing_plan_id":"free"},{"bike_id":"8f27e9de-a6b8-44dd-bd29-72befbf1d242","system_id":"levelo_inurba_marseille","lat":43.29253,"lon":5.3762,"is_reserved":false,"is_disabled":false,"rental_uris":{"android":"levelo://app?vid=8f27e9de-a6b8-44dd-bd29-72befbf1d242","ios":"levelo://app?vid=8f27e9de-a6b8-44dd-bd29-72befbf1d242"},"vehicle_type_id":"4","last_reported":1699016998,"current_range_meters":29600,"station_id":"ce4bgi12rcd13ifvqb80","pricing_plan_id":"free"},{"bike_id":"30c475f3-350d-45db-b5d3-9d2488356887","system_id":"levelo_inurba_marseille","lat":43.291671,"lon":5.371575,"is_reserved":false,"is_disabled":false,"rental_uris":{"android":"levelo://app?vid=30c475f3-350d-45db-b5d3-9d2488356887","ios":"levelo://app?vid=30c475f3-350d-45db-b5d3-9d2488356887"},"vehicle_type_id":"4","last_reported":1699016998,"current_range_meters":29200,"station_id":"ce4bha92rcd13ifvqeh0","pricing_plan_id":"free"},{"bike_id":"65dbb0c5-312f-4528-a4b1-754245a49ade","system_id":"levelo_inurba_marseille","lat":43.29878,"lon":5.3891,"is_reserved":false,"is_disabled":false,"rental_uris":{"android":"levelo://app?vid=65dbb0c5-312f-4528-a4b1-754245a49ade","ios":"levelo://app?vid=65dbb0c5-312f-4528-a4b1-754245a49ade"},"vehicle_type_id":"4","last_reported":1699016998,"current_range_meters":22000,"station_id":"ce4bh392rcd13ifvqdl0","pricing_plan_id":"free"},{"bike_id":"274025af-5c55-4a14-ac7e-42b2b1ee0b4c","system_id":"levelo_inurba_marseille","lat":43.309038,"lon":5.396546,"is_reserved":false,"is_disabled":false,"rental_uris":{"android":"levelo://app?vid=274025af-5c55-4a14-ac7e-42b2b1ee0b4c","ios":"levelo://app?vid=274025af-5c55-4a14-ac7e-42b2b1ee0b4c"},"vehicle_type_id":"4","last_reported":1699016998,"current_range_meters":18400,"station_id":"ce4bh012rcd13ifvqcv0","pricing_plan_id":"free"},{"bike_id":"6f87e969-f8ce-4ee6-ae42-797d6440dafd","system_id":"levelo_inurba_marseille","lat":43.327561,"lon":5.391165,"is_reserved":false,"is_disabled":false,"rental_uris":{"android":"levelo://app?vid=6f87e969-f8ce-4ee6-ae42-797d6440dafd","ios":"levelo://app?vid=6f87e969-f8ce-4ee6-ae42-797d6440dafd"},"vehicle_type_id":"4","last_reported":1699016998,"current_range_meters":22000,"station_id":"","pricing_plan_id":"free"},{"bike_id":"2167a50c-06f5-4832-9bd1-eb74fe4395e4","system_id":"levelo_inurba_marseille","lat":43.290631,"lon":5.359244,"is_reserved":false,"is_disabled":false,"rental_uris":{"android":"levelo://app?vid=2167a50c-06f5-4832-9bd1-eb74fe4395e4","ios":"levelo://app?vid=2167a50c-06f5-4832-9bd1-eb74fe4395e4"},"vehicle_type_id":"4","last_reported":1699016998,"current_range_meters":28400,"station_id":"ce4bha92rcd13ifvqeg0","pricing_plan_id":"free"},{"bike_id":"f7bfce03-da60-48bb-9c45-c38f34896a06","system_id":"levelo_inurba_marseille","lat":43.290327,"lon":5.375711,"is_reserved":false,"is_disabled":false,"rental_uris":{"android":"levelo://app?vid=f7bfce03-da60-48bb-9c45-c38f34896a06","ios":"levelo://app?vid=f7bfce03-da60-48bb-9c45-c38f34896a06"},"vehicle_type_id":"4","last_reported":1699016998,"current_range_meters":18400,"station_id":"ce4bh692rcd13ifvqe90","pricing_plan_id":"free"},{"bike_id":"659802be-cea2-4ceb-ac93-2d41822fa13c","system_id":"levelo_inurba_marseille","lat":43.290327,"lon":5.375711,"is_reserved":false,"is_disabled":false,"rental_uris":{"android":"levelo://app?vid=659802be-cea2-4ceb-ac93-2d41822fa13c","ios":"levelo://app?vid=659802be-cea2-4ceb-ac93-2d41822fa13c"},"vehicle_type_id":"4","last_reported":1699016998,"current_range_meters":26800,"station_id":"ce4bh692rcd13ifvqe90","pricing_plan_id":"free"},{"bike_id":"5b6b73fa-9a65-4e72-817a-4272ea41eaec","system_id":"levelo_inurba_marseille","lat":43.290327,"lon":5.375711,"is_reserved":false,"is_disabled":false,"rental_uris":{"android":"levelo://app?vid=5b6b73fa-9a65-4e72-817a-4272ea41eaec","ios":"levelo://app?vid=5b6b73fa-9a65-4e72-817a-4272ea41eaec"},"vehicle_type_id":"4","last_reported":1699016998,"current_range_meters":29200,"station_id":"ce4bh692rcd13ifvqe90","pricing_plan_id":"free"},{"bike_id":"03c065a9-48b2-4ab4-9857-6855fd5dee59","system_id":"levelo_inurba_marseille","lat":43.289468,"lon":5.363719,"is_reserved":false,"is_disabled":false,"rental_uris":{"android":"levelo://app?vid=03c065a9-48b2-4ab4-9857-6855fd5dee59","ios":"levelo://app?vid=03c065a9-48b2-4ab4-9857-6855fd5dee59"},"vehicle_type_id":"4","last_reported":1699016998,"current_range_meters":12400,"station_id":"ce4bhc92rcd13ifvqetg","pricing_plan_id":"free"},{"bike_id":"12d97002-e04f-4375-85e8-593c61897015","system_id":"levelo_inurba_marseille","lat":43.304274,"lon":5.397513,"is_reserved":false,"is_disabled":false,"rental_uris":{"android":"levelo://app?vid=12d97002-e04f-4375-85e8-593c61897015","ios":"levelo://app?vid=12d97002-e04f-4375-85e8-593c61897015"},"vehicle_type_id":"4","last_reported":1699016998,"current_range_meters":28000,"station_id":"ce4bh092rcd13ifvqd20","pricing_plan_id":"free"},{"bike_id":"7265f2a5-45fc-4341-9e46-88de9b469d9a","system_id":"levelo_inurba_marseille","lat":43.304286,"lon":5.39744,"is_reserved":false,"is_disabled":false,"rental_uris":{"android":"levelo://app?vid=7265f2a5-45fc-4341-9e46-88de9b469d9a","ios":"levelo://app?vid=7265f2a5-45fc-4341-9e46-88de9b469d9a"},"vehicle_type_id":"4","last_reported":1699016998,"current_range_meters":16000,"station_id":"ce4bh092rcd13ifvqd20","pricing_plan_id":"free"},{"bike_id":"2d50d637-e747-458a-80b5-e3c0ccc7db77","system_id":"levelo_inurba_marseille","lat":43.292642,"lon":5.384254,"is_reserved":false,"is_disabled":false,"rental_uris":{"android":"levelo://app?vid=2d50d637-e747-458a-80b5-e3c0ccc7db77","ios":"levelo://app?vid=2d50d637-e747-458a-80b5-e3c0ccc7db77"},"vehicle_type_id":"4","last_reported":1699016998,"current_range_meters":25600,"station_id":"ce4bh692rcd13ifvqea0","pricing_plan_id":"free"},{"bike_id":"cde7fd40-2932-4760-a5a9-5cc2cbd4ba0b","system_id":"levelo_inurba_marseille","lat":43.304285,"lon":5.397516,"is_reserved":false,"is_disabled":false,"rental_uris":{"android":"levelo://app?vid=cde7fd40-2932-4760-a5a9-5cc2cbd4ba0b","ios":"levelo://app?vid=cde7fd40-2932-4760-a5a9-5cc2cbd4ba0b"},"vehicle_type_id":"4","last_reported":1699016998,"current_range_meters":18800,"station_id":"ce4bh092rcd13ifvqd20","pricing_plan_id":"free"},{"bike_id":"b99faa9c-2616-473a-9b0d-efc62c918dec","system_id":"levelo_inurba_marseille","lat":43.292644,"lon":5.384257,"is_reserved":false,"is_disabled":false,"rental_uris":{"android":"levelo://app?vid=b99faa9c-2616-473a-9b0d-efc62c918dec","ios":"levelo://app?vid=b99faa9c-2616-473a-9b0d-efc62c918dec"},"vehicle_type_id":"4","last_reported":1699016998,"current_range_meters":29600,"station_id":"ce4bh692rcd13ifvqea0","pricing_plan_id":"free"},{"bike_id":"bb9f6a0a-b05f-4f2c-9175-51ad3c1b4396","system_id":"levelo_inurba_marseille","lat":43.29007,"lon":5.35619,"is_reserved":false,"is_disabled":false,"rental_uris":{"android":"levelo://app?vid=bb9f6a0a-b05f-4f2c-9175-51ad3c1b4396","ios":"levelo://app?vid=bb9f6a0a-b05f-4f2c-9175-51ad3c1b4396"},"vehicle_type_id":"4","last_reported":1699016998,"current_range_meters":25200,"station_id":"ce4bhb92rcd13ifvqen0","pricing_plan_id":"free"},{"bike_id":"91618e36-701c-43a7-99b5-49372192a225","system_id":"levelo_inurba_marseille","lat":43.290104,"lon":5.356111,"is_reserved":false,"is_disabled":false,"rental_uris":{"android":"levelo://app?vid=91618e36-701c-43a7-99b5-49372192a225","ios":"levelo://app?vid=91618e36-701c-43a7-99b5-49372192a225"},"vehicle_type_id":"4","last_reported":1699016998,"current_range_meters":26400,"station_id":"ce4bhb92rcd13ifvqen0","pricing_plan_id":"free"},{"bike_id":"ce1d6a83-a28f-45cb-b0a9-11c9ff70cdee","system_id":"levelo_inurba_marseille","lat":43.290104,"lon":5.356111,"is_reserved":false,"is_disabled":false,"rental_uris":{"android":"levelo://app?vid=ce1d6a83-a28f-45cb-b0a9-11c9ff70cdee","ios":"levelo://app?vid=ce1d6a83-a28f-45cb-b0a9-11c9ff70cdee"},"vehicle_type_id":"4","last_reported":1699016998,"current_range_meters":28400,"station_id":"ce4bhb92rcd13ifvqen0","pricing_plan_id":"free"},{"bike_id":"4fb445ea-edeb-413e-a3d7-d74182d96d6c","system_id":"levelo_inurba_marseille","lat":43.290104,"lon":5.356111,"is_reserved":false,"is_disabled":false,"rental_uris":{"android":"levelo://app?vid=4fb445ea-edeb-413e-a3d7-d74182d96d6c","ios":"levelo://app?vid=4fb445ea-edeb-413e-a3d7-d74182d96d6c"},"vehicle_type_id":"4","last_reported":1699016998,"current_range_meters":31600,"station_id":"ce4bhb92rcd13ifvqen0","pricing_plan_id":"free"},{"bike_id":"67c752e3-6f50-47a5-85e7-a4b81c52042e","system_id":"levelo_inurba_marseille","lat":43.290103,"lon":5.356114,"is_reserved":false,"is_disabled":false,"rental_uris":{"android":"levelo://app?vid=67c752e3-6f50-47a5-85e7-a4b81c52042e","ios":"levelo://app?vid=67c752e3-6f50-47a5-85e7-a4b81c52042e"},"vehicle_type_id":"4","last_reported":1699016998,"current_range_meters":21600,"station_id":"ce4bhb92rcd13ifvqen0","pricing_plan_id":"free"},{"bike_id":"e0d713cd-ec81-44ec-8ba4-571dd76a2b05","system_id":"levelo_inurba_marseille","lat":43.295169,"lon":5.390426,"is_reserved":false,"is_disabled":false,"rental_uris":{"android":"levelo://app?vid=e0d713cd-ec81-44ec-8ba4-571dd76a2b05","ios":"levelo://app?vid=e0d713cd-ec81-44ec-8ba4-571dd76a2b05"},"vehicle_type_id":"4","last_reported":1699016998,"current_range_meters":5200,"station_id":"ce4bh3p2rcd13ifvqdp0","pricing_plan_id":"free"},{"bike_id":"6c570e44-3e77-4a01-92fc-47d90a56ce6d","system_id":"levelo_inurba_marseille","lat":43.289741,"lon":5.378306,"is_reserved":false,"is_disabled":false,"rental_uris":{"android":"levelo://app?vid=6c570e44-3e77-4a01-92fc-47d90a56ce6d","ios":"levelo://app?vid=6c570e44-3e77-4a01-92fc-47d90a56ce6d"},"vehicle_type_id":"4","last_reported":1699016998,"current_range_meters":17200,"station_id":"ce4bh9p2rcd13ifvqed0","pricing_plan_id":"free"},{"bike_id":"d53d5d36-7166-435d-b5f2-abbdee5e81d0","system_id":"levelo_inurba_marseille","lat":43.295169,"lon":5.390426,"is_reserved":false,"is_disabled":false,"rental_uris":{"android":"levelo://app?vid=d53d5d36-7166-435d-b5f2-abbdee5e81d0","ios":"levelo://app?vid=d53d5d36-7166-435d-b5f2-abbdee5e81d0"},"vehicle_type_id":"4","last_reported":1699016998,"current_range_meters":31600,"station_id":"ce4bh3p2rcd13ifvqdp0","pricing_plan_id":"free"},{"bike_id":"d508637d-de28-4b1e-9e37-c448024f352c","system_id":"levelo_inurba_marseille","lat":43.289743,"lon":5.378304,"is_reserved":false,"is_disabled":false,"rental_uris":{"android":"levelo://app?vid=d508637d-de28-4b1e-9e37-c448024f352c","ios":"levelo://app?vid=d508637d-de28-4b1e-9e37-c448024f352c"},"vehicle_type_id":"4","last_reported":1699016998,"current_range_meters":8400,"station_id":"ce4bh9p2rcd13ifvqed0","pricing_plan_id":"free"},{"bike_id":"80fcbd75-fb4f-42e7-a79b-f03dd91e0076","system_id":"levelo_inurba_marseille","lat":43.295169,"lon":5.390426,"is_reserved":false,"is_disabled":false,"rental_uris":{"android":"levelo://app?vid=80fcbd75-fb4f-42e7-a79b-f03dd91e0076","ios":"levelo://app?vid=80fcbd75-fb4f-42e7-a79b-f03dd91e0076"},"vehicle_type_id":"4","last_reported":1699016998,"current_range_meters":20400,"station_id":"ce4bh3p2rcd13ifvqdp0","pricing_plan_id":"free"},{"bike_id":"afca7e08-dc06-442b-95ab-9e04d7b7eec7","system_id":"levelo_inurba_marseille","lat":43.295169,"lon":5.390426,"is_reserved":false,"is_disabled":false,"rental_uris":{"android":"levelo://app?vid=afca7e08-dc06-442b-95ab-9e04d7b7eec7","ios":"levelo://app?vid=afca7e08-dc06-442b-95ab-9e04d7b7eec7"},"vehicle_type_id":"4","last_reported":1699016998,"current_range_meters":16000,"station_id":"ce4bh3p2rcd13ifvqdp0","pricing_plan_id":"free"},{"bike_id":"894f2b1a-449c-4c37-bdbf-40d12475d753","system_id":"levelo_inurba_marseille","lat":43.28856,"lon":5.358371,"is_reserved":false,"is_disabled":false,"rental_uris":{"android":"levelo://app?vid=894f2b1a-449c-4c37-bdbf-40d12475d753","ios":"levelo://app?vid=894f2b1a-449c-4c37-bdbf-40d12475d753"},"vehicle_type_id":"4","last_reported":1699016998,"current_range_meters":16000,"station_id":"ce4bhb12rcd13ifvqem0","pricing_plan_id":"free"},{"bike_id":"961b4eb7-9885-4c5a-8d98-c8cf10050ae4","system_id":"levelo_inurba_marseille","lat":43.28856,"lon":5.358371,"is_reserved":false,"is_disabled":false,"rental_uris":{"android":"levelo://app?vid=961b4eb7-9885-4c5a-8d98-c8cf10050ae4","ios":"levelo://app?vid=961b4eb7-9885-4c5a-8d98-c8cf10050ae4"},"vehicle_type_id":"4","last_reported":1699016998,"current_range_meters":7600,"station_id":"ce4bhb12rcd13ifvqem0","pricing_plan_id":"free"},{"bike_id":"117ff4c2-0337-480b-801f-9dc2ca3255a3","system_id":"levelo_inurba_marseille","lat":43.28856,"lon":5.358371,"is_reserved":false,"is_disabled":false,"rental_uris":{"android":"levelo://app?vid=117ff4c2-0337-480b-801f-9dc2ca3255a3","ios":"levelo://app?vid=117ff4c2-0337-480b-801f-9dc2ca3255a3"},"vehicle_type_id":"4","last_reported":1699016998,"current_range_meters":22800,"station_id":"ce4bhb12rcd13ifvqem0","pricing_plan_id":"free"},{"bike_id":"82127f32-7ca2-49eb-8906-e35b299b401a","system_id":"levelo_inurba_marseille","lat":43.28856,"lon":5.358371,"is_reserved":false,"is_disabled":false,"rental_uris":{"android":"levelo://app?vid=82127f32-7ca2-49eb-8906-e35b299b401a","ios":"levelo://app?vid=82127f32-7ca2-49eb-8906-e35b299b401a"},"vehicle_type_id":"4","last_reported":1699016998,"current_range_meters":4400,"station_id":"ce4bhb12rcd13ifvqem0","pricing_plan_id":"free"},{"bike_id":"81dc158a-1060-4e9e-80ec-c25ca8056ed2","system_id":"levelo_inurba_marseille","lat":43.30932,"lon":5.4014,"is_reserved":false,"is_disabled":false,"rental_uris":{"android":"levelo://app?vid=81dc158a-1060-4e9e-80ec-c25ca8056ed2","ios":"levelo://app?vid=81dc158a-1060-4e9e-80ec-c25ca8056ed2"},"vehicle_type_id":"4","last_reported":1699016998,"current_range_meters":23200,"station_id":"ce4bgvp2rcd13ifvqct0","pricing_plan_id":"free"},{"bike_id":"fa3f3f06-63b9-4f54-ae4e-f39e3b282d47","system_id":"levelo_inurba_marseille","lat":43.30928,"lon":5.4014,"is_reserved":false,"is_disabled":false,"rental_uris":{"android":"levelo://app?vid=fa3f3f06-63b9-4f54-ae4e-f39e3b282d47","ios":"levelo://app?vid=fa3f3f06-63b9-4f54-ae4e-f39e3b282d47"},"vehicle_type_id":"4","last_reported":1699016998,"current_range_meters":6000,"station_id":"ce4bgvp2rcd13ifvqct0","pricing_plan_id":"free"},{"bike_id":"f2754890-d1df-4829-9f03-14b3ba8dce2d","system_id":"levelo_inurba_marseille","lat":43.33746,"lon":5.37451,"is_reserved":false,"is_disabled":false,"rental_uris":{"android":"levelo://app?vid=f2754890-d1df-4829-9f03-14b3ba8dce2d","ios":"levelo://app?vid=f2754890-d1df-4829-9f03-14b3ba8dce2d"},"vehicle_type_id":"4","last_reported":1699016998,"current_range_meters":26000,"station_id":"","pricing_plan_id":"free"},{"bike_id":"c7b76ec8-a4c7-452b-8be0-33019aa46b11","system_id":"levelo_inurba_marseille","lat":43.33746,"lon":5.37475,"is_reserved":false,"is_disabled":false,"rental_uris":{"android":"levelo://app?vid=c7b76ec8-a4c7-452b-8be0-33019aa46b11","ios":"levelo://app?vid=c7b76ec8-a4c7-452b-8be0-33019aa46b11"},"vehicle_type_id":"4","last_reported":1699016998,"current_range_meters":26400,"station_id":"","pricing_plan_id":"free"},{"bike_id":"31797f37-4970-494a-bcf8-ba15a600764e","system_id":"levelo_inurba_marseille","lat":43.30642,"lon":5.401031,"is_reserved":false,"is_disabled":false,"rental_uris":{"android":"levelo://app?vid=31797f37-4970-494a-bcf8-ba15a600764e","ios":"levelo://app?vid=31797f37-4970-494a-bcf8-ba15a600764e"},"vehicle_type_id":"4","last_reported":1699016998,"current_range_meters":31600,"station_id":"ce4bh112rcd13ifvqda0","pricing_plan_id":"free"},{"bike_id":"3c572c3f-cc4c-4d3a-a0f0-73ed1ad39fef","system_id":"levelo_inurba_marseille","lat":43.33031,"lon":5.392311,"is_reserved":false,"is_disabled":false,"rental_uris":{"android":"levelo://app?vid=3c572c3f-cc4c-4d3a-a0f0-73ed1ad39fef","ios":"levelo://app?vid=3c572c3f-cc4c-4d3a-a0f0-73ed1ad39fef"},"vehicle_type_id":"4","last_reported":1699016998,"current_range_meters":13200,"station_id":"","pricing_plan_id":"free"},{"bike_id":"8491e08e-6966-4aab-ba75-fdbbab2f286e","system_id":"levelo_inurba_marseille","lat":43.330308,"lon":5.392461,"is_reserved":false,"is_disabled":false,"rental_uris":{"android":"levelo://app?vid=8491e08e-6966-4aab-ba75-fdbbab2f286e","ios":"levelo://app?vid=8491e08e-6966-4aab-ba75-fdbbab2f286e"},"vehicle_type_id":"4","last_reported":1699016998,"current_range_meters":9600,"station_id":"","pricing_plan_id":"free"},{"bike_id":"b01f4b35-ba8d-4299-a000-59e9e70d47cb","system_id":"levelo_inurba_marseille","lat":43.30642,"lon":5.401031,"is_reserved":false,"is_disabled":false,"rental_uris":{"android":"levelo://app?vid=b01f4b35-ba8d-4299-a000-59e9e70d47cb","ios":"levelo://app?vid=b01f4b35-ba8d-4299-a000-59e9e70d47cb"},"vehicle_type_id":"4","last_reported":1699016998,"current_range_meters":28400,"station_id":"ce4bh112rcd13ifvqda0","pricing_plan_id":"free"},{"bike_id":"9a85db96-304c-4853-a5d4-4e4d2990a72e","system_id":"levelo_inurba_marseille","lat":43.301117,"lon":5.398795,"is_reserved":false,"is_disabled":false,"rental_uris":{"android":"levelo://app?vid=9a85db96-304c-4853-a5d4-4e4d2990a72e","ios":"levelo://app?vid=9a85db96-304c-4853-a5d4-4e4d2990a72e"},"vehicle_type_id":"4","last_reported":1699016998,"current_range_meters":22400,"station_id":"ce4bh0h2rcd13ifvqd40","pricing_plan_id":"free"},{"bike_id":"8d40306a-8c45-4a15-9902-3221a5c2ce18","system_id":"levelo_inurba_marseille","lat":43.298681,"lon":5.397225,"is_reserved":false,"is_disabled":false,"rental_uris":{"android":"levelo://app?vid=8d40306a-8c45-4a15-9902-3221a5c2ce18","ios":"levelo://app?vid=8d40306a-8c45-4a15-9902-3221a5c2ce18"},"vehicle_type_id":"4","last_reported":1699016998,"current_range_meters":21200,"station_id":"ce4bh0h2rcd13ifvqd50","pricing_plan_id":"free"},{"bike_id":"67e0f943-c0dc-4c19-a2cb-9cb9b6b7e69f","system_id":"levelo_inurba_marseille","lat":43.286961,"lon":5.373785,"is_reserved":false,"is_disabled":false,"rental_uris":{"android":"levelo://app?vid=67e0f943-c0dc-4c19-a2cb-9cb9b6b7e69f","ios":"levelo://app?vid=67e0f943-c0dc-4c19-a2cb-9cb9b6b7e69f"},"vehicle_type_id":"4","last_reported":1699016998,"current_range_meters":11600,"station_id":"ce4bh3p2rcd13ifvqdq0","pricing_plan_id":"free"},{"bike_id":"a7e336a7-53c6-4a35-9194-1dbc2e37dd4a","system_id":"levelo_inurba_marseille","lat":43.2903,"lon":5.38627,"is_reserved":false,"is_disabled":false,"rental_uris":{"android":"levelo://app?vid=a7e336a7-53c6-4a35-9194-1dbc2e37dd4a","ios":"levelo://app?vid=a7e336a7-53c6-4a35-9194-1dbc2e37dd4a"},"vehicle_type_id":"4","last_reported":1699016998,"current_range_meters":27200,"station_id":"ce4bh4p2rcd13ifvqe0g","pricing_plan_id":"free"},{"bike_id":"43757be6-aa51-4ec9-9f26-be1e4b2a9c4a","system_id":"levelo_inurba_marseille","lat":43.29027,"lon":5.38629,"is_reserved":false,"is_disabled":false,"rental_uris":{"android":"levelo://app?vid=43757be6-aa51-4ec9-9f26-be1e4b2a9c4a","ios":"levelo://app?vid=43757be6-aa51-4ec9-9f26-be1e4b2a9c4a"},"vehicle_type_id":"4","last_reported":1699016998,"current_range_meters":16000,"station_id":"","pricing_plan_id":"free"},{"bike_id":"136d8c47-009c-4dfc-abdd-d231d84ad96e","system_id":"levelo_inurba_marseille","lat":43.29035,"lon":5.38647,"is_reserved":false,"is_disabled":false,"rental_uris":{"android":"levelo://app?vid=136d8c47-009c-4dfc-abdd-d231d84ad96e","ios":"levelo://app?vid=136d8c47-009c-4dfc-abdd-d231d84ad96e"},"vehicle_type_id":"4","last_reported":1699016998,"current_range_meters":30800,"station_id":"ce4bh4p2rcd13ifvqe0g","pricing_plan_id":"free"},{"bike_id":"e2061c73-983b-4eda-a78b-ac88f317891a","system_id":"levelo_inurba_marseille","lat":43.290303,"lon":5.386385,"is_reserved":false,"is_disabled":false,"rental_uris":{"android":"levelo://app?vid=e2061c73-983b-4eda-a78b-ac88f317891a","ios":"levelo://app?vid=e2061c73-983b-4eda-a78b-ac88f317891a"},"vehicle_type_id":"4","last_reported":1699016998,"current_range_meters":31600,"station_id":"ce4bh4p2rcd13ifvqe0g","pricing_plan_id":"free"},{"bike_id":"c967caea-5ee8-4ee4-b324-71683b59d42a","system_id":"levelo_inurba_marseille","lat":43.28929,"lon":5.384,"is_reserved":false,"is_disabled":false,"rental_uris":{"android":"levelo://app?vid=c967caea-5ee8-4ee4-b324-71683b59d42a","ios":"levelo://app?vid=c967caea-5ee8-4ee4-b324-71683b59d42a"},"vehicle_type_id":"4","last_reported":1699016998,"current_range_meters":27600,"station_id":"ce4bh612rcd13ifvqe6g","pricing_plan_id":"free"},{"bike_id":"ff3add1d-d3c0-4670-b94b-1398c9e76244","system_id":"levelo_inurba_marseille","lat":43.302759,"lon":5.400793,"is_reserved":false,"is_disabled":false,"rental_uris":{"android":"levelo://app?vid=ff3add1d-d3c0-4670-b94b-1398c9e76244","ios":"levelo://app?vid=ff3add1d-d3c0-4670-b94b-1398c9e76244"},"vehicle_type_id":"4","last_reported":1699016998,"current_range_meters":24400,"station_id":"ce4bgvh2rcd13ifvqcs0","pricing_plan_id":"free"},{"bike_id":"bc11cdb4-602e-4cb4-92df-0d254003767d","system_id":"levelo_inurba_marseille","lat":43.302759,"lon":5.400793,"is_reserved":false,"is_disabled":false,"rental_uris":{"android":"levelo://app?vid=bc11cdb4-602e-4cb4-92df-0d254003767d","ios":"levelo://app?vid=bc11cdb4-602e-4cb4-92df-0d254003767d"},"vehicle_type_id":"4","last_reported":1699016998,"current_range_meters":17600,"station_id":"ce4bgvh2rcd13ifvqcs0","pricing_plan_id":"free"},{"bike_id":"ad81ecdb-99d7-470a-b22e-6550fe0fc2bf","system_id":"levelo_inurba_marseille","lat":43.286039,"lon":5.370679,"is_reserved":false,"is_disabled":false,"rental_uris":{"android":"levelo://app?vid=ad81ecdb-99d7-470a-b22e-6550fe0fc2bf","ios":"levelo://app?vid=ad81ecdb-99d7-470a-b22e-6550fe0fc2bf"},"vehicle_type_id":"4","last_reported":1699016998,"current_range_meters":11200,"station_id":"ce4bht12rcd13ifvqi60","pricing_plan_id":"free"},{"bike_id":"e4267f61-5b03-4aca-85f5-c4dda4401ee5","system_id":"levelo_inurba_marseille","lat":43.286039,"lon":5.370679,"is_reserved":false,"is_disabled":false,"rental_uris":{"android":"levelo://app?vid=e4267f61-5b03-4aca-85f5-c4dda4401ee5","ios":"levelo://app?vid=e4267f61-5b03-4aca-85f5-c4dda4401ee5"},"vehicle_type_id":"4","last_reported":1699016998,"current_range_meters":21600,"station_id":"ce4bht12rcd13ifvqi60","pricing_plan_id":"free"},{"bike_id":"c02f2332-952f-4ff2-9986-1bfbc80e9ece","system_id":"levelo_inurba_marseille","lat":43.287184,"lon":5.37937,"is_reserved":false,"is_disabled":false,"rental_uris":{"android":"levelo://app?vid=c02f2332-952f-4ff2-9986-1bfbc80e9ece","ios":"levelo://app?vid=c02f2332-952f-4ff2-9986-1bfbc80e9ece"},"vehicle_type_id":"4","last_reported":1699016998,"current_range_meters":30800,"station_id":"ce4bh9p2rcd13ifvqec0","pricing_plan_id":"free"},{"bike_id":"c1d42476-1af3-48d2-b0f8-26a42fbb92f6","system_id":"levelo_inurba_marseille","lat":43.287184,"lon":5.37937,"is_reserved":false,"is_disabled":false,"rental_uris":{"android":"levelo://app?vid=c1d42476-1af3-48d2-b0f8-26a42fbb92f6","ios":"levelo://app?vid=c1d42476-1af3-48d2-b0f8-26a42fbb92f6"},"vehicle_type_id":"4","last_reported":1699016998,"current_range_meters":6800,"station_id":"ce4bh9p2rcd13ifvqec0","pricing_plan_id":"free"},{"bike_id":"6a81cf03-12b4-4195-8e08-7d4b01ca3080","system_id":"levelo_inurba_marseille","lat":43.287185,"lon":5.379373,"is_reserved":false,"is_disabled":false,"rental_uris":{"android":"levelo://app?vid=6a81cf03-12b4-4195-8e08-7d4b01ca3080","ios":"levelo://app?vid=6a81cf03-12b4-4195-8e08-7d4b01ca3080"},"vehicle_type_id":"4","last_reported":1699016998,"current_range_meters":30400,"station_id":"ce4bh9p2rcd13ifvqec0","pricing_plan_id":"free"},{"bike_id":"d6a86101-2c9d-44a5-be35-11779955b3ad","system_id":"levelo_inurba_marseille","lat":43.316517,"lon":5.404375,"is_reserved":false,"is_disabled":false,"rental_uris":{"android":"levelo://app?vid=d6a86101-2c9d-44a5-be35-11779955b3ad","ios":"levelo://app?vid=d6a86101-2c9d-44a5-be35-11779955b3ad"},"vehicle_type_id":"4","last_reported":1699016998,"current_range_meters":23200,"station_id":"ce4bh012rcd13ifvqd00","pricing_plan_id":"free"},{"bike_id":"87bd6ff8-6815-4f79-9171-26cb314dc568","system_id":"levelo_inurba_marseille","lat":43.299847,"lon":5.400937,"is_reserved":false,"is_disabled":false,"rental_uris":{"android":"levelo://app?vid=87bd6ff8-6815-4f79-9171-26cb314dc568","ios":"levelo://app?vid=87bd6ff8-6815-4f79-9171-26cb314dc568"},"vehicle_type_id":"4","last_reported":1699016998,"current_range_meters":23200,"station_id":"","pricing_plan_id":"free"},