{"last_updated":1750443273,"ttl":60,"version":"2.2","data":{"bikes":[{"bike_id":"3da29fb8-fc97-44c6-b9ac-31dd456b2fd4","system_id":"levelo_inurba_marseille","lat":43.33771,"lon":5.37424,"is_reserved":false,"is_disabled":true,"rental_uris":{"android":"levelo://app?vid=3da29fb8-fc97-44c6-b9ac-31dd456b2fd4","ios":"levelo://app?vid=3da29fb8-fc97-44c6-b9ac-31dd456b2fd4"},"vehicle_type_id":"4","last_reported":1750443273,"current_range_meters":0,"station_id":"","pricing_plan_id":"cebpf4jnsgd1na2vs0mg"},{"bike_id":"01861ad8-a8d7-4be6-816e-651927c87584","system_id":"levelo_inurba_marseille","lat":43.33751,"lon":5.37456,"is_reserved":false,"is_disabled":true,"rental_uris":{"android":"levelo://app?vid=01861ad8-a8d7-4be6-816e-651927c87584","ios":"levelo://app?vid=01861ad8-a8d7-4be6-816e-651927c87584"},"vehicle_type_id":"4","last_reported":1750443273,"current_range_meters":0,"station_id":"","pricing_plan_id":"cebpf4jnsgd1na2vs0mg"},{"bike_id":"d2bd57c8-6b64-48db-ad24-5398eb3fd9d6","system_id":"levelo_inurba_marseille","lat":43.337444,"lon":5.374475,"is_reserved":false,"is_disabled":true,"rental_uris":{"android":"levelo://app?vid=d2bd57c8-6b64-48db-ad24-5398eb3fd9d6","ios":"levelo://app?vid=d2bd57c8-6b64-48db-ad24-5398eb3fd9d6"},"vehicle_type_id":"4","last_reported":1750443273,"current_range_meters":0,"station_id":"","pricing_plan_id":"cebpf4jnsgd1na2vs0mg"},{"bike_id":"62a493c7-4534-4419-ad43-0582de34a72a","system_id":"levelo_inurba_marseille","lat":43.21366,"lon":5.355183,"is_reserved":false,"is_disabled":true,"rental_uris":{"android":"levelo://app?vid=62a493c7-4534-4419-ad43-0582de34a72a","ios":"levelo://app?vid=62a493c7-4534-4419-ad43-0582de34a72a"},"vehicle_type_id":"4","last_reported":1750443273,"current_range_meters":0,"station_id":"","pricing_plan_id":"cebpf4jnsgd1na2vs0mg"},{"bike_id":"d5a1ae9e-4421-4539-b5ac-98a00695a8d8","system_id":"levelo_inurba_marseille","lat":43.33407,"lon":5.40059,"is_reserved":false,"is_disabled":true,"rental_uris":{"android":"levelo://app?vid=d5a1ae9e-4421-4539-b5ac-98a00695a8d8","ios":"levelo://app?vid=d5a1ae9e-4421-4539-b5ac-98a00695a8d8"},"vehicle_type_id":"4","last_reported":1750443273,"current_range_meters":0,"station_id":"","pricing_plan_id":"cebpf4jnsgd1na2vs0mg"},{"bike_id":"d6609b4f-333b-43c1-9ebe-8726f5e76e88","system_id":"levelo_inurba_marseille","lat":43.337444,"lon":5.374475,"is_reserved":false,"is_disabled":true,"rental_uris":{"android":"levelo://app?vid=d6609b4f-333b-43c1-9ebe-8726f5e76e88","ios":"levelo://app?vid=d6609b4f-333b-43c1-9ebe-8726f5e76e88"},"vehicle_type_id":"4","last_reported":1750443273,"current_range_meters":0,"station_id":"","pricing_plan_id":"cebpf4jnsgd1na2vs0mg"},{"bike_id":"f4ad4e64-cec6-4e8d-ab91-6494db881f9e","system_id":"levelo_inurba_marseille","lat":43.29306,"lon":5.37188,"is_reserved":false,"is_disabled":true,"rental_uris":{"android":"levelo://app?vid=f4ad4e64-cec6-4e8d-ab91-6494db881f9e","ios":"levelo://app?vid=f4ad4e64-cec6-4e8d-ab91-6494db881f9e"},"vehicle_type_id":"4","last_reported":1750443273,"current_range_meters":0,"station_id":"ce4bgh92rcd13ifvqb40","pricing_plan_id":"cebpf4jnsgd1na2vs0mg"},{"bike_id":"e70ad75a-ccc6-486a-8edc-9b28e641fb07","system_id":"levelo_inurba_marseille","lat":43.3014,"lon":5.38789,"is_reserved":false,"is_disabled":true,"rental_uris":{"android":"levelo://app?vid=e70ad75a-ccc6-486a-8edc-9b28e641fb07","ios":"levelo://app?vid=e70ad75a-ccc6-486a-8edc-9b28e641fb07"},"vehicle_type_id":"4","last_reported":1750443273,"current_range_meters":0,"station_id":"ce4bghh2rcd13ifvqb60","pricing_plan_id":"cebpf4jnsgd1na2vs0mg"},{"bike_id":"faedb750-b8ea-4e5f-b7f1-2931a192c239","system_id":"levelo_inurba_marseille","lat":43.31367,"lon":5.36693,"is_reserved":false,"is_disabled":true,"rental_uris":{"android":"levelo://app?vid=faedb750-b8ea-4e5f-b7f1-2931a192c239","ios":"levelo://app?vid=faedb750-b8ea-4e5f-b7f1-2931a192c239"},"vehicle_type_id":"4","last_reported":1750443273,"current_range_meters":0,"station_id":"ce4bgr92rcd13ifvqc6g","pricing_plan_id":"cebpf4jnsgd1na2vs0mg"},{"bike_id":"50ff0fe3-b99c-4ec8-863c-084a31e9c3ea","system_id":"levelo_inurba_marseille","lat":43.31366,"lon":5.38491,"is_reserved":false,"is_disabled":true,"rental_uris":{"android":"levelo://app?vid=50ff0fe3-b99c-4ec8-863c-084a31e9c3ea","ios":"levelo://app?vid=50ff0fe3-b99c-4ec8-863c-084a31e9c3ea"},"vehicle_type_id":"4","last_reported":1750443273,"current_range_meters":0,"station_id":"ce4bgt92rcd13ifvqcf0","pricing_plan_id":"cebpf4jnsgd1na2vs0mg"},{"bike_id":"c60bf6af-8d42-4328-ae2c-82eaa8d95c50","system_id":"levelo_inurba_marseille","lat":43.31718,"lon":5.3771,"is_reserved":false,"is_disabled":true,"rental_uris":{"android":"levelo://app?vid=c60bf6af-8d42-4328-ae2c-82eaa8d95c50","ios":"levelo://app?vid=c60bf6af-8d42-4328-ae2c-82eaa8d95c50"},"vehicle_type_id":"4","last_reported":1750443273,"current_range_meters":0,"station_id":"ce4bgth2rcd13ifvqch0","pricing_plan_id":"cebpf4jnsgd1na2vs0mg"},{"bike_id":"54f441bd-e1b2-4481-bc07-7f956e0fcefa","system_id":"levelo_inurba_marseille","lat":43.31172,"lon":5.38723,"is_reserved":false,"is_disabled":true,"rental_uris":{"android":"levelo://app?vid=54f441bd-e1b2-4481-bc07-7f956e0fcefa","ios":"levelo://app?vid=54f441bd-e1b2-4481-bc07-7f956e0fcefa"},"vehicle_type_id":"4","last_reported":1750443273,"current_range_meters":0,"station_id":"ce4bgv12rcd13ifvqcp0","pricing_plan_id":"cebpf4jnsgd1na2vs0mg"},{"bike_id":"d6277b6e-fac8-4ebf-8a1c-ff898b103630","system_id":"levelo_inurba_marseille","lat":43.29005,"lon":5.35612,"is_reserved":false,"is_disabled":true,"rental_uris":{"android":"levelo://app?vid=d6277b6e-fac8-4ebf-8a1c-ff898b103630","ios":"levelo://app?vid=d6277b6e-fac8-4ebf-8a1c-ff898b103630"},"vehicle_type_id":"4","last_reported":1750443273,"current_range_meters":0,"station_id":"ce4bhb92rcd13ifvqen0","pricing_plan_id":"cebpf4jnsgd1na2vs0mg"},{"bike_id":"fdfb2316-bbad-4455-a386-d6d4d4b6769b","system_id":"levelo_inurba_marseille","lat":43.29224,"lon":5.36067,"is_reserved":false,"is_disabled":true,"rental_uris":{"android":"levelo://app?vid=fdfb2316-bbad-4455-a386-d6d4d4b6769b","ios":"levelo://app?vid=fdfb2316-bbad-4455-a386-d6d4d4b6769b"},"vehicle_type_id":"4","last_reported":1750443273,"current_range_meters":0,"station_id":"ce4bhbh2rcd13ifvqeqg","pricing_plan_id":"cebpf4jnsgd1na2vs0mg"},{"bike_id":"a99d34bd-f6f2-4326-8806-8a7b4200a01c","system_id":"levelo_inurba_marseille","lat":43.29275,"lon":5.36845,"is_reserved":false,"is_disabled":true,"rental_uris":{"android":"levelo://app?vid=a99d34bd-f6f2-4326-8806-8a7b4200a01c","ios":"levelo://app?vid=a99d34bd-f6f2-4326-8806-8a7b4200a01c"},"vehicle_type_id":"4","last_reported":1750443273,"current_range_meters":0,"station_id":"ce4bhbp2rcd13ifvqesg","pricing_plan_id":"cebpf4jnsgd1na2vs0mg"},{"bike_id":"0f1e911e-2c2e-48ac-8f43-ff5d6e7609af","system_id":"levelo_inurba_marseille","lat":43.29274,"lon":5.36846,"is_reserved":false,"is_disabled":true,"rental_uris":{"android":"levelo://app?vid=0f1e911e-2c2e-48ac-8f43-ff5d6e7609af","ios":"levelo://app?vid=0f1e911e-2c2e-48ac-8f43-ff5d6e7609af"},"vehicle_type_id":"4","last_reported":1750443273,"current_range_meters":0,"station_id":"ce4bhbp2rcd13ifvqesg","pricing_plan_id":"cebpf4jnsgd1na2vs0mg"},{"bike_id":"f9d1b052-92c9-45c2-862e-c7023cd7197f","system_id":"levelo_inurba_marseille","lat":43.2656,"lon":5.37281,"is_reserved":false,"is_disabled":true,"rental_uris":{"android":"levelo://app?vid=f9d1b052-92c9-45c2-862e-c7023cd7197f","ios":"levelo://app?vid=f9d1b052-92c9-45c2-862e-c7023cd7197f"},"vehicle_type_id":"4","last_reported":1750443273,"current_range_meters":0,"station_id":"ce4bhg12rcd13ifvqf70","pricing_plan_id":"cebpf4jnsgd1na2vs0mg"},{"bike_id":"35d600c7-1d11-4e18-993b-f9503f50b721","system_id":"levelo_inurba_marseille","lat":43.24667,"lon":5.3816,"is_reserved":false,"is_disabled":true,"rental_uris":{"android":"levelo://app?vid=35d600c7-1d11-4e18-993b-f9503f50b721","ios":"levelo://app?vid=35d600c7-1d11-4e18-993b-f9503f50b721"},"vehicle_type_id":"4","last_reported":1750443273,"current_range_meters":0,"station_id":"ce4bhih2rcd13ifvqfr0","pricing_plan_id":"cebpf4jnsgd1na2vs0mg"},{"bike_id":"5320708b-275b-415a-bee4-96ee3d4e76dc","system_id":"levelo_inurba_marseille","lat":43.25872,"lon":5.39895,"is_reserved":false,"is_disabled":true,"rental_uris":{"android":"levelo://app?vid=5320708b-275b-415a-bee4-96ee3d4e76dc","ios":"levelo://app?vid=5320708b-275b-415a-bee4-96ee3d4e76dc"},"vehicle_type_id":"4","last_reported":1750443273,"current_range_meters":0,"station_id":"ce4bhl92rcd13ifvqghg","pricing_plan_id":"cebpf4jnsgd1na2vs0mg"},{"bike_id":"2be082ca-4467-48fd-b65c-3c02b405800f","system_id":"levelo_inurba_marseille","lat":43.23147,"lon":5.43698,"is_reserved":false,"is_disabled":true,"rental_uris":{"android":"levelo://app?vid=2be082ca-4467-48fd-b65c-3c02b405800f","ios":"levelo://app?vid=2be082ca-4467-48fd-b65c-3c02b405800f"},"vehicle_type_id":"4","last_reported":1750443273,"current_range_meters":0,"station_id":"ce4bhmp2rcd13ifvqgog","pricing_plan_id":"cebpf4jnsgd1na2vs0mg"},{"bike_id":"aaf25240-08d4-40a6-b03a-37ed70a88786","system_id":"levelo_inurba_marseille","lat":43.21743,"lon":5.34606,"is_reserved":false,"is_disabled":true,"rental_uris":{"android":"levelo://app?vid=aaf25240-08d4-40a6-b03a-37ed70a88786","ios":"levelo://app?vid=aaf25240-08d4-40a6-b03a-37ed70a88786"},"vehicle_type_id":"4","last_reported":1750443273,"current_range_meters":0,"station_id":"st_cvj6r9ubvosntc0bgbag","pricing_plan_id":"cebpf4jnsgd1na2vs0mg"},{"bike_id":"9eef838e-3bfd-4a16-83bf-84f9290561f9","system_id":"levelo_inurba_marseille","lat":43.31217,"lon":5.36851,"is_reserved":false,"is_disabled":true,"rental_uris":{"android":"levelo://app?vid=9eef838e-3bfd-4a16-83bf-84f9290561f9","ios":"levelo://app?vid=9eef838e-3bfd-4a16-83bf-84f9290561f9"},"vehicle_type_id":"4","last_reported":1750443273,"current_range_meters":400,"station_id":"ce4bgl92rcd13ifvqbq0","pricing_plan_id":"cebpf4jnsgd1na2vs0mg"},{"bike_id":"9b335391-2964-43e7-852d-e569defbea0b","system_id":"levelo_inurba_marseille","lat":43.3106,"lon":5.38335,"is_reserved":false,"is_disabled":true,"rental_uris":{"android":"levelo://app?vid=9b335391-2964-43e7-852d-e569defbea0b","ios":"levelo://app?vid=9b335391-2964-43e7-852d-e569defbea0b"},"vehicle_type_id":"4","last_reported":1750443273,"current_range_meters":400,"station_id":"ce4bgv92rcd13ifvqcr0","pricing_plan_id":"cebpf4jnsgd1na2vs0mg"},{"bike_id":"90c42cdb-d775-44b3-8870-3a15a34fc208","system_id":"levelo_inurba_marseille","lat":43.28859,"lon":5.35849,"is_reserved":false,"is_disabled":true,"rental_uris":{"android":"levelo://app?vid=90c42cdb-d775-44b3-8870-3a15a34fc208","ios":"levelo://app?vid=90c42cdb-d775-44b3-8870-3a15a34fc208"},"vehicle_type_id":"4","last_reported":1750443273,"current_range_meters":400,"station_id":"ce4bhb12rcd13ifvqem0","pricing_plan_id":"cebpf4jnsgd1na2vs0mg"},{"bike_id":"0429e4a3-d3bf-40bd-b063-80c29d85ae65","system_id":"levelo_inurba_marseille","lat":43.30813,"lon":5.43523,"is_reserved":false,"is_disabled":true,"rental_uris":{"android":"levelo://app?vid=0429e4a3-d3bf-40bd-b063-80c29d85ae65","ios":"levelo://app?vid=0429e4a3-d3bf-40bd-b063-80c29d85ae65"},"vehicle_type_id":"4","last_reported":1750443273,"current_range_meters":400,"station_id":"ce4bhph2rcd13ifvqheg","pricing_plan_id":"cebpf4jnsgd1na2vs0mg"},{"bike_id":"1061eec6-4295-47c5-8944-fd3283a3239d","system_id":"levelo_inurba_marseille","lat":43.3211,"lon":5.36767,"is_reserved":false,"is_disabled":true,"rental_uris":{"android":"levelo://app?vid=1061eec6-4295-47c5-8944-fd3283a3239d","ios":"levelo://app?vid=1061eec6-4295-47c5-8944-fd3283a3239d"},"vehicle_type_id":"4","last_reported":1750443273,"current_range_meters":400,"station_id":"ce4bhrh2rcd13ifvqhug","pricing_plan_id":"cebpf4jnsgd1na2vs0mg"},{"bike_id":"e2cf8e0b-87a3-4435-a676-ed701ac603e7","system_id":"levelo_inurba_marseille","lat":43.23197,"lon":5.355468,"is_reserved":false,"is_disabled":true,"rental_uris":{"android":"levelo://app?vid=e2cf8e0b-87a3-4435-a676-ed701ac603e7","ios":"levelo://app?vid=e2cf8e0b-87a3-4435-a676-ed701ac603e7"},"vehicle_type_id":"4","last_reported":1750443273,"current_range_meters":400,"station_id":"ce4bhu92rcd13ifvqi70","pricing_plan_id":"cebpf4jnsgd1na2vs0mg"},{"bike_id":"24466bb8-ea46-418f-a473-cce465177766","system_id":"levelo_inurba_marseille","lat":43.21747,"lon":5.34606,"is_reserved":false,"is_disabled":true,"rental_uris":{"android":"levelo://app?vid=24466bb8-ea46-418f-a473-cce465177766","ios":"levelo://app?vid=24466bb8-ea46-418f-a473-cce465177766"},"vehicle_type_id":"4","last_reported":1750443273,"current_range_meters":400,"station_id":"st_cvj6r9ubvosntc0bgbag","pricing_plan_id":"cebpf4jnsgd1na2vs0mg"},{"bike_id":"b1ea64e5-9981-4460-a2b3-59bf05260b31","system_id":"levelo_inurba_marseille","lat":43.32356,"lon":5.3881,"is_reserved":false,"is_disabled":true,"rental_uris":{"android":"levelo://app?vid=b1ea64e5-9981-4460-a2b3-59bf05260b31","ios":"levelo://app?vid=b1ea64e5-9981-4460-a2b3-59bf05260b31"},"vehicle_type_id":"4","last_reported":1750443273,"current_range_meters":800,"station_id":"","pricing_plan_id":"cebpf4jnsgd1na2vs0mg"},{"bike_id":"33c4e931-cb5e-4918-84c8-9b6c910db969","system_id":"levelo_inurba_marseille","lat":43.29029,"lon":5.39967,"is_reserved":false,"is_disabled":true,"rental_uris":{"android":"levelo://app?vid=33c4e931-cb5e-4918-84c8-9b6c910db969","ios":"levelo://app?vid=33c4e931-cb5e-4918-84c8-9b6c910db969"},"vehicle_type_id":"4","last_reported":1750443273,"current_range_meters":800,"station_id":"ce4bh392rcd13ifvqdm0","pricing_plan_id":"cebpf4jnsgd1na2vs0mg"},{"bike_id":"1770d981-032c-418e-a476-b45941beb0fa","system_id":"levelo_inurba_marseille","lat":43.28943,"lon":5.36631,"is_reserved":false,"is_disabled":true,"rental_uris":{"android":"levelo://app?vid=1770d981-032c-418e-a476-b45941beb0fa","ios":"levelo://app?vid=1770d981-032c-418e-a476-b45941beb0fa"},"vehicle_type_id":"4","last_reported":1750443273,"current_range_meters":800,"station_id":"ce4bhap2rcd13ifvqek0","pricing_plan_id":"cebpf4jnsgd1na2vs0mg"},{"bike_id":"b5b2e464-b4ca-4ea2-a3a1-b84a8b1f8ff1","system_id":"levelo_inurba_marseille","lat":43.282593,"lon":5.350608,"is_reserved":false,"is_disabled":true,"rental_uris":{"android":"levelo://app?vid=b5b2e464-b4ca-4ea2-a3a1-b84a8b1f8ff1","ios":"levelo://app?vid=b5b2e464-b4ca-4ea2-a3a1-b84a8b1f8ff1"},"vehicle_type_id":"4","last_reported":1750443273,"current_range_meters":800,"station_id":"ce4bhbp2rcd13ifvqerg","pricing_plan_id":"cebpf4jnsgd1na2vs0mg"},{"bike_id":"cc0915f1-4ed0-49be-a11e-86d6a87116b0","system_id":"levelo_inurba_marseille","lat":43.24066,"lon":5.37764,"is_reserved":false,"is_disabled":true,"rental_uris":{"android":"levelo://app?vid=cc0915f1-4ed0-49be-a11e-86d6a87116b0","ios":"levelo://app?vid=cc0915f1-4ed0-49be-a11e-86d6a87116b0"},"vehicle_type_id":"4","last_reported":1750443273,"current_range_meters":800,"station_id":"ce4bhnp2rcd13ifvqgvg","pricing_plan_id":"cebpf4jnsgd1na2vs0mg"},{"bike_id":"091fcb0c-ecce-41ae-9f81-09966ac2ef4a","system_id":"levelo_inurba_marseille","lat":43.30373,"lon":5.42485,"is_reserved":false,"is_disabled":true,"rental_uris":{"android":"levelo://app?vid=091fcb0c-ecce-41ae-9f81-09966ac2ef4a","ios":"levelo://app?vid=091fcb0c-ecce-41ae-9f81-09966ac2ef4a"},"vehicle_type_id":"4","last_reported":1750443273,"current_range_meters":800,"station_id":"ce4bhoh2rcd13ifvqh6g","pricing_plan_id":"cebpf4jnsgd1na2vs0mg"},{"bike_id":"2adeddaf-f220-45c2-92d8-06e313f50715","system_id":"levelo_inurba_marseille","lat":43.29187,"lon":5.35802,"is_reserved":false,"is_disabled":true,"rental_uris":{"android":"levelo://app?vid=2adeddaf-f220-45c2-92d8-06e313f50715","ios":"levelo://app?vid=2adeddaf-f220-45c2-92d8-06e313f50715"},"vehicle_type_id":"4","last_reported":1750443273,"current_range_meters":1200,"station_id":"ce4bhb12rcd13ifvqel0","pricing_plan_id":"cebpf4jnsgd1na2vs0mg"},{"bike_id":"150f2f65-8ded-4822-92d6-0860c0da1584","system_id":"levelo_inurba_marseille","lat":43.27378,"lon":5.36248,"is_reserved":false,"is_disabled":true,"rental_uris":{"android":"levelo://app?vid=150f2f65-8ded-4822-92d6-0860c0da1584","ios":"levelo://app?vid=150f2f65-8ded-4822-92d6-0860c0da1584"},"vehicle_type_id":"4","last_reported":1750443273,"current_range_meters":1200,"station_id":"ce4bhbh2rcd13ifvqeo0","pricing_plan_id":"cebpf4jnsgd1na2vs0mg"},{"bike_id":"26ce40fa-ca47-4c2c-b1ea-360e72cf367d","system_id":"levelo_inurba_marseille","lat":43.28071,"lon":5.39634,"is_reserved":false,"is_disabled":true,"rental_uris":{"android":"levelo://app?vid=26ce40fa-ca47-4c2c-b1ea-360e72cf367d","ios":"levelo://app?vid=26ce40fa-ca47-4c2c-b1ea-360e72cf367d"},"vehicle_type_id":"4","last_reported":1750443273,"current_range_meters":1200,"station_id":"ce4bho12rcd13ifvqh2g","pricing_plan_id":"cebpf4jnsgd1na2vs0mg"},{"bike_id":"9915e5b5-c159-4f22-8911-a70fca6d43f5","system_id":"levelo_inurba_marseille","lat":43.231925,"lon":5.35552,"is_reserved":false,"is_disabled":true,"rental_uris":{"android":"levelo://app?vid=9915e5b5-c159-4f22-8911-a70fca6d43f5","ios":"levelo://app?vid=9915e5b5-c159-4f22-8911-a70fca6d43f5"},"vehicle_type_id":"4","last_reported":1750443273,"current_range_meters":1200,"station_id":"ce4bhu92rcd13ifvqi70","pricing_plan_id":"cebpf4jnsgd1na2vs0mg"},{"bike_id":"1eea55df-a17e-4fdf-a523-9ad982e8087b","system_id":"levelo_inurba_marseille","lat":43.33026,"lon":5.38948,"is_reserved":false,"is_disabled":true,"rental_uris":{"android":"levelo://app?vid=1eea55df-a17e-4fdf-a523-9ad982e8087b","ios":"levelo://app?vid=1eea55df-a17e-4fdf-a523-9ad982e8087b"},"vehicle_type_id":"4","last_reported":1750443273,"current_range_meters":1600,"station_id":"","pricing_plan_id":"cebpf4jnsgd1na2vs0mg"},{"bike_id":"5734e40e-c63f-4273-9336-3830b5b996b7","system_id":"levelo_inurba_marseille","lat":43.3138,"lon":5.3849,"is_reserved":false,"is_disabled":true,"rental_uris":{"android":"levelo://app?vid=5734e40e-c63f-4273-9336-3830b5b996b7","ios":"levelo://app?vid=5734e40e-c63f-4273-9336-3830b5b996b7"},"vehicle_type_id":"4","last_reported":1750443273,"current_range_meters":1600,"station_id":"ce4bgt92rcd13ifvqcf0","pricing_plan_id":"cebpf4jnsgd1na2vs0mg"},{"bike_id":"cb85f0dd-16ed-4dca-9e7b-0d3f089f668c","system_id":"levelo_inurba_marseille","lat":43.24072,"lon":5.37765,"is_reserved":false,"is_disabled":true,"rental_uris":{"android":"levelo://app?vid=cb85f0dd-16ed-4dca-9e7b-0d3f089f668c","ios":"levelo://app?vid=cb85f0dd-16ed-4dca-9e7b-0d3f089f668c"},"vehicle_type_id":"4","last_reported":1750443273,"current_range_meters":1600,"station_id":"ce4bhnp2rcd13ifvqgvg","pricing_plan_id":"cebpf4jnsgd1na2vs0mg"},{"bike_id":"d8acd6d9-4d97-46af-aa57-1b4e54c5a7ce","system_id":"levelo_inurba_marseille","lat":43.22932,"lon":5.35376,"is_reserved":false,"is_disabled":true,"rental_uris":{"android":"levelo://app?vid=d8acd6d9-4d97-46af-aa57-1b4e54c5a7ce","ios":"levelo://app?vid=d8acd6d9-4d97-46af-aa57-1b4e54c5a7ce"},"vehicle_type_id":"4","last_reported":1750443273,"current_range_meters":1600,"station_id":"cpo3532slgdg3j2ikp40","pricing_plan_id":"cebpf4jnsgd1na2vs0mg"},{"bike_id":"323aa753-fc1d-41e9-9992-b0402b704672","system_id":"levelo_inurba_marseille","lat":43.33174,"lon":5.38199,"is_reserved":false,"is_disabled":true,"rental_uris":{"android":"levelo://app?vid=323aa753-fc1d-41e9-9992-b0402b704672","ios":"levelo://app?vid=323aa753-fc1d-41e9-9992-b0402b704672"},"vehicle_type_id":"4","last_reported":1750443273,"current_range_meters":2000,"station_id":"","pricing_plan_id":"cebpf4jnsgd1na2vs0mg"},{"bike_id":"c0ec5965-a1bc-49f5-bda2-0ea4096f2e7f","system_id":"levelo_inurba_marseille","lat":43.293091,"lon":5.37182,"is_reserved":false,"is_disabled":true,"rental_uris":{"android":"levelo://app?vid=c0ec5965-a1bc-49f5-bda2-0ea4096f2e7f","ios":"levelo://app?vid=c0ec5965-a1bc-49f5-bda2-0ea4096f2e7f"},"vehicle_type_id":"4","last_reported":1750443273,"current_range_meters":2000,"station_id":"ce4bgh92rcd13ifvqb40","pricing_plan_id":"cebpf4jnsgd1na2vs0mg"},{"bike_id":"8f2b05c4-7eb1-485e-95c0-2d7909a970fb","system_id":"levelo_inurba_marseille","lat":43.30602,"lon":5.37222,"is_reserved":false,"is_disabled":false,"rental_uris":{"android":"levelo://app?vid=8f2b05c4-7eb1-485e-95c0-2d7909a970fb","ios":"levelo://app?vid=8f2b05c4-7eb1-485e-95c0-2d7909a970fb"},"vehicle_type_id":"4","last_reported":1750443273,"current_range_meters":2000,"station_id":"ce4bgqh2rcd13ifvqc4g","pricing_plan_id":"cebpf4jnsgd1na2vs0mg"},{"bike_id":"72ea144a-5c55-49f3-9074-a0f95d79b6b4","system_id":"levelo_inurba_marseille","lat":43.28397,"lon":5.34995,"is_reserved":false,"is_disabled":true,"rental_uris":{"android":"levelo://app?vid=72ea144a-5c55-49f3-9074-a0f95d79b6b4","ios":"levelo://app?vid=72ea144a-5c55-49f3-9074-a0f95d79b6b4"},"vehicle_type_id":"4","last_reported":1750443273,"current_range_meters":2000,"station_id":"ce4bhbh2rcd13ifvqepg","pricing_plan_id":"cebpf4jnsgd1na2vs0mg"},{"bike_id":"0bae73e6-e831-45be-ad06-9a7d061fcf2f","system_id":"levelo_inurba_marseille","lat":43.30799,"lon":5.43525,"is_reserved":false,"is_disabled":true,"rental_uris":{"android":"levelo://app?vid=0bae73e6-e831-45be-ad06-9a7d061fcf2f","ios":"levelo://app?vid=0bae73e6-e831-45be-ad06-9a7d061fcf2f"},"vehicle_type_id":"4","last_reported":1750443273,"current_range_meters":2000,"station_id":"ce4bhph2rcd13ifvqheg","pricing_plan_id":"cebpf4jnsgd1na2vs0mg"},{"bike_id":"531f4610-f701-4512-8250-5aeeabc96ed9","system_id":"levelo_inurba_marseille","lat":43.30143,"lon":5.38064,"is_reserved":false,"is_disabled":true,"rental_uris":{"android":"levelo://app?vid=531f4610-f701-4512-8250-5aeeabc96ed9","ios":"levelo://app?vid=531f4610-f701-4512-8250-5aeeabc96ed9"},"vehicle_type_id":"4","last_reported":1750443273,"current_range_meters":2800,"station_id":"ce4bgjp2rcd13ifvqbh0","pricing_plan_id":"cebpf4jnsgd1na2vs0mg"},{"bike_id":"17d7b972-9540-4dd9-a264-b3874a292077","system_id":"levelo_inurba_marseille","lat":43.24181,"lon":5.39733,"is_reserved":false,"is_disabled":true,"rental_uris":{"android":"levelo://app?vid=17d7b972-9540-4dd9-a264-b3874a292077","ios":"levelo://app?vid=17d7b972-9540-4dd9-a264-b3874a292077"},"vehicle_type_id":"4","last_reported":1750443273,"current_range_meters":2800,"station_id":"ce4bhn12rcd13ifvqgpg","pricing_plan_id":"cebpf4jnsgd1na2vs0mg"},{"bike_id":"da1489c7-ffd3-44d0-97f3-18cee90e5143","system_id":"levelo_inurba_marseille","lat":43.32366,"lon":5.3888,"is_reserved":false,"is_disabled":false,"rental_uris":{"android":"levelo://app?vid=da1489c7-ffd3-44d0-97f3-18cee90e5143","ios":"levelo://app?vid=da1489c7-ffd3-44d0-97f3-18cee90e5143"},"vehicle_type_id":"4","last_reported":1750443273,"current_range_meters":2800,"station_id":"ce4bhqp2rcd13ifvqhog","pricing_plan_id":"cebpf4jnsgd1na2vs0mg"},{"bike_id":"578efe65-33a3-4a5b-941f-acb616177a34","system_id":"levelo_inurba_marseille","lat":43.29574,"lon":5.37515,"is_reserved":false,"is_disabled":false,"rental_uris":{"android":"levelo://app?vid=578efe65-33a3-4a5b-941f-acb616177a34","ios":"levelo://app?vid=578efe65-33a3-4a5b-941f-acb616177a34"},"vehicle_type_id":"4","last_reported":1750443273,"current_range_meters":3200,"station_id":"ce4bgh92rcd13ifvqb50","pricing_plan_id":"cebpf4jnsgd1na2vs0mg"},{"bike_id":"71d8143f-bd7e-4100-98a9-02afba723c6b","system_id":"levelo_inurba_marseille","lat":43.27993,"lon":5.40017,"is_reserved":false,"is_disabled":false,"rental_uris":{"android":"levelo://app?vid=71d8143f-bd7e-4100-98a9-02afba723c6b","ios":"levelo://app?vid=71d8143f-bd7e-4100-98a9-02afba723c6b"},"vehicle_type_id":"4","last_reported":1750443273,"current_range_meters":3200,"station_id":"ce4bho92rcd13ifvqh4g","pricing_plan_id":"cebpf4jnsgd1na2vs0mg"},{"bike_id":"5dfb2da6-4d52-4259-b62e-80a3826f9cee","system_id":"levelo_inurba_marseille","lat":43.30422,"lon":5.41279,"is_reserved":false,"is_disabled":false,"rental_uris":{"android":"levelo://app?vid=5dfb2da6-4d52-4259-b62e-80a3826f9cee","ios":"levelo://app?vid=5dfb2da6-4d52-4259-b62e-80a3826f9cee"},"vehicle_type_id":"4","last_reported":1750443273,"current_range_meters":3200,"station_id":"ce4bhop2rcd13ifvqh8g","pricing_plan_id":"cebpf4jnsgd1na2vs0mg"},{"bike_id":"09ebc08f-f9df-43a7-8da2-ac95ab21e324","system_id":"levelo_inurba_marseille","lat":43.290771,"lon":5.381319,"is_reserved":false,"is_disabled":false,"rental_uris":{"android":"levelo://app?vid=09ebc08f-f9df-43a7-8da2-ac95ab21e324","ios":"levelo://app?vid=09ebc08f-f9df-43a7-8da2-ac95ab21e324"},"vehicle_type_id":"4","last_reported":1750443273,"current_range_meters":3600,"station_id":"ce4bh512rcd13ifvqe2g","pricing_plan_id":"cebpf4jnsgd1na2vs0mg"},{"bike_id":"d9371763-d76b-4d2a-97a1-7891c9a20bb4","system_id":"levelo_inurba_marseille","lat":43.289337,"lon":5.366429,"is_reserved":false,"is_disabled":false,"rental_uris":{"android":"levelo://app?vid=d9371763-d76b-4d2a-97a1-7891c9a20bb4","ios":"levelo://app?vid=d9371763-d76b-4d2a-97a1-7891c9a20bb4"},"vehicle_type_id":"4","last_reported":1750443273,"current_range_meters":3600,"station_id":"ce4bhap2rcd13ifvqek0","pricing_plan_id":"cebpf4jnsgd1na2vs0mg"},{"bike_id":"963dd25b-9bc8-4be0-a317-8bbd61fab873","system_id":"levelo_inurba_marseille","lat":43.29199,"lon":5.35804,"is_reserved":false,"is_disabled":false,"rental_uris":{"android":"levelo://app?vid=963dd25b-9bc8-4be0-a317-8bbd61fab873","ios":"levelo://app?vid=963dd25b-9bc8-4be0-a317-8bbd61fab873"},"vehicle_type_id":"4","last_reported":1750443273,"current_range_meters":3600,"station_id":"ce4bhb12rcd13ifvqel0","pricing_plan_id":"cebpf4jnsgd1na2vs0mg"},{"bike_id":"b3a2085e-bc66-48be-8871-ed719f0876fc","system_id":"levelo_inurba_marseille","lat":43.24659,"lon":5.38169,"is_reserved":false,"is_disabled":false,"rental_uris":{"android":"levelo://app?vid=b3a2085e-bc66-48be-8871-ed719f0876fc","ios":"levelo://app?vid=b3a2085e-bc66-48be-8871-ed719f0876fc"},"vehicle_type_id":"4","last_reported":1750443273,"current_range_meters":3600,"station_id":"ce4bhih2rcd13ifvqfr0","pricing_plan_id":"cebpf4jnsgd1na2vs0mg"},{"bike_id":"576dfb21-1ae9-47a0-9ce4-eac0ae5ad4dd","system_id":"levelo_inurba_marseille","lat":43.29546,"lon":5.42289,"is_reserved":false,"is_disabled":false,"rental_uris":{"android":"levelo://app?vid=576dfb21-1ae9-47a0-9ce4-eac0ae5ad4dd","ios":"levelo://app?vid=576dfb21-1ae9-47a0-9ce4-eac0ae5ad4dd"},"vehicle_type_id":"4","last_reported":1750443273,"current_range_meters":3600,"station_id":"ce4bhph2rcd13ifvqhdg","pricing_plan_id":"cebpf4jnsgd1na2vs0mg"},{"bike_id":"46059eb8-ea8a-42b7-ae11-197094f05d6b","system_id":"levelo_inurba_marseille","lat":43.31173,"lon":5.38721,"is_reserved":false,"is_disabled":false,"rental_uris":{"android":"levelo://app?vid=46059eb8-ea8a-42b7-ae11-197094f05d6b","ios":"levelo://app?vid=46059eb8-ea8a-42b7-ae11-197094f05d6b"},"vehicle_type_id":"4","last_reported":1750443273,"current_range_meters":4000,"station_id":"ce4bgv12rcd13ifvqcp0","pricing_plan_id":"cebpf4jnsgd1na2vs0mg"},{"bike_id":"0357114d-d622-4741-85de-d44fd58aa78b","system_id":"levelo_inurba_marseille","lat":43.28423,"lon":5.34987,"is_reserved":false,"is_disabled":false,"rental_uris":{"android":"levelo://app?vid=0357114d-d622-4741-85de-d44fd58aa78b","ios":"levelo://app?vid=0357114d-d622-4741-85de-d44fd58aa78b"},"vehicle_type_id":"4","last_reported":1750443273,"current_range_meters":4000,"station_id":"ce4bhbh2rcd13ifvqepg","pricing_plan_id":"cebpf4jnsgd1na2vs0mg"},{"bike_id":"88bddd6b-6c53-42ba-9e40-14fe045ad641","system_id":"levelo_inurba_marseille","lat":43.28615,"lon":5.37058,"is_reserved":false,"is_disabled":false,"rental_uris":{"android":"levelo://app?vid=88bddd6b-6c53-42ba-9e40-14fe045ad641","ios":"levelo://app?vid=88bddd6b-6c53-42ba-9e40-14fe045ad641"},"vehicle_type_id":"4","last_reported":1750443273,"current_range_meters":4000,"station_id":"ce4bht12rcd13ifvqi60","pricing_plan_id":"cebpf4jnsgd1na2vs0mg"},{"bike_id":"5ee9bef7-047d-4efd-82fb-4bad1d0064f7","system_id":"levelo_inurba_marseille","lat":43.276747,"lon":5.388802,"is_reserved":false,"is_disabled":false,"rental_uris":{"android":"levelo://app?vid=5ee9bef7-047d-4efd-82fb-4bad1d0064f7","ios":"levelo://app?vid=5ee9bef7-047d-4efd-82fb-4bad1d0064f7"},"vehicle_type_id":"4","last_reported":1750443273,"current_range_meters":4400,"station_id":"ce4bhi12rcd13ifvqfo0","pricing_plan_id":"cebpf4jnsgd1na2vs0mg"},{"bike_id":"04d68281-d447-49de-a915-8f688d9941a5","system_id":"levelo_inurba_marseille","lat":43.26199,"lon":5.37932,"is_reserved":false,"is_disabled":false,"rental_uris":{"android":"levelo://app?vid=04d68281-d447-49de-a915-8f688d9941a5","ios":"levelo://app?vid=04d68281-d447-49de-a915-8f688d9941a5"},"vehicle_type_id":"4","last_reported":1750443273,"current_range_meters":4400,"station_id":"ce4bhjp2rcd13ifvqg90","pricing_plan_id":"cebpf4jnsgd1na2vs0mg"},{"bike_id":"90dab8d3-2b42-4d52-a0b1-0a0db1c81610","system_id":"levelo_inurba_marseille","lat":43.21747,"lon":5.346,"is_reserved":false,"is_disabled":false,"rental_uris":{"android":"levelo://app?vid=90dab8d3-2b42-4d52-a0b1-0a0db1c81610","ios":"levelo://app?vid=90dab8d3-2b42-4d52-a0b1-0a0db1c81610"},"vehicle_type_id":"4","last_reported":1750443273,"current_range_meters":4400,"station_id":"st_cvj6r9ubvosntc0bgbag","pricing_plan_id":"cebpf4jnsgd1na2vs0mg"},{"bike_id":"0dedb6f6-6801-483b-bfb8-9cd4533d158f","system_id":"levelo_inurba_marseille","lat":43.31137,"lon":5.38108,"is_reserved":false,"is_disabled":false,"rental_uris":{"android":"levelo://app?vid=0dedb6f6-6801-483b-bfb8-9cd4533d158f","ios":"levelo://app?vid=0dedb6f6-6801-483b-bfb8-9cd4533d158f"},"vehicle_type_id":"4","last_reported":1750443273,"current_range_meters":4800,"station_id":"","pricing_plan_id":"cebpf4jnsgd1na2vs0mg"},{"bike_id":"f821e168-89a1-4189-b6ee-0497c16bf745","system_id":"levelo_inurba_marseille","lat":43.29269,"lon":5.36849,"is_reserved":false,"is_disabled":false,"rental_uris":{"android":"levelo://app?vid=f821e168-89a1-4189-b6ee-0497c16bf745","ios":"levelo://app?vid=f821e168-89a1-4189-b6ee-0497c16bf745"},"vehicle_type_id":"4","last_reported":1750443273,"current_range_meters":4800,"station_id":"ce4bhbp2rcd13ifvqesg","pricing_plan_id":"cebpf4jnsgd1na2vs0mg"},{"bike_id":"dbeaf579-ba01-4c04-9c31-8b0eee77ae50","system_id":"levelo_inurba_marseille","lat":43.24078,"lon":5.37758,"is_reserved":false,"is_disabled":false,"rental_uris":{"android":"levelo://app?vid=dbeaf579-ba01-4c04-9c31-8b0eee77ae50","ios":"levelo://app?vid=dbeaf579-ba01-4c04-9c31-8b0eee77ae50"},"vehicle_type_id":"4","last_reported":1750443273,"current_range_meters":4800,"station_id":"ce4bhnp2rcd13ifvqgvg","pricing_plan_id":"cebpf4jnsgd1na2vs0mg"},{"bike_id":"268aafb4-1331-426c-97bc-a7d6564caeb6","system_id":"levelo_inurba_marseille","lat":43.32933,"lon":5.37919,"is_reserved":false,"is_disabled":false,"rental_uris":{"android":"levelo://app?vid=268aafb4-1331-426c-97bc-a7d6564caeb6","ios":"levelo://app?vid=268aafb4-1331-426c-97bc-a7d6564caeb6"},"vehicle_type_id":"4","last_reported":1750443273,"current_range_meters":5600,"station_id":"","pricing_plan_id":"cebpf4jnsgd1na2vs0mg"},{"bike_id":"04565a3c-0b80-4840-b30b-b58ebfe50c69","system_id":"levelo_inurba_marseille","lat":43.3171,"lon":5.43701,"is_reserved":false,"is_disabled":false,"rental_uris":{"android":"levelo://app?vid=04565a3c-0b80-4840-b30b-b58ebfe50c69","ios":"levelo://app?vid=04565a3c-0b80-4840-b30b-b58ebfe50c69"},"vehicle_type_id":"4","last_reported":1750443273,"current_range_meters":5600,"station_id":"ce4bhp92rcd13ifvqhcg","pricing_plan_id":"cebpf4jnsgd1na2vs0mg"},{"bike_id":"25d4c0a8-bba8-4c36-adc4-0390335dd810","system_id":"levelo_inurba_marseille","lat":43.29196,"lon":5.39322,"is_reserved":false,"is_disabled":false,"rental_uris":{"android":"levelo://app?vid=25d4c0a8-bba8-4c36-adc4-0390335dd810","ios":"levelo://app?vid=25d4c0a8-bba8-4c36-adc4-0390335dd810"},"vehicle_type_id":"4","last_reported":1750443273,"current_range_meters":6000,"station_id":"ce4bh192rcd13ifvqdd0","pricing_plan_id":"cebpf4jnsgd1na2vs0mg"},{"bike_id":"e7ea39a0-08e1-4f09-8f3f-e30c119e669a","system_id":"levelo_inurba_marseille","lat":43.308056,"lon":5.43694,"is_reserved":false,"is_disabled":false,"rental_uris":{"android":"levelo://app?vid=e7ea39a0-08e1-4f09-8f3f-e30c119e669a","ios":"levelo://app?vid=e7ea39a0-08e1-4f09-8f3f-e30c119e669a"},"vehicle_type_id":"4","last_reported":1750443273,"current_range_meters":6400,"station_id":"","pricing_plan_id":"cebpf4jnsgd1na2vs0mg"},{"bike_id":"3da833f3-a3ad-435e-a37d-2e477c5be4ee","system_id":"levelo_inurba_marseille","lat":43.28152,"lon":5.42642,"is_reserved":false,"is_disabled":false,"rental_uris":{"android":"levelo://app?vid=3da833f3-a3ad-435e-a37d-2e477c5be4ee","ios":"levelo://app?vid=3da833f3-a3ad-435e-a37d-2e477c5be4ee"},"vehicle_type_id":"4","last_reported":1750443273,"current_range_meters":6400,"station_id":"ce4bhnh2rcd13ifvqgug","pricing_plan_id":"cebpf4jnsgd1na2vs0mg"},{"bike_id":"bbe33f1f-ef82-440d-ac70-05f424065aa4","system_id":"levelo_inurba_marseille","lat":43.30539,"lon":5.36709,"is_reserved":false,"is_disabled":false,"rental_uris":{"android":"levelo://app?vid=bbe33f1f-ef82-440d-ac70-05f424065aa4","ios":"levelo://app?vid=bbe33f1f-ef82-440d-ac70-05f424065aa4"},"vehicle_type_id":"4","last_reported":1750443273,"current_range_meters":6800,"station_id":"ce4bgrp2rcd13ifvqc9g","pricing_plan_id":"cebpf4jnsgd1na2vs0mg"},{"bike_id":"8e632502-4433-4f68-a1f0-378a40b2292a","system_id":"levelo_inurba_marseille","lat":43.27377,"lon":5.36256,"is_reserved":false,"is_disabled":false,"rental_uris":{"android":"levelo://app?vid=8e632502-4433-4f68-a1f0-378a40b2292a","ios":"levelo://app?vid=8e632502-4433-4f68-a1f0-378a40b2292a"},"vehicle_type_id":"4","last_reported":1750443273,"current_range_meters":6800,"station_id":"ce4bhbh2rcd13ifvqeo0","pricing_plan_id":"cebpf4jnsgd1na2vs0mg"},{"bike_id":"dd45b830-666c-4c76-b06e-9938bffa2cad","system_id":"levelo_inurba_marseille","lat":43.31963,"lon":5.37541,"is_reserved":false,"is_disabled":false,"rental_uris":{"android":"levelo://app?vid=dd45b830-666c-4c76-b06e-9938bffa2cad","ios":"levelo://app?vid=dd45b830-666c-4c76-b06e-9938bffa2cad"},"vehicle_type_id":"4","last_reported":1750443273,"current_range_meters":7200,"station_id":"","pricing_plan_id":"cebpf4jnsgd1na2vs0mg"},{"bike_id":"1951a100-8920-4a86-a65a-1291dea1e8df","system_id":"levelo_inurba_marseille","lat":43.31278,"lon":5.37261,"is_reserved":false,"is_disabled":false,"rental_uris":{"android":"levelo://app?vid=1951a100-8920-4a86-a65a-1291dea1e8df","ios":"levelo://app?vid=1951a100-8920-4a86-a65a-1291dea1e8df"},"vehicle_type_id":"4","last_reported":1750443273,"current_range_meters":7200,"station_id":"","pricing_plan_id":"cebpf4jnsgd1na2vs0mg"},{"bike_id":"3328efb2-d32c-440d-878f-4269eb3671d3","system_id":"levelo_inurba_marseille","lat":43.315331,"lon":5.373065,"is_reserved":false,"is_disabled":false,"rental_uris":{"android":"levelo://app?vid=3328efb2-d32c-440d-878f-4269eb3671d3","ios":"levelo://app?vid=3328efb2-d32c-440d-878f-4269eb3671d3"},"vehicle_type_id":"4","last_reported":1750443273,"current_range_meters":7200,"station_id":"","pricing_plan_id":"cebpf4jnsgd1na2vs0mg"},{"bike_id":"3f019e74-cf49-4203-a3a8-33758ef60531","system_id":"levelo_inurba_marseille","lat":43.309485,"lon":5.390194,"is_reserved":false,"is_disabled":false,"rental_uris":{"android":"levelo://app?vid=3f019e74-cf49-4203-a3a8-33758ef60531","ios":"levelo://app?vid=3f019e74-cf49-4203-a3a8-33758ef60531"},"vehicle_type_id":"4","last_reported":1750443273,"current_range_meters":7200,"station_id":"ce4bgup2rcd13ifvqco0","pricing_plan_id":"cebpf4jnsgd1na2vs0mg"},{"bike_id":"00f6d1ba-7c4f-4789-bf96-bc56ddade345","system_id":"levelo_inurba_marseille","lat":43.29275,"lon":5.36844,"is_reserved":false,"is_disabled":false,"rental_uris":{"android":"levelo://app?vid=00f6d1ba-7c4f-4789-bf96-bc56ddade345","ios":"levelo://app?vid=00f6d1ba-7c4f-4789-bf96-bc56ddade345"},"vehicle_type_id":"4","last_reported":1750443273,"current_range_meters":7200,"station_id":"ce4bhbp2rcd13ifvqesg","pricing_plan_id":"cebpf4jnsgd1na2vs0mg"},{"bike_id":"3ea3dc3e-1115-4c47-96cb-baea06d2c4c7","system_id":"levelo_inurba_marseille","lat":43.28618,"lon":5.35112,"is_reserved":false,"is_disabled":false,"rental_uris":{"android":"levelo://app?vid=3ea3dc3e-1115-4c47-96cb-baea06d2c4c7","ios":"levelo://app?vid=3ea3dc3e-1115-4c47-96cb-baea06d2c4c7"},"vehicle_type_id":"4","last_reported":1750443273,"current_range_meters":7200,"station_id":"ce4bhch2rcd13ifvqeug","pricing_plan_id":"cebpf4jnsgd1na2vs0mg"},{"bike_id":"f025e0b0-8595-426c-b214-cb9b74c5fcfd","system_id":"levelo_inurba_marseille","lat":43.32198,"lon":5.40571,"is_reserved":false,"is_disabled":false,"rental_uris":{"android":"levelo://app?vid=f025e0b0-8595-426c-b214-cb9b74c5fcfd","ios":"levelo://app?vid=f025e0b0-8595-426c-b214-cb9b74c5fcfd"},"vehicle_type_id":"4","last_reported":1750443273,"current_range_meters":8000,"station_id":"","pricing_plan_id":"cebpf4jnsgd1na2vs0mg"},{"bike_id":"303f648e-ac69-4fe1-ad7e-b807939091ef","system_id":"levelo_inurba_marseille","lat":43.28418,"lon":5.349911,"is_reserved":false,"is_disabled":false,"rental_uris":{"android":"levelo://app?vid=303f648e-ac69-4fe1-ad7e-b807939091ef","ios":"levelo://app?vid=303f648e-ac69-4fe1-ad7e-b807939091ef"},"vehicle_type_id":"4","last_reported":1750443273,"current_range_meters":8000,"station_id":"ce4bhbh2rcd13ifvqepg","pricing_plan_id":"cebpf4jnsgd1na2vs0mg"},{"bike_id":"68e011a4-d227-4f50-87f4-660462ec3f97","system_id":"levelo_inurba_marseille","lat":43.28421,"lon":5.34986,"is_reserved":false,"is_disabled":false,"rental_uris":{"android":"levelo://app?vid=68e011a4-d227-4f50-87f4-660462ec3f97","ios":"levelo://app?vid=68e011a4-d227-4f50-87f4-660462ec3f97"},"vehicle_type_id":"4","last_reported":1750443273,"current_range_meters":8000,"station_id":"ce4bhbh2rcd13ifvqepg","pricing_plan_id":"cebpf4jnsgd1na2vs0mg"},{"bike_id":"439a3428-cdb1-4d91-8353-681c4e15de2d","system_id":"levelo_inurba_marseille","lat":43.262085,"lon":5.374408,"is_reserved":false,"is_disabled":false,"rental_uris":{"android":"levelo://app?vid=439a3428-cdb1-4d91-8353-681c4e15de2d","ios":"levelo://app?vid=439a3428-cdb1-4d91-8353-681c4e15de2d"},"vehicle_type_id":"4","last_reported":1750443273,"current_range_meters":8000,"station_id":"ce4bhgp2rcd13ifvqfc0","pricing_plan_id":"cebpf4jnsgd1na2vs0mg"},{"bike_id":"558b90eb-a814-4995-a44d-ee20d57292b5","system_id":"levelo_inurba_marseille","lat":43.30416,"lon":5.41282,"is_reserved":false,"is_disabled":false,"rental_uris":{"android":"levelo://app?vid=558b90eb-a814-4995-a44d-ee20d57292b5","ios":"levelo://app?vid=558b90eb-a814-4995-a44d-ee20d57292b5"},"vehicle_type_id":"4","last_reported":1750443273,"current_range_meters":8000,"station_id":"ce4bhop2rcd13ifvqh8g","pricing_plan_id":"cebpf4jnsgd1na2vs0mg"},{"bike_id":"f17b4dc2-b397-4055-b010-485e9d3a6654","system_id":"levelo_inurba_marseille","lat":43.31721,"lon":5.42397,"is_reserved":false,"is_disabled":false,"rental_uris":{"android":"levelo://app?vid=f17b4dc2-b397-4055-b010-485e9d3a6654","ios":"levelo://app?vid=f17b4dc2-b397-4055-b010-485e9d3a6654"},"vehicle_type_id":"4","last_reported":1750443273,"current_range_meters":8000,"station_id":"ce4bhp92rcd13ifvqhbg","pricing_plan_id":"cebpf4jnsgd1na2vs0mg"},{"bike_id":"096a36c2-4861-4141-83a2-b43288c1df35","system_id":"levelo_inurba_marseille","lat":43.21744,"lon":5.34605,"is_reserved":false,"is_disabled":false,"rental_uris":{"android":"levelo://app?vid=096a36c2-4861-4141-83a2-b43288c1df35","ios":"levelo://app?vid=096a36c2-4861-4141-83a2-b43288c1df35"},"vehicle_type_id":"4","last_reported":1750443273,"current_range_meters":8000,"station_id":"st_cvj6r9ubvosntc0bgbag","pricing_plan_id":"cebpf4jnsgd1na2vs0mg"},{"bike_id":"0e38079a-3d92-4ede-8a2e-bfdf8d2c640d","system_id":"levelo_inurba_marseille","lat":43.21751,"lon":5.34598,"is_reserved":false,"is_disabled":false,"rental_uris":{"android":"levelo://app?vid=0e38079a-3d92-4ede-8a2e-bfdf8d2c640d","ios":"levelo://app?vid=0e38079a-3d92-4ede-8a2e-bfdf8d2c640d"},"vehicle_type_id":"4","last_reported":1750443273,"current_range_meters":8400,"station_id":"","pricing_plan_id":"cebpf4jnsgd1na2vs0mg"},{"bike_id":"73521383-be10-4e11-87d9-5858a5a26f0a","system_id":"levelo_inurba_marseille","lat":43.337444,"lon":5.374475,"is_reserved":false,"is_disabled":false,"rental_uris":{"android":"levelo://app?vid=73521383-be10-4e11-87d9-5858a5a26f0a","ios":"levelo://app?vid=73521383-be10-4e11-87d9-5858a5a26f0a"},"vehicle_type_id":"4","last_reported":1750443273,"current_range_meters":8400,"station_id":"","pricing_plan_id":"cebpf4jnsgd1na2vs0mg"},{"bike_id":"df735c88-ae0a-4f8e-9723-d29eb27d80b9","system_id":"levelo_inurba_marseille","lat":43.29911,"lon":5.3762,"is_reserved":false,"is_disabled":false,"rental_uris":{"android":"levelo://app?vid=df735c88-ae0a-4f8e-9723-d29eb27d80b9","ios":"levelo://app?vid=df735c88-ae0a-4f8e-9723-d29eb27d80b9"},"vehicle_type_id":"4","last_reported":1750443273,"current_range_meters":8400,"station_id":"","pricing_plan_id":"cebpf4jnsgd1na2vs0mg"},{"bike_id":"b585a536-22d5-4de2-b5c1-4d5cb02fae3c","system_id":"levelo_inurba_marseille","lat":43.3095,"lon":5.39041,"is_reserved":false,"is_disabled":false,"rental_uris":{"android":"levelo://app?vid=b585a536-22d5-4de2-b5c1-4d5cb02fae3c","ios":"levelo://app?vid=b585a536-22d5-4de2-b5c1-4d5cb02fae3c"},"vehicle_type_id":"4","last_reported":1750443273,"current_range_meters":8400,"station_id":"ce4bgup2rcd13ifvqco0","pricing_plan_id":"cebpf4jnsgd1na2vs0mg"},{"bike_id":"a5d14116-8bad-4c6a-bc94-b5e6ae16d25e","system_id":"levelo_inurba_marseille","lat":43.24388,"lon":5.37062,"is_reserved":false,"is_disabled":false,"rental_uris":{"android":"levelo://app?vid=a5d14116-8bad-4c6a-bc94-b5e6ae16d25e","ios":"levelo://app?vid=a5d14116-8bad-4c6a-bc94-b5e6ae16d25e"},"vehicle_type_id":"4","last_reported":1750443273,"current_range_meters":8400,"station_id":"ce4bhhh2rcd13ifvqfk0","pricing_plan_id":"cebpf4jnsgd1na2vs0mg"},{"bike_id":"4f840ece-db76-4ddc-94e5-d1aba639fb48","system_id":"levelo_inurba_marseille","lat":43.294,"lon":5.42692,"is_reserved":false,"is_disabled":false,"rental_uris":{"android":"levelo://app?vid=4f840ece-db76-4ddc-94e5-d1aba639fb48","ios":"levelo://app?vid=4f840ece-db76-4ddc-94e5-d1aba639fb48"},"vehicle_type_id":"4","last_reported":1750443273,"current_range_meters":8800,"station_id":"","pricing_plan_id":"cebpf4jnsgd1na2vs0mg"},{"bike_id":"8e3c0bb1-b16d-4a7d-ad9a-57ad87dd9f7b","system_id":"levelo_inurba_marseille","lat":43.30955,"lon":5.39043,"is_reserved":false,"is_disabled":false,"rental_uris":{"android":"levelo://app?vid=8e3c0bb1-b16d-4a7d-ad9a-57ad87dd9f7b","ios":"levelo://app?vid=8e3c0bb1-b16d-4a7d-ad9a-57ad87dd9f7b"},"vehicle_type_id":"4","last_reported":1750443273,"current_range_meters":8800,"station_id":"ce4bgup2rcd13ifvqco0","pricing_plan_id":"cebpf4jnsgd1na2vs0mg"},{"bike_id":"52a82fea-7e92-4597-81cb-abdaea6ff9f7","system_id":"levelo_inurba_marseille","lat":43.28414,"lon":5.34985,"is_reserved":false,"is_disabled":false,"rental_uris":{"android":"levelo://app?vid=52a82fea-7e92-4597-81cb-abdaea6ff9f7","ios":"levelo://app?vid=52a82fea-7e92-4597-81cb-abdaea6ff9f7"},"vehicle_type_id":"4","last_reported":1750443273,"current_range_meters":8800,"station_id":"ce4bhbh2rcd13ifvqepg","pricing_plan_id":"cebpf4jnsgd1na2vs0mg"},{"bike_id":"13ef7d1f-42ab-45c6-8760-bd0b9207222f","system_id":"levelo_inurba_marseille","lat":43.211905,"lon":5.350675,"is_reserved":false,"is_disabled":false,"rental_uris":{"android":"levelo://app?vid=13ef7d1f-42ab-45c6-8760-bd0b9207222f","ios":"levelo://app?vid=13ef7d1f-42ab-45c6-8760-bd0b9207222f"},"vehicle_type_id":"4","last_reported":1750443273,"current_range_meters":8800,"station_id":"st_cvj6sg6p6f1abm77japg","pricing_plan_id":"cebpf4jnsgd1na2vs0mg"},{"bike_id":"a7e23b8d-694f-40cb-a968-99a70bc6767a","system_id":"levelo_inurba_marseille","lat":43.28404,"lon":5.34979,"is_reserved":false,"is_disabled":false,"rental_uris":{"android":"levelo://app?vid=a7e23b8d-694f-40cb-a968-99a70bc6767a","ios":"levelo://app?vid=a7e23b8d-694f-40cb-a968-99a70bc6767a"},"vehicle_type_id":"4","last_reported":1750443273,"current_range_meters":9200,"station_id":"ce4bhbh2rcd13ifvqepg","pricing_plan_id":"cebpf4jnsgd1na2vs0mg"},{"bike_id":"47094d89-24d8-42fa-b734-fef199642424","system_id":"levelo_inurba_marseille","lat":43.28279,"lon":5.35077,"is_reserved":false,"is_disabled":false,"rental_uris":{"android":"levelo://app?vid=47094d89-24d8-42fa-b734-fef199642424","ios":"levelo://app?vid=47094d89-24d8-42fa-b734-fef199642424"},"vehicle_type_id":"4","last_reported":1750443273,"current_range_meters":9200,"station_id":"ce4bhbp2rcd13ifvqerg","pricing_plan_id":"cebpf4jnsgd1na2vs0mg"},{"bike_id":"2b4b9c34-750d-4a81-98ec-c8c45cec8a47","system_id":"levelo_inurba_marseille","lat":43.28259,"lon":5.35065,"is_reserved":false,"is_disabled":false,"rental_uris":{"android":"levelo://app?vid=2b4b9c34-750d-4a81-98ec-c8c45cec8a47","ios":"levelo://app?vid=2b4b9c34-750d-4a81-98ec-c8c45cec8a47"},"vehicle_type_id":"4","last_reported":1750443273,"current_range_meters":9200,"station_id":"ce4bhbp2rcd13ifvqerg","pricing_plan_id":"cebpf4jnsgd1na2vs0mg"},{"bike_id":"09c97d52-fbc6-47bd-9c3b-07105eb4c825","system_id":"levelo_inurba_marseille","lat":43.29891,"lon":5.43665,"is_reserved":false,"is_disabled":false,"rental_uris":{"android":"levelo://app?vid=09c97d52-fbc6-47bd-9c3b-07105eb4c825","ios":"levelo://app?vid=09c97d52-fbc6-47bd-9c3b-07105eb4c825"},"vehicle_type_id":"4","last_reported":1750443273,"current_range_meters":9200,"station_id":"ce4bhpp2rcd13ifvqhfg","pricing_plan_id":"cebpf4jnsgd1na2vs0mg"},{"bike_id":"74f048db-92de-4852-8ee2-a57163b50f7f","system_id":"levelo_inurba_marseille","lat":43.28573,"lon":5.39494,"is_reserved":false,"is_disabled":false,"rental_uris":{"android":"levelo://app?vid=74f048db-92de-4852-8ee2-a57163b50f7f","ios":"levelo://app?vid=74f048db-92de-4852-8ee2-a57163b50f7f"},"vehicle_type_id":"4","last_reported":1750443273,"current_range_meters":9600,"station_id":"ce4bh292rcd13ifvqdg0","pricing_plan_id":"cebpf4jnsgd1na2vs0mg"},{"bike_id":"c3e98e54-2f6a-4c45-abd3-e219fae912eb","system_id":"levelo_inurba_marseille","lat":43.23961,"lon":5.36623,"is_reserved":false,"is_disabled":false,"rental_uris":{"android":"levelo://app?vid=c3e98e54-2f6a-4c45-abd3-e219fae912eb","ios":"levelo://app?vid=c3e98e54-2f6a-4c45-abd3-e219fae912eb"},"vehicle_type_id":"4","last_reported":1750443273,"current_range_meters":9600,"station_id":"ce4bhi12rcd13ifvqfp0","pricing_plan_id":"cebpf4jnsgd1na2vs0mg"},{"bike_id":"875fa949-6600-4f3c-9479-18851e0e77b3","system_id":"levelo_inurba_marseille","lat":43.282636,"lon":5.350599,"is_reserved":false,"is_disabled":false,"rental_uris":{"android":"levelo://app?vid=875fa949-6600-4f3c-9479-18851e0e77b3","ios":"levelo://app?vid=875fa949-6600-4f3c-9479-18851e0e77b3"},"vehicle_type_id":"4","last_reported":1750443273,"current_range_meters":9600,"station_id":"ce4bhqp2rcd13ifvqhog","pricing_plan_id":"cebpf4jnsgd1na2vs0mg"},{"bike_id":"3459fb28-d211-4e15-8fcc-cb39e924ce05","system_id":"levelo_inurba_marseille","lat":43.23062,"lon":5.35473,"is_reserved":false,"is_disabled":false,"rental_uris":{"android":"levelo://app?vid=3459fb28-d211-4e15-8fcc-cb39e924ce05","ios":"levelo://app?vid=3459fb28-d211-4e15-8fcc-cb39e924ce05"},"vehicle_type_id":"4","last_reported":1750443273,"current_range_meters":9600,"station_id":"cpo3342slgdg3j2ifvpg","pricing_plan_id":"cebpf4jnsgd1na2vs0mg"},{"bike_id":"b3659c60-b398-49a0-b994-a9351360b9e5","system_id":"levelo_inurba_marseille","lat":43.30407,"lon":5.40098,"is_reserved":false,"is_disabled":false,"rental_uris":{"android":"levelo://app?vid=b3659c60-b398-49a0-b994-a9351360b9e5","ios":"levelo://app?vid=b3659c60-b398-49a0-b994-a9351360b9e5"},"vehicle_type_id":"4","last_reported":1750443273,"current_range_meters":10000,"station_id":"","pricing_plan_id":"cebpf4jnsgd1na2vs0mg"},{"bike_id":"2aa2b4b2-4375-4e84-8d4f-7c2cf5b03a98","system_id":"levelo_inurba_marseille","lat":43.30949,"lon":5.39037,"is_reserved":false,"is_disabled":false,"rental_uris":{"android":"levelo://app?vid=2aa2b4b2-4375-4e84-8d4f-7c2cf5b03a98","ios":"levelo://app?vid=2aa2b4b2-4375-4e84-8d4f-7c2cf5b03a98"},"vehicle_type_id":"4","last_reported":1750443273,"current_range_meters":10000,"station_id":"ce4bgup2rcd13ifvqco0","pricing_plan_id":"cebpf4jnsgd1na2vs0mg"},{"bike_id":"e5ace183-eafa-4977-9870-6547326bba36","system_id":"levelo_inurba_marseille","lat":43.30946,"lon":5.39034,"is_reserved":false,"is_disabled":false,"rental_uris":{"android":"levelo://app?vid=e5ace183-eafa-4977-9870-6547326bba36","ios":"levelo://app?vid=e5ace183-eafa-4977-9870-6547326bba36"},"vehicle_type_id":"4","last_reported":1750443273,"current_range_meters":10000,"station_id":"ce4bgup2rcd13ifvqco0","pricing_plan_id":"cebpf4jnsgd1na2vs0mg"},{"bike_id":"224059cd-6bc7-4a8b-ab39-941ff7cf6385","system_id":"levelo_inurba_marseille","lat":43.2621,"lon":5.37446,"is_reserved":false,"is_disabled":false,"rental_uris":{"android":"levelo://app?vid=224059cd-6bc7-4a8b-ab39-941ff7cf6385","ios":"levelo://app?vid=224059cd-6bc7-4a8b-ab39-941ff7cf6385"},"vehicle_type_id":"4","last_reported":1750443273,"current_range_meters":10000,"station_id":"ce4bhgp2rcd13ifvqfc0","pricing_plan_id":"cebpf4jnsgd1na2vs0mg"},{"bike_id":"9495efe6-c1ed-48f2-889b-22ec4961b645","system_id":"levelo_inurba_marseille","lat":43.30952,"lon":5.39029,"is_reserved":false,"is_disabled":false,"rental_uris":{"android":"levelo://app?vid=9495efe6-c1ed-48f2-889b-22ec4961b645","ios":"levelo://app?vid=9495efe6-c1ed-48f2-889b-22ec4961b645"},"vehicle_type_id":"4","last_reported":1750443273,"current_range_meters":10800,"station_id":"ce4bgup2rcd13ifvqco0","pricing_plan_id":"cebpf4jnsgd1na2vs0mg"},{"bike_id":"8f8b6ace-5dec-4e87-bc0c-341483c93825","system_id":"levelo_inurba_marseille","lat":43.2963,"lon":5.40598,"is_reserved":false,"is_disabled":false,"rental_uris":{"android":"levelo://app?vid=8f8b6ace-5dec-4e87-bc0c-341483c93825","ios":"levelo://app?vid=8f8b6ace-5dec-4e87-bc0c-341483c93825"},"vehicle_type_id":"4","last_reported":1750443273,"current_range_meters":10800,"station_id":"ce4bh0h2rcd13ifvqd60","pricing_plan_id":"cebpf4jnsgd1na2vs0mg"},{"bike_id":"ccf163a7-3a7a-41a1-b538-4c04f141a3b9","system_id":"levelo_inurba_marseille","lat":43.32296,"lon":5.3827,"is_reserved":false,"is_disabled":false,"rental_uris":{"android":"levelo://app?vid=ccf163a7-3a7a-41a1-b538-4c04f141a3b9","ios":"levelo://app?vid=ccf163a7-3a7a-41a1-b538-4c04f141a3b9"},"vehicle_type_id":"4","last_reported":1750443273,"current_range_meters":10800,"station_id":"ce4bhr12rcd13ifvqhqg","pricing_plan_id":"cebpf4jnsgd1na2vs0mg"},{"bike_id":"1130ad13-103a-4985-b9eb-a470f985b800","system_id":"levelo_inurba_marseille","lat":43.33723,"lon":5.39188,"is_reserved":false,"is_disabled":false,"rental_uris":{"android":"levelo://app?vid=1130ad13-103a-4985-b9eb-a470f985b800","ios":"levelo://app?vid=1130ad13-103a-4985-b9eb-a470f985b800"},"vehicle_type_id":"4","last_reported":1750443273,"current_range_meters":10800,"station_id":"ce4bhr92rcd13ifvqhsg","pricing_plan_id":"cebpf4jnsgd1na2vs0mg"},{"bike_id":"8059a22c-5067-4fa5-86f7-7ccef752acc3","system_id":"levelo_inurba_marseille","lat":43.27844,"lon":5.38501,"is_reserved":false,"is_disabled":false,"rental_uris":{"android":"levelo://app?vid=8059a22c-5067-4fa5-86f7-7ccef752acc3","ios":"levelo://app?vid=8059a22c-5067-4fa5-86f7-7ccef752acc3"},"vehicle_type_id":"4","last_reported":1750443273,"current_range_meters":11200,"station_id":"","pricing_plan_id":"cebpf4jnsgd1na2vs0mg"},{"bike_id":"b541172b-5b30-43b7-90a7-1f304b078276","system_id":"levelo_inurba_marseille","lat":43.2827,"lon":5.35071,"is_reserved":false,"is_disabled":false,"rental_uris":{"android":"levelo://app?vid=b541172b-5b30-43b7-90a7-1f304b078276","ios":"levelo://app?vid=b541172b-5b30-43b7-90a7-1f304b078276"},"vehicle_type_id":"4","last_reported":1750443273,"current_range_meters":11200,"station_id":"ce4bhbp2rcd13ifvqerg","pricing_plan_id":"cebpf4jnsgd1na2vs0mg"},{"bike_id":"226f9053-f467-4aee-bab3-f8d8708a8049","system_id":"levelo_inurba_marseille","lat":43.33026,"lon":5.39034,"is_reserved":false,"is_disabled":false,"rental_uris":{"android":"levelo://app?vid=226f9053-f467-4aee-bab3-f8d8708a8049","ios":"levelo://app?vid=226f9053-f467-4aee-bab3-f8d8708a8049"},"vehicle_type_id":"4","last_reported":1750443273,"current_range_meters":11200,"station_id":"ce4bhr92rcd13ifvqhrg","pricing_plan_id":"cebpf4jnsgd1na2vs0mg"},{"bike_id":"f30123e7-96d3-442d-9d01-6c98dc61e7c8","system_id":"levelo_inurba_marseille","lat":43.29806,"lon":5.36844,"is_reserved":false,"is_disabled":false,"rental_uris":{"android":"levelo://app?vid=f30123e7-96d3-442d-9d01-6c98dc61e7c8","ios":"levelo://app?vid=f30123e7-96d3-442d-9d01-6c98dc61e7c8"},"vehicle_type_id":"4","last_reported":1750443273,"current_range_meters":11600,"station_id":"","pricing_plan_id":"cebpf4jnsgd1na2vs0mg"},{"bike_id":"17f3447f-d08d-4c2a-bfde-7d47118927ea","system_id":"levelo_inurba_marseille","lat":43.29195,"lon":5.358,"is_reserved":false,"is_disabled":false,"rental_uris":{"android":"levelo://app?vid=17f3447f-d08d-4c2a-bfde-7d47118927ea","ios":"levelo://app?vid=17f3447f-d08d-4c2a-bfde-7d47118927ea"},"vehicle_type_id":"4","last_reported":1750443273,"current_range_meters":11600,"station_id":"ce4bhb12rcd13ifvqel0","pricing_plan_id":"cebpf4jnsgd1na2vs0mg"},{"bike_id":"4d7e2215-d280-4c9e-892d-097f9d5fe17e","system_id":"levelo_inurba_marseille","lat":43.27374,"lon":5.3625,"is_reserved":false,"is_disabled":false,"rental_uris":{"android":"levelo://app?vid=4d7e2215-d280-4c9e-892d-097f9d5fe17e","ios":"levelo://app?vid=4d7e2215-d280-4c9e-892d-097f9d5fe17e"},"vehicle_type_id":"4","last_reported":1750443273,"current_range_meters":11600,"station_id":"ce4bhbh2rcd13ifvqeo0","pricing_plan_id":"cebpf4jnsgd1na2vs0mg"},{"bike_id":"1e11989f-e475-4397-9a45-bd9147224a5e","system_id":"levelo_inurba_marseille","lat":43.244042,"lon":5.371048,"is_reserved":false,"is_disabled":false,"rental_uris":{"android":"levelo://app?vid=1e11989f-e475-4397-9a45-bd9147224a5e","ios":"levelo://app?vid=1e11989f-e475-4397-9a45-bd9147224a5e"},"vehicle_type_id":"4","last_reported":1750443273,"current_range_meters":11600,"station_id":"ce4bhhh2rcd13ifvqfk0","pricing_plan_id":"cebpf4jnsgd1na2vs0mg"},{"bike_id":"d204ccf6-5e0f-4ab0-9afb-c8de2eb17854","system_id":"levelo_inurba_marseille","lat":43.26486,"lon":5.39544,"is_reserved":false,"is_disabled":false,"rental_uris":{"android":"levelo://app?vid=d204ccf6-5e0f-4ab0-9afb-c8de2eb17854","ios":"levelo://app?vid=d204ccf6-5e0f-4ab0-9afb-c8de2eb17854"},"vehicle_type_id":"4","last_reported":1750443273,"current_range_meters":11600,"station_id":"ce4bhi12rcd13ifvqfq0","pricing_plan_id":"cebpf4jnsgd1na2vs0mg"},{"bike_id":"e9b72e0a-22b6-43d3-b8dd-d3e494e7b121","system_id":"levelo_inurba_marseille","lat":43.28615,"lon":5.35111,"is_reserved":false,"is_disabled":false,"rental_uris":{"android":"levelo://app?vid=e9b72e0a-22b6-43d3-b8dd-d3e494e7b121","ios":"levelo://app?vid=e9b72e0a-22b6-43d3-b8dd-d3e494e7b121"},"vehicle_type_id":"4","last_reported":1750443273,"current_range_meters":12000,"station_id":"","pricing_plan_id":"cebpf4jnsgd1na2vs0mg"},{"bike_id":"199c2831-e081-4bc0-9b94-19503817091d","system_id":"levelo_inurba_marseille","lat":43.24903,"lon":5.4067,"is_reserved":false,"is_disabled":false,"rental_uris":{"android":"levelo://app?vid=199c2831-e081-4bc0-9b94-19503817091d","ios":"levelo://app?vid=199c2831-e081-4bc0-9b94-19503817091d"},"vehicle_type_id":"4","last_reported":1750443273,"current_range_meters":12000,"station_id":"","pricing_plan_id":"cebpf4jnsgd1na2vs0mg"},{"bike_id":"7a76abab-12d1-427c-a57b-19fe1db046ba","system_id":"levelo_inurba_marseille","lat":43.30956,"lon":5.39043,"is_reserved":false,"is_disabled":false,"rental_uris":{"android":"levelo://app?vid=7a76abab-12d1-427c-a57b-19fe1db046ba","ios":"levelo://app?vid=7a76abab-12d1-427c-a57b-19fe1db046ba"},"vehicle_type_id":"4","last_reported":1750443273,"current_range_meters":12000,"station_id":"ce4bgup2rcd13ifvqco0","pricing_plan_id":"cebpf4jnsgd1na2vs0mg"},{"bike_id":"9049a79c-fc92-4646-9bd7-c26ae2ef82ad","system_id":"levelo_inurba_marseille","lat":43.27372,"lon":5.36256,"is_reserved":false,"is_disabled":false,"rental_uris":{"android":"levelo://app?vid=9049a79c-fc92-4646-9bd7-c26ae2ef82ad","ios":"levelo://app?vid=9049a79c-fc92-4646-9bd7-c26ae2ef82ad"},"vehicle_type_id":"4","last_reported":1750443273,"current_range_meters":12000,"station_id":"ce4bhbh2rcd13ifvqeo0","pricing_plan_id":"cebpf4jnsgd1na2vs0mg"},{"bike_id":"496f3967-646c-4b11-b018-4b2db8cbc554","system_id":"levelo_inurba_marseille","lat":43.28283,"lon":5.35092,"is_reserved":false,"is_disabled":false,"rental_uris":{"android":"levelo://app?vid=496f3967-646c-4b11-b018-4b2db8cbc554","ios":"levelo://app?vid=496f3967-646c-4b11-b018-4b2db8cbc554"},"vehicle_type_id":"4","last_reported":1750443273,"current_range_meters":12000,"station_id":"ce4bhbp2rcd13ifvqerg","pricing_plan_id":"cebpf4jnsgd1na2vs0mg"},{"bike_id":"0bca9a6f-f277-45f3-8794-b6271f3fa9cc","system_id":"levelo_inurba_marseille","lat":43.23951,"lon":5.36649,"is_reserved":false,"is_disabled":false,"rental_uris":{"android":"levelo://app?vid=0bca9a6f-f277-45f3-8794-b6271f3fa9cc","ios":"levelo://app?vid=0bca9a6f-f277-45f3-8794-b6271f3fa9cc"},"vehicle_type_id":"4","last_reported":1750443273,"current_range_meters":12000,"station_id":"ce4bhi12rcd13ifvqfp0","pricing_plan_id":"cebpf4jnsgd1na2vs0mg"},{"bike_id":"8fd94bfe-b0a3-4509-a3c9-0f6e3f8eed78","system_id":"levelo_inurba_marseille","lat":43.24172,"lon":5.36387,"is_reserved":false,"is_disabled":false,"rental_uris":{"android":"levelo://app?vid=8fd94bfe-b0a3-4509-a3c9-0f6e3f8eed78","ios":"levelo://app?vid=8fd94bfe-b0a3-4509-a3c9-0f6e3f8eed78"},"vehicle_type_id":"4","last_reported":1750443273,"current_range_meters":12000,"station_id":"cpo36qri1sfpv3e86is0","pricing_plan_id":"cebpf4jnsgd1na2vs0mg"},{"bike_id":"d408f076-4926-4a31-a519-9903eceecc69","system_id":"levelo_inurba_marseille","lat":43.31173,"lon":5.38719,"is_reserved":false,"is_disabled":false,"rental_uris":{"android":"levelo://app?vid=d408f076-4926-4a31-a519-9903eceecc69","ios":"levelo://app?vid=d408f076-4926-4a31-a519-9903eceecc69"},"vehicle_type_id":"4","last_reported":1750443273,"current_range_meters":12400,"station_id":"ce4bgv12rcd13ifvqcp0","pricing_plan_id":"cebpf4jnsgd1na2vs0mg"},{"bike_id":"6243611f-85c4-46f3-9f91-80e7f5a3af6b","system_id":"levelo_inurba_marseille","lat":43.27375,"lon":5.36257,"is_reserved":false,"is_disabled":false,"rental_uris":{"android":"levelo://app?vid=6243611f-85c4-46f3-9f91-80e7f5a3af6b","ios":"levelo://app?vid=6243611f-85c4-46f3-9f91-80e7f5a3af6b"},"vehicle_type_id":"4","last_reported":1750443273,"current_range_meters":12400,"station_id":"ce4bhbh2rcd13ifvqeo0","pricing_plan_id":"cebpf4jnsgd1na2vs0mg"},{"bike_id":"ea94f600-287d-45eb-a561-cfb8128baaf5","system_id":"levelo_inurba_marseille","lat":43.27968,"lon":5.38738,"is_reserved":false,"is_disabled":false,"rental_uris":{"android":"levelo://app?vid=ea94f600-287d-45eb-a561-cfb8128baaf5","ios":"levelo://app?vid=ea94f600-287d-45eb-a561-cfb8128baaf5"},"vehicle_type_id":"4","last_reported":1750443273,"current_range_meters":12400,"station_id":"ce4bhg12rcd13ifvqf80","pricing_plan_id":"cebpf4jnsgd1na2vs0mg"},{"bike_id":"f3282d56-203b-4412-9d50-a01cc1c28ed9","system_id":"levelo_inurba_marseille","lat":43.33016,"lon":5.39057,"is_reserved":false,"is_disabled":false,"rental_uris":{"android":"levelo://app?vid=f3282d56-203b-4412-9d50-a01cc1c28ed9","ios":"levelo://app?vid=f3282d56-203b-4412-9d50-a01cc1c28ed9"},"vehicle_type_id":"4","last_reported":1750443273,"current_range_meters":12400,"station_id":"ce4bhr92rcd13ifvqhrg","pricing_plan_id":"cebpf4jnsgd1na2vs0mg"},{"bike_id":"8300812b-c3f4-4460-a462-0c10590e5460","system_id":"levelo_inurba_marseille","lat":43.329127,"lon":5.405612,"is_reserved":false,"is_disabled":false,"rental_uris":{"android":"levelo://app?vid=8300812b-c3f4-4460-a462-0c10590e5460","ios":"levelo://app?vid=8300812b-c3f4-4460-a462-0c10590e5460"},"vehicle_type_id":"4","last_reported":1750443273,"current_range_meters":12800,"station_id":"","pricing_plan_id":"cebpf4jnsgd1na2vs0mg"},{"bike_id":"510b1add-e212-408d-95f0-109a5e2ca67a","system_id":"levelo_inurba_marseille","lat":43.28403,"lon":5.34987,"is_reserved":false,"is_disabled":false,"rental_uris":{"android":"levelo://app?vid=510b1add-e212-408d-95f0-109a5e2ca67a","ios":"levelo://app?vid=510b1add-e212-408d-95f0-109a5e2ca67a"},"vehicle_type_id":"4","last_reported":1750443273,"current_range_meters":12800,"station_id":"ce4bhbh2rcd13ifvqepg","pricing_plan_id":"cebpf4jnsgd1na2vs0mg"},{"bike_id":"a79a1ca2-cfb4-429f-b5ca-cd3ea3b44a25","system_id":"levelo_inurba_marseille","lat":43.28424,"lon":5.34989,"is_reserved":false,"is_disabled":false,"rental_uris":{"android":"levelo://app?vid=a79a1ca2-cfb4-429f-b5ca-cd3ea3b44a25","ios":"levelo://app?vid=a79a1ca2-cfb4-429f-b5ca-cd3ea3b44a25"},"vehicle_type_id":"4","last_reported":1750443273,"current_range_meters":12800,"station_id":"ce4bhbh2rcd13ifvqepg","pricing_plan_id":"cebpf4jnsgd1na2vs0mg"},{"bike_id":"349be006-466c-4fd5-bb69-ed83dbbfb591","system_id":"levelo_inurba_marseille","lat":43.323392,"lon":5.406234,"is_reserved":false,"is_disabled":false,"rental_uris":{"android":"levelo://app?vid=349be006-466c-4fd5-bb69-ed83dbbfb591","ios":"levelo://app?vid=349be006-466c-4fd5-bb69-ed83dbbfb591"},"vehicle_type_id":"4","last_reported":1750443273,"current_range_meters":13600,"station_id":"ce4bh112rcd13ifvqda0","pricing_plan_id":"cebpf4jnsgd1na2vs0mg"},{"bike_id":"ae8953c8-6573-4964-abc5-4a99edd7ad54","system_id":"levelo_inurba_marseille","lat":43.23149,"lon":5.4371,"is_reserved":false,"is_disabled":false,"rental_uris":{"android":"levelo://app?vid=ae8953c8-6573-4964-abc5-4a99edd7ad54","ios":"levelo://app?vid=ae8953c8-6573-4964-abc5-4a99edd7ad54"},"vehicle_type_id":"4","last_reported":1750443273,"current_range_meters":13600,"station_id":"ce4bhmp2rcd13ifvqgog","pricing_plan_id":"cebpf4jnsgd1na2vs0mg"},{"bike_id":"25c7d098-422f-45fa-8063-4b89bf4d6109","system_id":"levelo_inurba_marseille","lat":43.2958,"lon":5.36742,"is_reserved":false,"is_disabled":false,"rental_uris":{"android":"levelo://app?vid=25c7d098-422f-45fa-8063-4b89bf4d6109","ios":"levelo://app?vid=25c7d098-422f-45fa-8063-4b89bf4d6109"},"vehicle_type_id":"4","last_reported":1750443273,"current_range_meters":14000,"station_id":"ce4bgph2rcd13ifvqc2g","pricing_plan_id":"cebpf4jnsgd1na2vs0mg"},{"bike_id":"a67658ba-d01c-43ed-a9a9-2126efa96529","system_id":"levelo_inurba_marseille","lat":43.30944,"lon":5.39038,"is_reserved":false,"is_disabled":false,"rental_uris":{"android":"levelo://app?vid=a67658ba-d01c-43ed-a9a9-2126efa96529","ios":"levelo://app?vid=a67658ba-d01c-43ed-a9a9-2126efa96529"},"vehicle_type_id":"4","last_reported":1750443273,"current_range_meters":14000,"station_id":"ce4bgup2rcd13ifvqco0","pricing_plan_id":"cebpf4jnsgd1na2vs0mg"},{"bike_id":"0eb04758-0b59-4b82-b42b-fbfc24d51078","system_id":"levelo_inurba_marseille","lat":43.27378,"lon":5.36253,"is_reserved":false,"is_disabled":false,"rental_uris":{"android":"levelo://app?vid=0eb04758-0b59-4b82-b42b-fbfc24d51078","ios":"levelo://app?vid=0eb04758-0b59-4b82-b42b-fbfc24d51078"},"vehicle_type_id":"4","last_reported":1750443273,"current_range_meters":14000,"station_id":"ce4bhbh2rcd13ifvqeo0","pricing_plan_id":"cebpf4jnsgd1na2vs0mg"},{"bike_id":"5fdbadb7-635d-4aa1-9d5c-7ec599de5e17","system_id":"levelo_inurba_marseille","lat":43.32365,"lon":5.38887,"is_reserved":false,"is_disabled":false,"rental_uris":{"android":"levelo://app?vid=5fdbadb7-635d-4aa1-9d5c-7ec599de5e17","ios":"levelo://app?vid=5fdbadb7-635d-4aa1-9d5c-7ec599de5e17"},"vehicle_type_id":"4","last_reported":1750443273,"current_range_meters":14000,"station_id":"ce4bhqp2rcd13ifvqhog","pricing_plan_id":"cebpf4jnsgd1na2vs0mg"},{"bike_id":"a0c6052c-ec1c-4c6b-baf2-74ae3a20362a","system_id":"levelo_inurba_marseille","lat":43.27371,"lon":5.3625,"is_reserved":false,"is_disabled":false,"rental_uris":{"android":"levelo://app?vid=a0c6052c-ec1c-4c6b-baf2-74ae3a20362a","ios":"levelo://app?vid=a0c6052c-ec1c-4c6b-baf2-74ae3a20362a"},"vehicle_type_id":"4","last_reported":1750443273,"current_range_meters":14400,"station_id":"ce4bhbh2rcd13ifvqeo0","pricing_plan_id":"cebpf4jnsgd1na2vs0mg"},{"bike_id":"5c3b2912-54ee-4b02-948c-1965a00526d4","system_id":"levelo_inurba_marseille","lat":43.27365,"lon":5.36254,"is_reserved":false,"is_disabled":false,"rental_uris":{"android":"levelo://app?vid=5c3b2912-54ee-4b02-948c-1965a00526d4","ios":"levelo://app?vid=5c3b2912-54ee-4b02-948c-1965a00526d4"},"vehicle_type_id":"4","last_reported":1750443273,"current_range_meters":14400,"station_id":"ce4bhbh2rcd13ifvqeo0","pricing_plan_id":"cebpf4jnsgd1na2vs0mg"},{"bike_id":"f65505f7-bdc9-40cf-a641-25b38f2e8d77","system_id":"levelo_inurba_marseille","lat":43.27381,"lon":5.36253,"is_reserved":false,"is_disabled":false,"rental_uris":{"android":"levelo://app?vid=f65505f7-bdc9-40cf-a641-25b38f2e8d77","ios":"levelo://app?vid=f65505f7-bdc9-40cf-a641-25b38f2e8d77"},"vehicle_type_id":"4","last_reported":1750443273,"current_range_meters":14400,"station_id":"ce4bhbh2rcd13ifvqeo0","pricing_plan_id":"cebpf4jnsgd1na2vs0mg"},{"bike_id":"c3507ecf-350a-4f40-a3ec-c054291d999e","system_id":"levelo_inurba_marseille","lat":43.28287,"lon":5.35076,"is_reserved":false,"is_disabled":false,"rental_uris":{"android":"levelo://app?vid=c3507ecf-350a-4f40-a3ec-c054291d999e","ios":"levelo://app?vid=c3507ecf-350a-4f40-a3ec-c054291d999e"},"vehicle_type_id":"4","last_reported":1750443273,"current_range_meters":14400,"station_id":"ce4bhbp2rcd13ifvqerg","pricing_plan_id":"cebpf4jnsgd1na2vs0mg"},{"bike_id":"32b33686-79a4-4215-98ad-2c73dfa0a2ab","system_id":"levelo_inurba_marseille","lat":43.28617,"lon":5.35099,"is_reserved":false,"is_disabled":false,"rental_uris":{"android":"levelo://app?vid=32b33686-79a4-4215-98ad-2c73dfa0a2ab","ios":"levelo://app?vid=32b33686-79a4-4215-98ad-2c73dfa0a2ab"},"vehicle_type_id":"4","last_reported":1750443273,"current_range_meters":14400,"station_id":"ce4bhch2rcd13ifvqeug","pricing_plan_id":"cebpf4jnsgd1na2vs0mg"},{"bike_id":"62548a55-3fdb-46df-9c3a-6964d2ca6a38","system_id":"levelo_inurba_marseille","lat":43.25492,"lon":5.3765,"is_reserved":false,"is_disabled":false,"rental_uris":{"android":"levelo://app?vid=62548a55-3fdb-46df-9c3a-6964d2ca6a38","ios":"levelo://app?vid=62548a55-3fdb-46df-9c3a-6964d2ca6a38"},"vehicle_type_id":"4","last_reported":1750443273,"current_range_meters":14400,"station_id":"ce4bhh12rcd13ifvqff0","pricing_plan_id":"cebpf4jnsgd1na2vs0mg"},{"bike_id":"1de87ad6-c65e-4c64-a95d-44e24276bfc5","system_id":"levelo_inurba_marseille","lat":43.25487,"lon":5.37651,"is_reserved":false,"is_disabled":false,"rental_uris":{"android":"levelo://app?vid=1de87ad6-c65e-4c64-a95d-44e24276bfc5","ios":"levelo://app?vid=1de87ad6-c65e-4c64-a95d-44e24276bfc5"},"vehicle_type_id":"4","last_reported":1750443273,"current_range_meters":14400,"station_id":"ce4bhh12rcd13ifvqff0","pricing_plan_id":"cebpf4jnsgd1na2vs0mg"},{"bike_id":"51e479d8-905f-460f-a482-745878976d9a","system_id":"levelo_inurba_marseille","lat":43.23195,"lon":5.3555,"is_reserved":false,"is_disabled":false,"rental_uris":{"android":"levelo://app?vid=51e479d8-905f-460f-a482-745878976d9a","ios":"levelo://app?vid=51e479d8-905f-460f-a482-745878976d9a"},"vehicle_type_id":"4","last_reported":1750443273,"current_range_meters":14400,"station_id":"ce4bhu92rcd13ifvqi70","pricing_plan_id":"cebpf4jnsgd1na2vs0mg"},{"bike_id":"b0c36570-8a06-4ca8-b90b-1ab5801fe902","system_id":"levelo_inurba_marseille","lat":43.31228,"lon":5.40447,"is_reserved":false,"is_disabled":false,"rental_uris":{"android":"levelo://app?vid=b0c36570-8a06-4ca8-b90b-1ab5801fe902","ios":"levelo://app?vid=b0c36570-8a06-4ca8-b90b-1ab5801fe902"},"vehicle_type_id":"4","last_reported":1750443273,"current_range_meters":14800,"station_id":"","pricing_plan_id":"cebpf4jnsgd1na2vs0mg"},{"bike_id":"8f063f00-f9a0-444b-a2a3-5de8850d4b96","system_id":"levelo_inurba_marseille","lat":43.2829,"lon":5.35104,"is_reserved":false,"is_disabled":false,"rental_uris":{"android":"levelo://app?vid=8f063f00-f9a0-444b-a2a3-5de8850d4b96","ios":"levelo://app?vid=8f063f00-f9a0-444b-a2a3-5de8850d4b96"},"vehicle_type_id":"4","last_reported":1750443273,"current_range_meters":14800,"station_id":"ce4bhbp2rcd13ifvqerg","pricing_plan_id":"cebpf4jnsgd1na2vs0mg"},{"bike_id":"959f0c62-9761-4a35-9c23-557e23ca2679","system_id":"levelo_inurba_marseille","lat":43.24667,"lon":5.38165,"is_reserved":false,"is_disabled":false,"rental_uris":{"android":"levelo://app?vid=959f0c62-9761-4a35-9c23-557e23ca2679","ios":"levelo://app?vid=959f0c62-9761-4a35-9c23-557e23ca2679"},"vehicle_type_id":"4","last_reported":1750443273,"current_range_meters":14800,"station_id":"ce4bhih2rcd13ifvqfr0","pricing_plan_id":"cebpf4jnsgd1na2vs0mg"},{"bike_id":"8e92feac-7d18-4ddd-8b47-3e77cf9b9c34","system_id":"levelo_inurba_marseille","lat":43.23177,"lon":5.3555,"is_reserved":false,"is_disabled":false,"rental_uris":{"android":"levelo://app?vid=8e92feac-7d18-4ddd-8b47-3e77cf9b9c34","ios":"levelo://app?vid=8e92feac-7d18-4ddd-8b47-3e77cf9b9c34"},"vehicle_type_id":"4","last_reported":1750443273,"current_range_meters":14800,"station_id":"ce4bhu92rcd13ifvqi70","pricing_plan_id":"cebpf4jnsgd1na2vs0mg"},{"bike_id":"dc540ba2-fb63-45eb-b83a-1826fb3d30b7","system_id":"levelo_inurba_marseille","lat":43.24605,"lon":5.39268,"is_reserved":false,"is_disabled":false,"rental_uris":{"android":"levelo://app?vid=dc540ba2-fb63-45eb-b83a-1826fb3d30b7","ios":"levelo://app?vid=dc540ba2-fb63-45eb-b83a-1826fb3d30b7"},"vehicle_type_id":"4","last_reported":1750443273,"current_range_meters":15200,"station_id":"","pricing_plan_id":"cebpf4jnsgd1na2vs0mg"},{"bike_id":"feb44f10-6826-42db-b0be-346d3249db5f","system_id":"levelo_inurba_marseille","lat":43.26026,"lon":5.37549,"is_reserved":false,"is_disabled":false,"rental_uris":{"android":"levelo://app?vid=feb44f10-6826-42db-b0be-346d3249db5f","ios":"levelo://app?vid=feb44f10-6826-42db-b0be-346d3249db5f"},"vehicle_type_id":"4","last_reported":1750443273,"current_range_meters":15200,"station_id":"ce4bhgh2rcd13ifvqfa0","pricing_plan_id":"cebpf4jnsgd1na2vs0mg"},{"bike_id":"de523d41-f6e2-4cb0-b1b2-8eefdb12be03","system_id":"levelo_inurba_marseille","lat":43.2861,"lon":5.37066,"is_reserved":false,"is_disabled":false,"rental_uris":{"android":"levelo://app?vid=de523d41-f6e2-4cb0-b1b2-8eefdb12be03","ios":"levelo://app?vid=de523d41-f6e2-4cb0-b1b2-8eefdb12be03"},"vehicle_type_id":"4","last_reported":1750443273,"current_range_meters":15200,"station_id":"ce4bht12rcd13ifvqi60","pricing_plan_id":"cebpf4jnsgd1na2vs0mg"},{"bike_id":"d40af265-11b5-43a6-9bb6-f910f57901ba","system_id":"levelo_inurba_marseille","lat":43.32946,"lon":5.38069,"is_reserved":false,"is_disabled":false,"rental_uris":{"android":"levelo://app?vid=d40af265-11b5-43a6-9bb6-f910f57901ba","ios":"levelo://app?vid=d40af265-11b5-43a6-9bb6-f910f57901ba"},"vehicle_type_id":"4","last_reported":1750443273,"current_range_meters":16000,"station_id":"","pricing_plan_id":"cebpf4jnsgd1na2vs0mg"},{"bike_id":"bd27fe72-6fbc-453f-8b77-bee10ab3b13c","system_id":"levelo_inurba_marseille","lat":43.2954,"lon":5.42364,"is_reserved":false,"is_disabled":false,"rental_uris":{"android":"levelo://app?vid=bd27fe72-6fbc-453f-8b77-bee10ab3b13c","ios":"levelo://app?vid=bd27fe72-6fbc-453f-8b77-bee10ab3b13c"},"vehicle_type_id":"4","last_reported":1750443273,"current_range_meters":16000,"station_id":"","pricing_plan_id":"cebpf4jnsgd1na2vs0mg"},{"bike_id":"ce1d718c-1549-4f2f-aafd-5632bac7702f","system_id":"levelo_inurba_marseille","lat":43.2761,"lon":5.36109,"is_reserved":false,"is_disabled":false,"rental_uris":{"android":"levelo://app?vid=ce1d718c-1549-4f2f-aafd-5632bac7702f","ios":"levelo://app?vid=ce1d718c-1549-4f2f-aafd-5632bac7702f"},"vehicle_type_id":"4","last_reported":1750443273,"current_range_meters":16000,"station_id":"ce4bgj92rcd13ifvqbe0","pricing_plan_id":"cebpf4jnsgd1na2vs0mg"},{"bike_id":"8ef11a45-504d-45b0-a2b5-97fef9594218","system_id":"levelo_inurba_marseille","lat":43.29577,"lon":5.38146,"is_reserved":false,"is_disabled":false,"rental_uris":{"android":"levelo://app?vid=8ef11a45-504d-45b0-a2b5-97fef9594218","ios":"levelo://app?vid=8ef11a45-504d-45b0-a2b5-97fef9594218"},"vehicle_type_id":"4","last_reported":1750443273,"current_range_meters":16000,"station_id":"ce4bgl12rcd13ifvqbo0","pricing_plan_id":"cebpf4jnsgd1na2vs0mg"},{"bike_id":"ad9ff56f-6cb6-44b6-9ef1-815b543e217b","system_id":"levelo_inurba_marseille","lat":43.27379,"lon":5.36263,"is_reserved":false,"is_disabled":false,"rental_uris":{"android":"levelo://app?vid=ad9ff56f-6cb6-44b6-9ef1-815b543e217b","ios":"levelo://app?vid=ad9ff56f-6cb6-44b6-9ef1-815b543e217b"},"vehicle_type_id":"4","last_reported":1750443273,"current_range_meters":16000,"station_id":"ce4bhbh2rcd13ifvqeo0","pricing_plan_id":"cebpf4jnsgd1na2vs0mg"},{"bike_id":"6700d47a-e5c6-430a-824a-3cd9078ed94f","system_id":"levelo_inurba_marseille","lat":43.28419,"lon":5.34989,"is_reserved":false,"is_disabled":false,"rental_uris":{"android":"levelo://app?vid=6700d47a-e5c6-430a-824a-3cd9078ed94f","ios":"levelo://app?vid=6700d47a-e5c6-430a-824a-3cd9078ed94f"},"vehicle_type_id":"4","last_reported":1750443273,"current_range_meters":16000,"station_id":"ce4bhbh2rcd13ifvqepg","pricing_plan_id":"cebpf4jnsgd1na2vs0mg"},{"bike_id":"ad7bc185-3adc-4e5b-841b-d61acf8adb22","system_id":"levelo_inurba_marseille","lat":43.29884,"lon":5.36328,"is_reserved":false,"is_disabled":false,"rental_uris":{"android":"levelo://app?vid=ad7bc185-3adc-4e5b-841b-d61acf8adb22","ios":"levelo://app?vid=ad7bc185-3adc-4e5b-841b-d61acf8adb22"},"vehicle_type_id":"4","last_reported":1750443273,"current_range_meters":16400,"station_id":"","pricing_plan_id":"cebpf4jnsgd1na2vs0mg"},{"bike_id":"a22aa312-0025-4f42-88e2-b1e95e79340f","system_id":"levelo_inurba_marseille","lat":43.31705,"lon":5.38392,"is_reserved":false,"is_disabled":false,"rental_uris":{"android":"levelo://app?vid=a22aa312-0025-4f42-88e2-b1e95e79340f","ios":"levelo://app?vid=a22aa312-0025-4f42-88e2-b1e95e79340f"},"vehicle_type_id":"4","last_reported":1750443273,"current_range_meters":16400,"station_id":"","pricing_plan_id":"cebpf4jnsgd1na2vs0mg"},{"bike_id":"8e1f922c-f2eb-4208-9ed3-54ff36a16b05","system_id":"levelo_inurba_marseille","lat":43.29653,"lon":5.37394,"is_reserved":false,"is_disabled":false,"rental_uris":{"android":"levelo://app?vid=8e1f922c-f2eb-4208-9ed3-54ff36a16b05","ios":"levelo://app?vid=8e1f922c-f2eb-4208-9ed3-54ff36a16b05"},"vehicle_type_id":"4","last_reported":1750443273,"current_range_meters":16400,"station_id":"ce4bgop2rcd13ifvqc1g","pricing_plan_id":"cebpf4jnsgd1na2vs0mg"},{"bike_id":"8789fae4-719a-4491-ab04-6ab3fa071721","system_id":"levelo_inurba_marseille","lat":43.28268,"lon":5.35064,"is_reserved":false,"is_disabled":false,"rental_uris":{"android":"levelo://app?vid=8789fae4-719a-4491-ab04-6ab3fa071721","ios":"levelo://app?vid=8789fae4-719a-4491-ab04-6ab3fa071721"},"vehicle_type_id":"4","last_reported":1750443273,"current_range_meters":16400,"station_id":"ce4bhbp2rcd13ifvqerg","pricing_plan_id":"cebpf4jnsgd1na2vs0mg"},{"bike_id":"9478d6de-45b8-49ec-838a-713d0d99de63","system_id":"levelo_inurba_marseille","lat":43.26545,"lon":5.3729,"is_reserved":false,"is_disabled":false,"rental_uris":{"android":"levelo://app?vid=9478d6de-45b8-49ec-838a-713d0d99de63","ios":"levelo://app?vid=9478d6de-45b8-49ec-838a-713d0d99de63"},"vehicle_type_id":"4","last_reported":1750443273,"current_range_meters":16400,"station_id":"ce4bhg12rcd13ifvqf70","pricing_plan_id":"cebpf4jnsgd1na2vs0mg"},{"bike_id":"818f94fb-d99e-4d66-b0ab-9acc162e09b4","system_id":"levelo_inurba_marseille","lat":43.23962,"lon":5.36634,"is_reserved":false,"is_disabled":false,"rental_uris":{"android":"levelo://app?vid=818f94fb-d99e-4d66-b0ab-9acc162e09b4","ios":"levelo://app?vid=818f94fb-d99e-4d66-b0ab-9acc162e09b4"},"vehicle_type_id":"4","last_reported":1750443273,"current_range_meters":16400,"station_id":"ce4bhi12rcd13ifvqfp0","pricing_plan_id":"cebpf4jnsgd1na2vs0mg"},{"bike_id":"c85c7678-53cc-4c8c-864a-36b0e6c3ca47","system_id":"levelo_inurba_marseille","lat":43.32294,"lon":5.38268,"is_reserved":false,"is_disabled":false,"rental_uris":{"android":"levelo://app?vid=c85c7678-53cc-4c8c-864a-36b0e6c3ca47","ios":"levelo://app?vid=c85c7678-53cc-4c8c-864a-36b0e6c3ca47"},"vehicle_type_id":"4","last_reported":1750443273,"current_range_meters":16400,"station_id":"ce4bhr12rcd13ifvqhqg","pricing_plan_id":"cebpf4jnsgd1na2vs0mg"},{"bike_id":"4643bc90-1bac-4c4b-98b1-e2d500830573","system_id":"levelo_inurba_marseille","lat":43.31375,"lon":5.37691,"is_reserved":false,"is_disabled":false,"rental_uris":{"android":"levelo://app?vid=4643bc90-1bac-4c4b-98b1-e2d500830573","ios":"levelo://app?vid=4643bc90-1bac-4c4b-98b1-e2d500830573"},"vehicle_type_id":"4","last_reported":1750443273,"current_range_meters":16800,"station_id":"","pricing_plan_id":"cebpf4jnsgd1na2vs0mg"},{"bike_id":"63aa8048-2f62-4038-a6d7-9a7871b324bf","system_id":"levelo_inurba_marseille","lat":43.2917,"lon":5.35837,"is_reserved":false,"is_disabled":false,"rental_uris":{"android":"levelo://app?vid=63aa8048-2f62-4038-a6d7-9a7871b324bf","ios":"levelo://app?vid=63aa8048-2f62-4038-a6d7-9a7871b324bf"},"vehicle_type_id":"4","last_reported":1750443273,"current_range_meters":16800,"station_id":"","pricing_plan_id":"cebpf4jnsgd1na2vs0mg"},{"bike_id":"7fd33177-702a-42cf-aebd-161caf6fbd2a","system_id":"levelo_inurba_marseille","lat":43.29276,"lon":5.40115,"is_reserved":false,"is_disabled":false,"rental_uris":{"android":"levelo://app?vid=7fd33177-702a-42cf-aebd-161caf6fbd2a","ios":"levelo://app?vid=7fd33177-702a-42cf-aebd-161caf6fbd2a"},"vehicle_type_id":"4","last_reported":1750443273,"current_range_meters":16800,"station_id":"ce4bh312rcd13ifvqdk0","pricing_plan_id":"cebpf4jnsgd1na2vs0mg"},{"bike_id":"a27dfe13-84f1-4a5a-95b6-055954b50ba0","system_id":"levelo_inurba_marseille","lat":43.27368,"lon":5.36245,"is_reserved":false,"is_disabled":false,"rental_uris":{"android":"levelo://app?vid=a27dfe13-84f1-4a5a-95b6-055954b50ba0","ios":"levelo://app?vid=a27dfe13-84f1-4a5a-95b6-055954b50ba0"},"vehicle_type_id":"4","last_reported":1750443273,"current_range_meters":16800,"station_id":"ce4bhbh2rcd13ifvqeo0","pricing_plan_id":"cebpf4jnsgd1na2vs0mg"},{"bike_id":"eee77d17-53bc-4ba5-b76e-054a4d3dcceb","system_id":"levelo_inurba_marseille","lat":43.28427,"lon":5.34994,"is_reserved":false,"is_disabled":false,"rental_uris":{"android":"levelo://app?vid=eee77d17-53bc-4ba5-b76e-054a4d3dcceb","ios":"levelo://app?vid=eee77d17-53bc-4ba5-b76e-054a4d3dcceb"},"vehicle_type_id":"4","last_reported":1750443273,"current_range_meters":16800,"station_id":"ce4bhbh2rcd13ifvqepg","pricing_plan_id":"cebpf4jnsgd1na2vs0mg"},{"bike_id":"49f4d7b3-5db9-4d41-a05c-f22a384c21b4","system_id":"levelo_inurba_marseille","lat":43.265543,"lon":5.373043,"is_reserved":false,"is_disabled":false,"rental_uris":{"android":"levelo://app?vid=49f4d7b3-5db9-4d41-a05c-f22a384c21b4","ios":"levelo://app?vid=49f4d7b3-5db9-4d41-a05c-f22a384c21b4"},"vehicle_type_id":"4","last_reported":1750443273,"current_range_meters":16800,"station_id":"ce4bhg12rcd13ifvqf70","pricing_plan_id":"cebpf4jnsgd1na2vs0mg"},{"bike_id":"833b9aa8-dbc1-4036-870c-2229d9641bf5","system_id":"levelo_inurba_marseille","lat":43.26214,"lon":5.37451,"is_reserved":false,"is_disabled":false,"rental_uris":{"android":"levelo://app?vid=833b9aa8-dbc1-4036-870c-2229d9641bf5","ios":"levelo://app?vid=833b9aa8-dbc1-4036-870c-2229d9641bf5"},"vehicle_type_id":"4","last_reported":1750443273,"current_range_meters":16800,"station_id":"ce4bhgp2rcd13ifvqfc0","pricing_plan_id":"cebpf4jnsgd1na2vs0mg"},{"bike_id":"3dc1a2f8-8b98-4a65-980d-b42a647d0080","system_id":"levelo_inurba_marseille","lat":43.23966,"lon":5.36628,"is_reserved":false,"is_disabled":false,"rental_uris":{"android":"levelo://app?vid=3dc1a2f8-8b98-4a65-980d-b42a647d0080","ios":"levelo://app?vid=3dc1a2f8-8b98-4a65-980d-b42a647d0080"},"vehicle_type_id":"4","last_reported":1750443273,"current_range_meters":16800,"station_id":"ce4bhi12rcd13ifvqfp0","pricing_plan_id":"cebpf4jnsgd1na2vs0mg"},{"bike_id":"8b2e6b0f-2dd4-4ebf-9ba8-9d15f5132e78","system_id":"levelo_inurba_marseille","lat":43.25728,"lon":5.410376,"is_reserved":false,"is_disabled":false,"rental_uris":{"android":"levelo://app?vid=8b2e6b0f-2dd4-4ebf-9ba8-9d15f5132e78","ios":"levelo://app?vid=8b2e6b0f-2dd4-4ebf-9ba8-9d15f5132e78"},"vehicle_type_id":"4","last_reported":1750443273,"current_range_meters":16800,"station_id":"ce4bhkp2rcd13ifvqgd0","pricing_plan_id":"cebpf4jnsgd1na2vs0mg"},{"bike_id":"90c109b5-5cee-495e-8f11-f318c0f086b6","system_id":"levelo_inurba_marseille","lat":43.325,"lon":5.43452,"is_reserved":false,"is_disabled":false,"rental_uris":{"android":"levelo://app?vid=90c109b5-5cee-495e-8f11-f318c0f086b6","ios":"levelo://app?vid=90c109b5-5cee-495e-8f11-f318c0f086b6"},"vehicle_type_id":"4","last_reported":1750443273,"current_range_meters":17200,"station_id":"","pricing_plan_id":"cebpf4jnsgd1na2vs0mg"},{"bike_id":"c12e0239-2341-4971-ba37-14e004df48ca","system_id":"levelo_inurba_marseille","lat":43.298415,"lon":5.362907,"is_reserved":false,"is_disabled":false,"rental_uris":{"android":"levelo://app?vid=c12e0239-2341-4971-ba37-14e004df48ca","ios":"levelo://app?vid=c12e0239-2341-4971-ba37-14e004df48ca"},"vehicle_type_id":"4","last_reported":1750443273,"current_range_meters":17200,"station_id":"ce4bgpp2rcd13ifvqc3g","pricing_plan_id":"cebpf4jnsgd1na2vs0mg"},{"bike_id":"2448fa88-7407-455b-be69-117a33655c5e","system_id":"levelo_inurba_marseille","lat":43.28843,"lon":5.3932,"is_reserved":false,"is_disabled":false,"rental_uris":{"android":"levelo://app?vid=2448fa88-7407-455b-be69-117a33655c5e","ios":"levelo://app?vid=2448fa88-7407-455b-be69-117a33655c5e"},"vehicle_type_id":"4","last_reported":1750443273,"current_range_meters":17200,"station_id":"ce4bh2p2rcd13ifvqdi0","pricing_plan_id":"cebpf4jnsgd1na2vs0mg"},{"bike_id":"ff74690f-3fcb-4841-bfcc-335054c59503","system_id":"levelo_inurba_marseille","lat":43.28422,"lon":5.34978,"is_reserved":false,"is_disabled":false,"rental_uris":{"android":"levelo://app?vid=ff74690f-3fcb-4841-bfcc-335054c59503","ios":"levelo://app?vid=ff74690f-3fcb-4841-bfcc-335054c59503"},"vehicle_type_id":"4","last_reported":1750443273,"current_range_meters":17200,"station_id":"ce4bhbh2rcd13ifvqepg","pricing_plan_id":"cebpf4jnsgd1na2vs0mg"},{"bike_id":"6e37c715-ddd1-4f05-ba0b-28a60fbb9bb1","system_id":"levelo_inurba_marseille","lat":43.286178,"lon":5.35101,"is_reserved":false,"is_disabled":false,"rental_uris":{"android":"levelo://app?vid=6e37c715-ddd1-4f05-ba0b-28a60fbb9bb1","ios":"levelo://app?vid=6e37c715-ddd1-4f05-ba0b-28a60fbb9bb1"},"vehicle_type_id":"4","last_reported":1750443273,"current_range_meters":17200,"station_id":"ce4bhch2rcd13ifvqeug","pricing_plan_id":"cebpf4jnsgd1na2vs0mg"},{"bike_id":"d1b5972b-dc80-45de-9dad-61456c9acb6b","system_id":"levelo_inurba_marseille","lat":43.28612,"lon":5.351087,"is_reserved":false,"is_disabled":false,"rental_uris":{"android":"levelo://app?vid=d1b5972b-dc80-45de-9dad-61456c9acb6b","ios":"levelo://app?vid=d1b5972b-dc80-45de-9dad-61456c9acb6b"},"vehicle_type_id":"4","last_reported":1750443273,"current_range_meters":17200,"station_id":"ce4bhch2rcd13ifvqeug","pricing_plan_id":"cebpf4jnsgd1na2vs0mg"},{"bike_id":"6aff94e1-76dd-4952-9c57-7a53eb69036a","system_id":"levelo_inurba_marseille","lat":43.278636,"lon":5.395539,"is_reserved":false,"is_disabled":false,"rental_uris":{"android":"levelo://app?vid=6aff94e1-76dd-4952-9c57-7a53eb69036a","ios":"levelo://app?vid=6aff94e1-76dd-4952-9c57-7a53eb69036a"},"vehicle_type_id":"4","last_reported":1750443273,"current_range_meters":17200,"station_id":"ce4bhf92rcd13ifvqf40","pricing_plan_id":"cebpf4jnsgd1na2vs0mg"},{"bike_id":"ee020494-ae63-4045-96f0-7d9bec36ba29","system_id":"levelo_inurba_marseille","lat":43.26211,"lon":5.37442,"is_reserved":false,"is_disabled":false,"rental_uris":{"android":"levelo://app?vid=ee020494-ae63-4045-96f0-7d9bec36ba29","ios":"levelo://app?vid=ee020494-ae63-4045-96f0-7d9bec36ba29"},"vehicle_type_id":"4","last_reported":1750443273,"current_range_meters":17200,"station_id":"ce4bhgp2rcd13ifvqfc0","pricing_plan_id":"cebpf4jnsgd1na2vs0mg"},{"bike_id":"204afd8f-d13a-468d-a59c-e2db9671fff1","system_id":"levelo_inurba_marseille","lat":43.24407,"lon":5.3711,"is_reserved":false,"is_disabled":false,"rental_uris":{"android":"levelo://app?vid=204afd8f-d13a-468d-a59c-e2db9671fff1","ios":"levelo://app?vid=204afd8f-d13a-468d-a59c-e2db9671fff1"},"vehicle_type_id":"4","last_reported":1750443273,"current_range_meters":17200,"station_id":"ce4bhhh2rcd13ifvqfk0","pricing_plan_id":"cebpf4jnsgd1na2vs0mg"},{"bike_id":"ffbb0c22-3f4e-4cdb-a0e5-79e3b9f3e1a2","system_id":"levelo_inurba_marseille","lat":43.33776,"lon":5.37438,"is_reserved":false,"is_disabled":false,"rental_uris":{"android":"levelo://app?vid=ffbb0c22-3f4e-4cdb-a0e5-79e3b9f3e1a2","ios":"levelo://app?vid=ffbb0c22-3f4e-4cdb-a0e5-79e3b9f3e1a2"},"vehicle_type_id":"4","last_reported":1750443273,"current_range_meters":17600,"station_id":"","pricing_plan_id":"cebpf4jnsgd1na2vs0mg"},{"bike_id":"10a53cae-5f39-440d-98c1-a1922d590520","system_id":"levelo_inurba_marseille","lat":43.29933,"lon":5.36547,"is_reserved":false,"is_disabled":false,"rental_uris":{"android":"levelo://app?vid=10a53cae-5f39-440d-98c1-a1922d590520","ios":"levelo://app?vid=10a53cae-5f39-440d-98c1-a1922d590520"},"vehicle_type_id":"4","last_reported":1750443273,"current_range_meters":17600,"station_id":"ce4bgm92rcd13ifvqbr0","pricing_plan_id":"cebpf4jnsgd1na2vs0mg"},{"bike_id":"a9fe177d-6cf7-41a6-b924-383cb8edf7ce","system_id":"levelo_inurba_marseille","lat":43.286177,"lon":5.351046,"is_reserved":false,"is_disabled":false,"rental_uris":{"android":"levelo://app?vid=a9fe177d-6cf7-41a6-b924-383cb8edf7ce","ios":"levelo://app?vid=a9fe177d-6cf7-41a6-b924-383cb8edf7ce"},"vehicle_type_id":"4","last_reported":1750443273,"current_range_meters":17600,"station_id":"ce4bhch2rcd13ifvqeug","pricing_plan_id":"cebpf4jnsgd1na2vs0mg"},{"bike_id":"01c0ac0f-b40f-4f7c-a9fe-4fc3ed3169fe","system_id":"levelo_inurba_marseille","lat":43.259802,"lon":5.375561,"is_reserved":false,"is_disabled":false,"rental_uris":{"android":"levelo://app?vid=01c0ac0f-b40f-4f7c-a9fe-4fc3ed3169fe","ios":"levelo://app?vid=01c0ac0f-b40f-4f7c-a9fe-4fc3ed3169fe"},"vehicle_type_id":"4","last_reported":1750443273,"current_range_meters":17600,"station_id":"ce4bhgh2rcd13ifvqfa0","pricing_plan_id":"cebpf4jnsgd1na2vs0mg"},{"bike_id":"b85c12e0-3ba3-4416-a4e4-8b52260fe4a3","system_id":"levelo_inurba_marseille","lat":43.24808,"lon":5.37458,"is_reserved":false,"is_disabled":false,"rental_uris":{"android":"levelo://app?vid=b85c12e0-3ba3-4416-a4e4-8b52260fe4a3","ios":"levelo://app?vid=b85c12e0-3ba3-4416-a4e4-8b52260fe4a3"},"vehicle_type_id":"4","last_reported":1750443273,"current_range_meters":17600,"station_id":"ce4bhgh2rcd13ifvqfb0","pricing_plan_id":"cebpf4jnsgd1na2vs0mg"},{"bike_id":"0314a30c-36ea-4cf2-86c9-cf1047f0c39f","system_id":"levelo_inurba_marseille","lat":43.24387,"lon":5.37058,"is_reserved":false,"is_disabled":false,"rental_uris":{"android":"levelo://app?vid=0314a30c-36ea-4cf2-86c9-cf1047f0c39f","ios":"levelo://app?vid=0314a30c-36ea-4cf2-86c9-cf1047f0c39f"},"vehicle_type_id":"4","last_reported":1750443273,"current_range_meters":17600,"station_id":"ce4bhhh2rcd13ifvqfk0","pricing_plan_id":"cebpf4jnsgd1na2vs0mg"},{"bike_id":"fcfb3ef0-b0c7-4817-863c-fb9dc610b47b","system_id":"levelo_inurba_marseille","lat":43.28719,"lon":5.36085,"is_reserved":false,"is_disabled":false,"rental_uris":{"android":"levelo://app?vid=fcfb3ef0-b0c7-4817-863c-fb9dc610b47b","ios":"levelo://app?vid=fcfb3ef0-b0c7-4817-863c-fb9dc610b47b"},"vehicle_type_id":"4","last_reported":1750443273,"current_range_meters":17600,"station_id":"cki0cbj6b192h4jlfktg","pricing_plan_id":"cebpf4jnsgd1na2vs0mg"},{"bike_id":"5bc1962c-7a28-4e41-9236-e4be2ecb06db","system_id":"levelo_inurba_marseille","lat":43.29581,"lon":5.3674,"is_reserved":false,"is_disabled":false,"rental_uris":{"android":"levelo://app?vid=5bc1962c-7a28-4e41-9236-e4be2ecb06db","ios":"levelo://app?vid=5bc1962c-7a28-4e41-9236-e4be2ecb06db"},"vehicle_type_id":"4","last_reported":1750443273,"current_range_meters":18000,"station_id":"ce4bgph2rcd13ifvqc2g","pricing_plan_id":"cebpf4jnsgd1na2vs0mg"},{"bike_id":"4f566e17-ff24-4089-9aa8-a8bb8822a902","system_id":"levelo_inurba_marseille","lat":43.28286,"lon":5.35103,"is_reserved":false,"is_disabled":false,"rental_uris":{"android":"levelo://app?vid=4f566e17-ff24-4089-9aa8-a8bb8822a902","ios":"levelo://app?vid=4f566e17-ff24-4089-9aa8-a8bb8822a902"},"vehicle_type_id":"4","last_reported":1750443273,"current_range_meters":18000,"station_id":"ce4bhbp2rcd13ifvqerg","pricing_plan_id":"cebpf4jnsgd1na2vs0mg"},{"bike_id":"308f52b2-f293-4d16-91e5-ed21034c7800","system_id":"levelo_inurba_marseille","lat":43.28274,"lon":5.35088,"is_reserved":false,"is_disabled":false,"rental_uris":{"android":"levelo://app?vid=308f52b2-f293-4d16-91e5-ed21034c7800","ios":"levelo://app?vid=308f52b2-f293-4d16-91e5-ed21034c7800"},"vehicle_type_id":"4","last_reported":1750443273,"current_range_meters":18000,"station_id":"ce4bhbp2rcd13ifvqerg","pricing_plan_id":"cebpf4jnsgd1na2vs0mg"},{"bike_id":"64198631-29f4-47e4-896a-e3675e77b2a1","system_id":"levelo_inurba_marseille","lat":43.21194,"lon":5.35076,"is_reserved":false,"is_disabled":false,"rental_uris":{"android":"levelo://app?vid=64198631-29f4-47e4-896a-e3675e77b2a1","ios":"levelo://app?vid=64198631-29f4-47e4-896a-e3675e77b2a1"},"vehicle_type_id":"4","last_reported":1750443273,"current_range_meters":18000,"station_id":"st_cvj6sg6p6f1abm77japg","pricing_plan_id":"cebpf4jnsgd1na2vs0mg"},{"bike_id":"5187990f-0e38-4183-960c-3c6c679fb2e8","system_id":"levelo_inurba_marseille","lat":43.21231,"lon":5.35053,"is_reserved":false,"is_disabled":false,"rental_uris":{"android":"levelo://app?vid=5187990f-0e38-4183-960c-3c6c679fb2e8","ios":"levelo://app?vid=5187990f-0e38-4183-960c-3c6c679fb2e8"},"vehicle_type_id":"4","last_reported":1750443273,"current_range_meters":18800,"station_id":"","pricing_plan_id":"cebpf4jnsgd1na2vs0mg"},{"bike_id":"0f3bd04c-1872-4906-95d2-eef554f08969","system_id":"levelo_inurba_marseille","lat":43.3203,"lon":5.40817,"is_reserved":false,"is_disabled":false,"rental_uris":{"android":"levelo://app?vid=0f3bd04c-1872-4906-95d2-eef554f08969","ios":"levelo://app?vid=0f3bd04c-1872-4906-95d2-eef554f08969"},"vehicle_type_id":"4","last_reported":1750443273,"current_range_meters":18800,"station_id":"","pricing_plan_id":"cebpf4jnsgd1na2vs0mg"},{"bike_id":"2cec0bc7-dead-4af8-95ca-e858e0d59839","system_id":"levelo_inurba_marseille","lat":43.289316,"lon":5.366398,"is_reserved":false,"is_disabled":false,"rental_uris":{"android":"levelo://app?vid=2cec0bc7-dead-4af8-95ca-e858e0d59839","ios":"levelo://app?vid=2cec0bc7-dead-4af8-95ca-e858e0d59839"},"vehicle_type_id":"4","last_reported":1750443273,"current_range_meters":18800,"station_id":"ce4bhap2rcd13ifvqek0","pricing_plan_id":"cebpf4jnsgd1na2vs0mg"},{"bike_id":"e631847c-453c-4b61-8697-eacfe67a8a5f","system_id":"levelo_inurba_marseille","lat":43.28404,"lon":5.34983,"is_reserved":false,"is_disabled":false,"rental_uris":{"android":"levelo://app?vid=e631847c-453c-4b61-8697-eacfe67a8a5f","ios":"levelo://app?vid=e631847c-453c-4b61-8697-eacfe67a8a5f"},"vehicle_type_id":"4","last_reported":1750443273,"current_range_meters":18800,"station_id":"ce4bhbh2rcd13ifvqepg","pricing_plan_id":"cebpf4jnsgd1na2vs0mg"},{"bike_id":"0e194cea-8d4b-41ab-8239-e46158d650f7","system_id":"levelo_inurba_marseille","lat":43.282641,"lon":5.350875,"is_reserved":false,"is_disabled":false,"rental_uris":{"android":"levelo://app?vid=0e194cea-8d4b-41ab-8239-e46158d650f7","ios":"levelo://app?vid=0e194cea-8d4b-41ab-8239-e46158d650f7"},"vehicle_type_id":"4","last_reported":1750443273,"current_range_meters":18800,"station_id":"ce4bhbp2rcd13ifvqerg","pricing_plan_id":"cebpf4jnsgd1na2vs0mg"},{"bike_id":"65490dbb-fb26-48b3-b1b6-17abf527e385","system_id":"levelo_inurba_marseille","lat":43.24161,"lon":5.36425,"is_reserved":false,"is_disabled":false,"rental_uris":{"android":"levelo://app?vid=65490dbb-fb26-48b3-b1b6-17abf527e385","ios":"levelo://app?vid=65490dbb-fb26-48b3-b1b6-17abf527e385"},"vehicle_type_id":"4","last_reported":1750443273,"current_range_meters":18800,"station_id":"cpo36qri1sfpv3e86is0","pricing_plan_id":"cebpf4jnsgd1na2vs0mg"},{"bike_id":"f6069a5d-a2bc-44cc-bc6f-f26f79591d92","system_id":"levelo_inurba_marseille","lat":43.30784,"lon":5.37357,"is_reserved":false,"is_disabled":false,"rental_uris":{"android":"levelo://app?vid=f6069a5d-a2bc-44cc-bc6f-f26f79591d92","ios":"levelo://app?vid=f6069a5d-a2bc-44cc-bc6f-f26f79591d92"},"vehicle_type_id":"4","last_reported":1750443273,"current_range_meters":19200,"station_id":"","pricing_plan_id":"cebpf4jnsgd1na2vs0mg"},{"bike_id":"a03a949d-876f-42db-9564-0aeae678fff4","system_id":"levelo_inurba_marseille","lat":43.29449,"lon":5.44502,"is_reserved":false,"is_disabled":false,"rental_uris":{"android":"levelo://app?vid=a03a949d-876f-42db-9564-0aeae678fff4","ios":"levelo://app?vid=a03a949d-876f-42db-9564-0aeae678fff4"},"vehicle_type_id":"4","last_reported":1750443273,"current_range_meters":19200,"station_id":"","pricing_plan_id":"cebpf4jnsgd1na2vs0mg"},{"bike_id":"367922b5-42cb-42f4-aad2-93d24b9cba6f","system_id":"levelo_inurba_marseille","lat":43.28431,"lon":5.34986,"is_reserved":false,"is_disabled":false,"rental_uris":{"android":"levelo://app?vid=367922b5-42cb-42f4-aad2-93d24b9cba6f","ios":"levelo://app?vid=367922b5-42cb-42f4-aad2-93d24b9cba6f"},"vehicle_type_id":"4","last_reported":1750443273,"current_range_meters":19200,"station_id":"ce4bhbh2rcd13ifvqepg","pricing_plan_id":"cebpf4jnsgd1na2vs0mg"},{"bike_id":"9e6c5dbb-1f16-40d1-b666-440afcf6456e","system_id":"levelo_inurba_marseille","lat":43.26554,"lon":5.3729,"is_reserved":false,"is_disabled":false,"rental_uris":{"android":"levelo://app?vid=9e6c5dbb-1f16-40d1-b666-440afcf6456e","ios":"levelo://app?vid=9e6c5dbb-1f16-40d1-b666-440afcf6456e"},"vehicle_type_id":"4","last_reported":1750443273,"current_range_meters":19200,"station_id":"ce4bhg12rcd13ifvqf70","pricing_plan_id":"cebpf4jnsgd1na2vs0mg"},{"bike_id":"90c5a1b6-730c-413e-bcee-b223ffbd4504","system_id":"levelo_inurba_marseille","lat":43.24158,"lon":5.36407,"is_reserved":false,"is_disabled":false,"rental_uris":{"android":"levelo://app?vid=90c5a1b6-730c-413e-bcee-b223ffbd4504","ios":"levelo://app?vid=90c5a1b6-730c-413e-bcee-b223ffbd4504"},"vehicle_type_id":"4","last_reported":1750443273,"current_range_meters":19200,"station_id":"cpo36qri1sfpv3e86is0","pricing_plan_id":"cebpf4jnsgd1na2vs0mg"},{"bike_id":"973db25f-144a-495b-98c4-15b4ae2dacd8","system_id":"levelo_inurba_marseille","lat":43.3132,"lon":5.37493,"is_reserved":false,"is_disabled":false,"rental_uris":{"android":"levelo://app?vid=973db25f-144a-495b-98c4-15b4ae2dacd8","ios":"levelo://app?vid=973db25f-144a-495b-98c4-15b4ae2dacd8"},"vehicle_type_id":"4","last_reported":1750443273,"current_range_meters":19600,"station_id":"","pricing_plan_id":"cebpf4jnsgd1na2vs0mg"},{"bike_id":"c47c2ea7-3ccc-46b7-b518-7d76a97808fe","system_id":"levelo_inurba_marseille","lat":43.27366,"lon":5.36237,"is_reserved":false,"is_disabled":false,"rental_uris":{"android":"levelo://app?vid=c47c2ea7-3ccc-46b7-b518-7d76a97808fe","ios":"levelo://app?vid=c47c2ea7-3ccc-46b7-b518-7d76a97808fe"},"vehicle_type_id":"4","last_reported":1750443273,"current_range_meters":19600,"station_id":"ce4bhbh2rcd13ifvqeo0","pricing_plan_id":"cebpf4jnsgd1na2vs0mg"},{"bike_id":"b7a04b9f-b579-448f-8183-22169ab1145d","system_id":"levelo_inurba_marseille","lat":43.27376,"lon":5.36251,"is_reserved":false,"is_disabled":false,"rental_uris":{"android":"levelo://app?vid=b7a04b9f-b579-448f-8183-22169ab1145d","ios":"levelo://app?vid=b7a04b9f-b579-448f-8183-22169ab1145d"},"vehicle_type_id":"4","last_reported":1750443273,"current_range_meters":19600,"station_id":"ce4bhbh2rcd13ifvqeo0","pricing_plan_id":"cebpf4jnsgd1na2vs0mg"},{"bike_id":"1999f018-1eda-4f5f-83a0-805825c5f0cf","system_id":"levelo_inurba_marseille","lat":43.28426,"lon":5.34975,"is_reserved":false,"is_disabled":false,"rental_uris":{"android":"levelo://app?vid=1999f018-1eda-4f5f-83a0-805825c5f0cf","ios":"levelo://app?vid=1999f018-1eda-4f5f-83a0-805825c5f0cf"},"vehicle_type_id":"4","last_reported":1750443273,"current_range_meters":19600,"station_id":"ce4bhbh2rcd13ifvqepg","pricing_plan_id":"cebpf4jnsgd1na2vs0mg"},{"bike_id":"b32c0344-9dc5-4e1d-beac-e06156a8c37a","system_id":"levelo_inurba_marseille","lat":43.28285,"lon":5.35085,"is_reserved":false,"is_disabled":false,"rental_uris":{"android":"levelo://app?vid=b32c0344-9dc5-4e1d-beac-e06156a8c37a","ios":"levelo://app?vid=b32c0344-9dc5-4e1d-beac-e06156a8c37a"},"vehicle_type_id":"4","last_reported":1750443273,"current_range_meters":19600,"station_id":"ce4bhbp2rcd13ifvqerg","pricing_plan_id":"cebpf4jnsgd1na2vs0mg"},{"bike_id":"65aa2e13-d43a-4cd7-b968-1ac008ef01d5","system_id":"levelo_inurba_marseille","lat":43.28623,"lon":5.351,"is_reserved":false,"is_disabled":false,"rental_uris":{"android":"levelo://app?vid=65aa2e13-d43a-4cd7-b968-1ac008ef01d5","ios":"levelo://app?vid=65aa2e13-d43a-4cd7-b968-1ac008ef01d5"},"vehicle_type_id":"4","last_reported":1750443273,"current_range_meters":19600,"station_id":"ce4bhch2rcd13ifvqeug","pricing_plan_id":"cebpf4jnsgd1na2vs0mg"},{"bike_id":"dd2b3eb9-6f82-45d8-92b5-2780508a09b3","system_id":"levelo_inurba_marseille","lat":43.3229,"lon":5.38279,"is_reserved":false,"is_disabled":false,"rental_uris":{"android":"levelo://app?vid=dd2b3eb9-6f82-45d8-92b5-2780508a09b3","ios":"levelo://app?vid=dd2b3eb9-6f82-45d8-92b5-2780508a09b3"},"vehicle_type_id":"4","last_reported":1750443273,"current_range_meters":19600,"station_id":"ce4bhr12rcd13ifvqhqg","pricing_plan_id":"cebpf4jnsgd1na2vs0mg"},{"bike_id":"1361e3cf-df29-4117-9e0c-27390a013c55","system_id":"levelo_inurba_marseille","lat":43.30946,"lon":5.3903,"is_reserved":false,"is_disabled":false,"rental_uris":{"android":"levelo://app?vid=1361e3cf-df29-4117-9e0c-27390a013c55","ios":"levelo://app?vid=1361e3cf-df29-4117-9e0c-27390a013c55"},"vehicle_type_id":"4","last_reported":1750443273,"current_range_meters":20000,"station_id":"ce4bgup2rcd13ifvqco0","pricing_plan_id":"cebpf4jnsgd1na2vs0mg"},{"bike_id":"c97f21c3-a4d5-4c44-8db8-7b4057367130","system_id":"levelo_inurba_marseille","lat":43.27379,"lon":5.36234,"is_reserved":false,"is_disabled":false,"rental_uris":{"android":"levelo://app?vid=c97f21c3-a4d5-4c44-8db8-7b4057367130","ios":"levelo://app?vid=c97f21c3-a4d5-4c44-8db8-7b4057367130"},"vehicle_type_id":"4","last_reported":1750443273,"current_range_meters":20000,"station_id":"ce4bhbh2rcd13ifvqeo0","pricing_plan_id":"cebpf4jnsgd1na2vs0mg"},{"bike_id":"1c6eee43-889f-4cff-bc8c-307447a31830","system_id":"levelo_inurba_marseille","lat":43.30789,"lon":5.4353,"is_reserved":false,"is_disabled":false,"rental_uris":{"android":"levelo://app?vid=1c6eee43-889f-4cff-bc8c-307447a31830","ios":"levelo://app?vid=1c6eee43-889f-4cff-bc8c-307447a31830"},"vehicle_type_id":"4","last_reported":1750443273,"current_range_meters":20000,"station_id":"ce4bhph2rcd13ifvqheg","pricing_plan_id":"cebpf4jnsgd1na2vs0mg"},{"bike_id":"982d89d8-a333-4489-bc32-54551848dace","system_id":"levelo_inurba_marseille","lat":43.337444,"lon":5.374475,"is_reserved":false,"is_disabled":false,"rental_uris":{"android":"levelo://app?vid=982d89d8-a333-4489-bc32-54551848dace","ios":"levelo://app?vid=982d89d8-a333-4489-bc32-54551848dace"},"vehicle_type_id":"4","last_reported":1750443273,"current_range_meters":20400,"station_id":"","pricing_plan_id":"cebpf4jnsgd1na2vs0mg"},{"bike_id":"34df66b2-817d-411a-9cd2-24f45179ad71","system_id":"levelo_inurba_marseille","lat":43.29841,"lon":5.36265,"is_reserved":false,"is_disabled":false,"rental_uris":{"android":"levelo://app?vid=34df66b2-817d-411a-9cd2-24f45179ad71","ios":"levelo://app?vid=34df66b2-817d-411a-9cd2-24f45179ad71"},"vehicle_type_id":"4","last_reported":1750443273,"current_range_meters":20400,"station_id":"ce4bgpp2rcd13ifvqc3g","pricing_plan_id":"cebpf4jnsgd1na2vs0mg"},{"bike_id":"2bae7400-bf36-47e8-9fa5-24e89578e408","system_id":"levelo_inurba_marseille","lat":43.273704,"lon":5.362473,"is_reserved":false,"is_disabled":false,"rental_uris":{"android":"levelo://app?vid=2bae7400-bf36-47e8-9fa5-24e89578e408","ios":"levelo://app?vid=2bae7400-bf36-47e8-9fa5-24e89578e408"},