{"last_updated":1744492070,"ttl":60,"version":"2.2","data":{"bikes":[{"bike_id":"57127ba5-30be-4296-91d7-d6b1eb13229e","system_id":"levelo_inurba_marseille","lat":43.29624,"lon":5.37719,"is_reserved":false,"is_disabled":false,"rental_uris":{"android":"levelo://app?vid=57127ba5-30be-4296-91d7-d6b1eb13229e","ios":"levelo://app?vid=57127ba5-30be-4296-91d7-d6b1eb13229e"},"vehicle_type_id":"4","last_reported":1744492070,"current_range_meters":2800,"station_id":"ce4bgi92rcd13ifvqb90","pricing_plan_id":"cebpf4jnsgd1na2vs0mg"},{"bike_id":"cdbd18e8-3b85-49bd-9a63-1835fe8792d9","system_id":"levelo_inurba_marseille","lat":43.25853,"lon":5.3992,"is_reserved":false,"is_disabled":false,"rental_uris":{"android":"levelo://app?vid=cdbd18e8-3b85-49bd-9a63-1835fe8792d9","ios":"levelo://app?vid=cdbd18e8-3b85-49bd-9a63-1835fe8792d9"},"vehicle_type_id":"4","last_reported":1744492070,"current_range_meters":2800,"station_id":"ce4bhl92rcd13ifvqghg","pricing_plan_id":"cebpf4jnsgd1na2vs0mg"},{"bike_id":"d7f9e116-c5b6-4b81-b124-ce6019a2d1cb","system_id":"levelo_inurba_marseille","lat":43.21739,"lon":5.34603,"is_reserved":false,"is_disabled":true,"rental_uris":{"android":"levelo://app?vid=d7f9e116-c5b6-4b81-b124-ce6019a2d1cb","ios":"levelo://app?vid=d7f9e116-c5b6-4b81-b124-ce6019a2d1cb"},"vehicle_type_id":"4","last_reported":1744492070,"current_range_meters":2800,"station_id":"st_cvj6r9ubvosntc0bgbag","pricing_plan_id":"cebpf4jnsgd1na2vs0mg"},{"bike_id":"6cb1ae1c-93dc-4a39-b47f-8e6d876846ff","system_id":"levelo_inurba_marseille","lat":43.28455,"lon":5.35889,"is_reserved":false,"is_disabled":false,"rental_uris":{"android":"levelo://app?vid=6cb1ae1c-93dc-4a39-b47f-8e6d876846ff","ios":"levelo://app?vid=6cb1ae1c-93dc-4a39-b47f-8e6d876846ff"},"vehicle_type_id":"4","last_reported":1744492070,"current_range_meters":2800,"station_id":"ce4bhah2rcd13ifvqei0","pricing_plan_id":"cebpf4jnsgd1na2vs0mg"},{"bike_id":"b900bc15-66b5-4ec1-8d88-5441cd494a92","system_id":"levelo_inurba_marseille","lat":43.294373,"lon":5.39756,"is_reserved":false,"is_disabled":false,"rental_uris":{"android":"levelo://app?vid=b900bc15-66b5-4ec1-8d88-5441cd494a92","ios":"levelo://app?vid=b900bc15-66b5-4ec1-8d88-5441cd494a92"},"vehicle_type_id":"4","last_reported":1744492070,"current_range_meters":3200,"station_id":"ce4bh3h2rcd13ifvqdo0","pricing_plan_id":"cebpf4jnsgd1na2vs0mg"},{"bike_id":"a65890df-f0fe-477d-9999-bba7c920f3d2","system_id":"levelo_inurba_marseille","lat":43.3112,"lon":5.37788,"is_reserved":false,"is_disabled":false,"rental_uris":{"android":"levelo://app?vid=a65890df-f0fe-477d-9999-bba7c920f3d2","ios":"levelo://app?vid=a65890df-f0fe-477d-9999-bba7c920f3d2"},"vehicle_type_id":"4","last_reported":1744492070,"current_range_meters":3600,"station_id":"ce4bgt92rcd13ifvqcg0","pricing_plan_id":"cebpf4jnsgd1na2vs0mg"},{"bike_id":"df46ec41-e29d-4d84-afbc-41f1b2d94611","system_id":"levelo_inurba_marseille","lat":43.250954,"lon":5.403286,"is_reserved":false,"is_disabled":false,"rental_uris":{"android":"levelo://app?vid=df46ec41-e29d-4d84-afbc-41f1b2d94611","ios":"levelo://app?vid=df46ec41-e29d-4d84-afbc-41f1b2d94611"},"vehicle_type_id":"4","last_reported":1744492070,"current_range_meters":3600,"station_id":"ce4bhlh2rcd13ifvqgig","pricing_plan_id":"cebpf4jnsgd1na2vs0mg"},{"bike_id":"d507a063-e2b0-42bd-bc88-1e926ab56212","system_id":"levelo_inurba_marseille","lat":43.30601,"lon":5.37229,"is_reserved":false,"is_disabled":false,"rental_uris":{"android":"levelo://app?vid=d507a063-e2b0-42bd-bc88-1e926ab56212","ios":"levelo://app?vid=d507a063-e2b0-42bd-bc88-1e926ab56212"},"vehicle_type_id":"4","last_reported":1744492070,"current_range_meters":4000,"station_id":"ce4bgqh2rcd13ifvqc4g","pricing_plan_id":"cebpf4jnsgd1na2vs0mg"},{"bike_id":"b7189415-bd40-4973-96fe-f70e24b4edf2","system_id":"levelo_inurba_marseille","lat":43.26212,"lon":5.37443,"is_reserved":false,"is_disabled":false,"rental_uris":{"android":"levelo://app?vid=b7189415-bd40-4973-96fe-f70e24b4edf2","ios":"levelo://app?vid=b7189415-bd40-4973-96fe-f70e24b4edf2"},"vehicle_type_id":"4","last_reported":1744492070,"current_range_meters":4000,"station_id":"ce4bhgp2rcd13ifvqfc0","pricing_plan_id":"cebpf4jnsgd1na2vs0mg"},{"bike_id":"c89a60d3-e068-44a5-a543-3e2d3239d23a","system_id":"levelo_inurba_marseille","lat":43.27503,"lon":5.42465,"is_reserved":false,"is_disabled":false,"rental_uris":{"android":"levelo://app?vid=c89a60d3-e068-44a5-a543-3e2d3239d23a","ios":"levelo://app?vid=c89a60d3-e068-44a5-a543-3e2d3239d23a"},"vehicle_type_id":"4","last_reported":1744492070,"current_range_meters":4000,"station_id":"ce4bhn92rcd13ifvqgrg","pricing_plan_id":"cebpf4jnsgd1na2vs0mg"},{"bike_id":"c6846a9b-01f1-4239-888b-b2eedd6542a3","system_id":"levelo_inurba_marseille","lat":43.25483,"lon":5.37636,"is_reserved":false,"is_disabled":false,"rental_uris":{"android":"levelo://app?vid=c6846a9b-01f1-4239-888b-b2eedd6542a3","ios":"levelo://app?vid=c6846a9b-01f1-4239-888b-b2eedd6542a3"},"vehicle_type_id":"4","last_reported":1744492070,"current_range_meters":4400,"station_id":"ce4bhh12rcd13ifvqff0","pricing_plan_id":"cebpf4jnsgd1na2vs0mg"},{"bike_id":"73039691-3bf5-41de-b513-f306b0a6b692","system_id":"levelo_inurba_marseille","lat":43.2417,"lon":5.39733,"is_reserved":false,"is_disabled":false,"rental_uris":{"android":"levelo://app?vid=73039691-3bf5-41de-b513-f306b0a6b692","ios":"levelo://app?vid=73039691-3bf5-41de-b513-f306b0a6b692"},"vehicle_type_id":"4","last_reported":1744492070,"current_range_meters":4400,"station_id":"ce4bhn12rcd13ifvqgpg","pricing_plan_id":"cebpf4jnsgd1na2vs0mg"},{"bike_id":"1620f5c4-a1ee-41ed-8dd0-def69688a41d","system_id":"levelo_inurba_marseille","lat":43.2677,"lon":5.3943,"is_reserved":false,"is_disabled":true,"rental_uris":{"android":"levelo://app?vid=1620f5c4-a1ee-41ed-8dd0-def69688a41d","ios":"levelo://app?vid=1620f5c4-a1ee-41ed-8dd0-def69688a41d"},"vehicle_type_id":"4","last_reported":1744492070,"current_range_meters":4400,"station_id":"ce4bhh12rcd13ifvqfg0","pricing_plan_id":"cebpf4jnsgd1na2vs0mg"},{"bike_id":"d1140c31-eddd-45db-bcb8-0691e5dfc35c","system_id":"levelo_inurba_marseille","lat":43.31223,"lon":5.36842,"is_reserved":false,"is_disabled":false,"rental_uris":{"android":"levelo://app?vid=d1140c31-eddd-45db-bcb8-0691e5dfc35c","ios":"levelo://app?vid=d1140c31-eddd-45db-bcb8-0691e5dfc35c"},"vehicle_type_id":"4","last_reported":1744492070,"current_range_meters":4000,"station_id":"ce4bgl92rcd13ifvqbq0","pricing_plan_id":"cebpf4jnsgd1na2vs0mg"},{"bike_id":"d3efe70f-6df8-4bb2-9dad-b08ce619d811","system_id":"levelo_inurba_marseille","lat":43.24807,"lon":5.3745,"is_reserved":false,"is_disabled":false,"rental_uris":{"android":"levelo://app?vid=d3efe70f-6df8-4bb2-9dad-b08ce619d811","ios":"levelo://app?vid=d3efe70f-6df8-4bb2-9dad-b08ce619d811"},"vehicle_type_id":"4","last_reported":1744492070,"current_range_meters":4800,"station_id":"ce4bhgh2rcd13ifvqfb0","pricing_plan_id":"cebpf4jnsgd1na2vs0mg"},{"bike_id":"00673b85-6711-4859-b3bf-30a6d0492894","system_id":"levelo_inurba_marseille","lat":43.25505,"lon":5.37618,"is_reserved":false,"is_disabled":true,"rental_uris":{"android":"levelo://app?vid=00673b85-6711-4859-b3bf-30a6d0492894","ios":"levelo://app?vid=00673b85-6711-4859-b3bf-30a6d0492894"},"vehicle_type_id":"4","last_reported":1744492070,"current_range_meters":4800,"station_id":"ce4bhh12rcd13ifvqff0","pricing_plan_id":"cebpf4jnsgd1na2vs0mg"},{"bike_id":"a1ab8365-9ca1-4ab9-974f-f466efc4cb40","system_id":"levelo_inurba_marseille","lat":43.2962,"lon":5.37726,"is_reserved":false,"is_disabled":false,"rental_uris":{"android":"levelo://app?vid=a1ab8365-9ca1-4ab9-974f-f466efc4cb40","ios":"levelo://app?vid=a1ab8365-9ca1-4ab9-974f-f466efc4cb40"},"vehicle_type_id":"4","last_reported":1744492070,"current_range_meters":4800,"station_id":"ce4bgi92rcd13ifvqb90","pricing_plan_id":"cebpf4jnsgd1na2vs0mg"},{"bike_id":"3ac73e63-1619-4c1b-a7d0-7311424e94ef","system_id":"levelo_inurba_marseille","lat":43.29024,"lon":5.37626,"is_reserved":false,"is_disabled":false,"rental_uris":{"android":"levelo://app?vid=3ac73e63-1619-4c1b-a7d0-7311424e94ef","ios":"levelo://app?vid=3ac73e63-1619-4c1b-a7d0-7311424e94ef"},"vehicle_type_id":"4","last_reported":1744492070,"current_range_meters":4800,"station_id":"ce4bh692rcd13ifvqe90","pricing_plan_id":"cebpf4jnsgd1na2vs0mg"},{"bike_id":"38441e6a-dc01-41ef-8d3d-55f08dbc4732","system_id":"levelo_inurba_marseille","lat":43.29255,"lon":5.37607,"is_reserved":false,"is_disabled":false,"rental_uris":{"android":"levelo://app?vid=38441e6a-dc01-41ef-8d3d-55f08dbc4732","ios":"levelo://app?vid=38441e6a-dc01-41ef-8d3d-55f08dbc4732"},"vehicle_type_id":"4","last_reported":1744492070,"current_range_meters":4800,"station_id":"ce4bgi12rcd13ifvqb80","pricing_plan_id":"cebpf4jnsgd1na2vs0mg"},{"bike_id":"f96c0c65-7fce-4b6c-8bb2-232128e93959","system_id":"levelo_inurba_marseille","lat":43.30493,"lon":5.39344,"is_reserved":false,"is_disabled":false,"rental_uris":{"android":"levelo://app?vid=f96c0c65-7fce-4b6c-8bb2-232128e93959","ios":"levelo://app?vid=f96c0c65-7fce-4b6c-8bb2-232128e93959"},"vehicle_type_id":"4","last_reported":1744492070,"current_range_meters":5600,"station_id":"","pricing_plan_id":"cebpf4jnsgd1na2vs0mg"},{"bike_id":"39677117-0804-4e3f-8ba6-4ae2c33035b6","system_id":"levelo_inurba_marseille","lat":43.25859,"lon":5.3991,"is_reserved":false,"is_disabled":false,"rental_uris":{"android":"levelo://app?vid=39677117-0804-4e3f-8ba6-4ae2c33035b6","ios":"levelo://app?vid=39677117-0804-4e3f-8ba6-4ae2c33035b6"},"vehicle_type_id":"4","last_reported":1744492070,"current_range_meters":6000,"station_id":"ce4bhl92rcd13ifvqghg","pricing_plan_id":"cebpf4jnsgd1na2vs0mg"},{"bike_id":"c37b2b3b-731d-4973-b93c-a5887718f062","system_id":"levelo_inurba_marseille","lat":43.24805,"lon":5.37455,"is_reserved":false,"is_disabled":false,"rental_uris":{"android":"levelo://app?vid=c37b2b3b-731d-4973-b93c-a5887718f062","ios":"levelo://app?vid=c37b2b3b-731d-4973-b93c-a5887718f062"},"vehicle_type_id":"4","last_reported":1744492070,"current_range_meters":6000,"station_id":"ce4bhgh2rcd13ifvqfb0","pricing_plan_id":"cebpf4jnsgd1na2vs0mg"},{"bike_id":"4f4e3f0e-1201-4aaa-a04f-a7e732d643c2","system_id":"levelo_inurba_marseille","lat":43.27317,"lon":5.39069,"is_reserved":false,"is_disabled":false,"rental_uris":{"android":"levelo://app?vid=4f4e3f0e-1201-4aaa-a04f-a7e732d643c2","ios":"levelo://app?vid=4f4e3f0e-1201-4aaa-a04f-a7e732d643c2"},"vehicle_type_id":"4","last_reported":1744492070,"current_range_meters":5600,"station_id":"ce4bhgp2rcd13ifvqfe0","pricing_plan_id":"cebpf4jnsgd1na2vs0mg"},{"bike_id":"0855f12f-97ee-46ad-b952-eb1b9e0e7b5a","system_id":"levelo_inurba_marseille","lat":43.28938,"lon":5.3663,"is_reserved":false,"is_disabled":false,"rental_uris":{"android":"levelo://app?vid=0855f12f-97ee-46ad-b952-eb1b9e0e7b5a","ios":"levelo://app?vid=0855f12f-97ee-46ad-b952-eb1b9e0e7b5a"},"vehicle_type_id":"4","last_reported":1744492070,"current_range_meters":6000,"station_id":"ce4bhap2rcd13ifvqek0","pricing_plan_id":"cebpf4jnsgd1na2vs0mg"},{"bike_id":"94455896-0f19-4fae-bd72-9879f01fcd6e","system_id":"levelo_inurba_marseille","lat":43.29563,"lon":5.42284,"is_reserved":false,"is_disabled":true,"rental_uris":{"android":"levelo://app?vid=94455896-0f19-4fae-bd72-9879f01fcd6e","ios":"levelo://app?vid=94455896-0f19-4fae-bd72-9879f01fcd6e"},"vehicle_type_id":"4","last_reported":1744492070,"current_range_meters":6000,"station_id":"ce4bhph2rcd13ifvqhdg","pricing_plan_id":"cebpf4jnsgd1na2vs0mg"},{"bike_id":"e5f16e14-a60e-4fee-bc7e-c4cf9835dec0","system_id":"levelo_inurba_marseille","lat":43.28928,"lon":5.3838,"is_reserved":false,"is_disabled":false,"rental_uris":{"android":"levelo://app?vid=e5f16e14-a60e-4fee-bc7e-c4cf9835dec0","ios":"levelo://app?vid=e5f16e14-a60e-4fee-bc7e-c4cf9835dec0"},"vehicle_type_id":"4","last_reported":1744492070,"current_range_meters":6000,"station_id":"ce4bh612rcd13ifvqe6g","pricing_plan_id":"cebpf4jnsgd1na2vs0mg"},{"bike_id":"94a2d289-6a01-4914-95dd-c0bbac3ace54","system_id":"levelo_inurba_marseille","lat":43.2957,"lon":5.42315,"is_reserved":false,"is_disabled":false,"rental_uris":{"android":"levelo://app?vid=94a2d289-6a01-4914-95dd-c0bbac3ace54","ios":"levelo://app?vid=94a2d289-6a01-4914-95dd-c0bbac3ace54"},"vehicle_type_id":"4","last_reported":1744492070,"current_range_meters":6400,"station_id":"ce4bhph2rcd13ifvqhdg","pricing_plan_id":"cebpf4jnsgd1na2vs0mg"},{"bike_id":"f08782e8-dfbb-4694-a97f-b4b016ab5364","system_id":"levelo_inurba_marseille","lat":43.29421,"lon":5.41244,"is_reserved":false,"is_disabled":false,"rental_uris":{"android":"levelo://app?vid=f08782e8-dfbb-4694-a97f-b4b016ab5364","ios":"levelo://app?vid=f08782e8-dfbb-4694-a97f-b4b016ab5364"},"vehicle_type_id":"4","last_reported":1744492070,"current_range_meters":6000,"station_id":"","pricing_plan_id":"cebpf4jnsgd1na2vs0mg"},{"bike_id":"3752513c-ea7f-4d6e-a353-1f5ae1d5093c","system_id":"levelo_inurba_marseille","lat":43.28935,"lon":5.36386,"is_reserved":false,"is_disabled":false,"rental_uris":{"android":"levelo://app?vid=3752513c-ea7f-4d6e-a353-1f5ae1d5093c","ios":"levelo://app?vid=3752513c-ea7f-4d6e-a353-1f5ae1d5093c"},"vehicle_type_id":"4","last_reported":1744492070,"current_range_meters":6400,"station_id":"ce4bhc92rcd13ifvqetg","pricing_plan_id":"cebpf4jnsgd1na2vs0mg"},{"bike_id":"d900cbee-347a-40a5-8842-54666ce0b791","system_id":"levelo_inurba_marseille","lat":43.317547,"lon":5.390181,"is_reserved":false,"is_disabled":false,"rental_uris":{"android":"levelo://app?vid=d900cbee-347a-40a5-8842-54666ce0b791","ios":"levelo://app?vid=d900cbee-347a-40a5-8842-54666ce0b791"},"vehicle_type_id":"4","last_reported":1744492070,"current_range_meters":6400,"station_id":"ce4bgi12rcd13ifvqb70","pricing_plan_id":"cebpf4jnsgd1na2vs0mg"},{"bike_id":"7dc6f05c-f257-4d62-b71b-a2b97753d797","system_id":"levelo_inurba_marseille","lat":43.30563,"lon":5.3843,"is_reserved":false,"is_disabled":true,"rental_uris":{"android":"levelo://app?vid=7dc6f05c-f257-4d62-b71b-a2b97753d797","ios":"levelo://app?vid=7dc6f05c-f257-4d62-b71b-a2b97753d797"},"vehicle_type_id":"4","last_reported":1744492070,"current_range_meters":6400,"station_id":"ce4bgg92rcd13ifvqb30","pricing_plan_id":"cebpf4jnsgd1na2vs0mg"},{"bike_id":"3f08cc69-711e-4264-b923-68891203ffa4","system_id":"levelo_inurba_marseille","lat":43.32285,"lon":5.38243,"is_reserved":false,"is_disabled":false,"rental_uris":{"android":"levelo://app?vid=3f08cc69-711e-4264-b923-68891203ffa4","ios":"levelo://app?vid=3f08cc69-711e-4264-b923-68891203ffa4"},"vehicle_type_id":"4","last_reported":1744492070,"current_range_meters":6400,"station_id":"ce4bhr12rcd13ifvqhqg","pricing_plan_id":"cebpf4jnsgd1na2vs0mg"},{"bike_id":"2c090ae2-15a5-4c3d-a26e-68e90bb7aebe","system_id":"levelo_inurba_marseille","lat":43.23178,"lon":5.39984,"is_reserved":false,"is_disabled":false,"rental_uris":{"android":"levelo://app?vid=2c090ae2-15a5-4c3d-a26e-68e90bb7aebe","ios":"levelo://app?vid=2c090ae2-15a5-4c3d-a26e-68e90bb7aebe"},"vehicle_type_id":"4","last_reported":1744492070,"current_range_meters":6400,"station_id":"ce4bhn12rcd13ifvqgqg","pricing_plan_id":"cebpf4jnsgd1na2vs0mg"},{"bike_id":"bc85ebee-8a26-49f4-a12e-62e08bdf4307","system_id":"levelo_inurba_marseille","lat":43.29534,"lon":5.38561,"is_reserved":false,"is_disabled":false,"rental_uris":{"android":"levelo://app?vid=bc85ebee-8a26-49f4-a12e-62e08bdf4307","ios":"levelo://app?vid=bc85ebee-8a26-49f4-a12e-62e08bdf4307"},"vehicle_type_id":"4","last_reported":1744492070,"current_range_meters":6800,"station_id":"ce4bgih2rcd13ifvqba0","pricing_plan_id":"cebpf4jnsgd1na2vs0mg"},{"bike_id":"cc83a7aa-57a1-4769-9137-8531613b4691","system_id":"levelo_inurba_marseille","lat":43.31256,"lon":5.37303,"is_reserved":false,"is_disabled":false,"rental_uris":{"android":"levelo://app?vid=cc83a7aa-57a1-4769-9137-8531613b4691","ios":"levelo://app?vid=cc83a7aa-57a1-4769-9137-8531613b4691"},"vehicle_type_id":"4","last_reported":1744492070,"current_range_meters":6800,"station_id":"","pricing_plan_id":"cebpf4jnsgd1na2vs0mg"},{"bike_id":"61087c9c-58a2-45af-89fa-c020f9313355","system_id":"levelo_inurba_marseille","lat":43.21755,"lon":5.34637,"is_reserved":false,"is_disabled":true,"rental_uris":{"android":"levelo://app?vid=61087c9c-58a2-45af-89fa-c020f9313355","ios":"levelo://app?vid=61087c9c-58a2-45af-89fa-c020f9313355"},"vehicle_type_id":"4","last_reported":1744492070,"current_range_meters":6800,"station_id":"st_cvj6r9ubvosntc0bgbag","pricing_plan_id":"cebpf4jnsgd1na2vs0mg"},{"bike_id":"e4380e13-6ea1-432c-b547-badeba89c1b3","system_id":"levelo_inurba_marseille","lat":43.2885,"lon":5.39334,"is_reserved":false,"is_disabled":true,"rental_uris":{"android":"levelo://app?vid=e4380e13-6ea1-432c-b547-badeba89c1b3","ios":"levelo://app?vid=e4380e13-6ea1-432c-b547-badeba89c1b3"},"vehicle_type_id":"4","last_reported":1744492070,"current_range_meters":6800,"station_id":"ce4bh2p2rcd13ifvqdi0","pricing_plan_id":"cebpf4jnsgd1na2vs0mg"},{"bike_id":"223f68c2-64f7-4355-80ab-5a821a5f886a","system_id":"levelo_inurba_marseille","lat":43.30567,"lon":5.39338,"is_reserved":false,"is_disabled":false,"rental_uris":{"android":"levelo://app?vid=223f68c2-64f7-4355-80ab-5a821a5f886a","ios":"levelo://app?vid=223f68c2-64f7-4355-80ab-5a821a5f886a"},"vehicle_type_id":"4","last_reported":1744492070,"current_range_meters":6800,"station_id":"ce4bh0p2rcd13ifvqd80","pricing_plan_id":"cebpf4jnsgd1na2vs0mg"},{"bike_id":"15887365-8828-4c65-9fc0-24540ec66e79","system_id":"levelo_inurba_marseille","lat":43.29936,"lon":5.36543,"is_reserved":false,"is_disabled":false,"rental_uris":{"android":"levelo://app?vid=15887365-8828-4c65-9fc0-24540ec66e79","ios":"levelo://app?vid=15887365-8828-4c65-9fc0-24540ec66e79"},"vehicle_type_id":"4","last_reported":1744492070,"current_range_meters":6800,"station_id":"ce4bgm92rcd13ifvqbr0","pricing_plan_id":"cebpf4jnsgd1na2vs0mg"},{"bike_id":"9dc5a035-0084-4ffe-bfff-5d2ea6c1dccb","system_id":"levelo_inurba_marseille","lat":43.2957,"lon":5.37491,"is_reserved":false,"is_disabled":true,"rental_uris":{"android":"levelo://app?vid=9dc5a035-0084-4ffe-bfff-5d2ea6c1dccb","ios":"levelo://app?vid=9dc5a035-0084-4ffe-bfff-5d2ea6c1dccb"},"vehicle_type_id":"4","last_reported":1744492070,"current_range_meters":6800,"station_id":"ce4bgh92rcd13ifvqb50","pricing_plan_id":"cebpf4jnsgd1na2vs0mg"},{"bike_id":"dd081b68-0a47-41b3-9975-782e5d7a940e","system_id":"levelo_inurba_marseille","lat":43.27495,"lon":5.424436,"is_reserved":false,"is_disabled":false,"rental_uris":{"android":"levelo://app?vid=dd081b68-0a47-41b3-9975-782e5d7a940e","ios":"levelo://app?vid=dd081b68-0a47-41b3-9975-782e5d7a940e"},"vehicle_type_id":"4","last_reported":1744492070,"current_range_meters":7200,"station_id":"","pricing_plan_id":"cebpf4jnsgd1na2vs0mg"},{"bike_id":"ae211811-a2d8-4a9f-a824-8ed2a51f939e","system_id":"levelo_inurba_marseille","lat":43.27314,"lon":5.39077,"is_reserved":false,"is_disabled":false,"rental_uris":{"android":"levelo://app?vid=ae211811-a2d8-4a9f-a824-8ed2a51f939e","ios":"levelo://app?vid=ae211811-a2d8-4a9f-a824-8ed2a51f939e"},"vehicle_type_id":"4","last_reported":1744492070,"current_range_meters":7200,"station_id":"ce4bhgp2rcd13ifvqfe0","pricing_plan_id":"cebpf4jnsgd1na2vs0mg"},{"bike_id":"20925fe9-a043-4008-8ecc-6d2890f6b28e","system_id":"levelo_inurba_marseille","lat":43.27213,"lon":5.39177,"is_reserved":false,"is_disabled":false,"rental_uris":{"android":"levelo://app?vid=20925fe9-a043-4008-8ecc-6d2890f6b28e","ios":"levelo://app?vid=20925fe9-a043-4008-8ecc-6d2890f6b28e"},"vehicle_type_id":"4","last_reported":1744492070,"current_range_meters":7200,"station_id":"ce4bhhp2rcd13ifvqfm0","pricing_plan_id":"cebpf4jnsgd1na2vs0mg"},{"bike_id":"3890aa41-58cc-476c-8eac-9df5c375edb9","system_id":"levelo_inurba_marseille","lat":43.28343,"lon":5.38109,"is_reserved":false,"is_disabled":false,"rental_uris":{"android":"levelo://app?vid=3890aa41-58cc-476c-8eac-9df5c375edb9","ios":"levelo://app?vid=3890aa41-58cc-476c-8eac-9df5c375edb9"},"vehicle_type_id":"4","last_reported":1744492070,"current_range_meters":7200,"station_id":"ce4bh412rcd13ifvqdr0","pricing_plan_id":"cebpf4jnsgd1na2vs0mg"},{"bike_id":"a1d8af9e-c6e2-48bb-8624-a8644f2f167e","system_id":"levelo_inurba_marseille","lat":43.2957,"lon":5.39972,"is_reserved":false,"is_disabled":false,"rental_uris":{"android":"levelo://app?vid=a1d8af9e-c6e2-48bb-8624-a8644f2f167e","ios":"levelo://app?vid=a1d8af9e-c6e2-48bb-8624-a8644f2f167e"},"vehicle_type_id":"4","last_reported":1744492070,"current_range_meters":7200,"station_id":"ce4bh312rcd13ifvqdj0","pricing_plan_id":"cebpf4jnsgd1na2vs0mg"},{"bike_id":"f1e00540-c2d1-4f3b-ba05-711232888e6e","system_id":"levelo_inurba_marseille","lat":43.21746,"lon":5.34618,"is_reserved":false,"is_disabled":true,"rental_uris":{"android":"levelo://app?vid=f1e00540-c2d1-4f3b-ba05-711232888e6e","ios":"levelo://app?vid=f1e00540-c2d1-4f3b-ba05-711232888e6e"},"vehicle_type_id":"4","last_reported":1744492070,"current_range_meters":7200,"station_id":"st_cvj6r9ubvosntc0bgbag","pricing_plan_id":"cebpf4jnsgd1na2vs0mg"},{"bike_id":"4c56221a-0f46-4530-955a-7184a07c8a88","system_id":"levelo_inurba_marseille","lat":43.23191,"lon":5.3554,"is_reserved":false,"is_disabled":true,"rental_uris":{"android":"levelo://app?vid=4c56221a-0f46-4530-955a-7184a07c8a88","ios":"levelo://app?vid=4c56221a-0f46-4530-955a-7184a07c8a88"},"vehicle_type_id":"4","last_reported":1744492070,"current_range_meters":7200,"station_id":"ce4bhu92rcd13ifvqi70","pricing_plan_id":"cebpf4jnsgd1na2vs0mg"},{"bike_id":"dcd84564-ca68-4ed1-be12-c3fd499a43be","system_id":"levelo_inurba_marseille","lat":43.29852,"lon":5.36283,"is_reserved":false,"is_disabled":false,"rental_uris":{"android":"levelo://app?vid=dcd84564-ca68-4ed1-be12-c3fd499a43be","ios":"levelo://app?vid=dcd84564-ca68-4ed1-be12-c3fd499a43be"},"vehicle_type_id":"4","last_reported":1744492070,"current_range_meters":6800,"station_id":"ce4bgpp2rcd13ifvqc3g","pricing_plan_id":"cebpf4jnsgd1na2vs0mg"},{"bike_id":"375e7718-6689-42ef-bac0-a1d04430396f","system_id":"levelo_inurba_marseille","lat":43.292511,"lon":5.384358,"is_reserved":false,"is_disabled":false,"rental_uris":{"android":"levelo://app?vid=375e7718-6689-42ef-bac0-a1d04430396f","ios":"levelo://app?vid=375e7718-6689-42ef-bac0-a1d04430396f"},"vehicle_type_id":"4","last_reported":1744492070,"current_range_meters":7200,"station_id":"ce4bh692rcd13ifvqea0","pricing_plan_id":"cebpf4jnsgd1na2vs0mg"},{"bike_id":"237f5f22-fb1c-4e53-a93a-74bc941f716c","system_id":"levelo_inurba_marseille","lat":43.26223,"lon":5.40448,"is_reserved":false,"is_disabled":false,"rental_uris":{"android":"levelo://app?vid=237f5f22-fb1c-4e53-a93a-74bc941f716c","ios":"levelo://app?vid=237f5f22-fb1c-4e53-a93a-74bc941f716c"},"vehicle_type_id":"4","last_reported":1744492070,"current_range_meters":7200,"station_id":"ce4bhmh2rcd13ifvqgmg","pricing_plan_id":"cebpf4jnsgd1na2vs0mg"},{"bike_id":"12fd078a-9327-40d2-9383-059dfc0f3a24","system_id":"levelo_inurba_marseille","lat":43.31332,"lon":5.39685,"is_reserved":false,"is_disabled":false,"rental_uris":{"android":"levelo://app?vid=12fd078a-9327-40d2-9383-059dfc0f3a24","ios":"levelo://app?vid=12fd078a-9327-40d2-9383-059dfc0f3a24"},"vehicle_type_id":"4","last_reported":1744492070,"current_range_meters":8000,"station_id":"ce4bgvp2rcd13ifvqcu0","pricing_plan_id":"cebpf4jnsgd1na2vs0mg"},{"bike_id":"e524e199-d573-4d65-acc8-4e08ac3eebbe","system_id":"levelo_inurba_marseille","lat":43.27934,"lon":5.39589,"is_reserved":false,"is_disabled":false,"rental_uris":{"android":"levelo://app?vid=e524e199-d573-4d65-acc8-4e08ac3eebbe","ios":"levelo://app?vid=e524e199-d573-4d65-acc8-4e08ac3eebbe"},"vehicle_type_id":"4","last_reported":1744492070,"current_range_meters":8000,"station_id":"ce4bhf92rcd13ifvqf40","pricing_plan_id":"cebpf4jnsgd1na2vs0mg"},{"bike_id":"6a2f33dc-61c7-4a86-9c16-a9d702609db2","system_id":"levelo_inurba_marseille","lat":43.29962,"lon":5.37159,"is_reserved":false,"is_disabled":false,"rental_uris":{"android":"levelo://app?vid=6a2f33dc-61c7-4a86-9c16-a9d702609db2","ios":"levelo://app?vid=6a2f33dc-61c7-4a86-9c16-a9d702609db2"},"vehicle_type_id":"4","last_reported":1744492070,"current_range_meters":7200,"station_id":"ce4bgr92rcd13ifvqc7g","pricing_plan_id":"cebpf4jnsgd1na2vs0mg"},{"bike_id":"4873b923-3644-4ac3-9d38-fee6306a11a5","system_id":"levelo_inurba_marseille","lat":43.29253,"lon":5.40155,"is_reserved":false,"is_disabled":true,"rental_uris":{"android":"levelo://app?vid=4873b923-3644-4ac3-9d38-fee6306a11a5","ios":"levelo://app?vid=4873b923-3644-4ac3-9d38-fee6306a11a5"},"vehicle_type_id":"4","last_reported":1744492070,"current_range_meters":8000,"station_id":"ce4bh312rcd13ifvqdk0","pricing_plan_id":"cebpf4jnsgd1na2vs0mg"},{"bike_id":"119e273e-7e4c-4ee1-a4d4-a659c42fce21","system_id":"levelo_inurba_marseille","lat":43.299797,"lon":5.384933,"is_reserved":false,"is_disabled":false,"rental_uris":{"android":"levelo://app?vid=119e273e-7e4c-4ee1-a4d4-a659c42fce21","ios":"levelo://app?vid=119e273e-7e4c-4ee1-a4d4-a659c42fce21"},"vehicle_type_id":"4","last_reported":1744492070,"current_range_meters":8000,"station_id":"ce4bgj92rcd13ifvqbd0","pricing_plan_id":"cebpf4jnsgd1na2vs0mg"},{"bike_id":"425b262e-c910-49aa-bfe6-18e84fdb72b5","system_id":"levelo_inurba_marseille","lat":43.29042,"lon":5.39955,"is_reserved":false,"is_disabled":false,"rental_uris":{"android":"levelo://app?vid=425b262e-c910-49aa-bfe6-18e84fdb72b5","ios":"levelo://app?vid=425b262e-c910-49aa-bfe6-18e84fdb72b5"},"vehicle_type_id":"4","last_reported":1744492070,"current_range_meters":8000,"station_id":"ce4bh392rcd13ifvqdm0","pricing_plan_id":"cebpf4jnsgd1na2vs0mg"},{"bike_id":"72adaa87-94dc-4774-aca0-5147bc57bd16","system_id":"levelo_inurba_marseille","lat":43.260226,"lon":5.417349,"is_reserved":false,"is_disabled":false,"rental_uris":{"android":"levelo://app?vid=72adaa87-94dc-4774-aca0-5147bc57bd16","ios":"levelo://app?vid=72adaa87-94dc-4774-aca0-5147bc57bd16"},"vehicle_type_id":"4","last_reported":1744492070,"current_range_meters":8000,"station_id":"","pricing_plan_id":"cebpf4jnsgd1na2vs0mg"},{"bike_id":"5233f65f-739d-45ba-b4ec-0028623b32aa","system_id":"levelo_inurba_marseille","lat":43.2903,"lon":5.38654,"is_reserved":false,"is_disabled":false,"rental_uris":{"android":"levelo://app?vid=5233f65f-739d-45ba-b4ec-0028623b32aa","ios":"levelo://app?vid=5233f65f-739d-45ba-b4ec-0028623b32aa"},"vehicle_type_id":"4","last_reported":1744492070,"current_range_meters":8400,"station_id":"ce4bh4p2rcd13ifvqe0g","pricing_plan_id":"cebpf4jnsgd1na2vs0mg"},{"bike_id":"ea6c2726-d2c1-4855-a19d-2f7ae620759f","system_id":"levelo_inurba_marseille","lat":43.309488,"lon":5.39046,"is_reserved":false,"is_disabled":false,"rental_uris":{"android":"levelo://app?vid=ea6c2726-d2c1-4855-a19d-2f7ae620759f","ios":"levelo://app?vid=ea6c2726-d2c1-4855-a19d-2f7ae620759f"},"vehicle_type_id":"4","last_reported":1744492070,"current_range_meters":8400,"station_id":"ce4bgup2rcd13ifvqco0","pricing_plan_id":"cebpf4jnsgd1na2vs0mg"},{"bike_id":"8512e975-5e00-4480-be6f-02013efc2989","system_id":"levelo_inurba_marseille","lat":43.30529,"lon":5.36729,"is_reserved":false,"is_disabled":false,"rental_uris":{"android":"levelo://app?vid=8512e975-5e00-4480-be6f-02013efc2989","ios":"levelo://app?vid=8512e975-5e00-4480-be6f-02013efc2989"},"vehicle_type_id":"4","last_reported":1744492070,"current_range_meters":8400,"station_id":"ce4bgrp2rcd13ifvqc9g","pricing_plan_id":"cebpf4jnsgd1na2vs0mg"},{"bike_id":"b6ef1046-ae6e-481e-b3a5-731015bfc037","system_id":"levelo_inurba_marseille","lat":43.29364,"lon":5.37861,"is_reserved":false,"is_disabled":false,"rental_uris":{"android":"levelo://app?vid=b6ef1046-ae6e-481e-b3a5-731015bfc037","ios":"levelo://app?vid=b6ef1046-ae6e-481e-b3a5-731015bfc037"},"vehicle_type_id":"4","last_reported":1744492070,"current_range_meters":8400,"station_id":"ce4bgjh2rcd13ifvqbf0","pricing_plan_id":"cebpf4jnsgd1na2vs0mg"},{"bike_id":"dcd83ead-420c-4f08-8ded-1b3b9ac109d9","system_id":"levelo_inurba_marseille","lat":43.32314,"lon":5.38899,"is_reserved":false,"is_disabled":false,"rental_uris":{"android":"levelo://app?vid=dcd83ead-420c-4f08-8ded-1b3b9ac109d9","ios":"levelo://app?vid=dcd83ead-420c-4f08-8ded-1b3b9ac109d9"},"vehicle_type_id":"4","last_reported":1744492070,"current_range_meters":8400,"station_id":"ce4bhqp2rcd13ifvqhog","pricing_plan_id":"cebpf4jnsgd1na2vs0mg"},{"bike_id":"f91e4f73-2a4c-404e-81ce-68becd3b1902","system_id":"levelo_inurba_marseille","lat":43.2903,"lon":5.39971,"is_reserved":false,"is_disabled":false,"rental_uris":{"android":"levelo://app?vid=f91e4f73-2a4c-404e-81ce-68becd3b1902","ios":"levelo://app?vid=f91e4f73-2a4c-404e-81ce-68becd3b1902"},"vehicle_type_id":"4","last_reported":1744492070,"current_range_meters":8400,"station_id":"ce4bh392rcd13ifvqdm0","pricing_plan_id":"cebpf4jnsgd1na2vs0mg"},{"bike_id":"8c58f2fa-99e1-41f8-bf90-9c1648b679b1","system_id":"levelo_inurba_marseille","lat":43.27302,"lon":5.41452,"is_reserved":false,"is_disabled":false,"rental_uris":{"android":"levelo://app?vid=8c58f2fa-99e1-41f8-bf90-9c1648b679b1","ios":"levelo://app?vid=8c58f2fa-99e1-41f8-bf90-9c1648b679b1"},"vehicle_type_id":"4","last_reported":1744492070,"current_range_meters":8400,"station_id":"","pricing_plan_id":"cebpf4jnsgd1na2vs0mg"},{"bike_id":"d98ffeb5-3cea-457f-909c-788ed48b4679","system_id":"levelo_inurba_marseille","lat":43.28273,"lon":5.35064,"is_reserved":false,"is_disabled":false,"rental_uris":{"android":"levelo://app?vid=d98ffeb5-3cea-457f-909c-788ed48b4679","ios":"levelo://app?vid=d98ffeb5-3cea-457f-909c-788ed48b4679"},"vehicle_type_id":"4","last_reported":1744492070,"current_range_meters":8400,"station_id":"ce4bhbp2rcd13ifvqerg","pricing_plan_id":"cebpf4jnsgd1na2vs0mg"},{"bike_id":"37864421-51e4-4d5e-801c-7ac32e01e722","system_id":"levelo_inurba_marseille","lat":43.31307,"lon":5.37849,"is_reserved":false,"is_disabled":false,"rental_uris":{"android":"levelo://app?vid=37864421-51e4-4d5e-801c-7ac32e01e722","ios":"levelo://app?vid=37864421-51e4-4d5e-801c-7ac32e01e722"},"vehicle_type_id":"4","last_reported":1744492070,"current_range_meters":8400,"station_id":"","pricing_plan_id":"cebpf4jnsgd1na2vs0mg"},{"bike_id":"cfadcc33-5bb8-4f29-9a84-ae98565bb4a2","system_id":"levelo_inurba_marseille","lat":43.24066,"lon":5.37815,"is_reserved":false,"is_disabled":false,"rental_uris":{"android":"levelo://app?vid=cfadcc33-5bb8-4f29-9a84-ae98565bb4a2","ios":"levelo://app?vid=cfadcc33-5bb8-4f29-9a84-ae98565bb4a2"},"vehicle_type_id":"4","last_reported":1744492070,"current_range_meters":8800,"station_id":"ce4bhnp2rcd13ifvqgvg","pricing_plan_id":"cebpf4jnsgd1na2vs0mg"},{"bike_id":"1130922e-9ccc-463b-9207-aadecd794edb","system_id":"levelo_inurba_marseille","lat":43.31994,"lon":5.38158,"is_reserved":false,"is_disabled":true,"rental_uris":{"android":"levelo://app?vid=1130922e-9ccc-463b-9207-aadecd794edb","ios":"levelo://app?vid=1130922e-9ccc-463b-9207-aadecd794edb"},"vehicle_type_id":"4","last_reported":1744492070,"current_range_meters":8800,"station_id":"ce4bhr12rcd13ifvqhpg","pricing_plan_id":"cebpf4jnsgd1na2vs0mg"},{"bike_id":"4cedd733-2587-4eb1-87b3-3ab69e1574bc","system_id":"levelo_inurba_marseille","lat":43.28956,"lon":5.36604,"is_reserved":false,"is_disabled":false,"rental_uris":{"android":"levelo://app?vid=4cedd733-2587-4eb1-87b3-3ab69e1574bc","ios":"levelo://app?vid=4cedd733-2587-4eb1-87b3-3ab69e1574bc"},"vehicle_type_id":"4","last_reported":1744492070,"current_range_meters":8800,"station_id":"","pricing_plan_id":"cebpf4jnsgd1na2vs0mg"},{"bike_id":"4c893399-b4ed-40ed-a49f-713da320f269","system_id":"levelo_inurba_marseille","lat":43.29861,"lon":5.37841,"is_reserved":false,"is_disabled":false,"rental_uris":{"android":"levelo://app?vid=4c893399-b4ed-40ed-a49f-713da320f269","ios":"levelo://app?vid=4c893399-b4ed-40ed-a49f-713da320f269"},"vehicle_type_id":"4","last_reported":1744492070,"current_range_meters":8800,"station_id":"","pricing_plan_id":"cebpf4jnsgd1na2vs0mg"},{"bike_id":"fb3bf63f-cb8b-4e2d-97b5-e2bd30164ab5","system_id":"levelo_inurba_marseille","lat":43.31054,"lon":5.36681,"is_reserved":false,"is_disabled":false,"rental_uris":{"android":"levelo://app?vid=fb3bf63f-cb8b-4e2d-97b5-e2bd30164ab5","ios":"levelo://app?vid=fb3bf63f-cb8b-4e2d-97b5-e2bd30164ab5"},"vehicle_type_id":"4","last_reported":1744492070,"current_range_meters":8800,"station_id":"","pricing_plan_id":"cebpf4jnsgd1na2vs0mg"},{"bike_id":"c013d600-5e08-48f0-830e-8c965978436b","system_id":"levelo_inurba_marseille","lat":43.30455,"lon":5.38896,"is_reserved":false,"is_disabled":true,"rental_uris":{"android":"levelo://app?vid=c013d600-5e08-48f0-830e-8c965978436b","ios":"levelo://app?vid=c013d600-5e08-48f0-830e-8c965978436b"},"vehicle_type_id":"4","last_reported":1744492070,"current_range_meters":9200,"station_id":"ce4bgk12rcd13ifvqbi0","pricing_plan_id":"cebpf4jnsgd1na2vs0mg"},{"bike_id":"2d8fcc85-d7c9-4f6e-869d-b2410d2055f2","system_id":"levelo_inurba_marseille","lat":43.27207,"lon":5.39176,"is_reserved":false,"is_disabled":false,"rental_uris":{"android":"levelo://app?vid=2d8fcc85-d7c9-4f6e-869d-b2410d2055f2","ios":"levelo://app?vid=2d8fcc85-d7c9-4f6e-869d-b2410d2055f2"},"vehicle_type_id":"4","last_reported":1744492070,"current_range_meters":9200,"station_id":"ce4bhhp2rcd13ifvqfm0","pricing_plan_id":"cebpf4jnsgd1na2vs0mg"},{"bike_id":"aa46c8dd-2d26-4dad-be13-92c6a7cf7ebb","system_id":"levelo_inurba_marseille","lat":43.31329,"lon":5.39687,"is_reserved":false,"is_disabled":false,"rental_uris":{"android":"levelo://app?vid=aa46c8dd-2d26-4dad-be13-92c6a7cf7ebb","ios":"levelo://app?vid=aa46c8dd-2d26-4dad-be13-92c6a7cf7ebb"},"vehicle_type_id":"4","last_reported":1744492070,"current_range_meters":9200,"station_id":"ce4bgvp2rcd13ifvqcu0","pricing_plan_id":"cebpf4jnsgd1na2vs0mg"},{"bike_id":"4a0973b0-92a0-41e8-9b0d-a99e944bafe0","system_id":"levelo_inurba_marseille","lat":43.34509,"lon":5.413018,"is_reserved":false,"is_disabled":false,"rental_uris":{"android":"levelo://app?vid=4a0973b0-92a0-41e8-9b0d-a99e944bafe0","ios":"levelo://app?vid=4a0973b0-92a0-41e8-9b0d-a99e944bafe0"},"vehicle_type_id":"4","last_reported":1744492070,"current_range_meters":9200,"station_id":"","pricing_plan_id":"cebpf4jnsgd1na2vs0mg"},{"bike_id":"88802da1-90f2-4aff-90a1-c3598e933096","system_id":"levelo_inurba_marseille","lat":43.30347,"lon":5.3925,"is_reserved":false,"is_disabled":false,"rental_uris":{"android":"levelo://app?vid=88802da1-90f2-4aff-90a1-c3598e933096","ios":"levelo://app?vid=88802da1-90f2-4aff-90a1-c3598e933096"},"vehicle_type_id":"4","last_reported":1744492070,"current_range_meters":9200,"station_id":"","pricing_plan_id":"cebpf4jnsgd1na2vs0mg"},{"bike_id":"d299dc27-b39a-442c-9028-e4f2888cfbb8","system_id":"levelo_inurba_marseille","lat":43.29234,"lon":5.38446,"is_reserved":false,"is_disabled":false,"rental_uris":{"android":"levelo://app?vid=d299dc27-b39a-442c-9028-e4f2888cfbb8","ios":"levelo://app?vid=d299dc27-b39a-442c-9028-e4f2888cfbb8"},"vehicle_type_id":"4","last_reported":1744492070,"current_range_meters":9600,"station_id":"ce4bh692rcd13ifvqea0","pricing_plan_id":"cebpf4jnsgd1na2vs0mg"},{"bike_id":"75054485-c8e7-4346-a56c-f923b25966dc","system_id":"levelo_inurba_marseille","lat":43.33027,"lon":5.39043,"is_reserved":false,"is_disabled":false,"rental_uris":{"android":"levelo://app?vid=75054485-c8e7-4346-a56c-f923b25966dc","ios":"levelo://app?vid=75054485-c8e7-4346-a56c-f923b25966dc"},"vehicle_type_id":"4","last_reported":1744492070,"current_range_meters":9600,"station_id":"ce4bhr92rcd13ifvqhrg","pricing_plan_id":"cebpf4jnsgd1na2vs0mg"},{"bike_id":"fba14dc4-f065-46f4-a67b-b47ee9a5123b","system_id":"levelo_inurba_marseille","lat":43.29314,"lon":5.37167,"is_reserved":false,"is_disabled":true,"rental_uris":{"android":"levelo://app?vid=fba14dc4-f065-46f4-a67b-b47ee9a5123b","ios":"levelo://app?vid=fba14dc4-f065-46f4-a67b-b47ee9a5123b"},"vehicle_type_id":"4","last_reported":1744492070,"current_range_meters":9600,"station_id":"ce4bgh92rcd13ifvqb40","pricing_plan_id":"cebpf4jnsgd1na2vs0mg"},{"bike_id":"d53356ed-34e7-4ce0-8d94-e073954cdd85","system_id":"levelo_inurba_marseille","lat":43.27045,"lon":5.40289,"is_reserved":false,"is_disabled":true,"rental_uris":{"android":"levelo://app?vid=d53356ed-34e7-4ce0-8d94-e073954cdd85","ios":"levelo://app?vid=d53356ed-34e7-4ce0-8d94-e073954cdd85"},"vehicle_type_id":"4","last_reported":1744492070,"current_range_meters":9600,"station_id":"ce4bhk92rcd13ifvqgc0","pricing_plan_id":"cebpf4jnsgd1na2vs0mg"},{"bike_id":"8207ea29-fd0c-4c7e-a5fa-88a3cf6888d1","system_id":"levelo_inurba_marseille","lat":43.241798,"lon":5.397355,"is_reserved":false,"is_disabled":false,"rental_uris":{"android":"levelo://app?vid=8207ea29-fd0c-4c7e-a5fa-88a3cf6888d1","ios":"levelo://app?vid=8207ea29-fd0c-4c7e-a5fa-88a3cf6888d1"},"vehicle_type_id":"4","last_reported":1744492070,"current_range_meters":9600,"station_id":"ce4bhn12rcd13ifvqgpg","pricing_plan_id":"cebpf4jnsgd1na2vs0mg"},{"bike_id":"cdd522b6-86b1-4594-af6e-035b955d1e3b","system_id":"levelo_inurba_marseille","lat":43.31971,"lon":5.37122,"is_reserved":false,"is_disabled":false,"rental_uris":{"android":"levelo://app?vid=cdd522b6-86b1-4594-af6e-035b955d1e3b","ios":"levelo://app?vid=cdd522b6-86b1-4594-af6e-035b955d1e3b"},"vehicle_type_id":"4","last_reported":1744492070,"current_range_meters":9600,"station_id":"","pricing_plan_id":"cebpf4jnsgd1na2vs0mg"},{"bike_id":"cbcdb87e-285e-4b2e-b6af-492cdaddae57","system_id":"levelo_inurba_marseille","lat":43.29257,"lon":5.38442,"is_reserved":false,"is_disabled":false,"rental_uris":{"android":"levelo://app?vid=cbcdb87e-285e-4b2e-b6af-492cdaddae57","ios":"levelo://app?vid=cbcdb87e-285e-4b2e-b6af-492cdaddae57"},"vehicle_type_id":"4","last_reported":1744492070,"current_range_meters":9600,"station_id":"ce4bh692rcd13ifvqea0","pricing_plan_id":"cebpf4jnsgd1na2vs0mg"},{"bike_id":"426aac20-3280-42f0-8db5-97b0beade8e7","system_id":"levelo_inurba_marseille","lat":43.30258,"lon":5.40082,"is_reserved":false,"is_disabled":false,"rental_uris":{"android":"levelo://app?vid=426aac20-3280-42f0-8db5-97b0beade8e7","ios":"levelo://app?vid=426aac20-3280-42f0-8db5-97b0beade8e7"},"vehicle_type_id":"4","last_reported":1744492070,"current_range_meters":9600,"station_id":"ce4bgvh2rcd13ifvqcs0","pricing_plan_id":"cebpf4jnsgd1na2vs0mg"},{"bike_id":"eb578252-5439-4851-a5f9-751638bdaef7","system_id":"levelo_inurba_marseille","lat":43.29035,"lon":5.37555,"is_reserved":false,"is_disabled":true,"rental_uris":{"android":"levelo://app?vid=eb578252-5439-4851-a5f9-751638bdaef7","ios":"levelo://app?vid=eb578252-5439-4851-a5f9-751638bdaef7"},"vehicle_type_id":"4","last_reported":1744492070,"current_range_meters":9600,"station_id":"ce4bh692rcd13ifvqe90","pricing_plan_id":"cebpf4jnsgd1na2vs0mg"},{"bike_id":"ef291804-1477-432e-b153-82ea15725418","system_id":"levelo_inurba_marseille","lat":43.33742,"lon":5.37454,"is_reserved":false,"is_disabled":false,"rental_uris":{"android":"levelo://app?vid=ef291804-1477-432e-b153-82ea15725418","ios":"levelo://app?vid=ef291804-1477-432e-b153-82ea15725418"},"vehicle_type_id":"4","last_reported":1744492070,"current_range_meters":9600,"station_id":"","pricing_plan_id":"cebpf4jnsgd1na2vs0mg"},{"bike_id":"211990ef-4669-4091-86ec-137c884b610d","system_id":"levelo_inurba_marseille","lat":43.29242,"lon":5.38421,"is_reserved":false,"is_disabled":true,"rental_uris":{"android":"levelo://app?vid=211990ef-4669-4091-86ec-137c884b610d","ios":"levelo://app?vid=211990ef-4669-4091-86ec-137c884b610d"},"vehicle_type_id":"4","last_reported":1744492070,"current_range_meters":9600,"station_id":"ce4bh692rcd13ifvqea0","pricing_plan_id":"cebpf4jnsgd1na2vs0mg"},{"bike_id":"aa716dbd-c98a-44de-9079-9e2715358546","system_id":"levelo_inurba_marseille","lat":43.30523,"lon":5.39328,"is_reserved":false,"is_disabled":false,"rental_uris":{"android":"levelo://app?vid=aa716dbd-c98a-44de-9079-9e2715358546","ios":"levelo://app?vid=aa716dbd-c98a-44de-9079-9e2715358546"},"vehicle_type_id":"4","last_reported":1744492070,"current_range_meters":9600,"station_id":"","pricing_plan_id":"cebpf4jnsgd1na2vs0mg"},{"bike_id":"483c9a5c-9543-4a62-886b-ade367682a87","system_id":"levelo_inurba_marseille","lat":43.2551,"lon":5.37647,"is_reserved":false,"is_disabled":false,"rental_uris":{"android":"levelo://app?vid=483c9a5c-9543-4a62-886b-ade367682a87","ios":"levelo://app?vid=483c9a5c-9543-4a62-886b-ade367682a87"},"vehicle_type_id":"4","last_reported":1744492070,"current_range_meters":9600,"station_id":"ce4bhh12rcd13ifvqff0","pricing_plan_id":"cebpf4jnsgd1na2vs0mg"},{"bike_id":"321918c8-a023-4277-b9ad-d6ce73d59c41","system_id":"levelo_inurba_marseille","lat":43.28464,"lon":5.35888,"is_reserved":false,"is_disabled":false,"rental_uris":{"android":"levelo://app?vid=321918c8-a023-4277-b9ad-d6ce73d59c41","ios":"levelo://app?vid=321918c8-a023-4277-b9ad-d6ce73d59c41"},"vehicle_type_id":"4","last_reported":1744492070,"current_range_meters":9600,"station_id":"ce4bhah2rcd13ifvqei0","pricing_plan_id":"cebpf4jnsgd1na2vs0mg"},{"bike_id":"e1525096-97c1-4c65-906c-acd41c6a78b4","system_id":"levelo_inurba_marseille","lat":43.2919,"lon":5.39288,"is_reserved":false,"is_disabled":false,"rental_uris":{"android":"levelo://app?vid=e1525096-97c1-4c65-906c-acd41c6a78b4","ios":"levelo://app?vid=e1525096-97c1-4c65-906c-acd41c6a78b4"},"vehicle_type_id":"4","last_reported":1744492070,"current_range_meters":10000,"station_id":"ce4bh192rcd13ifvqdd0","pricing_plan_id":"cebpf4jnsgd1na2vs0mg"},{"bike_id":"8d7af1b9-8e4e-438e-a4d9-249701554749","system_id":"levelo_inurba_marseille","lat":43.31333,"lon":5.39689,"is_reserved":false,"is_disabled":false,"rental_uris":{"android":"levelo://app?vid=8d7af1b9-8e4e-438e-a4d9-249701554749","ios":"levelo://app?vid=8d7af1b9-8e4e-438e-a4d9-249701554749"},"vehicle_type_id":"4","last_reported":1744492070,"current_range_meters":10000,"station_id":"ce4bgvp2rcd13ifvqcu0","pricing_plan_id":"cebpf4jnsgd1na2vs0mg"},{"bike_id":"a998c4fd-396e-49c9-adc7-8f4b2525b76b","system_id":"levelo_inurba_marseille","lat":43.29053,"lon":5.37585,"is_reserved":false,"is_disabled":false,"rental_uris":{"android":"levelo://app?vid=a998c4fd-396e-49c9-adc7-8f4b2525b76b","ios":"levelo://app?vid=a998c4fd-396e-49c9-adc7-8f4b2525b76b"},"vehicle_type_id":"4","last_reported":1744492070,"current_range_meters":10000,"station_id":"ce4bh692rcd13ifvqe90","pricing_plan_id":"cebpf4jnsgd1na2vs0mg"},{"bike_id":"ff4bf555-621a-4bc6-84ba-5ba2f272c7aa","system_id":"levelo_inurba_marseille","lat":43.24792,"lon":5.37452,"is_reserved":false,"is_disabled":false,"rental_uris":{"android":"levelo://app?vid=ff4bf555-621a-4bc6-84ba-5ba2f272c7aa","ios":"levelo://app?vid=ff4bf555-621a-4bc6-84ba-5ba2f272c7aa"},"vehicle_type_id":"4","last_reported":1744492070,"current_range_meters":10000,"station_id":"ce4bhgh2rcd13ifvqfb0","pricing_plan_id":"cebpf4jnsgd1na2vs0mg"},{"bike_id":"f7d1eee0-1715-419d-beac-1b98ec9e62ed","system_id":"levelo_inurba_marseille","lat":43.30944,"lon":5.39056,"is_reserved":false,"is_disabled":true,"rental_uris":{"android":"levelo://app?vid=f7d1eee0-1715-419d-beac-1b98ec9e62ed","ios":"levelo://app?vid=f7d1eee0-1715-419d-beac-1b98ec9e62ed"},"vehicle_type_id":"4","last_reported":1744492070,"current_range_meters":10000,"station_id":"ce4bgup2rcd13ifvqco0","pricing_plan_id":"cebpf4jnsgd1na2vs0mg"},{"bike_id":"27b0a82f-7835-432d-b36f-115344205f8f","system_id":"levelo_inurba_marseille","lat":43.29623,"lon":5.37715,"is_reserved":false,"is_disabled":false,"rental_uris":{"android":"levelo://app?vid=27b0a82f-7835-432d-b36f-115344205f8f","ios":"levelo://app?vid=27b0a82f-7835-432d-b36f-115344205f8f"},"vehicle_type_id":"4","last_reported":1744492070,"current_range_meters":9600,"station_id":"ce4bgi92rcd13ifvqb90","pricing_plan_id":"cebpf4jnsgd1na2vs0mg"},{"bike_id":"86e3fd62-ce53-4f21-93c1-2fb7456de3cf","system_id":"levelo_inurba_marseille","lat":43.23082,"lon":5.35495,"is_reserved":false,"is_disabled":false,"rental_uris":{"android":"levelo://app?vid=86e3fd62-ce53-4f21-93c1-2fb7456de3cf","ios":"levelo://app?vid=86e3fd62-ce53-4f21-93c1-2fb7456de3cf"},"vehicle_type_id":"4","last_reported":1744492070,"current_range_meters":10000,"station_id":"cpo3342slgdg3j2ifvpg","pricing_plan_id":"cebpf4jnsgd1na2vs0mg"},{"bike_id":"4a4f9a09-23e4-4fa8-ba79-2ce1ece4ae54","system_id":"levelo_inurba_marseille","lat":43.26943,"lon":5.40262,"is_reserved":false,"is_disabled":false,"rental_uris":{"android":"levelo://app?vid=4a4f9a09-23e4-4fa8-ba79-2ce1ece4ae54","ios":"levelo://app?vid=4a4f9a09-23e4-4fa8-ba79-2ce1ece4ae54"},"vehicle_type_id":"4","last_reported":1744492070,"current_range_meters":10000,"station_id":"cjm6bp8fraef2m0cb0m0","pricing_plan_id":"cebpf4jnsgd1na2vs0mg"},{"bike_id":"a2a6fafc-9ee1-4ac9-b16d-fa1f378e78d0","system_id":"levelo_inurba_marseille","lat":43.29567,"lon":5.37516,"is_reserved":false,"is_disabled":true,"rental_uris":{"android":"levelo://app?vid=a2a6fafc-9ee1-4ac9-b16d-fa1f378e78d0","ios":"levelo://app?vid=a2a6fafc-9ee1-4ac9-b16d-fa1f378e78d0"},"vehicle_type_id":"4","last_reported":1744492070,"current_range_meters":10000,"station_id":"ce4bgh92rcd13ifvqb50","pricing_plan_id":"cebpf4jnsgd1na2vs0mg"},{"bike_id":"0e7bf4ae-5aed-4055-a1f8-96debbb9847e","system_id":"levelo_inurba_marseille","lat":43.24164,"lon":5.36406,"is_reserved":false,"is_disabled":false,"rental_uris":{"android":"levelo://app?vid=0e7bf4ae-5aed-4055-a1f8-96debbb9847e","ios":"levelo://app?vid=0e7bf4ae-5aed-4055-a1f8-96debbb9847e"},"vehicle_type_id":"4","last_reported":1744492070,"current_range_meters":10000,"station_id":"cpo36qri1sfpv3e86is0","pricing_plan_id":"cebpf4jnsgd1na2vs0mg"},{"bike_id":"8609ec5b-db31-4682-89f6-95794d251c5e","system_id":"levelo_inurba_marseille","lat":43.23123,"lon":5.43711,"is_reserved":false,"is_disabled":false,"rental_uris":{"android":"levelo://app?vid=8609ec5b-db31-4682-89f6-95794d251c5e","ios":"levelo://app?vid=8609ec5b-db31-4682-89f6-95794d251c5e"},"vehicle_type_id":"4","last_reported":1744492070,"current_range_meters":10000,"station_id":"ce4bhmp2rcd13ifvqgog","pricing_plan_id":"cebpf4jnsgd1na2vs0mg"},{"bike_id":"0f052ae4-ceba-4b46-a408-a7ef53bbe060","system_id":"levelo_inurba_marseille","lat":43.30945,"lon":5.39036,"is_reserved":false,"is_disabled":false,"rental_uris":{"android":"levelo://app?vid=0f052ae4-ceba-4b46-a408-a7ef53bbe060","ios":"levelo://app?vid=0f052ae4-ceba-4b46-a408-a7ef53bbe060"},"vehicle_type_id":"4","last_reported":1744492070,"current_range_meters":10800,"station_id":"ce4bgup2rcd13ifvqco0","pricing_plan_id":"cebpf4jnsgd1na2vs0mg"},{"bike_id":"d8f603cd-3b83-4148-bab8-3a185ad2a59f","system_id":"levelo_inurba_marseille","lat":43.32416,"lon":5.3913,"is_reserved":false,"is_disabled":false,"rental_uris":{"android":"levelo://app?vid=d8f603cd-3b83-4148-bab8-3a185ad2a59f","ios":"levelo://app?vid=d8f603cd-3b83-4148-bab8-3a185ad2a59f"},"vehicle_type_id":"4","last_reported":1744492070,"current_range_meters":10800,"station_id":"","pricing_plan_id":"cebpf4jnsgd1na2vs0mg"},{"bike_id":"e8e71d8a-9432-418e-8fa5-b6e60e08328d","system_id":"levelo_inurba_marseille","lat":43.284018,"lon":5.375077,"is_reserved":false,"is_disabled":false,"rental_uris":{"android":"levelo://app?vid=e8e71d8a-9432-418e-8fa5-b6e60e08328d","ios":"levelo://app?vid=e8e71d8a-9432-418e-8fa5-b6e60e08328d"},"vehicle_type_id":"4","last_reported":1744492070,"current_range_meters":10800,"station_id":"ce4bhm12rcd13ifvqgkg","pricing_plan_id":"cebpf4jnsgd1na2vs0mg"},{"bike_id":"a193d876-fb5d-4e0e-901d-4d4fe6b9e37f","system_id":"levelo_inurba_marseille","lat":43.30877,"lon":5.3965,"is_reserved":false,"is_disabled":false,"rental_uris":{"android":"levelo://app?vid=a193d876-fb5d-4e0e-901d-4d4fe6b9e37f","ios":"levelo://app?vid=a193d876-fb5d-4e0e-901d-4d4fe6b9e37f"},"vehicle_type_id":"4","last_reported":1744492070,"current_range_meters":10800,"station_id":"ce4bh012rcd13ifvqcv0","pricing_plan_id":"cebpf4jnsgd1na2vs0mg"},{"bike_id":"12995a58-d943-4084-bd4e-dfca89bd59c0","system_id":"levelo_inurba_marseille","lat":43.32336,"lon":5.40619,"is_reserved":false,"is_disabled":false,"rental_uris":{"android":"levelo://app?vid=12995a58-d943-4084-bd4e-dfca89bd59c0","ios":"levelo://app?vid=12995a58-d943-4084-bd4e-dfca89bd59c0"},"vehicle_type_id":"4","last_reported":1744492070,"current_range_meters":10800,"station_id":"ce4bhq92rcd13ifvqhjg","pricing_plan_id":"cebpf4jnsgd1na2vs0mg"},{"bike_id":"515a4fd9-7574-4441-883d-b6522c589663","system_id":"levelo_inurba_marseille","lat":43.28342,"lon":5.38111,"is_reserved":false,"is_disabled":false,"rental_uris":{"android":"levelo://app?vid=515a4fd9-7574-4441-883d-b6522c589663","ios":"levelo://app?vid=515a4fd9-7574-4441-883d-b6522c589663"},"vehicle_type_id":"4","last_reported":1744492070,"current_range_meters":10000,"station_id":"ce4bh412rcd13ifvqdr0","pricing_plan_id":"cebpf4jnsgd1na2vs0mg"},{"bike_id":"5b77a833-8185-45c2-9fe3-07eb40df54ca","system_id":"levelo_inurba_marseille","lat":43.33995,"lon":5.38057,"is_reserved":false,"is_disabled":false,"rental_uris":{"android":"levelo://app?vid=5b77a833-8185-45c2-9fe3-07eb40df54ca","ios":"levelo://app?vid=5b77a833-8185-45c2-9fe3-07eb40df54ca"},"vehicle_type_id":"4","last_reported":1744492070,"current_range_meters":10800,"station_id":"","pricing_plan_id":"cebpf4jnsgd1na2vs0mg"},{"bike_id":"4ac15233-0b55-49d0-af61-4cab496dd69a","system_id":"levelo_inurba_marseille","lat":43.28156,"lon":5.42646,"is_reserved":false,"is_disabled":false,"rental_uris":{"android":"levelo://app?vid=4ac15233-0b55-49d0-af61-4cab496dd69a","ios":"levelo://app?vid=4ac15233-0b55-49d0-af61-4cab496dd69a"},"vehicle_type_id":"4","last_reported":1744492070,"current_range_meters":11200,"station_id":"ce4bhnh2rcd13ifvqgug","pricing_plan_id":"cebpf4jnsgd1na2vs0mg"},{"bike_id":"656b7503-1ecc-4585-a5f1-7d90bd92090b","system_id":"levelo_inurba_marseille","lat":43.27202,"lon":5.39206,"is_reserved":false,"is_disabled":false,"rental_uris":{"android":"levelo://app?vid=656b7503-1ecc-4585-a5f1-7d90bd92090b","ios":"levelo://app?vid=656b7503-1ecc-4585-a5f1-7d90bd92090b"},"vehicle_type_id":"4","last_reported":1744492070,"current_range_meters":10800,"station_id":"ce4bhhp2rcd13ifvqfm0","pricing_plan_id":"cebpf4jnsgd1na2vs0mg"},{"bike_id":"9be2a18c-fe42-4fb4-8eb4-829fe1ee67b0","system_id":"levelo_inurba_marseille","lat":43.30939,"lon":5.39009,"is_reserved":false,"is_disabled":false,"rental_uris":{"android":"levelo://app?vid=9be2a18c-fe42-4fb4-8eb4-829fe1ee67b0","ios":"levelo://app?vid=9be2a18c-fe42-4fb4-8eb4-829fe1ee67b0"},"vehicle_type_id":"4","last_reported":1744492070,"current_range_meters":11200,"station_id":"ce4bgup2rcd13ifvqco0","pricing_plan_id":"cebpf4jnsgd1na2vs0mg"},{"bike_id":"07bd72ba-bd51-4783-b18d-3a572c21b6a3","system_id":"levelo_inurba_marseille","lat":43.29258,"lon":5.38448,"is_reserved":false,"is_disabled":false,"rental_uris":{"android":"levelo://app?vid=07bd72ba-bd51-4783-b18d-3a572c21b6a3","ios":"levelo://app?vid=07bd72ba-bd51-4783-b18d-3a572c21b6a3"},"vehicle_type_id":"4","last_reported":1744492070,"current_range_meters":11200,"station_id":"ce4bh692rcd13ifvqea0","pricing_plan_id":"cebpf4jnsgd1na2vs0mg"},{"bike_id":"493cde9e-7859-4c26-a2e6-f744ee5d8553","system_id":"levelo_inurba_marseille","lat":43.3173,"lon":5.36764,"is_reserved":false,"is_disabled":false,"rental_uris":{"android":"levelo://app?vid=493cde9e-7859-4c26-a2e6-f744ee5d8553","ios":"levelo://app?vid=493cde9e-7859-4c26-a2e6-f744ee5d8553"},"vehicle_type_id":"4","last_reported":1744492070,"current_range_meters":11200,"station_id":"","pricing_plan_id":"cebpf4jnsgd1na2vs0mg"},{"bike_id":"2828550b-6b4c-4af5-b8dc-43382b47febb","system_id":"levelo_inurba_marseille","lat":43.29534,"lon":5.38534,"is_reserved":false,"is_disabled":false,"rental_uris":{"android":"levelo://app?vid=2828550b-6b4c-4af5-b8dc-43382b47febb","ios":"levelo://app?vid=2828550b-6b4c-4af5-b8dc-43382b47febb"},"vehicle_type_id":"4","last_reported":1744492070,"current_range_meters":11200,"station_id":"ce4bgih2rcd13ifvqba0","pricing_plan_id":"cebpf4jnsgd1na2vs0mg"},{"bike_id":"cb05994e-fe07-4bfc-8bda-3f148674f46e","system_id":"levelo_inurba_marseille","lat":43.33069,"lon":5.39134,"is_reserved":false,"is_disabled":false,"rental_uris":{"android":"levelo://app?vid=cb05994e-fe07-4bfc-8bda-3f148674f46e","ios":"levelo://app?vid=cb05994e-fe07-4bfc-8bda-3f148674f46e"},"vehicle_type_id":"4","last_reported":1744492070,"current_range_meters":11200,"station_id":"ce4bhr92rcd13ifvqhrg","pricing_plan_id":"cebpf4jnsgd1na2vs0mg"},{"bike_id":"809b8472-0e56-4d5a-928a-8e6f70d59239","system_id":"levelo_inurba_marseille","lat":43.295254,"lon":5.38536,"is_reserved":false,"is_disabled":false,"rental_uris":{"android":"levelo://app?vid=809b8472-0e56-4d5a-928a-8e6f70d59239","ios":"levelo://app?vid=809b8472-0e56-4d5a-928a-8e6f70d59239"},"vehicle_type_id":"4","last_reported":1744492070,"current_range_meters":11600,"station_id":"ce4bgih2rcd13ifvqba0","pricing_plan_id":"cebpf4jnsgd1na2vs0mg"},{"bike_id":"2f5bc015-0a98-4a0d-a50f-f7181e1d6abe","system_id":"levelo_inurba_marseille","lat":43.23466,"lon":5.41214,"is_reserved":false,"is_disabled":false,"rental_uris":{"android":"levelo://app?vid=2f5bc015-0a98-4a0d-a50f-f7181e1d6abe","ios":"levelo://app?vid=2f5bc015-0a98-4a0d-a50f-f7181e1d6abe"},"vehicle_type_id":"4","last_reported":1744492070,"current_range_meters":11600,"station_id":"","pricing_plan_id":"cebpf4jnsgd1na2vs0mg"},{"bike_id":"2da4e441-d12c-4517-9415-ec4b4beeaf74","system_id":"levelo_inurba_marseille","lat":43.29533,"lon":5.3855,"is_reserved":false,"is_disabled":false,"rental_uris":{"android":"levelo://app?vid=2da4e441-d12c-4517-9415-ec4b4beeaf74","ios":"levelo://app?vid=2da4e441-d12c-4517-9415-ec4b4beeaf74"},"vehicle_type_id":"4","last_reported":1744492070,"current_range_meters":11600,"station_id":"ce4bgih2rcd13ifvqba0","pricing_plan_id":"cebpf4jnsgd1na2vs0mg"},{"bike_id":"cd02e34d-255b-40b8-99fb-f44f17955dfd","system_id":"levelo_inurba_marseille","lat":43.24799,"lon":5.37465,"is_reserved":false,"is_disabled":false,"rental_uris":{"android":"levelo://app?vid=cd02e34d-255b-40b8-99fb-f44f17955dfd","ios":"levelo://app?vid=cd02e34d-255b-40b8-99fb-f44f17955dfd"},"vehicle_type_id":"4","last_reported":1744492070,"current_range_meters":11600,"station_id":"ce4bhgh2rcd13ifvqfb0","pricing_plan_id":"cebpf4jnsgd1na2vs0mg"},{"bike_id":"8504cadd-dfe4-4186-94fe-fef9547528ee","system_id":"levelo_inurba_marseille","lat":43.2925,"lon":5.38457,"is_reserved":false,"is_disabled":false,"rental_uris":{"android":"levelo://app?vid=8504cadd-dfe4-4186-94fe-fef9547528ee","ios":"levelo://app?vid=8504cadd-dfe4-4186-94fe-fef9547528ee"},"vehicle_type_id":"4","last_reported":1744492070,"current_range_meters":11600,"station_id":"ce4bh692rcd13ifvqea0","pricing_plan_id":"cebpf4jnsgd1na2vs0mg"},{"bike_id":"f7843f46-58aa-4cf6-a1d0-1b94b16f71c2","system_id":"levelo_inurba_marseille","lat":43.29854,"lon":5.39666,"is_reserved":false,"is_disabled":false,"rental_uris":{"android":"levelo://app?vid=f7843f46-58aa-4cf6-a1d0-1b94b16f71c2","ios":"levelo://app?vid=f7843f46-58aa-4cf6-a1d0-1b94b16f71c2"},"vehicle_type_id":"4","last_reported":1744492070,"current_range_meters":12000,"station_id":"ce4bh0h2rcd13ifvqd50","pricing_plan_id":"cebpf4jnsgd1na2vs0mg"},{"bike_id":"c8ec0ad5-bbba-4c13-a8d7-41c981e07d65","system_id":"levelo_inurba_marseille","lat":43.31176,"lon":5.3872,"is_reserved":false,"is_disabled":false,"rental_uris":{"android":"levelo://app?vid=c8ec0ad5-bbba-4c13-a8d7-41c981e07d65","ios":"levelo://app?vid=c8ec0ad5-bbba-4c13-a8d7-41c981e07d65"},"vehicle_type_id":"4","last_reported":1744492070,"current_range_meters":12000,"station_id":"ce4bgv12rcd13ifvqcp0","pricing_plan_id":"cebpf4jnsgd1na2vs0mg"},{"bike_id":"ebf534fa-819c-4598-91be-9f495d23d5de","system_id":"levelo_inurba_marseille","lat":43.29542,"lon":5.38542,"is_reserved":false,"is_disabled":false,"rental_uris":{"android":"levelo://app?vid=ebf534fa-819c-4598-91be-9f495d23d5de","ios":"levelo://app?vid=ebf534fa-819c-4598-91be-9f495d23d5de"},"vehicle_type_id":"4","last_reported":1744492070,"current_range_meters":12000,"station_id":"ce4bgih2rcd13ifvqba0","pricing_plan_id":"cebpf4jnsgd1na2vs0mg"},{"bike_id":"b7e965ff-4854-44fc-8e2a-103893462049","system_id":"levelo_inurba_marseille","lat":43.337444,"lon":5.374475,"is_reserved":false,"is_disabled":true,"rental_uris":{"android":"levelo://app?vid=b7e965ff-4854-44fc-8e2a-103893462049","ios":"levelo://app?vid=b7e965ff-4854-44fc-8e2a-103893462049"},"vehicle_type_id":"4","last_reported":1744492070,"current_range_meters":12000,"station_id":"","pricing_plan_id":"cebpf4jnsgd1na2vs0mg"},{"bike_id":"61bc6256-8380-4638-bd27-1e2c56ecc87d","system_id":"levelo_inurba_marseille","lat":43.29731,"lon":5.37696,"is_reserved":false,"is_disabled":false,"rental_uris":{"android":"levelo://app?vid=61bc6256-8380-4638-bd27-1e2c56ecc87d","ios":"levelo://app?vid=61bc6256-8380-4638-bd27-1e2c56ecc87d"},"vehicle_type_id":"4","last_reported":1744492070,"current_range_meters":12000,"station_id":"ce4bgkh2rcd13ifvqbl0","pricing_plan_id":"cebpf4jnsgd1na2vs0mg"},{"bike_id":"76450c2c-888f-4d08-a5c0-d825237615aa","system_id":"levelo_inurba_marseille","lat":43.27066,"lon":5.42279,"is_reserved":false,"is_disabled":false,"rental_uris":{"android":"levelo://app?vid=76450c2c-888f-4d08-a5c0-d825237615aa","ios":"levelo://app?vid=76450c2c-888f-4d08-a5c0-d825237615aa"},"vehicle_type_id":"4","last_reported":1744492070,"current_range_meters":12400,"station_id":"ce4bhk92rcd13ifvqgb0","pricing_plan_id":"cebpf4jnsgd1na2vs0mg"},{"bike_id":"aa139661-ffcc-40c2-a396-528ee167d510","system_id":"levelo_inurba_marseille","lat":43.23961,"lon":5.36636,"is_reserved":false,"is_disabled":false,"rental_uris":{"android":"levelo://app?vid=aa139661-ffcc-40c2-a396-528ee167d510","ios":"levelo://app?vid=aa139661-ffcc-40c2-a396-528ee167d510"},"vehicle_type_id":"4","last_reported":1744492070,"current_range_meters":12400,"station_id":"ce4bhi12rcd13ifvqfp0","pricing_plan_id":"cebpf4jnsgd1na2vs0mg"},{"bike_id":"6e2ac28e-dfb7-46b8-8016-b7ae92b2a4f0","system_id":"levelo_inurba_marseille","lat":43.27996,"lon":5.40009,"is_reserved":false,"is_disabled":false,"rental_uris":{"android":"levelo://app?vid=6e2ac28e-dfb7-46b8-8016-b7ae92b2a4f0","ios":"levelo://app?vid=6e2ac28e-dfb7-46b8-8016-b7ae92b2a4f0"},"vehicle_type_id":"4","last_reported":1744492070,"current_range_meters":12400,"station_id":"ce4bho92rcd13ifvqh4g","pricing_plan_id":"cebpf4jnsgd1na2vs0mg"},{"bike_id":"8cbe9af8-0a0f-48a8-b7e2-8e637dd31232","system_id":"levelo_inurba_marseille","lat":43.28266,"lon":5.35057,"is_reserved":false,"is_disabled":false,"rental_uris":{"android":"levelo://app?vid=8cbe9af8-0a0f-48a8-b7e2-8e637dd31232","ios":"levelo://app?vid=8cbe9af8-0a0f-48a8-b7e2-8e637dd31232"},"vehicle_type_id":"4","last_reported":1744492070,"current_range_meters":12400,"station_id":"ce4bhbp2rcd13ifvqerg","pricing_plan_id":"cebpf4jnsgd1na2vs0mg"},{"bike_id":"5dad896c-5ad6-4c43-9e1b-b5420be71488","system_id":"levelo_inurba_marseille","lat":43.29267,"lon":5.38431,"is_reserved":false,"is_disabled":false,"rental_uris":{"android":"levelo://app?vid=5dad896c-5ad6-4c43-9e1b-b5420be71488","ios":"levelo://app?vid=5dad896c-5ad6-4c43-9e1b-b5420be71488"},"vehicle_type_id":"4","last_reported":1744492070,"current_range_meters":12400,"station_id":"ce4bh692rcd13ifvqea0","pricing_plan_id":"cebpf4jnsgd1na2vs0mg"},{"bike_id":"72c6aab6-3a44-430e-a84d-843d2a93e616","system_id":"levelo_inurba_marseille","lat":43.21181,"lon":5.3507,"is_reserved":false,"is_disabled":true,"rental_uris":{"android":"levelo://app?vid=72c6aab6-3a44-430e-a84d-843d2a93e616","ios":"levelo://app?vid=72c6aab6-3a44-430e-a84d-843d2a93e616"},"vehicle_type_id":"4","last_reported":1744492070,"current_range_meters":12800,"station_id":"st_cvj6sg6p6f1abm77japg","pricing_plan_id":"cebpf4jnsgd1na2vs0mg"},{"bike_id":"0e28dec3-f76d-48a9-b282-944b4e9f06dd","system_id":"levelo_inurba_marseille","lat":43.24819,"lon":5.37451,"is_reserved":false,"is_disabled":false,"rental_uris":{"android":"levelo://app?vid=0e28dec3-f76d-48a9-b282-944b4e9f06dd","ios":"levelo://app?vid=0e28dec3-f76d-48a9-b282-944b4e9f06dd"},"vehicle_type_id":"4","last_reported":1744492070,"current_range_meters":12800,"station_id":"ce4bhgh2rcd13ifvqfb0","pricing_plan_id":"cebpf4jnsgd1na2vs0mg"},{"bike_id":"31278687-301e-494f-8750-0eeefba1c6db","system_id":"levelo_inurba_marseille","lat":43.25869,"lon":5.39893,"is_reserved":false,"is_disabled":false,"rental_uris":{"android":"levelo://app?vid=31278687-301e-494f-8750-0eeefba1c6db","ios":"levelo://app?vid=31278687-301e-494f-8750-0eeefba1c6db"},"vehicle_type_id":"4","last_reported":1744492070,"current_range_meters":12400,"station_id":"ce4bhl92rcd13ifvqghg","pricing_plan_id":"cebpf4jnsgd1na2vs0mg"},{"bike_id":"626c3362-fddd-45bb-80e6-49a55027973e","system_id":"levelo_inurba_marseille","lat":43.29044,"lon":5.39964,"is_reserved":false,"is_disabled":false,"rental_uris":{"android":"levelo://app?vid=626c3362-fddd-45bb-80e6-49a55027973e","ios":"levelo://app?vid=626c3362-fddd-45bb-80e6-49a55027973e"},"vehicle_type_id":"4","last_reported":1744492070,"current_range_meters":12800,"station_id":"ce4bh392rcd13ifvqdm0","pricing_plan_id":"cebpf4jnsgd1na2vs0mg"},{"bike_id":"b291be8f-f05a-4cf0-8e19-df29eda4e182","system_id":"levelo_inurba_marseille","lat":43.25496,"lon":5.3765,"is_reserved":false,"is_disabled":false,"rental_uris":{"android":"levelo://app?vid=b291be8f-f05a-4cf0-8e19-df29eda4e182","ios":"levelo://app?vid=b291be8f-f05a-4cf0-8e19-df29eda4e182"},"vehicle_type_id":"4","last_reported":1744492070,"current_range_meters":12400,"station_id":"ce4bhh12rcd13ifvqff0","pricing_plan_id":"cebpf4jnsgd1na2vs0mg"},{"bike_id":"333356d7-6e97-45d3-8c5c-3b248a41e754","system_id":"levelo_inurba_marseille","lat":43.26214,"lon":5.37438,"is_reserved":false,"is_disabled":false,"rental_uris":{"android":"levelo://app?vid=333356d7-6e97-45d3-8c5c-3b248a41e754","ios":"levelo://app?vid=333356d7-6e97-45d3-8c5c-3b248a41e754"},"vehicle_type_id":"4","last_reported":1744492070,"current_range_meters":12800,"station_id":"ce4bhgp2rcd13ifvqfc0","pricing_plan_id":"cebpf4jnsgd1na2vs0mg"},{"bike_id":"a77bedda-3017-491e-86d2-dfd8dc201c2d","system_id":"levelo_inurba_marseille","lat":43.313288,"lon":5.396882,"is_reserved":false,"is_disabled":false,"rental_uris":{"android":"levelo://app?vid=a77bedda-3017-491e-86d2-dfd8dc201c2d","ios":"levelo://app?vid=a77bedda-3017-491e-86d2-dfd8dc201c2d"},"vehicle_type_id":"4","last_reported":1744492070,"current_range_meters":12800,"station_id":"ce4bgvp2rcd13ifvqcu0","pricing_plan_id":"cebpf4jnsgd1na2vs0mg"},{"bike_id":"e0e59bfb-5088-41a2-835c-398ab715e8d6","system_id":"levelo_inurba_marseille","lat":43.24192,"lon":5.39724,"is_reserved":false,"is_disabled":false,"rental_uris":{"android":"levelo://app?vid=e0e59bfb-5088-41a2-835c-398ab715e8d6","ios":"levelo://app?vid=e0e59bfb-5088-41a2-835c-398ab715e8d6"},"vehicle_type_id":"4","last_reported":1744492070,"current_range_meters":12800,"station_id":"ce4bhn12rcd13ifvqgpg","pricing_plan_id":"cebpf4jnsgd1na2vs0mg"},{"bike_id":"daba1c28-0931-46db-a0ec-31b17b99b1e9","system_id":"levelo_inurba_marseille","lat":43.25501,"lon":5.3765,"is_reserved":false,"is_disabled":false,"rental_uris":{"android":"levelo://app?vid=daba1c28-0931-46db-a0ec-31b17b99b1e9","ios":"levelo://app?vid=daba1c28-0931-46db-a0ec-31b17b99b1e9"},"vehicle_type_id":"4","last_reported":1744492070,"current_range_meters":12800,"station_id":"ce4bhh12rcd13ifvqff0","pricing_plan_id":"cebpf4jnsgd1na2vs0mg"},{"bike_id":"8043ed93-c0e0-4b20-a22a-1ce703744524","system_id":"levelo_inurba_marseille","lat":43.28932,"lon":5.36652,"is_reserved":false,"is_disabled":true,"rental_uris":{"android":"levelo://app?vid=8043ed93-c0e0-4b20-a22a-1ce703744524","ios":"levelo://app?vid=8043ed93-c0e0-4b20-a22a-1ce703744524"},"vehicle_type_id":"4","last_reported":1744492070,"current_range_meters":12800,"station_id":"ce4bhap2rcd13ifvqek0","pricing_plan_id":"cebpf4jnsgd1na2vs0mg"},{"bike_id":"c14a3d0e-03f7-430a-80a8-18644645ea89","system_id":"levelo_inurba_marseille","lat":43.32332,"lon":5.40594,"is_reserved":false,"is_disabled":false,"rental_uris":{"android":"levelo://app?vid=c14a3d0e-03f7-430a-80a8-18644645ea89","ios":"levelo://app?vid=c14a3d0e-03f7-430a-80a8-18644645ea89"},"vehicle_type_id":"4","last_reported":1744492070,"current_range_meters":12800,"station_id":"ce4bhq92rcd13ifvqhjg","pricing_plan_id":"cebpf4jnsgd1na2vs0mg"},{"bike_id":"72686953-fc12-4023-be61-9679af5f3837","system_id":"levelo_inurba_marseille","lat":43.2721,"lon":5.39171,"is_reserved":false,"is_disabled":false,"rental_uris":{"android":"levelo://app?vid=72686953-fc12-4023-be61-9679af5f3837","ios":"levelo://app?vid=72686953-fc12-4023-be61-9679af5f3837"},"vehicle_type_id":"4","last_reported":1744492070,"current_range_meters":13600,"station_id":"ce4bhhp2rcd13ifvqfm0","pricing_plan_id":"cebpf4jnsgd1na2vs0mg"},{"bike_id":"8133ab5b-17f3-4fca-9ac2-7769488eb2ea","system_id":"levelo_inurba_marseille","lat":43.25507,"lon":5.37675,"is_reserved":false,"is_disabled":false,"rental_uris":{"android":"levelo://app?vid=8133ab5b-17f3-4fca-9ac2-7769488eb2ea","ios":"levelo://app?vid=8133ab5b-17f3-4fca-9ac2-7769488eb2ea"},"vehicle_type_id":"4","last_reported":1744492070,"current_range_meters":13600,"station_id":"ce4bhh12rcd13ifvqff0","pricing_plan_id":"cebpf4jnsgd1na2vs0mg"},{"bike_id":"909ff026-cf1f-4d01-b298-6fa044589cd7","system_id":"levelo_inurba_marseille","lat":43.27424,"lon":5.39408,"is_reserved":false,"is_disabled":false,"rental_uris":{"android":"levelo://app?vid=909ff026-cf1f-4d01-b298-6fa044589cd7","ios":"levelo://app?vid=909ff026-cf1f-4d01-b298-6fa044589cd7"},"vehicle_type_id":"4","last_reported":1744492070,"current_range_meters":13600,"station_id":"ce4bhdp2rcd13ifvqf20","pricing_plan_id":"cebpf4jnsgd1na2vs0mg"},{"bike_id":"58ac1e55-4bbe-453d-a4ad-5f2509aafb35","system_id":"levelo_inurba_marseille","lat":43.24816,"lon":5.37446,"is_reserved":false,"is_disabled":false,"rental_uris":{"android":"levelo://app?vid=58ac1e55-4bbe-453d-a4ad-5f2509aafb35","ios":"levelo://app?vid=58ac1e55-4bbe-453d-a4ad-5f2509aafb35"},"vehicle_type_id":"4","last_reported":1744492070,"current_range_meters":13600,"station_id":"ce4bhgh2rcd13ifvqfb0","pricing_plan_id":"cebpf4jnsgd1na2vs0mg"},{"bike_id":"2e133ca1-96ea-48e9-bace-c94bc82ed2d6","system_id":"levelo_inurba_marseille","lat":43.2954,"lon":5.3902,"is_reserved":false,"is_disabled":false,"rental_uris":{"android":"levelo://app?vid=2e133ca1-96ea-48e9-bace-c94bc82ed2d6","ios":"levelo://app?vid=2e133ca1-96ea-48e9-bace-c94bc82ed2d6"},"vehicle_type_id":"4","last_reported":1744492070,"current_range_meters":14000,"station_id":"ce4bh3p2rcd13ifvqdp0","pricing_plan_id":"cebpf4jnsgd1na2vs0mg"},{"bike_id":"c93e758e-7704-4bde-ab26-c22431d8809f","system_id":"levelo_inurba_marseille","lat":43.30649,"lon":5.40095,"is_reserved":false,"is_disabled":false,"rental_uris":{"android":"levelo://app?vid=c93e758e-7704-4bde-ab26-c22431d8809f","ios":"levelo://app?vid=c93e758e-7704-4bde-ab26-c22431d8809f"},"vehicle_type_id":"4","last_reported":1744492070,"current_range_meters":13600,"station_id":"ce4bh112rcd13ifvqda0","pricing_plan_id":"cebpf4jnsgd1na2vs0mg"},{"bike_id":"c5de9f04-a68c-4314-9995-789e3d717983","system_id":"levelo_inurba_marseille","lat":43.24399,"lon":5.37076,"is_reserved":false,"is_disabled":true,"rental_uris":{"android":"levelo://app?vid=c5de9f04-a68c-4314-9995-789e3d717983","ios":"levelo://app?vid=c5de9f04-a68c-4314-9995-789e3d717983"},"vehicle_type_id":"4","last_reported":1744492070,"current_range_meters":14000,"station_id":"ce4bhhh2rcd13ifvqfk0","pricing_plan_id":"cebpf4jnsgd1na2vs0mg"},{"bike_id":"7a29f394-fc48-4c93-a612-371c0644dd4a","system_id":"levelo_inurba_marseille","lat":43.30949,"lon":5.39023,"is_reserved":false,"is_disabled":false,"rental_uris":{"android":"levelo://app?vid=7a29f394-fc48-4c93-a612-371c0644dd4a","ios":"levelo://app?vid=7a29f394-fc48-4c93-a612-371c0644dd4a"},"vehicle_type_id":"4","last_reported":1744492070,"current_range_meters":14000,"station_id":"ce4bgup2rcd13ifvqco0","pricing_plan_id":"cebpf4jnsgd1na2vs0mg"},{"bike_id":"91fffdcd-2fa7-4f34-b242-95e7e93ac05b","system_id":"levelo_inurba_marseille","lat":43.26305,"lon":5.39729,"is_reserved":false,"is_disabled":false,"rental_uris":{"android":"levelo://app?vid=91fffdcd-2fa7-4f34-b242-95e7e93ac05b","ios":"levelo://app?vid=91fffdcd-2fa7-4f34-b242-95e7e93ac05b"},"vehicle_type_id":"4","last_reported":1744492070,"current_range_meters":14000,"station_id":"","pricing_plan_id":"cebpf4jnsgd1na2vs0mg"},{"bike_id":"ef01a080-90aa-4c09-bccc-1c0a11ea24f7","system_id":"levelo_inurba_marseille","lat":43.28775,"lon":5.38742,"is_reserved":false,"is_disabled":false,"rental_uris":{"android":"levelo://app?vid=ef01a080-90aa-4c09-bccc-1c0a11ea24f7","ios":"levelo://app?vid=ef01a080-90aa-4c09-bccc-1c0a11ea24f7"},"vehicle_type_id":"4","last_reported":1744492070,"current_range_meters":14000,"station_id":"","pricing_plan_id":"cebpf4jnsgd1na2vs0mg"},{"bike_id":"a4da7072-f681-4010-8772-b49f707169ee","system_id":"levelo_inurba_marseille","lat":43.29034,"lon":5.39963,"is_reserved":false,"is_disabled":false,"rental_uris":{"android":"levelo://app?vid=a4da7072-f681-4010-8772-b49f707169ee","ios":"levelo://app?vid=a4da7072-f681-4010-8772-b49f707169ee"},"vehicle_type_id":"4","last_reported":1744492070,"current_range_meters":14000,"station_id":"ce4bh392rcd13ifvqdm0","pricing_plan_id":"cebpf4jnsgd1na2vs0mg"},{"bike_id":"82d38bd3-c046-4f55-aec8-4eb686f05e29","system_id":"levelo_inurba_marseille","lat":43.22925,"lon":5.35388,"is_reserved":false,"is_disabled":true,"rental_uris":{"android":"levelo://app?vid=82d38bd3-c046-4f55-aec8-4eb686f05e29","ios":"levelo://app?vid=82d38bd3-c046-4f55-aec8-4eb686f05e29"},"vehicle_type_id":"4","last_reported":1744492070,"current_range_meters":14000,"station_id":"cpo3532slgdg3j2ikp40","pricing_plan_id":"cebpf4jnsgd1na2vs0mg"},{"bike_id":"1cb22da1-916e-42a3-9dae-433db3987b86","system_id":"levelo_inurba_marseille","lat":43.27915,"lon":5.38008,"is_reserved":false,"is_disabled":false,"rental_uris":{"android":"levelo://app?vid=1cb22da1-916e-42a3-9dae-433db3987b86","ios":"levelo://app?vid=1cb22da1-916e-42a3-9dae-433db3987b86"},"vehicle_type_id":"4","last_reported":1744492070,"current_range_meters":13600,"station_id":"ce4bhf92rcd13ifvqf50","pricing_plan_id":"cebpf4jnsgd1na2vs0mg"},{"bike_id":"efd328ca-f8bf-4550-bd94-c2fd75978f3c","system_id":"levelo_inurba_marseille","lat":43.33041,"lon":5.38093,"is_reserved":false,"is_disabled":false,"rental_uris":{"android":"levelo://app?vid=efd328ca-f8bf-4550-bd94-c2fd75978f3c","ios":"levelo://app?vid=efd328ca-f8bf-4550-bd94-c2fd75978f3c"},"vehicle_type_id":"4","last_reported":1744492070,"current_range_meters":14000,"station_id":"","pricing_plan_id":"cebpf4jnsgd1na2vs0mg"},{"bike_id":"90a14195-a53e-4d1f-a5a5-307cc368f11f","system_id":"levelo_inurba_marseille","lat":43.27414,"lon":5.39404,"is_reserved":false,"is_disabled":false,"rental_uris":{"android":"levelo://app?vid=90a14195-a53e-4d1f-a5a5-307cc368f11f","ios":"levelo://app?vid=90a14195-a53e-4d1f-a5a5-307cc368f11f"},"vehicle_type_id":"4","last_reported":1744492070,"current_range_meters":14000,"station_id":"ce4bhdp2rcd13ifvqf20","pricing_plan_id":"cebpf4jnsgd1na2vs0mg"},{"bike_id":"0c30a5d7-82b9-4bb2-9032-224893c69d2f","system_id":"levelo_inurba_marseille","lat":43.26493,"lon":5.39543,"is_reserved":false,"is_disabled":true,"rental_uris":{"android":"levelo://app?vid=0c30a5d7-82b9-4bb2-9032-224893c69d2f","ios":"levelo://app?vid=0c30a5d7-82b9-4bb2-9032-224893c69d2f"},"vehicle_type_id":"4","last_reported":1744492070,"current_range_meters":14400,"station_id":"ce4bhi12rcd13ifvqfq0","pricing_plan_id":"cebpf4jnsgd1na2vs0mg"},{"bike_id":"2195cc03-ef5b-4527-84ea-de97f09dd012","system_id":"levelo_inurba_marseille","lat":43.28674,"lon":5.36353,"is_reserved":false,"is_disabled":false,"rental_uris":{"android":"levelo://app?vid=2195cc03-ef5b-4527-84ea-de97f09dd012","ios":"levelo://app?vid=2195cc03-ef5b-4527-84ea-de97f09dd012"},"vehicle_type_id":"4","last_reported":1744492070,"current_range_meters":14000,"station_id":"ce4bhah2rcd13ifvqej0","pricing_plan_id":"cebpf4jnsgd1na2vs0mg"},{"bike_id":"a3bf51d9-08b7-458c-9b6d-ef5680cc95d6","system_id":"levelo_inurba_marseille","lat":43.2185,"lon":5.34749,"is_reserved":false,"is_disabled":true,"rental_uris":{"android":"levelo://app?vid=a3bf51d9-08b7-458c-9b6d-ef5680cc95d6","ios":"levelo://app?vid=a3bf51d9-08b7-458c-9b6d-ef5680cc95d6"},"vehicle_type_id":"4","last_reported":1744492070,"current_range_meters":14400,"station_id":"cpo36qri1sfpv3e86is0","pricing_plan_id":"cebpf4jnsgd1na2vs0mg"},{"bike_id":"4bbe6e48-9bfa-4dec-aab0-5597477f7da1","system_id":"levelo_inurba_marseille","lat":43.32412,"lon":5.39141,"is_reserved":false,"is_disabled":false,"rental_uris":{"android":"levelo://app?vid=4bbe6e48-9bfa-4dec-aab0-5597477f7da1","ios":"levelo://app?vid=4bbe6e48-9bfa-4dec-aab0-5597477f7da1"},"vehicle_type_id":"4","last_reported":1744492070,"current_range_meters":14400,"station_id":"","pricing_plan_id":"cebpf4jnsgd1na2vs0mg"},{"bike_id":"12aec038-db5e-4d5d-a5cf-e01dc2e28ea3","system_id":"levelo_inurba_marseille","lat":43.30118,"lon":5.40502,"is_reserved":false,"is_disabled":true,"rental_uris":{"android":"levelo://app?vid=12aec038-db5e-4d5d-a5cf-e01dc2e28ea3","ios":"levelo://app?vid=12aec038-db5e-4d5d-a5cf-e01dc2e28ea3"},"vehicle_type_id":"4","last_reported":1744492070,"current_range_meters":14800,"station_id":"","pricing_plan_id":"cebpf4jnsgd1na2vs0mg"},{"bike_id":"020e9999-d552-48d0-ae5f-b725af0dbea2","system_id":"levelo_inurba_marseille","lat":43.299145,"lon":5.437575,"is_reserved":false,"is_disabled":false,"rental_uris":{"android":"levelo://app?vid=020e9999-d552-48d0-ae5f-b725af0dbea2","ios":"levelo://app?vid=020e9999-d552-48d0-ae5f-b725af0dbea2"},"vehicle_type_id":"4","last_reported":1744492070,"current_range_meters":14800,"station_id":"","pricing_plan_id":"cebpf4jnsgd1na2vs0mg"},{"bike_id":"ccd9a59e-c14c-4bb7-921b-bb2d3a84c3df","system_id":"levelo_inurba_marseille","lat":43.26568,"lon":5.37285,"is_reserved":false,"is_disabled":false,"rental_uris":{"android":"levelo://app?vid=ccd9a59e-c14c-4bb7-921b-bb2d3a84c3df","ios":"levelo://app?vid=ccd9a59e-c14c-4bb7-921b-bb2d3a84c3df"},"vehicle_type_id":"4","last_reported":1744492070,"current_range_meters":14800,"station_id":"ce4bhg12rcd13ifvqf70","pricing_plan_id":"cebpf4jnsgd1na2vs0mg"},{"bike_id":"700d71b5-4c85-431a-b92e-2942edd64ce4","system_id":"levelo_inurba_marseille","lat":43.24803,"lon":5.37456,"is_reserved":false,"is_disabled":false,"rental_uris":{"android":"levelo://app?vid=700d71b5-4c85-431a-b92e-2942edd64ce4","ios":"levelo://app?vid=700d71b5-4c85-431a-b92e-2942edd64ce4"},"vehicle_type_id":"4","last_reported":1744492070,"current_range_meters":15200,"station_id":"ce4bhgh2rcd13ifvqfb0","pricing_plan_id":"cebpf4jnsgd1na2vs0mg"},{"bike_id":"483b67b3-2349-4ecc-9d01-9917825b7826","system_id":"levelo_inurba_marseille","lat":43.31079,"lon":5.38351,"is_reserved":false,"is_disabled":false,"rental_uris":{"android":"levelo://app?vid=483b67b3-2349-4ecc-9d01-9917825b7826","ios":"levelo://app?vid=483b67b3-2349-4ecc-9d01-9917825b7826"},"vehicle_type_id":"4","last_reported":1744492070,"current_range_meters":15200,"station_id":"ce4bgv92rcd13ifvqcr0","pricing_plan_id":"cebpf4jnsgd1na2vs0mg"},{"bike_id":"49e3c53c-516c-42d1-a5bd-9f99de91d482","system_id":"levelo_inurba_marseille","lat":43.27046,"lon":5.42277,"is_reserved":false,"is_disabled":false,"rental_uris":{"android":"levelo://app?vid=49e3c53c-516c-42d1-a5bd-9f99de91d482","ios":"levelo://app?vid=49e3c53c-516c-42d1-a5bd-9f99de91d482"},"vehicle_type_id":"4","last_reported":1744492070,"current_range_meters":14800,"station_id":"ce4bhk92rcd13ifvqgb0","pricing_plan_id":"cebpf4jnsgd1na2vs0mg"},{"bike_id":"b55dd5e7-54b2-4035-b945-7b626dd7afc7","system_id":"levelo_inurba_marseille","lat":43.27568,"lon":5.40968,"is_reserved":false,"is_disabled":false,"rental_uris":{"android":"levelo://app?vid=b55dd5e7-54b2-4035-b945-7b626dd7afc7","ios":"levelo://app?vid=b55dd5e7-54b2-4035-b945-7b626dd7afc7"},"vehicle_type_id":"4","last_reported":1744492070,"current_range_meters":15200,"station_id":"","pricing_plan_id":"cebpf4jnsgd1na2vs0mg"},{"bike_id":"bb992f94-162e-4668-92e9-ac060115e5fd","system_id":"levelo_inurba_marseille","lat":43.23968,"lon":5.36634,"is_reserved":false,"is_disabled":false,"rental_uris":{"android":"levelo://app?vid=bb992f94-162e-4668-92e9-ac060115e5fd","ios":"levelo://app?vid=bb992f94-162e-4668-92e9-ac060115e5fd"},"vehicle_type_id":"4","last_reported":1744492070,"current_range_meters":15200,"station_id":"ce4bhi12rcd13ifvqfp0","pricing_plan_id":"cebpf4jnsgd1na2vs0mg"},{"bike_id":"db9cdcec-b5ee-409b-adf3-2fb9b83088c4","system_id":"levelo_inurba_marseille","lat":43.30997,"lon":5.37325,"is_reserved":false,"is_disabled":false,"rental_uris":{"android":"levelo://app?vid=db9cdcec-b5ee-409b-adf3-2fb9b83088c4","ios":"levelo://app?vid=db9cdcec-b5ee-409b-adf3-2fb9b83088c4"},"vehicle_type_id":"4","last_reported":1744492070,"current_range_meters":15200,"station_id":"","pricing_plan_id":"cebpf4jnsgd1na2vs0mg"},{"bike_id":"2ae5c809-c5d6-480f-b9b1-6456636a5c12","system_id":"levelo_inurba_marseille","lat":43.294258,"lon":5.386146,"is_reserved":false,"is_disabled":false,"rental_uris":{"android":"levelo://app?vid=2ae5c809-c5d6-480f-b9b1-6456636a5c12","ios":"levelo://app?vid=2ae5c809-c5d6-480f-b9b1-6456636a5c12"},"vehicle_type_id":"4","last_reported":1744492070,"current_range_meters":15200,"station_id":"ce4bh2h2rcd13ifvqdh0","pricing_plan_id":"cebpf4jnsgd1na2vs0mg"},{"bike_id":"caa3018c-99ef-485b-9ca9-caf036ba5477","system_id":"levelo_inurba_marseille","lat":43.28733,"lon":5.36084,"is_reserved":false,"is_disabled":false,"rental_uris":{"android":"levelo://app?vid=caa3018c-99ef-485b-9ca9-caf036ba5477","ios":"levelo://app?vid=caa3018c-99ef-485b-9ca9-caf036ba5477"},"vehicle_type_id":"4","last_reported":1744492070,"current_range_meters":15200,"station_id":"cki0cbj6b192h4jlfktg","pricing_plan_id":"cebpf4jnsgd1na2vs0mg"},{"bike_id":"73bbc97d-2b39-4276-bc22-fd7aa78f429c","system_id":"levelo_inurba_marseille","lat":43.29875,"lon":5.43669,"is_reserved":false,"is_disabled":false,"rental_uris":{"android":"levelo://app?vid=73bbc97d-2b39-4276-bc22-fd7aa78f429c","ios":"levelo://app?vid=73bbc97d-2b39-4276-bc22-fd7aa78f429c"},"vehicle_type_id":"4","last_reported":1744492070,"current_range_meters":15200,"station_id":"ce4bhpp2rcd13ifvqhfg","pricing_plan_id":"cebpf4jnsgd1na2vs0mg"},{"bike_id":"3a54ebb8-e92a-4fc4-83c2-19f3608047c2","system_id":"levelo_inurba_marseille","lat":43.30123,"lon":5.39861,"is_reserved":false,"is_disabled":false,"rental_uris":{"android":"levelo://app?vid=3a54ebb8-e92a-4fc4-83c2-19f3608047c2","ios":"levelo://app?vid=3a54ebb8-e92a-4fc4-83c2-19f3608047c2"},"vehicle_type_id":"4","last_reported":1744492070,"current_range_meters":15200,"station_id":"ce4bh0h2rcd13ifvqd40","pricing_plan_id":"cebpf4jnsgd1na2vs0mg"},{"bike_id":"6f3d7a83-ebb3-47f1-9781-45cc491a1b61","system_id":"levelo_inurba_marseille","lat":43.27425,"lon":5.39416,"is_reserved":false,"is_disabled":false,"rental_uris":{"android":"levelo://app?vid=6f3d7a83-ebb3-47f1-9781-45cc491a1b61","ios":"levelo://app?vid=6f3d7a83-ebb3-47f1-9781-45cc491a1b61"},"vehicle_type_id":"4","last_reported":1744492070,"current_range_meters":16000,"station_id":"ce4bhdp2rcd13ifvqf20","pricing_plan_id":"cebpf4jnsgd1na2vs0mg"},{"bike_id":"d2d9324f-8ac1-443f-86e8-9c4a974a2522","system_id":"levelo_inurba_marseille","lat":43.29906,"lon":5.38143,"is_reserved":false,"is_disabled":false,"rental_uris":{"android":"levelo://app?vid=d2d9324f-8ac1-443f-86e8-9c4a974a2522","ios":"levelo://app?vid=d2d9324f-8ac1-443f-86e8-9c4a974a2522"},"vehicle_type_id":"4","last_reported":1744492070,"current_range_meters":16000,"station_id":"ce4bgj12rcd13ifvqbc0","pricing_plan_id":"cebpf4jnsgd1na2vs0mg"},{"bike_id":"982bb1bc-457f-43d7-ae21-85035c856353","system_id":"levelo_inurba_marseille","lat":43.22492,"lon":5.34785,"is_reserved":false,"is_disabled":false,"rental_uris":{"android":"levelo://app?vid=982bb1bc-457f-43d7-ae21-85035c856353","ios":"levelo://app?vid=982bb1bc-457f-43d7-ae21-85035c856353"},"vehicle_type_id":"4","last_reported":1744492070,"current_range_meters":16000,"station_id":"st_cvj5dfep6f1abm77gieg","pricing_plan_id":"cebpf4jnsgd1na2vs0mg"},{"bike_id":"7fcde371-d25e-4ece-a5ce-7303f09f0152","system_id":"levelo_inurba_marseille","lat":43.24786,"lon":5.37418,"is_reserved":false,"is_disabled":false,"rental_uris":{"android":"levelo://app?vid=7fcde371-d25e-4ece-a5ce-7303f09f0152","ios":"levelo://app?vid=7fcde371-d25e-4ece-a5ce-7303f09f0152"},"vehicle_type_id":"4","last_reported":1744492070,"current_range_meters":16000,"station_id":"ce4bhgh2rcd13ifvqfb0","pricing_plan_id":"cebpf4jnsgd1na2vs0mg"},{"bike_id":"d8b9884b-4022-4710-9f87-50e0dbfd421d","system_id":"levelo_inurba_marseille","lat":43.24147,"lon":5.36401,"is_reserved":false,"is_disabled":false,"rental_uris":{"android":"levelo://app?vid=d8b9884b-4022-4710-9f87-50e0dbfd421d","ios":"levelo://app?vid=d8b9884b-4022-4710-9f87-50e0dbfd421d"},"vehicle_type_id":"4","last_reported":1744492070,"current_range_meters":16000,"station_id":"cpo36qri1sfpv3e86is0","pricing_plan_id":"cebpf4jnsgd1na2vs0mg"},{"bike_id":"e44c373c-44cf-4377-8e42-21596ce17313","system_id":"levelo_inurba_marseille","lat":43.27413,"lon":5.39354,"is_reserved":false,"is_disabled":false,"rental_uris":{"android":"levelo://app?vid=e44c373c-44cf-4377-8e42-21596ce17313","ios":"levelo://app?vid=e44c373c-44cf-4377-8e42-21596ce17313"},"vehicle_type_id":"4","last_reported":1744492070,"current_range_meters":16000,"station_id":"ce4bhdp2rcd13ifvqf20","pricing_plan_id":"cebpf4jnsgd1na2vs0mg"},{"bike_id":"5591936e-ca63-41c7-89f3-9c9493c86f89","system_id":"levelo_inurba_marseille","lat":43.24166,"lon":5.36402,"is_reserved":false,"is_disabled":false,"rental_uris":{"android":"levelo://app?vid=5591936e-ca63-41c7-89f3-9c9493c86f89","ios":"levelo://app?vid=5591936e-ca63-41c7-89f3-9c9493c86f89"},"vehicle_type_id":"4","last_reported":1744492070,"current_range_meters":16000,"station_id":"cpo36qri1sfpv3e86is0","pricing_plan_id":"cebpf4jnsgd1na2vs0mg"},{"bike_id":"2a4d1ff9-571b-4389-ad79-e6626cc2412c","system_id":"levelo_inurba_marseille","lat":43.25586,"lon":5.38227,"is_reserved":false,"is_disabled":false,"rental_uris":{"android":"levelo://app?vid=2a4d1ff9-571b-4389-ad79-e6626cc2412c","ios":"levelo://app?vid=2a4d1ff9-571b-4389-ad79-e6626cc2412c"},"vehicle_type_id":"4","last_reported":1744492070,"current_range_meters":16000,"station_id":"ce4bhih2rcd13ifvqfs0","pricing_plan_id":"cebpf4jnsgd1na2vs0mg"},{"bike_id":"7761f575-b8a5-498f-87e6-d723364392de","system_id":"levelo_inurba_marseille","lat":43.28039,"lon":5.36943,"is_reserved":false,"is_disabled":false,"rental_uris":{"android":"levelo://app?vid=7761f575-b8a5-498f-87e6-d723364392de","ios":"levelo://app?vid=7761f575-b8a5-498f-87e6-d723364392de"},"vehicle_type_id":"4","last_reported":1744492070,"current_range_meters":15200,"station_id":"ce4bha12rcd13ifvqef0","pricing_plan_id":"cebpf4jnsgd1na2vs0mg"},{"bike_id":"f44be64b-6eee-4b45-a654-c0b4597bf03b","system_id":"levelo_inurba_marseille","lat":43.29311,"lon":5.37159,"is_reserved":false,"is_disabled":false,"rental_uris":{"android":"levelo://app?vid=f44be64b-6eee-4b45-a654-c0b4597bf03b","ios":"levelo://app?vid=f44be64b-6eee-4b45-a654-c0b4597bf03b"},"vehicle_type_id":"4","last_reported":1744492070,"current_range_meters":16400,"station_id":"ce4bgh92rcd13ifvqb40","pricing_plan_id":"cebpf4jnsgd1na2vs0mg"},{"bike_id":"76072cab-a8f1-451c-a4ef-c685a273d706","system_id":"levelo_inurba_marseille","lat":43.3025,"lon":5.40049,"is_reserved":false,"is_disabled":false,"rental_uris":{"android":"levelo://app?vid=76072cab-a8f1-451c-a4ef-c685a273d706","ios":"levelo://app?vid=76072cab-a8f1-451c-a4ef-c685a273d706"},"vehicle_type_id":"4","last_reported":1744492070,"current_range_meters":16400,"station_id":"ce4bgvh2rcd13ifvqcs0","pricing_plan_id":"cebpf4jnsgd1na2vs0mg"},{"bike_id":"65a4be88-1984-4bec-948b-f6287628c75b","system_id":"levelo_inurba_marseille","lat":43.28722,"lon":5.39991,"is_reserved":false,"is_disabled":false,"rental_uris":{"android":"levelo://app?vid=65a4be88-1984-4bec-948b-f6287628c75b","ios":"levelo://app?vid=65a4be88-1984-4bec-948b-f6287628c75b"},"vehicle_type_id":"4","last_reported":1744492070,"current_range_meters":16000,"station_id":"ce4bho92rcd13ifvqh3g","pricing_plan_id":"cebpf4jnsgd1na2vs0mg"},{"bike_id":"4d874086-2615-45ee-92bb-518b7ad00a4d","system_id":"levelo_inurba_marseille","lat":43.30961,"lon":5.39038,"is_reserved":false,"is_disabled":true,"rental_uris":{"android":"levelo://app?vid=4d874086-2615-45ee-92bb-518b7ad00a4d","ios":"levelo://app?vid=4d874086-2615-45ee-92bb-518b7ad00a4d"},"vehicle_type_id":"4","last_reported":1744492070,"current_range_meters":16400,"station_id":"ce4bgup2rcd13ifvqco0","pricing_plan_id":"cebpf4jnsgd1na2vs0mg"},{"bike_id":"430abd17-c3a8-4db3-ba8b-e29995b1da2b","system_id":"levelo_inurba_marseille","lat":43.2988,"lon":5.38913,"is_reserved":false,"is_disabled":false,"rental_uris":{"android":"levelo://app?vid=430abd17-c3a8-4db3-ba8b-e29995b1da2b","ios":"levelo://app?vid=430abd17-c3a8-4db3-ba8b-e29995b1da2b"},"vehicle_type_id":"4","last_reported":1744492070,"current_range_meters":16400,"station_id":"ce4bh392rcd13ifvqdl0","pricing_plan_id":"cebpf4jnsgd1na2vs0mg"},{"bike_id":"2fc88268-9338-4674-a8f4-36dfb8363ca0","system_id":"levelo_inurba_marseille","lat":43.21197,"lon":5.35064,"is_reserved":false,"is_disabled":true,"rental_uris":{"android":"levelo://app?vid=2fc88268-9338-4674-a8f4-36dfb8363ca0","ios":"levelo://app?vid=2fc88268-9338-4674-a8f4-36dfb8363ca0"},"vehicle_type_id":"4","last_reported":1744492070,"current_range_meters":16400,"station_id":"st_cvj6sg6p6f1abm77japg","pricing_plan_id":"cebpf4jnsgd1na2vs0mg"},{"bike_id":"21127257-eff7-474d-8ad8-e3337a0a4ddf","system_id":"levelo_inurba_marseille","lat":43.29831,"lon":5.36159,"is_reserved":false,"is_disabled":false,"rental_uris":{"android":"levelo://app?vid=21127257-eff7-474d-8ad8-e3337a0a4ddf","ios":"levelo://app?vid=21127257-eff7-474d-8ad8-e3337a0a4ddf"},"vehicle_type_id":"4","last_reported":1744492070,"current_range_meters":16400,"station_id":"","pricing_plan_id":"cebpf4jnsgd1na2vs0mg"},{"bike_id":"d49ed5f3-63dd-41d8-a7c3-7b7860b035b1","system_id":"levelo_inurba_marseille","lat":43.24816,"lon":5.37456,"is_reserved":false,"is_disabled":true,"rental_uris":{"android":"levelo://app?vid=d49ed5f3-63dd-41d8-a7c3-7b7860b035b1","ios":"levelo://app?vid=d49ed5f3-63dd-41d8-a7c3-7b7860b035b1"},"vehicle_type_id":"4","last_reported":1744492070,"current_range_meters":16400,"station_id":"ce4bhgh2rcd13ifvqfb0","pricing_plan_id":"cebpf4jnsgd1na2vs0mg"},{"bike_id":"d7dec223-9ef3-4179-b3de-a7b1a6f8bbdd","system_id":"levelo_inurba_marseille","lat":43.23153,"lon":5.4371,"is_reserved":false,"is_disabled":false,"rental_uris":{"android":"levelo://app?vid=d7dec223-9ef3-4179-b3de-a7b1a6f8bbdd","ios":"levelo://app?vid=d7dec223-9ef3-4179-b3de-a7b1a6f8bbdd"},"vehicle_type_id":"4","last_reported":1744492070,"current_range_meters":16400,"station_id":"ce4bhmp2rcd13ifvqgog","pricing_plan_id":"cebpf4jnsgd1na2vs0mg"},{"bike_id":"69081502-a9b5-4ffe-bf33-23c3d68e1506","system_id":"levelo_inurba_marseille","lat":43.2842,"lon":5.37632,"is_reserved":false,"is_disabled":false,"rental_uris":{"android":"levelo://app?vid=69081502-a9b5-4ffe-bf33-23c3d68e1506","ios":"levelo://app?vid=69081502-a9b5-4ffe-bf33-23c3d68e1506"},"vehicle_type_id":"4","last_reported":1744492070,"current_range_meters":16400,"station_id":"","pricing_plan_id":"cebpf4jnsgd1na2vs0mg"},{"bike_id":"cf10cbf8-9131-43a6-885e-0ea4970f19f2","system_id":"levelo_inurba_marseille","lat":43.261786,"lon":5.374831,"is_reserved":false,"is_disabled":false,"rental_uris":{"android":"levelo://app?vid=cf10cbf8-9131-43a6-885e-0ea4970f19f2","ios":"levelo://app?vid=cf10cbf8-9131-43a6-885e-0ea4970f19f2"},"vehicle_type_id":"4","last_reported":1744492070,"current_range_meters":16400,"station_id":"ce4bhgh2rcd13ifvqfa0","pricing_plan_id":"cebpf4jnsgd1na2vs0mg"},{"bike_id":"935a7e55-4cea-4394-8ed2-15f7e1ee706c","system_id":"levelo_inurba_marseille","lat":43.27237,"lon":5.43164,"is_reserved":false,"is_disabled":false,"rental_uris":{"android":"levelo://app?vid=935a7e55-4cea-4394-8ed2-15f7e1ee706c","ios":"levelo://app?vid=935a7e55-4cea-4394-8ed2-15f7e1ee706c"},"vehicle_type_id":"4","last_reported":1744492070,"current_range_meters":16800,"station_id":"","pricing_plan_id":"cebpf4jnsgd1na2vs0mg"},{"bike_id":"0837aafc-69fd-4b90-a10d-ed9806b09b1b","system_id":"levelo_inurba_marseille","lat":43.30248,"lon":5.40081,"is_reserved":false,"is_disabled":false,"rental_uris":{"android":"levelo://app?vid=0837aafc-69fd-4b90-a10d-ed9806b09b1b","ios":"levelo://app?vid=0837aafc-69fd-4b90-a10d-ed9806b09b1b"},"vehicle_type_id":"4","last_reported":1744492070,"current_range_meters":16800,"station_id":"ce4bgvh2rcd13ifvqcs0","pricing_plan_id":"cebpf4jnsgd1na2vs0mg"},{"bike_id":"d55419a0-afe2-4266-850a-91f4e353b1ca","system_id":"levelo_inurba_marseille","lat":43.25482,"lon":5.37645,"is_reserved":false,"is_disabled":false,"rental_uris":{"android":"levelo://app?vid=d55419a0-afe2-4266-850a-91f4e353b1ca","ios":"levelo://app?vid=d55419a0-afe2-4266-850a-91f4e353b1ca"},"vehicle_type_id":"4","last_reported":1744492070,"current_range_meters":16800,"station_id":"ce4bhh12rcd13ifvqff0","pricing_plan_id":"cebpf4jnsgd1na2vs0mg"},{"bike_id":"2980ffa7-7783-4a57-b9dc-66b0f5b0cadd","system_id":"levelo_inurba_marseille","lat":43.25504,"lon":5.37653,"is_reserved":false,"is_disabled":false,"rental_uris":{"android":"levelo://app?vid=2980ffa7-7783-4a57-b9dc-66b0f5b0cadd","ios":"levelo://app?vid=2980ffa7-7783-4a57-b9dc-66b0f5b0cadd"},"vehicle_type_id":"4","last_reported":1744492070,"current_range_meters":16800,"station_id":"ce4bhh12rcd13ifvqff0","pricing_plan_id":"cebpf4jnsgd1na2vs0mg"},{"bike_id":"78ddab66-1fdf-463b-942c-3308f2102794","system_id":"levelo_inurba_marseille","lat":43.32656,"lon":5.40993,"is_reserved":false,"is_disabled":false,"rental_uris":{"android":"levelo://app?vid=78ddab66-1fdf-463b-942c-3308f2102794","ios":"levelo://app?vid=78ddab66-1fdf-463b-942c-3308f2102794"},"vehicle_type_id":"4","last_reported":1744492070,"current_range_meters":16800,"station_id":"ce4bhpp2rcd13ifvqhgg","pricing_plan_id":"cebpf4jnsgd1na2vs0mg"},{"bike_id":"43698170-d8fa-41b9-9f9b-b29b7c553580","system_id":"levelo_inurba_marseille","lat":43.28934,"lon":5.36635,"is_reserved":false,"is_disabled":true,"rental_uris":{"android":"levelo://app?vid=43698170-d8fa-41b9-9f9b-b29b7c553580","ios":"levelo://app?vid=43698170-d8fa-41b9-9f9b-b29b7c553580"},"vehicle_type_id":"4","last_reported":1744492070,"current_range_meters":16800,"station_id":"ce4bhap2rcd13ifvqek0","pricing_plan_id":"cebpf4jnsgd1na2vs0mg"},{"bike_id":"239b457a-7da8-49b2-9197-3c47133b2b7d","system_id":"levelo_inurba_marseille","lat":43.29041,"lon":5.40011,"is_reserved":false,"is_disabled":true,"rental_uris":{"android":"levelo://app?vid=239b457a-7da8-49b2-9197-3c47133b2b7d","ios":"levelo://app?vid=239b457a-7da8-49b2-9197-3c47133b2b7d"},"vehicle_type_id":"4","last_reported":1744492070,"current_range_meters":16800,"station_id":"ce4bh392rcd13ifvqdm0","pricing_plan_id":"cebpf4jnsgd1na2vs0mg"},{"bike_id":"1d036a1f-65d0-456e-9c9a-a1dac2d8fb35","system_id":"levelo_inurba_marseille","lat":43.30783,"lon":5.37649,"is_reserved":false,"is_disabled":false,"rental_uris":{"android":"levelo://app?vid=1d036a1f-65d0-456e-9c9a-a1dac2d8fb35","ios":"levelo://app?vid=1d036a1f-65d0-456e-9c9a-a1dac2d8fb35"},"vehicle_type_id":"4","last_reported":1744492070,"current_range_meters":16800,"station_id":"ce4bgv92rcd13ifvqcq0","pricing_plan_id":"cebpf4jnsgd1na2vs0mg"},{"bike_id":"62c15fd5-c343-4b24-a346-cd8dcbc834e1","system_id":"levelo_inurba_marseille","lat":43.29544,"lon":5.38534,"is_reserved":false,"is_disabled":false,"rental_uris":{"android":"levelo://app?vid=62c15fd5-c343-4b24-a346-cd8dcbc834e1","ios":"levelo://app?vid=62c15fd5-c343-4b24-a346-cd8dcbc834e1"},"vehicle_type_id":"4","last_reported":1744492070,"current_range_meters":17200,"station_id":"ce4bgih2rcd13ifvqba0","pricing_plan_id":"cebpf4jnsgd1na2vs0mg"},{"bike_id":"f59888e1-8386-419d-82dc-f5873fc95e1a","system_id":"levelo_inurba_marseille","lat":43.25499,"lon":5.37649,"is_reserved":false,"is_disabled":false,"rental_uris":{"android":"levelo://app?vid=f59888e1-8386-419d-82dc-f5873fc95e1a","ios":"levelo://app?vid=f59888e1-8386-419d-82dc-f5873fc95e1a"},"vehicle_type_id":"4","last_reported":1744492070,"current_range_meters":17200,"station_id":"ce4bhh12rcd13ifvqff0","pricing_plan_id":"cebpf4jnsgd1na2vs0mg"},{"bike_id":"dc0731e7-3590-46b7-803a-630dee159377","system_id":"levelo_inurba_marseille","lat":43.23195,"lon":5.3556,"is_reserved":false,"is_disabled":false,"rental_uris":{"android":"levelo://app?vid=dc0731e7-3590-46b7-803a-630dee159377","ios":"levelo://app?vid=dc0731e7-3590-46b7-803a-630dee159377"},"vehicle_type_id":"4","last_reported":1744492070,"current_range_meters":17200,"station_id":"ce4bhu92rcd13ifvqi70","pricing_plan_id":"cebpf4jnsgd1na2vs0mg"},{"bike_id":"54f95021-ece3-4c1e-a98d-33e005a5619a","system_id":"levelo_inurba_marseille","lat":43.21192,"lon":5.35075,"is_reserved":false,"is_disabled":false,"rental_uris":{"android":"levelo://app?vid=54f95021-ece3-4c1e-a98d-33e005a5619a","ios":"levelo://app?vid=54f95021-ece3-4c1e-a98d-33e005a5619a"},"vehicle_type_id":"4","last_reported":1744492070,"current_range_meters":17200,"station_id":"st_cvj6sg6p6f1abm77japg","pricing_plan_id":"cebpf4jnsgd1na2vs0mg"},{"bike_id":"1fc1fc52-3500-4598-9e95-2a577159928a","system_id":"levelo_inurba_marseille","lat":43.295234,"lon":5.390393,"is_reserved":false,"is_disabled":false,"rental_uris":{"android":"levelo://app?vid=1fc1fc52-3500-4598-9e95-2a577159928a","ios":"levelo://app?vid=1fc1fc52-3500-4598-9e95-2a577159928a"},"vehicle_type_id":"4","last_reported":1744492070,"current_range_meters":16800,"station_id":"ce4bh3p2rcd13ifvqdp0","pricing_plan_id":"cebpf4jnsgd1na2vs0mg"},{"bike_id":"0e41471e-aa7e-4bfb-818c-32be032368b1","system_id":"levelo_inurba_marseille","lat":43.30933,"lon":5.3906,"is_reserved":false,"is_disabled":false,"rental_uris":{"android":"levelo://app?vid=0e41471e-aa7e-4bfb-818c-32be032368b1","ios":"levelo://app?vid=0e41471e-aa7e-4bfb-818c-32be032368b1"},"vehicle_type_id":"4","last_reported":1744492070,"current_range_meters":17600,"station_id":"ce4bgup2rcd13ifvqco0","pricing_plan_id":"cebpf4jnsgd1na2vs0mg"},{"bike_id":"1578cdda-fa32-4486-ac62-617f457b0927","system_id":"levelo_inurba_marseille","lat":43.29,"lon":5.35616,"is_reserved":false,"is_disabled":true,"rental_uris":{"android":"levelo://app?vid=1578cdda-fa32-4486-ac62-617f457b0927","ios":"levelo://app?vid=1578cdda-fa32-4486-ac62-617f457b0927"},"vehicle_type_id":"4","last_reported":1744492070,"current_range_meters":17600,"station_id":"ce4bhb92rcd13ifvqen0","pricing_plan_id":"cebpf4jnsgd1na2vs0mg"},{"bike_id":"74c18de3-ced9-435a-a416-2f502e9bf4e6","system_id":"levelo_inurba_marseille","lat":43.30952,"lon":5.39037,"is_reserved":false,"is_disabled":false,"rental_uris":{"android":"levelo://app?vid=74c18de3-ced9-435a-a416-2f502e9bf4e6","ios":"levelo://app?vid=74c18de3-ced9-435a-a416-2f502e9bf4e6"},"vehicle_type_id":"4","last_reported":1744492070,"current_range_meters":17600,"station_id":"ce4bgup2rcd13ifvqco0","pricing_plan_id":"cebpf4jnsgd1na2vs0mg"},{"bike_id":"792f5c09-871b-40de-9173-4b456fb80eb8","system_id":"levelo_inurba_marseille","lat":43.290932,"lon":5.381253,"is_reserved":false,"is_disabled":false,"rental_uris":{"android":"levelo://app?vid=792f5c09-871b-40de-9173-4b456fb80eb8","ios":"levelo://app?vid=792f5c09-871b-40de-9173-4b456fb80eb8"},"vehicle_type_id":"4","last_reported":1744492070,"current_range_meters":17600,"station_id":"ce4bh512rcd13ifvqe2g","pricing_plan_id":"cebpf4jnsgd1na2vs0mg"},{"bike_id":"195d7237-3592-4e0e-9ab5-46c87bdc6fb2","system_id":"levelo_inurba_marseille","lat":43.28401,"lon":5.37515,"is_reserved":false,"is_disabled":false,"rental_uris":{"android":"levelo://app?vid=195d7237-3592-4e0e-9ab5-46c87bdc6fb2","ios":"levelo://app?vid=195d7237-3592-4e0e-9ab5-46c87bdc6fb2"},"vehicle_type_id":"4","last_reported":1744492070,"current_range_meters":17200,"station_id":"ce4bh412rcd13ifvqds0","pricing_plan_id":"cebpf4jnsgd1na2vs0mg"},{"bike_id":"047858db-6531-469d-aca4-e65536964de1","system_id":"levelo_inurba_marseille","lat":43.30089,"lon":5.39081,"is_reserved":false,"is_disabled":false,"rental_uris":{"android":"levelo://app?vid=047858db-6531-469d-aca4-e65536964de1","ios":"levelo://app?vid=047858db-6531-469d-aca4-e65536964de1"},"vehicle_type_id":"4","last_reported":1744492070,"current_range_meters":17600,"station_id":"ce4bh192rcd13ifvqdb0","pricing_plan_id":"cebpf4jnsgd1na2vs0mg"},{"bike_id":"db032ffb-b56c-4437-a49b-cca7f4817ec6","system_id":"levelo_inurba_marseille","lat":43.30248,"lon":5.40029,"is_reserved":false,"is_disabled":false,"rental_uris":{"android":"levelo://app?vid=db032ffb-b56c-4437-a49b-cca7f4817ec6","ios":"levelo://app?vid=db032ffb-b56c-4437-a49b-cca7f4817ec6"},"vehicle_type_id":"4","last_reported":1744492070,"current_range_meters":17600,"station_id":"ce4bgvh2rcd13ifvqcs0","pricing_plan_id":"cebpf4jnsgd1na2vs0mg"},{"bike_id":"44cdbf16-cb82-4c6c-8c3b-d47a9a39cdac","system_id":"levelo_inurba_marseille","lat":43.29041,"lon":5.39953,"is_reserved":false,"is_disabled":false,"rental_uris":{"android":"levelo://app?vid=44cdbf16-cb82-4c6c-8c3b-d47a9a39cdac","ios":"levelo://app?vid=44cdbf16-cb82-4c6c-8c3b-d47a9a39cdac"},"vehicle_type_id":"4","last_reported":1744492070,"current_range_meters":18000,"station_id":"ce4bh392rcd13ifvqdm0","pricing_plan_id":"cebpf4jnsgd1na2vs0mg"},{"bike_id":"215ee03f-696c-4de6-a1f3-ff40760aec7d","system_id":"levelo_inurba_marseille","lat":43.246643,"lon":5.381649,"is_reserved":false,"is_disabled":false,"rental_uris":{"android":"levelo://app?vid=215ee03f-696c-4de6-a1f3-ff40760aec7d","ios":"levelo://app?vid=215ee03f-696c-4de6-a1f3-ff40760aec7d"},"vehicle_type_id":"4","last_reported":1744492070,"current_range_meters":18000,"station_id":"ce4bhih2rcd13ifvqfr0","pricing_plan_id":"cebpf4jnsgd1na2vs0mg"},{"bike_id":"ba3be5ba-b65c-4c7d-aca3-e53395877f22","system_id":"levelo_inurba_marseille","lat":43.281617,"lon":5.426394,"is_reserved":false,"is_disabled":false,"rental_uris":{"android":"levelo://app?vid=ba3be5ba-b65c-4c7d-aca3-e53395877f22","ios":"levelo://app?vid=ba3be5ba-b65c-4c7d-aca3-e53395877f22"},"vehicle_type_id":"4","last_reported":1744492070,"current_range_meters":18000,"station_id":"ce4bhnh2rcd13ifvqgug","pricing_plan_id":"cebpf4jnsgd1na2vs0mg"},{"bike_id":"ddeaddf2-92fd-479c-8fc9-529d5d92268f","system_id":"levelo_inurba_marseille","lat":43.27244,"lon":5.39164,"is_reserved":false,"is_disabled":false,"rental_uris":{"android":"levelo://app?vid=ddeaddf2-92fd-479c-8fc9-529d5d92268f","ios":"levelo://app?vid=ddeaddf2-92fd-479c-8fc9-529d5d92268f"},"vehicle_type_id":"4","last_reported":1744492070,"current_range_meters":18000,"station_id":"ce4bhhp2rcd13ifvqfm0","pricing_plan_id":"cebpf4jnsgd1na2vs0mg"},{"bike_id":"e4b0c79d-bb10-42a2-a502-093e72d05968","system_id":"levelo_inurba_marseille","lat":43.30305,"lon":5.39207,"is_reserved":false,"is_disabled":false,"rental_uris":{"android":"levelo://app?vid=e4b0c79d-bb10-42a2-a502-093e72d05968","ios":"levelo://app?vid=e4b0c79d-bb10-42a2-a502-093e72d05968"},"vehicle_type_id":"4","last_reported":1744492070,"current_range_meters":18000,"station_id":"ce4bgkh2rcd13ifvqbk0","pricing_plan_id":"cebpf4jnsgd1na2vs0mg"},{"bike_id":"25784d43-246b-47de-a715-f4da38e242bb","system_id":"levelo_inurba_marseille","lat":43.306,"lon":5.39336,"is_reserved":false,"is_disabled":false,"rental_uris":{"android":"levelo://app?vid=25784d43-246b-47de-a715-f4da38e242bb","ios":"levelo://app?vid=25784d43-246b-47de-a715-f4da38e242bb"},"vehicle_type_id":"4","last_reported":1744492070,"current_range_meters":18000,"station_id":"ce4bh0p2rcd13ifvqd80","pricing_plan_id":"cebpf4jnsgd1na2vs0mg"},{"bike_id":"205a676e-388e-4b5d-b5d4-92bca6b76c07","system_id":"levelo_inurba_marseille","lat":43.31353,"lon":5.37437,"is_reserved":false,"is_disabled":false,"rental_uris":{"android":"levelo://app?vid=205a676e-388e-4b5d-b5d4-92bca6b76c07","ios":"levelo://app?vid=205a676e-388e-4b5d-b5d4-92bca6b76c07"},"vehicle_type_id":"4","last_reported":1744492070,"current_range_meters":18000,"station_id":"","pricing_plan_id":"cebpf4jnsgd1na2vs0mg"},