{"last_updated":1713553591,"ttl":30,"version":"2.2","data":{"bikes":[{"bike_id":"73595d24-2426-4714-8639-170262dab623","system_id":"levelo_inurba_marseille","lat":43.312239,"lon":5.368562,"is_reserved":false,"is_disabled":false,"rental_uris":{"android":"levelo://app?vid=73595d24-2426-4714-8639-170262dab623","ios":"levelo://app?vid=73595d24-2426-4714-8639-170262dab623"},"vehicle_type_id":"4","last_reported":1713553591,"current_range_meters":18000,"station_id":"ce4bgl92rcd13ifvqbq0","pricing_plan_id":"cebpf4jnsgd1na2vs0mg"},{"bike_id":"91e2a931-2f0d-4f45-92e2-0ef07f5638c3","system_id":"levelo_inurba_marseille","lat":43.312239,"lon":5.368562,"is_reserved":false,"is_disabled":false,"rental_uris":{"android":"levelo://app?vid=91e2a931-2f0d-4f45-92e2-0ef07f5638c3","ios":"levelo://app?vid=91e2a931-2f0d-4f45-92e2-0ef07f5638c3"},"vehicle_type_id":"4","last_reported":1713553591,"current_range_meters":12400,"station_id":"ce4bgl92rcd13ifvqbq0","pricing_plan_id":"cebpf4jnsgd1na2vs0mg"},{"bike_id":"daa7a28b-27fe-4574-b46c-aecba00713b3","system_id":"levelo_inurba_marseille","lat":43.312239,"lon":5.368562,"is_reserved":false,"is_disabled":false,"rental_uris":{"android":"levelo://app?vid=daa7a28b-27fe-4574-b46c-aecba00713b3","ios":"levelo://app?vid=daa7a28b-27fe-4574-b46c-aecba00713b3"},"vehicle_type_id":"4","last_reported":1713553591,"current_range_meters":16800,"station_id":"ce4bgl92rcd13ifvqbq0","pricing_plan_id":"cebpf4jnsgd1na2vs0mg"},{"bike_id":"84976816-7e03-4540-b524-0338de515213","system_id":"levelo_inurba_marseille","lat":43.314811,"lon":5.373103,"is_reserved":false,"is_disabled":false,"rental_uris":{"android":"levelo://app?vid=84976816-7e03-4540-b524-0338de515213","ios":"levelo://app?vid=84976816-7e03-4540-b524-0338de515213"},"vehicle_type_id":"4","last_reported":1713553591,"current_range_meters":0,"station_id":"ce4bgt12rcd13ifvqcd0","pricing_plan_id":"cebpf4jnsgd1na2vs0mg"},{"bike_id":"e292d422-1c44-40d0-a84d-5dfd5f9a2e73","system_id":"levelo_inurba_marseille","lat":43.315,"lon":5.37349,"is_reserved":false,"is_disabled":false,"rental_uris":{"android":"levelo://app?vid=e292d422-1c44-40d0-a84d-5dfd5f9a2e73","ios":"levelo://app?vid=e292d422-1c44-40d0-a84d-5dfd5f9a2e73"},"vehicle_type_id":"4","last_reported":1713553591,"current_range_meters":0,"station_id":"ce4bgt92rcd13ifvqcg0","pricing_plan_id":"cebpf4jnsgd1na2vs0mg"},{"bike_id":"ae69d03e-0a1e-484a-a5e9-b2db0c9b8c96","system_id":"levelo_inurba_marseille","lat":43.30537,"lon":5.367345,"is_reserved":false,"is_disabled":false,"rental_uris":{"android":"levelo://app?vid=ae69d03e-0a1e-484a-a5e9-b2db0c9b8c96","ios":"levelo://app?vid=ae69d03e-0a1e-484a-a5e9-b2db0c9b8c96"},"vehicle_type_id":"4","last_reported":1713553591,"current_range_meters":0,"station_id":"ce4bgrp2rcd13ifvqc9g","pricing_plan_id":"cebpf4jnsgd1na2vs0mg"},{"bike_id":"52f22b5a-486d-4c62-a4ac-137bfb2f235e","system_id":"levelo_inurba_marseille","lat":43.30554,"lon":5.36534,"is_reserved":false,"is_disabled":false,"rental_uris":{"android":"levelo://app?vid=52f22b5a-486d-4c62-a4ac-137bfb2f235e","ios":"levelo://app?vid=52f22b5a-486d-4c62-a4ac-137bfb2f235e"},"vehicle_type_id":"4","last_reported":1713553591,"current_range_meters":24800,"station_id":"","pricing_plan_id":"cebpf4jnsgd1na2vs0mg"},{"bike_id":"24df15be-4a69-4e55-b7a9-82c2aef13195","system_id":"levelo_inurba_marseille","lat":43.305368,"lon":5.367343,"is_reserved":false,"is_disabled":false,"rental_uris":{"android":"levelo://app?vid=24df15be-4a69-4e55-b7a9-82c2aef13195","ios":"levelo://app?vid=24df15be-4a69-4e55-b7a9-82c2aef13195"},"vehicle_type_id":"4","last_reported":1713553591,"current_range_meters":6000,"station_id":"ce4bgrp2rcd13ifvqc9g","pricing_plan_id":"cebpf4jnsgd1na2vs0mg"},{"bike_id":"cfdfcd80-169f-42b7-b2b0-4e18a93b95a6","system_id":"levelo_inurba_marseille","lat":43.305368,"lon":5.367343,"is_reserved":false,"is_disabled":false,"rental_uris":{"android":"levelo://app?vid=cfdfcd80-169f-42b7-b2b0-4e18a93b95a6","ios":"levelo://app?vid=cfdfcd80-169f-42b7-b2b0-4e18a93b95a6"},"vehicle_type_id":"4","last_reported":1713553591,"current_range_meters":11600,"station_id":"ce4bgrp2rcd13ifvqc9g","pricing_plan_id":"cebpf4jnsgd1na2vs0mg"},{"bike_id":"cff3a0a5-f6cb-4312-b42a-664961ae15fb","system_id":"levelo_inurba_marseille","lat":43.305706,"lon":5.365654,"is_reserved":false,"is_disabled":false,"rental_uris":{"android":"levelo://app?vid=cff3a0a5-f6cb-4312-b42a-664961ae15fb","ios":"levelo://app?vid=cff3a0a5-f6cb-4312-b42a-664961ae15fb"},"vehicle_type_id":"4","last_reported":1713553591,"current_range_meters":2400,"station_id":"ce4bgs12rcd13ifvqcag","pricing_plan_id":"cebpf4jnsgd1na2vs0mg"},{"bike_id":"bccd5668-0e4a-4613-bacc-22826ef0b67f","system_id":"levelo_inurba_marseille","lat":43.30537,"lon":5.367345,"is_reserved":false,"is_disabled":false,"rental_uris":{"android":"levelo://app?vid=bccd5668-0e4a-4613-bacc-22826ef0b67f","ios":"levelo://app?vid=bccd5668-0e4a-4613-bacc-22826ef0b67f"},"vehicle_type_id":"4","last_reported":1713553591,"current_range_meters":5200,"station_id":"ce4bgrp2rcd13ifvqc9g","pricing_plan_id":"cebpf4jnsgd1na2vs0mg"},{"bike_id":"611a3563-0851-4db4-8e81-1ccbb8b6f00c","system_id":"levelo_inurba_marseille","lat":43.303046,"lon":5.368981,"is_reserved":false,"is_disabled":false,"rental_uris":{"android":"levelo://app?vid=611a3563-0851-4db4-8e81-1ccbb8b6f00c","ios":"levelo://app?vid=611a3563-0851-4db4-8e81-1ccbb8b6f00c"},"vehicle_type_id":"4","last_reported":1713553591,"current_range_meters":0,"station_id":"ce4bgqh2rcd13ifvqc5g","pricing_plan_id":"cebpf4jnsgd1na2vs0mg"},{"bike_id":"c4dcd410-0cb6-458f-be8e-3ec93d878642","system_id":"levelo_inurba_marseille","lat":43.30304,"lon":5.368987,"is_reserved":false,"is_disabled":false,"rental_uris":{"android":"levelo://app?vid=c4dcd410-0cb6-458f-be8e-3ec93d878642","ios":"levelo://app?vid=c4dcd410-0cb6-458f-be8e-3ec93d878642"},"vehicle_type_id":"4","last_reported":1713553591,"current_range_meters":0,"station_id":"ce4bgqh2rcd13ifvqc5g","pricing_plan_id":"cebpf4jnsgd1na2vs0mg"},{"bike_id":"9ed05d28-5ff6-4248-b9a2-795c9c16adce","system_id":"levelo_inurba_marseille","lat":43.301939,"lon":5.366286,"is_reserved":false,"is_disabled":false,"rental_uris":{"android":"levelo://app?vid=9ed05d28-5ff6-4248-b9a2-795c9c16adce","ios":"levelo://app?vid=9ed05d28-5ff6-4248-b9a2-795c9c16adce"},"vehicle_type_id":"4","last_reported":1713553591,"current_range_meters":0,"station_id":"ce4bgrh2rcd13ifvqc8g","pricing_plan_id":"cebpf4jnsgd1na2vs0mg"},{"bike_id":"04634867-318b-477c-8acf-bcd449a63572","system_id":"levelo_inurba_marseille","lat":43.324782,"lon":5.36567,"is_reserved":false,"is_disabled":false,"rental_uris":{"android":"levelo://app?vid=04634867-318b-477c-8acf-bcd449a63572","ios":"levelo://app?vid=04634867-318b-477c-8acf-bcd449a63572"},"vehicle_type_id":"4","last_reported":1713553591,"current_range_meters":1200,"station_id":"ce4bhs12rcd13ifvqhvg","pricing_plan_id":"cebpf4jnsgd1na2vs0mg"},{"bike_id":"87f9e4f2-9a1c-45e9-9d5f-df5c314d8ba1","system_id":"levelo_inurba_marseille","lat":43.32479,"lon":5.36566,"is_reserved":false,"is_disabled":false,"rental_uris":{"android":"levelo://app?vid=87f9e4f2-9a1c-45e9-9d5f-df5c314d8ba1","ios":"levelo://app?vid=87f9e4f2-9a1c-45e9-9d5f-df5c314d8ba1"},"vehicle_type_id":"4","last_reported":1713553591,"current_range_meters":11600,"station_id":"ce4bhs12rcd13ifvqhvg","pricing_plan_id":"cebpf4jnsgd1na2vs0mg"},{"bike_id":"bb5d202f-d6f9-438e-9bd1-bfcb7fe49994","system_id":"levelo_inurba_marseille","lat":43.324771,"lon":5.36557,"is_reserved":false,"is_disabled":false,"rental_uris":{"android":"levelo://app?vid=bb5d202f-d6f9-438e-9bd1-bfcb7fe49994","ios":"levelo://app?vid=bb5d202f-d6f9-438e-9bd1-bfcb7fe49994"},"vehicle_type_id":"4","last_reported":1713553591,"current_range_meters":12800,"station_id":"ce4bhs12rcd13ifvqhvg","pricing_plan_id":"cebpf4jnsgd1na2vs0mg"},{"bike_id":"30993a85-5578-4aa2-8518-bb101417392d","system_id":"levelo_inurba_marseille","lat":43.324771,"lon":5.36557,"is_reserved":false,"is_disabled":false,"rental_uris":{"android":"levelo://app?vid=30993a85-5578-4aa2-8518-bb101417392d","ios":"levelo://app?vid=30993a85-5578-4aa2-8518-bb101417392d"},"vehicle_type_id":"4","last_reported":1713553591,"current_range_meters":7200,"station_id":"ce4bhs12rcd13ifvqhvg","pricing_plan_id":"cebpf4jnsgd1na2vs0mg"},{"bike_id":"e4e0753e-4b94-4857-9924-ddedf1c13729","system_id":"levelo_inurba_marseille","lat":43.324771,"lon":5.36557,"is_reserved":false,"is_disabled":false,"rental_uris":{"android":"levelo://app?vid=e4e0753e-4b94-4857-9924-ddedf1c13729","ios":"levelo://app?vid=e4e0753e-4b94-4857-9924-ddedf1c13729"},"vehicle_type_id":"4","last_reported":1713553591,"current_range_meters":0,"station_id":"ce4bhs12rcd13ifvqhvg","pricing_plan_id":"cebpf4jnsgd1na2vs0mg"},{"bike_id":"edf7cec4-cdf7-4979-8df8-da5fe8d8f1f9","system_id":"levelo_inurba_marseille","lat":43.310804,"lon":5.38359,"is_reserved":false,"is_disabled":false,"rental_uris":{"android":"levelo://app?vid=edf7cec4-cdf7-4979-8df8-da5fe8d8f1f9","ios":"levelo://app?vid=edf7cec4-cdf7-4979-8df8-da5fe8d8f1f9"},"vehicle_type_id":"4","last_reported":1713553591,"current_range_meters":8400,"station_id":"ce4bgv92rcd13ifvqcr0","pricing_plan_id":"cebpf4jnsgd1na2vs0mg"},{"bike_id":"0e4dedd3-4a93-4a9e-ab4e-c489237891ab","system_id":"levelo_inurba_marseille","lat":43.310804,"lon":5.38359,"is_reserved":false,"is_disabled":false,"rental_uris":{"android":"levelo://app?vid=0e4dedd3-4a93-4a9e-ab4e-c489237891ab","ios":"levelo://app?vid=0e4dedd3-4a93-4a9e-ab4e-c489237891ab"},"vehicle_type_id":"4","last_reported":1713553591,"current_range_meters":20800,"station_id":"ce4bgv92rcd13ifvqcr0","pricing_plan_id":"cebpf4jnsgd1na2vs0mg"},{"bike_id":"60472d8d-e78e-4549-83a0-17a53b3c0f7c","system_id":"levelo_inurba_marseille","lat":43.310804,"lon":5.38359,"is_reserved":false,"is_disabled":false,"rental_uris":{"android":"levelo://app?vid=60472d8d-e78e-4549-83a0-17a53b3c0f7c","ios":"levelo://app?vid=60472d8d-e78e-4549-83a0-17a53b3c0f7c"},"vehicle_type_id":"4","last_reported":1713553591,"current_range_meters":19600,"station_id":"ce4bgv92rcd13ifvqcr0","pricing_plan_id":"cebpf4jnsgd1na2vs0mg"},{"bike_id":"6c537d89-caa8-45b4-8373-db2719071755","system_id":"levelo_inurba_marseille","lat":43.310804,"lon":5.38359,"is_reserved":false,"is_disabled":false,"rental_uris":{"android":"levelo://app?vid=6c537d89-caa8-45b4-8373-db2719071755","ios":"levelo://app?vid=6c537d89-caa8-45b4-8373-db2719071755"},"vehicle_type_id":"4","last_reported":1713553591,"current_range_meters":2800,"station_id":"ce4bgv92rcd13ifvqcr0","pricing_plan_id":"cebpf4jnsgd1na2vs0mg"},{"bike_id":"6030953b-fb42-4eca-9292-f79d2f17567c","system_id":"levelo_inurba_marseille","lat":43.313571,"lon":5.384829,"is_reserved":false,"is_disabled":false,"rental_uris":{"android":"levelo://app?vid=6030953b-fb42-4eca-9292-f79d2f17567c","ios":"levelo://app?vid=6030953b-fb42-4eca-9292-f79d2f17567c"},"vehicle_type_id":"4","last_reported":1713553591,"current_range_meters":2000,"station_id":"ce4bgt92rcd13ifvqcf0","pricing_plan_id":"cebpf4jnsgd1na2vs0mg"},{"bike_id":"01838930-c69a-4d2a-b8b2-58ba97d9c16b","system_id":"levelo_inurba_marseille","lat":43.301939,"lon":5.366286,"is_reserved":false,"is_disabled":false,"rental_uris":{"android":"levelo://app?vid=01838930-c69a-4d2a-b8b2-58ba97d9c16b","ios":"levelo://app?vid=01838930-c69a-4d2a-b8b2-58ba97d9c16b"},"vehicle_type_id":"4","last_reported":1713553591,"current_range_meters":0,"station_id":"ce4bgrh2rcd13ifvqc8g","pricing_plan_id":"cebpf4jnsgd1na2vs0mg"},{"bike_id":"71cf26d6-2800-48dd-ae6e-8eda1eae26de","system_id":"levelo_inurba_marseille","lat":43.305395,"lon":5.380968,"is_reserved":false,"is_disabled":false,"rental_uris":{"android":"levelo://app?vid=71cf26d6-2800-48dd-ae6e-8eda1eae26de","ios":"levelo://app?vid=71cf26d6-2800-48dd-ae6e-8eda1eae26de"},"vehicle_type_id":"4","last_reported":1713553591,"current_range_meters":20400,"station_id":"","pricing_plan_id":"cebpf4jnsgd1na2vs0mg"},{"bike_id":"d212c281-3522-420a-b06f-b80966290c73","system_id":"levelo_inurba_marseille","lat":43.319935,"lon":5.381699,"is_reserved":false,"is_disabled":false,"rental_uris":{"android":"levelo://app?vid=d212c281-3522-420a-b06f-b80966290c73","ios":"levelo://app?vid=d212c281-3522-420a-b06f-b80966290c73"},"vehicle_type_id":"4","last_reported":1713553591,"current_range_meters":14800,"station_id":"ce4bhr12rcd13ifvqhpg","pricing_plan_id":"cebpf4jnsgd1na2vs0mg"},{"bike_id":"334e3407-4f9b-4b57-a5ef-39033f25d948","system_id":"levelo_inurba_marseille","lat":43.319935,"lon":5.381699,"is_reserved":false,"is_disabled":false,"rental_uris":{"android":"levelo://app?vid=334e3407-4f9b-4b57-a5ef-39033f25d948","ios":"levelo://app?vid=334e3407-4f9b-4b57-a5ef-39033f25d948"},"vehicle_type_id":"4","last_reported":1713553591,"current_range_meters":11200,"station_id":"ce4bhr12rcd13ifvqhpg","pricing_plan_id":"cebpf4jnsgd1na2vs0mg"},{"bike_id":"30d617ff-4f74-4992-b3e5-455e6c9e9129","system_id":"levelo_inurba_marseille","lat":43.319935,"lon":5.381699,"is_reserved":false,"is_disabled":false,"rental_uris":{"android":"levelo://app?vid=30d617ff-4f74-4992-b3e5-455e6c9e9129","ios":"levelo://app?vid=30d617ff-4f74-4992-b3e5-455e6c9e9129"},"vehicle_type_id":"4","last_reported":1713553591,"current_range_meters":24800,"station_id":"ce4bhr12rcd13ifvqhpg","pricing_plan_id":"cebpf4jnsgd1na2vs0mg"},{"bike_id":"ac8a896b-4c67-4f80-a4c4-51554c975d85","system_id":"levelo_inurba_marseille","lat":43.319935,"lon":5.381699,"is_reserved":false,"is_disabled":false,"rental_uris":{"android":"levelo://app?vid=ac8a896b-4c67-4f80-a4c4-51554c975d85","ios":"levelo://app?vid=ac8a896b-4c67-4f80-a4c4-51554c975d85"},"vehicle_type_id":"4","last_reported":1713553591,"current_range_meters":22000,"station_id":"ce4bhr12rcd13ifvqhpg","pricing_plan_id":"cebpf4jnsgd1na2vs0mg"},{"bike_id":"856346db-4409-47d4-b9b0-7b0eeae58540","system_id":"levelo_inurba_marseille","lat":43.313571,"lon":5.384829,"is_reserved":false,"is_disabled":false,"rental_uris":{"android":"levelo://app?vid=856346db-4409-47d4-b9b0-7b0eeae58540","ios":"levelo://app?vid=856346db-4409-47d4-b9b0-7b0eeae58540"},"vehicle_type_id":"4","last_reported":1713553591,"current_range_meters":0,"station_id":"ce4bgt92rcd13ifvqcf0","pricing_plan_id":"cebpf4jnsgd1na2vs0mg"},{"bike_id":"f09b8feb-d3c5-42f3-904d-b9265a503a6b","system_id":"levelo_inurba_marseille","lat":43.299724,"lon":5.371829,"is_reserved":false,"is_disabled":false,"rental_uris":{"android":"levelo://app?vid=f09b8feb-d3c5-42f3-904d-b9265a503a6b","ios":"levelo://app?vid=f09b8feb-d3c5-42f3-904d-b9265a503a6b"},"vehicle_type_id":"4","last_reported":1713553591,"current_range_meters":0,"station_id":"ce4bgr92rcd13ifvqc7g","pricing_plan_id":"cebpf4jnsgd1na2vs0mg"},{"bike_id":"e91a43f2-fd5b-4c11-aea8-faeea8359a23","system_id":"levelo_inurba_marseille","lat":43.299222,"lon":5.365554,"is_reserved":false,"is_disabled":false,"rental_uris":{"android":"levelo://app?vid=e91a43f2-fd5b-4c11-aea8-faeea8359a23","ios":"levelo://app?vid=e91a43f2-fd5b-4c11-aea8-faeea8359a23"},"vehicle_type_id":"4","last_reported":1713553591,"current_range_meters":0,"station_id":"ce4bgm92rcd13ifvqbr0","pricing_plan_id":"cebpf4jnsgd1na2vs0mg"},{"bike_id":"b77ad503-2df2-42bb-85ac-560b2fa5b240","system_id":"levelo_inurba_marseille","lat":43.299816,"lon":5.371792,"is_reserved":false,"is_disabled":false,"rental_uris":{"android":"levelo://app?vid=b77ad503-2df2-42bb-85ac-560b2fa5b240","ios":"levelo://app?vid=b77ad503-2df2-42bb-85ac-560b2fa5b240"},"vehicle_type_id":"4","last_reported":1713553591,"current_range_meters":0,"station_id":"ce4bgr92rcd13ifvqc7g","pricing_plan_id":"cebpf4jnsgd1na2vs0mg"},{"bike_id":"66b1d201-0132-4bbd-926d-3e7b41da9a8e","system_id":"levelo_inurba_marseille","lat":43.299364,"lon":5.365334,"is_reserved":false,"is_disabled":false,"rental_uris":{"android":"levelo://app?vid=66b1d201-0132-4bbd-926d-3e7b41da9a8e","ios":"levelo://app?vid=66b1d201-0132-4bbd-926d-3e7b41da9a8e"},"vehicle_type_id":"4","last_reported":1713553591,"current_range_meters":0,"station_id":"ce4bgm92rcd13ifvqbr0","pricing_plan_id":"cebpf4jnsgd1na2vs0mg"},{"bike_id":"f021c851-4e51-4b95-9cd3-8ce5df61ca2e","system_id":"levelo_inurba_marseille","lat":43.29935,"lon":5.36555,"is_reserved":false,"is_disabled":false,"rental_uris":{"android":"levelo://app?vid=f021c851-4e51-4b95-9cd3-8ce5df61ca2e","ios":"levelo://app?vid=f021c851-4e51-4b95-9cd3-8ce5df61ca2e"},"vehicle_type_id":"4","last_reported":1713553591,"current_range_meters":0,"station_id":"ce4bgm92rcd13ifvqbr0","pricing_plan_id":"cebpf4jnsgd1na2vs0mg"},{"bike_id":"9d08ce27-23ec-4eae-bdf7-11003433a10e","system_id":"levelo_inurba_marseille","lat":43.299724,"lon":5.371829,"is_reserved":false,"is_disabled":false,"rental_uris":{"android":"levelo://app?vid=9d08ce27-23ec-4eae-bdf7-11003433a10e","ios":"levelo://app?vid=9d08ce27-23ec-4eae-bdf7-11003433a10e"},"vehicle_type_id":"4","last_reported":1713553591,"current_range_meters":17200,"station_id":"ce4bgr92rcd13ifvqc7g","pricing_plan_id":"cebpf4jnsgd1na2vs0mg"},{"bike_id":"ce8ed7f2-ee7e-4ae5-876f-99154cc47fe7","system_id":"levelo_inurba_marseille","lat":43.29973,"lon":5.37191,"is_reserved":false,"is_disabled":false,"rental_uris":{"android":"levelo://app?vid=ce8ed7f2-ee7e-4ae5-876f-99154cc47fe7","ios":"levelo://app?vid=ce8ed7f2-ee7e-4ae5-876f-99154cc47fe7"},"vehicle_type_id":"4","last_reported":1713553591,"current_range_meters":0,"station_id":"ce4bgr92rcd13ifvqc7g","pricing_plan_id":"cebpf4jnsgd1na2vs0mg"},{"bike_id":"384cdd3d-fd26-4e45-86a4-dbb9634cbc19","system_id":"levelo_inurba_marseille","lat":43.317557,"lon":5.390173,"is_reserved":false,"is_disabled":false,"rental_uris":{"android":"levelo://app?vid=384cdd3d-fd26-4e45-86a4-dbb9634cbc19","ios":"levelo://app?vid=384cdd3d-fd26-4e45-86a4-dbb9634cbc19"},"vehicle_type_id":"4","last_reported":1713553591,"current_range_meters":6800,"station_id":"ce4bhqp2rcd13ifvqhng","pricing_plan_id":"cebpf4jnsgd1na2vs0mg"},{"bike_id":"fca255ba-f570-4378-afbc-c3e359911368","system_id":"levelo_inurba_marseille","lat":43.305364,"lon":5.384119,"is_reserved":false,"is_disabled":false,"rental_uris":{"android":"levelo://app?vid=fca255ba-f570-4378-afbc-c3e359911368","ios":"levelo://app?vid=fca255ba-f570-4378-afbc-c3e359911368"},"vehicle_type_id":"4","last_reported":1713553591,"current_range_meters":13600,"station_id":"ce4bgg92rcd13ifvqb30","pricing_plan_id":"cebpf4jnsgd1na2vs0mg"},{"bike_id":"a9f7ff51-c68c-4db2-9252-28683cad2660","system_id":"levelo_inurba_marseille","lat":43.298433,"lon":5.362774,"is_reserved":false,"is_disabled":false,"rental_uris":{"android":"levelo://app?vid=a9f7ff51-c68c-4db2-9252-28683cad2660","ios":"levelo://app?vid=a9f7ff51-c68c-4db2-9252-28683cad2660"},"vehicle_type_id":"4","last_reported":1713553591,"current_range_meters":9600,"station_id":"ce4bgpp2rcd13ifvqc3g","pricing_plan_id":"cebpf4jnsgd1na2vs0mg"},{"bike_id":"52413767-5732-4061-ace6-f3dd5b6b1f1f","system_id":"levelo_inurba_marseille","lat":43.28573,"lon":5.394992,"is_reserved":false,"is_disabled":false,"rental_uris":{"android":"levelo://app?vid=52413767-5732-4061-ace6-f3dd5b6b1f1f","ios":"levelo://app?vid=52413767-5732-4061-ace6-f3dd5b6b1f1f"},"vehicle_type_id":"4","last_reported":1713553591,"current_range_meters":2000,"station_id":"ce4bh292rcd13ifvqdg0","pricing_plan_id":"cebpf4jnsgd1na2vs0mg"},{"bike_id":"903cba02-2618-4957-90cc-e699d96bd160","system_id":"levelo_inurba_marseille","lat":43.299243,"lon":5.374807,"is_reserved":false,"is_disabled":false,"rental_uris":{"android":"levelo://app?vid=903cba02-2618-4957-90cc-e699d96bd160","ios":"levelo://app?vid=903cba02-2618-4957-90cc-e699d96bd160"},"vehicle_type_id":"4","last_reported":1713553591,"current_range_meters":19200,"station_id":"ce4bgjh2rcd13ifvqbg0","pricing_plan_id":"cebpf4jnsgd1na2vs0mg"},{"bike_id":"eaffcfd0-799d-4978-a09d-76f73dd7ee88","system_id":"levelo_inurba_marseille","lat":43.299243,"lon":5.37481,"is_reserved":false,"is_disabled":false,"rental_uris":{"android":"levelo://app?vid=eaffcfd0-799d-4978-a09d-76f73dd7ee88","ios":"levelo://app?vid=eaffcfd0-799d-4978-a09d-76f73dd7ee88"},"vehicle_type_id":"4","last_reported":1713553591,"current_range_meters":0,"station_id":"ce4bgjh2rcd13ifvqbg0","pricing_plan_id":"cebpf4jnsgd1na2vs0mg"},{"bike_id":"9e16165a-dc37-4249-9223-fe8684d17edb","system_id":"levelo_inurba_marseille","lat":43.311722,"lon":5.387247,"is_reserved":false,"is_disabled":false,"rental_uris":{"android":"levelo://app?vid=9e16165a-dc37-4249-9223-fe8684d17edb","ios":"levelo://app?vid=9e16165a-dc37-4249-9223-fe8684d17edb"},"vehicle_type_id":"4","last_reported":1713553591,"current_range_meters":25200,"station_id":"ce4bgv12rcd13ifvqcp0","pricing_plan_id":"cebpf4jnsgd1na2vs0mg"},{"bike_id":"87a17a57-7c04-4519-84e7-d195387ca519","system_id":"levelo_inurba_marseille","lat":43.311722,"lon":5.387247,"is_reserved":false,"is_disabled":false,"rental_uris":{"android":"levelo://app?vid=87a17a57-7c04-4519-84e7-d195387ca519","ios":"levelo://app?vid=87a17a57-7c04-4519-84e7-d195387ca519"},"vehicle_type_id":"4","last_reported":1713553591,"current_range_meters":6800,"station_id":"ce4bgv12rcd13ifvqcp0","pricing_plan_id":"cebpf4jnsgd1na2vs0mg"},{"bike_id":"fe757425-f7fc-47cd-a383-8759f854cc74","system_id":"levelo_inurba_marseille","lat":43.299243,"lon":5.37481,"is_reserved":false,"is_disabled":false,"rental_uris":{"android":"levelo://app?vid=fe757425-f7fc-47cd-a383-8759f854cc74","ios":"levelo://app?vid=fe757425-f7fc-47cd-a383-8759f854cc74"},"vehicle_type_id":"4","last_reported":1713553591,"current_range_meters":9200,"station_id":"ce4bgjh2rcd13ifvqbg0","pricing_plan_id":"cebpf4jnsgd1na2vs0mg"},{"bike_id":"175cde84-5a2c-4782-ad5e-1fa204d6ebd7","system_id":"levelo_inurba_marseille","lat":43.299243,"lon":5.374807,"is_reserved":false,"is_disabled":false,"rental_uris":{"android":"levelo://app?vid=175cde84-5a2c-4782-ad5e-1fa204d6ebd7","ios":"levelo://app?vid=175cde84-5a2c-4782-ad5e-1fa204d6ebd7"},"vehicle_type_id":"4","last_reported":1713553591,"current_range_meters":11200,"station_id":"ce4bgjh2rcd13ifvqbg0","pricing_plan_id":"cebpf4jnsgd1na2vs0mg"},{"bike_id":"98257b0a-8cb0-40b3-a01c-2592e4340694","system_id":"levelo_inurba_marseille","lat":43.311722,"lon":5.387247,"is_reserved":false,"is_disabled":false,"rental_uris":{"android":"levelo://app?vid=98257b0a-8cb0-40b3-a01c-2592e4340694","ios":"levelo://app?vid=98257b0a-8cb0-40b3-a01c-2592e4340694"},"vehicle_type_id":"4","last_reported":1713553591,"current_range_meters":11600,"station_id":"ce4bgv12rcd13ifvqcp0","pricing_plan_id":"cebpf4jnsgd1na2vs0mg"},{"bike_id":"59c296c1-c1af-4a71-9e20-fa9c7f8757f9","system_id":"levelo_inurba_marseille","lat":43.322872,"lon":5.382756,"is_reserved":false,"is_disabled":false,"rental_uris":{"android":"levelo://app?vid=59c296c1-c1af-4a71-9e20-fa9c7f8757f9","ios":"levelo://app?vid=59c296c1-c1af-4a71-9e20-fa9c7f8757f9"},"vehicle_type_id":"4","last_reported":1713553591,"current_range_meters":31200,"station_id":"ce4bhr12rcd13ifvqhqg","pricing_plan_id":"cebpf4jnsgd1na2vs0mg"},{"bike_id":"d37c1300-16b8-430c-97e7-be7153b1d766","system_id":"levelo_inurba_marseille","lat":43.322872,"lon":5.382756,"is_reserved":false,"is_disabled":false,"rental_uris":{"android":"levelo://app?vid=d37c1300-16b8-430c-97e7-be7153b1d766","ios":"levelo://app?vid=d37c1300-16b8-430c-97e7-be7153b1d766"},"vehicle_type_id":"4","last_reported":1713553591,"current_range_meters":0,"station_id":"ce4bhr12rcd13ifvqhqg","pricing_plan_id":"cebpf4jnsgd1na2vs0mg"},{"bike_id":"ac2c8c14-ef50-4ec2-b899-e078148bb8b0","system_id":"levelo_inurba_marseille","lat":43.322872,"lon":5.382756,"is_reserved":false,"is_disabled":false,"rental_uris":{"android":"levelo://app?vid=ac2c8c14-ef50-4ec2-b899-e078148bb8b0","ios":"levelo://app?vid=ac2c8c14-ef50-4ec2-b899-e078148bb8b0"},"vehicle_type_id":"4","last_reported":1713553591,"current_range_meters":19200,"station_id":"ce4bhr12rcd13ifvqhqg","pricing_plan_id":"cebpf4jnsgd1na2vs0mg"},{"bike_id":"b1c9170a-6a31-47d1-8e62-5b624c342910","system_id":"levelo_inurba_marseille","lat":43.322872,"lon":5.382756,"is_reserved":false,"is_disabled":false,"rental_uris":{"android":"levelo://app?vid=b1c9170a-6a31-47d1-8e62-5b624c342910","ios":"levelo://app?vid=b1c9170a-6a31-47d1-8e62-5b624c342910"},"vehicle_type_id":"4","last_reported":1713553591,"current_range_meters":13200,"station_id":"ce4bhr12rcd13ifvqhqg","pricing_plan_id":"cebpf4jnsgd1na2vs0mg"},{"bike_id":"aa38acc2-91cb-407c-ac8c-05b08cc96e3e","system_id":"levelo_inurba_marseille","lat":43.322872,"lon":5.382756,"is_reserved":false,"is_disabled":false,"rental_uris":{"android":"levelo://app?vid=aa38acc2-91cb-407c-ac8c-05b08cc96e3e","ios":"levelo://app?vid=aa38acc2-91cb-407c-ac8c-05b08cc96e3e"},"vehicle_type_id":"4","last_reported":1713553591,"current_range_meters":31200,"station_id":"ce4bhr12rcd13ifvqhqg","pricing_plan_id":"cebpf4jnsgd1na2vs0mg"},{"bike_id":"6a9bcf40-c5f9-44a4-a58e-664576d7b299","system_id":"levelo_inurba_marseille","lat":43.322872,"lon":5.382756,"is_reserved":false,"is_disabled":false,"rental_uris":{"android":"levelo://app?vid=6a9bcf40-c5f9-44a4-a58e-664576d7b299","ios":"levelo://app?vid=6a9bcf40-c5f9-44a4-a58e-664576d7b299"},"vehicle_type_id":"4","last_reported":1713553591,"current_range_meters":20000,"station_id":"ce4bhr12rcd13ifvqhqg","pricing_plan_id":"cebpf4jnsgd1na2vs0mg"},{"bike_id":"f02710d2-1fee-4866-a021-12fd915ee40b","system_id":"levelo_inurba_marseille","lat":43.322872,"lon":5.382756,"is_reserved":false,"is_disabled":false,"rental_uris":{"android":"levelo://app?vid=f02710d2-1fee-4866-a021-12fd915ee40b","ios":"levelo://app?vid=f02710d2-1fee-4866-a021-12fd915ee40b"},"vehicle_type_id":"4","last_reported":1713553591,"current_range_meters":12400,"station_id":"ce4bhr12rcd13ifvqhqg","pricing_plan_id":"cebpf4jnsgd1na2vs0mg"},{"bike_id":"76931112-13b2-4ce1-aed6-6fa548f70599","system_id":"levelo_inurba_marseille","lat":43.322872,"lon":5.382756,"is_reserved":false,"is_disabled":false,"rental_uris":{"android":"levelo://app?vid=76931112-13b2-4ce1-aed6-6fa548f70599","ios":"levelo://app?vid=76931112-13b2-4ce1-aed6-6fa548f70599"},"vehicle_type_id":"4","last_reported":1713553591,"current_range_meters":30000,"station_id":"ce4bhr12rcd13ifvqhqg","pricing_plan_id":"cebpf4jnsgd1na2vs0mg"},{"bike_id":"e5df68f6-b1ff-4d0a-b7e9-c02ca9b8210e","system_id":"levelo_inurba_marseille","lat":43.322872,"lon":5.382756,"is_reserved":false,"is_disabled":false,"rental_uris":{"android":"levelo://app?vid=e5df68f6-b1ff-4d0a-b7e9-c02ca9b8210e","ios":"levelo://app?vid=e5df68f6-b1ff-4d0a-b7e9-c02ca9b8210e"},"vehicle_type_id":"4","last_reported":1713553591,"current_range_meters":31200,"station_id":"ce4bhr12rcd13ifvqhqg","pricing_plan_id":"cebpf4jnsgd1na2vs0mg"},{"bike_id":"3a777aae-0d2a-4638-8c09-6f1de81534e0","system_id":"levelo_inurba_marseille","lat":43.322872,"lon":5.382756,"is_reserved":false,"is_disabled":false,"rental_uris":{"android":"levelo://app?vid=3a777aae-0d2a-4638-8c09-6f1de81534e0","ios":"levelo://app?vid=3a777aae-0d2a-4638-8c09-6f1de81534e0"},"vehicle_type_id":"4","last_reported":1713553591,"current_range_meters":28400,"station_id":"ce4bhr12rcd13ifvqhqg","pricing_plan_id":"cebpf4jnsgd1na2vs0mg"},{"bike_id":"c1c913df-b844-406e-83f7-dff5f43f7dc5","system_id":"levelo_inurba_marseille","lat":43.322872,"lon":5.382756,"is_reserved":false,"is_disabled":false,"rental_uris":{"android":"levelo://app?vid=c1c913df-b844-406e-83f7-dff5f43f7dc5","ios":"levelo://app?vid=c1c913df-b844-406e-83f7-dff5f43f7dc5"},"vehicle_type_id":"4","last_reported":1713553591,"current_range_meters":31200,"station_id":"ce4bhr12rcd13ifvqhqg","pricing_plan_id":"cebpf4jnsgd1na2vs0mg"},{"bike_id":"a4e08546-6278-4fec-a3f5-ea17e1bddef5","system_id":"levelo_inurba_marseille","lat":43.322872,"lon":5.382756,"is_reserved":false,"is_disabled":false,"rental_uris":{"android":"levelo://app?vid=a4e08546-6278-4fec-a3f5-ea17e1bddef5","ios":"levelo://app?vid=a4e08546-6278-4fec-a3f5-ea17e1bddef5"},"vehicle_type_id":"4","last_reported":1713553591,"current_range_meters":12400,"station_id":"ce4bhr12rcd13ifvqhqg","pricing_plan_id":"cebpf4jnsgd1na2vs0mg"},{"bike_id":"aabdd72a-c23a-4661-9d93-d09f635fe8f4","system_id":"levelo_inurba_marseille","lat":43.311722,"lon":5.387247,"is_reserved":false,"is_disabled":false,"rental_uris":{"android":"levelo://app?vid=aabdd72a-c23a-4661-9d93-d09f635fe8f4","ios":"levelo://app?vid=aabdd72a-c23a-4661-9d93-d09f635fe8f4"},"vehicle_type_id":"4","last_reported":1713553591,"current_range_meters":6000,"station_id":"ce4bgv12rcd13ifvqcp0","pricing_plan_id":"cebpf4jnsgd1na2vs0mg"},{"bike_id":"208e4bb0-df21-4e27-865b-cd2103dc0525","system_id":"levelo_inurba_marseille","lat":43.29694,"lon":5.36599,"is_reserved":false,"is_disabled":false,"rental_uris":{"android":"levelo://app?vid=208e4bb0-df21-4e27-865b-cd2103dc0525","ios":"levelo://app?vid=208e4bb0-df21-4e27-865b-cd2103dc0525"},"vehicle_type_id":"4","last_reported":1713553591,"current_range_meters":4400,"station_id":"ce4bgn12rcd13ifvqbt0","pricing_plan_id":"cebpf4jnsgd1na2vs0mg"},{"bike_id":"e7b62b77-fb3e-45f8-8431-778ad0e133ec","system_id":"levelo_inurba_marseille","lat":43.29682,"lon":5.36831,"is_reserved":false,"is_disabled":false,"rental_uris":{"android":"levelo://app?vid=e7b62b77-fb3e-45f8-8431-778ad0e133ec","ios":"levelo://app?vid=e7b62b77-fb3e-45f8-8431-778ad0e133ec"},"vehicle_type_id":"4","last_reported":1713553591,"current_range_meters":2400,"station_id":"","pricing_plan_id":"cebpf4jnsgd1na2vs0mg"},{"bike_id":"ec81e8a3-c993-4fec-83e3-b4d8ae98651b","system_id":"levelo_inurba_marseille","lat":43.2973,"lon":5.37702,"is_reserved":false,"is_disabled":false,"rental_uris":{"android":"levelo://app?vid=ec81e8a3-c993-4fec-83e3-b4d8ae98651b","ios":"levelo://app?vid=ec81e8a3-c993-4fec-83e3-b4d8ae98651b"},"vehicle_type_id":"4","last_reported":1713553591,"current_range_meters":0,"station_id":"ce4bgkh2rcd13ifvqbl0","pricing_plan_id":"cebpf4jnsgd1na2vs0mg"},{"bike_id":"f45592a7-9c06-40ca-9a71-231bdac2c64c","system_id":"levelo_inurba_marseille","lat":43.299028,"lon":5.381509,"is_reserved":false,"is_disabled":false,"rental_uris":{"android":"levelo://app?vid=f45592a7-9c06-40ca-9a71-231bdac2c64c","ios":"levelo://app?vid=f45592a7-9c06-40ca-9a71-231bdac2c64c"},"vehicle_type_id":"4","last_reported":1713553591,"current_range_meters":22400,"station_id":"ce4bgj12rcd13ifvqbc0","pricing_plan_id":"cebpf4jnsgd1na2vs0mg"},{"bike_id":"302207f8-c0c6-4b73-a3ee-b30a84fb772f","system_id":"levelo_inurba_marseille","lat":43.299028,"lon":5.381509,"is_reserved":false,"is_disabled":false,"rental_uris":{"android":"levelo://app?vid=302207f8-c0c6-4b73-a3ee-b30a84fb772f","ios":"levelo://app?vid=302207f8-c0c6-4b73-a3ee-b30a84fb772f"},"vehicle_type_id":"4","last_reported":1713553591,"current_range_meters":26800,"station_id":"ce4bgj12rcd13ifvqbc0","pricing_plan_id":"cebpf4jnsgd1na2vs0mg"},{"bike_id":"cc3f6471-beb6-4946-9043-bfd013808217","system_id":"levelo_inurba_marseille","lat":43.299028,"lon":5.381509,"is_reserved":false,"is_disabled":false,"rental_uris":{"android":"levelo://app?vid=cc3f6471-beb6-4946-9043-bfd013808217","ios":"levelo://app?vid=cc3f6471-beb6-4946-9043-bfd013808217"},"vehicle_type_id":"4","last_reported":1713553591,"current_range_meters":4800,"station_id":"ce4bgj12rcd13ifvqbc0","pricing_plan_id":"cebpf4jnsgd1na2vs0mg"},{"bike_id":"e0b60d4b-6251-4d1b-94c5-ae2f99b15a77","system_id":"levelo_inurba_marseille","lat":43.309589,"lon":5.390258,"is_reserved":false,"is_disabled":false,"rental_uris":{"android":"levelo://app?vid=e0b60d4b-6251-4d1b-94c5-ae2f99b15a77","ios":"levelo://app?vid=e0b60d4b-6251-4d1b-94c5-ae2f99b15a77"},"vehicle_type_id":"4","last_reported":1713553591,"current_range_meters":400,"station_id":"ce4bgup2rcd13ifvqco0","pricing_plan_id":"cebpf4jnsgd1na2vs0mg"},{"bike_id":"f8a48083-3a70-480f-832e-c72e4d6afccf","system_id":"levelo_inurba_marseille","lat":43.29903,"lon":5.38134,"is_reserved":false,"is_disabled":false,"rental_uris":{"android":"levelo://app?vid=f8a48083-3a70-480f-832e-c72e4d6afccf","ios":"levelo://app?vid=f8a48083-3a70-480f-832e-c72e4d6afccf"},"vehicle_type_id":"4","last_reported":1713553591,"current_range_meters":800,"station_id":"ce4bgj12rcd13ifvqbc0","pricing_plan_id":"cebpf4jnsgd1na2vs0mg"},{"bike_id":"5a98711f-cdc4-44fc-a16e-bcf826acbe73","system_id":"levelo_inurba_marseille","lat":43.299028,"lon":5.381509,"is_reserved":false,"is_disabled":false,"rental_uris":{"android":"levelo://app?vid=5a98711f-cdc4-44fc-a16e-bcf826acbe73","ios":"levelo://app?vid=5a98711f-cdc4-44fc-a16e-bcf826acbe73"},"vehicle_type_id":"4","last_reported":1713553591,"current_range_meters":28000,"station_id":"ce4bgj12rcd13ifvqbc0","pricing_plan_id":"cebpf4jnsgd1na2vs0mg"},{"bike_id":"4c7e1cac-9f40-4304-b5f7-a28308ddce6e","system_id":"levelo_inurba_marseille","lat":43.309587,"lon":5.390319,"is_reserved":false,"is_disabled":false,"rental_uris":{"android":"levelo://app?vid=4c7e1cac-9f40-4304-b5f7-a28308ddce6e","ios":"levelo://app?vid=4c7e1cac-9f40-4304-b5f7-a28308ddce6e"},"vehicle_type_id":"4","last_reported":1713553591,"current_range_meters":0,"station_id":"ce4bgup2rcd13ifvqco0","pricing_plan_id":"cebpf4jnsgd1na2vs0mg"},{"bike_id":"755cf7df-4f19-4045-a5de-742744bc237d","system_id":"levelo_inurba_marseille","lat":43.309589,"lon":5.390258,"is_reserved":false,"is_disabled":false,"rental_uris":{"android":"levelo://app?vid=755cf7df-4f19-4045-a5de-742744bc237d","ios":"levelo://app?vid=755cf7df-4f19-4045-a5de-742744bc237d"},"vehicle_type_id":"4","last_reported":1713553591,"current_range_meters":1200,"station_id":"ce4bgup2rcd13ifvqco0","pricing_plan_id":"cebpf4jnsgd1na2vs0mg"},{"bike_id":"cb096997-de00-4ea6-a4b0-dd7e13fec829","system_id":"levelo_inurba_marseille","lat":43.299028,"lon":5.381509,"is_reserved":false,"is_disabled":false,"rental_uris":{"android":"levelo://app?vid=cb096997-de00-4ea6-a4b0-dd7e13fec829","ios":"levelo://app?vid=cb096997-de00-4ea6-a4b0-dd7e13fec829"},"vehicle_type_id":"4","last_reported":1713553591,"current_range_meters":800,"station_id":"ce4bgj12rcd13ifvqbc0","pricing_plan_id":"cebpf4jnsgd1na2vs0mg"},{"bike_id":"3276a64f-857a-4f11-be96-814e8e1a367c","system_id":"levelo_inurba_marseille","lat":43.289307,"lon":5.38406,"is_reserved":false,"is_disabled":false,"rental_uris":{"android":"levelo://app?vid=3276a64f-857a-4f11-be96-814e8e1a367c","ios":"levelo://app?vid=3276a64f-857a-4f11-be96-814e8e1a367c"},"vehicle_type_id":"4","last_reported":1713553591,"current_range_meters":25600,"station_id":"ce4bh612rcd13ifvqe6g","pricing_plan_id":"cebpf4jnsgd1na2vs0mg"},{"bike_id":"530c74cc-8fd7-4d19-ba18-099a6ad1f4db","system_id":"levelo_inurba_marseille","lat":43.30951,"lon":5.39041,"is_reserved":false,"is_disabled":false,"rental_uris":{"android":"levelo://app?vid=530c74cc-8fd7-4d19-ba18-099a6ad1f4db","ios":"levelo://app?vid=530c74cc-8fd7-4d19-ba18-099a6ad1f4db"},"vehicle_type_id":"4","last_reported":1713553591,"current_range_meters":0,"station_id":"ce4bgup2rcd13ifvqco0","pricing_plan_id":"cebpf4jnsgd1na2vs0mg"},{"bike_id":"c1737f14-581c-4dde-8fe3-87a16483ad77","system_id":"levelo_inurba_marseille","lat":43.317557,"lon":5.390173,"is_reserved":false,"is_disabled":false,"rental_uris":{"android":"levelo://app?vid=c1737f14-581c-4dde-8fe3-87a16483ad77","ios":"levelo://app?vid=c1737f14-581c-4dde-8fe3-87a16483ad77"},"vehicle_type_id":"4","last_reported":1713553591,"current_range_meters":18800,"station_id":"ce4bhqp2rcd13ifvqhng","pricing_plan_id":"cebpf4jnsgd1na2vs0mg"},{"bike_id":"2ab48669-e241-4b6d-9fb3-2db434ab2118","system_id":"levelo_inurba_marseille","lat":43.317557,"lon":5.390173,"is_reserved":false,"is_disabled":false,"rental_uris":{"android":"levelo://app?vid=2ab48669-e241-4b6d-9fb3-2db434ab2118","ios":"levelo://app?vid=2ab48669-e241-4b6d-9fb3-2db434ab2118"},"vehicle_type_id":"4","last_reported":1713553591,"current_range_meters":1600,"station_id":"ce4bhqp2rcd13ifvqhng","pricing_plan_id":"cebpf4jnsgd1na2vs0mg"},{"bike_id":"50f5087e-ae6a-4d3c-8bfd-4e1eb4863fc5","system_id":"levelo_inurba_marseille","lat":43.298037,"lon":5.381066,"is_reserved":false,"is_disabled":false,"rental_uris":{"android":"levelo://app?vid=50f5087e-ae6a-4d3c-8bfd-4e1eb4863fc5","ios":"levelo://app?vid=50f5087e-ae6a-4d3c-8bfd-4e1eb4863fc5"},"vehicle_type_id":"4","last_reported":1713553591,"current_range_meters":8000,"station_id":"ce4bgip2rcd13ifvqbb0","pricing_plan_id":"cebpf4jnsgd1na2vs0mg"},{"bike_id":"a31ceebe-807b-48f7-b0c6-1ea887dd6ce8","system_id":"levelo_inurba_marseille","lat":43.317557,"lon":5.390173,"is_reserved":false,"is_disabled":false,"rental_uris":{"android":"levelo://app?vid=a31ceebe-807b-48f7-b0c6-1ea887dd6ce8","ios":"levelo://app?vid=a31ceebe-807b-48f7-b0c6-1ea887dd6ce8"},"vehicle_type_id":"4","last_reported":1713553591,"current_range_meters":4400,"station_id":"ce4bhqp2rcd13ifvqhng","pricing_plan_id":"cebpf4jnsgd1na2vs0mg"},{"bike_id":"7e2c24b3-2300-4592-8529-a46db9a1bbdd","system_id":"levelo_inurba_marseille","lat":43.317557,"lon":5.390173,"is_reserved":false,"is_disabled":false,"rental_uris":{"android":"levelo://app?vid=7e2c24b3-2300-4592-8529-a46db9a1bbdd","ios":"levelo://app?vid=7e2c24b3-2300-4592-8529-a46db9a1bbdd"},"vehicle_type_id":"4","last_reported":1713553591,"current_range_meters":17600,"station_id":"ce4bhqp2rcd13ifvqhng","pricing_plan_id":"cebpf4jnsgd1na2vs0mg"},{"bike_id":"b81c53ff-3c6b-4c76-b57c-42e9a53dd88e","system_id":"levelo_inurba_marseille","lat":43.317557,"lon":5.390173,"is_reserved":false,"is_disabled":false,"rental_uris":{"android":"levelo://app?vid=b81c53ff-3c6b-4c76-b57c-42e9a53dd88e","ios":"levelo://app?vid=b81c53ff-3c6b-4c76-b57c-42e9a53dd88e"},"vehicle_type_id":"4","last_reported":1713553591,"current_range_meters":14000,"station_id":"ce4bhqp2rcd13ifvqhng","pricing_plan_id":"cebpf4jnsgd1na2vs0mg"},{"bike_id":"3049929b-f63d-4610-b205-8a1d00486e13","system_id":"levelo_inurba_marseille","lat":43.296043,"lon":5.374933,"is_reserved":false,"is_disabled":false,"rental_uris":{"android":"levelo://app?vid=3049929b-f63d-4610-b205-8a1d00486e13","ios":"levelo://app?vid=3049929b-f63d-4610-b205-8a1d00486e13"},"vehicle_type_id":"4","last_reported":1713553591,"current_range_meters":0,"station_id":"ce4bgh92rcd13ifvqb50","pricing_plan_id":"cebpf4jnsgd1na2vs0mg"},{"bike_id":"3541dea0-ff01-4868-a866-d8ccf42bf6e6","system_id":"levelo_inurba_marseille","lat":43.317557,"lon":5.390173,"is_reserved":false,"is_disabled":false,"rental_uris":{"android":"levelo://app?vid=3541dea0-ff01-4868-a866-d8ccf42bf6e6","ios":"levelo://app?vid=3541dea0-ff01-4868-a866-d8ccf42bf6e6"},"vehicle_type_id":"4","last_reported":1713553591,"current_range_meters":4800,"station_id":"ce4bhqp2rcd13ifvqhng","pricing_plan_id":"cebpf4jnsgd1na2vs0mg"},{"bike_id":"78c5f987-7485-4774-be75-5e9b8a2d0aca","system_id":"levelo_inurba_marseille","lat":43.295953,"lon":5.375267,"is_reserved":false,"is_disabled":false,"rental_uris":{"android":"levelo://app?vid=78c5f987-7485-4774-be75-5e9b8a2d0aca","ios":"levelo://app?vid=78c5f987-7485-4774-be75-5e9b8a2d0aca"},"vehicle_type_id":"4","last_reported":1713553591,"current_range_meters":0,"station_id":"ce4bgh92rcd13ifvqb50","pricing_plan_id":"cebpf4jnsgd1na2vs0mg"},{"bike_id":"fc0a4964-2b09-49b9-9dba-fdbe43fe31e8","system_id":"levelo_inurba_marseille","lat":43.32274,"lon":5.387255,"is_reserved":false,"is_disabled":false,"rental_uris":{"android":"levelo://app?vid=fc0a4964-2b09-49b9-9dba-fdbe43fe31e8","ios":"levelo://app?vid=fc0a4964-2b09-49b9-9dba-fdbe43fe31e8"},"vehicle_type_id":"4","last_reported":1713553591,"current_range_meters":30800,"station_id":"","pricing_plan_id":"cebpf4jnsgd1na2vs0mg"},{"bike_id":"b40d9c9b-b23c-4c76-a5aa-e3d6901bb218","system_id":"levelo_inurba_marseille","lat":43.29586,"lon":5.37519,"is_reserved":false,"is_disabled":false,"rental_uris":{"android":"levelo://app?vid=b40d9c9b-b23c-4c76-a5aa-e3d6901bb218","ios":"levelo://app?vid=b40d9c9b-b23c-4c76-a5aa-e3d6901bb218"},"vehicle_type_id":"4","last_reported":1713553591,"current_range_meters":0,"station_id":"ce4bgh92rcd13ifvqb50","pricing_plan_id":"cebpf4jnsgd1na2vs0mg"},{"bike_id":"53262886-122b-44ad-9e9e-fc019a3c5063","system_id":"levelo_inurba_marseille","lat":43.304278,"lon":5.388868,"is_reserved":false,"is_disabled":false,"rental_uris":{"android":"levelo://app?vid=53262886-122b-44ad-9e9e-fc019a3c5063","ios":"levelo://app?vid=53262886-122b-44ad-9e9e-fc019a3c5063"},"vehicle_type_id":"4","last_reported":1713553591,"current_range_meters":5600,"station_id":"ce4bgk12rcd13ifvqbi0","pricing_plan_id":"cebpf4jnsgd1na2vs0mg"},{"bike_id":"6746980b-5731-4464-b147-4c059968c614","system_id":"levelo_inurba_marseille","lat":43.304278,"lon":5.388868,"is_reserved":false,"is_disabled":false,"rental_uris":{"android":"levelo://app?vid=6746980b-5731-4464-b147-4c059968c614","ios":"levelo://app?vid=6746980b-5731-4464-b147-4c059968c614"},"vehicle_type_id":"4","last_reported":1713553591,"current_range_meters":2400,"station_id":"ce4bgk12rcd13ifvqbi0","pricing_plan_id":"cebpf4jnsgd1na2vs0mg"},{"bike_id":"c71bc3a5-70b4-494d-8278-1f7d9dd09dd0","system_id":"levelo_inurba_marseille","lat":43.299243,"lon":5.37481,"is_reserved":false,"is_disabled":false,"rental_uris":{"android":"levelo://app?vid=c71bc3a5-70b4-494d-8278-1f7d9dd09dd0","ios":"levelo://app?vid=c71bc3a5-70b4-494d-8278-1f7d9dd09dd0"},"vehicle_type_id":"4","last_reported":1713553591,"current_range_meters":0,"station_id":"ce4bgjh2rcd13ifvqbg0","pricing_plan_id":"cebpf4jnsgd1na2vs0mg"},{"bike_id":"9a168b4b-6600-43bd-88ec-595bf21a2975","system_id":"levelo_inurba_marseille","lat":43.304278,"lon":5.388868,"is_reserved":false,"is_disabled":false,"rental_uris":{"android":"levelo://app?vid=9a168b4b-6600-43bd-88ec-595bf21a2975","ios":"levelo://app?vid=9a168b4b-6600-43bd-88ec-595bf21a2975"},"vehicle_type_id":"4","last_reported":1713553591,"current_range_meters":5200,"station_id":"ce4bgk12rcd13ifvqbi0","pricing_plan_id":"cebpf4jnsgd1na2vs0mg"},{"bike_id":"bb646b2e-2eaf-4938-9abe-ebbc06753bd4","system_id":"levelo_inurba_marseille","lat":43.29788,"lon":5.38112,"is_reserved":false,"is_disabled":false,"rental_uris":{"android":"levelo://app?vid=bb646b2e-2eaf-4938-9abe-ebbc06753bd4","ios":"levelo://app?vid=bb646b2e-2eaf-4938-9abe-ebbc06753bd4"},"vehicle_type_id":"4","last_reported":1713553591,"current_range_meters":12400,"station_id":"ce4bgip2rcd13ifvqbb0","pricing_plan_id":"cebpf4jnsgd1na2vs0mg"},{"bike_id":"a61d7132-7bf2-4f45-8ce7-5fc26483b9b3","system_id":"levelo_inurba_marseille","lat":43.295748,"lon":5.37522,"is_reserved":false,"is_disabled":false,"rental_uris":{"android":"levelo://app?vid=a61d7132-7bf2-4f45-8ce7-5fc26483b9b3","ios":"levelo://app?vid=a61d7132-7bf2-4f45-8ce7-5fc26483b9b3"},"vehicle_type_id":"4","last_reported":1713553591,"current_range_meters":13600,"station_id":"ce4bgh92rcd13ifvqb50","pricing_plan_id":"cebpf4jnsgd1na2vs0mg"},{"bike_id":"7bf47245-0bf6-4bd3-bb81-a8fdd005539b","system_id":"levelo_inurba_marseille","lat":43.298037,"lon":5.381066,"is_reserved":false,"is_disabled":false,"rental_uris":{"android":"levelo://app?vid=7bf47245-0bf6-4bd3-bb81-a8fdd005539b","ios":"levelo://app?vid=7bf47245-0bf6-4bd3-bb81-a8fdd005539b"},"vehicle_type_id":"4","last_reported":1713553591,"current_range_meters":7600,"station_id":"ce4bgip2rcd13ifvqbb0","pricing_plan_id":"cebpf4jnsgd1na2vs0mg"},{"bike_id":"46ccb083-2e8c-4658-adf3-86949a7fa964","system_id":"levelo_inurba_marseille","lat":43.304274,"lon":5.388873,"is_reserved":false,"is_disabled":false,"rental_uris":{"android":"levelo://app?vid=46ccb083-2e8c-4658-adf3-86949a7fa964","ios":"levelo://app?vid=46ccb083-2e8c-4658-adf3-86949a7fa964"},"vehicle_type_id":"4","last_reported":1713553591,"current_range_meters":28000,"station_id":"ce4bgk12rcd13ifvqbi0","pricing_plan_id":"cebpf4jnsgd1na2vs0mg"},{"bike_id":"1096dfb4-88ea-4514-8e22-0eac0df70e74","system_id":"levelo_inurba_marseille","lat":43.296263,"lon":5.377094,"is_reserved":false,"is_disabled":false,"rental_uris":{"android":"levelo://app?vid=1096dfb4-88ea-4514-8e22-0eac0df70e74","ios":"levelo://app?vid=1096dfb4-88ea-4514-8e22-0eac0df70e74"},"vehicle_type_id":"4","last_reported":1713553591,"current_range_meters":1600,"station_id":"ce4bgi92rcd13ifvqb90","pricing_plan_id":"cebpf4jnsgd1na2vs0mg"},{"bike_id":"abffdb3e-bbd5-40a6-8fa6-8e2c966da0b0","system_id":"levelo_inurba_marseille","lat":43.299707,"lon":5.384859,"is_reserved":false,"is_disabled":false,"rental_uris":{"android":"levelo://app?vid=abffdb3e-bbd5-40a6-8fa6-8e2c966da0b0","ios":"levelo://app?vid=abffdb3e-bbd5-40a6-8fa6-8e2c966da0b0"},"vehicle_type_id":"4","last_reported":1713553591,"current_range_meters":12800,"station_id":"ce4bgj92rcd13ifvqbd0","pricing_plan_id":"cebpf4jnsgd1na2vs0mg"},{"bike_id":"30c1a1fb-271d-464f-8d3f-7b933bca54d5","system_id":"levelo_inurba_marseille","lat":43.298037,"lon":5.381066,"is_reserved":false,"is_disabled":false,"rental_uris":{"android":"levelo://app?vid=30c1a1fb-271d-464f-8d3f-7b933bca54d5","ios":"levelo://app?vid=30c1a1fb-271d-464f-8d3f-7b933bca54d5"},"vehicle_type_id":"4","last_reported":1713553591,"current_range_meters":10800,"station_id":"ce4bgip2rcd13ifvqbb0","pricing_plan_id":"cebpf4jnsgd1na2vs0mg"},{"bike_id":"229fabc5-196b-4f2f-adfe-9bafe796d96a","system_id":"levelo_inurba_marseille","lat":43.299724,"lon":5.384848,"is_reserved":false,"is_disabled":false,"rental_uris":{"android":"levelo://app?vid=229fabc5-196b-4f2f-adfe-9bafe796d96a","ios":"levelo://app?vid=229fabc5-196b-4f2f-adfe-9bafe796d96a"},"vehicle_type_id":"4","last_reported":1713553591,"current_range_meters":7600,"station_id":"ce4bgj92rcd13ifvqbd0","pricing_plan_id":"cebpf4jnsgd1na2vs0mg"},{"bike_id":"c65a8251-1f93-46ca-a36d-90e48e387015","system_id":"levelo_inurba_marseille","lat":43.303746,"lon":5.389126,"is_reserved":false,"is_disabled":false,"rental_uris":{"android":"levelo://app?vid=c65a8251-1f93-46ca-a36d-90e48e387015","ios":"levelo://app?vid=c65a8251-1f93-46ca-a36d-90e48e387015"},"vehicle_type_id":"4","last_reported":1713553591,"current_range_meters":0,"station_id":"ce4bgk12rcd13ifvqbi0","pricing_plan_id":"cebpf4jnsgd1na2vs0mg"},{"bike_id":"44d57295-63f8-41b7-a22d-8779f0224b7b","system_id":"levelo_inurba_marseille","lat":43.299717,"lon":5.384845,"is_reserved":false,"is_disabled":false,"rental_uris":{"android":"levelo://app?vid=44d57295-63f8-41b7-a22d-8779f0224b7b","ios":"levelo://app?vid=44d57295-63f8-41b7-a22d-8779f0224b7b"},"vehicle_type_id":"4","last_reported":1713553591,"current_range_meters":400,"station_id":"ce4bgj92rcd13ifvqbd0","pricing_plan_id":"cebpf4jnsgd1na2vs0mg"},{"bike_id":"d27d0f38-8bf8-4f6e-8e3f-aa9305436ad7","system_id":"levelo_inurba_marseille","lat":43.295194,"lon":5.39397,"is_reserved":false,"is_disabled":false,"rental_uris":{"android":"levelo://app?vid=d27d0f38-8bf8-4f6e-8e3f-aa9305436ad7","ios":"levelo://app?vid=d27d0f38-8bf8-4f6e-8e3f-aa9305436ad7"},"vehicle_type_id":"4","last_reported":1713553591,"current_range_meters":30400,"station_id":"ce4bh292rcd13ifvqdf0","pricing_plan_id":"cebpf4jnsgd1na2vs0mg"},{"bike_id":"45e7164c-58a6-47c7-b613-c3184e266f40","system_id":"levelo_inurba_marseille","lat":43.295196,"lon":5.39397,"is_reserved":false,"is_disabled":false,"rental_uris":{"android":"levelo://app?vid=45e7164c-58a6-47c7-b613-c3184e266f40","ios":"levelo://app?vid=45e7164c-58a6-47c7-b613-c3184e266f40"},"vehicle_type_id":"4","last_reported":1713553591,"current_range_meters":26000,"station_id":"ce4bh292rcd13ifvqdf0","pricing_plan_id":"cebpf4jnsgd1na2vs0mg"},{"bike_id":"470eea51-aead-41d2-a69f-d91d26ec2d19","system_id":"levelo_inurba_marseille","lat":43.323672,"lon":5.388785,"is_reserved":false,"is_disabled":false,"rental_uris":{"android":"levelo://app?vid=470eea51-aead-41d2-a69f-d91d26ec2d19","ios":"levelo://app?vid=470eea51-aead-41d2-a69f-d91d26ec2d19"},"vehicle_type_id":"4","last_reported":1713553591,"current_range_meters":25600,"station_id":"","pricing_plan_id":"cebpf4jnsgd1na2vs0mg"},{"bike_id":"3896c664-50fa-42db-9a2c-2d55be44e9c6","system_id":"levelo_inurba_marseille","lat":43.32371,"lon":5.3888,"is_reserved":false,"is_disabled":false,"rental_uris":{"android":"levelo://app?vid=3896c664-50fa-42db-9a2c-2d55be44e9c6","ios":"levelo://app?vid=3896c664-50fa-42db-9a2c-2d55be44e9c6"},"vehicle_type_id":"4","last_reported":1713553591,"current_range_meters":14400,"station_id":"ce4bhqp2rcd13ifvqhog","pricing_plan_id":"cebpf4jnsgd1na2vs0mg"},{"bike_id":"b709ef4c-e43b-4a37-b730-414a4c029166","system_id":"levelo_inurba_marseille","lat":43.32367,"lon":5.388836,"is_reserved":false,"is_disabled":false,"rental_uris":{"android":"levelo://app?vid=b709ef4c-e43b-4a37-b730-414a4c029166","ios":"levelo://app?vid=b709ef4c-e43b-4a37-b730-414a4c029166"},"vehicle_type_id":"4","last_reported":1713553591,"current_range_meters":16000,"station_id":"ce4bhqp2rcd13ifvqhog","pricing_plan_id":"cebpf4jnsgd1na2vs0mg"},{"bike_id":"a730cd16-45c9-4eac-9f20-d9ef2d8cd53f","system_id":"levelo_inurba_marseille","lat":43.32368,"lon":5.38885,"is_reserved":false,"is_disabled":false,"rental_uris":{"android":"levelo://app?vid=a730cd16-45c9-4eac-9f20-d9ef2d8cd53f","ios":"levelo://app?vid=a730cd16-45c9-4eac-9f20-d9ef2d8cd53f"},"vehicle_type_id":"4","last_reported":1713553591,"current_range_meters":30000,"station_id":"ce4bhqp2rcd13ifvqhog","pricing_plan_id":"cebpf4jnsgd1na2vs0mg"},{"bike_id":"9221273c-cb04-4701-8749-d23ab7a1662c","system_id":"levelo_inurba_marseille","lat":43.32367,"lon":5.388836,"is_reserved":false,"is_disabled":false,"rental_uris":{"android":"levelo://app?vid=9221273c-cb04-4701-8749-d23ab7a1662c","ios":"levelo://app?vid=9221273c-cb04-4701-8749-d23ab7a1662c"},"vehicle_type_id":"4","last_reported":1713553591,"current_range_meters":26800,"station_id":"ce4bhqp2rcd13ifvqhog","pricing_plan_id":"cebpf4jnsgd1na2vs0mg"},{"bike_id":"10bd876b-372c-48b6-9eea-48946bb81dd8","system_id":"levelo_inurba_marseille","lat":43.32368,"lon":5.38888,"is_reserved":false,"is_disabled":false,"rental_uris":{"android":"levelo://app?vid=10bd876b-372c-48b6-9eea-48946bb81dd8","ios":"levelo://app?vid=10bd876b-372c-48b6-9eea-48946bb81dd8"},"vehicle_type_id":"4","last_reported":1713553591,"current_range_meters":11600,"station_id":"ce4bhqp2rcd13ifvqhog","pricing_plan_id":"cebpf4jnsgd1na2vs0mg"},{"bike_id":"9250474f-8dc2-4068-98be-1996c9986e22","system_id":"levelo_inurba_marseille","lat":43.32366,"lon":5.3889,"is_reserved":false,"is_disabled":false,"rental_uris":{"android":"levelo://app?vid=9250474f-8dc2-4068-98be-1996c9986e22","ios":"levelo://app?vid=9250474f-8dc2-4068-98be-1996c9986e22"},"vehicle_type_id":"4","last_reported":1713553591,"current_range_meters":26000,"station_id":"","pricing_plan_id":"cebpf4jnsgd1na2vs0mg"},{"bike_id":"4e0f4bfd-b112-4198-8f36-1e9d8392ca03","system_id":"levelo_inurba_marseille","lat":43.296131,"lon":5.370791,"is_reserved":false,"is_disabled":false,"rental_uris":{"android":"levelo://app?vid=4e0f4bfd-b112-4198-8f36-1e9d8392ca03","ios":"levelo://app?vid=4e0f4bfd-b112-4198-8f36-1e9d8392ca03"},"vehicle_type_id":"4","last_reported":1713553591,"current_range_meters":18800,"station_id":"ce4bgnh2rcd13ifvqc0g","pricing_plan_id":"cebpf4jnsgd1na2vs0mg"},{"bike_id":"5caceea8-af1f-42a5-9f54-fbd64a91ce84","system_id":"levelo_inurba_marseille","lat":43.32367,"lon":5.388836,"is_reserved":false,"is_disabled":false,"rental_uris":{"android":"levelo://app?vid=5caceea8-af1f-42a5-9f54-fbd64a91ce84","ios":"levelo://app?vid=5caceea8-af1f-42a5-9f54-fbd64a91ce84"},"vehicle_type_id":"4","last_reported":1713553591,"current_range_meters":4800,"station_id":"ce4bhqp2rcd13ifvqhog","pricing_plan_id":"cebpf4jnsgd1na2vs0mg"},{"bike_id":"31fe42f4-cda1-4c33-a5a2-333c5f8fd198","system_id":"levelo_inurba_marseille","lat":43.293259,"lon":5.371586,"is_reserved":false,"is_disabled":false,"rental_uris":{"android":"levelo://app?vid=31fe42f4-cda1-4c33-a5a2-333c5f8fd198","ios":"levelo://app?vid=31fe42f4-cda1-4c33-a5a2-333c5f8fd198"},"vehicle_type_id":"4","last_reported":1713553591,"current_range_meters":19200,"station_id":"ce4bgh92rcd13ifvqb40","pricing_plan_id":"cebpf4jnsgd1na2vs0mg"},{"bike_id":"f11e644b-84c2-48d3-adec-d6d162737977","system_id":"levelo_inurba_marseille","lat":43.2931,"lon":5.37173,"is_reserved":false,"is_disabled":false,"rental_uris":{"android":"levelo://app?vid=f11e644b-84c2-48d3-adec-d6d162737977","ios":"levelo://app?vid=f11e644b-84c2-48d3-adec-d6d162737977"},"vehicle_type_id":"4","last_reported":1713553591,"current_range_meters":29600,"station_id":"ce4bgh92rcd13ifvqb40","pricing_plan_id":"cebpf4jnsgd1na2vs0mg"},{"bike_id":"0e8a986d-bf8b-4896-85a0-2c97a09bbda3","system_id":"levelo_inurba_marseille","lat":43.293095,"lon":5.371814,"is_reserved":false,"is_disabled":false,"rental_uris":{"android":"levelo://app?vid=0e8a986d-bf8b-4896-85a0-2c97a09bbda3","ios":"levelo://app?vid=0e8a986d-bf8b-4896-85a0-2c97a09bbda3"},"vehicle_type_id":"4","last_reported":1713553591,"current_range_meters":14000,"station_id":"ce4bgh92rcd13ifvqb40","pricing_plan_id":"cebpf4jnsgd1na2vs0mg"},{"bike_id":"7b260cb0-b192-4a65-8c55-ebb951a6c244","system_id":"levelo_inurba_marseille","lat":43.29306,"lon":5.37181,"is_reserved":false,"is_disabled":false,"rental_uris":{"android":"levelo://app?vid=7b260cb0-b192-4a65-8c55-ebb951a6c244","ios":"levelo://app?vid=7b260cb0-b192-4a65-8c55-ebb951a6c244"},"vehicle_type_id":"4","last_reported":1713553591,"current_range_meters":0,"station_id":"ce4bgh92rcd13ifvqb40","pricing_plan_id":"cebpf4jnsgd1na2vs0mg"},{"bike_id":"fdbbc3e8-638c-4967-bd29-8e89bda55141","system_id":"levelo_inurba_marseille","lat":43.29303,"lon":5.37168,"is_reserved":false,"is_disabled":false,"rental_uris":{"android":"levelo://app?vid=fdbbc3e8-638c-4967-bd29-8e89bda55141","ios":"levelo://app?vid=fdbbc3e8-638c-4967-bd29-8e89bda55141"},"vehicle_type_id":"4","last_reported":1713553591,"current_range_meters":0,"station_id":"ce4bgh92rcd13ifvqb40","pricing_plan_id":"cebpf4jnsgd1na2vs0mg"},{"bike_id":"5634054e-f458-4d12-8d6a-edeae69abf0b","system_id":"levelo_inurba_marseille","lat":43.29302,"lon":5.37172,"is_reserved":false,"is_disabled":false,"rental_uris":{"android":"levelo://app?vid=5634054e-f458-4d12-8d6a-edeae69abf0b","ios":"levelo://app?vid=5634054e-f458-4d12-8d6a-edeae69abf0b"},"vehicle_type_id":"4","last_reported":1713553591,"current_range_meters":4400,"station_id":"ce4bgh92rcd13ifvqb40","pricing_plan_id":"cebpf4jnsgd1na2vs0mg"},{"bike_id":"1c1893eb-ca58-46d0-a72e-6d5f1de36498","system_id":"levelo_inurba_marseille","lat":43.29274,"lon":5.36847,"is_reserved":false,"is_disabled":false,"rental_uris":{"android":"levelo://app?vid=1c1893eb-ca58-46d0-a72e-6d5f1de36498","ios":"levelo://app?vid=1c1893eb-ca58-46d0-a72e-6d5f1de36498"},"vehicle_type_id":"4","last_reported":1713553591,"current_range_meters":0,"station_id":"ce4bhbp2rcd13ifvqesg","pricing_plan_id":"cebpf4jnsgd1na2vs0mg"},{"bike_id":"f695d2f4-3709-4d5a-ba33-030c3d2725ea","system_id":"levelo_inurba_marseille","lat":43.29301,"lon":5.37172,"is_reserved":false,"is_disabled":false,"rental_uris":{"android":"levelo://app?vid=f695d2f4-3709-4d5a-ba33-030c3d2725ea","ios":"levelo://app?vid=f695d2f4-3709-4d5a-ba33-030c3d2725ea"},"vehicle_type_id":"4","last_reported":1713553591,"current_range_meters":7600,"station_id":"ce4bgh92rcd13ifvqb40","pricing_plan_id":"cebpf4jnsgd1na2vs0mg"},{"bike_id":"184a6b91-efb1-472c-acd0-307c488f31f6","system_id":"levelo_inurba_marseille","lat":43.29301,"lon":5.37179,"is_reserved":false,"is_disabled":false,"rental_uris":{"android":"levelo://app?vid=184a6b91-efb1-472c-acd0-307c488f31f6","ios":"levelo://app?vid=184a6b91-efb1-472c-acd0-307c488f31f6"},"vehicle_type_id":"4","last_reported":1713553591,"current_range_meters":2400,"station_id":"ce4bgh92rcd13ifvqb40","pricing_plan_id":"cebpf4jnsgd1na2vs0mg"},{"bike_id":"21bccb87-170c-452e-adae-f673c544786b","system_id":"levelo_inurba_marseille","lat":43.29269,"lon":5.3686,"is_reserved":false,"is_disabled":false,"rental_uris":{"android":"levelo://app?vid=21bccb87-170c-452e-adae-f673c544786b","ios":"levelo://app?vid=21bccb87-170c-452e-adae-f673c544786b"},"vehicle_type_id":"4","last_reported":1713553591,"current_range_meters":0,"station_id":"ce4bhbp2rcd13ifvqesg","pricing_plan_id":"cebpf4jnsgd1na2vs0mg"},{"bike_id":"e8e406d7-caae-4412-b7ce-b4cefded729e","system_id":"levelo_inurba_marseille","lat":43.292749,"lon":5.368402,"is_reserved":false,"is_disabled":false,"rental_uris":{"android":"levelo://app?vid=e8e406d7-caae-4412-b7ce-b4cefded729e","ios":"levelo://app?vid=e8e406d7-caae-4412-b7ce-b4cefded729e"},"vehicle_type_id":"4","last_reported":1713553591,"current_range_meters":5600,"station_id":"ce4bhbp2rcd13ifvqesg","pricing_plan_id":"cebpf4jnsgd1na2vs0mg"},{"bike_id":"e90f5181-c7df-4eb1-bd13-08ed95c18290","system_id":"levelo_inurba_marseille","lat":43.29307,"lon":5.374683,"is_reserved":false,"is_disabled":false,"rental_uris":{"android":"levelo://app?vid=e90f5181-c7df-4eb1-bd13-08ed95c18290","ios":"levelo://app?vid=e90f5181-c7df-4eb1-bd13-08ed95c18290"},"vehicle_type_id":"4","last_reported":1713553591,"current_range_meters":0,"station_id":"ce4bgi12rcd13ifvqb70","pricing_plan_id":"cebpf4jnsgd1na2vs0mg"},{"bike_id":"fa195fa6-c23a-4d21-9379-59f7eabea673","system_id":"levelo_inurba_marseille","lat":43.305994,"lon":5.393687,"is_reserved":false,"is_disabled":false,"rental_uris":{"android":"levelo://app?vid=fa195fa6-c23a-4d21-9379-59f7eabea673","ios":"levelo://app?vid=fa195fa6-c23a-4d21-9379-59f7eabea673"},"vehicle_type_id":"4","last_reported":1713553591,"current_range_meters":8800,"station_id":"ce4bh0p2rcd13ifvqd80","pricing_plan_id":"cebpf4jnsgd1na2vs0mg"},{"bike_id":"a6a8cebf-5a27-4e40-bdb5-e44eb41045d2","system_id":"levelo_inurba_marseille","lat":43.293009,"lon":5.374584,"is_reserved":false,"is_disabled":false,"rental_uris":{"android":"levelo://app?vid=a6a8cebf-5a27-4e40-bdb5-e44eb41045d2","ios":"levelo://app?vid=a6a8cebf-5a27-4e40-bdb5-e44eb41045d2"},"vehicle_type_id":"4","last_reported":1713553591,"current_range_meters":14400,"station_id":"ce4bgi12rcd13ifvqb70","pricing_plan_id":"cebpf4jnsgd1na2vs0mg"},{"bike_id":"822a6075-89a5-45e2-aa48-a2f93570fd92","system_id":"levelo_inurba_marseille","lat":43.302973,"lon":5.39198,"is_reserved":false,"is_disabled":false,"rental_uris":{"android":"levelo://app?vid=822a6075-89a5-45e2-aa48-a2f93570fd92","ios":"levelo://app?vid=822a6075-89a5-45e2-aa48-a2f93570fd92"},"vehicle_type_id":"4","last_reported":1713553591,"current_range_meters":18800,"station_id":"ce4bgkh2rcd13ifvqbk0","pricing_plan_id":"cebpf4jnsgd1na2vs0mg"},{"bike_id":"4570d589-9d20-45bb-a808-edbf0781bb54","system_id":"levelo_inurba_marseille","lat":43.2938,"lon":5.37852,"is_reserved":false,"is_disabled":false,"rental_uris":{"android":"levelo://app?vid=4570d589-9d20-45bb-a808-edbf0781bb54","ios":"levelo://app?vid=4570d589-9d20-45bb-a808-edbf0781bb54"},"vehicle_type_id":"4","last_reported":1713553591,"current_range_meters":0,"station_id":"ce4bgjh2rcd13ifvqbf0","pricing_plan_id":"cebpf4jnsgd1na2vs0mg"},{"bike_id":"a859996b-d1e9-41ef-9475-3ed93e824d24","system_id":"levelo_inurba_marseille","lat":43.302992,"lon":5.392136,"is_reserved":false,"is_disabled":false,"rental_uris":{"android":"levelo://app?vid=a859996b-d1e9-41ef-9475-3ed93e824d24","ios":"levelo://app?vid=a859996b-d1e9-41ef-9475-3ed93e824d24"},"vehicle_type_id":"4","last_reported":1713553591,"current_range_meters":1600,"station_id":"ce4bgkh2rcd13ifvqbk0","pricing_plan_id":"cebpf4jnsgd1na2vs0mg"},{"bike_id":"7288fa9f-a26a-489f-a0d1-54006117c630","system_id":"levelo_inurba_marseille","lat":43.302992,"lon":5.392136,"is_reserved":false,"is_disabled":false,"rental_uris":{"android":"levelo://app?vid=7288fa9f-a26a-489f-a0d1-54006117c630","ios":"levelo://app?vid=7288fa9f-a26a-489f-a0d1-54006117c630"},"vehicle_type_id":"4","last_reported":1713553591,"current_range_meters":27600,"station_id":"ce4bgkh2rcd13ifvqbk0","pricing_plan_id":"cebpf4jnsgd1na2vs0mg"},{"bike_id":"3f7be08a-ccd6-4de4-a77e-b3737d2e32de","system_id":"levelo_inurba_marseille","lat":43.292311,"lon":5.360731,"is_reserved":false,"is_disabled":false,"rental_uris":{"android":"levelo://app?vid=3f7be08a-ccd6-4de4-a77e-b3737d2e32de","ios":"levelo://app?vid=3f7be08a-ccd6-4de4-a77e-b3737d2e32de"},"vehicle_type_id":"4","last_reported":1713553591,"current_range_meters":6800,"station_id":"ce4bhbh2rcd13ifvqeqg","pricing_plan_id":"cebpf4jnsgd1na2vs0mg"},{"bike_id":"3cd3d9d6-ea27-4871-bcda-a0c90444a039","system_id":"levelo_inurba_marseille","lat":43.2936,"lon":5.37835,"is_reserved":false,"is_disabled":false,"rental_uris":{"android":"levelo://app?vid=3cd3d9d6-ea27-4871-bcda-a0c90444a039","ios":"levelo://app?vid=3cd3d9d6-ea27-4871-bcda-a0c90444a039"},"vehicle_type_id":"4","last_reported":1713553591,"current_range_meters":19200,"station_id":"ce4bgjh2rcd13ifvqbf0","pricing_plan_id":"cebpf4jnsgd1na2vs0mg"},{"bike_id":"ef9478de-de0d-4167-8732-83159404d426","system_id":"levelo_inurba_marseille","lat":43.292218,"lon":5.360527,"is_reserved":false,"is_disabled":false,"rental_uris":{"android":"levelo://app?vid=ef9478de-de0d-4167-8732-83159404d426","ios":"levelo://app?vid=ef9478de-de0d-4167-8732-83159404d426"},"vehicle_type_id":"4","last_reported":1713553591,"current_range_meters":31200,"station_id":"ce4bhbh2rcd13ifvqeqg","pricing_plan_id":"cebpf4jnsgd1na2vs0mg"},{"bike_id":"c6424d44-aa74-448c-82ce-65a88a5e9573","system_id":"levelo_inurba_marseille","lat":43.29217,"lon":5.36067,"is_reserved":false,"is_disabled":false,"rental_uris":{"android":"levelo://app?vid=c6424d44-aa74-448c-82ce-65a88a5e9573","ios":"levelo://app?vid=c6424d44-aa74-448c-82ce-65a88a5e9573"},"vehicle_type_id":"4","last_reported":1713553591,"current_range_meters":10800,"station_id":"ce4bhbh2rcd13ifvqeqg","pricing_plan_id":"cebpf4jnsgd1na2vs0mg"},{"bike_id":"0fdf1872-66af-4a08-92fe-23830cb76d44","system_id":"levelo_inurba_marseille","lat":43.298764,"lon":5.388973,"is_reserved":false,"is_disabled":false,"rental_uris":{"android":"levelo://app?vid=0fdf1872-66af-4a08-92fe-23830cb76d44","ios":"levelo://app?vid=0fdf1872-66af-4a08-92fe-23830cb76d44"},"vehicle_type_id":"4","last_reported":1713553591,"current_range_meters":0,"station_id":"ce4bh392rcd13ifvqdl0","pricing_plan_id":"cebpf4jnsgd1na2vs0mg"},{"bike_id":"9a40b7e3-90b6-4fbd-9833-12f585f685fe","system_id":"levelo_inurba_marseille","lat":43.313291,"lon":5.396838,"is_reserved":false,"is_disabled":false,"rental_uris":{"android":"levelo://app?vid=9a40b7e3-90b6-4fbd-9833-12f585f685fe","ios":"levelo://app?vid=9a40b7e3-90b6-4fbd-9833-12f585f685fe"},"vehicle_type_id":"4","last_reported":1713553591,"current_range_meters":11200,"station_id":"ce4bgvp2rcd13ifvqcu0","pricing_plan_id":"cebpf4jnsgd1na2vs0mg"},{"bike_id":"2739d731-ed7f-40d9-abb9-98ec3f94d7cc","system_id":"levelo_inurba_marseille","lat":43.284219,"lon":5.3497,"is_reserved":false,"is_disabled":false,"rental_uris":{"android":"levelo://app?vid=2739d731-ed7f-40d9-abb9-98ec3f94d7cc","ios":"levelo://app?vid=2739d731-ed7f-40d9-abb9-98ec3f94d7cc"},"vehicle_type_id":"4","last_reported":1713553591,"current_range_meters":18000,"station_id":"ce4bhbh2rcd13ifvqepg","pricing_plan_id":"cebpf4jnsgd1na2vs0mg"},{"bike_id":"aa4bfcf0-decd-489b-9be8-8e8034458103","system_id":"levelo_inurba_marseille","lat":43.313291,"lon":5.396838,"is_reserved":false,"is_disabled":false,"rental_uris":{"android":"levelo://app?vid=aa4bfcf0-decd-489b-9be8-8e8034458103","ios":"levelo://app?vid=aa4bfcf0-decd-489b-9be8-8e8034458103"},"vehicle_type_id":"4","last_reported":1713553591,"current_range_meters":24000,"station_id":"ce4bgvp2rcd13ifvqcu0","pricing_plan_id":"cebpf4jnsgd1na2vs0mg"},{"bike_id":"8fd82c7e-530f-4e7a-bfcb-9014829fbe1a","system_id":"levelo_inurba_marseille","lat":43.29188,"lon":5.35814,"is_reserved":false,"is_disabled":false,"rental_uris":{"android":"levelo://app?vid=8fd82c7e-530f-4e7a-bfcb-9014829fbe1a","ios":"levelo://app?vid=8fd82c7e-530f-4e7a-bfcb-9014829fbe1a"},"vehicle_type_id":"4","last_reported":1713553591,"current_range_meters":28000,"station_id":"ce4bh2h2rcd13ifvqdh0","pricing_plan_id":"cebpf4jnsgd1na2vs0mg"},{"bike_id":"c76bbdf3-6740-4c27-a5ed-e4d826d05d83","system_id":"levelo_inurba_marseille","lat":43.313291,"lon":5.396838,"is_reserved":false,"is_disabled":false,"rental_uris":{"android":"levelo://app?vid=c76bbdf3-6740-4c27-a5ed-e4d826d05d83","ios":"levelo://app?vid=c76bbdf3-6740-4c27-a5ed-e4d826d05d83"},"vehicle_type_id":"4","last_reported":1713553591,"current_range_meters":0,"station_id":"ce4bgvp2rcd13ifvqcu0","pricing_plan_id":"cebpf4jnsgd1na2vs0mg"},{"bike_id":"1f9f573a-a40c-4e6c-9298-d46c778f9150","system_id":"levelo_inurba_marseille","lat":43.309038,"lon":5.396546,"is_reserved":false,"is_disabled":false,"rental_uris":{"android":"levelo://app?vid=1f9f573a-a40c-4e6c-9298-d46c778f9150","ios":"levelo://app?vid=1f9f573a-a40c-4e6c-9298-d46c778f9150"},"vehicle_type_id":"4","last_reported":1713553591,"current_range_meters":1600,"station_id":"ce4bh012rcd13ifvqcv0","pricing_plan_id":"cebpf4jnsgd1na2vs0mg"},{"bike_id":"ffc83026-7b35-496b-b555-dab2be34d277","system_id":"levelo_inurba_marseille","lat":43.313268,"lon":5.396992,"is_reserved":false,"is_disabled":false,"rental_uris":{"android":"levelo://app?vid=ffc83026-7b35-496b-b555-dab2be34d277","ios":"levelo://app?vid=ffc83026-7b35-496b-b555-dab2be34d277"},"vehicle_type_id":"4","last_reported":1713553591,"current_range_meters":0,"station_id":"ce4bgvp2rcd13ifvqcu0","pricing_plan_id":"cebpf4jnsgd1na2vs0mg"},{"bike_id":"71049cf3-9115-4745-af79-b28f7762c7de","system_id":"levelo_inurba_marseille","lat":43.29529,"lon":5.385581,"is_reserved":false,"is_disabled":false,"rental_uris":{"android":"levelo://app?vid=71049cf3-9115-4745-af79-b28f7762c7de","ios":"levelo://app?vid=71049cf3-9115-4745-af79-b28f7762c7de"},"vehicle_type_id":"4","last_reported":1713553591,"current_range_meters":28800,"station_id":"ce4bgih2rcd13ifvqba0","pricing_plan_id":"cebpf4jnsgd1na2vs0mg"},{"bike_id":"73536151-8049-4825-8b45-a02910eb6a4c","system_id":"levelo_inurba_marseille","lat":43.313291,"lon":5.396838,"is_reserved":false,"is_disabled":false,"rental_uris":{"android":"levelo://app?vid=73536151-8049-4825-8b45-a02910eb6a4c","ios":"levelo://app?vid=73536151-8049-4825-8b45-a02910eb6a4c"},"vehicle_type_id":"4","last_reported":1713553591,"current_range_meters":1600,"station_id":"ce4bgvp2rcd13ifvqcu0","pricing_plan_id":"cebpf4jnsgd1na2vs0mg"},{"bike_id":"000ce342-9c44-4040-8581-f098f40db77c","system_id":"levelo_inurba_marseille","lat":43.29529,"lon":5.385581,"is_reserved":false,"is_disabled":false,"rental_uris":{"android":"levelo://app?vid=000ce342-9c44-4040-8581-f098f40db77c","ios":"levelo://app?vid=000ce342-9c44-4040-8581-f098f40db77c"},"vehicle_type_id":"4","last_reported":1713553591,"current_range_meters":15200,"station_id":"ce4bgih2rcd13ifvqba0","pricing_plan_id":"cebpf4jnsgd1na2vs0mg"},{"bike_id":"d65babfe-ba42-4bc6-aabd-09c607517a73","system_id":"levelo_inurba_marseille","lat":43.29529,"lon":5.385581,"is_reserved":false,"is_disabled":false,"rental_uris":{"android":"levelo://app?vid=d65babfe-ba42-4bc6-aabd-09c607517a73","ios":"levelo://app?vid=d65babfe-ba42-4bc6-aabd-09c607517a73"},"vehicle_type_id":"4","last_reported":1713553591,"current_range_meters":13600,"station_id":"ce4bgih2rcd13ifvqba0","pricing_plan_id":"cebpf4jnsgd1na2vs0mg"},{"bike_id":"19a045b0-a58d-420e-980e-79aa373ce378","system_id":"levelo_inurba_marseille","lat":43.29529,"lon":5.385581,"is_reserved":false,"is_disabled":false,"rental_uris":{"android":"levelo://app?vid=19a045b0-a58d-420e-980e-79aa373ce378","ios":"levelo://app?vid=19a045b0-a58d-420e-980e-79aa373ce378"},"vehicle_type_id":"4","last_reported":1713553591,"current_range_meters":13200,"station_id":"ce4bgih2rcd13ifvqba0","pricing_plan_id":"cebpf4jnsgd1na2vs0mg"},{"bike_id":"ce55e034-c9f4-4406-bc55-effa9e31a007","system_id":"levelo_inurba_marseille","lat":43.29529,"lon":5.385581,"is_reserved":false,"is_disabled":false,"rental_uris":{"android":"levelo://app?vid=ce55e034-c9f4-4406-bc55-effa9e31a007","ios":"levelo://app?vid=ce55e034-c9f4-4406-bc55-effa9e31a007"},"vehicle_type_id":"4","last_reported":1713553591,"current_range_meters":1200,"station_id":"ce4bgih2rcd13ifvqba0","pricing_plan_id":"cebpf4jnsgd1na2vs0mg"},{"bike_id":"5c452f15-a732-482a-a44c-65494872436a","system_id":"levelo_inurba_marseille","lat":43.29529,"lon":5.385581,"is_reserved":false,"is_disabled":false,"rental_uris":{"android":"levelo://app?vid=5c452f15-a732-482a-a44c-65494872436a","ios":"levelo://app?vid=5c452f15-a732-482a-a44c-65494872436a"},"vehicle_type_id":"4","last_reported":1713553591,"current_range_meters":31200,"station_id":"ce4bgih2rcd13ifvqba0","pricing_plan_id":"cebpf4jnsgd1na2vs0mg"},{"bike_id":"08ab46a2-8a79-40d1-b270-f1d538f6a8e3","system_id":"levelo_inurba_marseille","lat":43.29529,"lon":5.385581,"is_reserved":false,"is_disabled":false,"rental_uris":{"android":"levelo://app?vid=08ab46a2-8a79-40d1-b270-f1d538f6a8e3","ios":"levelo://app?vid=08ab46a2-8a79-40d1-b270-f1d538f6a8e3"},"vehicle_type_id":"4","last_reported":1713553591,"current_range_meters":30000,"station_id":"ce4bgih2rcd13ifvqba0","pricing_plan_id":"cebpf4jnsgd1na2vs0mg"},{"bike_id":"4410aef0-71b5-46e0-8a90-7e99ec3a61e4","system_id":"levelo_inurba_marseille","lat":43.29529,"lon":5.385581,"is_reserved":false,"is_disabled":false,"rental_uris":{"android":"levelo://app?vid=4410aef0-71b5-46e0-8a90-7e99ec3a61e4","ios":"levelo://app?vid=4410aef0-71b5-46e0-8a90-7e99ec3a61e4"},"vehicle_type_id":"4","last_reported":1713553591,"current_range_meters":2800,"station_id":"ce4bgih2rcd13ifvqba0","pricing_plan_id":"cebpf4jnsgd1na2vs0mg"},{"bike_id":"ee4025d9-9baf-40a6-a42c-fb345e381eb0","system_id":"levelo_inurba_marseille","lat":43.309047,"lon":5.396551,"is_reserved":false,"is_disabled":false,"rental_uris":{"android":"levelo://app?vid=ee4025d9-9baf-40a6-a42c-fb345e381eb0","ios":"levelo://app?vid=ee4025d9-9baf-40a6-a42c-fb345e381eb0"},"vehicle_type_id":"4","last_reported":1713553591,"current_range_meters":21600,"station_id":"ce4bh012rcd13ifvqcv0","pricing_plan_id":"cebpf4jnsgd1na2vs0mg"},{"bike_id":"0ebe7994-ae05-4788-a348-c3afd00274af","system_id":"levelo_inurba_marseille","lat":43.313291,"lon":5.396838,"is_reserved":false,"is_disabled":false,"rental_uris":{"android":"levelo://app?vid=0ebe7994-ae05-4788-a348-c3afd00274af","ios":"levelo://app?vid=0ebe7994-ae05-4788-a348-c3afd00274af"},"vehicle_type_id":"4","last_reported":1713553591,"current_range_meters":400,"station_id":"ce4bgvp2rcd13ifvqcu0","pricing_plan_id":"cebpf4jnsgd1na2vs0mg"},{"bike_id":"674cb579-d63e-487a-9056-1f22d0b1bcbd","system_id":"levelo_inurba_marseille","lat":43.29529,"lon":5.385581,"is_reserved":false,"is_disabled":false,"rental_uris":{"android":"levelo://app?vid=674cb579-d63e-487a-9056-1f22d0b1bcbd","ios":"levelo://app?vid=674cb579-d63e-487a-9056-1f22d0b1bcbd"},"vehicle_type_id":"4","last_reported":1713553591,"current_range_meters":14800,"station_id":"ce4bgih2rcd13ifvqba0","pricing_plan_id":"cebpf4jnsgd1na2vs0mg"},{"bike_id":"0cd760fc-a750-4ec6-8947-36730810792d","system_id":"levelo_inurba_marseille","lat":43.29529,"lon":5.385581,"is_reserved":false,"is_disabled":false,"rental_uris":{"android":"levelo://app?vid=0cd760fc-a750-4ec6-8947-36730810792d","ios":"levelo://app?vid=0cd760fc-a750-4ec6-8947-36730810792d"},"vehicle_type_id":"4","last_reported":1713553591,"current_range_meters":0,"station_id":"ce4bgih2rcd13ifvqba0","pricing_plan_id":"cebpf4jnsgd1na2vs0mg"},{"bike_id":"d5f1dd4b-f66e-43e9-949f-2d0545019678","system_id":"levelo_inurba_marseille","lat":43.29529,"lon":5.385581,"is_reserved":false,"is_disabled":false,"rental_uris":{"android":"levelo://app?vid=d5f1dd4b-f66e-43e9-949f-2d0545019678","ios":"levelo://app?vid=d5f1dd4b-f66e-43e9-949f-2d0545019678"},"vehicle_type_id":"4","last_reported":1713553591,"current_range_meters":28000,"station_id":"ce4bgih2rcd13ifvqba0","pricing_plan_id":"cebpf4jnsgd1na2vs0mg"},{"bike_id":"8705f553-95b7-4759-ab8f-5adedb8cc9c0","system_id":"levelo_inurba_marseille","lat":43.29529,"lon":5.385581,"is_reserved":false,"is_disabled":false,"rental_uris":{"android":"levelo://app?vid=8705f553-95b7-4759-ab8f-5adedb8cc9c0","ios":"levelo://app?vid=8705f553-95b7-4759-ab8f-5adedb8cc9c0"},"vehicle_type_id":"4","last_reported":1713553591,"current_range_meters":10400,"station_id":"ce4bgih2rcd13ifvqba0","pricing_plan_id":"cebpf4jnsgd1na2vs0mg"},{"bike_id":"f87a93fe-d966-4a0d-907c-8709ccb6bfcf","system_id":"levelo_inurba_marseille","lat":43.29529,"lon":5.385581,"is_reserved":false,"is_disabled":false,"rental_uris":{"android":"levelo://app?vid=f87a93fe-d966-4a0d-907c-8709ccb6bfcf","ios":"levelo://app?vid=f87a93fe-d966-4a0d-907c-8709ccb6bfcf"},"vehicle_type_id":"4","last_reported":1713553591,"current_range_meters":24000,"station_id":"ce4bgih2rcd13ifvqba0","pricing_plan_id":"cebpf4jnsgd1na2vs0mg"},{"bike_id":"3960fc4a-1e82-40fe-9daf-7513307feae4","system_id":"levelo_inurba_marseille","lat":43.29529,"lon":5.385581,"is_reserved":false,"is_disabled":false,"rental_uris":{"android":"levelo://app?vid=3960fc4a-1e82-40fe-9daf-7513307feae4","ios":"levelo://app?vid=3960fc4a-1e82-40fe-9daf-7513307feae4"},"vehicle_type_id":"4","last_reported":1713553591,"current_range_meters":5200,"station_id":"ce4bgih2rcd13ifvqba0","pricing_plan_id":"cebpf4jnsgd1na2vs0mg"},{"bike_id":"d911e045-7ada-4aa7-b8e6-eb1bfc52e5a3","system_id":"levelo_inurba_marseille","lat":43.29529,"lon":5.385581,"is_reserved":false,"is_disabled":false,"rental_uris":{"android":"levelo://app?vid=d911e045-7ada-4aa7-b8e6-eb1bfc52e5a3","ios":"levelo://app?vid=d911e045-7ada-4aa7-b8e6-eb1bfc52e5a3"},"vehicle_type_id":"4","last_reported":1713553591,"current_range_meters":31200,"station_id":"ce4bgih2rcd13ifvqba0","pricing_plan_id":"cebpf4jnsgd1na2vs0mg"},{"bike_id":"287c8b40-b9be-45bd-bd51-4c0954fb9ac7","system_id":"levelo_inurba_marseille","lat":43.29529,"lon":5.385581,"is_reserved":false,"is_disabled":false,"rental_uris":{"android":"levelo://app?vid=287c8b40-b9be-45bd-bd51-4c0954fb9ac7","ios":"levelo://app?vid=287c8b40-b9be-45bd-bd51-4c0954fb9ac7"},"vehicle_type_id":"4","last_reported":1713553591,"current_range_meters":31200,"station_id":"ce4bgih2rcd13ifvqba0","pricing_plan_id":"cebpf4jnsgd1na2vs0mg"},{"bike_id":"4dd4c9bf-6a4a-4f51-85b2-c8c2613f5675","system_id":"levelo_inurba_marseille","lat":43.29537,"lon":5.38553,"is_reserved":false,"is_disabled":false,"rental_uris":{"android":"levelo://app?vid=4dd4c9bf-6a4a-4f51-85b2-c8c2613f5675","ios":"levelo://app?vid=4dd4c9bf-6a4a-4f51-85b2-c8c2613f5675"},"vehicle_type_id":"4","last_reported":1713553591,"current_range_meters":0,"station_id":"ce4bgih2rcd13ifvqba0","pricing_plan_id":"cebpf4jnsgd1na2vs0mg"},{"bike_id":"15ca6bc1-5fea-4697-bd2a-f8a1e377f6ee","system_id":"levelo_inurba_marseille","lat":43.29529,"lon":5.385581,"is_reserved":false,"is_disabled":false,"rental_uris":{"android":"levelo://app?vid=15ca6bc1-5fea-4697-bd2a-f8a1e377f6ee","ios":"levelo://app?vid=15ca6bc1-5fea-4697-bd2a-f8a1e377f6ee"},"vehicle_type_id":"4","last_reported":1713553591,"current_range_meters":9600,"station_id":"ce4bgih2rcd13ifvqba0","pricing_plan_id":"cebpf4jnsgd1na2vs0mg"},{"bike_id":"48f2c496-1a3f-4d91-a438-258512b7fbfa","system_id":"levelo_inurba_marseille","lat":43.29529,"lon":5.385581,"is_reserved":false,"is_disabled":false,"rental_uris":{"android":"levelo://app?vid=48f2c496-1a3f-4d91-a438-258512b7fbfa","ios":"levelo://app?vid=48f2c496-1a3f-4d91-a438-258512b7fbfa"},"vehicle_type_id":"4","last_reported":1713553591,"current_range_meters":28000,"station_id":"ce4bgih2rcd13ifvqba0","pricing_plan_id":"cebpf4jnsgd1na2vs0mg"},{"bike_id":"59ab09fa-b28f-4a6f-94d2-2c5d95f2ec60","system_id":"levelo_inurba_marseille","lat":43.29529,"lon":5.385581,"is_reserved":false,"is_disabled":false,"rental_uris":{"android":"levelo://app?vid=59ab09fa-b28f-4a6f-94d2-2c5d95f2ec60","ios":"levelo://app?vid=59ab09fa-b28f-4a6f-94d2-2c5d95f2ec60"},"vehicle_type_id":"4","last_reported":1713553591,"current_range_meters":8000,"station_id":"ce4bgih2rcd13ifvqba0","pricing_plan_id":"cebpf4jnsgd1na2vs0mg"},{"bike_id":"4e242037-bcca-4e5c-a01d-b3943bf7cca8","system_id":"levelo_inurba_marseille","lat":43.29529,"lon":5.385581,"is_reserved":false,"is_disabled":false,"rental_uris":{"android":"levelo://app?vid=4e242037-bcca-4e5c-a01d-b3943bf7cca8","ios":"levelo://app?vid=4e242037-bcca-4e5c-a01d-b3943bf7cca8"},"vehicle_type_id":"4","last_reported":1713553591,"current_range_meters":9200,"station_id":"ce4bgih2rcd13ifvqba0","pricing_plan_id":"cebpf4jnsgd1na2vs0mg"},{"bike_id":"39c299e6-b895-4ccc-bbe0-6d790afef5c5","system_id":"levelo_inurba_marseille","lat":43.29529,"lon":5.385581,"is_reserved":false,"is_disabled":false,"rental_uris":{"android":"levelo://app?vid=39c299e6-b895-4ccc-bbe0-6d790afef5c5","ios":"levelo://app?vid=39c299e6-b895-4ccc-bbe0-6d790afef5c5"},"vehicle_type_id":"4","last_reported":1713553591,"current_range_meters":11600,"station_id":"ce4bgih2rcd13ifvqba0","pricing_plan_id":"cebpf4jnsgd1na2vs0mg"},{"bike_id":"fbb092b9-8c9a-43d8-b3c2-dac5138323b2","system_id":"levelo_inurba_marseille","lat":43.290779,"lon":5.371482,"is_reserved":false,"is_disabled":false,"rental_uris":{"android":"levelo://app?vid=fbb092b9-8c9a-43d8-b3c2-dac5138323b2","ios":"levelo://app?vid=fbb092b9-8c9a-43d8-b3c2-dac5138323b2"},"vehicle_type_id":"4","last_reported":1713553591,"current_range_meters":18800,"station_id":"ce4bh5p2rcd13ifvqe4g","pricing_plan_id":"cebpf4jnsgd1na2vs0mg"},{"bike_id":"47a5f3f6-88d6-400e-af7e-7a1991050098","system_id":"levelo_inurba_marseille","lat":43.290779,"lon":5.371482,"is_reserved":false,"is_disabled":false,"rental_uris":{"android":"levelo://app?vid=47a5f3f6-88d6-400e-af7e-7a1991050098","ios":"levelo://app?vid=47a5f3f6-88d6-400e-af7e-7a1991050098"},"vehicle_type_id":"4","last_reported":1713553591,"current_range_meters":10400,"station_id":"ce4bh5p2rcd13ifvqe4g","pricing_plan_id":"cebpf4jnsgd1na2vs0mg"},{"bike_id":"95a32629-61bc-4899-b11a-475dd5e299fb","system_id":"levelo_inurba_marseille","lat":43.290779,"lon":5.371482,"is_reserved":false,"is_disabled":false,"rental_uris":{"android":"levelo://app?vid=95a32629-61bc-4899-b11a-475dd5e299fb","ios":"levelo://app?vid=95a32629-61bc-4899-b11a-475dd5e299fb"},"vehicle_type_id":"4","last_reported":1713553591,"current_range_meters":0,"station_id":"ce4bh5p2rcd13ifvqe4g","pricing_plan_id":"cebpf4jnsgd1na2vs0mg"},{"bike_id":"0e39b8b8-f2dd-4d68-92e3-aa72fcaa49c9","system_id":"levelo_inurba_marseille","lat":43.290624,"lon":5.359245,"is_reserved":false,"is_disabled":false,"rental_uris":{"android":"levelo://app?vid=0e39b8b8-f2dd-4d68-92e3-aa72fcaa49c9","ios":"levelo://app?vid=0e39b8b8-f2dd-4d68-92e3-aa72fcaa49c9"},"vehicle_type_id":"4","last_reported":1713553591,"current_range_meters":11200,"station_id":"ce4bha92rcd13ifvqeg0","pricing_plan_id":"cebpf4jnsgd1na2vs0mg"},{"bike_id":"827ff6de-5e71-4478-b1d7-d59269598248","system_id":"levelo_inurba_marseille","lat":43.294162,"lon":5.386292,"is_reserved":false,"is_disabled":false,"rental_uris":{"android":"levelo://app?vid=827ff6de-5e71-4478-b1d7-d59269598248","ios":"levelo://app?vid=827ff6de-5e71-4478-b1d7-d59269598248"},"vehicle_type_id":"4","last_reported":1713553591,"current_range_meters":22000,"station_id":"ce4bh2h2rcd13ifvqdh0","pricing_plan_id":"cebpf4jnsgd1na2vs0mg"},{"bike_id":"298e866d-ee07-47fe-bd8d-334d9352c00c","system_id":"levelo_inurba_marseille","lat":43.29426,"lon":5.385942,"is_reserved":false,"is_disabled":false,"rental_uris":{"android":"levelo://app?vid=298e866d-ee07-47fe-bd8d-334d9352c00c","ios":"levelo://app?vid=298e866d-ee07-47fe-bd8d-334d9352c00c"},"vehicle_type_id":"4","last_reported":1713553591,"current_range_meters":15600,"station_id":"ce4bh2h2rcd13ifvqdh0","pricing_plan_id":"cebpf4jnsgd1na2vs0mg"},{"bike_id":"26f91d33-67c6-4fe2-99ac-8272b58cdf5b","system_id":"levelo_inurba_marseille","lat":43.294162,"lon":5.386292,"is_reserved":false,"is_disabled":false,"rental_uris":{"android":"levelo://app?vid=26f91d33-67c6-4fe2-99ac-8272b58cdf5b","ios":"levelo://app?vid=26f91d33-67c6-4fe2-99ac-8272b58cdf5b"},"vehicle_type_id":"4","last_reported":1713553591,"current_range_meters":23200,"station_id":"ce4bh2h2rcd13ifvqdh0","pricing_plan_id":"cebpf4jnsgd1na2vs0mg"},{"bike_id":"1e09151d-5e79-4026-bd7f-19f12bf4c7f5","system_id":"levelo_inurba_marseille","lat":43.29446,"lon":5.386573,"is_reserved":false,"is_disabled":false,"rental_uris":{"android":"levelo://app?vid=1e09151d-5e79-4026-bd7f-19f12bf4c7f5","ios":"levelo://app?vid=1e09151d-5e79-4026-bd7f-19f12bf4c7f5"},"vehicle_type_id":"4","last_reported":1713553591,"current_range_meters":19200,"station_id":"","pricing_plan_id":"cebpf4jnsgd1na2vs0mg"},{"bike_id":"75a4f49b-a8df-4353-82ef-cd6c6e4fc671","system_id":"levelo_inurba_marseille","lat":43.29426,"lon":5.38623,"is_reserved":false,"is_disabled":false,"rental_uris":{"android":"levelo://app?vid=75a4f49b-a8df-4353-82ef-cd6c6e4fc671","ios":"levelo://app?vid=75a4f49b-a8df-4353-82ef-cd6c6e4fc671"},"vehicle_type_id":"4","last_reported":1713553591,"current_range_meters":0,"station_id":"ce4bh2h2rcd13ifvqdh0","pricing_plan_id":"cebpf4jnsgd1na2vs0mg"},{"bike_id":"7e628a6b-105e-440f-af65-261b4077baf9","system_id":"levelo_inurba_marseille","lat":43.294162,"lon":5.386292,"is_reserved":false,"is_disabled":false,"rental_uris":{"android":"levelo://app?vid=7e628a6b-105e-440f-af65-261b4077baf9","ios":"levelo://app?vid=7e628a6b-105e-440f-af65-261b4077baf9"},"vehicle_type_id":"4","last_reported":1713553591,"current_range_meters":31600,"station_id":"ce4bh2h2rcd13ifvqdh0","pricing_plan_id":"cebpf4jnsgd1na2vs0mg"},{"bike_id":"656828fa-b15d-4c23-8b65-c2b21a808449","system_id":"levelo_inurba_marseille","lat":43.294162,"lon":5.386292,"is_reserved":false,"is_disabled":false,"rental_uris":{"android":"levelo://app?vid=656828fa-b15d-4c23-8b65-c2b21a808449","ios":"levelo://app?vid=656828fa-b15d-4c23-8b65-c2b21a808449"},"vehicle_type_id":"4","last_reported":1713553591,"current_range_meters":16000,"station_id":"ce4bh2h2rcd13ifvqdh0","pricing_plan_id":"cebpf4jnsgd1na2vs0mg"},{"bike_id":"84052364-5722-4c2f-b1f8-3d7d479f19f2","system_id":"levelo_inurba_marseille","lat":43.294162,"lon":5.386292,"is_reserved":false,"is_disabled":false,"rental_uris":{"android":"levelo://app?vid=84052364-5722-4c2f-b1f8-3d7d479f19f2","ios":"levelo://app?vid=84052364-5722-4c2f-b1f8-3d7d479f19f2"},"vehicle_type_id":"4","last_reported":1713553591,"current_range_meters":6800,"station_id":"ce4bh2h2rcd13ifvqdh0","pricing_plan_id":"cebpf4jnsgd1na2vs0mg"},{"bike_id":"c2df24d2-c242-4c6c-954e-c1a1a4f0746f","system_id":"levelo_inurba_marseille","lat":43.2942,"lon":5.38621,"is_reserved":false,"is_disabled":false,"rental_uris":{"android":"levelo://app?vid=c2df24d2-c242-4c6c-954e-c1a1a4f0746f","ios":"levelo://app?vid=c2df24d2-c242-4c6c-954e-c1a1a4f0746f"},"vehicle_type_id":"4","last_reported":1713553591,"current_range_meters":0,"station_id":"ce4bh2h2rcd13ifvqdh0","pricing_plan_id":"cebpf4jnsgd1na2vs0mg"},{"bike_id":"60696613-93f6-4b60-914f-1b4e094594e5","system_id":"levelo_inurba_marseille","lat":43.294169,"lon":5.386166,"is_reserved":false,"is_disabled":false,"rental_uris":{"android":"levelo://app?vid=60696613-93f6-4b60-914f-1b4e094594e5","ios":"levelo://app?vid=60696613-93f6-4b60-914f-1b4e094594e5"},"vehicle_type_id":"4","last_reported":1713553591,"current_range_meters":7200,"station_id":"ce4bh2h2rcd13ifvqdh0","pricing_plan_id":"cebpf4jnsgd1na2vs0mg"},{"bike_id":"a283c22b-0c91-4e7a-aba2-8dafda92d6e5","system_id":"levelo_inurba_marseille","lat":43.29418,"lon":5.3862,"is_reserved":false,"is_disabled":false,"rental_uris":{"android":"levelo://app?vid=a283c22b-0c91-4e7a-aba2-8dafda92d6e5","ios":"levelo://app?vid=a283c22b-0c91-4e7a-aba2-8dafda92d6e5"},"vehicle_type_id":"4","last_reported":1713553591,"current_range_meters":800,"station_id":"ce4bh2h2rcd13ifvqdh0","pricing_plan_id":"cebpf4jnsgd1na2vs0mg"},{"bike_id":"680affc2-415e-482e-bdeb-04a9bbd0a1af","system_id":"levelo_inurba_marseille","lat":43.29417,"lon":5.38621,"is_reserved":false,"is_disabled":false,"rental_uris":{"android":"levelo://app?vid=680affc2-415e-482e-bdeb-04a9bbd0a1af","ios":"levelo://app?vid=680affc2-415e-482e-bdeb-04a9bbd0a1af"},"vehicle_type_id":"4","last_reported":1713553591,"current_range_meters":4000,"station_id":"ce4bh2h2rcd13ifvqdh0","pricing_plan_id":"cebpf4jnsgd1na2vs0mg"},{"bike_id":"6757131b-c7ad-40ae-a20c-7ac7eddb19d4","system_id":"levelo_inurba_marseille","lat":43.294162,"lon":5.386292,"is_reserved":false,"is_disabled":false,"rental_uris":{"android":"levelo://app?vid=6757131b-c7ad-40ae-a20c-7ac7eddb19d4","ios":"levelo://app?vid=6757131b-c7ad-40ae-a20c-7ac7eddb19d4"},"vehicle_type_id":"4","last_reported":1713553591,"current_range_meters":16800,"station_id":"ce4bh2h2rcd13ifvqdh0","pricing_plan_id":"cebpf4jnsgd1na2vs0mg"},{"bike_id":"c6e6fc22-f572-4d02-8228-09e5c055d19d","system_id":"levelo_inurba_marseille","lat":43.29415,"lon":5.38619,"is_reserved":false,"is_disabled":false,"rental_uris":{"android":"levelo://app?vid=c6e6fc22-f572-4d02-8228-09e5c055d19d","ios":"levelo://app?vid=c6e6fc22-f572-4d02-8228-09e5c055d19d"},"vehicle_type_id":"4","last_reported":1713553591,"current_range_meters":0,"station_id":"ce4bh2h2rcd13ifvqdh0","pricing_plan_id":"cebpf4jnsgd1na2vs0mg"},{"bike_id":"9ff90951-c46a-4751-a033-f61d8ce94801","system_id":"levelo_inurba_marseille","lat":43.29413,"lon":5.38618,"is_reserved":false,"is_disabled":false,"rental_uris":{"android":"levelo://app?vid=9ff90951-c46a-4751-a033-f61d8ce94801","ios":"levelo://app?vid=9ff90951-c46a-4751-a033-f61d8ce94801"},"vehicle_type_id":"4","last_reported":1713553591,"current_range_meters":0,"station_id":"ce4bh2h2rcd13ifvqdh0","pricing_plan_id":"cebpf4jnsgd1na2vs0mg"},{"bike_id":"2c385409-e902-4596-bf80-caf4503d7f19","system_id":"levelo_inurba_marseille","lat":43.28944,"lon":5.36635,"is_reserved":false,"is_disabled":false,"rental_uris":{"android":"levelo://app?vid=2c385409-e902-4596-bf80-caf4503d7f19","ios":"levelo://app?vid=2c385409-e902-4596-bf80-caf4503d7f19"},"vehicle_type_id":"4","last_reported":1713553591,"current_range_meters":24000,"station_id":"ce4bgh92rcd13ifvqb40","pricing_plan_id":"cebpf4jnsgd1na2vs0mg"},{"bike_id":"6cf00848-5b1a-4cfb-ab04-08c144d86db1","system_id":"levelo_inurba_marseille","lat":43.29416,"lon":5.38627,"is_reserved":false,"is_disabled":false,"rental_uris":{"android":"levelo://app?vid=6cf00848-5b1a-4cfb-ab04-08c144d86db1","ios":"levelo://app?vid=6cf00848-5b1a-4cfb-ab04-08c144d86db1"},"vehicle_type_id":"4","last_reported":1713553591,"current_range_meters":2800,"station_id":"ce4bh2h2rcd13ifvqdh0","pricing_plan_id":"cebpf4jnsgd1na2vs0mg"},{"bike_id":"5742be2f-e347-4d70-ae21-40f5cfa4cddf","system_id":"levelo_inurba_marseille","lat":43.29415,"lon":5.38627,"is_reserved":false,"is_disabled":false,"rental_uris":{"android":"levelo://app?vid=5742be2f-e347-4d70-ae21-40f5cfa4cddf","ios":"levelo://app?vid=5742be2f-e347-4d70-ae21-40f5cfa4cddf"},"vehicle_type_id":"4","last_reported":1713553591,"current_range_meters":0,"station_id":"ce4bh2h2rcd13ifvqdh0","pricing_plan_id":"cebpf4jnsgd1na2vs0mg"},{"bike_id":"f3001998-6f96-498e-a02c-cc1190710589","system_id":"levelo_inurba_marseille","lat":43.294162,"lon":5.386292,"is_reserved":false,"is_disabled":false,"rental_uris":{"android":"levelo://app?vid=f3001998-6f96-498e-a02c-cc1190710589","ios":"levelo://app?vid=f3001998-6f96-498e-a02c-cc1190710589"},"vehicle_type_id":"4","last_reported":1713553591,"current_range_meters":16400,"station_id":"ce4bh2h2rcd13ifvqdh0","pricing_plan_id":"cebpf4jnsgd1na2vs0mg"},{"bike_id":"be22fa1b-6d25-4376-8af9-bdd95d3cc039","system_id":"levelo_inurba_marseille","lat":43.29416,"lon":5.3863,"is_reserved":false,"is_disabled":false,"rental_uris":{"android":"levelo://app?vid=be22fa1b-6d25-4376-8af9-bdd95d3cc039","ios":"levelo://app?vid=be22fa1b-6d25-4376-8af9-bdd95d3cc039"},"vehicle_type_id":"4","last_reported":1713553591,"current_range_meters":22000,"station_id":"ce4bh2h2rcd13ifvqdh0","pricing_plan_id":"cebpf4jnsgd1na2vs0mg"},{"bike_id":"02fa7dce-de9f-4e8f-b5da-86ee38801a4d","system_id":"levelo_inurba_marseille","lat":43.294163,"lon":5.386314,"is_reserved":false,"is_disabled":false,"rental_uris":{"android":"levelo://app?vid=02fa7dce-de9f-4e8f-b5da-86ee38801a4d","ios":"levelo://app?vid=02fa7dce-de9f-4e8f-b5da-86ee38801a4d"},"vehicle_type_id":"4","last_reported":1713553591,"current_range_meters":6800,"station_id":"ce4bh2h2rcd13ifvqdh0","pricing_plan_id":"cebpf4jnsgd1na2vs0mg"},{"bike_id":"b02d5805-7fdf-4fb0-8965-7452ba7623d9","system_id":"levelo_inurba_marseille","lat":43.29416,"lon":5.38631,"is_reserved":false,"is_disabled":false,"rental_uris":{"android":"levelo://app?vid=b02d5805-7fdf-4fb0-8965-7452ba7623d9","ios":"levelo://app?vid=b02d5805-7fdf-4fb0-8965-7452ba7623d9"},"vehicle_type_id":"4","last_reported":1713553591,"current_range_meters":2800,"station_id":"ce4bh2h2rcd13ifvqdh0","pricing_plan_id":"cebpf4jnsgd1na2vs0mg"},{"bike_id":"9af58b80-dc00-4413-ae5f-808c04e70f48","system_id":"levelo_inurba_marseille","lat":43.294162,"lon":5.386292,"is_reserved":false,"is_disabled":false,"rental_uris":{"android":"levelo://app?vid=9af58b80-dc00-4413-ae5f-808c04e70f48","ios":"levelo://app?vid=9af58b80-dc00-4413-ae5f-808c04e70f48"},"vehicle_type_id":"4","last_reported":1713553591,"current_range_meters":2000,"station_id":"ce4bh2h2rcd13ifvqdh0","pricing_plan_id":"cebpf4jnsgd1na2vs0mg"},{"bike_id":"718d49a0-770d-4bed-ae3b-c9de318f288b","system_id":"levelo_inurba_marseille","lat":43.289184,"lon":5.366408,"is_reserved":false,"is_disabled":false,"rental_uris":{"android":"levelo://app?vid=718d49a0-770d-4bed-ae3b-c9de318f288b","ios":"levelo://app?vid=718d49a0-770d-4bed-ae3b-c9de318f288b"},"vehicle_type_id":"4","last_reported":1713553591,"current_range_meters":0,"station_id":"ce4bhap2rcd13ifvqek0","pricing_plan_id":"cebpf4jnsgd1na2vs0mg"},{"bike_id":"69f45c31-ffe8-4c33-aa90-188eeceb55be","system_id":"levelo_inurba_marseille","lat":43.29417,"lon":5.38644,"is_reserved":false,"is_disabled":false,"rental_uris":{"android":"levelo://app?vid=69f45c31-ffe8-4c33-aa90-188eeceb55be","ios":"levelo://app?vid=69f45c31-ffe8-4c33-aa90-188eeceb55be"},"vehicle_type_id":"4","last_reported":1713553591,"current_range_meters":9600,"station_id":"ce4bh2h2rcd13ifvqdh0","pricing_plan_id":"cebpf4jnsgd1na2vs0mg"},{"bike_id":"4d0471ee-5561-4f3f-a294-9394357822ed","system_id":"levelo_inurba_marseille","lat":43.289468,"lon":5.363719,"is_reserved":false,"is_disabled":false,"rental_uris":{"android":"levelo://app?vid=4d0471ee-5561-4f3f-a294-9394357822ed","ios":"levelo://app?vid=4d0471ee-5561-4f3f-a294-9394357822ed"},"vehicle_type_id":"4","last_reported":1713553591,"current_range_meters":31200,"station_id":"ce4bhc92rcd13ifvqetg","pricing_plan_id":"cebpf4jnsgd1na2vs0mg"},{"bike_id":"b80aeb92-d06a-44dd-b6ba-4e0aca0c09b8","system_id":"levelo_inurba_marseille","lat":43.289468,"lon":5.363719,"is_reserved":false,"is_disabled":false,"rental_uris":{"android":"levelo://app?vid=b80aeb92-d06a-44dd-b6ba-4e0aca0c09b8","ios":"levelo://app?vid=b80aeb92-d06a-44dd-b6ba-4e0aca0c09b8"},"vehicle_type_id":"4","last_reported":1713553591,"current_range_meters":0,"station_id":"ce4bhc92rcd13ifvqetg","pricing_plan_id":"cebpf4jnsgd1na2vs0mg"},{"bike_id":"384db275-6ef1-475d-a6cc-15f7f0053f42","system_id":"levelo_inurba_marseille","lat":43.290327,"lon":5.375711,"is_reserved":false,"is_disabled":false,"rental_uris":{"android":"levelo://app?vid=384db275-6ef1-475d-a6cc-15f7f0053f42","ios":"levelo://app?vid=384db275-6ef1-475d-a6cc-15f7f0053f42"},"vehicle_type_id":"4","last_reported":1713553591,"current_range_meters":29200,"station_id":"ce4bh692rcd13ifvqe90","pricing_plan_id":"cebpf4jnsgd1na2vs0mg"},{"bike_id":"28034673-e09b-4995-9981-33bb12797e6a","system_id":"levelo_inurba_marseille","lat":43.29414,"lon":5.38669,"is_reserved":false,"is_disabled":false,"rental_uris":{"android":"levelo://app?vid=28034673-e09b-4995-9981-33bb12797e6a","ios":"levelo://app?vid=28034673-e09b-4995-9981-33bb12797e6a"},"vehicle_type_id":"4","last_reported":1713553591,"current_range_meters":21600,"station_id":"ce4bh2h2rcd13ifvqdh0","pricing_plan_id":"cebpf4jnsgd1na2vs0mg"},{"bike_id":"200b55f0-b9fa-4681-931d-35ee6452202f","system_id":"levelo_inurba_marseille","lat":43.292644,"lon":5.384257,"is_reserved":false,"is_disabled":false,"rental_uris":{"android":"levelo://app?vid=200b55f0-b9fa-4681-931d-35ee6452202f","ios":"levelo://app?vid=200b55f0-b9fa-4681-931d-35ee6452202f"},"vehicle_type_id":"4","last_reported":1713553591,"current_range_meters":0,"station_id":"ce4bh692rcd13ifvqea0","pricing_plan_id":"cebpf4jnsgd1na2vs0mg"},{"bike_id":"a7544b57-a5f0-4f35-a49c-5f633fb3393a","system_id":"levelo_inurba_marseille","lat":43.292644,"lon":5.384257,"is_reserved":false,"is_disabled":false,"rental_uris":{"android":"levelo://app?vid=a7544b57-a5f0-4f35-a49c-5f633fb3393a","ios":"levelo://app?vid=a7544b57-a5f0-4f35-a49c-5f633fb3393a"},"vehicle_type_id":"4","last_reported":1713553591,"current_range_meters":8800,"station_id":"ce4bh692rcd13ifvqea0","pricing_plan_id":"cebpf4jnsgd1na2vs0mg"},{"bike_id":"3fc2e181-a9a1-47ec-b1ce-dd9457dbaff4","system_id":"levelo_inurba_marseille","lat":43.292644,"lon":5.384257,"is_reserved":false,"is_disabled":false,"rental_uris":{"android":"levelo://app?vid=3fc2e181-a9a1-47ec-b1ce-dd9457dbaff4","ios":"levelo://app?vid=3fc2e181-a9a1-47ec-b1ce-dd9457dbaff4"},"vehicle_type_id":"4","last_reported":1713553591,"current_range_meters":8400,"station_id":"ce4bh692rcd13ifvqea0","pricing_plan_id":"cebpf4jnsgd1na2vs0mg"},{"bike_id":"ae0f6ea1-6672-4935-9bcb-da451c77f1c0","system_id":"levelo_inurba_marseille","lat":43.292644,"lon":5.384257,"is_reserved":false,"is_disabled":false,"rental_uris":{"android":"levelo://app?vid=ae0f6ea1-6672-4935-9bcb-da451c77f1c0","ios":"levelo://app?vid=ae0f6ea1-6672-4935-9bcb-da451c77f1c0"},"vehicle_type_id":"4","last_reported":1713553591,"current_range_meters":0,"station_id":"ce4bh692rcd13ifvqea0","pricing_plan_id":"cebpf4jnsgd1na2vs0mg"},{"bike_id":"8c912d86-1700-478e-9e45-a10d5bbab22d","system_id":"levelo_inurba_marseille","lat":43.29277,"lon":5.384495,"is_reserved":false,"is_disabled":false,"rental_uris":{"android":"levelo://app?vid=8c912d86-1700-478e-9e45-a10d5bbab22d","ios":"levelo://app?vid=8c912d86-1700-478e-9e45-a10d5bbab22d"},"vehicle_type_id":"4","last_reported":1713553591,"current_range_meters":7200,"station_id":"ce4bh692rcd13ifvqea0","pricing_plan_id":"cebpf4jnsgd1na2vs0mg"},{"bike_id":"4b31c549-f443-4007-bfa2-e614548f97c2","system_id":"levelo_inurba_marseille","lat":43.292644,"lon":5.384257,"is_reserved":false,"is_disabled":false,"rental_uris":{"android":"levelo://app?vid=4b31c549-f443-4007-bfa2-e614548f97c2","ios":"levelo://app?vid=4b31c549-f443-4007-bfa2-e614548f97c2"},"vehicle_type_id":"4","last_reported":1713553591,"current_range_meters":15600,"station_id":"ce4bh692rcd13ifvqea0","pricing_plan_id":"cebpf4jnsgd1na2vs0mg"},{"bike_id":"e2556282-d49e-4828-8698-ff8af8dad20e","system_id":"levelo_inurba_marseille","lat":43.292644,"lon":5.384257,"is_reserved":false,"is_disabled":false,"rental_uris":{"android":"levelo://app?vid=e2556282-d49e-4828-8698-ff8af8dad20e","ios":"levelo://app?vid=e2556282-d49e-4828-8698-ff8af8dad20e"},"vehicle_type_id":"4","last_reported":1713553591,"current_range_meters":12400,"station_id":"ce4bh692rcd13ifvqea0","pricing_plan_id":"cebpf4jnsgd1na2vs0mg"},{"bike_id":"d33410c4-720a-4aae-881d-227fcc183439","system_id":"levelo_inurba_marseille","lat":43.292426,"lon":5.38376,"is_reserved":false,"is_disabled":false,"rental_uris":{"android":"levelo://app?vid=d33410c4-720a-4aae-881d-227fcc183439","ios":"levelo://app?vid=d33410c4-720a-4aae-881d-227fcc183439"},"vehicle_type_id":"4","last_reported":1713553591,"current_range_meters":0,"station_id":"ce4bh692rcd13ifvqea0","pricing_plan_id":"cebpf4jnsgd1na2vs0mg"},{"bike_id":"9476941b-1a72-4791-8bf5-81e33352c1c7","system_id":"levelo_inurba_marseille","lat":43.292642,"lon":5.384254,"is_reserved":false,"is_disabled":false,"rental_uris":{"android":"levelo://app?vid=9476941b-1a72-4791-8bf5-81e33352c1c7","ios":"levelo://app?vid=9476941b-1a72-4791-8bf5-81e33352c1c7"},"vehicle_type_id":"4","last_reported":1713553591,"current_range_meters":2800,"station_id":"ce4bh692rcd13ifvqea0","pricing_plan_id":"cebpf4jnsgd1na2vs0mg"},{"bike_id":"93049410-c299-4783-91d3-d326a698f751","system_id":"levelo_inurba_marseille","lat":43.292644,"lon":5.384257,"is_reserved":false,"is_disabled":false,"rental_uris":{"android":"levelo://app?vid=93049410-c299-4783-91d3-d326a698f751","ios":"levelo://app?vid=93049410-c299-4783-91d3-d326a698f751"},"vehicle_type_id":"4","last_reported":1713553591,"current_range_meters":3200,"station_id":"ce4bh692rcd13ifvqea0","pricing_plan_id":"cebpf4jnsgd1na2vs0mg"},{"bike_id":"d0c62eba-e59b-474b-83f7-6f799a2eacc4","system_id":"levelo_inurba_marseille","lat":43.292644,"lon":5.384257,"is_reserved":false,"is_disabled":false,"rental_uris":{"android":"levelo://app?vid=d0c62eba-e59b-474b-83f7-6f799a2eacc4","ios":"levelo://app?vid=d0c62eba-e59b-474b-83f7-6f799a2eacc4"},"vehicle_type_id":"4","last_reported":1713553591,"current_range_meters":400,"station_id":"ce4bh692rcd13ifvqea0","pricing_plan_id":"cebpf4jnsgd1na2vs0mg"},{"bike_id":"224d76d4-ea66-46bf-9c65-3f9798bfacdb","system_id":"levelo_inurba_marseille","lat":43.292644,"lon":5.384257,"is_reserved":false,"is_disabled":false,"rental_uris":{"android":"levelo://app?vid=224d76d4-ea66-46bf-9c65-3f9798bfacdb","ios":"levelo://app?vid=224d76d4-ea66-46bf-9c65-3f9798bfacdb"},"vehicle_type_id":"4","last_reported":1713553591,"current_range_meters":3600,"station_id":"ce4bh692rcd13ifvqea0","pricing_plan_id":"cebpf4jnsgd1na2vs0mg"},{"bike_id":"14b7b1a2-79a7-4b0c-baf8-70e934a7bf9a","system_id":"levelo_inurba_marseille","lat":43.29267,"lon":5.3844,"is_reserved":false,"is_disabled":false,"rental_uris":{"android":"levelo://app?vid=14b7b1a2-79a7-4b0c-baf8-70e934a7bf9a","ios":"levelo://app?vid=14b7b1a2-79a7-4b0c-baf8-70e934a7bf9a"},"vehicle_type_id":"4","last_reported":1713553591,"current_range_meters":0,"station_id":"ce4bh692rcd13ifvqea0","pricing_plan_id":"cebpf4jnsgd1na2vs0mg"},{"bike_id":"a29544a9-457f-4a1d-af62-e956273904c0","system_id":"levelo_inurba_marseille","lat":43.292658,"lon":5.38438,"is_reserved":false,"is_disabled":false,"rental_uris":{"android":"levelo://app?vid=a29544a9-457f-4a1d-af62-e956273904c0","ios":"levelo://app?vid=a29544a9-457f-4a1d-af62-e956273904c0"},"vehicle_type_id":"4","last_reported":1713553591,"current_range_meters":10400,"station_id":"ce4bh692rcd13ifvqea0","pricing_plan_id":"cebpf4jnsgd1na2vs0mg"},{"bike_id":"54d3e35e-770c-4204-b8cb-1b72a7088bfd","system_id":"levelo_inurba_marseille","lat":43.29268,"lon":5.38443,"is_reserved":false,"is_disabled":false,"rental_uris":{"android":"levelo://app?vid=54d3e35e-770c-4204-b8cb-1b72a7088bfd","ios":"levelo://app?vid=54d3e35e-770c-4204-b8cb-1b72a7088bfd"},"vehicle_type_id":"4","last_reported":1713553591,"current_range_meters":7600,"station_id":"ce4bh692rcd13ifvqea0","pricing_plan_id":"cebpf4jnsgd1na2vs0mg"},{"bike_id":"22fcae69-f94e-4419-8bb8-adbe478e1812","system_id":"levelo_inurba_marseille","lat":43.29267,"lon":5.38441,"is_reserved":false,"is_disabled":false,"rental_uris":{"android":"levelo://app?vid=22fcae69-f94e-4419-8bb8-adbe478e1812","ios":"levelo://app?vid=22fcae69-f94e-4419-8bb8-adbe478e1812"},"vehicle_type_id":"4","last_reported":1713553591,"current_range_meters":0,"station_id":"ce4bh692rcd13ifvqea0","pricing_plan_id":"cebpf4jnsgd1na2vs0mg"},{"bike_id":"1808a36b-b191-457e-b591-8e7ad3520aee","system_id":"levelo_inurba_marseille","lat":43.285848,"lon":5.350787,"is_reserved":false,"is_disabled":false,"rental_uris":{"android":"levelo://app?vid=1808a36b-b191-457e-b591-8e7ad3520aee","ios":"levelo://app?vid=1808a36b-b191-457e-b591-8e7ad3520aee"},"vehicle_type_id":"4","last_reported":1713553591,"current_range_meters":6800,"station_id":"ce4bhch2rcd13ifvqeug","pricing_plan_id":"cebpf4jnsgd1na2vs0mg"},{"bike_id":"e87ec66b-858b-42ea-a269-63f8708751d8","system_id":"levelo_inurba_marseille","lat":43.2926,"lon":5.38428,"is_reserved":false,"is_disabled":false,"rental_uris":{"android":"levelo://app?vid=e87ec66b-858b-42ea-a269-63f8708751d8","ios":"levelo://app?vid=e87ec66b-858b-42ea-a269-63f8708751d8"},"vehicle_type_id":"4","last_reported":1713553591,"current_range_meters":800,"station_id":"ce4bh692rcd13ifvqea0","pricing_plan_id":"cebpf4jnsgd1na2vs0mg"},{"bike_id":"9fe207c4-2467-4d50-9bcf-f3d4e1d6e2cd","system_id":"levelo_inurba_marseille","lat":43.292644,"lon":5.384257,"is_reserved":false,"is_disabled":false,"rental_uris":{"android":"levelo://app?vid=9fe207c4-2467-4d50-9bcf-f3d4e1d6e2cd","ios":"levelo://app?vid=9fe207c4-2467-4d50-9bcf-f3d4e1d6e2cd"},