{"last_updated":1744028396,"ttl":60,"version":"2.2","data":{"bikes":[{"bike_id":"f86cc2cd-7959-4959-bc7f-b10918cdd349","system_id":"levelo_inurba_marseille","lat":43.241683,"lon":5.363968,"is_reserved":false,"is_disabled":true,"rental_uris":{"android":"levelo://app?vid=f86cc2cd-7959-4959-bc7f-b10918cdd349","ios":"levelo://app?vid=f86cc2cd-7959-4959-bc7f-b10918cdd349"},"vehicle_type_id":"4","last_reported":1744028396,"current_range_meters":2800,"station_id":"ce4bh412rcd13ifvqdr0","pricing_plan_id":"cebpf4jnsgd1na2vs0mg"},{"bike_id":"13430d18-da19-4ce5-8bfa-49718f4afe55","system_id":"levelo_inurba_marseille","lat":43.28418,"lon":5.34985,"is_reserved":false,"is_disabled":false,"rental_uris":{"android":"levelo://app?vid=13430d18-da19-4ce5-8bfa-49718f4afe55","ios":"levelo://app?vid=13430d18-da19-4ce5-8bfa-49718f4afe55"},"vehicle_type_id":"4","last_reported":1744028396,"current_range_meters":3200,"station_id":"ce4bhbh2rcd13ifvqepg","pricing_plan_id":"cebpf4jnsgd1na2vs0mg"},{"bike_id":"2c37e539-5b05-4b5a-a92c-226563782d8a","system_id":"levelo_inurba_marseille","lat":43.268036,"lon":5.40267,"is_reserved":false,"is_disabled":false,"rental_uris":{"android":"levelo://app?vid=2c37e539-5b05-4b5a-a92c-226563782d8a","ios":"levelo://app?vid=2c37e539-5b05-4b5a-a92c-226563782d8a"},"vehicle_type_id":"4","last_reported":1744028396,"current_range_meters":3600,"station_id":"ce501612rcd8frsf0b60","pricing_plan_id":"cebpf4jnsgd1na2vs0mg"},{"bike_id":"d81edb5e-2943-49a3-aba1-d8763d7056c0","system_id":"levelo_inurba_marseille","lat":43.296564,"lon":5.381295,"is_reserved":false,"is_disabled":false,"rental_uris":{"android":"levelo://app?vid=d81edb5e-2943-49a3-aba1-d8763d7056c0","ios":"levelo://app?vid=d81edb5e-2943-49a3-aba1-d8763d7056c0"},"vehicle_type_id":"4","last_reported":1744028396,"current_range_meters":3600,"station_id":"ce4bh2h2rcd13ifvqdh0","pricing_plan_id":"cebpf4jnsgd1na2vs0mg"},{"bike_id":"eb79d1f9-7c91-4ea2-b5f8-796189743e1a","system_id":"levelo_inurba_marseille","lat":43.34252,"lon":5.38115,"is_reserved":false,"is_disabled":true,"rental_uris":{"android":"levelo://app?vid=eb79d1f9-7c91-4ea2-b5f8-796189743e1a","ios":"levelo://app?vid=eb79d1f9-7c91-4ea2-b5f8-796189743e1a"},"vehicle_type_id":"4","last_reported":1744028396,"current_range_meters":4000,"station_id":"","pricing_plan_id":"cebpf4jnsgd1na2vs0mg"},{"bike_id":"46aaf249-f504-46ae-93ce-7245839b78b5","system_id":"levelo_inurba_marseille","lat":43.26206,"lon":5.37905,"is_reserved":false,"is_disabled":true,"rental_uris":{"android":"levelo://app?vid=46aaf249-f504-46ae-93ce-7245839b78b5","ios":"levelo://app?vid=46aaf249-f504-46ae-93ce-7245839b78b5"},"vehicle_type_id":"4","last_reported":1744028396,"current_range_meters":4000,"station_id":"ce4bhjp2rcd13ifvqg90","pricing_plan_id":"cebpf4jnsgd1na2vs0mg"},{"bike_id":"79e58362-38ab-498c-a3af-9ac95622d36c","system_id":"levelo_inurba_marseille","lat":43.303492,"lon":5.418758,"is_reserved":false,"is_disabled":false,"rental_uris":{"android":"levelo://app?vid=79e58362-38ab-498c-a3af-9ac95622d36c","ios":"levelo://app?vid=79e58362-38ab-498c-a3af-9ac95622d36c"},"vehicle_type_id":"4","last_reported":1744028396,"current_range_meters":4000,"station_id":"ce4bhop2rcd13ifvqh7g","pricing_plan_id":"cebpf4jnsgd1na2vs0mg"},{"bike_id":"31c8b10c-96c2-4fd4-b13d-d0a96ccd8a04","system_id":"levelo_inurba_marseille","lat":43.27941,"lon":5.41059,"is_reserved":false,"is_disabled":false,"rental_uris":{"android":"levelo://app?vid=31c8b10c-96c2-4fd4-b13d-d0a96ccd8a04","ios":"levelo://app?vid=31c8b10c-96c2-4fd4-b13d-d0a96ccd8a04"},"vehicle_type_id":"4","last_reported":1744028396,"current_range_meters":4000,"station_id":"ce4bhnp2rcd13ifvqh0g","pricing_plan_id":"cebpf4jnsgd1na2vs0mg"},{"bike_id":"620b9284-a283-4a50-82ff-ec39b41f1a89","system_id":"levelo_inurba_marseille","lat":43.30404,"lon":5.3784,"is_reserved":false,"is_disabled":false,"rental_uris":{"android":"levelo://app?vid=620b9284-a283-4a50-82ff-ec39b41f1a89","ios":"levelo://app?vid=620b9284-a283-4a50-82ff-ec39b41f1a89"},"vehicle_type_id":"4","last_reported":1744028396,"current_range_meters":4000,"station_id":"","pricing_plan_id":"cebpf4jnsgd1na2vs0mg"},{"bike_id":"2bd0252e-e6aa-444f-933b-a052fd77f984","system_id":"levelo_inurba_marseille","lat":43.25907,"lon":5.40881,"is_reserved":false,"is_disabled":false,"rental_uris":{"android":"levelo://app?vid=2bd0252e-e6aa-444f-933b-a052fd77f984","ios":"levelo://app?vid=2bd0252e-e6aa-444f-933b-a052fd77f984"},"vehicle_type_id":"4","last_reported":1744028396,"current_range_meters":4000,"station_id":"ce4bhm92rcd13ifvqglg","pricing_plan_id":"cebpf4jnsgd1na2vs0mg"},{"bike_id":"660d99f1-cadb-413d-82ad-e49e35dc1993","system_id":"levelo_inurba_marseille","lat":43.30951,"lon":5.39046,"is_reserved":false,"is_disabled":false,"rental_uris":{"android":"levelo://app?vid=660d99f1-cadb-413d-82ad-e49e35dc1993","ios":"levelo://app?vid=660d99f1-cadb-413d-82ad-e49e35dc1993"},"vehicle_type_id":"4","last_reported":1744028396,"current_range_meters":4400,"station_id":"ce4bgup2rcd13ifvqco0","pricing_plan_id":"cebpf4jnsgd1na2vs0mg"},{"bike_id":"4815b711-7def-4ca4-828f-f82d5b3e3191","system_id":"levelo_inurba_marseille","lat":43.23153,"lon":5.43728,"is_reserved":false,"is_disabled":false,"rental_uris":{"android":"levelo://app?vid=4815b711-7def-4ca4-828f-f82d5b3e3191","ios":"levelo://app?vid=4815b711-7def-4ca4-828f-f82d5b3e3191"},"vehicle_type_id":"4","last_reported":1744028396,"current_range_meters":4400,"station_id":"ce4bhmp2rcd13ifvqgog","pricing_plan_id":"cebpf4jnsgd1na2vs0mg"},{"bike_id":"68b7e916-c99e-4cc6-9301-199fcf8b7e48","system_id":"levelo_inurba_marseille","lat":43.287219,"lon":5.379309,"is_reserved":false,"is_disabled":false,"rental_uris":{"android":"levelo://app?vid=68b7e916-c99e-4cc6-9301-199fcf8b7e48","ios":"levelo://app?vid=68b7e916-c99e-4cc6-9301-199fcf8b7e48"},"vehicle_type_id":"4","last_reported":1744028396,"current_range_meters":4400,"station_id":"ce4bh9p2rcd13ifvqec0","pricing_plan_id":"cebpf4jnsgd1na2vs0mg"},{"bike_id":"9278748f-fc10-494c-984d-5d002d924cec","system_id":"levelo_inurba_marseille","lat":43.27493,"lon":5.42448,"is_reserved":false,"is_disabled":false,"rental_uris":{"android":"levelo://app?vid=9278748f-fc10-494c-984d-5d002d924cec","ios":"levelo://app?vid=9278748f-fc10-494c-984d-5d002d924cec"},"vehicle_type_id":"4","last_reported":1744028396,"current_range_meters":4800,"station_id":"ce4bhn92rcd13ifvqgrg","pricing_plan_id":"cebpf4jnsgd1na2vs0mg"},{"bike_id":"f7c4d7b3-cb80-4933-9e2f-cba0d1ec9831","system_id":"levelo_inurba_marseille","lat":43.32488,"lon":5.36576,"is_reserved":false,"is_disabled":false,"rental_uris":{"android":"levelo://app?vid=f7c4d7b3-cb80-4933-9e2f-cba0d1ec9831","ios":"levelo://app?vid=f7c4d7b3-cb80-4933-9e2f-cba0d1ec9831"},"vehicle_type_id":"4","last_reported":1744028396,"current_range_meters":5600,"station_id":"ce4bhs12rcd13ifvqhvg","pricing_plan_id":"cebpf4jnsgd1na2vs0mg"},{"bike_id":"399d01c1-b71b-4de6-8285-7de493f8ca17","system_id":"levelo_inurba_marseille","lat":43.30083,"lon":5.39078,"is_reserved":false,"is_disabled":false,"rental_uris":{"android":"levelo://app?vid=399d01c1-b71b-4de6-8285-7de493f8ca17","ios":"levelo://app?vid=399d01c1-b71b-4de6-8285-7de493f8ca17"},"vehicle_type_id":"4","last_reported":1744028396,"current_range_meters":5600,"station_id":"ce4bh192rcd13ifvqdb0","pricing_plan_id":"cebpf4jnsgd1na2vs0mg"},{"bike_id":"38ae81b3-edcc-4763-8880-8b0fde623123","system_id":"levelo_inurba_marseille","lat":43.2315,"lon":5.43728,"is_reserved":false,"is_disabled":false,"rental_uris":{"android":"levelo://app?vid=38ae81b3-edcc-4763-8880-8b0fde623123","ios":"levelo://app?vid=38ae81b3-edcc-4763-8880-8b0fde623123"},"vehicle_type_id":"4","last_reported":1744028396,"current_range_meters":6000,"station_id":"ce4bhmp2rcd13ifvqgog","pricing_plan_id":"cebpf4jnsgd1na2vs0mg"},{"bike_id":"1d6f3057-f8f7-4009-89c3-a3edbfb45073","system_id":"levelo_inurba_marseille","lat":43.28139,"lon":5.4265,"is_reserved":false,"is_disabled":false,"rental_uris":{"android":"levelo://app?vid=1d6f3057-f8f7-4009-89c3-a3edbfb45073","ios":"levelo://app?vid=1d6f3057-f8f7-4009-89c3-a3edbfb45073"},"vehicle_type_id":"4","last_reported":1744028396,"current_range_meters":6400,"station_id":"ce4bhnh2rcd13ifvqgug","pricing_plan_id":"cebpf4jnsgd1na2vs0mg"},{"bike_id":"85b5802f-c53f-4b16-a2b8-76aacc9ae178","system_id":"levelo_inurba_marseille","lat":43.22926,"lon":5.35381,"is_reserved":false,"is_disabled":false,"rental_uris":{"android":"levelo://app?vid=85b5802f-c53f-4b16-a2b8-76aacc9ae178","ios":"levelo://app?vid=85b5802f-c53f-4b16-a2b8-76aacc9ae178"},"vehicle_type_id":"4","last_reported":1744028396,"current_range_meters":6400,"station_id":"cpo3532slgdg3j2ikp40","pricing_plan_id":"cebpf4jnsgd1na2vs0mg"},{"bike_id":"ad4d36ee-4ace-4017-b1a2-48c4f7e23651","system_id":"levelo_inurba_marseille","lat":43.2591,"lon":5.40866,"is_reserved":false,"is_disabled":false,"rental_uris":{"android":"levelo://app?vid=ad4d36ee-4ace-4017-b1a2-48c4f7e23651","ios":"levelo://app?vid=ad4d36ee-4ace-4017-b1a2-48c4f7e23651"},"vehicle_type_id":"4","last_reported":1744028396,"current_range_meters":6800,"station_id":"ce4bhm92rcd13ifvqglg","pricing_plan_id":"cebpf4jnsgd1na2vs0mg"},{"bike_id":"78505195-b1f7-4255-bb59-0959f6e3552f","system_id":"levelo_inurba_marseille","lat":43.25403,"lon":5.41905,"is_reserved":false,"is_disabled":false,"rental_uris":{"android":"levelo://app?vid=78505195-b1f7-4255-bb59-0959f6e3552f","ios":"levelo://app?vid=78505195-b1f7-4255-bb59-0959f6e3552f"},"vehicle_type_id":"4","last_reported":1744028396,"current_range_meters":7200,"station_id":"","pricing_plan_id":"cebpf4jnsgd1na2vs0mg"},{"bike_id":"33455205-ab4a-4189-a49c-dfe86ae13355","system_id":"levelo_inurba_marseille","lat":43.25119,"lon":5.40332,"is_reserved":false,"is_disabled":false,"rental_uris":{"android":"levelo://app?vid=33455205-ab4a-4189-a49c-dfe86ae13355","ios":"levelo://app?vid=33455205-ab4a-4189-a49c-dfe86ae13355"},"vehicle_type_id":"4","last_reported":1744028396,"current_range_meters":7200,"station_id":"ce4bhlh2rcd13ifvqgig","pricing_plan_id":"cebpf4jnsgd1na2vs0mg"},{"bike_id":"2fe9a66c-2512-40ef-8d0d-a70ae0137933","system_id":"levelo_inurba_marseille","lat":43.30232,"lon":5.40053,"is_reserved":false,"is_disabled":true,"rental_uris":{"android":"levelo://app?vid=2fe9a66c-2512-40ef-8d0d-a70ae0137933","ios":"levelo://app?vid=2fe9a66c-2512-40ef-8d0d-a70ae0137933"},"vehicle_type_id":"4","last_reported":1744028396,"current_range_meters":7200,"station_id":"ce4bgvh2rcd13ifvqcs0","pricing_plan_id":"cebpf4jnsgd1na2vs0mg"},{"bike_id":"599cd34c-20ae-429b-a3d3-757fcae68040","system_id":"levelo_inurba_marseille","lat":43.31229,"lon":5.36872,"is_reserved":false,"is_disabled":false,"rental_uris":{"android":"levelo://app?vid=599cd34c-20ae-429b-a3d3-757fcae68040","ios":"levelo://app?vid=599cd34c-20ae-429b-a3d3-757fcae68040"},"vehicle_type_id":"4","last_reported":1744028396,"current_range_meters":7200,"station_id":"ce4bgl92rcd13ifvqbq0","pricing_plan_id":"cebpf4jnsgd1na2vs0mg"},{"bike_id":"da2d057d-b3e2-4a7b-8f1b-e83ff2e14dcf","system_id":"levelo_inurba_marseille","lat":43.25003,"lon":5.38921,"is_reserved":false,"is_disabled":false,"rental_uris":{"android":"levelo://app?vid=da2d057d-b3e2-4a7b-8f1b-e83ff2e14dcf","ios":"levelo://app?vid=da2d057d-b3e2-4a7b-8f1b-e83ff2e14dcf"},"vehicle_type_id":"4","last_reported":1744028396,"current_range_meters":7200,"station_id":"ce4bhgp2rcd13ifvqfd0","pricing_plan_id":"cebpf4jnsgd1na2vs0mg"},{"bike_id":"6b79c190-08a0-493c-b3e0-7480ca940237","system_id":"levelo_inurba_marseille","lat":43.25933,"lon":5.40925,"is_reserved":false,"is_disabled":false,"rental_uris":{"android":"levelo://app?vid=6b79c190-08a0-493c-b3e0-7480ca940237","ios":"levelo://app?vid=6b79c190-08a0-493c-b3e0-7480ca940237"},"vehicle_type_id":"4","last_reported":1744028396,"current_range_meters":7200,"station_id":"ce4bhm92rcd13ifvqglg","pricing_plan_id":"cebpf4jnsgd1na2vs0mg"},{"bike_id":"00393ee2-317d-4e98-a30d-fd25773ef49f","system_id":"levelo_inurba_marseille","lat":43.35211,"lon":5.35873,"is_reserved":false,"is_disabled":false,"rental_uris":{"android":"levelo://app?vid=00393ee2-317d-4e98-a30d-fd25773ef49f","ios":"levelo://app?vid=00393ee2-317d-4e98-a30d-fd25773ef49f"},"vehicle_type_id":"4","last_reported":1744028396,"current_range_meters":7200,"station_id":"","pricing_plan_id":"cebpf4jnsgd1na2vs0mg"},{"bike_id":"9451db43-aac8-4c9f-83f8-881c49333870","system_id":"levelo_inurba_marseille","lat":43.30561,"lon":5.36531,"is_reserved":false,"is_disabled":false,"rental_uris":{"android":"levelo://app?vid=9451db43-aac8-4c9f-83f8-881c49333870","ios":"levelo://app?vid=9451db43-aac8-4c9f-83f8-881c49333870"},"vehicle_type_id":"4","last_reported":1744028396,"current_range_meters":7200,"station_id":"ce4bgs12rcd13ifvqcag","pricing_plan_id":"cebpf4jnsgd1na2vs0mg"},{"bike_id":"57c8c690-d51c-494d-a34b-6d79b84fd0dc","system_id":"levelo_inurba_marseille","lat":43.26229,"lon":5.40456,"is_reserved":false,"is_disabled":false,"rental_uris":{"android":"levelo://app?vid=57c8c690-d51c-494d-a34b-6d79b84fd0dc","ios":"levelo://app?vid=57c8c690-d51c-494d-a34b-6d79b84fd0dc"},"vehicle_type_id":"4","last_reported":1744028396,"current_range_meters":7200,"station_id":"ce4bhmh2rcd13ifvqgmg","pricing_plan_id":"cebpf4jnsgd1na2vs0mg"},{"bike_id":"c5839f54-bef9-4a08-b316-2e6cff1ea8d7","system_id":"levelo_inurba_marseille","lat":43.23147,"lon":5.43706,"is_reserved":false,"is_disabled":false,"rental_uris":{"android":"levelo://app?vid=c5839f54-bef9-4a08-b316-2e6cff1ea8d7","ios":"levelo://app?vid=c5839f54-bef9-4a08-b316-2e6cff1ea8d7"},"vehicle_type_id":"4","last_reported":1744028396,"current_range_meters":7200,"station_id":"ce4bhmp2rcd13ifvqgog","pricing_plan_id":"cebpf4jnsgd1na2vs0mg"},{"bike_id":"5f76fc46-d715-4dce-a0e2-76dbb30b0a9a","system_id":"levelo_inurba_marseille","lat":43.25928,"lon":5.40908,"is_reserved":false,"is_disabled":false,"rental_uris":{"android":"levelo://app?vid=5f76fc46-d715-4dce-a0e2-76dbb30b0a9a","ios":"levelo://app?vid=5f76fc46-d715-4dce-a0e2-76dbb30b0a9a"},"vehicle_type_id":"4","last_reported":1744028396,"current_range_meters":7200,"station_id":"ce4bhm92rcd13ifvqglg","pricing_plan_id":"cebpf4jnsgd1na2vs0mg"},{"bike_id":"1f8d1e21-f657-42c0-bf7b-10b968483646","system_id":"levelo_inurba_marseille","lat":43.312,"lon":5.36878,"is_reserved":false,"is_disabled":false,"rental_uris":{"android":"levelo://app?vid=1f8d1e21-f657-42c0-bf7b-10b968483646","ios":"levelo://app?vid=1f8d1e21-f657-42c0-bf7b-10b968483646"},"vehicle_type_id":"4","last_reported":1744028396,"current_range_meters":7200,"station_id":"ce4bgl92rcd13ifvqbq0","pricing_plan_id":"cebpf4jnsgd1na2vs0mg"},{"bike_id":"104fa708-46b3-4372-bb3d-5a274078b566","system_id":"levelo_inurba_marseille","lat":43.23159,"lon":5.43718,"is_reserved":false,"is_disabled":false,"rental_uris":{"android":"levelo://app?vid=104fa708-46b3-4372-bb3d-5a274078b566","ios":"levelo://app?vid=104fa708-46b3-4372-bb3d-5a274078b566"},"vehicle_type_id":"4","last_reported":1744028396,"current_range_meters":7200,"station_id":"ce4bhmp2rcd13ifvqgog","pricing_plan_id":"cebpf4jnsgd1na2vs0mg"},{"bike_id":"f88d52bd-908d-4adf-973a-a744389759a8","system_id":"levelo_inurba_marseille","lat":43.30433,"lon":5.39756,"is_reserved":false,"is_disabled":false,"rental_uris":{"android":"levelo://app?vid=f88d52bd-908d-4adf-973a-a744389759a8","ios":"levelo://app?vid=f88d52bd-908d-4adf-973a-a744389759a8"},"vehicle_type_id":"4","last_reported":1744028396,"current_range_meters":7200,"station_id":"ce4bh092rcd13ifvqd20","pricing_plan_id":"cebpf4jnsgd1na2vs0mg"},{"bike_id":"136b6e45-ee21-453e-aa22-e07947db9071","system_id":"levelo_inurba_marseille","lat":43.231555,"lon":5.436989,"is_reserved":false,"is_disabled":true,"rental_uris":{"android":"levelo://app?vid=136b6e45-ee21-453e-aa22-e07947db9071","ios":"levelo://app?vid=136b6e45-ee21-453e-aa22-e07947db9071"},"vehicle_type_id":"4","last_reported":1744028396,"current_range_meters":7200,"station_id":"ce4bhmp2rcd13ifvqgog","pricing_plan_id":"cebpf4jnsgd1na2vs0mg"},{"bike_id":"ec680a0e-e0f2-4b0e-b08f-efa836c4acea","system_id":"levelo_inurba_marseille","lat":43.30148,"lon":5.388749,"is_reserved":false,"is_disabled":false,"rental_uris":{"android":"levelo://app?vid=ec680a0e-e0f2-4b0e-b08f-efa836c4acea","ios":"levelo://app?vid=ec680a0e-e0f2-4b0e-b08f-efa836c4acea"},"vehicle_type_id":"4","last_reported":1744028396,"current_range_meters":8000,"station_id":"ce4bh0h2rcd13ifvqd40","pricing_plan_id":"cebpf4jnsgd1na2vs0mg"},{"bike_id":"72543552-8188-4373-8db0-bd2f24c14e7b","system_id":"levelo_inurba_marseille","lat":43.32286,"lon":5.37652,"is_reserved":false,"is_disabled":false,"rental_uris":{"android":"levelo://app?vid=72543552-8188-4373-8db0-bd2f24c14e7b","ios":"levelo://app?vid=72543552-8188-4373-8db0-bd2f24c14e7b"},"vehicle_type_id":"4","last_reported":1744028396,"current_range_meters":8000,"station_id":"","pricing_plan_id":"cebpf4jnsgd1na2vs0mg"},{"bike_id":"eb3e148a-ca72-4987-82c4-a76fbd3dc65b","system_id":"levelo_inurba_marseille","lat":43.29264,"lon":5.376293,"is_reserved":false,"is_disabled":false,"rental_uris":{"android":"levelo://app?vid=eb3e148a-ca72-4987-82c4-a76fbd3dc65b","ios":"levelo://app?vid=eb3e148a-ca72-4987-82c4-a76fbd3dc65b"},"vehicle_type_id":"4","last_reported":1744028396,"current_range_meters":8000,"station_id":"ce4bgi12rcd13ifvqb80","pricing_plan_id":"cebpf4jnsgd1na2vs0mg"},{"bike_id":"590bd0e2-9f1d-4e6f-9e37-05bb0e5ae5dc","system_id":"levelo_inurba_marseille","lat":43.29858,"lon":5.36398,"is_reserved":false,"is_disabled":false,"rental_uris":{"android":"levelo://app?vid=590bd0e2-9f1d-4e6f-9e37-05bb0e5ae5dc","ios":"levelo://app?vid=590bd0e2-9f1d-4e6f-9e37-05bb0e5ae5dc"},"vehicle_type_id":"4","last_reported":1744028396,"current_range_meters":8000,"station_id":"","pricing_plan_id":"cebpf4jnsgd1na2vs0mg"},{"bike_id":"5561e55a-111d-4ff5-9822-92fb8f2e93e2","system_id":"levelo_inurba_marseille","lat":43.24155,"lon":5.39706,"is_reserved":false,"is_disabled":false,"rental_uris":{"android":"levelo://app?vid=5561e55a-111d-4ff5-9822-92fb8f2e93e2","ios":"levelo://app?vid=5561e55a-111d-4ff5-9822-92fb8f2e93e2"},"vehicle_type_id":"4","last_reported":1744028396,"current_range_meters":8000,"station_id":"ce4bhn12rcd13ifvqgpg","pricing_plan_id":"cebpf4jnsgd1na2vs0mg"},{"bike_id":"2cd7ef9b-a726-4134-9830-a54c0abc7b06","system_id":"levelo_inurba_marseille","lat":43.24192,"lon":5.39718,"is_reserved":false,"is_disabled":false,"rental_uris":{"android":"levelo://app?vid=2cd7ef9b-a726-4134-9830-a54c0abc7b06","ios":"levelo://app?vid=2cd7ef9b-a726-4134-9830-a54c0abc7b06"},"vehicle_type_id":"4","last_reported":1744028396,"current_range_meters":8000,"station_id":"ce4bhn12rcd13ifvqgpg","pricing_plan_id":"cebpf4jnsgd1na2vs0mg"},{"bike_id":"aba5e844-f429-4fca-8fbd-34616f5265a2","system_id":"levelo_inurba_marseille","lat":43.28172,"lon":5.42657,"is_reserved":false,"is_disabled":false,"rental_uris":{"android":"levelo://app?vid=aba5e844-f429-4fca-8fbd-34616f5265a2","ios":"levelo://app?vid=aba5e844-f429-4fca-8fbd-34616f5265a2"},"vehicle_type_id":"4","last_reported":1744028396,"current_range_meters":8000,"station_id":"ce4bhnh2rcd13ifvqgug","pricing_plan_id":"cebpf4jnsgd1na2vs0mg"},{"bike_id":"b6cc2813-4f4e-4e04-ad33-c2ed8d1712c3","system_id":"levelo_inurba_marseille","lat":43.279424,"lon":5.410504,"is_reserved":false,"is_disabled":false,"rental_uris":{"android":"levelo://app?vid=b6cc2813-4f4e-4e04-ad33-c2ed8d1712c3","ios":"levelo://app?vid=b6cc2813-4f4e-4e04-ad33-c2ed8d1712c3"},"vehicle_type_id":"4","last_reported":1744028396,"current_range_meters":8000,"station_id":"ce4bhnp2rcd13ifvqh0g","pricing_plan_id":"cebpf4jnsgd1na2vs0mg"},{"bike_id":"f56fa8c2-6991-4db5-9b1b-225fe2c50caf","system_id":"levelo_inurba_marseille","lat":43.28156,"lon":5.42673,"is_reserved":false,"is_disabled":false,"rental_uris":{"android":"levelo://app?vid=f56fa8c2-6991-4db5-9b1b-225fe2c50caf","ios":"levelo://app?vid=f56fa8c2-6991-4db5-9b1b-225fe2c50caf"},"vehicle_type_id":"4","last_reported":1744028396,"current_range_meters":8000,"station_id":"ce4bhnh2rcd13ifvqgug","pricing_plan_id":"cebpf4jnsgd1na2vs0mg"},{"bike_id":"ce169659-2d92-4bbb-86e1-d48cac84d53d","system_id":"levelo_inurba_marseille","lat":43.28678,"lon":5.38681,"is_reserved":false,"is_disabled":false,"rental_uris":{"android":"levelo://app?vid=ce169659-2d92-4bbb-86e1-d48cac84d53d","ios":"levelo://app?vid=ce169659-2d92-4bbb-86e1-d48cac84d53d"},"vehicle_type_id":"4","last_reported":1744028396,"current_range_meters":8000,"station_id":"ce4bh492rcd13ifvqdug","pricing_plan_id":"cebpf4jnsgd1na2vs0mg"},{"bike_id":"351b921a-1463-4cf6-859d-ca5bd51a6e76","system_id":"levelo_inurba_marseille","lat":43.31805,"lon":5.36838,"is_reserved":false,"is_disabled":false,"rental_uris":{"android":"levelo://app?vid=351b921a-1463-4cf6-859d-ca5bd51a6e76","ios":"levelo://app?vid=351b921a-1463-4cf6-859d-ca5bd51a6e76"},"vehicle_type_id":"4","last_reported":1744028396,"current_range_meters":8000,"station_id":"","pricing_plan_id":"cebpf4jnsgd1na2vs0mg"},{"bike_id":"d66890eb-a849-4361-8afb-8574c3836f73","system_id":"levelo_inurba_marseille","lat":43.260718,"lon":5.387316,"is_reserved":false,"is_disabled":false,"rental_uris":{"android":"levelo://app?vid=d66890eb-a849-4361-8afb-8574c3836f73","ios":"levelo://app?vid=d66890eb-a849-4361-8afb-8574c3836f73"},"vehicle_type_id":"4","last_reported":1744028396,"current_range_meters":8000,"station_id":"","pricing_plan_id":"cebpf4jnsgd1na2vs0mg"},{"bike_id":"a81745a2-65e0-478c-b242-b42cb2ca0a2a","system_id":"levelo_inurba_marseille","lat":43.21742,"lon":5.3461,"is_reserved":false,"is_disabled":false,"rental_uris":{"android":"levelo://app?vid=a81745a2-65e0-478c-b242-b42cb2ca0a2a","ios":"levelo://app?vid=a81745a2-65e0-478c-b242-b42cb2ca0a2a"},"vehicle_type_id":"4","last_reported":1744028396,"current_range_meters":8400,"station_id":"","pricing_plan_id":"cebpf4jnsgd1na2vs0mg"},{"bike_id":"c3e6d442-6282-4c88-9f90-93d85aff9e76","system_id":"levelo_inurba_marseille","lat":43.28145,"lon":5.42646,"is_reserved":false,"is_disabled":false,"rental_uris":{"android":"levelo://app?vid=c3e6d442-6282-4c88-9f90-93d85aff9e76","ios":"levelo://app?vid=c3e6d442-6282-4c88-9f90-93d85aff9e76"},"vehicle_type_id":"4","last_reported":1744028396,"current_range_meters":8400,"station_id":"ce4bhnh2rcd13ifvqgug","pricing_plan_id":"cebpf4jnsgd1na2vs0mg"},{"bike_id":"543d9579-c30a-44ed-a882-f6d52168476e","system_id":"levelo_inurba_marseille","lat":43.21738,"lon":5.34609,"is_reserved":false,"is_disabled":false,"rental_uris":{"android":"levelo://app?vid=543d9579-c30a-44ed-a882-f6d52168476e","ios":"levelo://app?vid=543d9579-c30a-44ed-a882-f6d52168476e"},"vehicle_type_id":"4","last_reported":1744028396,"current_range_meters":8400,"station_id":"","pricing_plan_id":"cebpf4jnsgd1na2vs0mg"},{"bike_id":"06a7f3a0-d818-449a-bb9a-48a776efe9b3","system_id":"levelo_inurba_marseille","lat":43.26683,"lon":5.38273,"is_reserved":false,"is_disabled":false,"rental_uris":{"android":"levelo://app?vid=06a7f3a0-d818-449a-bb9a-48a776efe9b3","ios":"levelo://app?vid=06a7f3a0-d818-449a-bb9a-48a776efe9b3"},"vehicle_type_id":"4","last_reported":1744028396,"current_range_meters":8400,"station_id":"ce4bhg92rcd13ifvqf90","pricing_plan_id":"cebpf4jnsgd1na2vs0mg"},{"bike_id":"c7f769a0-9ae3-4891-a95a-079fb88a4ee7","system_id":"levelo_inurba_marseille","lat":43.25128,"lon":5.40355,"is_reserved":false,"is_disabled":false,"rental_uris":{"android":"levelo://app?vid=c7f769a0-9ae3-4891-a95a-079fb88a4ee7","ios":"levelo://app?vid=c7f769a0-9ae3-4891-a95a-079fb88a4ee7"},"vehicle_type_id":"4","last_reported":1744028396,"current_range_meters":8400,"station_id":"ce4bhlh2rcd13ifvqgig","pricing_plan_id":"cebpf4jnsgd1na2vs0mg"},{"bike_id":"62a7c178-b98e-4f81-a2ae-adb88b3f975b","system_id":"levelo_inurba_marseille","lat":43.292617,"lon":5.376277,"is_reserved":false,"is_disabled":false,"rental_uris":{"android":"levelo://app?vid=62a7c178-b98e-4f81-a2ae-adb88b3f975b","ios":"levelo://app?vid=62a7c178-b98e-4f81-a2ae-adb88b3f975b"},"vehicle_type_id":"4","last_reported":1744028396,"current_range_meters":8400,"station_id":"ce4bgi12rcd13ifvqb80","pricing_plan_id":"cebpf4jnsgd1na2vs0mg"},{"bike_id":"606675f6-9cae-427a-83c9-8a064752327b","system_id":"levelo_inurba_marseille","lat":43.32364,"lon":5.36751,"is_reserved":false,"is_disabled":false,"rental_uris":{"android":"levelo://app?vid=606675f6-9cae-427a-83c9-8a064752327b","ios":"levelo://app?vid=606675f6-9cae-427a-83c9-8a064752327b"},"vehicle_type_id":"4","last_reported":1744028396,"current_range_meters":8400,"station_id":"ce4bhsh2rcd13ifvqi2g","pricing_plan_id":"cebpf4jnsgd1na2vs0mg"},{"bike_id":"3b2c05e8-c7de-4775-a51c-256dad6e96b1","system_id":"levelo_inurba_marseille","lat":43.28718,"lon":5.37948,"is_reserved":false,"is_disabled":false,"rental_uris":{"android":"levelo://app?vid=3b2c05e8-c7de-4775-a51c-256dad6e96b1","ios":"levelo://app?vid=3b2c05e8-c7de-4775-a51c-256dad6e96b1"},"vehicle_type_id":"4","last_reported":1744028396,"current_range_meters":8800,"station_id":"ce4bh9p2rcd13ifvqec0","pricing_plan_id":"cebpf4jnsgd1na2vs0mg"},{"bike_id":"dc22bf1f-f54e-4b7f-b17e-790f722deab6","system_id":"levelo_inurba_marseille","lat":43.31327,"lon":5.39695,"is_reserved":false,"is_disabled":false,"rental_uris":{"android":"levelo://app?vid=dc22bf1f-f54e-4b7f-b17e-790f722deab6","ios":"levelo://app?vid=dc22bf1f-f54e-4b7f-b17e-790f722deab6"},"vehicle_type_id":"4","last_reported":1744028396,"current_range_meters":8800,"station_id":"ce4bgvp2rcd13ifvqcu0","pricing_plan_id":"cebpf4jnsgd1na2vs0mg"},{"bike_id":"8a38320c-a733-4cf5-8c8e-152497fe8f8f","system_id":"levelo_inurba_marseille","lat":43.281523,"lon":5.426381,"is_reserved":false,"is_disabled":false,"rental_uris":{"android":"levelo://app?vid=8a38320c-a733-4cf5-8c8e-152497fe8f8f","ios":"levelo://app?vid=8a38320c-a733-4cf5-8c8e-152497fe8f8f"},"vehicle_type_id":"4","last_reported":1744028396,"current_range_meters":8800,"station_id":"","pricing_plan_id":"cebpf4jnsgd1na2vs0mg"},{"bike_id":"23980d64-35b5-4604-ad44-ad65e6bbcdb3","system_id":"levelo_inurba_marseille","lat":43.23148,"lon":5.4371,"is_reserved":false,"is_disabled":false,"rental_uris":{"android":"levelo://app?vid=23980d64-35b5-4604-ad44-ad65e6bbcdb3","ios":"levelo://app?vid=23980d64-35b5-4604-ad44-ad65e6bbcdb3"},"vehicle_type_id":"4","last_reported":1744028396,"current_range_meters":8800,"station_id":"ce4bhmp2rcd13ifvqgog","pricing_plan_id":"cebpf4jnsgd1na2vs0mg"},{"bike_id":"73b23bb4-2613-4432-89f0-a6d9fa02d55d","system_id":"levelo_inurba_marseille","lat":43.25505,"lon":5.3764,"is_reserved":false,"is_disabled":true,"rental_uris":{"android":"levelo://app?vid=73b23bb4-2613-4432-89f0-a6d9fa02d55d","ios":"levelo://app?vid=73b23bb4-2613-4432-89f0-a6d9fa02d55d"},"vehicle_type_id":"4","last_reported":1744028396,"current_range_meters":8800,"station_id":"ce4bhh12rcd13ifvqff0","pricing_plan_id":"cebpf4jnsgd1na2vs0mg"},{"bike_id":"2d6b3f3e-921f-45af-809c-090b5ad1e09f","system_id":"levelo_inurba_marseille","lat":43.26201,"lon":5.37935,"is_reserved":false,"is_disabled":false,"rental_uris":{"android":"levelo://app?vid=2d6b3f3e-921f-45af-809c-090b5ad1e09f","ios":"levelo://app?vid=2d6b3f3e-921f-45af-809c-090b5ad1e09f"},"vehicle_type_id":"4","last_reported":1744028396,"current_range_meters":8800,"station_id":"ce4bhjp2rcd13ifvqg90","pricing_plan_id":"cebpf4jnsgd1na2vs0mg"},{"bike_id":"a9477f50-3832-4e91-8daa-8325a4fecec7","system_id":"levelo_inurba_marseille","lat":43.2582,"lon":5.39441,"is_reserved":false,"is_disabled":false,"rental_uris":{"android":"levelo://app?vid=a9477f50-3832-4e91-8daa-8325a4fecec7","ios":"levelo://app?vid=a9477f50-3832-4e91-8daa-8325a4fecec7"},"vehicle_type_id":"4","last_reported":1744028396,"current_range_meters":8800,"station_id":"ce4bhip2rcd13ifvqft0","pricing_plan_id":"cebpf4jnsgd1na2vs0mg"},{"bike_id":"5a9a168c-3ae7-4c98-8417-23fbf6040d1f","system_id":"levelo_inurba_marseille","lat":43.29604,"lon":5.38104,"is_reserved":false,"is_disabled":false,"rental_uris":{"android":"levelo://app?vid=5a9a168c-3ae7-4c98-8417-23fbf6040d1f","ios":"levelo://app?vid=5a9a168c-3ae7-4c98-8417-23fbf6040d1f"},"vehicle_type_id":"4","last_reported":1744028396,"current_range_meters":8800,"station_id":"ce4bgl12rcd13ifvqbo0","pricing_plan_id":"cebpf4jnsgd1na2vs0mg"},{"bike_id":"1cb84fac-f7ce-4532-93a5-d336cf597c93","system_id":"levelo_inurba_marseille","lat":43.26231,"lon":5.40455,"is_reserved":false,"is_disabled":false,"rental_uris":{"android":"levelo://app?vid=1cb84fac-f7ce-4532-93a5-d336cf597c93","ios":"levelo://app?vid=1cb84fac-f7ce-4532-93a5-d336cf597c93"},"vehicle_type_id":"4","last_reported":1744028396,"current_range_meters":9200,"station_id":"ce4bhmh2rcd13ifvqgmg","pricing_plan_id":"cebpf4jnsgd1na2vs0mg"},{"bike_id":"e0aaaea9-eadf-4f8e-a365-03e1aeed1a0f","system_id":"levelo_inurba_marseille","lat":43.27966,"lon":5.41021,"is_reserved":false,"is_disabled":false,"rental_uris":{"android":"levelo://app?vid=e0aaaea9-eadf-4f8e-a365-03e1aeed1a0f","ios":"levelo://app?vid=e0aaaea9-eadf-4f8e-a365-03e1aeed1a0f"},"vehicle_type_id":"4","last_reported":1744028396,"current_range_meters":9200,"station_id":"ce4bhnp2rcd13ifvqh0g","pricing_plan_id":"cebpf4jnsgd1na2vs0mg"},{"bike_id":"84664750-914f-4773-92f0-ec08ad702917","system_id":"levelo_inurba_marseille","lat":43.26969,"lon":5.36634,"is_reserved":false,"is_disabled":false,"rental_uris":{"android":"levelo://app?vid=84664750-914f-4773-92f0-ec08ad702917","ios":"levelo://app?vid=84664750-914f-4773-92f0-ec08ad702917"},"vehicle_type_id":"4","last_reported":1744028396,"current_range_meters":9200,"station_id":"ce4bgvp2rcd13ifvqcu0","pricing_plan_id":"cebpf4jnsgd1na2vs0mg"},{"bike_id":"a959694d-18ce-4d80-917f-23c91ed81065","system_id":"levelo_inurba_marseille","lat":43.29916,"lon":5.43634,"is_reserved":false,"is_disabled":false,"rental_uris":{"android":"levelo://app?vid=a959694d-18ce-4d80-917f-23c91ed81065","ios":"levelo://app?vid=a959694d-18ce-4d80-917f-23c91ed81065"},"vehicle_type_id":"4","last_reported":1744028396,"current_range_meters":9200,"station_id":"ce4bhpp2rcd13ifvqhfg","pricing_plan_id":"cebpf4jnsgd1na2vs0mg"},{"bike_id":"e4d4dc7a-abcd-4c1d-8017-887f937d011f","system_id":"levelo_inurba_marseille","lat":43.29569,"lon":5.39929,"is_reserved":false,"is_disabled":true,"rental_uris":{"android":"levelo://app?vid=e4d4dc7a-abcd-4c1d-8017-887f937d011f","ios":"levelo://app?vid=e4d4dc7a-abcd-4c1d-8017-887f937d011f"},"vehicle_type_id":"4","last_reported":1744028396,"current_range_meters":9200,"station_id":"ce4bh312rcd13ifvqdj0","pricing_plan_id":"cebpf4jnsgd1na2vs0mg"},{"bike_id":"0cc77cd8-8ea3-4452-a1ad-bd192f89f8a3","system_id":"levelo_inurba_marseille","lat":43.28143,"lon":5.42673,"is_reserved":false,"is_disabled":false,"rental_uris":{"android":"levelo://app?vid=0cc77cd8-8ea3-4452-a1ad-bd192f89f8a3","ios":"levelo://app?vid=0cc77cd8-8ea3-4452-a1ad-bd192f89f8a3"},"vehicle_type_id":"4","last_reported":1744028396,"current_range_meters":9200,"station_id":"ce4bhnh2rcd13ifvqgug","pricing_plan_id":"cebpf4jnsgd1na2vs0mg"},{"bike_id":"30378bc6-6f41-4551-95e2-a9f7c3a4ebae","system_id":"levelo_inurba_marseille","lat":43.26554,"lon":5.37294,"is_reserved":false,"is_disabled":false,"rental_uris":{"android":"levelo://app?vid=30378bc6-6f41-4551-95e2-a9f7c3a4ebae","ios":"levelo://app?vid=30378bc6-6f41-4551-95e2-a9f7c3a4ebae"},"vehicle_type_id":"4","last_reported":1744028396,"current_range_meters":9200,"station_id":"ce4bhg12rcd13ifvqf70","pricing_plan_id":"cebpf4jnsgd1na2vs0mg"},{"bike_id":"03459487-5609-45d6-8672-77ad1a4c94a5","system_id":"levelo_inurba_marseille","lat":43.2315,"lon":5.43725,"is_reserved":false,"is_disabled":false,"rental_uris":{"android":"levelo://app?vid=03459487-5609-45d6-8672-77ad1a4c94a5","ios":"levelo://app?vid=03459487-5609-45d6-8672-77ad1a4c94a5"},"vehicle_type_id":"4","last_reported":1744028396,"current_range_meters":9600,"station_id":"ce4bhmp2rcd13ifvqgog","pricing_plan_id":"cebpf4jnsgd1na2vs0mg"},{"bike_id":"3a6cf4dd-4a04-48a6-bbfb-6b1ea18759b5","system_id":"levelo_inurba_marseille","lat":43.32366,"lon":5.36762,"is_reserved":false,"is_disabled":false,"rental_uris":{"android":"levelo://app?vid=3a6cf4dd-4a04-48a6-bbfb-6b1ea18759b5","ios":"levelo://app?vid=3a6cf4dd-4a04-48a6-bbfb-6b1ea18759b5"},"vehicle_type_id":"4","last_reported":1744028396,"current_range_meters":9600,"station_id":"ce4bhsh2rcd13ifvqi2g","pricing_plan_id":"cebpf4jnsgd1na2vs0mg"},{"bike_id":"e53b9e9b-ac51-4f70-ad60-ed3149b8c178","system_id":"levelo_inurba_marseille","lat":43.31336,"lon":5.37365,"is_reserved":false,"is_disabled":false,"rental_uris":{"android":"levelo://app?vid=e53b9e9b-ac51-4f70-ad60-ed3149b8c178","ios":"levelo://app?vid=e53b9e9b-ac51-4f70-ad60-ed3149b8c178"},"vehicle_type_id":"4","last_reported":1744028396,"current_range_meters":9600,"station_id":"","pricing_plan_id":"cebpf4jnsgd1na2vs0mg"},{"bike_id":"bfd90dc2-9e1f-4d5d-8e90-082315d5271a","system_id":"levelo_inurba_marseille","lat":43.28726,"lon":5.36095,"is_reserved":false,"is_disabled":false,"rental_uris":{"android":"levelo://app?vid=bfd90dc2-9e1f-4d5d-8e90-082315d5271a","ios":"levelo://app?vid=bfd90dc2-9e1f-4d5d-8e90-082315d5271a"},"vehicle_type_id":"4","last_reported":1744028396,"current_range_meters":9600,"station_id":"cki0cbj6b192h4jlfktg","pricing_plan_id":"cebpf4jnsgd1na2vs0mg"},{"bike_id":"1e81c4d2-6637-42bf-8d6d-5d37c0fe2360","system_id":"levelo_inurba_marseille","lat":43.32098,"lon":5.36779,"is_reserved":false,"is_disabled":false,"rental_uris":{"android":"levelo://app?vid=1e81c4d2-6637-42bf-8d6d-5d37c0fe2360","ios":"levelo://app?vid=1e81c4d2-6637-42bf-8d6d-5d37c0fe2360"},"vehicle_type_id":"4","last_reported":1744028396,"current_range_meters":9600,"station_id":"ce4bhrh2rcd13ifvqhug","pricing_plan_id":"cebpf4jnsgd1na2vs0mg"},{"bike_id":"d893a78a-9318-483a-996e-9bec91fd98dc","system_id":"levelo_inurba_marseille","lat":43.31708,"lon":5.43677,"is_reserved":false,"is_disabled":false,"rental_uris":{"android":"levelo://app?vid=d893a78a-9318-483a-996e-9bec91fd98dc","ios":"levelo://app?vid=d893a78a-9318-483a-996e-9bec91fd98dc"},"vehicle_type_id":"4","last_reported":1744028396,"current_range_meters":9600,"station_id":"ce4bhp92rcd13ifvqhcg","pricing_plan_id":"cebpf4jnsgd1na2vs0mg"},{"bike_id":"6d41370e-7131-4808-8e72-850b9a58e9a8","system_id":"levelo_inurba_marseille","lat":43.26058,"lon":5.394,"is_reserved":false,"is_disabled":false,"rental_uris":{"android":"levelo://app?vid=6d41370e-7131-4808-8e72-850b9a58e9a8","ios":"levelo://app?vid=6d41370e-7131-4808-8e72-850b9a58e9a8"},"vehicle_type_id":"4","last_reported":1744028396,"current_range_meters":10000,"station_id":"ce4bhh92rcd13ifvqfj0","pricing_plan_id":"cebpf4jnsgd1na2vs0mg"},{"bike_id":"3860925a-8da5-4278-87ec-934420453d2e","system_id":"levelo_inurba_marseille","lat":43.2407,"lon":5.37772,"is_reserved":false,"is_disabled":false,"rental_uris":{"android":"levelo://app?vid=3860925a-8da5-4278-87ec-934420453d2e","ios":"levelo://app?vid=3860925a-8da5-4278-87ec-934420453d2e"},"vehicle_type_id":"4","last_reported":1744028396,"current_range_meters":10000,"station_id":"ce4bhnp2rcd13ifvqgvg","pricing_plan_id":"cebpf4jnsgd1na2vs0mg"},{"bike_id":"87bda883-ac94-49fc-94c2-3a86e52b4f97","system_id":"levelo_inurba_marseille","lat":43.3076,"lon":5.38339,"is_reserved":false,"is_disabled":false,"rental_uris":{"android":"levelo://app?vid=87bda883-ac94-49fc-94c2-3a86e52b4f97","ios":"levelo://app?vid=87bda883-ac94-49fc-94c2-3a86e52b4f97"},"vehicle_type_id":"4","last_reported":1744028396,"current_range_meters":10000,"station_id":"","pricing_plan_id":"cebpf4jnsgd1na2vs0mg"},{"bike_id":"9389f907-78e2-4c8e-b008-de9739faa63f","system_id":"levelo_inurba_marseille","lat":43.33028,"lon":5.39495,"is_reserved":false,"is_disabled":false,"rental_uris":{"android":"levelo://app?vid=9389f907-78e2-4c8e-b008-de9739faa63f","ios":"levelo://app?vid=9389f907-78e2-4c8e-b008-de9739faa63f"},"vehicle_type_id":"4","last_reported":1744028396,"current_range_meters":10800,"station_id":"","pricing_plan_id":"cebpf4jnsgd1na2vs0mg"},{"bike_id":"5840c1d9-6493-4ce8-8cf9-976afbbec159","system_id":"levelo_inurba_marseille","lat":43.23172,"lon":5.39934,"is_reserved":false,"is_disabled":true,"rental_uris":{"android":"levelo://app?vid=5840c1d9-6493-4ce8-8cf9-976afbbec159","ios":"levelo://app?vid=5840c1d9-6493-4ce8-8cf9-976afbbec159"},"vehicle_type_id":"4","last_reported":1744028396,"current_range_meters":10800,"station_id":"","pricing_plan_id":"cebpf4jnsgd1na2vs0mg"},{"bike_id":"543e8a52-25b8-474c-a2e7-31d0c99c8646","system_id":"levelo_inurba_marseille","lat":43.24193,"lon":5.39741,"is_reserved":false,"is_disabled":false,"rental_uris":{"android":"levelo://app?vid=543e8a52-25b8-474c-a2e7-31d0c99c8646","ios":"levelo://app?vid=543e8a52-25b8-474c-a2e7-31d0c99c8646"},"vehicle_type_id":"4","last_reported":1744028396,"current_range_meters":10800,"station_id":"ce4bhn12rcd13ifvqgpg","pricing_plan_id":"cebpf4jnsgd1na2vs0mg"},{"bike_id":"cc057f14-b1e1-4dee-b107-8741c01c5964","system_id":"levelo_inurba_marseille","lat":43.321025,"lon":5.367782,"is_reserved":false,"is_disabled":true,"rental_uris":{"android":"levelo://app?vid=cc057f14-b1e1-4dee-b107-8741c01c5964","ios":"levelo://app?vid=cc057f14-b1e1-4dee-b107-8741c01c5964"},"vehicle_type_id":"4","last_reported":1744028396,"current_range_meters":10800,"station_id":"ce4bhrh2rcd13ifvqhug","pricing_plan_id":"cebpf4jnsgd1na2vs0mg"},{"bike_id":"e9671249-1333-46ae-9ab3-44e12a646d2a","system_id":"levelo_inurba_marseille","lat":43.29797,"lon":5.40395,"is_reserved":false,"is_disabled":false,"rental_uris":{"android":"levelo://app?vid=e9671249-1333-46ae-9ab3-44e12a646d2a","ios":"levelo://app?vid=e9671249-1333-46ae-9ab3-44e12a646d2a"},"vehicle_type_id":"4","last_reported":1744028396,"current_range_meters":11200,"station_id":"ce4bh112rcd13ifvqd90","pricing_plan_id":"cebpf4jnsgd1na2vs0mg"},{"bike_id":"2a6c70b7-3280-4c58-9c17-d39c1ef6b670","system_id":"levelo_inurba_marseille","lat":43.32362,"lon":5.36738,"is_reserved":false,"is_disabled":false,"rental_uris":{"android":"levelo://app?vid=2a6c70b7-3280-4c58-9c17-d39c1ef6b670","ios":"levelo://app?vid=2a6c70b7-3280-4c58-9c17-d39c1ef6b670"},"vehicle_type_id":"4","last_reported":1744028396,"current_range_meters":11200,"station_id":"ce4bhsh2rcd13ifvqi2g","pricing_plan_id":"cebpf4jnsgd1na2vs0mg"},{"bike_id":"750bc9c2-8244-4f27-a571-77c62d7d6b92","system_id":"levelo_inurba_marseille","lat":43.31269,"lon":5.37735,"is_reserved":false,"is_disabled":false,"rental_uris":{"android":"levelo://app?vid=750bc9c2-8244-4f27-a571-77c62d7d6b92","ios":"levelo://app?vid=750bc9c2-8244-4f27-a571-77c62d7d6b92"},"vehicle_type_id":"4","last_reported":1744028396,"current_range_meters":11200,"station_id":"","pricing_plan_id":"cebpf4jnsgd1na2vs0mg"},{"bike_id":"1d218ff5-da10-4d41-a676-b43c1c254d72","system_id":"levelo_inurba_marseille","lat":43.25716,"lon":5.41114,"is_reserved":false,"is_disabled":false,"rental_uris":{"android":"levelo://app?vid=1d218ff5-da10-4d41-a676-b43c1c254d72","ios":"levelo://app?vid=1d218ff5-da10-4d41-a676-b43c1c254d72"},"vehicle_type_id":"4","last_reported":1744028396,"current_range_meters":11200,"station_id":"ce4bhkp2rcd13ifvqgd0","pricing_plan_id":"cebpf4jnsgd1na2vs0mg"},{"bike_id":"e926ae44-9c36-4909-aca0-768b34034fa9","system_id":"levelo_inurba_marseille","lat":43.31998,"lon":5.38147,"is_reserved":false,"is_disabled":true,"rental_uris":{"android":"levelo://app?vid=e926ae44-9c36-4909-aca0-768b34034fa9","ios":"levelo://app?vid=e926ae44-9c36-4909-aca0-768b34034fa9"},"vehicle_type_id":"4","last_reported":1744028396,"current_range_meters":11200,"station_id":"ce4bhr12rcd13ifvqhpg","pricing_plan_id":"cebpf4jnsgd1na2vs0mg"},{"bike_id":"f0d398b3-0e99-4a60-9edf-0e289b418a47","system_id":"levelo_inurba_marseille","lat":43.30549,"lon":5.3652,"is_reserved":false,"is_disabled":false,"rental_uris":{"android":"levelo://app?vid=f0d398b3-0e99-4a60-9edf-0e289b418a47","ios":"levelo://app?vid=f0d398b3-0e99-4a60-9edf-0e289b418a47"},"vehicle_type_id":"4","last_reported":1744028396,"current_range_meters":11600,"station_id":"ce4bgs12rcd13ifvqcag","pricing_plan_id":"cebpf4jnsgd1na2vs0mg"},{"bike_id":"7e1b6a3d-58ec-44af-a745-ef3d905a50bb","system_id":"levelo_inurba_marseille","lat":43.26204,"lon":5.37954,"is_reserved":false,"is_disabled":false,"rental_uris":{"android":"levelo://app?vid=7e1b6a3d-58ec-44af-a745-ef3d905a50bb","ios":"levelo://app?vid=7e1b6a3d-58ec-44af-a745-ef3d905a50bb"},"vehicle_type_id":"4","last_reported":1744028396,"current_range_meters":11600,"station_id":"ce4bhjp2rcd13ifvqg90","pricing_plan_id":"cebpf4jnsgd1na2vs0mg"},{"bike_id":"298db965-e305-4b18-8431-6a5ac8388e4d","system_id":"levelo_inurba_marseille","lat":43.30297,"lon":5.36875,"is_reserved":false,"is_disabled":false,"rental_uris":{"android":"levelo://app?vid=298db965-e305-4b18-8431-6a5ac8388e4d","ios":"levelo://app?vid=298db965-e305-4b18-8431-6a5ac8388e4d"},"vehicle_type_id":"4","last_reported":1744028396,"current_range_meters":11600,"station_id":"ce4bgqh2rcd13ifvqc5g","pricing_plan_id":"cebpf4jnsgd1na2vs0mg"},{"bike_id":"88dc754a-3da0-4af4-b593-5d7aa740f78c","system_id":"levelo_inurba_marseille","lat":43.3048,"lon":5.37907,"is_reserved":false,"is_disabled":false,"rental_uris":{"android":"levelo://app?vid=88dc754a-3da0-4af4-b593-5d7aa740f78c","ios":"levelo://app?vid=88dc754a-3da0-4af4-b593-5d7aa740f78c"},"vehicle_type_id":"4","last_reported":1744028396,"current_range_meters":12000,"station_id":"ce4bgup2rcd13ifvqcn0","pricing_plan_id":"cebpf4jnsgd1na2vs0mg"},{"bike_id":"31680a03-0208-48c5-8f58-55f2ae922a13","system_id":"levelo_inurba_marseille","lat":43.25919,"lon":5.40895,"is_reserved":false,"is_disabled":false,"rental_uris":{"android":"levelo://app?vid=31680a03-0208-48c5-8f58-55f2ae922a13","ios":"levelo://app?vid=31680a03-0208-48c5-8f58-55f2ae922a13"},"vehicle_type_id":"4","last_reported":1744028396,"current_range_meters":12000,"station_id":"ce4bhm92rcd13ifvqglg","pricing_plan_id":"cebpf4jnsgd1na2vs0mg"},{"bike_id":"73272853-088e-4b39-8e6e-94fe10fc353c","system_id":"levelo_inurba_marseille","lat":43.33767,"lon":5.37485,"is_reserved":false,"is_disabled":true,"rental_uris":{"android":"levelo://app?vid=73272853-088e-4b39-8e6e-94fe10fc353c","ios":"levelo://app?vid=73272853-088e-4b39-8e6e-94fe10fc353c"},"vehicle_type_id":"4","last_reported":1744028396,"current_range_meters":12000,"station_id":"","pricing_plan_id":"cebpf4jnsgd1na2vs0mg"},{"bike_id":"9e50b4b3-f8a9-4c59-8956-8916c8ba0bb5","system_id":"levelo_inurba_marseille","lat":43.2904,"lon":5.37571,"is_reserved":false,"is_disabled":false,"rental_uris":{"android":"levelo://app?vid=9e50b4b3-f8a9-4c59-8956-8916c8ba0bb5","ios":"levelo://app?vid=9e50b4b3-f8a9-4c59-8956-8916c8ba0bb5"},"vehicle_type_id":"4","last_reported":1744028396,"current_range_meters":12000,"station_id":"ce4bh692rcd13ifvqe90","pricing_plan_id":"cebpf4jnsgd1na2vs0mg"},{"bike_id":"b3955141-b4e4-46ef-9f72-2d6ddb89ac2c","system_id":"levelo_inurba_marseille","lat":43.23143,"lon":5.43716,"is_reserved":false,"is_disabled":false,"rental_uris":{"android":"levelo://app?vid=b3955141-b4e4-46ef-9f72-2d6ddb89ac2c","ios":"levelo://app?vid=b3955141-b4e4-46ef-9f72-2d6ddb89ac2c"},"vehicle_type_id":"4","last_reported":1744028396,"current_range_meters":12000,"station_id":"ce4bhmp2rcd13ifvqgog","pricing_plan_id":"cebpf4jnsgd1na2vs0mg"},{"bike_id":"3ce930b9-c1ba-48e6-a002-d24c311efe7a","system_id":"levelo_inurba_marseille","lat":43.2318,"lon":5.39999,"is_reserved":false,"is_disabled":false,"rental_uris":{"android":"levelo://app?vid=3ce930b9-c1ba-48e6-a002-d24c311efe7a","ios":"levelo://app?vid=3ce930b9-c1ba-48e6-a002-d24c311efe7a"},"vehicle_type_id":"4","last_reported":1744028396,"current_range_meters":12400,"station_id":"ce4bhn12rcd13ifvqgqg","pricing_plan_id":"cebpf4jnsgd1na2vs0mg"},{"bike_id":"53550b70-9243-4a15-a376-11a6dfb6fb43","system_id":"levelo_inurba_marseille","lat":43.29869,"lon":5.39738,"is_reserved":false,"is_disabled":false,"rental_uris":{"android":"levelo://app?vid=53550b70-9243-4a15-a376-11a6dfb6fb43","ios":"levelo://app?vid=53550b70-9243-4a15-a376-11a6dfb6fb43"},"vehicle_type_id":"4","last_reported":1744028396,"current_range_meters":12400,"station_id":"ce4bh0h2rcd13ifvqd50","pricing_plan_id":"cebpf4jnsgd1na2vs0mg"},{"bike_id":"a6280444-7408-4511-b79e-babeaf12e790","system_id":"levelo_inurba_marseille","lat":43.2864,"lon":5.35104,"is_reserved":false,"is_disabled":false,"rental_uris":{"android":"levelo://app?vid=a6280444-7408-4511-b79e-babeaf12e790","ios":"levelo://app?vid=a6280444-7408-4511-b79e-babeaf12e790"},"vehicle_type_id":"4","last_reported":1744028396,"current_range_meters":12400,"station_id":"ce4bhch2rcd13ifvqeug","pricing_plan_id":"cebpf4jnsgd1na2vs0mg"},{"bike_id":"00d712dd-f4ae-44ac-974b-eb382812dbc3","system_id":"levelo_inurba_marseille","lat":43.30133,"lon":5.38064,"is_reserved":false,"is_disabled":false,"rental_uris":{"android":"levelo://app?vid=00d712dd-f4ae-44ac-974b-eb382812dbc3","ios":"levelo://app?vid=00d712dd-f4ae-44ac-974b-eb382812dbc3"},"vehicle_type_id":"4","last_reported":1744028396,"current_range_meters":12400,"station_id":"ce4bgjp2rcd13ifvqbh0","pricing_plan_id":"cebpf4jnsgd1na2vs0mg"},{"bike_id":"8127a379-abcb-448e-b192-b2b588a12b57","system_id":"levelo_inurba_marseille","lat":43.25718,"lon":5.41112,"is_reserved":false,"is_disabled":false,"rental_uris":{"android":"levelo://app?vid=8127a379-abcb-448e-b192-b2b588a12b57","ios":"levelo://app?vid=8127a379-abcb-448e-b192-b2b588a12b57"},"vehicle_type_id":"4","last_reported":1744028396,"current_range_meters":12400,"station_id":"ce4bhkp2rcd13ifvqgd0","pricing_plan_id":"cebpf4jnsgd1na2vs0mg"},{"bike_id":"dd16a989-ad4a-4e44-a661-65cd1e94406a","system_id":"levelo_inurba_marseille","lat":43.26797,"lon":5.39414,"is_reserved":false,"is_disabled":false,"rental_uris":{"android":"levelo://app?vid=dd16a989-ad4a-4e44-a661-65cd1e94406a","ios":"levelo://app?vid=dd16a989-ad4a-4e44-a661-65cd1e94406a"},"vehicle_type_id":"4","last_reported":1744028396,"current_range_meters":12400,"station_id":"ce4bhh12rcd13ifvqfg0","pricing_plan_id":"cebpf4jnsgd1na2vs0mg"},{"bike_id":"f6badd6d-7c01-4364-a05b-585cb882162b","system_id":"levelo_inurba_marseille","lat":43.23155,"lon":5.43704,"is_reserved":false,"is_disabled":false,"rental_uris":{"android":"levelo://app?vid=f6badd6d-7c01-4364-a05b-585cb882162b","ios":"levelo://app?vid=f6badd6d-7c01-4364-a05b-585cb882162b"},"vehicle_type_id":"4","last_reported":1744028396,"current_range_meters":12400,"station_id":"ce4bhmp2rcd13ifvqgog","pricing_plan_id":"cebpf4jnsgd1na2vs0mg"},{"bike_id":"f3e1697d-6322-4b7c-bcd9-bfaaba5adcfb","system_id":"levelo_inurba_marseille","lat":43.31992,"lon":5.38151,"is_reserved":false,"is_disabled":true,"rental_uris":{"android":"levelo://app?vid=f3e1697d-6322-4b7c-bcd9-bfaaba5adcfb","ios":"levelo://app?vid=f3e1697d-6322-4b7c-bcd9-bfaaba5adcfb"},"vehicle_type_id":"4","last_reported":1744028396,"current_range_meters":12400,"station_id":"ce4bhr12rcd13ifvqhpg","pricing_plan_id":"cebpf4jnsgd1na2vs0mg"},{"bike_id":"ce0c4d03-e59b-4fa9-83d9-02feb3bb4033","system_id":"levelo_inurba_marseille","lat":43.30612,"lon":5.37208,"is_reserved":false,"is_disabled":false,"rental_uris":{"android":"levelo://app?vid=ce0c4d03-e59b-4fa9-83d9-02feb3bb4033","ios":"levelo://app?vid=ce0c4d03-e59b-4fa9-83d9-02feb3bb4033"},"vehicle_type_id":"4","last_reported":1744028396,"current_range_meters":12400,"station_id":"ce4bgqh2rcd13ifvqc4g","pricing_plan_id":"cebpf4jnsgd1na2vs0mg"},{"bike_id":"fe25dad1-57f9-45bf-82f3-53a76c90e2f8","system_id":"levelo_inurba_marseille","lat":43.26555,"lon":5.37287,"is_reserved":false,"is_disabled":false,"rental_uris":{"android":"levelo://app?vid=fe25dad1-57f9-45bf-82f3-53a76c90e2f8","ios":"levelo://app?vid=fe25dad1-57f9-45bf-82f3-53a76c90e2f8"},"vehicle_type_id":"4","last_reported":1744028396,"current_range_meters":12800,"station_id":"ce4bhg12rcd13ifvqf70","pricing_plan_id":"cebpf4jnsgd1na2vs0mg"},{"bike_id":"ef16d929-e748-4739-81f2-a0cff713b02f","system_id":"levelo_inurba_marseille","lat":43.294011,"lon":5.373567,"is_reserved":false,"is_disabled":false,"rental_uris":{"android":"levelo://app?vid=ef16d929-e748-4739-81f2-a0cff713b02f","ios":"levelo://app?vid=ef16d929-e748-4739-81f2-a0cff713b02f"},"vehicle_type_id":"4","last_reported":1744028396,"current_range_meters":12800,"station_id":"ce4bgh92rcd13ifvqb40","pricing_plan_id":"cebpf4jnsgd1na2vs0mg"},{"bike_id":"7f849341-935d-4b6d-88b0-0fbbf079e418","system_id":"levelo_inurba_marseille","lat":43.28472,"lon":5.38431,"is_reserved":false,"is_disabled":true,"rental_uris":{"android":"levelo://app?vid=7f849341-935d-4b6d-88b0-0fbbf079e418","ios":"levelo://app?vid=7f849341-935d-4b6d-88b0-0fbbf079e418"},"vehicle_type_id":"4","last_reported":1744028396,"current_range_meters":12800,"station_id":"ce4bh512rcd13ifvqe3g","pricing_plan_id":"cebpf4jnsgd1na2vs0mg"},{"bike_id":"965debe4-081f-4ce1-a884-fcf3ae2cc3a4","system_id":"levelo_inurba_marseille","lat":43.23162,"lon":5.43715,"is_reserved":false,"is_disabled":false,"rental_uris":{"android":"levelo://app?vid=965debe4-081f-4ce1-a884-fcf3ae2cc3a4","ios":"levelo://app?vid=965debe4-081f-4ce1-a884-fcf3ae2cc3a4"},"vehicle_type_id":"4","last_reported":1744028396,"current_range_meters":12800,"station_id":"ce4bhmp2rcd13ifvqgog","pricing_plan_id":"cebpf4jnsgd1na2vs0mg"},{"bike_id":"f778719f-b083-4bd7-bc77-d0a48bb7592d","system_id":"levelo_inurba_marseille","lat":43.31758,"lon":5.39011,"is_reserved":false,"is_disabled":false,"rental_uris":{"android":"levelo://app?vid=f778719f-b083-4bd7-bc77-d0a48bb7592d","ios":"levelo://app?vid=f778719f-b083-4bd7-bc77-d0a48bb7592d"},"vehicle_type_id":"4","last_reported":1744028396,"current_range_meters":16800,"station_id":"ce4bhqp2rcd13ifvqhng","pricing_plan_id":"cebpf4jnsgd1na2vs0mg"},{"bike_id":"adb4ee41-a46b-4f37-a518-a2b370471489","system_id":"levelo_inurba_marseille","lat":43.27324,"lon":5.41115,"is_reserved":false,"is_disabled":true,"rental_uris":{"android":"levelo://app?vid=adb4ee41-a46b-4f37-a518-a2b370471489","ios":"levelo://app?vid=adb4ee41-a46b-4f37-a518-a2b370471489"},"vehicle_type_id":"4","last_reported":1744028396,"current_range_meters":12800,"station_id":"","pricing_plan_id":"cebpf4jnsgd1na2vs0mg"},{"bike_id":"6bb42352-d3ad-4a2f-9f21-9eb6cc41e5ff","system_id":"levelo_inurba_marseille","lat":43.312236,"lon":5.368606,"is_reserved":false,"is_disabled":false,"rental_uris":{"android":"levelo://app?vid=6bb42352-d3ad-4a2f-9f21-9eb6cc41e5ff","ios":"levelo://app?vid=6bb42352-d3ad-4a2f-9f21-9eb6cc41e5ff"},"vehicle_type_id":"4","last_reported":1744028396,"current_range_meters":13600,"station_id":"ce4bgl92rcd13ifvqbq0","pricing_plan_id":"cebpf4jnsgd1na2vs0mg"},{"bike_id":"56e93871-4fe9-4092-9a43-fae656b4dcbe","system_id":"levelo_inurba_marseille","lat":43.29707,"lon":5.36607,"is_reserved":false,"is_disabled":false,"rental_uris":{"android":"levelo://app?vid=56e93871-4fe9-4092-9a43-fae656b4dcbe","ios":"levelo://app?vid=56e93871-4fe9-4092-9a43-fae656b4dcbe"},"vehicle_type_id":"4","last_reported":1744028396,"current_range_meters":11200,"station_id":"ce4bgn12rcd13ifvqbt0","pricing_plan_id":"cebpf4jnsgd1na2vs0mg"},{"bike_id":"ca82d46e-5fd2-41ae-8112-55a0430d1524","system_id":"levelo_inurba_marseille","lat":43.30803,"lon":5.38154,"is_reserved":false,"is_disabled":false,"rental_uris":{"android":"levelo://app?vid=ca82d46e-5fd2-41ae-8112-55a0430d1524","ios":"levelo://app?vid=ca82d46e-5fd2-41ae-8112-55a0430d1524"},"vehicle_type_id":"4","last_reported":1744028396,"current_range_meters":12800,"station_id":"ce4bgt12rcd13ifvqce0","pricing_plan_id":"cebpf4jnsgd1na2vs0mg"},{"bike_id":"365d6766-dafc-4741-8cd6-3eef81500c57","system_id":"levelo_inurba_marseille","lat":43.29002,"lon":5.35616,"is_reserved":false,"is_disabled":false,"rental_uris":{"android":"levelo://app?vid=365d6766-dafc-4741-8cd6-3eef81500c57","ios":"levelo://app?vid=365d6766-dafc-4741-8cd6-3eef81500c57"},"vehicle_type_id":"4","last_reported":1744028396,"current_range_meters":6800,"station_id":"ce4bhb92rcd13ifvqen0","pricing_plan_id":"cebpf4jnsgd1na2vs0mg"},{"bike_id":"82f28cf6-556c-431d-a12b-bd3ce5fc2f28","system_id":"levelo_inurba_marseille","lat":43.27511,"lon":5.37756,"is_reserved":false,"is_disabled":false,"rental_uris":{"android":"levelo://app?vid=82f28cf6-556c-431d-a12b-bd3ce5fc2f28","ios":"levelo://app?vid=82f28cf6-556c-431d-a12b-bd3ce5fc2f28"},"vehicle_type_id":"4","last_reported":1744028396,"current_range_meters":14000,"station_id":"","pricing_plan_id":"cebpf4jnsgd1na2vs0mg"},{"bike_id":"4a4e154c-30d5-4ad9-ab2b-fffcb853c340","system_id":"levelo_inurba_marseille","lat":43.26938,"lon":5.40246,"is_reserved":false,"is_disabled":false,"rental_uris":{"android":"levelo://app?vid=4a4e154c-30d5-4ad9-ab2b-fffcb853c340","ios":"levelo://app?vid=4a4e154c-30d5-4ad9-ab2b-fffcb853c340"},"vehicle_type_id":"4","last_reported":1744028396,"current_range_meters":14000,"station_id":"cjm6bp8fraef2m0cb0m0","pricing_plan_id":"cebpf4jnsgd1na2vs0mg"},{"bike_id":"4662f2c9-aa99-4430-b56d-3b091c848158","system_id":"levelo_inurba_marseille","lat":43.26204,"lon":5.37473,"is_reserved":false,"is_disabled":false,"rental_uris":{"android":"levelo://app?vid=4662f2c9-aa99-4430-b56d-3b091c848158","ios":"levelo://app?vid=4662f2c9-aa99-4430-b56d-3b091c848158"},"vehicle_type_id":"4","last_reported":1744028396,"current_range_meters":14000,"station_id":"ce4bhgp2rcd13ifvqfc0","pricing_plan_id":"cebpf4jnsgd1na2vs0mg"},{"bike_id":"3576b946-70b3-456f-a60a-d98e227f015c","system_id":"levelo_inurba_marseille","lat":43.30103,"lon":5.38225,"is_reserved":false,"is_disabled":false,"rental_uris":{"android":"levelo://app?vid=3576b946-70b3-456f-a60a-d98e227f015c","ios":"levelo://app?vid=3576b946-70b3-456f-a60a-d98e227f015c"},"vehicle_type_id":"4","last_reported":1744028396,"current_range_meters":14000,"station_id":"ce4bgup2rcd13ifvqcn0","pricing_plan_id":"cebpf4jnsgd1na2vs0mg"},{"bike_id":"195d466e-12cf-49f0-96cc-c8d73e49ab55","system_id":"levelo_inurba_marseille","lat":43.29927,"lon":5.36544,"is_reserved":false,"is_disabled":false,"rental_uris":{"android":"levelo://app?vid=195d466e-12cf-49f0-96cc-c8d73e49ab55","ios":"levelo://app?vid=195d466e-12cf-49f0-96cc-c8d73e49ab55"},"vehicle_type_id":"4","last_reported":1744028396,"current_range_meters":14000,"station_id":"ce4bgm92rcd13ifvqbr0","pricing_plan_id":"cebpf4jnsgd1na2vs0mg"},{"bike_id":"ddb2a2ac-bb00-4161-9f2f-3ca20c29b015","system_id":"levelo_inurba_marseille","lat":43.25118,"lon":5.4033,"is_reserved":false,"is_disabled":false,"rental_uris":{"android":"levelo://app?vid=ddb2a2ac-bb00-4161-9f2f-3ca20c29b015","ios":"levelo://app?vid=ddb2a2ac-bb00-4161-9f2f-3ca20c29b015"},"vehicle_type_id":"4","last_reported":1744028396,"current_range_meters":14000,"station_id":"ce4bhlh2rcd13ifvqgig","pricing_plan_id":"cebpf4jnsgd1na2vs0mg"},{"bike_id":"39171034-2ebe-4670-a77b-45b41c2fba49","system_id":"levelo_inurba_marseille","lat":43.29262,"lon":5.37591,"is_reserved":false,"is_disabled":false,"rental_uris":{"android":"levelo://app?vid=39171034-2ebe-4670-a77b-45b41c2fba49","ios":"levelo://app?vid=39171034-2ebe-4670-a77b-45b41c2fba49"},"vehicle_type_id":"4","last_reported":1744028396,"current_range_meters":14000,"station_id":"ce4bgi12rcd13ifvqb80","pricing_plan_id":"cebpf4jnsgd1na2vs0mg"},{"bike_id":"2a97caf8-2643-4b34-9fea-95d4625c31a8","system_id":"levelo_inurba_marseille","lat":43.28359,"lon":5.38643,"is_reserved":false,"is_disabled":false,"rental_uris":{"android":"levelo://app?vid=2a97caf8-2643-4b34-9fea-95d4625c31a8","ios":"levelo://app?vid=2a97caf8-2643-4b34-9fea-95d4625c31a8"},"vehicle_type_id":"4","last_reported":1744028396,"current_range_meters":14000,"station_id":"ce4bh492rcd13ifvqdvg","pricing_plan_id":"cebpf4jnsgd1na2vs0mg"},{"bike_id":"19224d95-e048-4cbb-8884-43e0e6b3db9b","system_id":"levelo_inurba_marseille","lat":43.29893,"lon":5.3974,"is_reserved":false,"is_disabled":true,"rental_uris":{"android":"levelo://app?vid=19224d95-e048-4cbb-8884-43e0e6b3db9b","ios":"levelo://app?vid=19224d95-e048-4cbb-8884-43e0e6b3db9b"},"vehicle_type_id":"4","last_reported":1744028396,"current_range_meters":14000,"station_id":"ce4bh0h2rcd13ifvqd50","pricing_plan_id":"cebpf4jnsgd1na2vs0mg"},{"bike_id":"304b68de-1f40-4eb6-b51d-2037ab84a5ba","system_id":"levelo_inurba_marseille","lat":43.27311,"lon":5.39088,"is_reserved":false,"is_disabled":false,"rental_uris":{"android":"levelo://app?vid=304b68de-1f40-4eb6-b51d-2037ab84a5ba","ios":"levelo://app?vid=304b68de-1f40-4eb6-b51d-2037ab84a5ba"},"vehicle_type_id":"4","last_reported":1744028396,"current_range_meters":14400,"station_id":"ce4bhgp2rcd13ifvqfe0","pricing_plan_id":"cebpf4jnsgd1na2vs0mg"},{"bike_id":"b8ccb132-dd08-4f74-820b-6b65f86b1f55","system_id":"levelo_inurba_marseille","lat":43.3095,"lon":5.39032,"is_reserved":false,"is_disabled":false,"rental_uris":{"android":"levelo://app?vid=b8ccb132-dd08-4f74-820b-6b65f86b1f55","ios":"levelo://app?vid=b8ccb132-dd08-4f74-820b-6b65f86b1f55"},"vehicle_type_id":"4","last_reported":1744028396,"current_range_meters":14400,"station_id":"ce4bgup2rcd13ifvqco0","pricing_plan_id":"cebpf4jnsgd1na2vs0mg"},{"bike_id":"bf733bcf-33b1-4106-9599-2c4ace5be4eb","system_id":"levelo_inurba_marseille","lat":43.30087,"lon":5.39074,"is_reserved":false,"is_disabled":false,"rental_uris":{"android":"levelo://app?vid=bf733bcf-33b1-4106-9599-2c4ace5be4eb","ios":"levelo://app?vid=bf733bcf-33b1-4106-9599-2c4ace5be4eb"},"vehicle_type_id":"4","last_reported":1744028396,"current_range_meters":14400,"station_id":"ce4bh192rcd13ifvqdb0","pricing_plan_id":"cebpf4jnsgd1na2vs0mg"},{"bike_id":"4e63bc7f-b907-45ea-bc67-f61c9be2b9d6","system_id":"levelo_inurba_marseille","lat":43.29975,"lon":5.38507,"is_reserved":false,"is_disabled":true,"rental_uris":{"android":"levelo://app?vid=4e63bc7f-b907-45ea-bc67-f61c9be2b9d6","ios":"levelo://app?vid=4e63bc7f-b907-45ea-bc67-f61c9be2b9d6"},"vehicle_type_id":"4","last_reported":1744028396,"current_range_meters":14400,"station_id":"ce4bgj92rcd13ifvqbd0","pricing_plan_id":"cebpf4jnsgd1na2vs0mg"},{"bike_id":"92a1d5fe-b2e8-4e3c-94aa-61e0e2abcbd9","system_id":"levelo_inurba_marseille","lat":43.30481,"lon":5.37912,"is_reserved":false,"is_disabled":false,"rental_uris":{"android":"levelo://app?vid=92a1d5fe-b2e8-4e3c-94aa-61e0e2abcbd9","ios":"levelo://app?vid=92a1d5fe-b2e8-4e3c-94aa-61e0e2abcbd9"},"vehicle_type_id":"4","last_reported":1744028396,"current_range_meters":14800,"station_id":"ce4bgup2rcd13ifvqcn0","pricing_plan_id":"cebpf4jnsgd1na2vs0mg"},{"bike_id":"f17ce36f-e80a-4732-89e2-7a7dfab19d87","system_id":"levelo_inurba_marseille","lat":43.29901,"lon":5.43669,"is_reserved":false,"is_disabled":false,"rental_uris":{"android":"levelo://app?vid=f17ce36f-e80a-4732-89e2-7a7dfab19d87","ios":"levelo://app?vid=f17ce36f-e80a-4732-89e2-7a7dfab19d87"},"vehicle_type_id":"4","last_reported":1744028396,"current_range_meters":14800,"station_id":"ce4bhpp2rcd13ifvqhfg","pricing_plan_id":"cebpf4jnsgd1na2vs0mg"},{"bike_id":"deecbbb2-1a6e-4292-bde8-3f093e21b1b2","system_id":"levelo_inurba_marseille","lat":43.26029,"lon":5.37554,"is_reserved":false,"is_disabled":false,"rental_uris":{"android":"levelo://app?vid=deecbbb2-1a6e-4292-bde8-3f093e21b1b2","ios":"levelo://app?vid=deecbbb2-1a6e-4292-bde8-3f093e21b1b2"},"vehicle_type_id":"4","last_reported":1744028396,"current_range_meters":14800,"station_id":"ce4bhgh2rcd13ifvqfa0","pricing_plan_id":"cebpf4jnsgd1na2vs0mg"},{"bike_id":"1d085f39-182d-4cda-bb2c-ac3d5d3220d2","system_id":"levelo_inurba_marseille","lat":43.23139,"lon":5.43731,"is_reserved":false,"is_disabled":false,"rental_uris":{"android":"levelo://app?vid=1d085f39-182d-4cda-bb2c-ac3d5d3220d2","ios":"levelo://app?vid=1d085f39-182d-4cda-bb2c-ac3d5d3220d2"},"vehicle_type_id":"4","last_reported":1744028396,"current_range_meters":14800,"station_id":"ce4bhmp2rcd13ifvqgog","pricing_plan_id":"cebpf4jnsgd1na2vs0mg"},{"bike_id":"4b9dfe05-0e60-423c-af4b-3ef6e8cad4ce","system_id":"levelo_inurba_marseille","lat":43.25107,"lon":5.40328,"is_reserved":false,"is_disabled":true,"rental_uris":{"android":"levelo://app?vid=4b9dfe05-0e60-423c-af4b-3ef6e8cad4ce","ios":"levelo://app?vid=4b9dfe05-0e60-423c-af4b-3ef6e8cad4ce"},"vehicle_type_id":"4","last_reported":1744028396,"current_range_meters":14800,"station_id":"ce4bhlh2rcd13ifvqgig","pricing_plan_id":"cebpf4jnsgd1na2vs0mg"},{"bike_id":"38dff909-8557-465f-806b-425cc486f76f","system_id":"levelo_inurba_marseille","lat":43.26031,"lon":5.37551,"is_reserved":false,"is_disabled":false,"rental_uris":{"android":"levelo://app?vid=38dff909-8557-465f-806b-425cc486f76f","ios":"levelo://app?vid=38dff909-8557-465f-806b-425cc486f76f"},"vehicle_type_id":"4","last_reported":1744028396,"current_range_meters":14800,"station_id":"ce4bhgh2rcd13ifvqfa0","pricing_plan_id":"cebpf4jnsgd1na2vs0mg"},{"bike_id":"1620fc9f-c895-43c3-a097-0d2b6b950986","system_id":"levelo_inurba_marseille","lat":43.28615,"lon":5.35105,"is_reserved":false,"is_disabled":false,"rental_uris":{"android":"levelo://app?vid=1620fc9f-c895-43c3-a097-0d2b6b950986","ios":"levelo://app?vid=1620fc9f-c895-43c3-a097-0d2b6b950986"},"vehicle_type_id":"4","last_reported":1744028396,"current_range_meters":14800,"station_id":"ce4bhch2rcd13ifvqeug","pricing_plan_id":"cebpf4jnsgd1na2vs0mg"},{"bike_id":"f25bf381-8d73-4fe7-af9e-64bd84e6c260","system_id":"levelo_inurba_marseille","lat":43.28105,"lon":5.37844,"is_reserved":false,"is_disabled":false,"rental_uris":{"android":"levelo://app?vid=f25bf381-8d73-4fe7-af9e-64bd84e6c260","ios":"levelo://app?vid=f25bf381-8d73-4fe7-af9e-64bd84e6c260"},"vehicle_type_id":"4","last_reported":1744028396,"current_range_meters":16400,"station_id":"ce4bha12rcd13ifvqee0","pricing_plan_id":"cebpf4jnsgd1na2vs0mg"},{"bike_id":"ec7d3251-d53b-4874-b96d-6dae899b6aa1","system_id":"levelo_inurba_marseille","lat":43.27208,"lon":5.392059,"is_reserved":false,"is_disabled":true,"rental_uris":{"android":"levelo://app?vid=ec7d3251-d53b-4874-b96d-6dae899b6aa1","ios":"levelo://app?vid=ec7d3251-d53b-4874-b96d-6dae899b6aa1"},"vehicle_type_id":"4","last_reported":1744028396,"current_range_meters":15200,"station_id":"ce4bhhp2rcd13ifvqfm0","pricing_plan_id":"cebpf4jnsgd1na2vs0mg"},{"bike_id":"cc65c360-2c51-477e-b733-399e2ec581d2","system_id":"levelo_inurba_marseille","lat":43.27862,"lon":5.40682,"is_reserved":false,"is_disabled":false,"rental_uris":{"android":"levelo://app?vid=cc65c360-2c51-477e-b733-399e2ec581d2","ios":"levelo://app?vid=cc65c360-2c51-477e-b733-399e2ec581d2"},"vehicle_type_id":"4","last_reported":1744028396,"current_range_meters":15200,"station_id":"","pricing_plan_id":"cebpf4jnsgd1na2vs0mg"},{"bike_id":"a83c310a-cbbd-43de-b5d4-85de0b22ce95","system_id":"levelo_inurba_marseille","lat":43.29601,"lon":5.38105,"is_reserved":false,"is_disabled":false,"rental_uris":{"android":"levelo://app?vid=a83c310a-cbbd-43de-b5d4-85de0b22ce95","ios":"levelo://app?vid=a83c310a-cbbd-43de-b5d4-85de0b22ce95"},"vehicle_type_id":"4","last_reported":1744028396,"current_range_meters":15200,"station_id":"ce4bgl12rcd13ifvqbo0","pricing_plan_id":"cebpf4jnsgd1na2vs0mg"},{"bike_id":"6a39df40-ac0c-4141-8274-0828c3186482","system_id":"levelo_inurba_marseille","lat":43.29565,"lon":5.3751,"is_reserved":false,"is_disabled":false,"rental_uris":{"android":"levelo://app?vid=6a39df40-ac0c-4141-8274-0828c3186482","ios":"levelo://app?vid=6a39df40-ac0c-4141-8274-0828c3186482"},"vehicle_type_id":"4","last_reported":1744028396,"current_range_meters":15200,"station_id":"ce4bgh92rcd13ifvqb50","pricing_plan_id":"cebpf4jnsgd1na2vs0mg"},{"bike_id":"f11e7275-a960-4f89-b8ec-e447a7dff81a","system_id":"levelo_inurba_marseille","lat":43.30151,"lon":5.381,"is_reserved":false,"is_disabled":false,"rental_uris":{"android":"levelo://app?vid=f11e7275-a960-4f89-b8ec-e447a7dff81a","ios":"levelo://app?vid=f11e7275-a960-4f89-b8ec-e447a7dff81a"},"vehicle_type_id":"4","last_reported":1744028396,"current_range_meters":15200,"station_id":"ce4bgjp2rcd13ifvqbh0","pricing_plan_id":"cebpf4jnsgd1na2vs0mg"},{"bike_id":"b023f26d-4ba0-4c78-9432-daac19db61ce","system_id":"levelo_inurba_marseille","lat":43.24553,"lon":5.3953,"is_reserved":false,"is_disabled":false,"rental_uris":{"android":"levelo://app?vid=b023f26d-4ba0-4c78-9432-daac19db61ce","ios":"levelo://app?vid=b023f26d-4ba0-4c78-9432-daac19db61ce"},"vehicle_type_id":"4","last_reported":1744028396,"current_range_meters":16000,"station_id":"ce4bhlp2rcd13ifvqgjg","pricing_plan_id":"cebpf4jnsgd1na2vs0mg"},{"bike_id":"fb9f6b16-b64d-4eb9-b329-0548a57bc9c5","system_id":"levelo_inurba_marseille","lat":43.300845,"lon":5.390859,"is_reserved":false,"is_disabled":false,"rental_uris":{"android":"levelo://app?vid=fb9f6b16-b64d-4eb9-b329-0548a57bc9c5","ios":"levelo://app?vid=fb9f6b16-b64d-4eb9-b329-0548a57bc9c5"},"vehicle_type_id":"4","last_reported":1744028396,"current_range_meters":16000,"station_id":"ce4bh192rcd13ifvqdb0","pricing_plan_id":"cebpf4jnsgd1na2vs0mg"},{"bike_id":"24c320a5-d261-4a38-8884-ec88b7cdc64b","system_id":"levelo_inurba_marseille","lat":43.2919,"lon":5.39324,"is_reserved":false,"is_disabled":false,"rental_uris":{"android":"levelo://app?vid=24c320a5-d261-4a38-8884-ec88b7cdc64b","ios":"levelo://app?vid=24c320a5-d261-4a38-8884-ec88b7cdc64b"},"vehicle_type_id":"4","last_reported":1744028396,"current_range_meters":16000,"station_id":"ce4bh192rcd13ifvqdd0","pricing_plan_id":"cebpf4jnsgd1na2vs0mg"},{"bike_id":"67f9198a-5c42-4888-8679-ed9fff871b15","system_id":"levelo_inurba_marseille","lat":43.2511,"lon":5.40319,"is_reserved":false,"is_disabled":false,"rental_uris":{"android":"levelo://app?vid=67f9198a-5c42-4888-8679-ed9fff871b15","ios":"levelo://app?vid=67f9198a-5c42-4888-8679-ed9fff871b15"},"vehicle_type_id":"4","last_reported":1744028396,"current_range_meters":16000,"station_id":"ce4bhlh2rcd13ifvqgig","pricing_plan_id":"cebpf4jnsgd1na2vs0mg"},{"bike_id":"19387b47-921f-48b5-abad-26d9374cca7f","system_id":"levelo_inurba_marseille","lat":43.29785,"lon":5.37103,"is_reserved":false,"is_disabled":false,"rental_uris":{"android":"levelo://app?vid=19387b47-921f-48b5-abad-26d9374cca7f","ios":"levelo://app?vid=19387b47-921f-48b5-abad-26d9374cca7f"},"vehicle_type_id":"4","last_reported":1744028396,"current_range_meters":16000,"station_id":"ce4bgop2rcd13ifvqc1g","pricing_plan_id":"cebpf4jnsgd1na2vs0mg"},{"bike_id":"c1b728c9-c793-46c3-8712-cfe16e79cf31","system_id":"levelo_inurba_marseille","lat":43.263661,"lon":5.377525,"is_reserved":false,"is_disabled":false,"rental_uris":{"android":"levelo://app?vid=c1b728c9-c793-46c3-8712-cfe16e79cf31","ios":"levelo://app?vid=c1b728c9-c793-46c3-8712-cfe16e79cf31"},"vehicle_type_id":"4","last_reported":1744028396,"current_range_meters":16400,"station_id":"ce4bhjp2rcd13ifvqg90","pricing_plan_id":"cebpf4jnsgd1na2vs0mg"},{"bike_id":"afd625d1-a55f-43fa-8835-8fa9b9fa8738","system_id":"levelo_inurba_marseille","lat":43.31355,"lon":5.36715,"is_reserved":false,"is_disabled":false,"rental_uris":{"android":"levelo://app?vid=afd625d1-a55f-43fa-8835-8fa9b9fa8738","ios":"levelo://app?vid=afd625d1-a55f-43fa-8835-8fa9b9fa8738"},"vehicle_type_id":"4","last_reported":1744028396,"current_range_meters":16400,"station_id":"ce4bgr92rcd13ifvqc6g","pricing_plan_id":"cebpf4jnsgd1na2vs0mg"},{"bike_id":"d94c749a-049f-46bd-b99f-252d4f10b4de","system_id":"levelo_inurba_marseille","lat":43.30919,"lon":5.36833,"is_reserved":false,"is_disabled":false,"rental_uris":{"android":"levelo://app?vid=d94c749a-049f-46bd-b99f-252d4f10b4de","ios":"levelo://app?vid=d94c749a-049f-46bd-b99f-252d4f10b4de"},"vehicle_type_id":"4","last_reported":1744028396,"current_range_meters":16400,"station_id":"ce4bgn92rcd13ifvqbvg","pricing_plan_id":"cebpf4jnsgd1na2vs0mg"},{"bike_id":"d968c790-cb4b-47d2-8097-4ea0532616a5","system_id":"levelo_inurba_marseille","lat":43.28726,"lon":5.36097,"is_reserved":false,"is_disabled":true,"rental_uris":{"android":"levelo://app?vid=d968c790-cb4b-47d2-8097-4ea0532616a5","ios":"levelo://app?vid=d968c790-cb4b-47d2-8097-4ea0532616a5"},"vehicle_type_id":"4","last_reported":1744028396,"current_range_meters":16400,"station_id":"cki0cbj6b192h4jlfktg","pricing_plan_id":"cebpf4jnsgd1na2vs0mg"},{"bike_id":"08fbf61c-5ee8-42ee-8d40-fed9c1357040","system_id":"levelo_inurba_marseille","lat":43.26682,"lon":5.38262,"is_reserved":false,"is_disabled":false,"rental_uris":{"android":"levelo://app?vid=08fbf61c-5ee8-42ee-8d40-fed9c1357040","ios":"levelo://app?vid=08fbf61c-5ee8-42ee-8d40-fed9c1357040"},"vehicle_type_id":"4","last_reported":1744028396,"current_range_meters":16400,"station_id":"ce4bhg92rcd13ifvqf90","pricing_plan_id":"cebpf4jnsgd1na2vs0mg"},{"bike_id":"1a61917f-22ab-4af2-b7fd-1cb4f76563c3","system_id":"levelo_inurba_marseille","lat":43.26056,"lon":5.39401,"is_reserved":false,"is_disabled":false,"rental_uris":{"android":"levelo://app?vid=1a61917f-22ab-4af2-b7fd-1cb4f76563c3","ios":"levelo://app?vid=1a61917f-22ab-4af2-b7fd-1cb4f76563c3"},"vehicle_type_id":"4","last_reported":1744028396,"current_range_meters":16400,"station_id":"ce4bhh92rcd13ifvqfj0","pricing_plan_id":"cebpf4jnsgd1na2vs0mg"},{"bike_id":"c8198234-6855-460d-b91b-8bbfd4f2a26e","system_id":"levelo_inurba_marseille","lat":43.21191,"lon":5.35079,"is_reserved":false,"is_disabled":false,"rental_uris":{"android":"levelo://app?vid=c8198234-6855-460d-b91b-8bbfd4f2a26e","ios":"levelo://app?vid=c8198234-6855-460d-b91b-8bbfd4f2a26e"},"vehicle_type_id":"4","last_reported":1744028396,"current_range_meters":16400,"station_id":"st_cvj6sg6p6f1abm77japg","pricing_plan_id":"cebpf4jnsgd1na2vs0mg"},{"bike_id":"0aa02c49-cbb3-4907-a588-f754056f3ba8","system_id":"levelo_inurba_marseille","lat":43.3082,"lon":5.38155,"is_reserved":false,"is_disabled":true,"rental_uris":{"android":"levelo://app?vid=0aa02c49-cbb3-4907-a588-f754056f3ba8","ios":"levelo://app?vid=0aa02c49-cbb3-4907-a588-f754056f3ba8"},"vehicle_type_id":"4","last_reported":1744028396,"current_range_meters":16400,"station_id":"ce4bgt12rcd13ifvqce0","pricing_plan_id":"cebpf4jnsgd1na2vs0mg"},{"bike_id":"140bcc9c-7a15-47b1-a546-a2322d7111c7","system_id":"levelo_inurba_marseille","lat":43.31207,"lon":5.36871,"is_reserved":false,"is_disabled":false,"rental_uris":{"android":"levelo://app?vid=140bcc9c-7a15-47b1-a546-a2322d7111c7","ios":"levelo://app?vid=140bcc9c-7a15-47b1-a546-a2322d7111c7"},"vehicle_type_id":"4","last_reported":1744028396,"current_range_meters":16400,"station_id":"ce4bgl92rcd13ifvqbq0","pricing_plan_id":"cebpf4jnsgd1na2vs0mg"},{"bike_id":"889763a9-aa13-4a71-bb0c-e1cb1d4e9045","system_id":"levelo_inurba_marseille","lat":43.30915,"lon":5.36854,"is_reserved":false,"is_disabled":false,"rental_uris":{"android":"levelo://app?vid=889763a9-aa13-4a71-bb0c-e1cb1d4e9045","ios":"levelo://app?vid=889763a9-aa13-4a71-bb0c-e1cb1d4e9045"},"vehicle_type_id":"4","last_reported":1744028396,"current_range_meters":16400,"station_id":"ce4bgn92rcd13ifvqbvg","pricing_plan_id":"cebpf4jnsgd1na2vs0mg"},{"bike_id":"68d1cc33-0218-451e-8e10-d32225c21263","system_id":"levelo_inurba_marseille","lat":43.23158,"lon":5.43694,"is_reserved":false,"is_disabled":true,"rental_uris":{"android":"levelo://app?vid=68d1cc33-0218-451e-8e10-d32225c21263","ios":"levelo://app?vid=68d1cc33-0218-451e-8e10-d32225c21263"},"vehicle_type_id":"4","last_reported":1744028396,"current_range_meters":16400,"station_id":"ce4bhmp2rcd13ifvqgog","pricing_plan_id":"cebpf4jnsgd1na2vs0mg"},{"bike_id":"93e3fd92-d65f-4f36-ba40-a3e5476ebc87","system_id":"levelo_inurba_marseille","lat":43.30935,"lon":5.36755,"is_reserved":false,"is_disabled":false,"rental_uris":{"android":"levelo://app?vid=93e3fd92-d65f-4f36-ba40-a3e5476ebc87","ios":"levelo://app?vid=93e3fd92-d65f-4f36-ba40-a3e5476ebc87"},"vehicle_type_id":"4","last_reported":1744028396,"current_range_meters":17200,"station_id":"","pricing_plan_id":"cebpf4jnsgd1na2vs0mg"},{"bike_id":"4e7856fd-1121-4895-ac45-838f693e5e86","system_id":"levelo_inurba_marseille","lat":43.31714,"lon":5.40467,"is_reserved":false,"is_disabled":false,"rental_uris":{"android":"levelo://app?vid=4e7856fd-1121-4895-ac45-838f693e5e86","ios":"levelo://app?vid=4e7856fd-1121-4895-ac45-838f693e5e86"},"vehicle_type_id":"4","last_reported":1744028396,"current_range_meters":16800,"station_id":"ce4bh012rcd13ifvqd00","pricing_plan_id":"cebpf4jnsgd1na2vs0mg"},{"bike_id":"dee2a7fb-0e72-4f4b-b13d-1ff66c1e3e49","system_id":"levelo_inurba_marseille","lat":43.30887,"lon":5.39655,"is_reserved":false,"is_disabled":false,"rental_uris":{"android":"levelo://app?vid=dee2a7fb-0e72-4f4b-b13d-1ff66c1e3e49","ios":"levelo://app?vid=dee2a7fb-0e72-4f4b-b13d-1ff66c1e3e49"},"vehicle_type_id":"4","last_reported":1744028396,"current_range_meters":16800,"station_id":"ce4bh012rcd13ifvqcv0","pricing_plan_id":"cebpf4jnsgd1na2vs0mg"},{"bike_id":"7a935817-47e2-4cb3-8324-a647fdf3a140","system_id":"levelo_inurba_marseille","lat":43.29548,"lon":5.38514,"is_reserved":false,"is_disabled":true,"rental_uris":{"android":"levelo://app?vid=7a935817-47e2-4cb3-8324-a647fdf3a140","ios":"levelo://app?vid=7a935817-47e2-4cb3-8324-a647fdf3a140"},"vehicle_type_id":"4","last_reported":1744028396,"current_range_meters":16800,"station_id":"ce4bgih2rcd13ifvqba0","pricing_plan_id":"cebpf4jnsgd1na2vs0mg"},{"bike_id":"d93adbd5-3eb6-4b0a-bfd2-cacd5c680a3a","system_id":"levelo_inurba_marseille","lat":43.32485,"lon":5.36584,"is_reserved":false,"is_disabled":false,"rental_uris":{"android":"levelo://app?vid=d93adbd5-3eb6-4b0a-bfd2-cacd5c680a3a","ios":"levelo://app?vid=d93adbd5-3eb6-4b0a-bfd2-cacd5c680a3a"},"vehicle_type_id":"4","last_reported":1744028396,"current_range_meters":16800,"station_id":"ce4bhs12rcd13ifvqhvg","pricing_plan_id":"cebpf4jnsgd1na2vs0mg"},{"bike_id":"3e602309-c2cc-49c9-984b-ceb6bc2fb252","system_id":"levelo_inurba_marseille","lat":43.30571,"lon":5.36495,"is_reserved":false,"is_disabled":false,"rental_uris":{"android":"levelo://app?vid=3e602309-c2cc-49c9-984b-ceb6bc2fb252","ios":"levelo://app?vid=3e602309-c2cc-49c9-984b-ceb6bc2fb252"},"vehicle_type_id":"4","last_reported":1744028396,"current_range_meters":16800,"station_id":"","pricing_plan_id":"cebpf4jnsgd1na2vs0mg"},{"bike_id":"17373eac-eda6-455a-9e36-2454c9257d1f","system_id":"levelo_inurba_marseille","lat":43.279907,"lon":5.399964,"is_reserved":false,"is_disabled":false,"rental_uris":{"android":"levelo://app?vid=17373eac-eda6-455a-9e36-2454c9257d1f","ios":"levelo://app?vid=17373eac-eda6-455a-9e36-2454c9257d1f"},"vehicle_type_id":"4","last_reported":1744028396,"current_range_meters":16800,"station_id":"ce4bho92rcd13ifvqh4g","pricing_plan_id":"cebpf4jnsgd1na2vs0mg"},{"bike_id":"a2b55975-55e4-4a3f-8af7-2c27ff45ed68","system_id":"levelo_inurba_marseille","lat":43.28144,"lon":5.42632,"is_reserved":false,"is_disabled":true,"rental_uris":{"android":"levelo://app?vid=a2b55975-55e4-4a3f-8af7-2c27ff45ed68","ios":"levelo://app?vid=a2b55975-55e4-4a3f-8af7-2c27ff45ed68"},"vehicle_type_id":"4","last_reported":1744028396,"current_range_meters":17200,"station_id":"ce4bhnh2rcd13ifvqgug","pricing_plan_id":"cebpf4jnsgd1na2vs0mg"},{"bike_id":"307f4e27-a42c-4b8f-a7ac-77db95c20711","system_id":"levelo_inurba_marseille","lat":43.28946,"lon":5.36406,"is_reserved":false,"is_disabled":false,"rental_uris":{"android":"levelo://app?vid=307f4e27-a42c-4b8f-a7ac-77db95c20711","ios":"levelo://app?vid=307f4e27-a42c-4b8f-a7ac-77db95c20711"},"vehicle_type_id":"4","last_reported":1744028396,"current_range_meters":17200,"station_id":"ce4bhc92rcd13ifvqetg","pricing_plan_id":"cebpf4jnsgd1na2vs0mg"},{"bike_id":"c5d24002-08b3-4186-bce2-f4fba78b1bfd","system_id":"levelo_inurba_marseille","lat":43.29966,"lon":5.41332,"is_reserved":false,"is_disabled":false,"rental_uris":{"android":"levelo://app?vid=c5d24002-08b3-4186-bce2-f4fba78b1bfd","ios":"levelo://app?vid=c5d24002-08b3-4186-bce2-f4fba78b1bfd"},"vehicle_type_id":"4","last_reported":1744028396,"current_range_meters":17200,"station_id":"ce4bhp12rcd13ifvqh9g","pricing_plan_id":"cebpf4jnsgd1na2vs0mg"},{"bike_id":"9e0829d0-dc9c-45ad-978e-48b61761a490","system_id":"levelo_inurba_marseille","lat":43.30958,"lon":5.39036,"is_reserved":false,"is_disabled":false,"rental_uris":{"android":"levelo://app?vid=9e0829d0-dc9c-45ad-978e-48b61761a490","ios":"levelo://app?vid=9e0829d0-dc9c-45ad-978e-48b61761a490"},"vehicle_type_id":"4","last_reported":1744028396,"current_range_meters":17200,"station_id":"ce4bgup2rcd13ifvqco0","pricing_plan_id":"cebpf4jnsgd1na2vs0mg"},{"bike_id":"45b32ac7-879f-47db-a891-27bbd5a919ad","system_id":"levelo_inurba_marseille","lat":43.30292,"lon":5.39222,"is_reserved":false,"is_disabled":false,"rental_uris":{"android":"levelo://app?vid=45b32ac7-879f-47db-a891-27bbd5a919ad","ios":"levelo://app?vid=45b32ac7-879f-47db-a891-27bbd5a919ad"},"vehicle_type_id":"4","last_reported":1744028396,"current_range_meters":17200,"station_id":"ce4bgkh2rcd13ifvqbk0","pricing_plan_id":"cebpf4jnsgd1na2vs0mg"},{"bike_id":"aeba91d2-98aa-4036-81b1-0b8e63dbd882","system_id":"levelo_inurba_marseille","lat":43.25006,"lon":5.38917,"is_reserved":false,"is_disabled":false,"rental_uris":{"android":"levelo://app?vid=aeba91d2-98aa-4036-81b1-0b8e63dbd882","ios":"levelo://app?vid=aeba91d2-98aa-4036-81b1-0b8e63dbd882"},"vehicle_type_id":"4","last_reported":1744028396,"current_range_meters":17200,"station_id":"ce4bhgp2rcd13ifvqfd0","pricing_plan_id":"cebpf4jnsgd1na2vs0mg"},{"bike_id":"2f48ec57-d212-4e94-8bdf-81b7a8f04386","system_id":"levelo_inurba_marseille","lat":43.27197,"lon":5.39208,"is_reserved":false,"is_disabled":true,"rental_uris":{"android":"levelo://app?vid=2f48ec57-d212-4e94-8bdf-81b7a8f04386","ios":"levelo://app?vid=2f48ec57-d212-4e94-8bdf-81b7a8f04386"},"vehicle_type_id":"4","last_reported":1744028396,"current_range_meters":17200,"station_id":"ce4bhhp2rcd13ifvqfm0","pricing_plan_id":"cebpf4jnsgd1na2vs0mg"},{"bike_id":"737cf36e-6ed6-4154-baf7-0c9f340f3341","system_id":"levelo_inurba_marseille","lat":43.27058,"lon":5.40265,"is_reserved":false,"is_disabled":false,"rental_uris":{"android":"levelo://app?vid=737cf36e-6ed6-4154-baf7-0c9f340f3341","ios":"levelo://app?vid=737cf36e-6ed6-4154-baf7-0c9f340f3341"},"vehicle_type_id":"4","last_reported":1744028396,"current_range_meters":17200,"station_id":"ce4bhk92rcd13ifvqgc0","pricing_plan_id":"cebpf4jnsgd1na2vs0mg"},{"bike_id":"f7ca4b30-e7d0-48eb-925a-fb767126bfcd","system_id":"levelo_inurba_marseille","lat":43.32553,"lon":5.4144,"is_reserved":false,"is_disabled":false,"rental_uris":{"android":"levelo://app?vid=f7ca4b30-e7d0-48eb-925a-fb767126bfcd","ios":"levelo://app?vid=f7ca4b30-e7d0-48eb-925a-fb767126bfcd"},"vehicle_type_id":"4","last_reported":1744028396,"current_range_meters":17200,"station_id":"ce4bhq12rcd13ifvqhhg","pricing_plan_id":"cebpf4jnsgd1na2vs0mg"},{"bike_id":"351863ca-8a8c-44f1-9dd7-49fd8388172d","system_id":"levelo_inurba_marseille","lat":43.24171,"lon":5.39707,"is_reserved":false,"is_disabled":false,"rental_uris":{"android":"levelo://app?vid=351863ca-8a8c-44f1-9dd7-49fd8388172d","ios":"levelo://app?vid=351863ca-8a8c-44f1-9dd7-49fd8388172d"},"vehicle_type_id":"4","last_reported":1744028396,"current_range_meters":17200,"station_id":"ce4bhn12rcd13ifvqgpg","pricing_plan_id":"cebpf4jnsgd1na2vs0mg"},{"bike_id":"45d83681-f2eb-4a39-a20c-4022ba893ea0","system_id":"levelo_inurba_marseille","lat":43.339234,"lon":5.391978,"is_reserved":false,"is_disabled":false,"rental_uris":{"android":"levelo://app?vid=45d83681-f2eb-4a39-a20c-4022ba893ea0","ios":"levelo://app?vid=45d83681-f2eb-4a39-a20c-4022ba893ea0"},"vehicle_type_id":"4","last_reported":1744028396,"current_range_meters":17200,"station_id":"","pricing_plan_id":"cebpf4jnsgd1na2vs0mg"},{"bike_id":"7a9ed428-9529-4f6e-a6d9-149eccfa889d","system_id":"levelo_inurba_marseille","lat":43.29974,"lon":5.38497,"is_reserved":false,"is_disabled":false,"rental_uris":{"android":"levelo://app?vid=7a9ed428-9529-4f6e-a6d9-149eccfa889d","ios":"levelo://app?vid=7a9ed428-9529-4f6e-a6d9-149eccfa889d"},"vehicle_type_id":"4","last_reported":1744028396,"current_range_meters":17600,"station_id":"ce4bgj92rcd13ifvqbd0","pricing_plan_id":"cebpf4jnsgd1na2vs0mg"},{"bike_id":"b4f7f04c-8645-40cc-bbec-a79aa4b0cf31","system_id":"levelo_inurba_marseille","lat":43.30535,"lon":5.36542,"is_reserved":false,"is_disabled":false,"rental_uris":{"android":"levelo://app?vid=b4f7f04c-8645-40cc-bbec-a79aa4b0cf31","ios":"levelo://app?vid=b4f7f04c-8645-40cc-bbec-a79aa4b0cf31"},"vehicle_type_id":"4","last_reported":1744028396,"current_range_meters":17600,"station_id":"ce4bgs12rcd13ifvqcag","pricing_plan_id":"cebpf4jnsgd1na2vs0mg"},{"bike_id":"8a4f0b98-f4a8-47e0-971e-6224d442bb3c","system_id":"levelo_inurba_marseille","lat":43.24386,"lon":5.37058,"is_reserved":false,"is_disabled":false,"rental_uris":{"android":"levelo://app?vid=8a4f0b98-f4a8-47e0-971e-6224d442bb3c","ios":"levelo://app?vid=8a4f0b98-f4a8-47e0-971e-6224d442bb3c"},"vehicle_type_id":"4","last_reported":1744028396,"current_range_meters":17200,"station_id":"ce4bhhh2rcd13ifvqfk0","pricing_plan_id":"cebpf4jnsgd1na2vs0mg"},{"bike_id":"d01814b3-39f1-4bf5-905f-07c6028f7394","system_id":"levelo_inurba_marseille","lat":43.32102,"lon":5.36797,"is_reserved":false,"is_disabled":false,"rental_uris":{"android":"levelo://app?vid=d01814b3-39f1-4bf5-905f-07c6028f7394","ios":"levelo://app?vid=d01814b3-39f1-4bf5-905f-07c6028f7394"},"vehicle_type_id":"4","last_reported":1744028396,"current_range_meters":17600,"station_id":"ce4bhrh2rcd13ifvqhug","pricing_plan_id":"cebpf4jnsgd1na2vs0mg"},{"bike_id":"c1591fa6-4c6b-4316-bbbc-636c15ce4519","system_id":"levelo_inurba_marseille","lat":43.31274,"lon":5.40175,"is_reserved":false,"is_disabled":false,"rental_uris":{"android":"levelo://app?vid=c1591fa6-4c6b-4316-bbbc-636c15ce4519","ios":"levelo://app?vid=c1591fa6-4c6b-4316-bbbc-636c15ce4519"},"vehicle_type_id":"4","last_reported":1744028396,"current_range_meters":14800,"station_id":"ce4bh092rcd13ifvqd30","pricing_plan_id":"cebpf4jnsgd1na2vs0mg"},{"bike_id":"45163737-8ce4-4a0a-b335-04cd36d73c79","system_id":"levelo_inurba_marseille","lat":43.32483,"lon":5.36604,"is_reserved":false,"is_disabled":false,"rental_uris":{"android":"levelo://app?vid=45163737-8ce4-4a0a-b335-04cd36d73c79","ios":"levelo://app?vid=45163737-8ce4-4a0a-b335-04cd36d73c79"},"vehicle_type_id":"4","last_reported":1744028396,"current_range_meters":17600,"station_id":"ce4bhs12rcd13ifvqhvg","pricing_plan_id":"cebpf4jnsgd1na2vs0mg"},{"bike_id":"5f9d16aa-61b1-4636-8345-61a4681dbeec","system_id":"levelo_inurba_marseille","lat":43.3051,"lon":5.3653,"is_reserved":false,"is_disabled":false,"rental_uris":{"android":"levelo://app?vid=5f9d16aa-61b1-4636-8345-61a4681dbeec","ios":"levelo://app?vid=5f9d16aa-61b1-4636-8345-61a4681dbeec"},"vehicle_type_id":"4","last_reported":1744028396,"current_range_meters":18000,"station_id":"ce4bgs12rcd13ifvqcag","pricing_plan_id":"cebpf4jnsgd1na2vs0mg"},{"bike_id":"2a3afb7f-837b-42db-8abb-5e1223a0f332","system_id":"levelo_inurba_marseille","lat":43.30132,"lon":5.39884,"is_reserved":false,"is_disabled":false,"rental_uris":{"android":"levelo://app?vid=2a3afb7f-837b-42db-8abb-5e1223a0f332","ios":"levelo://app?vid=2a3afb7f-837b-42db-8abb-5e1223a0f332"},"vehicle_type_id":"4","last_reported":1744028396,"current_range_meters":18000,"station_id":"ce4bh0h2rcd13ifvqd40","pricing_plan_id":"cebpf4jnsgd1na2vs0mg"},{"bike_id":"b396f8f4-7518-4ffe-8bee-f01db4f756a4","system_id":"levelo_inurba_marseille","lat":43.26056,"lon":5.39399,"is_reserved":false,"is_disabled":false,"rental_uris":{"android":"levelo://app?vid=b396f8f4-7518-4ffe-8bee-f01db4f756a4","ios":"levelo://app?vid=b396f8f4-7518-4ffe-8bee-f01db4f756a4"},"vehicle_type_id":"4","last_reported":1744028396,"current_range_meters":18000,"station_id":"ce4bhh92rcd13ifvqfj0","pricing_plan_id":"cebpf4jnsgd1na2vs0mg"},{"bike_id":"850196ff-6acc-4452-81b2-d7d82a74b7cd","system_id":"levelo_inurba_marseille","lat":43.284424,"lon":5.391987,"is_reserved":false,"is_disabled":false,"rental_uris":{"android":"levelo://app?vid=850196ff-6acc-4452-81b2-d7d82a74b7cd","ios":"levelo://app?vid=850196ff-6acc-4452-81b2-d7d82a74b7cd"},"vehicle_type_id":"4","last_reported":1744028396,"current_range_meters":18000,"station_id":"ce4bhoh2rcd13ifvqh5g","pricing_plan_id":"cebpf4jnsgd1na2vs0mg"},{"bike_id":"ada70c93-f996-413d-ab72-f071353c56b6","system_id":"levelo_inurba_marseille","lat":43.27378,"lon":5.36257,"is_reserved":false,"is_disabled":false,"rental_uris":{"android":"levelo://app?vid=ada70c93-f996-413d-ab72-f071353c56b6","ios":"levelo://app?vid=ada70c93-f996-413d-ab72-f071353c56b6"},"vehicle_type_id":"4","last_reported":1744028396,"current_range_meters":18000,"station_id":"ce4bhbh2rcd13ifvqeo0","pricing_plan_id":"cebpf4jnsgd1na2vs0mg"},{"bike_id":"91b82a59-5c4f-48fa-b8b2-1712254ec022","system_id":"levelo_inurba_marseille","lat":43.2936,"lon":5.37842,"is_reserved":false,"is_disabled":false,"rental_uris":{"android":"levelo://app?vid=91b82a59-5c4f-48fa-b8b2-1712254ec022","ios":"levelo://app?vid=91b82a59-5c4f-48fa-b8b2-1712254ec022"},"vehicle_type_id":"4","last_reported":1744028396,"current_range_meters":18800,"station_id":"ce4bgjh2rcd13ifvqbf0","pricing_plan_id":"cebpf4jnsgd1na2vs0mg"},{"bike_id":"9acd2242-70f6-42a4-ad2d-12174a3d71d8","system_id":"levelo_inurba_marseille","lat":43.2765,"lon":5.38925,"is_reserved":false,"is_disabled":true,"rental_uris":{"android":"levelo://app?vid=9acd2242-70f6-42a4-ad2d-12174a3d71d8","ios":"levelo://app?vid=9acd2242-70f6-42a4-ad2d-12174a3d71d8"},"vehicle_type_id":"4","last_reported":1744028396,"current_range_meters":18800,"station_id":"ce4bhi12rcd13ifvqfo0","pricing_plan_id":"cebpf4jnsgd1na2vs0mg"},{"bike_id":"f0605370-f749-4f96-9ef9-c7070173b394","system_id":"levelo_inurba_marseille","lat":43.29897,"lon":5.38129,"is_reserved":false,"is_disabled":true,"rental_uris":{"android":"levelo://app?vid=f0605370-f749-4f96-9ef9-c7070173b394","ios":"levelo://app?vid=f0605370-f749-4f96-9ef9-c7070173b394"},"vehicle_type_id":"4","last_reported":1744028396,"current_range_meters":18800,"station_id":"ce4bgj12rcd13ifvqbc0","pricing_plan_id":"cebpf4jnsgd1na2vs0mg"},{"bike_id":"5963202a-9c08-4e04-9f07-c30eb7aa3bbe","system_id":"levelo_inurba_marseille","lat":43.31226,"lon":5.3689,"is_reserved":false,"is_disabled":false,"rental_uris":{"android":"levelo://app?vid=5963202a-9c08-4e04-9f07-c30eb7aa3bbe","ios":"levelo://app?vid=5963202a-9c08-4e04-9f07-c30eb7aa3bbe"},"vehicle_type_id":"4","last_reported":1744028396,"current_range_meters":18800,"station_id":"ce4bgl92rcd13ifvqbq0","pricing_plan_id":"cebpf4jnsgd1na2vs0mg"},{"bike_id":"d752b5c1-fdcf-4864-9a6e-c3cb8dab3734","system_id":"levelo_inurba_marseille","lat":43.30562,"lon":5.36584,"is_reserved":false,"is_disabled":false,"rental_uris":{"android":"levelo://app?vid=d752b5c1-fdcf-4864-9a6e-c3cb8dab3734","ios":"levelo://app?vid=d752b5c1-fdcf-4864-9a6e-c3cb8dab3734"},"vehicle_type_id":"4","last_reported":1744028396,"current_range_meters":18800,"station_id":"ce4bgs12rcd13ifvqcag","pricing_plan_id":"cebpf4jnsgd1na2vs0mg"},{"bike_id":"90f2560e-2afd-470d-8c19-71caca73be3e","system_id":"levelo_inurba_marseille","lat":43.30551,"lon":5.36548,"is_reserved":false,"is_disabled":true,"rental_uris":{"android":"levelo://app?vid=90f2560e-2afd-470d-8c19-71caca73be3e","ios":"levelo://app?vid=90f2560e-2afd-470d-8c19-71caca73be3e"},"vehicle_type_id":"4","last_reported":1744028396,"current_range_meters":18800,"station_id":"ce4bgs12rcd13ifvqcag","pricing_plan_id":"cebpf4jnsgd1na2vs0mg"},{"bike_id":"a1df5570-0a8e-415d-8539-e8a0cd64a230","system_id":"levelo_inurba_marseille","lat":43.28669,"lon":5.3868,"is_reserved":false,"is_disabled":false,"rental_uris":{"android":"levelo://app?vid=a1df5570-0a8e-415d-8539-e8a0cd64a230","ios":"levelo://app?vid=a1df5570-0a8e-415d-8539-e8a0cd64a230"},"vehicle_type_id":"4","last_reported":1744028396,"current_range_meters":18800,"station_id":"ce4bh492rcd13ifvqdug","pricing_plan_id":"cebpf4jnsgd1na2vs0mg"},{"bike_id":"d5cd5215-01bf-4736-aff0-03759b11b049","system_id":"levelo_inurba_marseille","lat":43.30952,"lon":5.39034,"is_reserved":false,"is_disabled":false,"rental_uris":{"android":"levelo://app?vid=d5cd5215-01bf-4736-aff0-03759b11b049","ios":"levelo://app?vid=d5cd5215-01bf-4736-aff0-03759b11b049"},"vehicle_type_id":"4","last_reported":1744028396,"current_range_meters":18800,"station_id":"ce4bgup2rcd13ifvqco0","pricing_plan_id":"cebpf4jnsgd1na2vs0mg"},{"bike_id":"af24e20d-cd14-47b0-8e42-24aa1cee57db","system_id":"levelo_inurba_marseille","lat":43.275,"lon":5.42458,"is_reserved":false,"is_disabled":false,"rental_uris":{"android":"levelo://app?vid=af24e20d-cd14-47b0-8e42-24aa1cee57db","ios":"levelo://app?vid=af24e20d-cd14-47b0-8e42-24aa1cee57db"},"vehicle_type_id":"4","last_reported":1744028396,"current_range_meters":18800,"station_id":"ce4bhn92rcd13ifvqgrg","pricing_plan_id":"cebpf4jnsgd1na2vs0mg"},{"bike_id":"6652cd89-4bcb-4b60-b036-99d262602b82","system_id":"levelo_inurba_marseille","lat":43.28679,"lon":5.38691,"is_reserved":false,"is_disabled":false,"rental_uris":{"android":"levelo://app?vid=6652cd89-4bcb-4b60-b036-99d262602b82","ios":"levelo://app?vid=6652cd89-4bcb-4b60-b036-99d262602b82"},"vehicle_type_id":"4","last_reported":1744028396,"current_range_meters":19200,"station_id":"ce4bh492rcd13ifvqdug","pricing_plan_id":"cebpf4jnsgd1na2vs0mg"},{"bike_id":"ed861851-ecbe-4db0-85ef-24b144399978","system_id":"levelo_inurba_marseille","lat":43.31163,"lon":5.38682,"is_reserved":false,"is_disabled":false,"rental_uris":{"android":"levelo://app?vid=ed861851-ecbe-4db0-85ef-24b144399978","ios":"levelo://app?vid=ed861851-ecbe-4db0-85ef-24b144399978"},"vehicle_type_id":"4","last_reported":1744028396,"current_range_meters":19200,"station_id":"ce4bgv12rcd13ifvqcp0","pricing_plan_id":"cebpf4jnsgd1na2vs0mg"},{"bike_id":"ba84d01e-a678-46db-9370-2d92989c5b20","system_id":"levelo_inurba_marseille","lat":43.29015,"lon":5.4003,"is_reserved":false,"is_disabled":false,"rental_uris":{"android":"levelo://app?vid=ba84d01e-a678-46db-9370-2d92989c5b20","ios":"levelo://app?vid=ba84d01e-a678-46db-9370-2d92989c5b20"},"vehicle_type_id":"4","last_reported":1744028396,"current_range_meters":19200,"station_id":"","pricing_plan_id":"cebpf4jnsgd1na2vs0mg"},{"bike_id":"a31d4f8f-790c-4692-9560-b52cede71e74","system_id":"levelo_inurba_marseille","lat":43.30918,"lon":5.36858,"is_reserved":false,"is_disabled":false,"rental_uris":{"android":"levelo://app?vid=a31d4f8f-790c-4692-9560-b52cede71e74","ios":"levelo://app?vid=a31d4f8f-790c-4692-9560-b52cede71e74"},"vehicle_type_id":"4","last_reported":1744028396,"current_range_meters":19200,"station_id":"ce4bgn92rcd13ifvqbvg","pricing_plan_id":"cebpf4jnsgd1na2vs0mg"},{"bike_id":"edc1ad99-05d9-483f-9341-84b47c5e31e1","system_id":"levelo_inurba_marseille","lat":43.26201,"lon":5.37926,"is_reserved":false,"is_disabled":false,"rental_uris":{"android":"levelo://app?vid=edc1ad99-05d9-483f-9341-84b47c5e31e1","ios":"levelo://app?vid=edc1ad99-05d9-483f-9341-84b47c5e31e1"},"vehicle_type_id":"4","last_reported":1744028396,"current_range_meters":19200,"station_id":"ce4bhjp2rcd13ifvqg90","pricing_plan_id":"cebpf4jnsgd1na2vs0mg"},{"bike_id":"e1ed21b6-c0dc-4b7f-8b4a-adcb36679c4d","system_id":"levelo_inurba_marseille","lat":43.25584,"lon":5.38243,"is_reserved":false,"is_disabled":false,"rental_uris":{"android":"levelo://app?vid=e1ed21b6-c0dc-4b7f-8b4a-adcb36679c4d","ios":"levelo://app?vid=e1ed21b6-c0dc-4b7f-8b4a-adcb36679c4d"},"vehicle_type_id":"4","last_reported":1744028396,"current_range_meters":19200,"station_id":"ce4bhih2rcd13ifvqfs0","pricing_plan_id":"cebpf4jnsgd1na2vs0mg"},{"bike_id":"1191123e-59dc-4102-ba91-8846a04672aa","system_id":"levelo_inurba_marseille","lat":43.29168,"lon":5.37161,"is_reserved":false,"is_disabled":false,"rental_uris":{"android":"levelo://app?vid=1191123e-59dc-4102-ba91-8846a04672aa","ios":"levelo://app?vid=1191123e-59dc-4102-ba91-8846a04672aa"},"vehicle_type_id":"4","last_reported":1744028396,"current_range_meters":19200,"station_id":"ce4bha92rcd13ifvqeh0","pricing_plan_id":"cebpf4jnsgd1na2vs0mg"},{"bike_id":"66679887-43d8-4390-9edb-9a165ac54957","system_id":"levelo_inurba_marseille","lat":43.25496,"lon":5.37661,"is_reserved":false,"is_disabled":false,"rental_uris":{"android":"levelo://app?vid=66679887-43d8-4390-9edb-9a165ac54957","ios":"levelo://app?vid=66679887-43d8-4390-9edb-9a165ac54957"},"vehicle_type_id":"4","last_reported":1744028396,"current_range_meters":19200,"station_id":"ce4bhh12rcd13ifvqff0","pricing_plan_id":"cebpf4jnsgd1na2vs0mg"},{"bike_id":"279b30c6-063b-4514-9d9e-46882c055cc7","system_id":"levelo_inurba_marseille","lat":43.30546,"lon":5.36691,"is_reserved":false,"is_disabled":false,"rental_uris":{"android":"levelo://app?vid=279b30c6-063b-4514-9d9e-46882c055cc7","ios":"levelo://app?vid=279b30c6-063b-4514-9d9e-46882c055cc7"},"vehicle_type_id":"4","last_reported":1744028396,"current_range_meters":19200,"station_id":"ce4bgrp2rcd13ifvqc9g","pricing_plan_id":"cebpf4jnsgd1na2vs0mg"},{"bike_id":"65f242c9-c1db-4ea7-9f47-855cd9d083bf","system_id":"levelo_inurba_marseille","lat":43.2319,"lon":5.39986,"is_reserved":false,"is_disabled":false,"rental_uris":{"android":"levelo://app?vid=65f242c9-c1db-4ea7-9f47-855cd9d083bf","ios":"levelo://app?vid=65f242c9-c1db-4ea7-9f47-855cd9d083bf"},"vehicle_type_id":"4","last_reported":1744028396,"current_range_meters":19600,"station_id":"ce4bhn12rcd13ifvqgqg","pricing_plan_id":"cebpf4jnsgd1na2vs0mg"},{"bike_id":"93d35b09-13da-493c-a66d-b6283fe79923","system_id":"levelo_inurba_marseille","lat":43.26782,"lon":5.3943,"is_reserved":false,"is_disabled":false,"rental_uris":{"android":"levelo://app?vid=93d35b09-13da-493c-a66d-b6283fe79923","ios":"levelo://app?vid=93d35b09-13da-493c-a66d-b6283fe79923"},"vehicle_type_id":"4","last_reported":1744028396,"current_range_meters":19600,"station_id":"ce4bhh12rcd13ifvqfg0","pricing_plan_id":"cebpf4jnsgd1na2vs0mg"},{"bike_id":"9b19b1ad-e0a4-4e00-a25b-242906fe7480","system_id":"levelo_inurba_marseille","lat":43.29617,"lon":5.37746,"is_reserved":false,"is_disabled":false,"rental_uris":{"android":"levelo://app?vid=9b19b1ad-e0a4-4e00-a25b-242906fe7480","ios":"levelo://app?vid=9b19b1ad-e0a4-4e00-a25b-242906fe7480"},"vehicle_type_id":"4","last_reported":1744028396,"current_range_meters":19600,"station_id":"ce4bgi92rcd13ifvqb90","pricing_plan_id":"cebpf4jnsgd1na2vs0mg"},{"bike_id":"bc2de91d-e1f6-45e3-8cfe-38230312ef6a","system_id":"levelo_inurba_marseille","lat":43.30812,"lon":5.38158,"is_reserved":false,"is_disabled":true,"rental_uris":{"android":"levelo://app?vid=bc2de91d-e1f6-45e3-8cfe-38230312ef6a","ios":"levelo://app?vid=bc2de91d-e1f6-45e3-8cfe-38230312ef6a"},"vehicle_type_id":"4","last_reported":1744028396,"current_range_meters":19600,"station_id":"ce4bgt12rcd13ifvqce0","pricing_plan_id":"cebpf4jnsgd1na2vs0mg"},{"bike_id":"1ca7d0c4-b7aa-4350-ad9f-4e24c2ba029a","system_id":"levelo_inurba_marseille","lat":43.30389,"lon":5.42485,"is_reserved":false,"is_disabled":true,"rental_uris":{"android":"levelo://app?vid=1ca7d0c4-b7aa-4350-ad9f-4e24c2ba029a","ios":"levelo://app?vid=1ca7d0c4-b7aa-4350-ad9f-4e24c2ba029a"},"vehicle_type_id":"4","last_reported":1744028396,"current_range_meters":20000,"station_id":"ce4bhoh2rcd13ifvqh6g","pricing_plan_id":"cebpf4jnsgd1na2vs0mg"},{"bike_id":"cd43cdc7-c5e2-4f24-aab0-478f8b8d671b","system_id":"levelo_inurba_marseille","lat":43.32485,"lon":5.36591,"is_reserved":false,"is_disabled":false,"rental_uris":{"android":"levelo://app?vid=cd43cdc7-c5e2-4f24-aab0-478f8b8d671b","ios":"levelo://app?vid=cd43cdc7-c5e2-4f24-aab0-478f8b8d671b"},"vehicle_type_id":"4","last_reported":1744028396,"current_range_meters":20000,"station_id":"ce4bhs12rcd13ifvqhvg","pricing_plan_id":"cebpf4jnsgd1na2vs0mg"},{"bike_id":"302b0c63-344c-4e0d-b6e7-6cb2af7663da","system_id":"levelo_inurba_marseille","lat":43.26922,"lon":5.38638,"is_reserved":false,"is_disabled":true,"rental_uris":{"android":"levelo://app?vid=302b0c63-344c-4e0d-b6e7-6cb2af7663da","ios":"levelo://app?vid=302b0c63-344c-4e0d-b6e7-6cb2af7663da"},"vehicle_type_id":"4","last_reported":1744028396,"current_range_meters":20000,"station_id":"ce4bhh92rcd13ifvqfh0","pricing_plan_id":"cebpf4jnsgd1na2vs0mg"},{"bike_id":"c58d8ed2-3b0b-4824-930d-b01af863e3c3","system_id":"levelo_inurba_marseille","lat":43.28871,"lon":5.39313,"is_reserved":false,"is_disabled":true,"rental_uris":{"android":"levelo://app?vid=c58d8ed2-3b0b-4824-930d-b01af863e3c3","ios":"levelo://app?vid=c58d8ed2-3b0b-4824-930d-b01af863e3c3"},"vehicle_type_id":"4","last_reported":1744028396,"current_range_meters":20000,"station_id":"ce4bh2p2rcd13ifvqdi0","pricing_plan_id":"cebpf4jnsgd1na2vs0mg"},{"bike_id":"d0ab6008-6c3f-435d-80b4-a40d38b73ade","system_id":"levelo_inurba_marseille","lat":43.26958,"lon":5.38654,"is_reserved":false,"is_disabled":false,"rental_uris":{"android":"levelo://app?vid=d0ab6008-6c3f-435d-80b4-a40d38b73ade","ios":"levelo://app?vid=d0ab6008-6c3f-435d-80b4-a40d38b73ade"},"vehicle_type_id":"4","last_reported":1744028396,"current_range_meters":19600,"station_id":"ce4bhh92rcd13ifvqfh0","pricing_plan_id":"cebpf4jnsgd1na2vs0mg"},{"bike_id":"a4902c97-b6a0-4cc2-ac56-c06c07cb8228","system_id":"levelo_inurba_marseille","lat":43.29568,"lon":5.37526,"is_reserved":false,"is_disabled":false,"rental_uris":{"android":"levelo://app?vid=a4902c97-b6a0-4cc2-ac56-c06c07cb8228","ios":"levelo://app?vid=a4902c97-b6a0-4cc2-ac56-c06c07cb8228"},"vehicle_type_id":"4","last_reported":1744028396,"current_range_meters":20000,"station_id":"ce4bgh92rcd13ifvqb50","pricing_plan_id":"cebpf4jnsgd1na2vs0mg"},{"bike_id":"4f460f93-5d6d-4ed7-8ae7-d0e87847ee93","system_id":"levelo_inurba_marseille","lat":43.31228,"lon":5.36867,"is_reserved":false,"is_disabled":false,"rental_uris":{"android":"levelo://app?vid=4f460f93-5d6d-4ed7-8ae7-d0e87847ee93","ios":"levelo://app?vid=4f460f93-5d6d-4ed7-8ae7-d0e87847ee93"},"vehicle_type_id":"4","last_reported":1744028396,"current_range_meters":20000,"station_id":"ce4bgl92rcd13ifvqbq0","pricing_plan_id":"cebpf4jnsgd1na2vs0mg"},{"bike_id":"00bb16a3-febb-4076-a7e9-0f65ab100b2a","system_id":"levelo_inurba_marseille","lat":43.31233,"lon":5.3687,"is_reserved":false,"is_disabled":false,"rental_uris":{"android":"levelo://app?vid=00bb16a3-febb-4076-a7e9-0f65ab100b2a","ios":"levelo://app?vid=00bb16a3-febb-4076-a7e9-0f65ab100b2a"},"vehicle_type_id":"4","last_reported":1744028396,"current_range_meters":20000,"station_id":"ce4bgl92rcd13ifvqbq0","pricing_plan_id":"cebpf4jnsgd1na2vs0mg"},{"bike_id":"b6028d92-44a0-40aa-af5d-4ca25ed4a358","system_id":"levelo_inurba_marseille","lat":43.27911,"lon":5.39592,"is_reserved":false,"is_disabled":false,"rental_uris":{"android":"levelo://app?vid=b6028d92-44a0-40aa-af5d-4ca25ed4a358","ios":"levelo://app?vid=b6028d92-44a0-40aa-af5d-4ca25ed4a358"},"vehicle_type_id":"4","last_reported":1744028396,"current_range_meters":20000,"station_id":"ce4bhf92rcd13ifvqf40","pricing_plan_id":"cebpf4jnsgd1na2vs0mg"},{"bike_id":"b89d8b30-51b9-414b-a983-a6b73665c3b6","system_id":"levelo_inurba_marseille","lat":43.31759,"lon":5.39019,"is_reserved":false,"is_disabled":false,"rental_uris":{"android":"levelo://app?vid=b89d8b30-51b9-414b-a983-a6b73665c3b6","ios":"levelo://app?vid=b89d8b30-51b9-414b-a983-a6b73665c3b6"},"vehicle_type_id":"4","last_reported":1744028396,"current_range_meters":19600,"station_id":"ce4bhqp2rcd13ifvqhng","pricing_plan_id":"cebpf4jnsgd1na2vs0mg"},{"bike_id":"7fd6ab25-e74f-4c7c-8ca8-6e7f685d3498","system_id":"levelo_inurba_marseille","lat":43.25085,"lon":5.39525,"is_reserved":false,"is_disabled":false,"rental_uris":{"android":"levelo://app?vid=7fd6ab25-e74f-4c7c-8ca8-6e7f685d3498","ios":"levelo://app?vid=7fd6ab25-e74f-4c7c-8ca8-6e7f685d3498"},"vehicle_type_id":"4","last_reported":1744028396,"current_range_meters":20800,"station_id":"ce4bhm12rcd13ifvqgkg","pricing_plan_id":"cebpf4jnsgd1na2vs0mg"},{"bike_id":"ecbbceba-2222-43db-81ce-9e3ea6d0b478","system_id":"levelo_inurba_marseille","lat":43.29865,"lon":5.39737,"is_reserved":false,"is_disabled":false,"rental_uris":{"android":"levelo://app?vid=ecbbceba-2222-43db-81ce-9e3ea6d0b478","ios":"levelo://app?vid=ecbbceba-2222-43db-81ce-9e3ea6d0b478"},"vehicle_type_id":"4","last_reported":1744028396,"current_range_meters":20000,"station_id":"ce4bh0h2rcd13ifvqd50","pricing_plan_id":"cebpf4jnsgd1na2vs0mg"},{"bike_id":"c607b5aa-76bd-4697-b9c6-7e21c3c57c7e","system_id":"levelo_inurba_marseille","lat":43.211876,"lon":5.350698,"is_reserved":false,"is_disabled":false,"rental_uris":{"android":"levelo://app?vid=c607b5aa-76bd-4697-b9c6-7e21c3c57c7e","ios":"levelo://app?vid=c607b5aa-76bd-4697-b9c6-7e21c3c57c7e"},