{"last_updated":1729678182,"ttl":60,"version":"2.2","data":{"bikes":[{"bike_id":"e49abd15-a4b5-436d-abb0-7517fa642236","system_id":"levelo_inurba_marseille","lat":43.29533,"lon":5.37505,"is_reserved":false,"is_disabled":false,"rental_uris":{"android":"levelo://app?vid=e49abd15-a4b5-436d-abb0-7517fa642236","ios":"levelo://app?vid=e49abd15-a4b5-436d-abb0-7517fa642236"},"vehicle_type_id":"4","last_reported":1729678182,"current_range_meters":31200,"station_id":"ce4bgkp2rcd13ifvqbmg","pricing_plan_id":"cebpf4jnsgd1na2vs0mg"},{"bike_id":"94505a83-b206-4db0-aff0-8f5678e8c521","system_id":"levelo_inurba_marseille","lat":43.24074,"lon":5.37754,"is_reserved":false,"is_disabled":false,"rental_uris":{"android":"levelo://app?vid=94505a83-b206-4db0-aff0-8f5678e8c521","ios":"levelo://app?vid=94505a83-b206-4db0-aff0-8f5678e8c521"},"vehicle_type_id":"4","last_reported":1729678182,"current_range_meters":17600,"station_id":"ce4bhnp2rcd13ifvqgvg","pricing_plan_id":"cebpf4jnsgd1na2vs0mg"},{"bike_id":"da2545c0-1aa1-4252-83b4-6c3657ee2a36","system_id":"levelo_inurba_marseille","lat":43.29556,"lon":5.42289,"is_reserved":false,"is_disabled":false,"rental_uris":{"android":"levelo://app?vid=da2545c0-1aa1-4252-83b4-6c3657ee2a36","ios":"levelo://app?vid=da2545c0-1aa1-4252-83b4-6c3657ee2a36"},"vehicle_type_id":"4","last_reported":1729678182,"current_range_meters":28400,"station_id":"ce4bhph2rcd13ifvqhdg","pricing_plan_id":"cebpf4jnsgd1na2vs0mg"},{"bike_id":"b149ce4e-51e1-44d1-a677-e09dc3311ba7","system_id":"levelo_inurba_marseille","lat":43.24389,"lon":5.37052,"is_reserved":false,"is_disabled":false,"rental_uris":{"android":"levelo://app?vid=b149ce4e-51e1-44d1-a677-e09dc3311ba7","ios":"levelo://app?vid=b149ce4e-51e1-44d1-a677-e09dc3311ba7"},"vehicle_type_id":"4","last_reported":1729678182,"current_range_meters":40000,"station_id":"ce4bhhh2rcd13ifvqfk0","pricing_plan_id":"cebpf4jnsgd1na2vs0mg"},{"bike_id":"b4cc9679-1889-4d52-9d59-6fc564d9e1c9","system_id":"levelo_inurba_marseille","lat":43.24386,"lon":5.37059,"is_reserved":false,"is_disabled":false,"rental_uris":{"android":"levelo://app?vid=b4cc9679-1889-4d52-9d59-6fc564d9e1c9","ios":"levelo://app?vid=b4cc9679-1889-4d52-9d59-6fc564d9e1c9"},"vehicle_type_id":"4","last_reported":1729678182,"current_range_meters":28800,"station_id":"ce4bhhh2rcd13ifvqfk0","pricing_plan_id":"cebpf4jnsgd1na2vs0mg"},{"bike_id":"a581c9ee-de6c-4ca2-adce-d873a10f1b7c","system_id":"levelo_inurba_marseille","lat":43.24079,"lon":5.37747,"is_reserved":false,"is_disabled":false,"rental_uris":{"android":"levelo://app?vid=a581c9ee-de6c-4ca2-adce-d873a10f1b7c","ios":"levelo://app?vid=a581c9ee-de6c-4ca2-adce-d873a10f1b7c"},"vehicle_type_id":"4","last_reported":1729678182,"current_range_meters":11200,"station_id":"ce4bhnp2rcd13ifvqgvg","pricing_plan_id":"cebpf4jnsgd1na2vs0mg"},{"bike_id":"33b2053d-bd1d-49f6-9dc6-9a0d8a900c29","system_id":"levelo_inurba_marseille","lat":43.24081,"lon":5.37756,"is_reserved":false,"is_disabled":false,"rental_uris":{"android":"levelo://app?vid=33b2053d-bd1d-49f6-9dc6-9a0d8a900c29","ios":"levelo://app?vid=33b2053d-bd1d-49f6-9dc6-9a0d8a900c29"},"vehicle_type_id":"4","last_reported":1729678182,"current_range_meters":19600,"station_id":"ce4bhnp2rcd13ifvqgvg","pricing_plan_id":"cebpf4jnsgd1na2vs0mg"},{"bike_id":"b2b3a5d2-308e-4489-8c55-aeb1cd1f9273","system_id":"levelo_inurba_marseille","lat":43.2408,"lon":5.37752,"is_reserved":false,"is_disabled":false,"rental_uris":{"android":"levelo://app?vid=b2b3a5d2-308e-4489-8c55-aeb1cd1f9273","ios":"levelo://app?vid=b2b3a5d2-308e-4489-8c55-aeb1cd1f9273"},"vehicle_type_id":"4","last_reported":1729678182,"current_range_meters":4000,"station_id":"ce4bhnp2rcd13ifvqgvg","pricing_plan_id":"cebpf4jnsgd1na2vs0mg"},{"bike_id":"aefc26b3-a0a2-40c2-b87f-4419b49b91af","system_id":"levelo_inurba_marseille","lat":43.33603,"lon":5.41029,"is_reserved":false,"is_disabled":false,"rental_uris":{"android":"levelo://app?vid=aefc26b3-a0a2-40c2-b87f-4419b49b91af","ios":"levelo://app?vid=aefc26b3-a0a2-40c2-b87f-4419b49b91af"},"vehicle_type_id":"4","last_reported":1729678182,"current_range_meters":36000,"station_id":"ce4bhqh2rcd13ifvqhmg","pricing_plan_id":"cebpf4jnsgd1na2vs0mg"},{"bike_id":"ae51fc94-1fb5-41ad-933b-707a94af7138","system_id":"levelo_inurba_marseille","lat":43.23147,"lon":5.43707,"is_reserved":false,"is_disabled":false,"rental_uris":{"android":"levelo://app?vid=ae51fc94-1fb5-41ad-933b-707a94af7138","ios":"levelo://app?vid=ae51fc94-1fb5-41ad-933b-707a94af7138"},"vehicle_type_id":"4","last_reported":1729678182,"current_range_meters":10800,"station_id":"ce4bhmp2rcd13ifvqgog","pricing_plan_id":"cebpf4jnsgd1na2vs0mg"},{"bike_id":"bc5570b0-116e-480f-9df3-7a8dff091c99","system_id":"levelo_inurba_marseille","lat":43.24077,"lon":5.37752,"is_reserved":false,"is_disabled":false,"rental_uris":{"android":"levelo://app?vid=bc5570b0-116e-480f-9df3-7a8dff091c99","ios":"levelo://app?vid=bc5570b0-116e-480f-9df3-7a8dff091c99"},"vehicle_type_id":"4","last_reported":1729678182,"current_range_meters":38800,"station_id":"ce4bhnp2rcd13ifvqgvg","pricing_plan_id":"cebpf4jnsgd1na2vs0mg"},{"bike_id":"bf438b12-535b-41bb-835a-7366a1ecaff7","system_id":"levelo_inurba_marseille","lat":43.28931,"lon":5.38403,"is_reserved":false,"is_disabled":false,"rental_uris":{"android":"levelo://app?vid=bf438b12-535b-41bb-835a-7366a1ecaff7","ios":"levelo://app?vid=bf438b12-535b-41bb-835a-7366a1ecaff7"},"vehicle_type_id":"4","last_reported":1729678182,"current_range_meters":27600,"station_id":"ce4bh612rcd13ifvqe6g","pricing_plan_id":"cebpf4jnsgd1na2vs0mg"},{"bike_id":"2cc31f91-5067-4348-b87f-36625ef4fc16","system_id":"levelo_inurba_marseille","lat":43.27976,"lon":5.38751,"is_reserved":false,"is_disabled":false,"rental_uris":{"android":"levelo://app?vid=2cc31f91-5067-4348-b87f-36625ef4fc16","ios":"levelo://app?vid=2cc31f91-5067-4348-b87f-36625ef4fc16"},"vehicle_type_id":"4","last_reported":1729678182,"current_range_meters":16000,"station_id":"ce4bhg12rcd13ifvqf80","pricing_plan_id":"cebpf4jnsgd1na2vs0mg"},{"bike_id":"ec3db7e2-a0a2-4dc6-8d37-06a004b32d49","system_id":"levelo_inurba_marseille","lat":43.30546,"lon":5.3653,"is_reserved":false,"is_disabled":false,"rental_uris":{"android":"levelo://app?vid=ec3db7e2-a0a2-4dc6-8d37-06a004b32d49","ios":"levelo://app?vid=ec3db7e2-a0a2-4dc6-8d37-06a004b32d49"},"vehicle_type_id":"4","last_reported":1729678182,"current_range_meters":36000,"station_id":"ce4bgs12rcd13ifvqcag","pricing_plan_id":"cebpf4jnsgd1na2vs0mg"},{"bike_id":"5c449356-4ac4-4d08-a405-c433fbe21a80","system_id":"levelo_inurba_marseille","lat":43.33737,"lon":5.37458,"is_reserved":false,"is_disabled":false,"rental_uris":{"android":"levelo://app?vid=5c449356-4ac4-4d08-a405-c433fbe21a80","ios":"levelo://app?vid=5c449356-4ac4-4d08-a405-c433fbe21a80"},"vehicle_type_id":"4","last_reported":1729678182,"current_range_meters":30000,"station_id":"","pricing_plan_id":"cebpf4jnsgd1na2vs0mg"},{"bike_id":"a34d4e86-e3fb-4711-863f-7eedb40d6428","system_id":"levelo_inurba_marseille","lat":43.29837,"lon":5.36267,"is_reserved":false,"is_disabled":false,"rental_uris":{"android":"levelo://app?vid=a34d4e86-e3fb-4711-863f-7eedb40d6428","ios":"levelo://app?vid=a34d4e86-e3fb-4711-863f-7eedb40d6428"},"vehicle_type_id":"4","last_reported":1729678182,"current_range_meters":38800,"station_id":"ce4bgpp2rcd13ifvqc3g","pricing_plan_id":"cebpf4jnsgd1na2vs0mg"},{"bike_id":"8158dd2d-3ca6-4da3-bfc2-76e468fa9265","system_id":"levelo_inurba_marseille","lat":43.28961,"lon":5.37829,"is_reserved":false,"is_disabled":false,"rental_uris":{"android":"levelo://app?vid=8158dd2d-3ca6-4da3-bfc2-76e468fa9265","ios":"levelo://app?vid=8158dd2d-3ca6-4da3-bfc2-76e468fa9265"},"vehicle_type_id":"4","last_reported":1729678182,"current_range_meters":19600,"station_id":"ce4bh9p2rcd13ifvqed0","pricing_plan_id":"cebpf4jnsgd1na2vs0mg"},{"bike_id":"ea641106-217f-42c7-96a0-4b997a60480b","system_id":"levelo_inurba_marseille","lat":43.26929,"lon":5.38934,"is_reserved":false,"is_disabled":false,"rental_uris":{"android":"levelo://app?vid=ea641106-217f-42c7-96a0-4b997a60480b","ios":"levelo://app?vid=ea641106-217f-42c7-96a0-4b997a60480b"},"vehicle_type_id":"4","last_reported":1729678182,"current_range_meters":16000,"station_id":"ce4bhhh2rcd13ifvqfl0","pricing_plan_id":"cebpf4jnsgd1na2vs0mg"},{"bike_id":"b537a7c5-9c86-4581-9304-b2cb5f9d166b","system_id":"levelo_inurba_marseille","lat":43.2407,"lon":5.37755,"is_reserved":false,"is_disabled":false,"rental_uris":{"android":"levelo://app?vid=b537a7c5-9c86-4581-9304-b2cb5f9d166b","ios":"levelo://app?vid=b537a7c5-9c86-4581-9304-b2cb5f9d166b"},"vehicle_type_id":"4","last_reported":1729678182,"current_range_meters":16400,"station_id":"ce4bhnp2rcd13ifvqgvg","pricing_plan_id":"cebpf4jnsgd1na2vs0mg"},{"bike_id":"80f01561-4f78-4d59-98de-f130f22341eb","system_id":"levelo_inurba_marseille","lat":43.28149,"lon":5.42639,"is_reserved":false,"is_disabled":false,"rental_uris":{"android":"levelo://app?vid=80f01561-4f78-4d59-98de-f130f22341eb","ios":"levelo://app?vid=80f01561-4f78-4d59-98de-f130f22341eb"},"vehicle_type_id":"4","last_reported":1729678182,"current_range_meters":4000,"station_id":"ce4bhnh2rcd13ifvqgug","pricing_plan_id":"cebpf4jnsgd1na2vs0mg"},{"bike_id":"0c6b11eb-50a7-4dc0-bff2-d8026011ec1d","system_id":"levelo_inurba_marseille","lat":43.24389,"lon":5.37057,"is_reserved":false,"is_disabled":false,"rental_uris":{"android":"levelo://app?vid=0c6b11eb-50a7-4dc0-bff2-d8026011ec1d","ios":"levelo://app?vid=0c6b11eb-50a7-4dc0-bff2-d8026011ec1d"},"vehicle_type_id":"4","last_reported":1729678182,"current_range_meters":39200,"station_id":"ce4bhhh2rcd13ifvqfk0","pricing_plan_id":"cebpf4jnsgd1na2vs0mg"},{"bike_id":"3571e33e-08e7-4c65-bcb7-4ff4abd18ba6","system_id":"levelo_inurba_marseille","lat":43.24164,"lon":5.36403,"is_reserved":false,"is_disabled":false,"rental_uris":{"android":"levelo://app?vid=3571e33e-08e7-4c65-bcb7-4ff4abd18ba6","ios":"levelo://app?vid=3571e33e-08e7-4c65-bcb7-4ff4abd18ba6"},"vehicle_type_id":"4","last_reported":1729678182,"current_range_meters":20400,"station_id":"cpo36qri1sfpv3e86is0","pricing_plan_id":"cebpf4jnsgd1na2vs0mg"},{"bike_id":"c769be1b-4262-45e1-ae17-91133a0a1d6c","system_id":"levelo_inurba_marseille","lat":43.3053,"lon":5.36659,"is_reserved":false,"is_disabled":false,"rental_uris":{"android":"levelo://app?vid=c769be1b-4262-45e1-ae17-91133a0a1d6c","ios":"levelo://app?vid=c769be1b-4262-45e1-ae17-91133a0a1d6c"},"vehicle_type_id":"4","last_reported":1729678182,"current_range_meters":12000,"station_id":"","pricing_plan_id":"cebpf4jnsgd1na2vs0mg"},{"bike_id":"4882a116-5452-4f97-bdbd-13df4cccb9d6","system_id":"levelo_inurba_marseille","lat":43.30603,"lon":5.37237,"is_reserved":false,"is_disabled":false,"rental_uris":{"android":"levelo://app?vid=4882a116-5452-4f97-bdbd-13df4cccb9d6","ios":"levelo://app?vid=4882a116-5452-4f97-bdbd-13df4cccb9d6"},"vehicle_type_id":"4","last_reported":1729678182,"current_range_meters":30000,"station_id":"ce4bgqh2rcd13ifvqc4g","pricing_plan_id":"cebpf4jnsgd1na2vs0mg"},{"bike_id":"b4577f5c-9909-4626-bce6-e6558b7afb48","system_id":"levelo_inurba_marseille","lat":43.31166,"lon":5.38725,"is_reserved":false,"is_disabled":false,"rental_uris":{"android":"levelo://app?vid=b4577f5c-9909-4626-bce6-e6558b7afb48","ios":"levelo://app?vid=b4577f5c-9909-4626-bce6-e6558b7afb48"},"vehicle_type_id":"4","last_reported":1729678182,"current_range_meters":37600,"station_id":"ce4bgv12rcd13ifvqcp0","pricing_plan_id":"cebpf4jnsgd1na2vs0mg"},{"bike_id":"38cee7b2-d6c6-481d-b542-d3c675fa82eb","system_id":"levelo_inurba_marseille","lat":43.29571,"lon":5.37541,"is_reserved":false,"is_disabled":false,"rental_uris":{"android":"levelo://app?vid=38cee7b2-d6c6-481d-b542-d3c675fa82eb","ios":"levelo://app?vid=38cee7b2-d6c6-481d-b542-d3c675fa82eb"},"vehicle_type_id":"4","last_reported":1729678182,"current_range_meters":16800,"station_id":"ce4bgh92rcd13ifvqb50","pricing_plan_id":"cebpf4jnsgd1na2vs0mg"},{"bike_id":"71ea797b-da06-4327-92dc-47c13ec265e2","system_id":"levelo_inurba_marseille","lat":43.3054,"lon":5.36525,"is_reserved":false,"is_disabled":false,"rental_uris":{"android":"levelo://app?vid=71ea797b-da06-4327-92dc-47c13ec265e2","ios":"levelo://app?vid=71ea797b-da06-4327-92dc-47c13ec265e2"},"vehicle_type_id":"4","last_reported":1729678182,"current_range_meters":38400,"station_id":"ce4bgs12rcd13ifvqcag","pricing_plan_id":"cebpf4jnsgd1na2vs0mg"},{"bike_id":"abd82fe2-fd4a-4c2f-848c-8e67d71ca5d5","system_id":"levelo_inurba_marseille","lat":43.29962,"lon":5.41315,"is_reserved":false,"is_disabled":false,"rental_uris":{"android":"levelo://app?vid=abd82fe2-fd4a-4c2f-848c-8e67d71ca5d5","ios":"levelo://app?vid=abd82fe2-fd4a-4c2f-848c-8e67d71ca5d5"},"vehicle_type_id":"4","last_reported":1729678182,"current_range_meters":27600,"station_id":"ce4bhp12rcd13ifvqh9g","pricing_plan_id":"cebpf4jnsgd1na2vs0mg"},{"bike_id":"75e241df-f0bd-432d-bf1b-71301b1d10fa","system_id":"levelo_inurba_marseille","lat":43.29787,"lon":5.38108,"is_reserved":false,"is_disabled":false,"rental_uris":{"android":"levelo://app?vid=75e241df-f0bd-432d-bf1b-71301b1d10fa","ios":"levelo://app?vid=75e241df-f0bd-432d-bf1b-71301b1d10fa"},"vehicle_type_id":"4","last_reported":1729678182,"current_range_meters":32000,"station_id":"ce4bgip2rcd13ifvqbb0","pricing_plan_id":"cebpf4jnsgd1na2vs0mg"},{"bike_id":"36b67483-be36-4ca6-b1a5-421e3143f090","system_id":"levelo_inurba_marseille","lat":43.23152,"lon":5.43708,"is_reserved":false,"is_disabled":false,"rental_uris":{"android":"levelo://app?vid=36b67483-be36-4ca6-b1a5-421e3143f090","ios":"levelo://app?vid=36b67483-be36-4ca6-b1a5-421e3143f090"},"vehicle_type_id":"4","last_reported":1729678182,"current_range_meters":38400,"station_id":"ce4bhmp2rcd13ifvqgog","pricing_plan_id":"cebpf4jnsgd1na2vs0mg"},{"bike_id":"dd227e09-e22b-4ff7-98c4-b38f80028aa5","system_id":"levelo_inurba_marseille","lat":43.30546,"lon":5.36714,"is_reserved":false,"is_disabled":false,"rental_uris":{"android":"levelo://app?vid=dd227e09-e22b-4ff7-98c4-b38f80028aa5","ios":"levelo://app?vid=dd227e09-e22b-4ff7-98c4-b38f80028aa5"},"vehicle_type_id":"4","last_reported":1729678182,"current_range_meters":32800,"station_id":"ce4bgrp2rcd13ifvqc9g","pricing_plan_id":"cebpf4jnsgd1na2vs0mg"},{"bike_id":"1786e6f3-e6fa-4812-bd59-dee9b5495362","system_id":"levelo_inurba_marseille","lat":43.25723,"lon":5.41102,"is_reserved":false,"is_disabled":false,"rental_uris":{"android":"levelo://app?vid=1786e6f3-e6fa-4812-bd59-dee9b5495362","ios":"levelo://app?vid=1786e6f3-e6fa-4812-bd59-dee9b5495362"},"vehicle_type_id":"4","last_reported":1729678182,"current_range_meters":38400,"station_id":"ce4bhkp2rcd13ifvqgd0","pricing_plan_id":"cebpf4jnsgd1na2vs0mg"},{"bike_id":"03e455ca-db19-4914-ba3f-fe3463aa8ffe","system_id":"levelo_inurba_marseille","lat":43.27208,"lon":5.39177,"is_reserved":false,"is_disabled":false,"rental_uris":{"android":"levelo://app?vid=03e455ca-db19-4914-ba3f-fe3463aa8ffe","ios":"levelo://app?vid=03e455ca-db19-4914-ba3f-fe3463aa8ffe"},"vehicle_type_id":"4","last_reported":1729678182,"current_range_meters":38800,"station_id":"ce4bhhp2rcd13ifvqfm0","pricing_plan_id":"cebpf4jnsgd1na2vs0mg"},{"bike_id":"a913f4c8-2347-4563-b0d5-a786a0231a78","system_id":"levelo_inurba_marseille","lat":43.289741,"lon":5.39776,"is_reserved":false,"is_disabled":false,"rental_uris":{"android":"levelo://app?vid=a913f4c8-2347-4563-b0d5-a786a0231a78","ios":"levelo://app?vid=a913f4c8-2347-4563-b0d5-a786a0231a78"},"vehicle_type_id":"4","last_reported":1729678182,"current_range_meters":24400,"station_id":"ce4bh492rcd13ifvqdvg","pricing_plan_id":"cebpf4jnsgd1na2vs0mg"},{"bike_id":"01af60f1-cbeb-41ea-a196-320b1e5ccedd","system_id":"levelo_inurba_marseille","lat":43.26952,"lon":5.38628,"is_reserved":false,"is_disabled":false,"rental_uris":{"android":"levelo://app?vid=01af60f1-cbeb-41ea-a196-320b1e5ccedd","ios":"levelo://app?vid=01af60f1-cbeb-41ea-a196-320b1e5ccedd"},"vehicle_type_id":"4","last_reported":1729678182,"current_range_meters":27200,"station_id":"ce4bhh92rcd13ifvqfh0","pricing_plan_id":"cebpf4jnsgd1na2vs0mg"},{"bike_id":"1687c410-8985-4bf1-9fa1-801bd33d4d6d","system_id":"levelo_inurba_marseille","lat":43.32471,"lon":5.36566,"is_reserved":false,"is_disabled":false,"rental_uris":{"android":"levelo://app?vid=1687c410-8985-4bf1-9fa1-801bd33d4d6d","ios":"levelo://app?vid=1687c410-8985-4bf1-9fa1-801bd33d4d6d"},"vehicle_type_id":"4","last_reported":1729678182,"current_range_meters":25600,"station_id":"ce4bhs12rcd13ifvqhvg","pricing_plan_id":"cebpf4jnsgd1na2vs0mg"},{"bike_id":"41b7d95f-0141-4e28-b91e-184efc02edf3","system_id":"levelo_inurba_marseille","lat":43.29721,"lon":5.37691,"is_reserved":false,"is_disabled":false,"rental_uris":{"android":"levelo://app?vid=41b7d95f-0141-4e28-b91e-184efc02edf3","ios":"levelo://app?vid=41b7d95f-0141-4e28-b91e-184efc02edf3"},"vehicle_type_id":"4","last_reported":1729678182,"current_range_meters":39200,"station_id":"ce4bgkh2rcd13ifvqbl0","pricing_plan_id":"cebpf4jnsgd1na2vs0mg"},{"bike_id":"41ca4915-f5cf-4ecf-a173-fd2bb1b984cc","system_id":"levelo_inurba_marseille","lat":43.23195,"lon":5.35551,"is_reserved":false,"is_disabled":false,"rental_uris":{"android":"levelo://app?vid=41ca4915-f5cf-4ecf-a173-fd2bb1b984cc","ios":"levelo://app?vid=41ca4915-f5cf-4ecf-a173-fd2bb1b984cc"},"vehicle_type_id":"4","last_reported":1729678182,"current_range_meters":22400,"station_id":"ce4bhu92rcd13ifvqi70","pricing_plan_id":"cebpf4jnsgd1na2vs0mg"},{"bike_id":"c74397c1-050e-4020-98fa-ed401fd7e2e4","system_id":"levelo_inurba_marseille","lat":43.30549,"lon":5.38425,"is_reserved":false,"is_disabled":false,"rental_uris":{"android":"levelo://app?vid=c74397c1-050e-4020-98fa-ed401fd7e2e4","ios":"levelo://app?vid=c74397c1-050e-4020-98fa-ed401fd7e2e4"},"vehicle_type_id":"4","last_reported":1729678182,"current_range_meters":36000,"station_id":"ce4bgg92rcd13ifvqb30","pricing_plan_id":"cebpf4jnsgd1na2vs0mg"},{"bike_id":"57d1531d-6573-4f80-b39c-f49d4d52e607","system_id":"levelo_inurba_marseille","lat":43.29004,"lon":5.35615,"is_reserved":false,"is_disabled":false,"rental_uris":{"android":"levelo://app?vid=57d1531d-6573-4f80-b39c-f49d4d52e607","ios":"levelo://app?vid=57d1531d-6573-4f80-b39c-f49d4d52e607"},"vehicle_type_id":"4","last_reported":1729678182,"current_range_meters":30400,"station_id":"ce4bhb92rcd13ifvqen0","pricing_plan_id":"cebpf4jnsgd1na2vs0mg"},{"bike_id":"177c4be8-fa0a-48df-aeb3-0b2fa4c0364f","system_id":"levelo_inurba_marseille","lat":43.29902,"lon":5.38143,"is_reserved":false,"is_disabled":false,"rental_uris":{"android":"levelo://app?vid=177c4be8-fa0a-48df-aeb3-0b2fa4c0364f","ios":"levelo://app?vid=177c4be8-fa0a-48df-aeb3-0b2fa4c0364f"},"vehicle_type_id":"4","last_reported":1729678182,"current_range_meters":16000,"station_id":"ce4bgj12rcd13ifvqbc0","pricing_plan_id":"cebpf4jnsgd1na2vs0mg"},{"bike_id":"56bc6709-a96c-4607-ae13-e48c2a4ad872","system_id":"levelo_inurba_marseille","lat":43.27056,"lon":5.40261,"is_reserved":false,"is_disabled":false,"rental_uris":{"android":"levelo://app?vid=56bc6709-a96c-4607-ae13-e48c2a4ad872","ios":"levelo://app?vid=56bc6709-a96c-4607-ae13-e48c2a4ad872"},"vehicle_type_id":"4","last_reported":1729678182,"current_range_meters":32800,"station_id":"ce4bhk92rcd13ifvqgc0","pricing_plan_id":"cebpf4jnsgd1na2vs0mg"},{"bike_id":"f86d8570-a128-4ef7-807c-cbd00fa75870","system_id":"levelo_inurba_marseille","lat":43.282651,"lon":5.35057,"is_reserved":false,"is_disabled":false,"rental_uris":{"android":"levelo://app?vid=f86d8570-a128-4ef7-807c-cbd00fa75870","ios":"levelo://app?vid=f86d8570-a128-4ef7-807c-cbd00fa75870"},"vehicle_type_id":"4","last_reported":1729678182,"current_range_meters":16800,"station_id":"ce4bhbp2rcd13ifvqerg","pricing_plan_id":"cebpf4jnsgd1na2vs0mg"},{"bike_id":"ff534449-3ba2-4f0e-a884-8d48b0a042e5","system_id":"levelo_inurba_marseille","lat":43.28848,"lon":5.39341,"is_reserved":false,"is_disabled":false,"rental_uris":{"android":"levelo://app?vid=ff534449-3ba2-4f0e-a884-8d48b0a042e5","ios":"levelo://app?vid=ff534449-3ba2-4f0e-a884-8d48b0a042e5"},"vehicle_type_id":"4","last_reported":1729678182,"current_range_meters":38400,"station_id":"ce4bh2p2rcd13ifvqdi0","pricing_plan_id":"cebpf4jnsgd1na2vs0mg"},{"bike_id":"a2d93e75-1837-4e9a-a64b-5f7543661e25","system_id":"levelo_inurba_marseille","lat":43.32366,"lon":5.38882,"is_reserved":false,"is_disabled":false,"rental_uris":{"android":"levelo://app?vid=a2d93e75-1837-4e9a-a64b-5f7543661e25","ios":"levelo://app?vid=a2d93e75-1837-4e9a-a64b-5f7543661e25"},"vehicle_type_id":"4","last_reported":1729678182,"current_range_meters":28800,"station_id":"ce4bhqp2rcd13ifvqhog","pricing_plan_id":"cebpf4jnsgd1na2vs0mg"},{"bike_id":"6a3d026e-f423-4e19-905c-b73e2bbde2ea","system_id":"levelo_inurba_marseille","lat":43.27177,"lon":5.40997,"is_reserved":false,"is_disabled":false,"rental_uris":{"android":"levelo://app?vid=6a3d026e-f423-4e19-905c-b73e2bbde2ea","ios":"levelo://app?vid=6a3d026e-f423-4e19-905c-b73e2bbde2ea"},"vehicle_type_id":"4","last_reported":1729678182,"current_range_meters":38000,"station_id":"ce4bhl12rcd13ifvqgf0","pricing_plan_id":"cebpf4jnsgd1na2vs0mg"},{"bike_id":"c0577493-6fdf-4288-93e2-1efb6212ffea","system_id":"levelo_inurba_marseille","lat":43.33021,"lon":5.39041,"is_reserved":false,"is_disabled":false,"rental_uris":{"android":"levelo://app?vid=c0577493-6fdf-4288-93e2-1efb6212ffea","ios":"levelo://app?vid=c0577493-6fdf-4288-93e2-1efb6212ffea"},"vehicle_type_id":"4","last_reported":1729678182,"current_range_meters":39200,"station_id":"ce4bhr92rcd13ifvqhrg","pricing_plan_id":"cebpf4jnsgd1na2vs0mg"},{"bike_id":"2b847ccd-9149-4dd2-a40d-f444ea0a00b3","system_id":"levelo_inurba_marseille","lat":43.29571,"lon":5.37497,"is_reserved":false,"is_disabled":false,"rental_uris":{"android":"levelo://app?vid=2b847ccd-9149-4dd2-a40d-f444ea0a00b3","ios":"levelo://app?vid=2b847ccd-9149-4dd2-a40d-f444ea0a00b3"},"vehicle_type_id":"4","last_reported":1729678182,"current_range_meters":33200,"station_id":"ce4bgh92rcd13ifvqb50","pricing_plan_id":"cebpf4jnsgd1na2vs0mg"},{"bike_id":"846e6503-36d8-45e3-b61a-2d22bac9ba18","system_id":"levelo_inurba_marseille","lat":43.31445,"lon":5.37347,"is_reserved":false,"is_disabled":false,"rental_uris":{"android":"levelo://app?vid=846e6503-36d8-45e3-b61a-2d22bac9ba18","ios":"levelo://app?vid=846e6503-36d8-45e3-b61a-2d22bac9ba18"},"vehicle_type_id":"4","last_reported":1729678182,"current_range_meters":32000,"station_id":"ce4bgt12rcd13ifvqcd0","pricing_plan_id":"cebpf4jnsgd1na2vs0mg"},{"bike_id":"78c37c98-38c3-40e5-9961-67d6770a502a","system_id":"levelo_inurba_marseille","lat":43.26031,"lon":5.37553,"is_reserved":false,"is_disabled":false,"rental_uris":{"android":"levelo://app?vid=78c37c98-38c3-40e5-9961-67d6770a502a","ios":"levelo://app?vid=78c37c98-38c3-40e5-9961-67d6770a502a"},"vehicle_type_id":"4","last_reported":1729678182,"current_range_meters":28000,"station_id":"ce4bhgh2rcd13ifvqfa0","pricing_plan_id":"cebpf4jnsgd1na2vs0mg"},{"bike_id":"f5a53045-f9b0-4183-9fc6-73b35736d031","system_id":"levelo_inurba_marseille","lat":43.30281,"lon":5.377,"is_reserved":false,"is_disabled":false,"rental_uris":{"android":"levelo://app?vid=f5a53045-f9b0-4183-9fc6-73b35736d031","ios":"levelo://app?vid=f5a53045-f9b0-4183-9fc6-73b35736d031"},"vehicle_type_id":"4","last_reported":1729678182,"current_range_meters":39200,"station_id":"ce4bguh2rcd13ifvqcj0","pricing_plan_id":"cebpf4jnsgd1na2vs0mg"},{"bike_id":"cc8dda34-8380-4b98-988a-ac4ac40bc764","system_id":"levelo_inurba_marseille","lat":43.23149,"lon":5.43714,"is_reserved":false,"is_disabled":false,"rental_uris":{"android":"levelo://app?vid=cc8dda34-8380-4b98-988a-ac4ac40bc764","ios":"levelo://app?vid=cc8dda34-8380-4b98-988a-ac4ac40bc764"},"vehicle_type_id":"4","last_reported":1729678182,"current_range_meters":17600,"station_id":"ce4bhmp2rcd13ifvqgog","pricing_plan_id":"cebpf4jnsgd1na2vs0mg"},{"bike_id":"cbe10c03-fb85-436f-9ae4-c9a8a717f05b","system_id":"levelo_inurba_marseille","lat":43.31224,"lon":5.3686,"is_reserved":false,"is_disabled":false,"rental_uris":{"android":"levelo://app?vid=cbe10c03-fb85-436f-9ae4-c9a8a717f05b","ios":"levelo://app?vid=cbe10c03-fb85-436f-9ae4-c9a8a717f05b"},"vehicle_type_id":"4","last_reported":1729678182,"current_range_meters":12800,"station_id":"ce4bgl92rcd13ifvqbq0","pricing_plan_id":"cebpf4jnsgd1na2vs0mg"},{"bike_id":"4200acaf-bcdf-4804-8881-9af9a6d83263","system_id":"levelo_inurba_marseille","lat":43.27307,"lon":5.3909,"is_reserved":false,"is_disabled":false,"rental_uris":{"android":"levelo://app?vid=4200acaf-bcdf-4804-8881-9af9a6d83263","ios":"levelo://app?vid=4200acaf-bcdf-4804-8881-9af9a6d83263"},"vehicle_type_id":"4","last_reported":1729678182,"current_range_meters":23200,"station_id":"ce4bhgp2rcd13ifvqfe0","pricing_plan_id":"cebpf4jnsgd1na2vs0mg"},{"bike_id":"2991d625-5bdb-405c-a72c-1629b2d49ef0","system_id":"levelo_inurba_marseille","lat":43.30254,"lon":5.40065,"is_reserved":false,"is_disabled":false,"rental_uris":{"android":"levelo://app?vid=2991d625-5bdb-405c-a72c-1629b2d49ef0","ios":"levelo://app?vid=2991d625-5bdb-405c-a72c-1629b2d49ef0"},"vehicle_type_id":"4","last_reported":1729678182,"current_range_meters":21600,"station_id":"ce4bgvh2rcd13ifvqcs0","pricing_plan_id":"cebpf4jnsgd1na2vs0mg"},{"bike_id":"1c8b02d9-5f08-476e-b7bd-fdf68c4881ee","system_id":"levelo_inurba_marseille","lat":43.2985,"lon":5.36275,"is_reserved":false,"is_disabled":false,"rental_uris":{"android":"levelo://app?vid=1c8b02d9-5f08-476e-b7bd-fdf68c4881ee","ios":"levelo://app?vid=1c8b02d9-5f08-476e-b7bd-fdf68c4881ee"},"vehicle_type_id":"4","last_reported":1729678182,"current_range_meters":39200,"station_id":"ce4bgpp2rcd13ifvqc3g","pricing_plan_id":"cebpf4jnsgd1na2vs0mg"},{"bike_id":"69d7e6b0-2d06-4544-8840-81ca0a903fc0","system_id":"levelo_inurba_marseille","lat":43.29484,"lon":5.44397,"is_reserved":false,"is_disabled":false,"rental_uris":{"android":"levelo://app?vid=69d7e6b0-2d06-4544-8840-81ca0a903fc0","ios":"levelo://app?vid=69d7e6b0-2d06-4544-8840-81ca0a903fc0"},"vehicle_type_id":"4","last_reported":1729678182,"current_range_meters":2000,"station_id":"","pricing_plan_id":"cebpf4jnsgd1na2vs0mg"},{"bike_id":"59c0bf37-891b-4db8-8fe1-87e51af2fc26","system_id":"levelo_inurba_marseille","lat":43.31324,"lon":5.36735,"is_reserved":false,"is_disabled":false,"rental_uris":{"android":"levelo://app?vid=59c0bf37-891b-4db8-8fe1-87e51af2fc26","ios":"levelo://app?vid=59c0bf37-891b-4db8-8fe1-87e51af2fc26"},"vehicle_type_id":"4","last_reported":1729678182,"current_range_meters":36400,"station_id":"ce4bgr92rcd13ifvqc6g","pricing_plan_id":"cebpf4jnsgd1na2vs0mg"},{"bike_id":"bc74935d-1660-44e5-bf16-e520e3b64275","system_id":"levelo_inurba_marseille","lat":43.292,"lon":5.36908,"is_reserved":false,"is_disabled":false,"rental_uris":{"android":"levelo://app?vid=bc74935d-1660-44e5-bf16-e520e3b64275","ios":"levelo://app?vid=bc74935d-1660-44e5-bf16-e520e3b64275"},"vehicle_type_id":"4","last_reported":1729678182,"current_range_meters":12000,"station_id":"","pricing_plan_id":"cebpf4jnsgd1na2vs0mg"},{"bike_id":"fd3d93e7-99f7-47eb-b079-2d8de5d8ae7c","system_id":"levelo_inurba_marseille","lat":43.30552,"lon":5.3653,"is_reserved":false,"is_disabled":false,"rental_uris":{"android":"levelo://app?vid=fd3d93e7-99f7-47eb-b079-2d8de5d8ae7c","ios":"levelo://app?vid=fd3d93e7-99f7-47eb-b079-2d8de5d8ae7c"},"vehicle_type_id":"4","last_reported":1729678182,"current_range_meters":40000,"station_id":"ce4bgs12rcd13ifvqcag","pricing_plan_id":"cebpf4jnsgd1na2vs0mg"},{"bike_id":"ac16ead3-cd01-4d34-814a-2a0ce3747710","system_id":"levelo_inurba_marseille","lat":43.25935,"lon":5.40899,"is_reserved":false,"is_disabled":false,"rental_uris":{"android":"levelo://app?vid=ac16ead3-cd01-4d34-814a-2a0ce3747710","ios":"levelo://app?vid=ac16ead3-cd01-4d34-814a-2a0ce3747710"},"vehicle_type_id":"4","last_reported":1729678182,"current_range_meters":25200,"station_id":"ce4bhm92rcd13ifvqglg","pricing_plan_id":"cebpf4jnsgd1na2vs0mg"},{"bike_id":"81adea8b-6332-4300-b49a-7f6a69d89899","system_id":"levelo_inurba_marseille","lat":43.31045,"lon":5.37646,"is_reserved":false,"is_disabled":false,"rental_uris":{"android":"levelo://app?vid=81adea8b-6332-4300-b49a-7f6a69d89899","ios":"levelo://app?vid=81adea8b-6332-4300-b49a-7f6a69d89899"},"vehicle_type_id":"4","last_reported":1729678182,"current_range_meters":25600,"station_id":"","pricing_plan_id":"cebpf4jnsgd1na2vs0mg"},{"bike_id":"0167b6fc-c66e-4b8a-9d97-50347f3f616d","system_id":"levelo_inurba_marseille","lat":43.3096,"lon":5.39035,"is_reserved":false,"is_disabled":false,"rental_uris":{"android":"levelo://app?vid=0167b6fc-c66e-4b8a-9d97-50347f3f616d","ios":"levelo://app?vid=0167b6fc-c66e-4b8a-9d97-50347f3f616d"},"vehicle_type_id":"4","last_reported":1729678182,"current_range_meters":28400,"station_id":"ce4bgup2rcd13ifvqco0","pricing_plan_id":"cebpf4jnsgd1na2vs0mg"},{"bike_id":"e8a8026c-2c38-4320-aaae-506332940bc7","system_id":"levelo_inurba_marseille","lat":43.3302,"lon":5.39042,"is_reserved":false,"is_disabled":false,"rental_uris":{"android":"levelo://app?vid=e8a8026c-2c38-4320-aaae-506332940bc7","ios":"levelo://app?vid=e8a8026c-2c38-4320-aaae-506332940bc7"},"vehicle_type_id":"4","last_reported":1729678182,"current_range_meters":38000,"station_id":"ce4bhr92rcd13ifvqhrg","pricing_plan_id":"cebpf4jnsgd1na2vs0mg"},{"bike_id":"4506c05a-9174-4a55-8e72-18aadcb1238d","system_id":"levelo_inurba_marseille","lat":43.29228,"lon":5.36071,"is_reserved":false,"is_disabled":false,"rental_uris":{"android":"levelo://app?vid=4506c05a-9174-4a55-8e72-18aadcb1238d","ios":"levelo://app?vid=4506c05a-9174-4a55-8e72-18aadcb1238d"},"vehicle_type_id":"4","last_reported":1729678182,"current_range_meters":35200,"station_id":"ce4bhbh2rcd13ifvqeqg","pricing_plan_id":"cebpf4jnsgd1na2vs0mg"},{"bike_id":"440747db-ee08-4225-b588-8ed28762b077","system_id":"levelo_inurba_marseille","lat":43.29038,"lon":5.39947,"is_reserved":false,"is_disabled":false,"rental_uris":{"android":"levelo://app?vid=440747db-ee08-4225-b588-8ed28762b077","ios":"levelo://app?vid=440747db-ee08-4225-b588-8ed28762b077"},"vehicle_type_id":"4","last_reported":1729678182,"current_range_meters":17600,"station_id":"ce4bh392rcd13ifvqdm0","pricing_plan_id":"cebpf4jnsgd1na2vs0mg"},{"bike_id":"f6109cd2-0bbe-442d-bb8d-17d273b50661","system_id":"levelo_inurba_marseille","lat":43.30055,"lon":5.40078,"is_reserved":false,"is_disabled":false,"rental_uris":{"android":"levelo://app?vid=f6109cd2-0bbe-442d-bb8d-17d273b50661","ios":"levelo://app?vid=f6109cd2-0bbe-442d-bb8d-17d273b50661"},"vehicle_type_id":"4","last_reported":1729678182,"current_range_meters":26800,"station_id":"ce4bh492rcd13ifvqdvg","pricing_plan_id":"cebpf4jnsgd1na2vs0mg"},{"bike_id":"7e4afcf6-6946-4caa-b8b0-4d73033d3013","system_id":"levelo_inurba_marseille","lat":43.261902,"lon":5.374474,"is_reserved":false,"is_disabled":false,"rental_uris":{"android":"levelo://app?vid=7e4afcf6-6946-4caa-b8b0-4d73033d3013","ios":"levelo://app?vid=7e4afcf6-6946-4caa-b8b0-4d73033d3013"},"vehicle_type_id":"4","last_reported":1729678182,"current_range_meters":10800,"station_id":"ce4bhgp2rcd13ifvqfc0","pricing_plan_id":"cebpf4jnsgd1na2vs0mg"},{"bike_id":"4f0a955b-bcc1-40e4-9776-53aa4fa7a556","system_id":"levelo_inurba_marseille","lat":43.337444,"lon":5.374475,"is_reserved":false,"is_disabled":false,"rental_uris":{"android":"levelo://app?vid=4f0a955b-bcc1-40e4-9776-53aa4fa7a556","ios":"levelo://app?vid=4f0a955b-bcc1-40e4-9776-53aa4fa7a556"},"vehicle_type_id":"4","last_reported":1729678182,"current_range_meters":38800,"station_id":"","pricing_plan_id":"cebpf4jnsgd1na2vs0mg"},{"bike_id":"b7393e49-91da-4125-a929-c292a93434a4","system_id":"levelo_inurba_marseille","lat":43.24076,"lon":5.37745,"is_reserved":false,"is_disabled":false,"rental_uris":{"android":"levelo://app?vid=b7393e49-91da-4125-a929-c292a93434a4","ios":"levelo://app?vid=b7393e49-91da-4125-a929-c292a93434a4"},"vehicle_type_id":"4","last_reported":1729678182,"current_range_meters":24800,"station_id":"ce4bhnp2rcd13ifvqgvg","pricing_plan_id":"cebpf4jnsgd1na2vs0mg"},{"bike_id":"7e2616cd-6b5b-4b89-9282-bdb491ae7225","system_id":"levelo_inurba_marseille","lat":43.32027,"lon":5.41574,"is_reserved":false,"is_disabled":false,"rental_uris":{"android":"levelo://app?vid=7e2616cd-6b5b-4b89-9282-bdb491ae7225","ios":"levelo://app?vid=7e2616cd-6b5b-4b89-9282-bdb491ae7225"},"vehicle_type_id":"4","last_reported":1729678182,"current_range_meters":14800,"station_id":"ce4bhq92rcd13ifvqhkg","pricing_plan_id":"cebpf4jnsgd1na2vs0mg"},{"bike_id":"3f8e5f04-85c2-461b-9a49-64a0abc92e61","system_id":"levelo_inurba_marseille","lat":43.27975,"lon":5.38732,"is_reserved":false,"is_disabled":false,"rental_uris":{"android":"levelo://app?vid=3f8e5f04-85c2-461b-9a49-64a0abc92e61","ios":"levelo://app?vid=3f8e5f04-85c2-461b-9a49-64a0abc92e61"},"vehicle_type_id":"4","last_reported":1729678182,"current_range_meters":38400,"station_id":"ce4bhg12rcd13ifvqf80","pricing_plan_id":"cebpf4jnsgd1na2vs0mg"},{"bike_id":"1674f7a2-bbc7-4fcc-b640-3e6aa2c01b2a","system_id":"levelo_inurba_marseille","lat":43.299791,"lon":5.371837,"is_reserved":false,"is_disabled":false,"rental_uris":{"android":"levelo://app?vid=1674f7a2-bbc7-4fcc-b640-3e6aa2c01b2a","ios":"levelo://app?vid=1674f7a2-bbc7-4fcc-b640-3e6aa2c01b2a"},"vehicle_type_id":"4","last_reported":1729678182,"current_range_meters":28800,"station_id":"ce4bgr92rcd13ifvqc7g","pricing_plan_id":"cebpf4jnsgd1na2vs0mg"},{"bike_id":"9639bebd-201e-4b55-9187-2633b106e19c","system_id":"levelo_inurba_marseille","lat":43.3302,"lon":5.39034,"is_reserved":false,"is_disabled":false,"rental_uris":{"android":"levelo://app?vid=9639bebd-201e-4b55-9187-2633b106e19c","ios":"levelo://app?vid=9639bebd-201e-4b55-9187-2633b106e19c"},"vehicle_type_id":"4","last_reported":1729678182,"current_range_meters":39200,"station_id":"ce4bhr92rcd13ifvqhrg","pricing_plan_id":"cebpf4jnsgd1na2vs0mg"},{"bike_id":"a6ef77b6-ccc9-41b0-8272-3478a6980024","system_id":"levelo_inurba_marseille","lat":43.31353,"lon":5.36722,"is_reserved":false,"is_disabled":false,"rental_uris":{"android":"levelo://app?vid=a6ef77b6-ccc9-41b0-8272-3478a6980024","ios":"levelo://app?vid=a6ef77b6-ccc9-41b0-8272-3478a6980024"},"vehicle_type_id":"4","last_reported":1729678182,"current_range_meters":30400,"station_id":"ce4bgr92rcd13ifvqc6g","pricing_plan_id":"cebpf4jnsgd1na2vs0mg"},{"bike_id":"b711bd15-347d-439d-b0c3-bc3d75bef70c","system_id":"levelo_inurba_marseille","lat":43.25724,"lon":5.41116,"is_reserved":false,"is_disabled":false,"rental_uris":{"android":"levelo://app?vid=b711bd15-347d-439d-b0c3-bc3d75bef70c","ios":"levelo://app?vid=b711bd15-347d-439d-b0c3-bc3d75bef70c"},"vehicle_type_id":"4","last_reported":1729678182,"current_range_meters":38000,"station_id":"ce4bhkp2rcd13ifvqgd0","pricing_plan_id":"cebpf4jnsgd1na2vs0mg"},{"bike_id":"0a1aa1a4-d208-4432-894a-bd6ca56cfe4d","system_id":"levelo_inurba_marseille","lat":43.29418,"lon":5.38612,"is_reserved":false,"is_disabled":false,"rental_uris":{"android":"levelo://app?vid=0a1aa1a4-d208-4432-894a-bd6ca56cfe4d","ios":"levelo://app?vid=0a1aa1a4-d208-4432-894a-bd6ca56cfe4d"},"vehicle_type_id":"4","last_reported":1729678182,"current_range_meters":10800,"station_id":"ce4bh2h2rcd13ifvqdh0","pricing_plan_id":"cebpf4jnsgd1na2vs0mg"},{"bike_id":"ae2ce2d4-fc19-4d51-989f-983c86c83842","system_id":"levelo_inurba_marseille","lat":43.329831,"lon":5.413824,"is_reserved":false,"is_disabled":false,"rental_uris":{"android":"levelo://app?vid=ae2ce2d4-fc19-4d51-989f-983c86c83842","ios":"levelo://app?vid=ae2ce2d4-fc19-4d51-989f-983c86c83842"},"vehicle_type_id":"4","last_reported":1729678182,"current_range_meters":30400,"station_id":"ce4bhr92rcd13ifvqhrg","pricing_plan_id":"cebpf4jnsgd1na2vs0mg"},{"bike_id":"c2ce141d-6e76-44dc-931b-253d09157587","system_id":"levelo_inurba_marseille","lat":43.25006,"lon":5.38931,"is_reserved":false,"is_disabled":false,"rental_uris":{"android":"levelo://app?vid=c2ce141d-6e76-44dc-931b-253d09157587","ios":"levelo://app?vid=c2ce141d-6e76-44dc-931b-253d09157587"},"vehicle_type_id":"4","last_reported":1729678182,"current_range_meters":38000,"station_id":"ce4bhgp2rcd13ifvqfd0","pricing_plan_id":"cebpf4jnsgd1na2vs0mg"},{"bike_id":"c6fd4948-9641-45b6-8c16-ac5424e01893","system_id":"levelo_inurba_marseille","lat":43.30153,"lon":5.38084,"is_reserved":false,"is_disabled":false,"rental_uris":{"android":"levelo://app?vid=c6fd4948-9641-45b6-8c16-ac5424e01893","ios":"levelo://app?vid=c6fd4948-9641-45b6-8c16-ac5424e01893"},"vehicle_type_id":"4","last_reported":1729678182,"current_range_meters":38800,"station_id":"ce4bgjp2rcd13ifvqbh0","pricing_plan_id":"cebpf4jnsgd1na2vs0mg"},{"bike_id":"b16f1911-de4d-44d0-8781-ac5508875939","system_id":"levelo_inurba_marseille","lat":43.297943,"lon":5.395131,"is_reserved":false,"is_disabled":false,"rental_uris":{"android":"levelo://app?vid=b16f1911-de4d-44d0-8781-ac5508875939","ios":"levelo://app?vid=b16f1911-de4d-44d0-8781-ac5508875939"},"vehicle_type_id":"4","last_reported":1729678182,"current_range_meters":26800,"station_id":"chh1huq6cuj3fo74tm60","pricing_plan_id":"cebpf4jnsgd1na2vs0mg"},{"bike_id":"8f84bbcb-ea7f-4edd-a5db-315d8484357d","system_id":"levelo_inurba_marseille","lat":43.28611,"lon":5.35101,"is_reserved":false,"is_disabled":false,"rental_uris":{"android":"levelo://app?vid=8f84bbcb-ea7f-4edd-a5db-315d8484357d","ios":"levelo://app?vid=8f84bbcb-ea7f-4edd-a5db-315d8484357d"},"vehicle_type_id":"4","last_reported":1729678182,"current_range_meters":38800,"station_id":"ce4bhch2rcd13ifvqeug","pricing_plan_id":"cebpf4jnsgd1na2vs0mg"},{"bike_id":"0b0dbd00-0a44-4831-ab77-ddf755f497d2","system_id":"levelo_inurba_marseille","lat":43.29983,"lon":5.3719,"is_reserved":false,"is_disabled":false,"rental_uris":{"android":"levelo://app?vid=0b0dbd00-0a44-4831-ab77-ddf755f497d2","ios":"levelo://app?vid=0b0dbd00-0a44-4831-ab77-ddf755f497d2"},"vehicle_type_id":"4","last_reported":1729678182,"current_range_meters":24000,"station_id":"ce4bgr92rcd13ifvqc7g","pricing_plan_id":"cebpf4jnsgd1na2vs0mg"},{"bike_id":"af586d55-686b-45fe-9671-c364d4f2f016","system_id":"levelo_inurba_marseille","lat":43.3015,"lon":5.3808,"is_reserved":false,"is_disabled":false,"rental_uris":{"android":"levelo://app?vid=af586d55-686b-45fe-9671-c364d4f2f016","ios":"levelo://app?vid=af586d55-686b-45fe-9671-c364d4f2f016"},"vehicle_type_id":"4","last_reported":1729678182,"current_range_meters":28000,"station_id":"ce4bgjp2rcd13ifvqbh0","pricing_plan_id":"cebpf4jnsgd1na2vs0mg"},{"bike_id":"4950b7c7-c612-4f21-947e-b3d95432847e","system_id":"levelo_inurba_marseille","lat":43.31224,"lon":5.36862,"is_reserved":false,"is_disabled":false,"rental_uris":{"android":"levelo://app?vid=4950b7c7-c612-4f21-947e-b3d95432847e","ios":"levelo://app?vid=4950b7c7-c612-4f21-947e-b3d95432847e"},"vehicle_type_id":"4","last_reported":1729678182,"current_range_meters":27600,"station_id":"ce4bgl92rcd13ifvqbq0","pricing_plan_id":"cebpf4jnsgd1na2vs0mg"},{"bike_id":"758c8815-d6d1-4eb0-87f2-4abe41c5d6cf","system_id":"levelo_inurba_marseille","lat":43.29559,"lon":5.42279,"is_reserved":false,"is_disabled":false,"rental_uris":{"android":"levelo://app?vid=758c8815-d6d1-4eb0-87f2-4abe41c5d6cf","ios":"levelo://app?vid=758c8815-d6d1-4eb0-87f2-4abe41c5d6cf"},"vehicle_type_id":"4","last_reported":1729678182,"current_range_meters":24800,"station_id":"ce4bhph2rcd13ifvqhdg","pricing_plan_id":"cebpf4jnsgd1na2vs0mg"},{"bike_id":"f483f593-b27a-45bc-a949-0596e90322bd","system_id":"levelo_inurba_marseille","lat":43.30552,"lon":5.36543,"is_reserved":false,"is_disabled":false,"rental_uris":{"android":"levelo://app?vid=f483f593-b27a-45bc-a949-0596e90322bd","ios":"levelo://app?vid=f483f593-b27a-45bc-a949-0596e90322bd"},"vehicle_type_id":"4","last_reported":1729678182,"current_range_meters":8400,"station_id":"ce4bgs12rcd13ifvqcag","pricing_plan_id":"cebpf4jnsgd1na2vs0mg"},{"bike_id":"927a9ca0-9f48-493a-8d09-f98c0f0c1f2a","system_id":"levelo_inurba_marseille","lat":43.268,"lon":5.40271,"is_reserved":false,"is_disabled":false,"rental_uris":{"android":"levelo://app?vid=927a9ca0-9f48-493a-8d09-f98c0f0c1f2a","ios":"levelo://app?vid=927a9ca0-9f48-493a-8d09-f98c0f0c1f2a"},"vehicle_type_id":"4","last_reported":1729678182,"current_range_meters":36800,"station_id":"ce501612rcd8frsf0b60","pricing_plan_id":"cebpf4jnsgd1na2vs0mg"},{"bike_id":"6f9243f6-2121-440a-a9b6-867f1811cc97","system_id":"levelo_inurba_marseille","lat":43.27568,"lon":5.38425,"is_reserved":false,"is_disabled":false,"rental_uris":{"android":"levelo://app?vid=6f9243f6-2121-440a-a9b6-867f1811cc97","ios":"levelo://app?vid=6f9243f6-2121-440a-a9b6-867f1811cc97"},"vehicle_type_id":"4","last_reported":1729678182,"current_range_meters":22000,"station_id":"ce4bhh92rcd13ifvqfi0","pricing_plan_id":"cebpf4jnsgd1na2vs0mg"},{"bike_id":"ffacc7bc-bf7c-4aec-a010-83618cd22b79","system_id":"levelo_inurba_marseille","lat":43.316898,"lon":5.404764,"is_reserved":false,"is_disabled":false,"rental_uris":{"android":"levelo://app?vid=ffacc7bc-bf7c-4aec-a010-83618cd22b79","ios":"levelo://app?vid=ffacc7bc-bf7c-4aec-a010-83618cd22b79"},"vehicle_type_id":"4","last_reported":1729678182,"current_range_meters":28400,"station_id":"ce4bh012rcd13ifvqd00","pricing_plan_id":"cebpf4jnsgd1na2vs0mg"},{"bike_id":"8151e4b1-b91e-414e-bc6d-15523dc26ed1","system_id":"levelo_inurba_marseille","lat":43.27496,"lon":5.42455,"is_reserved":false,"is_disabled":false,"rental_uris":{"android":"levelo://app?vid=8151e4b1-b91e-414e-bc6d-15523dc26ed1","ios":"levelo://app?vid=8151e4b1-b91e-414e-bc6d-15523dc26ed1"},"vehicle_type_id":"4","last_reported":1729678182,"current_range_meters":32400,"station_id":"ce4bhn92rcd13ifvqgrg","pricing_plan_id":"cebpf4jnsgd1na2vs0mg"},{"bike_id":"7d9bae66-75c0-414c-b6e5-1dae4af5c1cb","system_id":"levelo_inurba_marseille","lat":43.337444,"lon":5.374475,"is_reserved":false,"is_disabled":false,"rental_uris":{"android":"levelo://app?vid=7d9bae66-75c0-414c-b6e5-1dae4af5c1cb","ios":"levelo://app?vid=7d9bae66-75c0-414c-b6e5-1dae4af5c1cb"},"vehicle_type_id":"4","last_reported":1729678182,"current_range_meters":38400,"station_id":"","pricing_plan_id":"cebpf4jnsgd1na2vs0mg"},{"bike_id":"4a93de88-f000-48b3-8c62-db765736ab0a","system_id":"levelo_inurba_marseille","lat":43.23149,"lon":5.43709,"is_reserved":false,"is_disabled":false,"rental_uris":{"android":"levelo://app?vid=4a93de88-f000-48b3-8c62-db765736ab0a","ios":"levelo://app?vid=4a93de88-f000-48b3-8c62-db765736ab0a"},"vehicle_type_id":"4","last_reported":1729678182,"current_range_meters":28000,"station_id":"ce4bhmp2rcd13ifvqgog","pricing_plan_id":"cebpf4jnsgd1na2vs0mg"},{"bike_id":"bc6fc2dd-0537-4742-a23e-fd87afb51ccf","system_id":"levelo_inurba_marseille","lat":43.25722,"lon":5.41105,"is_reserved":false,"is_disabled":false,"rental_uris":{"android":"levelo://app?vid=bc6fc2dd-0537-4742-a23e-fd87afb51ccf","ios":"levelo://app?vid=bc6fc2dd-0537-4742-a23e-fd87afb51ccf"},"vehicle_type_id":"4","last_reported":1729678182,"current_range_meters":36800,"station_id":"ce4bhkp2rcd13ifvqgd0","pricing_plan_id":"cebpf4jnsgd1na2vs0mg"},{"bike_id":"6a43b4fd-914d-40f7-9bd0-0b672ea03fc4","system_id":"levelo_inurba_marseille","lat":43.299794,"lon":5.371798,"is_reserved":false,"is_disabled":false,"rental_uris":{"android":"levelo://app?vid=6a43b4fd-914d-40f7-9bd0-0b672ea03fc4","ios":"levelo://app?vid=6a43b4fd-914d-40f7-9bd0-0b672ea03fc4"},"vehicle_type_id":"4","last_reported":1729678182,"current_range_meters":36400,"station_id":"ce4bgr92rcd13ifvqc7g","pricing_plan_id":"cebpf4jnsgd1na2vs0mg"},{"bike_id":"cd1b8d9a-9b98-46c2-bb22-514ffb3d8488","system_id":"levelo_inurba_marseille","lat":43.29364,"lon":5.37851,"is_reserved":false,"is_disabled":false,"rental_uris":{"android":"levelo://app?vid=cd1b8d9a-9b98-46c2-bb22-514ffb3d8488","ios":"levelo://app?vid=cd1b8d9a-9b98-46c2-bb22-514ffb3d8488"},"vehicle_type_id":"4","last_reported":1729678182,"current_range_meters":9200,"station_id":"ce4bgjh2rcd13ifvqbf0","pricing_plan_id":"cebpf4jnsgd1na2vs0mg"},{"bike_id":"46c48a07-1074-4ed1-8427-bac8dd69e380","system_id":"levelo_inurba_marseille","lat":43.3361,"lon":5.4103,"is_reserved":false,"is_disabled":false,"rental_uris":{"android":"levelo://app?vid=46c48a07-1074-4ed1-8427-bac8dd69e380","ios":"levelo://app?vid=46c48a07-1074-4ed1-8427-bac8dd69e380"},"vehicle_type_id":"4","last_reported":1729678182,"current_range_meters":12000,"station_id":"ce4bhqh2rcd13ifvqhmg","pricing_plan_id":"cebpf4jnsgd1na2vs0mg"},{"bike_id":"4f6e48e1-d18c-4ef1-8739-6f3d76585a44","system_id":"levelo_inurba_marseille","lat":43.24995,"lon":5.38934,"is_reserved":false,"is_disabled":false,"rental_uris":{"android":"levelo://app?vid=4f6e48e1-d18c-4ef1-8739-6f3d76585a44","ios":"levelo://app?vid=4f6e48e1-d18c-4ef1-8739-6f3d76585a44"},"vehicle_type_id":"4","last_reported":1729678182,"current_range_meters":35600,"station_id":"ce4bhgp2rcd13ifvqfd0","pricing_plan_id":"cebpf4jnsgd1na2vs0mg"},{"bike_id":"c803187e-448f-4d8d-ad3a-ff36110a20d0","system_id":"levelo_inurba_marseille","lat":43.31341,"lon":5.36719,"is_reserved":false,"is_disabled":false,"rental_uris":{"android":"levelo://app?vid=c803187e-448f-4d8d-ad3a-ff36110a20d0","ios":"levelo://app?vid=c803187e-448f-4d8d-ad3a-ff36110a20d0"},"vehicle_type_id":"4","last_reported":1729678182,"current_range_meters":39200,"station_id":"ce4bgr92rcd13ifvqc6g","pricing_plan_id":"cebpf4jnsgd1na2vs0mg"},{"bike_id":"c048b76f-8d27-47db-83a8-81e7b3690079","system_id":"levelo_inurba_marseille","lat":43.30468,"lon":5.37923,"is_reserved":false,"is_disabled":false,"rental_uris":{"android":"levelo://app?vid=c048b76f-8d27-47db-83a8-81e7b3690079","ios":"levelo://app?vid=c048b76f-8d27-47db-83a8-81e7b3690079"},"vehicle_type_id":"4","last_reported":1729678182,"current_range_meters":38800,"station_id":"ce4bgup2rcd13ifvqcn0","pricing_plan_id":"cebpf4jnsgd1na2vs0mg"},{"bike_id":"2da73958-011a-4092-94a6-99a3e0d02e90","system_id":"levelo_inurba_marseille","lat":43.30893,"lon":5.378,"is_reserved":false,"is_disabled":false,"rental_uris":{"android":"levelo://app?vid=2da73958-011a-4092-94a6-99a3e0d02e90","ios":"levelo://app?vid=2da73958-011a-4092-94a6-99a3e0d02e90"},"vehicle_type_id":"4","last_reported":1729678182,"current_range_meters":21600,"station_id":"","pricing_plan_id":"cebpf4jnsgd1na2vs0mg"},{"bike_id":"2d9e1a7f-ac4a-4254-8a87-8c2c5c7386bc","system_id":"levelo_inurba_marseille","lat":43.25584,"lon":5.38232,"is_reserved":false,"is_disabled":false,"rental_uris":{"android":"levelo://app?vid=2d9e1a7f-ac4a-4254-8a87-8c2c5c7386bc","ios":"levelo://app?vid=2d9e1a7f-ac4a-4254-8a87-8c2c5c7386bc"},"vehicle_type_id":"4","last_reported":1729678182,"current_range_meters":19600,"station_id":"ce4bhih2rcd13ifvqfs0","pricing_plan_id":"cebpf4jnsgd1na2vs0mg"},{"bike_id":"8375e0a1-36be-4b60-9f98-d6ac6445f7e2","system_id":"levelo_inurba_marseille","lat":43.28614,"lon":5.35099,"is_reserved":false,"is_disabled":false,"rental_uris":{"android":"levelo://app?vid=8375e0a1-36be-4b60-9f98-d6ac6445f7e2","ios":"levelo://app?vid=8375e0a1-36be-4b60-9f98-d6ac6445f7e2"},"vehicle_type_id":"4","last_reported":1729678182,"current_range_meters":27600,"station_id":"ce4bhch2rcd13ifvqeug","pricing_plan_id":"cebpf4jnsgd1na2vs0mg"},{"bike_id":"b48f8c2d-a05e-4cee-bf57-4525735200ad","system_id":"levelo_inurba_marseille","lat":43.26677,"lon":5.38264,"is_reserved":false,"is_disabled":false,"rental_uris":{"android":"levelo://app?vid=b48f8c2d-a05e-4cee-bf57-4525735200ad","ios":"levelo://app?vid=b48f8c2d-a05e-4cee-bf57-4525735200ad"},"vehicle_type_id":"4","last_reported":1729678182,"current_range_meters":39200,"station_id":"ce4bhg92rcd13ifvqf90","pricing_plan_id":"cebpf4jnsgd1na2vs0mg"},{"bike_id":"7226bd6c-e9b4-4836-bc35-1a837aafd90e","system_id":"levelo_inurba_marseille","lat":43.2904,"lon":5.39955,"is_reserved":false,"is_disabled":false,"rental_uris":{"android":"levelo://app?vid=7226bd6c-e9b4-4836-bc35-1a837aafd90e","ios":"levelo://app?vid=7226bd6c-e9b4-4836-bc35-1a837aafd90e"},"vehicle_type_id":"4","last_reported":1729678182,"current_range_meters":12000,"station_id":"ce4bh392rcd13ifvqdm0","pricing_plan_id":"cebpf4jnsgd1na2vs0mg"},{"bike_id":"51e54840-6eac-4c9b-9077-e239693ba7d6","system_id":"levelo_inurba_marseille","lat":43.30552,"lon":5.36702,"is_reserved":false,"is_disabled":false,"rental_uris":{"android":"levelo://app?vid=51e54840-6eac-4c9b-9077-e239693ba7d6","ios":"levelo://app?vid=51e54840-6eac-4c9b-9077-e239693ba7d6"},"vehicle_type_id":"4","last_reported":1729678182,"current_range_meters":27600,"station_id":"ce4bgrp2rcd13ifvqc9g","pricing_plan_id":"cebpf4jnsgd1na2vs0mg"},{"bike_id":"4cc31e6b-44f7-4f7a-bad5-d77b1b4983b3","system_id":"levelo_inurba_marseille","lat":43.22933,"lon":5.35377,"is_reserved":false,"is_disabled":false,"rental_uris":{"android":"levelo://app?vid=4cc31e6b-44f7-4f7a-bad5-d77b1b4983b3","ios":"levelo://app?vid=4cc31e6b-44f7-4f7a-bad5-d77b1b4983b3"},"vehicle_type_id":"4","last_reported":1729678182,"current_range_meters":16800,"station_id":"cpo3532slgdg3j2ikp40","pricing_plan_id":"cebpf4jnsgd1na2vs0mg"},{"bike_id":"4899f6e6-1d55-4a75-bd49-d67101dac4e6","system_id":"levelo_inurba_marseille","lat":43.26935,"lon":5.38908,"is_reserved":false,"is_disabled":false,"rental_uris":{"android":"levelo://app?vid=4899f6e6-1d55-4a75-bd49-d67101dac4e6","ios":"levelo://app?vid=4899f6e6-1d55-4a75-bd49-d67101dac4e6"},"vehicle_type_id":"4","last_reported":1729678182,"current_range_meters":39200,"station_id":"ce4bhhh2rcd13ifvqfl0","pricing_plan_id":"cebpf4jnsgd1na2vs0mg"},{"bike_id":"e3ddf2b3-1206-4f35-9597-006ddf7fa22b","system_id":"levelo_inurba_marseille","lat":43.30959,"lon":5.39039,"is_reserved":false,"is_disabled":false,"rental_uris":{"android":"levelo://app?vid=e3ddf2b3-1206-4f35-9597-006ddf7fa22b","ios":"levelo://app?vid=e3ddf2b3-1206-4f35-9597-006ddf7fa22b"},"vehicle_type_id":"4","last_reported":1729678182,"current_range_meters":38800,"station_id":"ce4bgup2rcd13ifvqco0","pricing_plan_id":"cebpf4jnsgd1na2vs0mg"},{"bike_id":"1c2ecf5b-008c-4b67-8b3c-46122f7ae36e","system_id":"levelo_inurba_marseille","lat":43.31373,"lon":5.38485,"is_reserved":false,"is_disabled":false,"rental_uris":{"android":"levelo://app?vid=1c2ecf5b-008c-4b67-8b3c-46122f7ae36e","ios":"levelo://app?vid=1c2ecf5b-008c-4b67-8b3c-46122f7ae36e"},"vehicle_type_id":"4","last_reported":1729678182,"current_range_meters":12000,"station_id":"ce4bgt92rcd13ifvqcf0","pricing_plan_id":"cebpf4jnsgd1na2vs0mg"},{"bike_id":"e20eacab-28c4-4862-9c97-caa408edf48c","system_id":"levelo_inurba_marseille","lat":43.2318,"lon":5.39995,"is_reserved":false,"is_disabled":false,"rental_uris":{"android":"levelo://app?vid=e20eacab-28c4-4862-9c97-caa408edf48c","ios":"levelo://app?vid=e20eacab-28c4-4862-9c97-caa408edf48c"},"vehicle_type_id":"4","last_reported":1729678182,"current_range_meters":24000,"station_id":"ce4bhn12rcd13ifvqgqg","pricing_plan_id":"cebpf4jnsgd1na2vs0mg"},{"bike_id":"21ad5e06-46a7-463a-af16-ff504b055418","system_id":"levelo_inurba_marseille","lat":43.29597,"lon":5.38109,"is_reserved":false,"is_disabled":false,"rental_uris":{"android":"levelo://app?vid=21ad5e06-46a7-463a-af16-ff504b055418","ios":"levelo://app?vid=21ad5e06-46a7-463a-af16-ff504b055418"},"vehicle_type_id":"4","last_reported":1729678182,"current_range_meters":24400,"station_id":"ce4bgl12rcd13ifvqbo0","pricing_plan_id":"cebpf4jnsgd1na2vs0mg"},{"bike_id":"4f1e304d-a0dc-46f9-8b7d-3ff5a7f69fdd","system_id":"levelo_inurba_marseille","lat":43.24074,"lon":5.37746,"is_reserved":false,"is_disabled":false,"rental_uris":{"android":"levelo://app?vid=4f1e304d-a0dc-46f9-8b7d-3ff5a7f69fdd","ios":"levelo://app?vid=4f1e304d-a0dc-46f9-8b7d-3ff5a7f69fdd"},"vehicle_type_id":"4","last_reported":1729678182,"current_range_meters":38800,"station_id":"ce4bhnp2rcd13ifvqgvg","pricing_plan_id":"cebpf4jnsgd1na2vs0mg"},{"bike_id":"3c3b48bb-f8a9-4ae9-82bb-3bca79d11ade","system_id":"levelo_inurba_marseille","lat":43.30549,"lon":5.36705,"is_reserved":false,"is_disabled":false,"rental_uris":{"android":"levelo://app?vid=3c3b48bb-f8a9-4ae9-82bb-3bca79d11ade","ios":"levelo://app?vid=3c3b48bb-f8a9-4ae9-82bb-3bca79d11ade"},"vehicle_type_id":"4","last_reported":1729678182,"current_range_meters":25600,"station_id":"ce4bgrp2rcd13ifvqc9g","pricing_plan_id":"cebpf4jnsgd1na2vs0mg"},{"bike_id":"c43a7e82-6fb7-4d8a-b135-275fafab1c22","system_id":"levelo_inurba_marseille","lat":43.23961,"lon":5.36634,"is_reserved":false,"is_disabled":false,"rental_uris":{"android":"levelo://app?vid=c43a7e82-6fb7-4d8a-b135-275fafab1c22","ios":"levelo://app?vid=c43a7e82-6fb7-4d8a-b135-275fafab1c22"},"vehicle_type_id":"4","last_reported":1729678182,"current_range_meters":38800,"station_id":"ce4bhi12rcd13ifvqfp0","pricing_plan_id":"cebpf4jnsgd1na2vs0mg"},{"bike_id":"4145a2f9-e09c-4c66-bf90-de4da867398d","system_id":"levelo_inurba_marseille","lat":43.23144,"lon":5.43703,"is_reserved":false,"is_disabled":false,"rental_uris":{"android":"levelo://app?vid=4145a2f9-e09c-4c66-bf90-de4da867398d","ios":"levelo://app?vid=4145a2f9-e09c-4c66-bf90-de4da867398d"},"vehicle_type_id":"4","last_reported":1729678182,"current_range_meters":38800,"station_id":"ce4bhmp2rcd13ifvqgog","pricing_plan_id":"cebpf4jnsgd1na2vs0mg"},{"bike_id":"c04ab802-f35d-4e5d-8440-52e2f675fa64","system_id":"levelo_inurba_marseille","lat":43.23152,"lon":5.43696,"is_reserved":false,"is_disabled":false,"rental_uris":{"android":"levelo://app?vid=c04ab802-f35d-4e5d-8440-52e2f675fa64","ios":"levelo://app?vid=c04ab802-f35d-4e5d-8440-52e2f675fa64"},"vehicle_type_id":"4","last_reported":1729678182,"current_range_meters":27200,"station_id":"ce4bhmp2rcd13ifvqgog","pricing_plan_id":"cebpf4jnsgd1na2vs0mg"},{"bike_id":"f7436227-8593-4258-8d76-388d13547bae","system_id":"levelo_inurba_marseille","lat":43.33611,"lon":5.41039,"is_reserved":false,"is_disabled":false,"rental_uris":{"android":"levelo://app?vid=f7436227-8593-4258-8d76-388d13547bae","ios":"levelo://app?vid=f7436227-8593-4258-8d76-388d13547bae"},"vehicle_type_id":"4","last_reported":1729678182,"current_range_meters":16000,"station_id":"ce4bhqh2rcd13ifvqhmg","pricing_plan_id":"cebpf4jnsgd1na2vs0mg"},{"bike_id":"70c0db28-8045-42ba-a534-2532b86d3455","system_id":"levelo_inurba_marseille","lat":43.22923,"lon":5.35375,"is_reserved":false,"is_disabled":false,"rental_uris":{"android":"levelo://app?vid=70c0db28-8045-42ba-a534-2532b86d3455","ios":"levelo://app?vid=70c0db28-8045-42ba-a534-2532b86d3455"},"vehicle_type_id":"4","last_reported":1729678182,"current_range_meters":22000,"station_id":"cpo3532slgdg3j2ikp40","pricing_plan_id":"cebpf4jnsgd1na2vs0mg"},{"bike_id":"55e6f277-4284-42ae-ac58-06c906194a30","system_id":"levelo_inurba_marseille","lat":43.30145,"lon":5.38064,"is_reserved":false,"is_disabled":false,"rental_uris":{"android":"levelo://app?vid=55e6f277-4284-42ae-ac58-06c906194a30","ios":"levelo://app?vid=55e6f277-4284-42ae-ac58-06c906194a30"},"vehicle_type_id":"4","last_reported":1729678182,"current_range_meters":38400,"station_id":"ce4bgjp2rcd13ifvqbh0","pricing_plan_id":"cebpf4jnsgd1na2vs0mg"},{"bike_id":"ad9de5b6-177b-4378-9830-1f58fb51f4e4","system_id":"levelo_inurba_marseille","lat":43.31355,"lon":5.37425,"is_reserved":false,"is_disabled":false,"rental_uris":{"android":"levelo://app?vid=ad9de5b6-177b-4378-9830-1f58fb51f4e4","ios":"levelo://app?vid=ad9de5b6-177b-4378-9830-1f58fb51f4e4"},"vehicle_type_id":"4","last_reported":1729678182,"current_range_meters":12400,"station_id":"","pricing_plan_id":"cebpf4jnsgd1na2vs0mg"},{"bike_id":"fe269560-e2b9-488b-9e4b-72beadfad0e4","system_id":"levelo_inurba_marseille","lat":43.30281,"lon":5.37692,"is_reserved":false,"is_disabled":false,"rental_uris":{"android":"levelo://app?vid=fe269560-e2b9-488b-9e4b-72beadfad0e4","ios":"levelo://app?vid=fe269560-e2b9-488b-9e4b-72beadfad0e4"},"vehicle_type_id":"4","last_reported":1729678182,"current_range_meters":40000,"station_id":"ce4bguh2rcd13ifvqcj0","pricing_plan_id":"cebpf4jnsgd1na2vs0mg"},{"bike_id":"56a6bae7-c49d-48b7-b6d2-971031b6aaca","system_id":"levelo_inurba_marseille","lat":43.279051,"lon":5.380181,"is_reserved":false,"is_disabled":false,"rental_uris":{"android":"levelo://app?vid=56a6bae7-c49d-48b7-b6d2-971031b6aaca","ios":"levelo://app?vid=56a6bae7-c49d-48b7-b6d2-971031b6aaca"},"vehicle_type_id":"4","last_reported":1729678182,"current_range_meters":28800,"station_id":"ce4bhf92rcd13ifvqf50","pricing_plan_id":"cebpf4jnsgd1na2vs0mg"},{"bike_id":"23ae8356-8af5-4222-bc07-578ac964a63c","system_id":"levelo_inurba_marseille","lat":43.27981,"lon":5.3874,"is_reserved":false,"is_disabled":false,"rental_uris":{"android":"levelo://app?vid=23ae8356-8af5-4222-bc07-578ac964a63c","ios":"levelo://app?vid=23ae8356-8af5-4222-bc07-578ac964a63c"},"vehicle_type_id":"4","last_reported":1729678182,"current_range_meters":37600,"station_id":"ce4bhg12rcd13ifvqf80","pricing_plan_id":"cebpf4jnsgd1na2vs0mg"},{"bike_id":"ac1f3f03-0071-47c1-b4fb-f76f956d3ec6","system_id":"levelo_inurba_marseille","lat":43.33727,"lon":5.39177,"is_reserved":false,"is_disabled":false,"rental_uris":{"android":"levelo://app?vid=ac1f3f03-0071-47c1-b4fb-f76f956d3ec6","ios":"levelo://app?vid=ac1f3f03-0071-47c1-b4fb-f76f956d3ec6"},"vehicle_type_id":"4","last_reported":1729678182,"current_range_meters":38000,"station_id":"ce4bhr92rcd13ifvqhsg","pricing_plan_id":"cebpf4jnsgd1na2vs0mg"},{"bike_id":"0824ca51-dbbf-47f1-8a43-2612dbdf03a3","system_id":"levelo_inurba_marseille","lat":43.24071,"lon":5.37754,"is_reserved":false,"is_disabled":false,"rental_uris":{"android":"levelo://app?vid=0824ca51-dbbf-47f1-8a43-2612dbdf03a3","ios":"levelo://app?vid=0824ca51-dbbf-47f1-8a43-2612dbdf03a3"},"vehicle_type_id":"4","last_reported":1729678182,"current_range_meters":31200,"station_id":"ce4bhnp2rcd13ifvqgvg","pricing_plan_id":"cebpf4jnsgd1na2vs0mg"},{"bike_id":"e147e9b2-2c3d-424a-a48f-f632debbc7bd","system_id":"levelo_inurba_marseille","lat":43.28,"lon":5.40012,"is_reserved":false,"is_disabled":false,"rental_uris":{"android":"levelo://app?vid=e147e9b2-2c3d-424a-a48f-f632debbc7bd","ios":"levelo://app?vid=e147e9b2-2c3d-424a-a48f-f632debbc7bd"},"vehicle_type_id":"4","last_reported":1729678182,"current_range_meters":11200,"station_id":"ce4bho92rcd13ifvqh4g","pricing_plan_id":"cebpf4jnsgd1na2vs0mg"},{"bike_id":"77ae5011-107a-4b38-aeb4-39c175bd1b3b","system_id":"levelo_inurba_marseille","lat":43.24544,"lon":5.39525,"is_reserved":false,"is_disabled":false,"rental_uris":{"android":"levelo://app?vid=77ae5011-107a-4b38-aeb4-39c175bd1b3b","ios":"levelo://app?vid=77ae5011-107a-4b38-aeb4-39c175bd1b3b"},"vehicle_type_id":"4","last_reported":1729678182,"current_range_meters":8000,"station_id":"ce4bhlp2rcd13ifvqgjg","pricing_plan_id":"cebpf4jnsgd1na2vs0mg"},{"bike_id":"92f453a5-8865-4677-8e98-a8cc93713b1a","system_id":"levelo_inurba_marseille","lat":43.2319,"lon":5.35552,"is_reserved":false,"is_disabled":false,"rental_uris":{"android":"levelo://app?vid=92f453a5-8865-4677-8e98-a8cc93713b1a","ios":"levelo://app?vid=92f453a5-8865-4677-8e98-a8cc93713b1a"},"vehicle_type_id":"4","last_reported":1729678182,"current_range_meters":38800,"station_id":"ce4bhu92rcd13ifvqi70","pricing_plan_id":"cebpf4jnsgd1na2vs0mg"},{"bike_id":"96ab87ab-8bc1-47b8-a144-27e54f5b2c1a","system_id":"levelo_inurba_marseille","lat":43.30429,"lon":5.38906,"is_reserved":false,"is_disabled":false,"rental_uris":{"android":"levelo://app?vid=96ab87ab-8bc1-47b8-a144-27e54f5b2c1a","ios":"levelo://app?vid=96ab87ab-8bc1-47b8-a144-27e54f5b2c1a"},"vehicle_type_id":"4","last_reported":1729678182,"current_range_meters":17200,"station_id":"ce4bgk12rcd13ifvqbi0","pricing_plan_id":"cebpf4jnsgd1na2vs0mg"},{"bike_id":"be2b3e40-2e33-406c-a481-847cc51ad1cd","system_id":"levelo_inurba_marseille","lat":43.24645,"lon":5.389,"is_reserved":false,"is_disabled":false,"rental_uris":{"android":"levelo://app?vid=be2b3e40-2e33-406c-a481-847cc51ad1cd","ios":"levelo://app?vid=be2b3e40-2e33-406c-a481-847cc51ad1cd"},"vehicle_type_id":"4","last_reported":1729678182,"current_range_meters":8400,"station_id":"ce4bhg12rcd13ifvqf60","pricing_plan_id":"cebpf4jnsgd1na2vs0mg"},{"bike_id":"d04a0a7b-a14a-4fa4-ae16-ffa470dfd5e1","system_id":"levelo_inurba_marseille","lat":43.32538,"lon":5.41433,"is_reserved":false,"is_disabled":false,"rental_uris":{"android":"levelo://app?vid=d04a0a7b-a14a-4fa4-ae16-ffa470dfd5e1","ios":"levelo://app?vid=d04a0a7b-a14a-4fa4-ae16-ffa470dfd5e1"},"vehicle_type_id":"4","last_reported":1729678182,"current_range_meters":8400,"station_id":"ce4bhq12rcd13ifvqhhg","pricing_plan_id":"cebpf4jnsgd1na2vs0mg"},{"bike_id":"d006365e-7c0c-410e-a7e8-99481b4b5df3","system_id":"levelo_inurba_marseille","lat":43.29305,"lon":5.37462,"is_reserved":false,"is_disabled":false,"rental_uris":{"android":"levelo://app?vid=d006365e-7c0c-410e-a7e8-99481b4b5df3","ios":"levelo://app?vid=d006365e-7c0c-410e-a7e8-99481b4b5df3"},"vehicle_type_id":"4","last_reported":1729678182,"current_range_meters":11200,"station_id":"ce4bgi12rcd13ifvqb70","pricing_plan_id":"cebpf4jnsgd1na2vs0mg"},{"bike_id":"547c7232-52ae-4113-b72e-784726fa89fb","system_id":"levelo_inurba_marseille","lat":43.26204,"lon":5.37925,"is_reserved":false,"is_disabled":false,"rental_uris":{"android":"levelo://app?vid=547c7232-52ae-4113-b72e-784726fa89fb","ios":"levelo://app?vid=547c7232-52ae-4113-b72e-784726fa89fb"},"vehicle_type_id":"4","last_reported":1729678182,"current_range_meters":24800,"station_id":"ce4bhjp2rcd13ifvqg90","pricing_plan_id":"cebpf4jnsgd1na2vs0mg"},{"bike_id":"701b3236-71f5-4af2-a91f-70173ad1d636","system_id":"levelo_inurba_marseille","lat":43.25938,"lon":5.40903,"is_reserved":false,"is_disabled":false,"rental_uris":{"android":"levelo://app?vid=701b3236-71f5-4af2-a91f-70173ad1d636","ios":"levelo://app?vid=701b3236-71f5-4af2-a91f-70173ad1d636"},"vehicle_type_id":"4","last_reported":1729678182,"current_range_meters":27200,"station_id":"ce4bhm92rcd13ifvqglg","pricing_plan_id":"cebpf4jnsgd1na2vs0mg"},{"bike_id":"29665abb-bb05-4470-bec8-a92af688bd5f","system_id":"levelo_inurba_marseille","lat":43.29556,"lon":5.42282,"is_reserved":false,"is_disabled":false,"rental_uris":{"android":"levelo://app?vid=29665abb-bb05-4470-bec8-a92af688bd5f","ios":"levelo://app?vid=29665abb-bb05-4470-bec8-a92af688bd5f"},"vehicle_type_id":"4","last_reported":1729678182,"current_range_meters":29600,"station_id":"ce4bhph2rcd13ifvqhdg","pricing_plan_id":"cebpf4jnsgd1na2vs0mg"},{"bike_id":"e478ea83-df5b-412b-a5cd-559269c4a7b3","system_id":"levelo_inurba_marseille","lat":43.29364,"lon":5.37849,"is_reserved":false,"is_disabled":false,"rental_uris":{"android":"levelo://app?vid=e478ea83-df5b-412b-a5cd-559269c4a7b3","ios":"levelo://app?vid=e478ea83-df5b-412b-a5cd-559269c4a7b3"},"vehicle_type_id":"4","last_reported":1729678182,"current_range_meters":6800,"station_id":"ce4bgjh2rcd13ifvqbf0","pricing_plan_id":"cebpf4jnsgd1na2vs0mg"},{"bike_id":"ffe855c4-4fd2-4bc9-9768-2d5ddb1326c1","system_id":"levelo_inurba_marseille","lat":43.25128,"lon":5.40318,"is_reserved":false,"is_disabled":false,"rental_uris":{"android":"levelo://app?vid=ffe855c4-4fd2-4bc9-9768-2d5ddb1326c1","ios":"levelo://app?vid=ffe855c4-4fd2-4bc9-9768-2d5ddb1326c1"},"vehicle_type_id":"4","last_reported":1729678182,"current_range_meters":10800,"station_id":"ce4bhlh2rcd13ifvqgig","pricing_plan_id":"cebpf4jnsgd1na2vs0mg"},{"bike_id":"2a37f1e1-d761-49c8-8947-9ae2a5e5e0bd","system_id":"levelo_inurba_marseille","lat":43.26943,"lon":5.38919,"is_reserved":false,"is_disabled":false,"rental_uris":{"android":"levelo://app?vid=2a37f1e1-d761-49c8-8947-9ae2a5e5e0bd","ios":"levelo://app?vid=2a37f1e1-d761-49c8-8947-9ae2a5e5e0bd"},"vehicle_type_id":"4","last_reported":1729678182,"current_range_meters":12000,"station_id":"ce4bhhh2rcd13ifvqfl0","pricing_plan_id":"cebpf4jnsgd1na2vs0mg"},{"bike_id":"e429e058-5d2a-4515-9548-724bbbaa03b7","system_id":"levelo_inurba_marseille","lat":43.27962,"lon":5.3874,"is_reserved":false,"is_disabled":false,"rental_uris":{"android":"levelo://app?vid=e429e058-5d2a-4515-9548-724bbbaa03b7","ios":"levelo://app?vid=e429e058-5d2a-4515-9548-724bbbaa03b7"},"vehicle_type_id":"4","last_reported":1729678182,"current_range_meters":36800,"station_id":"ce4bhg12rcd13ifvqf80","pricing_plan_id":"cebpf4jnsgd1na2vs0mg"},{"bike_id":"c3945b60-e38d-4106-8f18-92c7f436cc4f","system_id":"levelo_inurba_marseille","lat":43.33751,"lon":5.37444,"is_reserved":false,"is_disabled":false,"rental_uris":{"android":"levelo://app?vid=c3945b60-e38d-4106-8f18-92c7f436cc4f","ios":"levelo://app?vid=c3945b60-e38d-4106-8f18-92c7f436cc4f"},"vehicle_type_id":"4","last_reported":1729678182,"current_range_meters":27600,"station_id":"","pricing_plan_id":"cebpf4jnsgd1na2vs0mg"},{"bike_id":"8d6dff3a-d1d6-41d8-a057-5bd0b3631db3","system_id":"levelo_inurba_marseille","lat":43.27363,"lon":5.362509,"is_reserved":false,"is_disabled":false,"rental_uris":{"android":"levelo://app?vid=8d6dff3a-d1d6-41d8-a057-5bd0b3631db3","ios":"levelo://app?vid=8d6dff3a-d1d6-41d8-a057-5bd0b3631db3"},"vehicle_type_id":"4","last_reported":1729678182,"current_range_meters":36400,"station_id":"ce4bhbh2rcd13ifvqeo0","pricing_plan_id":"cebpf4jnsgd1na2vs0mg"},{"bike_id":"783b169b-a592-4361-b6db-802243fbeb6f","system_id":"levelo_inurba_marseille","lat":43.337444,"lon":5.374475,"is_reserved":false,"is_disabled":false,"rental_uris":{"android":"levelo://app?vid=783b169b-a592-4361-b6db-802243fbeb6f","ios":"levelo://app?vid=783b169b-a592-4361-b6db-802243fbeb6f"},"vehicle_type_id":"4","last_reported":1729678182,"current_range_meters":36800,"station_id":"ce4bh0h2rcd13ifvqd40","pricing_plan_id":"cebpf4jnsgd1na2vs0mg"},{"bike_id":"78018770-86ea-4404-8452-ce018255cd17","system_id":"levelo_inurba_marseille","lat":43.22927,"lon":5.35379,"is_reserved":false,"is_disabled":false,"rental_uris":{"android":"levelo://app?vid=78018770-86ea-4404-8452-ce018255cd17","ios":"levelo://app?vid=78018770-86ea-4404-8452-ce018255cd17"},"vehicle_type_id":"4","last_reported":1729678182,"current_range_meters":23200,"station_id":"cpo3532slgdg3j2ikp40","pricing_plan_id":"cebpf4jnsgd1na2vs0mg"},{"bike_id":"b7b5eb66-a856-4a84-82cc-7d49c1519abe","system_id":"levelo_inurba_marseille","lat":43.31352,"lon":5.36717,"is_reserved":false,"is_disabled":false,"rental_uris":{"android":"levelo://app?vid=b7b5eb66-a856-4a84-82cc-7d49c1519abe","ios":"levelo://app?vid=b7b5eb66-a856-4a84-82cc-7d49c1519abe"},"vehicle_type_id":"4","last_reported":1729678182,"current_range_meters":35200,"station_id":"ce4bgr92rcd13ifvqc6g","pricing_plan_id":"cebpf4jnsgd1na2vs0mg"},{"bike_id":"0ee38f66-ee8f-4341-8b97-438d0d625d0c","system_id":"levelo_inurba_marseille","lat":43.30274,"lon":5.37698,"is_reserved":false,"is_disabled":false,"rental_uris":{"android":"levelo://app?vid=0ee38f66-ee8f-4341-8b97-438d0d625d0c","ios":"levelo://app?vid=0ee38f66-ee8f-4341-8b97-438d0d625d0c"},"vehicle_type_id":"4","last_reported":1729678182,"current_range_meters":40000,"station_id":"ce4bguh2rcd13ifvqcj0","pricing_plan_id":"cebpf4jnsgd1na2vs0mg"},{"bike_id":"0015ffc7-77af-42bc-8d8a-8be04a99483d","system_id":"levelo_inurba_marseille","lat":43.28267,"lon":5.35062,"is_reserved":false,"is_disabled":false,"rental_uris":{"android":"levelo://app?vid=0015ffc7-77af-42bc-8d8a-8be04a99483d","ios":"levelo://app?vid=0015ffc7-77af-42bc-8d8a-8be04a99483d"},"vehicle_type_id":"4","last_reported":1729678182,"current_range_meters":18800,"station_id":"ce4bhbp2rcd13ifvqerg","pricing_plan_id":"cebpf4jnsgd1na2vs0mg"},{"bike_id":"e42e5786-e1e5-4d1a-8aeb-2e2155877455","system_id":"levelo_inurba_marseille","lat":43.30462,"lon":5.37891,"is_reserved":false,"is_disabled":false,"rental_uris":{"android":"levelo://app?vid=e42e5786-e1e5-4d1a-8aeb-2e2155877455","ios":"levelo://app?vid=e42e5786-e1e5-4d1a-8aeb-2e2155877455"},"vehicle_type_id":"4","last_reported":1729678182,"current_range_meters":26000,"station_id":"ce4bgup2rcd13ifvqcn0","pricing_plan_id":"cebpf4jnsgd1na2vs0mg"},{"bike_id":"247c1539-097b-46dd-8c24-05380c7705d5","system_id":"levelo_inurba_marseille","lat":43.2958,"lon":5.36742,"is_reserved":false,"is_disabled":false,"rental_uris":{"android":"levelo://app?vid=247c1539-097b-46dd-8c24-05380c7705d5","ios":"levelo://app?vid=247c1539-097b-46dd-8c24-05380c7705d5"},"vehicle_type_id":"4","last_reported":1729678182,"current_range_meters":36400,"station_id":"ce4bgph2rcd13ifvqc2g","pricing_plan_id":"cebpf4jnsgd1na2vs0mg"},{"bike_id":"1d3c2354-bb06-46ef-82cb-7b20702826e7","system_id":"levelo_inurba_marseille","lat":43.313363,"lon":5.36719,"is_reserved":false,"is_disabled":false,"rental_uris":{"android":"levelo://app?vid=1d3c2354-bb06-46ef-82cb-7b20702826e7","ios":"levelo://app?vid=1d3c2354-bb06-46ef-82cb-7b20702826e7"},"vehicle_type_id":"4","last_reported":1729678182,"current_range_meters":39200,"station_id":"ce4bgr92rcd13ifvqc6g","pricing_plan_id":"cebpf4jnsgd1na2vs0mg"},{"bike_id":"e0f591a5-4a49-47dc-9aa6-eb75178c5760","system_id":"levelo_inurba_marseille","lat":43.337444,"lon":5.374475,"is_reserved":false,"is_disabled":false,"rental_uris":{"android":"levelo://app?vid=e0f591a5-4a49-47dc-9aa6-eb75178c5760","ios":"levelo://app?vid=e0f591a5-4a49-47dc-9aa6-eb75178c5760"},"vehicle_type_id":"4","last_reported":1729678182,"current_range_meters":36800,"station_id":"","pricing_plan_id":"cebpf4jnsgd1na2vs0mg"},{"bike_id":"7b5fc2ff-184d-4aef-9546-0b4270693721","system_id":"levelo_inurba_marseille","lat":43.3107,"lon":5.38357,"is_reserved":false,"is_disabled":false,"rental_uris":{"android":"levelo://app?vid=7b5fc2ff-184d-4aef-9546-0b4270693721","ios":"levelo://app?vid=7b5fc2ff-184d-4aef-9546-0b4270693721"},"vehicle_type_id":"4","last_reported":1729678182,"current_range_meters":32000,"station_id":"ce4bgv92rcd13ifvqcr0","pricing_plan_id":"cebpf4jnsgd1na2vs0mg"},{"bike_id":"933801c6-7137-4d35-a550-f95625db21cd","system_id":"levelo_inurba_marseille","lat":43.337444,"lon":5.374475,"is_reserved":false,"is_disabled":false,"rental_uris":{"android":"levelo://app?vid=933801c6-7137-4d35-a550-f95625db21cd","ios":"levelo://app?vid=933801c6-7137-4d35-a550-f95625db21cd"},"vehicle_type_id":"4","last_reported":1729678182,"current_range_meters":38000,"station_id":"","pricing_plan_id":"cebpf4jnsgd1na2vs0mg"},{"bike_id":"3758e8e1-6774-4a6d-8d44-4f39d30cb7cf","system_id":"levelo_inurba_marseille","lat":43.22926,"lon":5.35382,"is_reserved":false,"is_disabled":false,"rental_uris":{"android":"levelo://app?vid=3758e8e1-6774-4a6d-8d44-4f39d30cb7cf","ios":"levelo://app?vid=3758e8e1-6774-4a6d-8d44-4f39d30cb7cf"},"vehicle_type_id":"4","last_reported":1729678182,"current_range_meters":38000,"station_id":"cpo3532slgdg3j2ikp40","pricing_plan_id":"cebpf4jnsgd1na2vs0mg"},{"bike_id":"d7ce0435-7c54-4b55-8cd0-41cd0d5611d3","system_id":"levelo_inurba_marseille","lat":43.30476,"lon":5.37914,"is_reserved":false,"is_disabled":false,"rental_uris":{"android":"levelo://app?vid=d7ce0435-7c54-4b55-8cd0-41cd0d5611d3","ios":"levelo://app?vid=d7ce0435-7c54-4b55-8cd0-41cd0d5611d3"},"vehicle_type_id":"4","last_reported":1729678182,"current_range_meters":18800,"station_id":"ce4bgup2rcd13ifvqcn0","pricing_plan_id":"cebpf4jnsgd1na2vs0mg"},{"bike_id":"946611bd-808f-42aa-8d8e-3a209538d209","system_id":"levelo_inurba_marseille","lat":43.24072,"lon":5.3775,"is_reserved":false,"is_disabled":false,"rental_uris":{"android":"levelo://app?vid=946611bd-808f-42aa-8d8e-3a209538d209","ios":"levelo://app?vid=946611bd-808f-42aa-8d8e-3a209538d209"},"vehicle_type_id":"4","last_reported":1729678182,"current_range_meters":9600,"station_id":"ce4bhnp2rcd13ifvqgvg","pricing_plan_id":"cebpf4jnsgd1na2vs0mg"},{"bike_id":"4a7abcc4-a1fa-417b-8ffa-a28e55985c43","system_id":"levelo_inurba_marseille","lat":43.24073,"lon":5.37752,"is_reserved":false,"is_disabled":false,"rental_uris":{"android":"levelo://app?vid=4a7abcc4-a1fa-417b-8ffa-a28e55985c43","ios":"levelo://app?vid=4a7abcc4-a1fa-417b-8ffa-a28e55985c43"},"vehicle_type_id":"4","last_reported":1729678182,"current_range_meters":37600,"station_id":"ce4bhnp2rcd13ifvqgvg","pricing_plan_id":"cebpf4jnsgd1na2vs0mg"},{"bike_id":"efd5afb5-affe-4f92-b718-8fb76e39b27d","system_id":"levelo_inurba_marseille","lat":43.32483,"lon":5.36556,"is_reserved":false,"is_disabled":false,"rental_uris":{"android":"levelo://app?vid=efd5afb5-affe-4f92-b718-8fb76e39b27d","ios":"levelo://app?vid=efd5afb5-affe-4f92-b718-8fb76e39b27d"},"vehicle_type_id":"4","last_reported":1729678182,"current_range_meters":4400,"station_id":"ce4bhs12rcd13ifvqhvg","pricing_plan_id":"cebpf4jnsgd1na2vs0mg"},{"bike_id":"c2a7898c-7446-4e6e-a769-a1611f111a30","system_id":"levelo_inurba_marseille","lat":43.27982,"lon":5.38769,"is_reserved":false,"is_disabled":false,"rental_uris":{"android":"levelo://app?vid=c2a7898c-7446-4e6e-a769-a1611f111a30","ios":"levelo://app?vid=c2a7898c-7446-4e6e-a769-a1611f111a30"},"vehicle_type_id":"4","last_reported":1729678182,"current_range_meters":36400,"station_id":"ce4bhg12rcd13ifvqf80","pricing_plan_id":"cebpf4jnsgd1na2vs0mg"},{"bike_id":"1f41f209-6719-4a28-a2e3-1bcb9e5ada20","system_id":"levelo_inurba_marseille","lat":43.23155,"lon":5.43709,"is_reserved":false,"is_disabled":false,"rental_uris":{"android":"levelo://app?vid=1f41f209-6719-4a28-a2e3-1bcb9e5ada20","ios":"levelo://app?vid=1f41f209-6719-4a28-a2e3-1bcb9e5ada20"},"vehicle_type_id":"4","last_reported":1729678182,"current_range_meters":32000,"station_id":"ce4bhmp2rcd13ifvqgog","pricing_plan_id":"cebpf4jnsgd1na2vs0mg"},{"bike_id":"fed29e3d-ded9-4536-b5e9-762e6c2a1343","system_id":"levelo_inurba_marseille","lat":43.2995,"lon":5.39193,"is_reserved":false,"is_disabled":false,"rental_uris":{"android":"levelo://app?vid=fed29e3d-ded9-4536-b5e9-762e6c2a1343","ios":"levelo://app?vid=fed29e3d-ded9-4536-b5e9-762e6c2a1343"},"vehicle_type_id":"4","last_reported":1729678182,"current_range_meters":13600,"station_id":"ce4bghh2rcd13ifvqb60","pricing_plan_id":"cebpf4jnsgd1na2vs0mg"},{"bike_id":"3cca0b2c-080d-4d79-9322-1c111283f6de","system_id":"levelo_inurba_marseille","lat":43.30311,"lon":5.36899,"is_reserved":false,"is_disabled":false,"rental_uris":{"android":"levelo://app?vid=3cca0b2c-080d-4d79-9322-1c111283f6de","ios":"levelo://app?vid=3cca0b2c-080d-4d79-9322-1c111283f6de"},"vehicle_type_id":"4","last_reported":1729678182,"current_range_meters":32800,"station_id":"ce4bgqh2rcd13ifvqc5g","pricing_plan_id":"cebpf4jnsgd1na2vs0mg"},{"bike_id":"098893cd-4cf7-4f81-be3e-7248bbdae0ba","system_id":"levelo_inurba_marseille","lat":43.28148,"lon":5.42646,"is_reserved":false,"is_disabled":false,"rental_uris":{"android":"levelo://app?vid=098893cd-4cf7-4f81-be3e-7248bbdae0ba","ios":"levelo://app?vid=098893cd-4cf7-4f81-be3e-7248bbdae0ba"},"vehicle_type_id":"4","last_reported":1729678182,"current_range_meters":8000,"station_id":"ce4bhnh2rcd13ifvqgug","pricing_plan_id":"cebpf4jnsgd1na2vs0mg"},{"bike_id":"611e0598-9200-4544-babc-7f8a60d18d6b","system_id":"levelo_inurba_marseille","lat":43.29671,"lon":5.37289,"is_reserved":false,"is_disabled":false,"rental_uris":{"android":"levelo://app?vid=611e0598-9200-4544-babc-7f8a60d18d6b","ios":"levelo://app?vid=611e0598-9200-4544-babc-7f8a60d18d6b"},"vehicle_type_id":"4","last_reported":1729678182,"current_range_meters":40000,"station_id":"ce4bgk12rcd13ifvqbj0","pricing_plan_id":"cebpf4jnsgd1na2vs0mg"},{"bike_id":"e9bd867b-8a90-455b-99ae-5e730c22474e","system_id":"levelo_inurba_marseille","lat":43.2418,"lon":5.39727,"is_reserved":false,"is_disabled":false,"rental_uris":{"android":"levelo://app?vid=e9bd867b-8a90-455b-99ae-5e730c22474e","ios":"levelo://app?vid=e9bd867b-8a90-455b-99ae-5e730c22474e"},"vehicle_type_id":"4","last_reported":1729678182,"current_range_meters":26800,"station_id":"ce4bhn12rcd13ifvqgpg","pricing_plan_id":"cebpf4jnsgd1na2vs0mg"},{"bike_id":"81655709-d432-4ba3-98cc-2a86a909a8ab","system_id":"levelo_inurba_marseille","lat":43.269763,"lon":5.386861,"is_reserved":false,"is_disabled":false,"rental_uris":{"android":"levelo://app?vid=81655709-d432-4ba3-98cc-2a86a909a8ab","ios":"levelo://app?vid=81655709-d432-4ba3-98cc-2a86a909a8ab"},"vehicle_type_id":"4","last_reported":1729678182,"current_range_meters":11600,"station_id":"ce4bhu92rcd13ifvqi70","pricing_plan_id":"cebpf4jnsgd1na2vs0mg"},{"bike_id":"01678755-0ad9-4bb7-8723-5a8d7c4420fc","system_id":"levelo_inurba_marseille","lat":43.280638,"lon":5.409825,"is_reserved":false,"is_disabled":false,"rental_uris":{"android":"levelo://app?vid=01678755-0ad9-4bb7-8723-5a8d7c4420fc","ios":"levelo://app?vid=01678755-0ad9-4bb7-8723-5a8d7c4420fc"},"vehicle_type_id":"4","last_reported":1729678182,"current_range_meters":16000,"station_id":"","pricing_plan_id":"cebpf4jnsgd1na2vs0mg"},{"bike_id":"8c79de4e-20bb-43e9-9c15-6c86ce5ce78c","system_id":"levelo_inurba_marseille","lat":43.30288,"lon":5.37697,"is_reserved":false,"is_disabled":false,"rental_uris":{"android":"levelo://app?vid=8c79de4e-20bb-43e9-9c15-6c86ce5ce78c","ios":"levelo://app?vid=8c79de4e-20bb-43e9-9c15-6c86ce5ce78c"},"vehicle_type_id":"4","last_reported":1729678182,"current_range_meters":36400,"station_id":"ce4bguh2rcd13ifvqcj0","pricing_plan_id":"cebpf4jnsgd1na2vs0mg"},{"bike_id":"0f039393-a982-48b9-b54c-dfebfff8b6e7","system_id":"levelo_inurba_marseille","lat":43.28151,"lon":5.42639,"is_reserved":false,"is_disabled":false,"rental_uris":{"android":"levelo://app?vid=0f039393-a982-48b9-b54c-dfebfff8b6e7","ios":"levelo://app?vid=0f039393-a982-48b9-b54c-dfebfff8b6e7"},"vehicle_type_id":"4","last_reported":1729678182,"current_range_meters":20800,"station_id":"ce4bhnh2rcd13ifvqgug","pricing_plan_id":"cebpf4jnsgd1na2vs0mg"},{"bike_id":"0301ac69-b1b3-41b0-81be-ed3f5d12b9dc","system_id":"levelo_inurba_marseille","lat":43.2931,"lon":5.37191,"is_reserved":false,"is_disabled":false,"rental_uris":{"android":"levelo://app?vid=0301ac69-b1b3-41b0-81be-ed3f5d12b9dc","ios":"levelo://app?vid=0301ac69-b1b3-41b0-81be-ed3f5d12b9dc"},"vehicle_type_id":"4","last_reported":1729678182,"current_range_meters":17600,"station_id":"ce4bgh92rcd13ifvqb40","pricing_plan_id":"cebpf4jnsgd1na2vs0mg"},{"bike_id":"e68074ff-f5e2-424b-ac9b-aa2b95174368","system_id":"levelo_inurba_marseille","lat":43.28151,"lon":5.42646,"is_reserved":false,"is_disabled":false,"rental_uris":{"android":"levelo://app?vid=e68074ff-f5e2-424b-ac9b-aa2b95174368","ios":"levelo://app?vid=e68074ff-f5e2-424b-ac9b-aa2b95174368"},"vehicle_type_id":"4","last_reported":1729678182,"current_range_meters":26800,"station_id":"ce4bhnh2rcd13ifvqgug","pricing_plan_id":"cebpf4jnsgd1na2vs0mg"},{"bike_id":"815dd284-1bd2-4bb9-992a-b2116e2485bc","system_id":"levelo_inurba_marseille","lat":43.32709,"lon":5.36291,"is_reserved":false,"is_disabled":false,"rental_uris":{"android":"levelo://app?vid=815dd284-1bd2-4bb9-992a-b2116e2485bc","ios":"levelo://app?vid=815dd284-1bd2-4bb9-992a-b2116e2485bc"},"vehicle_type_id":"4","last_reported":1729678182,"current_range_meters":30000,"station_id":"","pricing_plan_id":"cebpf4jnsgd1na2vs0mg"},{"bike_id":"7286cf38-90e4-4fde-865e-37e3f9890ed5","system_id":"levelo_inurba_marseille","lat":43.33607,"lon":5.41028,"is_reserved":false,"is_disabled":false,"rental_uris":{"android":"levelo://app?vid=7286cf38-90e4-4fde-865e-37e3f9890ed5","ios":"levelo://app?vid=7286cf38-90e4-4fde-865e-37e3f9890ed5"},"vehicle_type_id":"4","last_reported":1729678182,"current_range_meters":16400,"station_id":"ce4bhqh2rcd13ifvqhmg","pricing_plan_id":"cebpf4jnsgd1na2vs0mg"},{"bike_id":"e965d3a4-2c96-47af-ac7f-9f4ca7758090","system_id":"levelo_inurba_marseille","lat":43.24999,"lon":5.38924,"is_reserved":false,"is_disabled":false,"rental_uris":{"android":"levelo://app?vid=e965d3a4-2c96-47af-ac7f-9f4ca7758090","ios":"levelo://app?vid=e965d3a4-2c96-47af-ac7f-9f4ca7758090"},"vehicle_type_id":"4","last_reported":1729678182,"current_range_meters":16400,"station_id":"ce4bhgp2rcd13ifvqfd0","pricing_plan_id":"cebpf4jnsgd1na2vs0mg"},{"bike_id":"3b0fe1ab-7a75-4198-a554-5d4d6335f0d5","system_id":"levelo_inurba_marseille","lat":43.29032,"lon":5.3997,"is_reserved":false,"is_disabled":false,"rental_uris":{"android":"levelo://app?vid=3b0fe1ab-7a75-4198-a554-5d4d6335f0d5","ios":"levelo://app?vid=3b0fe1ab-7a75-4198-a554-5d4d6335f0d5"},"vehicle_type_id":"4","last_reported":1729678182,"current_range_meters":38000,"station_id":"ce4bh392rcd13ifvqdm0","pricing_plan_id":"cebpf4jnsgd1na2vs0mg"},{"bike_id":"627811a9-4978-496f-972a-e45837dda420","system_id":"levelo_inurba_marseille","lat":43.27493,"lon":5.42449,"is_reserved":false,"is_disabled":false,"rental_uris":{"android":"levelo://app?vid=627811a9-4978-496f-972a-e45837dda420","ios":"levelo://app?vid=627811a9-4978-496f-972a-e45837dda420"},"vehicle_type_id":"4","last_reported":1729678182,"current_range_meters":6800,"station_id":"ce4bhn92rcd13ifvqgrg","pricing_plan_id":"cebpf4jnsgd1na2vs0mg"},{"bike_id":"07c2576b-607e-4887-b80e-36889f16876e","system_id":"levelo_inurba_marseille","lat":43.32479,"lon":5.36557,"is_reserved":false,"is_disabled":false,"rental_uris":{"android":"levelo://app?vid=07c2576b-607e-4887-b80e-36889f16876e","ios":"levelo://app?vid=07c2576b-607e-4887-b80e-36889f16876e"},"vehicle_type_id":"4","last_reported":1729678182,"current_range_meters":30800,"station_id":"ce4bhs12rcd13ifvqhvg","pricing_plan_id":"cebpf4jnsgd1na2vs0mg"},{"bike_id":"d4fa5cb6-520d-43f8-9de2-76f18090c336","system_id":"levelo_inurba_marseille","lat":43.31229,"lon":5.36868,"is_reserved":false,"is_disabled":false,"rental_uris":{"android":"levelo://app?vid=d4fa5cb6-520d-43f8-9de2-76f18090c336","ios":"levelo://app?vid=d4fa5cb6-520d-43f8-9de2-76f18090c336"},"vehicle_type_id":"4","last_reported":1729678182,"current_range_meters":30000,"station_id":"ce4bgl92rcd13ifvqbq0","pricing_plan_id":"cebpf4jnsgd1na2vs0mg"},{"bike_id":"d52c6a35-1a60-499b-ba4e-e6cdebdfe29e","system_id":"levelo_inurba_marseille","lat":43.2842,"lon":5.34994,"is_reserved":false,"is_disabled":false,"rental_uris":{"android":"levelo://app?vid=d52c6a35-1a60-499b-ba4e-e6cdebdfe29e","ios":"levelo://app?vid=d52c6a35-1a60-499b-ba4e-e6cdebdfe29e"},"vehicle_type_id":"4","last_reported":1729678182,"current_range_meters":5600,"station_id":"ce4bhbh2rcd13ifvqepg","pricing_plan_id":"cebpf4jnsgd1na2vs0mg"},{"bike_id":"30a64e2f-eea1-43e1-bb3d-ef0ca57b183e","system_id":"levelo_inurba_marseille","lat":43.28397,"lon":5.37521,"is_reserved":false,"is_disabled":false,"rental_uris":{"android":"levelo://app?vid=30a64e2f-eea1-43e1-bb3d-ef0ca57b183e","ios":"levelo://app?vid=30a64e2f-eea1-43e1-bb3d-ef0ca57b183e"},"vehicle_type_id":"4","last_reported":1729678182,"current_range_meters":36000,"station_id":"ce4bh412rcd13ifvqds0","pricing_plan_id":"cebpf4jnsgd1na2vs0mg"},{"bike_id":"0e3c4388-07da-4bf0-b894-30ac8cf594bf","system_id":"levelo_inurba_marseille","lat":43.31702,"lon":5.37741,"is_reserved":false,"is_disabled":false,"rental_uris":{"android":"levelo://app?vid=0e3c4388-07da-4bf0-b894-30ac8cf594bf","ios":"levelo://app?vid=0e3c4388-07da-4bf0-b894-30ac8cf594bf"},"vehicle_type_id":"4","last_reported":1729678182,"current_range_meters":19600,"station_id":"ce4bgth2rcd13ifvqch0","pricing_plan_id":"cebpf4jnsgd1na2vs0mg"},{"bike_id":"f4da693c-548c-47ae-97e6-d67d2206004a","system_id":"levelo_inurba_marseille","lat":43.23152,"lon":5.43703,"is_reserved":false,"is_disabled":false,"rental_uris":{"android":"levelo://app?vid=f4da693c-548c-47ae-97e6-d67d2206004a","ios":"levelo://app?vid=f4da693c-548c-47ae-97e6-d67d2206004a"},"vehicle_type_id":"4","last_reported":1729678182,"current_range_meters":25200,"station_id":"ce4bhmp2rcd13ifvqgog","pricing_plan_id":"cebpf4jnsgd1na2vs0mg"},{"bike_id":"ea55baff-1dc1-40cc-844f-ee559aa9f283","system_id":"levelo_inurba_marseille","lat":43.31163,"lon":5.38725,"is_reserved":false,"is_disabled":false,"rental_uris":{"android":"levelo://app?vid=ea55baff-1dc1-40cc-844f-ee559aa9f283","ios":"levelo://app?vid=ea55baff-1dc1-40cc-844f-ee559aa9f283"},"vehicle_type_id":"4","last_reported":1729678182,"current_range_meters":28800,"station_id":"ce4bgv12rcd13ifvqcp0","pricing_plan_id":"cebpf4jnsgd1na2vs0mg"},{"bike_id":"4ce5bde3-4773-452b-a6b6-79f9c8450f21","system_id":"levelo_inurba_marseille","lat":43.24386,"lon":5.37053,"is_reserved":false,"is_disabled":false,"rental_uris":{"android":"levelo://app?vid=4ce5bde3-4773-452b-a6b6-79f9c8450f21","ios":"levelo://app?vid=4ce5bde3-4773-452b-a6b6-79f9c8450f21"},"vehicle_type_id":"4","last_reported":1729678182,"current_range_meters":17200,"station_id":"ce4bhhh2rcd13ifvqfk0","pricing_plan_id":"cebpf4jnsgd1na2vs0mg"},{"bike_id":"d4703fa4-5acd-4770-b4db-34ecd62a25c0","system_id":"levelo_inurba_marseille","lat":43.29534,"lon":5.37499,"is_reserved":false,"is_disabled":false,"rental_uris":{"android":"levelo://app?vid=d4703fa4-5acd-4770-b4db-34ecd62a25c0","ios":"levelo://app?vid=d4703fa4-5acd-4770-b4db-34ecd62a25c0"},"vehicle_type_id":"4","last_reported":1729678182,"current_range_meters":6400,"station_id":"ce4bgkp2rcd13ifvqbmg","pricing_plan_id":"cebpf4jnsgd1na2vs0mg"},{"bike_id":"d4161f29-d3df-4329-b8b6-34c5516d6860","system_id":"levelo_inurba_marseille","lat":43.33612,"lon":5.41038,"is_reserved":false,"is_disabled":false,"rental_uris":{"android":"levelo://app?vid=d4161f29-d3df-4329-b8b6-34c5516d6860","ios":"levelo://app?vid=d4161f29-d3df-4329-b8b6-34c5516d6860"},"vehicle_type_id":"4","last_reported":1729678182,"current_range_meters":10800,"station_id":"ce4bhqh2rcd13ifvqhmg","pricing_plan_id":"cebpf4jnsgd1na2vs0mg"},{"bike_id":"b1658f10-fd2d-49a2-a5d0-4fb5a331b62e","system_id":"levelo_inurba_marseille","lat":43.28632,"lon":5.38622,"is_reserved":false,"is_disabled":false,"rental_uris":{"android":"levelo://app?vid=b1658f10-fd2d-49a2-a5d0-4fb5a331b62e","ios":"levelo://app?vid=b1658f10-fd2d-49a2-a5d0-4fb5a331b62e"},"vehicle_type_id":"4","last_reported":1729678182,"current_range_meters":26000,"station_id":"","pricing_plan_id":"cebpf4jnsgd1na2vs0mg"},{"bike_id":"e0d82026-e773-4a5d-adc6-3cddd31c2695","system_id":"levelo_inurba_marseille","lat":43.26212,"lon":5.37438,"is_reserved":false,"is_disabled":false,"rental_uris":{"android":"levelo://app?vid=e0d82026-e773-4a5d-adc6-3cddd31c2695","ios":"levelo://app?vid=e0d82026-e773-4a5d-adc6-3cddd31c2695"},"vehicle_type_id":"4","last_reported":1729678182,"current_range_meters":37600,"station_id":"ce4bhgp2rcd13ifvqfc0","pricing_plan_id":"cebpf4jnsgd1na2vs0mg"},{"bike_id":"84db6b97-5b75-4812-adcb-82dac2f9c556","system_id":"levelo_inurba_marseille","lat":43.28461,"lon":5.35884,"is_reserved":false,"is_disabled":false,"rental_uris":{"android":"levelo://app?vid=84db6b97-5b75-4812-adcb-82dac2f9c556","ios":"levelo://app?vid=84db6b97-5b75-4812-adcb-82dac2f9c556"},"vehicle_type_id":"4","last_reported":1729678182,"current_range_meters":6000,"station_id":"ce4bhah2rcd13ifvqei0","pricing_plan_id":"cebpf4jnsgd1na2vs0mg"},{"bike_id":"5c1c175f-0503-4df3-bc5e-c32c128444db","system_id":"levelo_inurba_marseille","lat":43.22932,"lon":5.35378,"is_reserved":false,"is_disabled":false,"rental_uris":{"android":"levelo://app?vid=5c1c175f-0503-4df3-bc5e-c32c128444db","ios":"levelo://app?vid=5c1c175f-0503-4df3-bc5e-c32c128444db"},"vehicle_type_id":"4","last_reported":1729678182,"current_range_meters":22000,"station_id":"cpo3532slgdg3j2ikp40","pricing_plan_id":"cebpf4jnsgd1na2vs0mg"},{"bike_id":"60646783-9c71-4bc3-a672-7c12563753a5","system_id":"levelo_inurba_marseille","lat":43.31709,"lon":5.37753,"is_reserved":false,"is_disabled":false,"rental_uris":{"android":"levelo://app?vid=60646783-9c71-4bc3-a672-7c12563753a5","ios":"levelo://app?vid=60646783-9c71-4bc3-a672-7c12563753a5"},"vehicle_type_id":"4","last_reported":1729678182,"current_range_meters":32800,"station_id":"ce4bgth2rcd13ifvqch0","pricing_plan_id":"cebpf4jnsgd1na2vs0mg"},{"bike_id":"78e537d8-bd8f-4d34-aae8-e7b0c845af68","system_id":"levelo_inurba_marseille","lat":43.30149,"lon":5.37413,"is_reserved":false,"is_disabled":false,"rental_uris":{"android":"levelo://app?vid=78e537d8-bd8f-4d34-aae8-e7b0c845af68","ios":"levelo://app?vid=78e537d8-bd8f-4d34-aae8-e7b0c845af68"},"vehicle_type_id":"4","last_reported":1729678182,"current_range_meters":36400,"station_id":"ce4bgs92rcd13ifvqcc0","pricing_plan_id":"cebpf4jnsgd1na2vs0mg"},{"bike_id":"22fc431c-b57c-465f-994e-166d81585d45","system_id":"levelo_inurba_marseille","lat":43.23961,"lon":5.36634,"is_reserved":false,"is_disabled":false,"rental_uris":{"android":"levelo://app?vid=22fc431c-b57c-465f-994e-166d81585d45","ios":"levelo://app?vid=22fc431c-b57c-465f-994e-166d81585d45"},"vehicle_type_id":"4","last_reported":1729678182,"current_range_meters":37600,"station_id":"ce4bhi12rcd13ifvqfp0","pricing_plan_id":"cebpf4jnsgd1na2vs0mg"},{"bike_id":"86260a5e-f8ca-4a78-b654-af58271e70be","system_id":"levelo_inurba_marseille","lat":43.25728,"lon":5.41106,"is_reserved":false,"is_disabled":false,"rental_uris":{"android":"levelo://app?vid=86260a5e-f8ca-4a78-b654-af58271e70be","ios":"levelo://app?vid=86260a5e-f8ca-4a78-b654-af58271e70be"},"vehicle_type_id":"4","last_reported":1729678182,"current_range_meters":38800,"station_id":"ce4bhkp2rcd13ifvqgd0","pricing_plan_id":"cebpf4jnsgd1na2vs0mg"},{"bike_id":"d3c7a73c-6b5f-4cdc-80e8-5660952d5502","system_id":"levelo_inurba_marseille","lat":43.29849,"lon":5.36275,"is_reserved":false,"is_disabled":false,"rental_uris":{"android":"levelo://app?vid=d3c7a73c-6b5f-4cdc-80e8-5660952d5502","ios":"levelo://app?vid=d3c7a73c-6b5f-4cdc-80e8-5660952d5502"},"vehicle_type_id":"4","last_reported":1729678182,"current_range_meters":36800,"station_id":"ce4bgpp2rcd13ifvqc3g","pricing_plan_id":"cebpf4jnsgd1na2vs0mg"},{"bike_id":"f4aea8d2-64a2-4124-9304-7da77467e05f","system_id":"levelo_inurba_marseille","lat":43.34142,"lon":5.40902,"is_reserved":false,"is_disabled":false,"rental_uris":{"android":"levelo://app?vid=f4aea8d2-64a2-4124-9304-7da77467e05f","ios":"levelo://app?vid=f4aea8d2-64a2-4124-9304-7da77467e05f"},"vehicle_type_id":"4","last_reported":1729678182,"current_range_meters":28800,"station_id":"","pricing_plan_id":"cebpf4jnsgd1na2vs0mg"},{"bike_id":"7840748f-5407-4646-a30e-2dede6e90251","system_id":"levelo_inurba_marseille","lat":43.24999,"lon":5.38926,"is_reserved":false,"is_disabled":false,"rental_uris":{"android":"levelo://app?vid=7840748f-5407-4646-a30e-2dede6e90251","ios":"levelo://app?vid=7840748f-5407-4646-a30e-2dede6e90251"},"vehicle_type_id":"4","last_reported":1729678182,"current_range_meters":30000,"station_id":"ce4bhgp2rcd13ifvqfd0","pricing_plan_id":"cebpf4jnsgd1na2vs0mg"},{"bike_id":"c9aaa140-4cb3-444a-80ce-93944fd36d74","system_id":"levelo_inurba_marseille","lat":43.25004,"lon":5.38928,"is_reserved":false,"is_disabled":false,"rental_uris":{"android":"levelo://app?vid=c9aaa140-4cb3-444a-80ce-93944fd36d74","ios":"levelo://app?vid=c9aaa140-4cb3-444a-80ce-93944fd36d74"},"vehicle_type_id":"4","last_reported":1729678182,"current_range_meters":34000,"station_id":"ce4bhgp2rcd13ifvqfd0","pricing_plan_id":"cebpf4jnsgd1na2vs0mg"},{"bike_id":"60088693-61a3-4c43-a009-ae33f0ec014c","system_id":"levelo_inurba_marseille","lat":43.31125,"lon":5.37772,"is_reserved":false,"is_disabled":false,"rental_uris":{"android":"levelo://app?vid=60088693-61a3-4c43-a009-ae33f0ec014c","ios":"levelo://app?vid=60088693-61a3-4c43-a009-ae33f0ec014c"},"vehicle_type_id":"4","last_reported":1729678182,"current_range_meters":38800,"station_id":"ce4bgt92rcd13ifvqcg0","pricing_plan_id":"cebpf4jnsgd1na2vs0mg"},{"bike_id":"27a5a8b0-563c-46fc-81e5-f40494c9273e","system_id":"levelo_inurba_marseille","lat":43.26493,"lon":5.39551,"is_reserved":false,"is_disabled":false,"rental_uris":{"android":"levelo://app?vid=27a5a8b0-563c-46fc-81e5-f40494c9273e","ios":"levelo://app?vid=27a5a8b0-563c-46fc-81e5-f40494c9273e"},"vehicle_type_id":"4","last_reported":1729678182,"current_range_meters":38800,"station_id":"ce4bhi12rcd13ifvqfq0","pricing_plan_id":"cebpf4jnsgd1na2vs0mg"},{"bike_id":"7258a7e0-02ef-43b7-9f55-01996ace8bd0","system_id":"levelo_inurba_marseille","lat":43.30138,"lon":5.37423,"is_reserved":false,"is_disabled":false,"rental_uris":{"android":"levelo://app?vid=7258a7e0-02ef-43b7-9f55-01996ace8bd0","ios":"levelo://app?vid=7258a7e0-02ef-43b7-9f55-01996ace8bd0"},"vehicle_type_id":"4","last_reported":1729678182,"current_range_meters":19600,"station_id":"ce4bgs92rcd13ifvqcc0","pricing_plan_id":"cebpf4jnsgd1na2vs0mg"},{"bike_id":"9971d530-ca30-4e32-ad47-a077096fa11d","system_id":"levelo_inurba_marseille","lat":43.30139,"lon":5.39863,"is_reserved":false,"is_disabled":false,"rental_uris":{"android":"levelo://app?vid=9971d530-ca30-4e32-ad47-a077096fa11d","ios":"levelo://app?vid=9971d530-ca30-4e32-ad47-a077096fa11d"},"vehicle_type_id":"4","last_reported":1729678182,"current_range_meters":27600,"station_id":"ce4bh0h2rcd13ifvqd40","pricing_plan_id":"cebpf4jnsgd1na2vs0mg"},{"bike_id":"2a65fed3-5c60-4dc7-8696-46a5f820080f","system_id":"levelo_inurba_marseille","lat":43.30905,"lon":5.36847,"is_reserved":false,"is_disabled":false,"rental_uris":{"android":"levelo://app?vid=2a65fed3-5c60-4dc7-8696-46a5f820080f","ios":"levelo://app?vid=2a65fed3-5c60-4dc7-8696-46a5f820080f"},"vehicle_type_id":"4","last_reported":1729678182,"current_range_meters":7200,"station_id":"ce4bgn92rcd13ifvqbvg","pricing_plan_id":"cebpf4jnsgd1na2vs0mg"},{"bike_id":"a90d435a-f920-4ecd-a2f1-1900446a3610","system_id":"levelo_inurba_marseille","lat":43.29555,"lon":5.4229,"is_reserved":false,"is_disabled":false,"rental_uris":{"android":"levelo://app?vid=a90d435a-f920-4ecd-a2f1-1900446a3610","ios":"levelo://app?vid=a90d435a-f920-4ecd-a2f1-1900446a3610"},"vehicle_type_id":"4","last_reported":1729678182,"current_range_meters":39200,"station_id":"ce4bhph2rcd13ifvqhdg","pricing_plan_id":"cebpf4jnsgd1na2vs0mg"},{"bike_id":"2a6bb5d6-62d8-481f-a67d-49029636d18c","system_id":"levelo_inurba_marseille","lat":43.28402,"lon":5.3752,"is_reserved":false,"is_disabled":false,"rental_uris":{"android":"levelo://app?vid=2a6bb5d6-62d8-481f-a67d-49029636d18c","ios":"levelo://app?vid=2a6bb5d6-62d8-481f-a67d-49029636d18c"},"vehicle_type_id":"4","last_reported":1729678182,"current_range_meters":38000,"station_id":"ce4bh412rcd13ifvqds0","pricing_plan_id":"cebpf4jnsgd1na2vs0mg"},{"bike_id":"00b03feb-2649-46ed-8129-71853ba23172","system_id":"levelo_inurba_marseille","lat":43.31324,"lon":5.39686,"is_reserved":false,"is_disabled":false,"rental_uris":{"android":"levelo://app?vid=00b03feb-2649-46ed-8129-71853ba23172","ios":"levelo://app?vid=00b03feb-2649-46ed-8129-71853ba23172"},"vehicle_type_id":"4","last_reported":1729678182,"current_range_meters":20800,"station_id":"ce4bgvp2rcd13ifvqcu0","pricing_plan_id":"cebpf4jnsgd1na2vs0mg"},{"bike_id":"1e82bfd6-9670-422a-8d00-3fbfd23ffd4a","system_id":"levelo_inurba_marseille","lat":43.284073,"lon":5.349824,"is_reserved":false,"is_disabled":false,"rental_uris":{"android":"levelo://app?vid=1e82bfd6-9670-422a-8d00-3fbfd23ffd4a","ios":"levelo://app?vid=1e82bfd6-9670-422a-8d00-3fbfd23ffd4a"},"vehicle_type_id":"4","last_reported":1729678182,"current_range_meters":15200,"station_id":"ce4bhbh2rcd13ifvqepg","pricing_plan_id":"cebpf4jnsgd1na2vs0mg"},{"bike_id":"dfe7b766-2fbf-4fb6-9732-c9980ca58c95","system_id":"levelo_inurba_marseille","lat":43.30554,"lon":5.3655,"is_reserved":false,"is_disabled":false,"rental_uris":{"android":"levelo://app?vid=dfe7b766-2fbf-4fb6-9732-c9980ca58c95","ios":"levelo://app?vid=dfe7b766-2fbf-4fb6-9732-c9980ca58c95"},"vehicle_type_id":"4","last_reported":1729678182,"current_range_meters":24000,"station_id":"ce4bgs12rcd13ifvqcag","pricing_plan_id":"cebpf4jnsgd1na2vs0mg"},{"bike_id":"ac2b6313-49da-4af6-a794-12ca6554415b","system_id":"levelo_inurba_marseille","lat":43.29962,"lon":5.41321,"is_reserved":false,"is_disabled":false,"rental_uris":{"android":"levelo://app?vid=ac2b6313-49da-4af6-a794-12ca6554415b","ios":"levelo://app?vid=ac2b6313-49da-4af6-a794-12ca6554415b"},"vehicle_type_id":"4","last_reported":1729678182,"current_range_meters":38000,"station_id":"ce4bhp12rcd13ifvqh9g","pricing_plan_id":"cebpf4jnsgd1na2vs0mg"},{"bike_id":"740a844e-0466-4758-af17-eef28f1feda0","system_id":"levelo_inurba_marseille","lat":43.26552,"lon":5.37289,"is_reserved":false,"is_disabled":false,"rental_uris":{"android":"levelo://app?vid=740a844e-0466-4758-af17-eef28f1feda0","ios":"levelo://app?vid=740a844e-0466-4758-af17-eef28f1feda0"},"vehicle_type_id":"4","last_reported":1729678182,"current_range_meters":2000,"station_id":"ce4bhg12rcd13ifvqf70","pricing_plan_id":"cebpf4jnsgd1na2vs0mg"},{"bike_id":"01d08235-a4e4-434f-8493-03de70774cab","system_id":"levelo_inurba_marseille","lat":43.3211,"lon":5.36772,"is_reserved":false,"is_disabled":false,"rental_uris":{"android":"levelo://app?vid=01d08235-a4e4-434f-8493-03de70774cab","ios":"levelo://app?vid=01d08235-a4e4-434f-8493-03de70774cab"},"vehicle_type_id":"4","last_reported":1729678182,"current_range_meters":38000,"station_id":"ce4bhrh2rcd13ifvqhug","pricing_plan_id":"cebpf4jnsgd1na2vs0mg"},{"bike_id":"2b80f943-bf35-49c7-9584-ea1845fd1d05","system_id":"levelo_inurba_marseille","lat":43.23055,"lon":5.35488,"is_reserved":false,"is_disabled":false,"rental_uris":{"android":"levelo://app?vid=2b80f943-bf35-49c7-9584-ea1845fd1d05","ios":"levelo://app?vid=2b80f943-bf35-49c7-9584-ea1845fd1d05"},"vehicle_type_id":"4","last_reported":1729678182,"current_range_meters":6000,"station_id":"cpo3342slgdg3j2ifvpg","pricing_plan_id":"cebpf4jnsgd1na2vs0mg"},{"bike_id":"2cdfddd9-678d-4be8-83fe-392309f70124","system_id":"levelo_inurba_marseille","lat":43.288505,"lon":5.393174,"is_reserved":false,"is_disabled":false,"rental_uris":{"android":"levelo://app?vid=2cdfddd9-678d-4be8-83fe-392309f70124","ios":"levelo://app?vid=2cdfddd9-678d-4be8-83fe-392309f70124"},"vehicle_type_id":"4","last_reported":1729678182,"current_range_meters":28400,"station_id":"ce4bhpp2rcd13ifvqhfg","pricing_plan_id":"cebpf4jnsgd1na2vs0mg"},{"bike_id":"9ee92945-fc74-4382-9645-537465c75a5f","system_id":"levelo_inurba_marseille","lat":43.31226,"lon":5.36856,"is_reserved":false,"is_disabled":false,"rental_uris":{"android":"levelo://app?vid=9ee92945-fc74-4382-9645-537465c75a5f","ios":"levelo://app?vid=9ee92945-fc74-4382-9645-537465c75a5f"},"vehicle_type_id":"4","last_reported":1729678182,"current_range_meters":14400,"station_id":"ce4bgl92rcd13ifvqbq0","pricing_plan_id":"cebpf4jnsgd1na2vs0mg"},{"bike_id":"0ba002b8-e108-4a2b-b69b-9d62a94756b7","system_id":"levelo_inurba_marseille","lat":43.25001,"lon":5.38927,"is_reserved":false,"is_disabled":false,"rental_uris":{"android":"levelo://app?vid=0ba002b8-e108-4a2b-b69b-9d62a94756b7","ios":"levelo://app?vid=0ba002b8-e108-4a2b-b69b-9d62a94756b7"},"vehicle_type_id":"4","last_reported":1729678182,"current_range_meters":37600,"station_id":"ce4bhgp2rcd13ifvqfd0","pricing_plan_id":"cebpf4jnsgd1na2vs0mg"},{"bike_id":"3d9d778d-545e-45dc-8d3d-dbe44052782f","system_id":"levelo_inurba_marseille","lat":43.24996,"lon":5.38928,"is_reserved":false,"is_disabled":false,"rental_uris":{"android":"levelo://app?vid=3d9d778d-545e-45dc-8d3d-dbe44052782f","ios":"levelo://app?vid=3d9d778d-545e-45dc-8d3d-dbe44052782f"},"vehicle_type_id":"4","last_reported":1729678182,"current_range_meters":4800,"station_id":"ce4bhgp2rcd13ifvqfd0","pricing_plan_id":"cebpf4jnsgd1na2vs0mg"},{"bike_id":"7c2a9497-38f6-4903-877c-54bf6b95d02e","system_id":"levelo_inurba_marseille","lat":43.31338,"lon":5.36732,"is_reserved":false,"is_disabled":false,"rental_uris":{"android":"levelo://app?vid=7c2a9497-38f6-4903-877c-54bf6b95d02e","ios":"levelo://app?vid=7c2a9497-38f6-4903-877c-54bf6b95d02e"},"vehicle_type_id":"4","last_reported":1729678182,"current_range_meters":26800,"station_id":"ce4bgr92rcd13ifvqc6g","pricing_plan_id":"cebpf4jnsgd1na2vs0mg"},{"bike_id":"259bd92d-f87d-4c42-9bb3-b39ac8b7b8fe","system_id":"levelo_inurba_marseille","lat":43.29574,"lon":5.37509,"is_reserved":false,"is_disabled":false,"rental_uris":{"android":"levelo://app?vid=259bd92d-f87d-4c42-9bb3-b39ac8b7b8fe","ios":"levelo://app?vid=259bd92d-f87d-4c42-9bb3-b39ac8b7b8fe"},"vehicle_type_id":"4","last_reported":1729678182,"current_range_meters":10000,"station_id":"ce4bgh92rcd13ifvqb50","pricing_plan_id":"cebpf4jnsgd1na2vs0mg"},{"bike_id":"6ee8f7f6-a8fa-486b-ba64-92cb6d318cc2","system_id":"levelo_inurba_marseille","lat":43.32479,"lon":5.36556,"is_reserved":false,"is_disabled":false,"rental_uris":{"android":"levelo://app?vid=6ee8f7f6-a8fa-486b-ba64-92cb6d318cc2","ios":"levelo://app?vid=6ee8f7f6-a8fa-486b-ba64-92cb6d318cc2"},"vehicle_type_id":"4","last_reported":1729678182,"current_range_meters":36400,"station_id":"ce4bhs12rcd13ifvqhvg","pricing_plan_id":"cebpf4jnsgd1na2vs0mg"},