{"last_updated":1735571320,"ttl":60,"version":"2.2","data":{"bikes":[{"bike_id":"b125795f-7d19-4680-a8d6-94e84290827f","system_id":"levelo_inurba_marseille","lat":43.30135,"lon":5.37427,"is_reserved":false,"is_disabled":false,"rental_uris":{"android":"levelo://app?vid=b125795f-7d19-4680-a8d6-94e84290827f","ios":"levelo://app?vid=b125795f-7d19-4680-a8d6-94e84290827f"},"vehicle_type_id":"4","last_reported":1735571320,"current_range_meters":38800,"station_id":"ce4bgs92rcd13ifvqcc0","pricing_plan_id":"cebpf4jnsgd1na2vs0mg"},{"bike_id":"92b731bd-5018-412b-882c-748ea846dc76","system_id":"levelo_inurba_marseille","lat":43.27318,"lon":5.39091,"is_reserved":false,"is_disabled":false,"rental_uris":{"android":"levelo://app?vid=92b731bd-5018-412b-882c-748ea846dc76","ios":"levelo://app?vid=92b731bd-5018-412b-882c-748ea846dc76"},"vehicle_type_id":"4","last_reported":1735571320,"current_range_meters":26800,"station_id":"ce4bhgp2rcd13ifvqfe0","pricing_plan_id":"cebpf4jnsgd1na2vs0mg"},{"bike_id":"b1e3d2fb-39b3-466a-8934-a01b3592fbe9","system_id":"levelo_inurba_marseille","lat":43.29851,"lon":5.3627,"is_reserved":false,"is_disabled":false,"rental_uris":{"android":"levelo://app?vid=b1e3d2fb-39b3-466a-8934-a01b3592fbe9","ios":"levelo://app?vid=b1e3d2fb-39b3-466a-8934-a01b3592fbe9"},"vehicle_type_id":"4","last_reported":1735571320,"current_range_meters":39200,"station_id":"ce4bgpp2rcd13ifvqc3g","pricing_plan_id":"cebpf4jnsgd1na2vs0mg"},{"bike_id":"0c4d407c-6cb3-4649-ac2d-959dc9dbd1fc","system_id":"levelo_inurba_marseille","lat":43.2793,"lon":5.41052,"is_reserved":false,"is_disabled":false,"rental_uris":{"android":"levelo://app?vid=0c4d407c-6cb3-4649-ac2d-959dc9dbd1fc","ios":"levelo://app?vid=0c4d407c-6cb3-4649-ac2d-959dc9dbd1fc"},"vehicle_type_id":"4","last_reported":1735571320,"current_range_meters":28000,"station_id":"ce4bhnp2rcd13ifvqh0g","pricing_plan_id":"cebpf4jnsgd1na2vs0mg"},{"bike_id":"937cf6ed-13f9-4f79-8ae3-ad36d7b97d7b","system_id":"levelo_inurba_marseille","lat":43.30433,"lon":5.38903,"is_reserved":false,"is_disabled":false,"rental_uris":{"android":"levelo://app?vid=937cf6ed-13f9-4f79-8ae3-ad36d7b97d7b","ios":"levelo://app?vid=937cf6ed-13f9-4f79-8ae3-ad36d7b97d7b"},"vehicle_type_id":"4","last_reported":1735571320,"current_range_meters":35600,"station_id":"ce4bgk12rcd13ifvqbi0","pricing_plan_id":"cebpf4jnsgd1na2vs0mg"},{"bike_id":"3991aac2-ec7f-43c8-801f-23e11845f2d6","system_id":"levelo_inurba_marseille","lat":43.28153,"lon":5.42647,"is_reserved":false,"is_disabled":false,"rental_uris":{"android":"levelo://app?vid=3991aac2-ec7f-43c8-801f-23e11845f2d6","ios":"levelo://app?vid=3991aac2-ec7f-43c8-801f-23e11845f2d6"},"vehicle_type_id":"4","last_reported":1735571320,"current_range_meters":38800,"station_id":"ce4bhnh2rcd13ifvqgug","pricing_plan_id":"cebpf4jnsgd1na2vs0mg"},{"bike_id":"215a3cc9-e20f-428c-9af1-514093bb2213","system_id":"levelo_inurba_marseille","lat":43.28422,"lon":5.3498,"is_reserved":false,"is_disabled":false,"rental_uris":{"android":"levelo://app?vid=215a3cc9-e20f-428c-9af1-514093bb2213","ios":"levelo://app?vid=215a3cc9-e20f-428c-9af1-514093bb2213"},"vehicle_type_id":"4","last_reported":1735571320,"current_range_meters":20400,"station_id":"ce4bhbh2rcd13ifvqepg","pricing_plan_id":"cebpf4jnsgd1na2vs0mg"},{"bike_id":"baaa04e6-afd5-4746-9e82-9d2e405bde6f","system_id":"levelo_inurba_marseille","lat":43.28455,"lon":5.35884,"is_reserved":false,"is_disabled":false,"rental_uris":{"android":"levelo://app?vid=baaa04e6-afd5-4746-9e82-9d2e405bde6f","ios":"levelo://app?vid=baaa04e6-afd5-4746-9e82-9d2e405bde6f"},"vehicle_type_id":"4","last_reported":1735571320,"current_range_meters":22800,"station_id":"ce4bhah2rcd13ifvqei0","pricing_plan_id":"cebpf4jnsgd1na2vs0mg"},{"bike_id":"a4b5b3e3-7bef-4978-a4f7-b2a8036d544d","system_id":"levelo_inurba_marseille","lat":43.28432,"lon":5.34992,"is_reserved":false,"is_disabled":false,"rental_uris":{"android":"levelo://app?vid=a4b5b3e3-7bef-4978-a4f7-b2a8036d544d","ios":"levelo://app?vid=a4b5b3e3-7bef-4978-a4f7-b2a8036d544d"},"vehicle_type_id":"4","last_reported":1735571320,"current_range_meters":26800,"station_id":"ce4bhbh2rcd13ifvqepg","pricing_plan_id":"cebpf4jnsgd1na2vs0mg"},{"bike_id":"3b3d2c75-4195-4f81-af35-afa13ebc8eea","system_id":"levelo_inurba_marseille","lat":43.27397,"lon":5.36227,"is_reserved":false,"is_disabled":true,"rental_uris":{"android":"levelo://app?vid=3b3d2c75-4195-4f81-af35-afa13ebc8eea","ios":"levelo://app?vid=3b3d2c75-4195-4f81-af35-afa13ebc8eea"},"vehicle_type_id":"4","last_reported":1735571320,"current_range_meters":22400,"station_id":"","pricing_plan_id":"cebpf4jnsgd1na2vs0mg"},{"bike_id":"11ee30d4-1e56-487d-a54e-b74575df5bd7","system_id":"levelo_inurba_marseille","lat":43.24071,"lon":5.37762,"is_reserved":false,"is_disabled":false,"rental_uris":{"android":"levelo://app?vid=11ee30d4-1e56-487d-a54e-b74575df5bd7","ios":"levelo://app?vid=11ee30d4-1e56-487d-a54e-b74575df5bd7"},"vehicle_type_id":"4","last_reported":1735571320,"current_range_meters":31200,"station_id":"ce4bhnp2rcd13ifvqgvg","pricing_plan_id":"cebpf4jnsgd1na2vs0mg"},{"bike_id":"a1a5f3fe-7f90-4223-b04a-63f973fe01fd","system_id":"levelo_inurba_marseille","lat":43.24074,"lon":5.37757,"is_reserved":false,"is_disabled":false,"rental_uris":{"android":"levelo://app?vid=a1a5f3fe-7f90-4223-b04a-63f973fe01fd","ios":"levelo://app?vid=a1a5f3fe-7f90-4223-b04a-63f973fe01fd"},"vehicle_type_id":"4","last_reported":1735571320,"current_range_meters":11200,"station_id":"ce4bhnp2rcd13ifvqgvg","pricing_plan_id":"cebpf4jnsgd1na2vs0mg"},{"bike_id":"72a1bfa2-7c69-40a3-899a-62506e164d10","system_id":"levelo_inurba_marseille","lat":43.30536,"lon":5.36549,"is_reserved":false,"is_disabled":false,"rental_uris":{"android":"levelo://app?vid=72a1bfa2-7c69-40a3-899a-62506e164d10","ios":"levelo://app?vid=72a1bfa2-7c69-40a3-899a-62506e164d10"},"vehicle_type_id":"4","last_reported":1735571320,"current_range_meters":16000,"station_id":"ce4bgs12rcd13ifvqcag","pricing_plan_id":"cebpf4jnsgd1na2vs0mg"},{"bike_id":"99c6b87a-843d-4eac-96f7-03bb3144a23d","system_id":"levelo_inurba_marseille","lat":43.23208,"lon":5.3556,"is_reserved":false,"is_disabled":false,"rental_uris":{"android":"levelo://app?vid=99c6b87a-843d-4eac-96f7-03bb3144a23d","ios":"levelo://app?vid=99c6b87a-843d-4eac-96f7-03bb3144a23d"},"vehicle_type_id":"4","last_reported":1735571320,"current_range_meters":38000,"station_id":"ce4bhu92rcd13ifvqi70","pricing_plan_id":"cebpf4jnsgd1na2vs0mg"},{"bike_id":"4b2d39f3-d5d3-4cb8-a84c-a1c267b615dd","system_id":"levelo_inurba_marseille","lat":43.28276,"lon":5.35084,"is_reserved":false,"is_disabled":true,"rental_uris":{"android":"levelo://app?vid=4b2d39f3-d5d3-4cb8-a84c-a1c267b615dd","ios":"levelo://app?vid=4b2d39f3-d5d3-4cb8-a84c-a1c267b615dd"},"vehicle_type_id":"4","last_reported":1735571320,"current_range_meters":10800,"station_id":"ce4bhbp2rcd13ifvqerg","pricing_plan_id":"cebpf4jnsgd1na2vs0mg"},{"bike_id":"43d70a12-f23b-4eab-80ce-32f6ec951a07","system_id":"levelo_inurba_marseille","lat":43.28021,"lon":5.40028,"is_reserved":false,"is_disabled":false,"rental_uris":{"android":"levelo://app?vid=43d70a12-f23b-4eab-80ce-32f6ec951a07","ios":"levelo://app?vid=43d70a12-f23b-4eab-80ce-32f6ec951a07"},"vehicle_type_id":"4","last_reported":1735571320,"current_range_meters":4800,"station_id":"ce4bho92rcd13ifvqh4g","pricing_plan_id":"cebpf4jnsgd1na2vs0mg"},{"bike_id":"a4b220c0-96b3-4dff-a0e6-c3ae3be6f46b","system_id":"levelo_inurba_marseille","lat":43.29002,"lon":5.35619,"is_reserved":false,"is_disabled":false,"rental_uris":{"android":"levelo://app?vid=a4b220c0-96b3-4dff-a0e6-c3ae3be6f46b","ios":"levelo://app?vid=a4b220c0-96b3-4dff-a0e6-c3ae3be6f46b"},"vehicle_type_id":"4","last_reported":1735571320,"current_range_meters":38400,"station_id":"ce4bhb92rcd13ifvqen0","pricing_plan_id":"cebpf4jnsgd1na2vs0mg"},{"bike_id":"a6a30c74-d31a-4a3f-a251-d7bdc31aea9e","system_id":"levelo_inurba_marseille","lat":43.27072,"lon":5.4228,"is_reserved":false,"is_disabled":false,"rental_uris":{"android":"levelo://app?vid=a6a30c74-d31a-4a3f-a251-d7bdc31aea9e","ios":"levelo://app?vid=a6a30c74-d31a-4a3f-a251-d7bdc31aea9e"},"vehicle_type_id":"4","last_reported":1735571320,"current_range_meters":30800,"station_id":"ce4bhk92rcd13ifvqgb0","pricing_plan_id":"cebpf4jnsgd1na2vs0mg"},{"bike_id":"f1c7a22d-ac2e-4471-b583-83a5f465e9b6","system_id":"levelo_inurba_marseille","lat":43.28497,"lon":5.38477,"is_reserved":false,"is_disabled":false,"rental_uris":{"android":"levelo://app?vid=f1c7a22d-ac2e-4471-b583-83a5f465e9b6","ios":"levelo://app?vid=f1c7a22d-ac2e-4471-b583-83a5f465e9b6"},"vehicle_type_id":"4","last_reported":1735571320,"current_range_meters":35600,"station_id":"","pricing_plan_id":"cebpf4jnsgd1na2vs0mg"},{"bike_id":"f6647cf5-51a5-4b7a-ad40-c690db37c883","system_id":"levelo_inurba_marseille","lat":43.27969,"lon":5.41057,"is_reserved":false,"is_disabled":false,"rental_uris":{"android":"levelo://app?vid=f6647cf5-51a5-4b7a-ad40-c690db37c883","ios":"levelo://app?vid=f6647cf5-51a5-4b7a-ad40-c690db37c883"},"vehicle_type_id":"4","last_reported":1735571320,"current_range_meters":24800,"station_id":"ce4bhnp2rcd13ifvqh0g","pricing_plan_id":"cebpf4jnsgd1na2vs0mg"},{"bike_id":"96c20827-89ed-4672-af72-3e7576524693","system_id":"levelo_inurba_marseille","lat":43.28999,"lon":5.356,"is_reserved":false,"is_disabled":false,"rental_uris":{"android":"levelo://app?vid=96c20827-89ed-4672-af72-3e7576524693","ios":"levelo://app?vid=96c20827-89ed-4672-af72-3e7576524693"},"vehicle_type_id":"4","last_reported":1735571320,"current_range_meters":24800,"station_id":"ce4bhb92rcd13ifvqen0","pricing_plan_id":"cebpf4jnsgd1na2vs0mg"},{"bike_id":"b1d807e3-1f3d-49b3-89a2-1bd16b66d5d2","system_id":"levelo_inurba_marseille","lat":43.2972,"lon":5.36613,"is_reserved":false,"is_disabled":false,"rental_uris":{"android":"levelo://app?vid=b1d807e3-1f3d-49b3-89a2-1bd16b66d5d2","ios":"levelo://app?vid=b1d807e3-1f3d-49b3-89a2-1bd16b66d5d2"},"vehicle_type_id":"4","last_reported":1735571320,"current_range_meters":18800,"station_id":"ce4bgn12rcd13ifvqbt0","pricing_plan_id":"cebpf4jnsgd1na2vs0mg"},{"bike_id":"9f2b9bba-3c4f-44b5-b426-31738094d189","system_id":"levelo_inurba_marseille","lat":43.30535,"lon":5.36716,"is_reserved":false,"is_disabled":false,"rental_uris":{"android":"levelo://app?vid=9f2b9bba-3c4f-44b5-b426-31738094d189","ios":"levelo://app?vid=9f2b9bba-3c4f-44b5-b426-31738094d189"},"vehicle_type_id":"4","last_reported":1735571320,"current_range_meters":29600,"station_id":"ce4bgrp2rcd13ifvqc9g","pricing_plan_id":"cebpf4jnsgd1na2vs0mg"},{"bike_id":"b4d130c6-4fa7-4fa3-83b8-3ae416781279","system_id":"levelo_inurba_marseille","lat":43.2743,"lon":5.39272,"is_reserved":false,"is_disabled":false,"rental_uris":{"android":"levelo://app?vid=b4d130c6-4fa7-4fa3-83b8-3ae416781279","ios":"levelo://app?vid=b4d130c6-4fa7-4fa3-83b8-3ae416781279"},"vehicle_type_id":"4","last_reported":1735571320,"current_range_meters":9600,"station_id":"","pricing_plan_id":"cebpf4jnsgd1na2vs0mg"},{"bike_id":"3ad6c34c-fb37-4ed4-89bc-d07998b58901","system_id":"levelo_inurba_marseille","lat":43.32368,"lon":5.3888,"is_reserved":false,"is_disabled":false,"rental_uris":{"android":"levelo://app?vid=3ad6c34c-fb37-4ed4-89bc-d07998b58901","ios":"levelo://app?vid=3ad6c34c-fb37-4ed4-89bc-d07998b58901"},"vehicle_type_id":"4","last_reported":1735571320,"current_range_meters":28000,"station_id":"ce4bhqp2rcd13ifvqhog","pricing_plan_id":"cebpf4jnsgd1na2vs0mg"},{"bike_id":"8da5d8d5-7736-4902-a2a3-2af73789a5b8","system_id":"levelo_inurba_marseille","lat":43.26563,"lon":5.39036,"is_reserved":false,"is_disabled":false,"rental_uris":{"android":"levelo://app?vid=8da5d8d5-7736-4902-a2a3-2af73789a5b8","ios":"levelo://app?vid=8da5d8d5-7736-4902-a2a3-2af73789a5b8"},"vehicle_type_id":"4","last_reported":1735571320,"current_range_meters":38800,"station_id":"ce4bhe12rcd13ifvqf30","pricing_plan_id":"cebpf4jnsgd1na2vs0mg"},{"bike_id":"ff49d49a-53c3-499a-b296-89a67f332a8a","system_id":"levelo_inurba_marseille","lat":43.24193,"lon":5.36393,"is_reserved":false,"is_disabled":false,"rental_uris":{"android":"levelo://app?vid=ff49d49a-53c3-499a-b296-89a67f332a8a","ios":"levelo://app?vid=ff49d49a-53c3-499a-b296-89a67f332a8a"},"vehicle_type_id":"4","last_reported":1735571320,"current_range_meters":8800,"station_id":"cpo36qri1sfpv3e86is0","pricing_plan_id":"cebpf4jnsgd1na2vs0mg"},{"bike_id":"d62e846c-dca7-474a-a248-328ec7ceff94","system_id":"levelo_inurba_marseille","lat":43.28612,"lon":5.37064,"is_reserved":false,"is_disabled":false,"rental_uris":{"android":"levelo://app?vid=d62e846c-dca7-474a-a248-328ec7ceff94","ios":"levelo://app?vid=d62e846c-dca7-474a-a248-328ec7ceff94"},"vehicle_type_id":"4","last_reported":1735571320,"current_range_meters":8000,"station_id":"ce4bht12rcd13ifvqi60","pricing_plan_id":"cebpf4jnsgd1na2vs0mg"},{"bike_id":"68ce89d7-2c49-47a3-af51-4cee0b21d337","system_id":"levelo_inurba_marseille","lat":43.27974,"lon":5.38703,"is_reserved":false,"is_disabled":false,"rental_uris":{"android":"levelo://app?vid=68ce89d7-2c49-47a3-af51-4cee0b21d337","ios":"levelo://app?vid=68ce89d7-2c49-47a3-af51-4cee0b21d337"},"vehicle_type_id":"4","last_reported":1735571320,"current_range_meters":38000,"station_id":"ce4bhg12rcd13ifvqf80","pricing_plan_id":"cebpf4jnsgd1na2vs0mg"},{"bike_id":"294c14cb-577f-4c56-859e-2380db7a357a","system_id":"levelo_inurba_marseille","lat":43.2315,"lon":5.43721,"is_reserved":false,"is_disabled":true,"rental_uris":{"android":"levelo://app?vid=294c14cb-577f-4c56-859e-2380db7a357a","ios":"levelo://app?vid=294c14cb-577f-4c56-859e-2380db7a357a"},"vehicle_type_id":"4","last_reported":1735571320,"current_range_meters":1600,"station_id":"ce4bhmp2rcd13ifvqgog","pricing_plan_id":"cebpf4jnsgd1na2vs0mg"},{"bike_id":"b8b103ac-aa4e-4b4c-a158-eabc0b5053f3","system_id":"levelo_inurba_marseille","lat":43.30081,"lon":5.39084,"is_reserved":false,"is_disabled":false,"rental_uris":{"android":"levelo://app?vid=b8b103ac-aa4e-4b4c-a158-eabc0b5053f3","ios":"levelo://app?vid=b8b103ac-aa4e-4b4c-a158-eabc0b5053f3"},"vehicle_type_id":"4","last_reported":1735571320,"current_range_meters":16800,"station_id":"ce4bh192rcd13ifvqdb0","pricing_plan_id":"cebpf4jnsgd1na2vs0mg"},{"bike_id":"b6559458-8701-4796-97db-d8dbe8701181","system_id":"levelo_inurba_marseille","lat":43.27322,"lon":5.39095,"is_reserved":false,"is_disabled":false,"rental_uris":{"android":"levelo://app?vid=b6559458-8701-4796-97db-d8dbe8701181","ios":"levelo://app?vid=b6559458-8701-4796-97db-d8dbe8701181"},"vehicle_type_id":"4","last_reported":1735571320,"current_range_meters":32400,"station_id":"ce4bhgp2rcd13ifvqfe0","pricing_plan_id":"cebpf4jnsgd1na2vs0mg"},{"bike_id":"13f84696-4405-43e0-b0f5-1a61d67abe32","system_id":"levelo_inurba_marseille","lat":43.27824,"lon":5.39198,"is_reserved":false,"is_disabled":false,"rental_uris":{"android":"levelo://app?vid=13f84696-4405-43e0-b0f5-1a61d67abe32","ios":"levelo://app?vid=13f84696-4405-43e0-b0f5-1a61d67abe32"},"vehicle_type_id":"4","last_reported":1735571320,"current_range_meters":18800,"station_id":"ce4bhjp2rcd13ifvqga0","pricing_plan_id":"cebpf4jnsgd1na2vs0mg"},{"bike_id":"8e262267-ba42-4e47-b22a-c75714b04500","system_id":"levelo_inurba_marseille","lat":43.24046,"lon":5.37737,"is_reserved":false,"is_disabled":false,"rental_uris":{"android":"levelo://app?vid=8e262267-ba42-4e47-b22a-c75714b04500","ios":"levelo://app?vid=8e262267-ba42-4e47-b22a-c75714b04500"},"vehicle_type_id":"4","last_reported":1735571320,"current_range_meters":39200,"station_id":"ce4bhnp2rcd13ifvqgvg","pricing_plan_id":"cebpf4jnsgd1na2vs0mg"},{"bike_id":"caab34a4-5264-4b72-a12f-e55159fe93b6","system_id":"levelo_inurba_marseille","lat":43.27087,"lon":5.42249,"is_reserved":false,"is_disabled":false,"rental_uris":{"android":"levelo://app?vid=caab34a4-5264-4b72-a12f-e55159fe93b6","ios":"levelo://app?vid=caab34a4-5264-4b72-a12f-e55159fe93b6"},"vehicle_type_id":"4","last_reported":1735571320,"current_range_meters":19200,"station_id":"ce4bhk92rcd13ifvqgb0","pricing_plan_id":"cebpf4jnsgd1na2vs0mg"},{"bike_id":"98f4d0cb-a01e-4bad-a969-bf60bdeda674","system_id":"levelo_inurba_marseille","lat":43.255,"lon":5.37653,"is_reserved":false,"is_disabled":false,"rental_uris":{"android":"levelo://app?vid=98f4d0cb-a01e-4bad-a969-bf60bdeda674","ios":"levelo://app?vid=98f4d0cb-a01e-4bad-a969-bf60bdeda674"},"vehicle_type_id":"4","last_reported":1735571320,"current_range_meters":9200,"station_id":"ce4bhh12rcd13ifvqff0","pricing_plan_id":"cebpf4jnsgd1na2vs0mg"},{"bike_id":"346f7fb4-c70b-47e8-9a6d-55c4d3e6f738","system_id":"levelo_inurba_marseille","lat":43.33009,"lon":5.39037,"is_reserved":false,"is_disabled":true,"rental_uris":{"android":"levelo://app?vid=346f7fb4-c70b-47e8-9a6d-55c4d3e6f738","ios":"levelo://app?vid=346f7fb4-c70b-47e8-9a6d-55c4d3e6f738"},"vehicle_type_id":"4","last_reported":1735571320,"current_range_meters":0,"station_id":"ce4bhr92rcd13ifvqhrg","pricing_plan_id":"cebpf4jnsgd1na2vs0mg"},{"bike_id":"b28ff395-c223-42d8-887f-97ffb311c185","system_id":"levelo_inurba_marseille","lat":43.29006,"lon":5.35608,"is_reserved":false,"is_disabled":false,"rental_uris":{"android":"levelo://app?vid=b28ff395-c223-42d8-887f-97ffb311c185","ios":"levelo://app?vid=b28ff395-c223-42d8-887f-97ffb311c185"},"vehicle_type_id":"4","last_reported":1735571320,"current_range_meters":30400,"station_id":"ce4bhb92rcd13ifvqen0","pricing_plan_id":"cebpf4jnsgd1na2vs0mg"},{"bike_id":"10328e97-3b3f-42b6-8efd-3406f4be98f7","system_id":"levelo_inurba_marseille","lat":43.28442,"lon":5.34974,"is_reserved":false,"is_disabled":false,"rental_uris":{"android":"levelo://app?vid=10328e97-3b3f-42b6-8efd-3406f4be98f7","ios":"levelo://app?vid=10328e97-3b3f-42b6-8efd-3406f4be98f7"},"vehicle_type_id":"4","last_reported":1735571320,"current_range_meters":35200,"station_id":"ce4bhbh2rcd13ifvqepg","pricing_plan_id":"cebpf4jnsgd1na2vs0mg"},{"bike_id":"6eba8fb8-a8dc-4c1c-b5b2-8ff97466cc2d","system_id":"levelo_inurba_marseille","lat":43.25091,"lon":5.39524,"is_reserved":false,"is_disabled":false,"rental_uris":{"android":"levelo://app?vid=6eba8fb8-a8dc-4c1c-b5b2-8ff97466cc2d","ios":"levelo://app?vid=6eba8fb8-a8dc-4c1c-b5b2-8ff97466cc2d"},"vehicle_type_id":"4","last_reported":1735571320,"current_range_meters":10800,"station_id":"ce4bhm12rcd13ifvqgkg","pricing_plan_id":"cebpf4jnsgd1na2vs0mg"},{"bike_id":"8007bc26-8121-4e30-a618-616dd82763f2","system_id":"levelo_inurba_marseille","lat":43.23176,"lon":5.3999,"is_reserved":false,"is_disabled":false,"rental_uris":{"android":"levelo://app?vid=8007bc26-8121-4e30-a618-616dd82763f2","ios":"levelo://app?vid=8007bc26-8121-4e30-a618-616dd82763f2"},"vehicle_type_id":"4","last_reported":1735571320,"current_range_meters":35600,"station_id":"ce4bhn12rcd13ifvqgqg","pricing_plan_id":"cebpf4jnsgd1na2vs0mg"},{"bike_id":"d225e49f-de10-470b-90af-648b3c15cce7","system_id":"levelo_inurba_marseille","lat":43.25732,"lon":5.41103,"is_reserved":false,"is_disabled":false,"rental_uris":{"android":"levelo://app?vid=d225e49f-de10-470b-90af-648b3c15cce7","ios":"levelo://app?vid=d225e49f-de10-470b-90af-648b3c15cce7"},"vehicle_type_id":"4","last_reported":1735571320,"current_range_meters":38800,"station_id":"ce4bhkp2rcd13ifvqgd0","pricing_plan_id":"cebpf4jnsgd1na2vs0mg"},{"bike_id":"2c198671-3cdd-418b-8148-099476002f83","system_id":"levelo_inurba_marseille","lat":43.30543,"lon":5.36532,"is_reserved":false,"is_disabled":true,"rental_uris":{"android":"levelo://app?vid=2c198671-3cdd-418b-8148-099476002f83","ios":"levelo://app?vid=2c198671-3cdd-418b-8148-099476002f83"},"vehicle_type_id":"4","last_reported":1735571320,"current_range_meters":1200,"station_id":"ce4bgs12rcd13ifvqcag","pricing_plan_id":"cebpf4jnsgd1na2vs0mg"},{"bike_id":"8499c959-998d-4486-a511-9d65f0b01fae","system_id":"levelo_inurba_marseille","lat":43.257227,"lon":5.411195,"is_reserved":false,"is_disabled":false,"rental_uris":{"android":"levelo://app?vid=8499c959-998d-4486-a511-9d65f0b01fae","ios":"levelo://app?vid=8499c959-998d-4486-a511-9d65f0b01fae"},"vehicle_type_id":"4","last_reported":1735571320,"current_range_meters":30800,"station_id":"ce4bhkp2rcd13ifvqgd0","pricing_plan_id":"cebpf4jnsgd1na2vs0mg"},{"bike_id":"14c526e1-5037-4934-8226-6240aab7d63f","system_id":"levelo_inurba_marseille","lat":43.27494,"lon":5.42459,"is_reserved":false,"is_disabled":true,"rental_uris":{"android":"levelo://app?vid=14c526e1-5037-4934-8226-6240aab7d63f","ios":"levelo://app?vid=14c526e1-5037-4934-8226-6240aab7d63f"},"vehicle_type_id":"4","last_reported":1735571320,"current_range_meters":1600,"station_id":"ce4bhn92rcd13ifvqgrg","pricing_plan_id":"cebpf4jnsgd1na2vs0mg"},{"bike_id":"c754264e-2257-42b1-89f9-0bf9a740ba42","system_id":"levelo_inurba_marseille","lat":43.27568,"lon":5.38432,"is_reserved":false,"is_disabled":false,"rental_uris":{"android":"levelo://app?vid=c754264e-2257-42b1-89f9-0bf9a740ba42","ios":"levelo://app?vid=c754264e-2257-42b1-89f9-0bf9a740ba42"},"vehicle_type_id":"4","last_reported":1735571320,"current_range_meters":35200,"station_id":"ce4bhh92rcd13ifvqfi0","pricing_plan_id":"cebpf4jnsgd1na2vs0mg"},{"bike_id":"789a4ff9-d968-4f31-af36-a724bc6aea71","system_id":"levelo_inurba_marseille","lat":43.27833,"lon":5.39219,"is_reserved":false,"is_disabled":false,"rental_uris":{"android":"levelo://app?vid=789a4ff9-d968-4f31-af36-a724bc6aea71","ios":"levelo://app?vid=789a4ff9-d968-4f31-af36-a724bc6aea71"},"vehicle_type_id":"4","last_reported":1735571320,"current_range_meters":28400,"station_id":"ce4bhjp2rcd13ifvqga0","pricing_plan_id":"cebpf4jnsgd1na2vs0mg"},{"bike_id":"edaeb765-1f3a-4ef6-bc06-b7260ec353b4","system_id":"levelo_inurba_marseille","lat":43.30153,"lon":5.38097,"is_reserved":false,"is_disabled":false,"rental_uris":{"android":"levelo://app?vid=edaeb765-1f3a-4ef6-bc06-b7260ec353b4","ios":"levelo://app?vid=edaeb765-1f3a-4ef6-bc06-b7260ec353b4"},"vehicle_type_id":"4","last_reported":1735571320,"current_range_meters":30800,"station_id":"ce4bgjp2rcd13ifvqbh0","pricing_plan_id":"cebpf4jnsgd1na2vs0mg"},{"bike_id":"6b2dad46-8813-495f-bd0a-1ec44832666e","system_id":"levelo_inurba_marseille","lat":43.23195,"lon":5.35556,"is_reserved":false,"is_disabled":false,"rental_uris":{"android":"levelo://app?vid=6b2dad46-8813-495f-bd0a-1ec44832666e","ios":"levelo://app?vid=6b2dad46-8813-495f-bd0a-1ec44832666e"},"vehicle_type_id":"4","last_reported":1735571320,"current_range_meters":15200,"station_id":"ce4bhu92rcd13ifvqi70","pricing_plan_id":"cebpf4jnsgd1na2vs0mg"},{"bike_id":"dc36945f-1d52-4e2a-a26a-3610fb458e14","system_id":"levelo_inurba_marseille","lat":43.28488,"lon":5.38402,"is_reserved":false,"is_disabled":false,"rental_uris":{"android":"levelo://app?vid=dc36945f-1d52-4e2a-a26a-3610fb458e14","ios":"levelo://app?vid=dc36945f-1d52-4e2a-a26a-3610fb458e14"},"vehicle_type_id":"4","last_reported":1735571320,"current_range_meters":38000,"station_id":"ce4bh512rcd13ifvqe3g","pricing_plan_id":"cebpf4jnsgd1na2vs0mg"},{"bike_id":"9450ce1b-d2ba-417f-919e-b2631ccc4ee8","system_id":"levelo_inurba_marseille","lat":43.29385,"lon":5.37857,"is_reserved":false,"is_disabled":false,"rental_uris":{"android":"levelo://app?vid=9450ce1b-d2ba-417f-919e-b2631ccc4ee8","ios":"levelo://app?vid=9450ce1b-d2ba-417f-919e-b2631ccc4ee8"},"vehicle_type_id":"4","last_reported":1735571320,"current_range_meters":24000,"station_id":"ce4bgjh2rcd13ifvqbf0","pricing_plan_id":"cebpf4jnsgd1na2vs0mg"},{"bike_id":"b577f04f-9b10-4090-99ac-8f444e70b3e5","system_id":"levelo_inurba_marseille","lat":43.27488,"lon":5.42461,"is_reserved":false,"is_disabled":false,"rental_uris":{"android":"levelo://app?vid=b577f04f-9b10-4090-99ac-8f444e70b3e5","ios":"levelo://app?vid=b577f04f-9b10-4090-99ac-8f444e70b3e5"},"vehicle_type_id":"4","last_reported":1735571320,"current_range_meters":24800,"station_id":"ce4bhn92rcd13ifvqgrg","pricing_plan_id":"cebpf4jnsgd1na2vs0mg"},{"bike_id":"022ee8df-8b7d-461c-b1b8-61bc2a2ca8ef","system_id":"levelo_inurba_marseille","lat":43.30906,"lon":5.36858,"is_reserved":false,"is_disabled":false,"rental_uris":{"android":"levelo://app?vid=022ee8df-8b7d-461c-b1b8-61bc2a2ca8ef","ios":"levelo://app?vid=022ee8df-8b7d-461c-b1b8-61bc2a2ca8ef"},"vehicle_type_id":"4","last_reported":1735571320,"current_range_meters":38400,"station_id":"ce4bgn92rcd13ifvqbvg","pricing_plan_id":"cebpf4jnsgd1na2vs0mg"},{"bike_id":"f63252ed-95f9-4fd6-84ba-1ebec5a99145","system_id":"levelo_inurba_marseille","lat":43.29296,"lon":5.3747,"is_reserved":false,"is_disabled":false,"rental_uris":{"android":"levelo://app?vid=f63252ed-95f9-4fd6-84ba-1ebec5a99145","ios":"levelo://app?vid=f63252ed-95f9-4fd6-84ba-1ebec5a99145"},"vehicle_type_id":"4","last_reported":1735571320,"current_range_meters":38800,"station_id":"ce4bgi12rcd13ifvqb70","pricing_plan_id":"cebpf4jnsgd1na2vs0mg"},{"bike_id":"788d2b5d-ef4f-4a4a-aa23-7be97f98a46c","system_id":"levelo_inurba_marseille","lat":43.26934,"lon":5.38928,"is_reserved":false,"is_disabled":false,"rental_uris":{"android":"levelo://app?vid=788d2b5d-ef4f-4a4a-aa23-7be97f98a46c","ios":"levelo://app?vid=788d2b5d-ef4f-4a4a-aa23-7be97f98a46c"},"vehicle_type_id":"4","last_reported":1735571320,"current_range_meters":9200,"station_id":"ce4bhhh2rcd13ifvqfl0","pricing_plan_id":"cebpf4jnsgd1na2vs0mg"},{"bike_id":"5897f7d8-d786-47c8-96a0-2c453bad544c","system_id":"levelo_inurba_marseille","lat":43.28103,"lon":5.37852,"is_reserved":false,"is_disabled":false,"rental_uris":{"android":"levelo://app?vid=5897f7d8-d786-47c8-96a0-2c453bad544c","ios":"levelo://app?vid=5897f7d8-d786-47c8-96a0-2c453bad544c"},"vehicle_type_id":"4","last_reported":1735571320,"current_range_meters":26800,"station_id":"ce4bha12rcd13ifvqee0","pricing_plan_id":"cebpf4jnsgd1na2vs0mg"},{"bike_id":"e72c6d65-0b04-411e-bf0f-f72d15cad0d7","system_id":"levelo_inurba_marseille","lat":43.33724,"lon":5.39191,"is_reserved":false,"is_disabled":false,"rental_uris":{"android":"levelo://app?vid=e72c6d65-0b04-411e-bf0f-f72d15cad0d7","ios":"levelo://app?vid=e72c6d65-0b04-411e-bf0f-f72d15cad0d7"},"vehicle_type_id":"4","last_reported":1735571320,"current_range_meters":38800,"station_id":"ce4bhr92rcd13ifvqhsg","pricing_plan_id":"cebpf4jnsgd1na2vs0mg"},{"bike_id":"bb026ccd-d3aa-4c00-a992-d9f20432a24e","system_id":"levelo_inurba_marseille","lat":43.27685,"lon":5.38922,"is_reserved":false,"is_disabled":false,"rental_uris":{"android":"levelo://app?vid=bb026ccd-d3aa-4c00-a992-d9f20432a24e","ios":"levelo://app?vid=bb026ccd-d3aa-4c00-a992-d9f20432a24e"},"vehicle_type_id":"4","last_reported":1735571320,"current_range_meters":35200,"station_id":"ce4bhi12rcd13ifvqfo0","pricing_plan_id":"cebpf4jnsgd1na2vs0mg"},{"bike_id":"4c84d993-6af3-45a4-94d1-1d28eeb840c0","system_id":"levelo_inurba_marseille","lat":43.25492,"lon":5.37649,"is_reserved":false,"is_disabled":false,"rental_uris":{"android":"levelo://app?vid=4c84d993-6af3-45a4-94d1-1d28eeb840c0","ios":"levelo://app?vid=4c84d993-6af3-45a4-94d1-1d28eeb840c0"},"vehicle_type_id":"4","last_reported":1735571320,"current_range_meters":38000,"station_id":"ce4bhh12rcd13ifvqff0","pricing_plan_id":"cebpf4jnsgd1na2vs0mg"},{"bike_id":"51e96054-9df1-4d5f-8f38-d21429534890","system_id":"levelo_inurba_marseille","lat":43.28617,"lon":5.35105,"is_reserved":false,"is_disabled":false,"rental_uris":{"android":"levelo://app?vid=51e96054-9df1-4d5f-8f38-d21429534890","ios":"levelo://app?vid=51e96054-9df1-4d5f-8f38-d21429534890"},"vehicle_type_id":"4","last_reported":1735571320,"current_range_meters":36800,"station_id":"ce4bhch2rcd13ifvqeug","pricing_plan_id":"cebpf4jnsgd1na2vs0mg"},{"bike_id":"2fdeab75-c3c7-44e1-8744-5eb7e97729bb","system_id":"levelo_inurba_marseille","lat":43.32099,"lon":5.36796,"is_reserved":false,"is_disabled":false,"rental_uris":{"android":"levelo://app?vid=2fdeab75-c3c7-44e1-8744-5eb7e97729bb","ios":"levelo://app?vid=2fdeab75-c3c7-44e1-8744-5eb7e97729bb"},"vehicle_type_id":"4","last_reported":1735571320,"current_range_meters":36800,"station_id":"ce4bhrh2rcd13ifvqhug","pricing_plan_id":"cebpf4jnsgd1na2vs0mg"},{"bike_id":"931b1634-ff1b-468a-b5c6-459a7a66dd49","system_id":"levelo_inurba_marseille","lat":43.29035,"lon":5.38693,"is_reserved":false,"is_disabled":true,"rental_uris":{"android":"levelo://app?vid=931b1634-ff1b-468a-b5c6-459a7a66dd49","ios":"levelo://app?vid=931b1634-ff1b-468a-b5c6-459a7a66dd49"},"vehicle_type_id":"4","last_reported":1735571320,"current_range_meters":34000,"station_id":"ce4bh4p2rcd13ifvqe0g","pricing_plan_id":"cebpf4jnsgd1na2vs0mg"},{"bike_id":"40d33d5a-b0d6-4ca7-b92a-5a5e00a2e584","system_id":"levelo_inurba_marseille","lat":43.2732,"lon":5.39125,"is_reserved":false,"is_disabled":false,"rental_uris":{"android":"levelo://app?vid=40d33d5a-b0d6-4ca7-b92a-5a5e00a2e584","ios":"levelo://app?vid=40d33d5a-b0d6-4ca7-b92a-5a5e00a2e584"},"vehicle_type_id":"4","last_reported":1735571320,"current_range_meters":38800,"station_id":"ce4bhgp2rcd13ifvqfe0","pricing_plan_id":"cebpf4jnsgd1na2vs0mg"},{"bike_id":"6182e5fb-ff5d-457f-a251-8271ee797dae","system_id":"levelo_inurba_marseille","lat":43.27047,"lon":5.40271,"is_reserved":false,"is_disabled":false,"rental_uris":{"android":"levelo://app?vid=6182e5fb-ff5d-457f-a251-8271ee797dae","ios":"levelo://app?vid=6182e5fb-ff5d-457f-a251-8271ee797dae"},"vehicle_type_id":"4","last_reported":1735571320,"current_range_meters":28000,"station_id":"ce4bhk92rcd13ifvqgc0","pricing_plan_id":"cebpf4jnsgd1na2vs0mg"},{"bike_id":"57103b12-06fc-494b-9a1a-1903f8f245d5","system_id":"levelo_inurba_marseille","lat":43.27984,"lon":5.41665,"is_reserved":false,"is_disabled":false,"rental_uris":{"android":"levelo://app?vid=57103b12-06fc-494b-9a1a-1903f8f245d5","ios":"levelo://app?vid=57103b12-06fc-494b-9a1a-1903f8f245d5"},"vehicle_type_id":"4","last_reported":1735571320,"current_range_meters":11600,"station_id":"ce4bho12rcd13ifvqh1g","pricing_plan_id":"cebpf4jnsgd1na2vs0mg"},{"bike_id":"c93a8900-340a-4a6d-ac3e-8882057837af","system_id":"levelo_inurba_marseille","lat":43.27382,"lon":5.36261,"is_reserved":false,"is_disabled":false,"rental_uris":{"android":"levelo://app?vid=c93a8900-340a-4a6d-ac3e-8882057837af","ios":"levelo://app?vid=c93a8900-340a-4a6d-ac3e-8882057837af"},"vehicle_type_id":"4","last_reported":1735571320,"current_range_meters":31200,"station_id":"ce4bhbh2rcd13ifvqeo0","pricing_plan_id":"cebpf4jnsgd1na2vs0mg"},{"bike_id":"d9d97985-8792-47a3-ab8c-09980f6a9900","system_id":"levelo_inurba_marseille","lat":43.29517,"lon":5.37489,"is_reserved":false,"is_disabled":false,"rental_uris":{"android":"levelo://app?vid=d9d97985-8792-47a3-ab8c-09980f6a9900","ios":"levelo://app?vid=d9d97985-8792-47a3-ab8c-09980f6a9900"},"vehicle_type_id":"4","last_reported":1735571320,"current_range_meters":37600,"station_id":"ce4bgkp2rcd13ifvqbmg","pricing_plan_id":"cebpf4jnsgd1na2vs0mg"},{"bike_id":"dad825e9-c481-4ecb-8e5a-ab3402dc32ab","system_id":"levelo_inurba_marseille","lat":43.30128,"lon":5.37426,"is_reserved":false,"is_disabled":false,"rental_uris":{"android":"levelo://app?vid=dad825e9-c481-4ecb-8e5a-ab3402dc32ab","ios":"levelo://app?vid=dad825e9-c481-4ecb-8e5a-ab3402dc32ab"},"vehicle_type_id":"4","last_reported":1735571320,"current_range_meters":24000,"station_id":"ce4bgs92rcd13ifvqcc0","pricing_plan_id":"cebpf4jnsgd1na2vs0mg"},{"bike_id":"f28e6d09-442d-4bb2-8a2f-bd99283481c1","system_id":"levelo_inurba_marseille","lat":43.30208,"lon":5.36622,"is_reserved":false,"is_disabled":false,"rental_uris":{"android":"levelo://app?vid=f28e6d09-442d-4bb2-8a2f-bd99283481c1","ios":"levelo://app?vid=f28e6d09-442d-4bb2-8a2f-bd99283481c1"},"vehicle_type_id":"4","last_reported":1735571320,"current_range_meters":35200,"station_id":"ce4bgrh2rcd13ifvqc8g","pricing_plan_id":"cebpf4jnsgd1na2vs0mg"},{"bike_id":"71294a94-f224-4d6e-851b-a606b5ce1b30","system_id":"levelo_inurba_marseille","lat":43.291961,"lon":5.358112,"is_reserved":false,"is_disabled":false,"rental_uris":{"android":"levelo://app?vid=71294a94-f224-4d6e-851b-a606b5ce1b30","ios":"levelo://app?vid=71294a94-f224-4d6e-851b-a606b5ce1b30"},"vehicle_type_id":"4","last_reported":1735571320,"current_range_meters":14400,"station_id":"ce4bhb12rcd13ifvqel0","pricing_plan_id":"cebpf4jnsgd1na2vs0mg"},{"bike_id":"c8c7da2f-8c1e-42c0-8bab-047558bbc6dc","system_id":"levelo_inurba_marseille","lat":43.337444,"lon":5.374475,"is_reserved":false,"is_disabled":false,"rental_uris":{"android":"levelo://app?vid=c8c7da2f-8c1e-42c0-8bab-047558bbc6dc","ios":"levelo://app?vid=c8c7da2f-8c1e-42c0-8bab-047558bbc6dc"},"vehicle_type_id":"4","last_reported":1735571320,"current_range_meters":22800,"station_id":"","pricing_plan_id":"cebpf4jnsgd1na2vs0mg"},{"bike_id":"14c11fb9-caa0-4e31-80e1-6eab38509593","system_id":"levelo_inurba_marseille","lat":43.26187,"lon":5.37868,"is_reserved":false,"is_disabled":false,"rental_uris":{"android":"levelo://app?vid=14c11fb9-caa0-4e31-80e1-6eab38509593","ios":"levelo://app?vid=14c11fb9-caa0-4e31-80e1-6eab38509593"},"vehicle_type_id":"4","last_reported":1735571320,"current_range_meters":38800,"station_id":"ce4bhjp2rcd13ifvqg90","pricing_plan_id":"cebpf4jnsgd1na2vs0mg"},{"bike_id":"482b0b80-c53d-4d05-aa82-218b22575b6c","system_id":"levelo_inurba_marseille","lat":43.231466,"lon":5.437024,"is_reserved":false,"is_disabled":true,"rental_uris":{"android":"levelo://app?vid=482b0b80-c53d-4d05-aa82-218b22575b6c","ios":"levelo://app?vid=482b0b80-c53d-4d05-aa82-218b22575b6c"},"vehicle_type_id":"4","last_reported":1735571320,"current_range_meters":34000,"station_id":"ce4bhmp2rcd13ifvqgog","pricing_plan_id":"cebpf4jnsgd1na2vs0mg"},{"bike_id":"9a716e5d-f84a-4446-8deb-b518e6295159","system_id":"levelo_inurba_marseille","lat":43.337444,"lon":5.374475,"is_reserved":false,"is_disabled":false,"rental_uris":{"android":"levelo://app?vid=9a716e5d-f84a-4446-8deb-b518e6295159","ios":"levelo://app?vid=9a716e5d-f84a-4446-8deb-b518e6295159"},"vehicle_type_id":"4","last_reported":1735571320,"current_range_meters":10000,"station_id":"","pricing_plan_id":"cebpf4jnsgd1na2vs0mg"},{"bike_id":"4cd7d7bc-aeb6-4a0d-b3fa-ee890f67e079","system_id":"levelo_inurba_marseille","lat":43.28615,"lon":5.35107,"is_reserved":false,"is_disabled":false,"rental_uris":{"android":"levelo://app?vid=4cd7d7bc-aeb6-4a0d-b3fa-ee890f67e079","ios":"levelo://app?vid=4cd7d7bc-aeb6-4a0d-b3fa-ee890f67e079"},"vehicle_type_id":"4","last_reported":1735571320,"current_range_meters":32800,"station_id":"ce4bhch2rcd13ifvqeug","pricing_plan_id":"cebpf4jnsgd1na2vs0mg"},{"bike_id":"fca493fc-197d-4af5-b303-37832bceba66","system_id":"levelo_inurba_marseille","lat":43.28978,"lon":5.37837,"is_reserved":false,"is_disabled":false,"rental_uris":{"android":"levelo://app?vid=fca493fc-197d-4af5-b303-37832bceba66","ios":"levelo://app?vid=fca493fc-197d-4af5-b303-37832bceba66"},"vehicle_type_id":"4","last_reported":1735571320,"current_range_meters":38800,"station_id":"ce4bh9p2rcd13ifvqed0","pricing_plan_id":"cebpf4jnsgd1na2vs0mg"},{"bike_id":"930f7ce6-e931-48ed-acea-dde57f1887ce","system_id":"levelo_inurba_marseille","lat":43.32094,"lon":5.36779,"is_reserved":false,"is_disabled":false,"rental_uris":{"android":"levelo://app?vid=930f7ce6-e931-48ed-acea-dde57f1887ce","ios":"levelo://app?vid=930f7ce6-e931-48ed-acea-dde57f1887ce"},"vehicle_type_id":"4","last_reported":1735571320,"current_range_meters":38000,"station_id":"ce4bhrh2rcd13ifvqhug","pricing_plan_id":"cebpf4jnsgd1na2vs0mg"},{"bike_id":"5d2018aa-7074-4fb0-bd19-46c785b0343c","system_id":"levelo_inurba_marseille","lat":43.27948,"lon":5.41047,"is_reserved":false,"is_disabled":false,"rental_uris":{"android":"levelo://app?vid=5d2018aa-7074-4fb0-bd19-46c785b0343c","ios":"levelo://app?vid=5d2018aa-7074-4fb0-bd19-46c785b0343c"},"vehicle_type_id":"4","last_reported":1735571320,"current_range_meters":6400,"station_id":"ce4bhnp2rcd13ifvqh0g","pricing_plan_id":"cebpf4jnsgd1na2vs0mg"},{"bike_id":"76dadd26-1e7a-4aca-94be-756c689cde05","system_id":"levelo_inurba_marseille","lat":43.337444,"lon":5.374475,"is_reserved":false,"is_disabled":false,"rental_uris":{"android":"levelo://app?vid=76dadd26-1e7a-4aca-94be-756c689cde05","ios":"levelo://app?vid=76dadd26-1e7a-4aca-94be-756c689cde05"},"vehicle_type_id":"4","last_reported":1735571320,"current_range_meters":38800,"station_id":"ce4bh492rcd13ifvqdug","pricing_plan_id":"cebpf4jnsgd1na2vs0mg"},{"bike_id":"46c31a0a-be5e-43d4-93a4-4c27ab5b58ca","system_id":"levelo_inurba_marseille","lat":43.29622,"lon":5.37177,"is_reserved":false,"is_disabled":true,"rental_uris":{"android":"levelo://app?vid=46c31a0a-be5e-43d4-93a4-4c27ab5b58ca","ios":"levelo://app?vid=46c31a0a-be5e-43d4-93a4-4c27ab5b58ca"},"vehicle_type_id":"4","last_reported":1735571320,"current_range_meters":1600,"station_id":"ce4bgnh2rcd13ifvqc0g","pricing_plan_id":"cebpf4jnsgd1na2vs0mg"},{"bike_id":"857e731f-9747-4e99-8531-5484607712fb","system_id":"levelo_inurba_marseille","lat":43.2901,"lon":5.35599,"is_reserved":false,"is_disabled":false,"rental_uris":{"android":"levelo://app?vid=857e731f-9747-4e99-8531-5484607712fb","ios":"levelo://app?vid=857e731f-9747-4e99-8531-5484607712fb"},"vehicle_type_id":"4","last_reported":1735571320,"current_range_meters":39200,"station_id":"ce4bhb92rcd13ifvqen0","pricing_plan_id":"cebpf4jnsgd1na2vs0mg"},{"bike_id":"3606dbac-9e8c-4c78-9b2b-559a77cb6f6c","system_id":"levelo_inurba_marseille","lat":43.28447,"lon":5.35904,"is_reserved":false,"is_disabled":false,"rental_uris":{"android":"levelo://app?vid=3606dbac-9e8c-4c78-9b2b-559a77cb6f6c","ios":"levelo://app?vid=3606dbac-9e8c-4c78-9b2b-559a77cb6f6c"},"vehicle_type_id":"4","last_reported":1735571320,"current_range_meters":19200,"station_id":"ce4bhah2rcd13ifvqei0","pricing_plan_id":"cebpf4jnsgd1na2vs0mg"},{"bike_id":"216a1752-6291-4cd2-944a-f00d197e33eb","system_id":"levelo_inurba_marseille","lat":43.28455,"lon":5.35881,"is_reserved":false,"is_disabled":false,"rental_uris":{"android":"levelo://app?vid=216a1752-6291-4cd2-944a-f00d197e33eb","ios":"levelo://app?vid=216a1752-6291-4cd2-944a-f00d197e33eb"},"vehicle_type_id":"4","last_reported":1735571320,"current_range_meters":8400,"station_id":"ce4bhah2rcd13ifvqei0","pricing_plan_id":"cebpf4jnsgd1na2vs0mg"},{"bike_id":"42795d47-d62f-4f29-b59e-6d69fc9e7f52","system_id":"levelo_inurba_marseille","lat":43.3088,"lon":5.371883,"is_reserved":false,"is_disabled":false,"rental_uris":{"android":"levelo://app?vid=42795d47-d62f-4f29-b59e-6d69fc9e7f52","ios":"levelo://app?vid=42795d47-d62f-4f29-b59e-6d69fc9e7f52"},"vehicle_type_id":"4","last_reported":1735571320,"current_range_meters":38000,"station_id":"ce4bguh2rcd13ifvqckg","pricing_plan_id":"cebpf4jnsgd1na2vs0mg"},{"bike_id":"9fa91a67-dbf8-4a99-ab48-bde4b091de84","system_id":"levelo_inurba_marseille","lat":43.28602,"lon":5.37058,"is_reserved":false,"is_disabled":false,"rental_uris":{"android":"levelo://app?vid=9fa91a67-dbf8-4a99-ab48-bde4b091de84","ios":"levelo://app?vid=9fa91a67-dbf8-4a99-ab48-bde4b091de84"},"vehicle_type_id":"4","last_reported":1735571320,"current_range_meters":11600,"station_id":"ce4bht12rcd13ifvqi60","pricing_plan_id":"cebpf4jnsgd1na2vs0mg"},{"bike_id":"db407435-b2b4-4d68-8d1d-4736937f75f4","system_id":"levelo_inurba_marseille","lat":43.27373,"lon":5.36259,"is_reserved":false,"is_disabled":true,"rental_uris":{"android":"levelo://app?vid=db407435-b2b4-4d68-8d1d-4736937f75f4","ios":"levelo://app?vid=db407435-b2b4-4d68-8d1d-4736937f75f4"},"vehicle_type_id":"4","last_reported":1735571320,"current_range_meters":0,"station_id":"ce4bhbh2rcd13ifvqeo0","pricing_plan_id":"cebpf4jnsgd1na2vs0mg"},{"bike_id":"5e5087fa-986b-4eff-bef8-71bf0d8ffc0c","system_id":"levelo_inurba_marseille","lat":43.284798,"lon":5.384154,"is_reserved":false,"is_disabled":false,"rental_uris":{"android":"levelo://app?vid=5e5087fa-986b-4eff-bef8-71bf0d8ffc0c","ios":"levelo://app?vid=5e5087fa-986b-4eff-bef8-71bf0d8ffc0c"},"vehicle_type_id":"4","last_reported":1735571320,"current_range_meters":3600,"station_id":"ce4bh512rcd13ifvqe3g","pricing_plan_id":"cebpf4jnsgd1na2vs0mg"},{"bike_id":"d124b3fa-f3a5-4c6d-bebc-2f7ad1a1004e","system_id":"levelo_inurba_marseille","lat":43.26939,"lon":5.3866,"is_reserved":false,"is_disabled":false,"rental_uris":{"android":"levelo://app?vid=d124b3fa-f3a5-4c6d-bebc-2f7ad1a1004e","ios":"levelo://app?vid=d124b3fa-f3a5-4c6d-bebc-2f7ad1a1004e"},"vehicle_type_id":"4","last_reported":1735571320,"current_range_meters":37600,"station_id":"ce4bhh92rcd13ifvqfh0","pricing_plan_id":"cebpf4jnsgd1na2vs0mg"},{"bike_id":"ec5d0c56-2c7f-428f-a6d9-17d57eccdf90","system_id":"levelo_inurba_marseille","lat":43.23198,"lon":5.35558,"is_reserved":false,"is_disabled":false,"rental_uris":{"android":"levelo://app?vid=ec5d0c56-2c7f-428f-a6d9-17d57eccdf90","ios":"levelo://app?vid=ec5d0c56-2c7f-428f-a6d9-17d57eccdf90"},"vehicle_type_id":"4","last_reported":1735571320,"current_range_meters":38800,"station_id":"ce4bhu92rcd13ifvqi70","pricing_plan_id":"cebpf4jnsgd1na2vs0mg"},{"bike_id":"d062f8ed-af3b-4810-b7fb-e25f0dbd8c07","system_id":"levelo_inurba_marseille","lat":43.29689,"lon":5.35973,"is_reserved":false,"is_disabled":false,"rental_uris":{"android":"levelo://app?vid=d062f8ed-af3b-4810-b7fb-e25f0dbd8c07","ios":"levelo://app?vid=d062f8ed-af3b-4810-b7fb-e25f0dbd8c07"},"vehicle_type_id":"4","last_reported":1735571320,"current_range_meters":14400,"station_id":"","pricing_plan_id":"cebpf4jnsgd1na2vs0mg"},{"bike_id":"d6205c4d-3834-4ed3-974d-2d1144189ec2","system_id":"levelo_inurba_marseille","lat":43.25734,"lon":5.41109,"is_reserved":false,"is_disabled":false,"rental_uris":{"android":"levelo://app?vid=d6205c4d-3834-4ed3-974d-2d1144189ec2","ios":"levelo://app?vid=d6205c4d-3834-4ed3-974d-2d1144189ec2"},"vehicle_type_id":"4","last_reported":1735571320,"current_range_meters":28000,"station_id":"ce4bhkp2rcd13ifvqgd0","pricing_plan_id":"cebpf4jnsgd1na2vs0mg"},{"bike_id":"805b146d-680f-4010-8a1d-979f727ac65c","system_id":"levelo_inurba_marseille","lat":43.31313,"lon":5.3673,"is_reserved":false,"is_disabled":false,"rental_uris":{"android":"levelo://app?vid=805b146d-680f-4010-8a1d-979f727ac65c","ios":"levelo://app?vid=805b146d-680f-4010-8a1d-979f727ac65c"},"vehicle_type_id":"4","last_reported":1735571320,"current_range_meters":24800,"station_id":"ce4bgr92rcd13ifvqc6g","pricing_plan_id":"cebpf4jnsgd1na2vs0mg"},{"bike_id":"2a1b35da-daea-4a1d-a941-20b6a3a8bd98","system_id":"levelo_inurba_marseille","lat":43.29271,"lon":5.36853,"is_reserved":false,"is_disabled":false,"rental_uris":{"android":"levelo://app?vid=2a1b35da-daea-4a1d-a941-20b6a3a8bd98","ios":"levelo://app?vid=2a1b35da-daea-4a1d-a941-20b6a3a8bd98"},"vehicle_type_id":"4","last_reported":1735571320,"current_range_meters":36800,"station_id":"ce4bhbp2rcd13ifvqesg","pricing_plan_id":"cebpf4jnsgd1na2vs0mg"},{"bike_id":"32afc6cc-1544-4f88-ab5c-34496cc35b04","system_id":"levelo_inurba_marseille","lat":43.230611,"lon":5.354921,"is_reserved":false,"is_disabled":false,"rental_uris":{"android":"levelo://app?vid=32afc6cc-1544-4f88-ab5c-34496cc35b04","ios":"levelo://app?vid=32afc6cc-1544-4f88-ab5c-34496cc35b04"},"vehicle_type_id":"4","last_reported":1735571320,"current_range_meters":21600,"station_id":"cpo3342slgdg3j2ifvpg","pricing_plan_id":"cebpf4jnsgd1na2vs0mg"},{"bike_id":"ff27b50e-e127-48ea-a99c-ced35aad3637","system_id":"levelo_inurba_marseille","lat":43.27825,"lon":5.40735,"is_reserved":false,"is_disabled":false,"rental_uris":{"android":"levelo://app?vid=ff27b50e-e127-48ea-a99c-ced35aad3637","ios":"levelo://app?vid=ff27b50e-e127-48ea-a99c-ced35aad3637"},"vehicle_type_id":"4","last_reported":1735571320,"current_range_meters":30400,"station_id":"ce4bhnh2rcd13ifvqgtg","pricing_plan_id":"cebpf4jnsgd1na2vs0mg"},{"bike_id":"909f440c-cb07-4e90-ae06-2fd800ec689a","system_id":"levelo_inurba_marseille","lat":43.28481,"lon":5.38551,"is_reserved":false,"is_disabled":false,"rental_uris":{"android":"levelo://app?vid=909f440c-cb07-4e90-ae06-2fd800ec689a","ios":"levelo://app?vid=909f440c-cb07-4e90-ae06-2fd800ec689a"},"vehicle_type_id":"4","last_reported":1735571320,"current_range_meters":38800,"station_id":"ce4bh8p2rcd13ifvqeb0","pricing_plan_id":"cebpf4jnsgd1na2vs0mg"},{"bike_id":"a06e54df-6d5b-4b69-93b5-c807a4d10984","system_id":"levelo_inurba_marseille","lat":43.29191,"lon":5.35815,"is_reserved":false,"is_disabled":false,"rental_uris":{"android":"levelo://app?vid=a06e54df-6d5b-4b69-93b5-c807a4d10984","ios":"levelo://app?vid=a06e54df-6d5b-4b69-93b5-c807a4d10984"},"vehicle_type_id":"4","last_reported":1735571320,"current_range_meters":10800,"station_id":"ce4bhb12rcd13ifvqel0","pricing_plan_id":"cebpf4jnsgd1na2vs0mg"},{"bike_id":"4e9db863-43fc-4851-af2e-290d3ea7a6e9","system_id":"levelo_inurba_marseille","lat":43.28421,"lon":5.3498,"is_reserved":false,"is_disabled":false,"rental_uris":{"android":"levelo://app?vid=4e9db863-43fc-4851-af2e-290d3ea7a6e9","ios":"levelo://app?vid=4e9db863-43fc-4851-af2e-290d3ea7a6e9"},"vehicle_type_id":"4","last_reported":1735571320,"current_range_meters":38800,"station_id":"ce4bhbh2rcd13ifvqepg","pricing_plan_id":"cebpf4jnsgd1na2vs0mg"},{"bike_id":"002f93d3-effc-472e-a10a-4189e41c5d4e","system_id":"levelo_inurba_marseille","lat":43.27977,"lon":5.3874,"is_reserved":false,"is_disabled":false,"rental_uris":{"android":"levelo://app?vid=002f93d3-effc-472e-a10a-4189e41c5d4e","ios":"levelo://app?vid=002f93d3-effc-472e-a10a-4189e41c5d4e"},"vehicle_type_id":"4","last_reported":1735571320,"current_range_meters":38800,"station_id":"ce4bhg12rcd13ifvqf80","pricing_plan_id":"cebpf4jnsgd1na2vs0mg"},{"bike_id":"c555ca4c-11f1-431d-8a50-f4a1100f526d","system_id":"levelo_inurba_marseille","lat":43.30873,"lon":5.37197,"is_reserved":false,"is_disabled":false,"rental_uris":{"android":"levelo://app?vid=c555ca4c-11f1-431d-8a50-f4a1100f526d","ios":"levelo://app?vid=c555ca4c-11f1-431d-8a50-f4a1100f526d"},"vehicle_type_id":"4","last_reported":1735571320,"current_range_meters":16400,"station_id":"ce4bguh2rcd13ifvqckg","pricing_plan_id":"cebpf4jnsgd1na2vs0mg"},{"bike_id":"fafee940-bb5c-40a2-b27e-b4883261f360","system_id":"levelo_inurba_marseille","lat":43.24171,"lon":5.39738,"is_reserved":false,"is_disabled":false,"rental_uris":{"android":"levelo://app?vid=fafee940-bb5c-40a2-b27e-b4883261f360","ios":"levelo://app?vid=fafee940-bb5c-40a2-b27e-b4883261f360"},"vehicle_type_id":"4","last_reported":1735571320,"current_range_meters":5600,"station_id":"ce4bhn12rcd13ifvqgpg","pricing_plan_id":"cebpf4jnsgd1na2vs0mg"},{"bike_id":"022d826a-d31d-48ef-b07e-f8dd0ceaa746","system_id":"levelo_inurba_marseille","lat":43.25009,"lon":5.38921,"is_reserved":false,"is_disabled":false,"rental_uris":{"android":"levelo://app?vid=022d826a-d31d-48ef-b07e-f8dd0ceaa746","ios":"levelo://app?vid=022d826a-d31d-48ef-b07e-f8dd0ceaa746"},"vehicle_type_id":"4","last_reported":1735571320,"current_range_meters":38800,"station_id":"ce4bhgp2rcd13ifvqfd0","pricing_plan_id":"cebpf4jnsgd1na2vs0mg"},{"bike_id":"adf8a952-f4e1-4a5c-8d42-8e2cfb357f2d","system_id":"levelo_inurba_marseille","lat":43.30446,"lon":5.38897,"is_reserved":false,"is_disabled":false,"rental_uris":{"android":"levelo://app?vid=adf8a952-f4e1-4a5c-8d42-8e2cfb357f2d","ios":"levelo://app?vid=adf8a952-f4e1-4a5c-8d42-8e2cfb357f2d"},"vehicle_type_id":"4","last_reported":1735571320,"current_range_meters":28400,"station_id":"ce4bgk12rcd13ifvqbi0","pricing_plan_id":"cebpf4jnsgd1na2vs0mg"},{"bike_id":"2f90c399-2dae-4be2-b282-04f6c3355909","system_id":"levelo_inurba_marseille","lat":43.312337,"lon":5.36843,"is_reserved":false,"is_disabled":false,"rental_uris":{"android":"levelo://app?vid=2f90c399-2dae-4be2-b282-04f6c3355909","ios":"levelo://app?vid=2f90c399-2dae-4be2-b282-04f6c3355909"},"vehicle_type_id":"4","last_reported":1735571320,"current_range_meters":38800,"station_id":"ce4bgl92rcd13ifvqbq0","pricing_plan_id":"cebpf4jnsgd1na2vs0mg"},{"bike_id":"ef2b8e0d-f459-42fc-b0fa-07fcd6e1bc1a","system_id":"levelo_inurba_marseille","lat":43.273,"lon":5.39136,"is_reserved":false,"is_disabled":false,"rental_uris":{"android":"levelo://app?vid=ef2b8e0d-f459-42fc-b0fa-07fcd6e1bc1a","ios":"levelo://app?vid=ef2b8e0d-f459-42fc-b0fa-07fcd6e1bc1a"},"vehicle_type_id":"4","last_reported":1735571320,"current_range_meters":38800,"station_id":"","pricing_plan_id":"cebpf4jnsgd1na2vs0mg"},{"bike_id":"356fd92d-e963-40e6-b40e-58fc72ac9553","system_id":"levelo_inurba_marseille","lat":43.321,"lon":5.36796,"is_reserved":false,"is_disabled":false,"rental_uris":{"android":"levelo://app?vid=356fd92d-e963-40e6-b40e-58fc72ac9553","ios":"levelo://app?vid=356fd92d-e963-40e6-b40e-58fc72ac9553"},"vehicle_type_id":"4","last_reported":1735571320,"current_range_meters":32800,"station_id":"ce4bhrh2rcd13ifvqhug","pricing_plan_id":"cebpf4jnsgd1na2vs0mg"},{"bike_id":"12b64bf2-4ce1-4146-af5b-eb3b72f8d5ae","system_id":"levelo_inurba_marseille","lat":43.2573,"lon":5.41111,"is_reserved":false,"is_disabled":false,"rental_uris":{"android":"levelo://app?vid=12b64bf2-4ce1-4146-af5b-eb3b72f8d5ae","ios":"levelo://app?vid=12b64bf2-4ce1-4146-af5b-eb3b72f8d5ae"},"vehicle_type_id":"4","last_reported":1735571320,"current_range_meters":38800,"station_id":"ce4bhkp2rcd13ifvqgd0","pricing_plan_id":"cebpf4jnsgd1na2vs0mg"},{"bike_id":"f6c3569e-efa4-4a1c-b75b-94ded8df3e64","system_id":"levelo_inurba_marseille","lat":43.2798,"lon":5.38693,"is_reserved":false,"is_disabled":false,"rental_uris":{"android":"levelo://app?vid=f6c3569e-efa4-4a1c-b75b-94ded8df3e64","ios":"levelo://app?vid=f6c3569e-efa4-4a1c-b75b-94ded8df3e64"},"vehicle_type_id":"4","last_reported":1735571320,"current_range_meters":36800,"station_id":"ce4bhg12rcd13ifvqf80","pricing_plan_id":"cebpf4jnsgd1na2vs0mg"},{"bike_id":"6f2d13c6-6ebc-4e88-b92c-8f9906dcf352","system_id":"levelo_inurba_marseille","lat":43.274979,"lon":5.424505,"is_reserved":false,"is_disabled":false,"rental_uris":{"android":"levelo://app?vid=6f2d13c6-6ebc-4e88-b92c-8f9906dcf352","ios":"levelo://app?vid=6f2d13c6-6ebc-4e88-b92c-8f9906dcf352"},"vehicle_type_id":"4","last_reported":1735571320,"current_range_meters":18000,"station_id":"ce4bhn92rcd13ifvqgrg","pricing_plan_id":"cebpf4jnsgd1na2vs0mg"},{"bike_id":"5b0aed25-3a00-480b-8943-84ac3074319e","system_id":"levelo_inurba_marseille","lat":43.297108,"lon":5.365982,"is_reserved":false,"is_disabled":false,"rental_uris":{"android":"levelo://app?vid=5b0aed25-3a00-480b-8943-84ac3074319e","ios":"levelo://app?vid=5b0aed25-3a00-480b-8943-84ac3074319e"},"vehicle_type_id":"4","last_reported":1735571320,"current_range_meters":38800,"station_id":"ce4bgn12rcd13ifvqbt0","pricing_plan_id":"cebpf4jnsgd1na2vs0mg"},{"bike_id":"f4cfe9a1-fd9a-4208-b607-dd24d92f6f22","system_id":"levelo_inurba_marseille","lat":43.29611,"lon":5.37725,"is_reserved":false,"is_disabled":false,"rental_uris":{"android":"levelo://app?vid=f4cfe9a1-fd9a-4208-b607-dd24d92f6f22","ios":"levelo://app?vid=f4cfe9a1-fd9a-4208-b607-dd24d92f6f22"},"vehicle_type_id":"4","last_reported":1735571320,"current_range_meters":32400,"station_id":"ce4bgi92rcd13ifvqb90","pricing_plan_id":"cebpf4jnsgd1na2vs0mg"},{"bike_id":"7495a795-77c2-47dc-9670-8e9b96226790","system_id":"levelo_inurba_marseille","lat":43.29899,"lon":5.43669,"is_reserved":false,"is_disabled":false,"rental_uris":{"android":"levelo://app?vid=7495a795-77c2-47dc-9670-8e9b96226790","ios":"levelo://app?vid=7495a795-77c2-47dc-9670-8e9b96226790"},"vehicle_type_id":"4","last_reported":1735571320,"current_range_meters":34800,"station_id":"ce4bhpp2rcd13ifvqhfg","pricing_plan_id":"cebpf4jnsgd1na2vs0mg"},{"bike_id":"80a92a9b-3285-426b-91cf-07d379966c6b","system_id":"levelo_inurba_marseille","lat":43.26679,"lon":5.38281,"is_reserved":false,"is_disabled":false,"rental_uris":{"android":"levelo://app?vid=80a92a9b-3285-426b-91cf-07d379966c6b","ios":"levelo://app?vid=80a92a9b-3285-426b-91cf-07d379966c6b"},"vehicle_type_id":"4","last_reported":1735571320,"current_range_meters":36000,"station_id":"ce4bhg92rcd13ifvqf90","pricing_plan_id":"cebpf4jnsgd1na2vs0mg"},{"bike_id":"272e4175-fcb2-4a70-ba33-28c9346e73b7","system_id":"levelo_inurba_marseille","lat":43.27915,"lon":5.3959,"is_reserved":false,"is_disabled":false,"rental_uris":{"android":"levelo://app?vid=272e4175-fcb2-4a70-ba33-28c9346e73b7","ios":"levelo://app?vid=272e4175-fcb2-4a70-ba33-28c9346e73b7"},"vehicle_type_id":"4","last_reported":1735571320,"current_range_meters":38800,"station_id":"ce4bhf92rcd13ifvqf40","pricing_plan_id":"cebpf4jnsgd1na2vs0mg"},{"bike_id":"4d8d507d-8a41-4236-a5fe-aeb67ae1461f","system_id":"levelo_inurba_marseille","lat":43.29367,"lon":5.37843,"is_reserved":false,"is_disabled":false,"rental_uris":{"android":"levelo://app?vid=4d8d507d-8a41-4236-a5fe-aeb67ae1461f","ios":"levelo://app?vid=4d8d507d-8a41-4236-a5fe-aeb67ae1461f"},"vehicle_type_id":"4","last_reported":1735571320,"current_range_meters":26000,"station_id":"ce4bgjh2rcd13ifvqbf0","pricing_plan_id":"cebpf4jnsgd1na2vs0mg"},{"bike_id":"e70ce8bb-674e-436b-ab6d-79ca756c291a","system_id":"levelo_inurba_marseille","lat":43.25728,"lon":5.41112,"is_reserved":false,"is_disabled":false,"rental_uris":{"android":"levelo://app?vid=e70ce8bb-674e-436b-ab6d-79ca756c291a","ios":"levelo://app?vid=e70ce8bb-674e-436b-ab6d-79ca756c291a"},"vehicle_type_id":"4","last_reported":1735571320,"current_range_meters":27200,"station_id":"ce4bhkp2rcd13ifvqgd0","pricing_plan_id":"cebpf4jnsgd1na2vs0mg"},{"bike_id":"877525ce-df8c-43d5-8bc0-6be11a9b392f","system_id":"levelo_inurba_marseille","lat":43.363245,"lon":5.347023,"is_reserved":false,"is_disabled":true,"rental_uris":{"android":"levelo://app?vid=877525ce-df8c-43d5-8bc0-6be11a9b392f","ios":"levelo://app?vid=877525ce-df8c-43d5-8bc0-6be11a9b392f"},"vehicle_type_id":"4","last_reported":1735571320,"current_range_meters":1200,"station_id":"ce4bh2h2rcd13ifvqdh0","pricing_plan_id":"cebpf4jnsgd1na2vs0mg"},{"bike_id":"679b64bb-93c5-49e5-85ca-b34af0193bc4","system_id":"levelo_inurba_marseille","lat":43.27072,"lon":5.42285,"is_reserved":false,"is_disabled":false,"rental_uris":{"android":"levelo://app?vid=679b64bb-93c5-49e5-85ca-b34af0193bc4","ios":"levelo://app?vid=679b64bb-93c5-49e5-85ca-b34af0193bc4"},"vehicle_type_id":"4","last_reported":1735571320,"current_range_meters":23200,"station_id":"ce4bhk92rcd13ifvqgb0","pricing_plan_id":"cebpf4jnsgd1na2vs0mg"},{"bike_id":"35142cb1-da84-4465-a902-1b70f5829b31","system_id":"levelo_inurba_marseille","lat":43.25732,"lon":5.41122,"is_reserved":false,"is_disabled":false,"rental_uris":{"android":"levelo://app?vid=35142cb1-da84-4465-a902-1b70f5829b31","ios":"levelo://app?vid=35142cb1-da84-4465-a902-1b70f5829b31"},"vehicle_type_id":"4","last_reported":1735571320,"current_range_meters":35600,"station_id":"ce4bhkp2rcd13ifvqgd0","pricing_plan_id":"cebpf4jnsgd1na2vs0mg"},{"bike_id":"f5997a88-606e-48c9-933e-041b10894cea","system_id":"levelo_inurba_marseille","lat":43.27067,"lon":5.4228,"is_reserved":false,"is_disabled":false,"rental_uris":{"android":"levelo://app?vid=f5997a88-606e-48c9-933e-041b10894cea","ios":"levelo://app?vid=f5997a88-606e-48c9-933e-041b10894cea"},"vehicle_type_id":"4","last_reported":1735571320,"current_range_meters":28400,"station_id":"ce4bhk92rcd13ifvqgb0","pricing_plan_id":"cebpf4jnsgd1na2vs0mg"},{"bike_id":"fc0b3bf8-65df-44b7-8333-cabe97ef9a6c","system_id":"levelo_inurba_marseille","lat":43.257059,"lon":5.411249,"is_reserved":false,"is_disabled":false,"rental_uris":{"android":"levelo://app?vid=fc0b3bf8-65df-44b7-8333-cabe97ef9a6c","ios":"levelo://app?vid=fc0b3bf8-65df-44b7-8333-cabe97ef9a6c"},"vehicle_type_id":"4","last_reported":1735571320,"current_range_meters":38800,"station_id":"ce4bhkp2rcd13ifvqgd0","pricing_plan_id":"cebpf4jnsgd1na2vs0mg"},{"bike_id":"b38eadd0-3599-4a64-b483-8eb96b611967","system_id":"levelo_inurba_marseille","lat":43.28042,"lon":5.36944,"is_reserved":false,"is_disabled":false,"rental_uris":{"android":"levelo://app?vid=b38eadd0-3599-4a64-b483-8eb96b611967","ios":"levelo://app?vid=b38eadd0-3599-4a64-b483-8eb96b611967"},"vehicle_type_id":"4","last_reported":1735571320,"current_range_meters":38400,"station_id":"ce4bha12rcd13ifvqef0","pricing_plan_id":"cebpf4jnsgd1na2vs0mg"},{"bike_id":"79a9cc94-882c-4645-897a-abb5a5249316","system_id":"levelo_inurba_marseille","lat":43.337444,"lon":5.374475,"is_reserved":false,"is_disabled":false,"rental_uris":{"android":"levelo://app?vid=79a9cc94-882c-4645-897a-abb5a5249316","ios":"levelo://app?vid=79a9cc94-882c-4645-897a-abb5a5249316"},"vehicle_type_id":"4","last_reported":1735571320,"current_range_meters":35200,"station_id":"","pricing_plan_id":"cebpf4jnsgd1na2vs0mg"},{"bike_id":"d7048063-6db5-4aef-9764-7fb60a54168a","system_id":"levelo_inurba_marseille","lat":43.26784,"lon":5.39417,"is_reserved":false,"is_disabled":false,"rental_uris":{"android":"levelo://app?vid=d7048063-6db5-4aef-9764-7fb60a54168a","ios":"levelo://app?vid=d7048063-6db5-4aef-9764-7fb60a54168a"},"vehicle_type_id":"4","last_reported":1735571320,"current_range_meters":31200,"station_id":"ce4bhh12rcd13ifvqfg0","pricing_plan_id":"cebpf4jnsgd1na2vs0mg"},{"bike_id":"2a1ea730-f752-442f-98d3-9508d246b69d","system_id":"levelo_inurba_marseille","lat":43.30536,"lon":5.36557,"is_reserved":false,"is_disabled":false,"rental_uris":{"android":"levelo://app?vid=2a1ea730-f752-442f-98d3-9508d246b69d","ios":"levelo://app?vid=2a1ea730-f752-442f-98d3-9508d246b69d"},"vehicle_type_id":"4","last_reported":1735571320,"current_range_meters":26000,"station_id":"ce4bgs12rcd13ifvqcag","pricing_plan_id":"cebpf4jnsgd1na2vs0mg"},{"bike_id":"0c85ca13-031c-4199-ad79-f9b475e982aa","system_id":"levelo_inurba_marseille","lat":43.28025,"lon":5.36944,"is_reserved":false,"is_disabled":false,"rental_uris":{"android":"levelo://app?vid=0c85ca13-031c-4199-ad79-f9b475e982aa","ios":"levelo://app?vid=0c85ca13-031c-4199-ad79-f9b475e982aa"},"vehicle_type_id":"4","last_reported":1735571320,"current_range_meters":39200,"station_id":"ce4bha12rcd13ifvqef0","pricing_plan_id":"cebpf4jnsgd1na2vs0mg"},{"bike_id":"492caa2d-2646-4091-9a0e-49f65b0b8d11","system_id":"levelo_inurba_marseille","lat":43.29369,"lon":5.37844,"is_reserved":false,"is_disabled":false,"rental_uris":{"android":"levelo://app?vid=492caa2d-2646-4091-9a0e-49f65b0b8d11","ios":"levelo://app?vid=492caa2d-2646-4091-9a0e-49f65b0b8d11"},"vehicle_type_id":"4","last_reported":1735571320,"current_range_meters":14400,"station_id":"ce4bgjh2rcd13ifvqbf0","pricing_plan_id":"cebpf4jnsgd1na2vs0mg"},{"bike_id":"e05b8841-1e37-41ca-a6c3-d911f4b910c9","system_id":"levelo_inurba_marseille","lat":43.27312,"lon":5.39069,"is_reserved":false,"is_disabled":false,"rental_uris":{"android":"levelo://app?vid=e05b8841-1e37-41ca-a6c3-d911f4b910c9","ios":"levelo://app?vid=e05b8841-1e37-41ca-a6c3-d911f4b910c9"},"vehicle_type_id":"4","last_reported":1735571320,"current_range_meters":24800,"station_id":"ce4bhgp2rcd13ifvqfe0","pricing_plan_id":"cebpf4jnsgd1na2vs0mg"},{"bike_id":"3f188f7c-a5c4-44f4-9bc3-999d2a09a56e","system_id":"levelo_inurba_marseille","lat":43.275683,"lon":5.38425,"is_reserved":false,"is_disabled":true,"rental_uris":{"android":"levelo://app?vid=3f188f7c-a5c4-44f4-9bc3-999d2a09a56e","ios":"levelo://app?vid=3f188f7c-a5c4-44f4-9bc3-999d2a09a56e"},"vehicle_type_id":"4","last_reported":1735571320,"current_range_meters":400,"station_id":"ce4bhh92rcd13ifvqfi0","pricing_plan_id":"cebpf4jnsgd1na2vs0mg"},{"bike_id":"e5f3f7a1-a190-4f4e-a157-8c1b98e7d0e5","system_id":"levelo_inurba_marseille","lat":43.30274,"lon":5.37709,"is_reserved":false,"is_disabled":false,"rental_uris":{"android":"levelo://app?vid=e5f3f7a1-a190-4f4e-a157-8c1b98e7d0e5","ios":"levelo://app?vid=e5f3f7a1-a190-4f4e-a157-8c1b98e7d0e5"},"vehicle_type_id":"4","last_reported":1735571320,"current_range_meters":2800,"station_id":"ce4bguh2rcd13ifvqcj0","pricing_plan_id":"cebpf4jnsgd1na2vs0mg"},{"bike_id":"56731e3e-7f36-4713-a4bd-24b5ee5d43d3","system_id":"levelo_inurba_marseille","lat":43.28042,"lon":5.36942,"is_reserved":false,"is_disabled":true,"rental_uris":{"android":"levelo://app?vid=56731e3e-7f36-4713-a4bd-24b5ee5d43d3","ios":"levelo://app?vid=56731e3e-7f36-4713-a4bd-24b5ee5d43d3"},"vehicle_type_id":"4","last_reported":1735571320,"current_range_meters":0,"station_id":"ce4bha12rcd13ifvqef0","pricing_plan_id":"cebpf4jnsgd1na2vs0mg"},{"bike_id":"5737f50c-7647-4928-8c04-d75aea34bf76","system_id":"levelo_inurba_marseille","lat":43.29183,"lon":5.35819,"is_reserved":false,"is_disabled":false,"rental_uris":{"android":"levelo://app?vid=5737f50c-7647-4928-8c04-d75aea34bf76","ios":"levelo://app?vid=5737f50c-7647-4928-8c04-d75aea34bf76"},"vehicle_type_id":"4","last_reported":1735571320,"current_range_meters":34000,"station_id":"ce4bhb12rcd13ifvqel0","pricing_plan_id":"cebpf4jnsgd1na2vs0mg"},{"bike_id":"dd708212-6c95-4591-b555-43b33b8da7f5","system_id":"levelo_inurba_marseille","lat":43.25709,"lon":5.4112,"is_reserved":false,"is_disabled":false,"rental_uris":{"android":"levelo://app?vid=dd708212-6c95-4591-b555-43b33b8da7f5","ios":"levelo://app?vid=dd708212-6c95-4591-b555-43b33b8da7f5"},"vehicle_type_id":"4","last_reported":1735571320,"current_range_meters":33600,"station_id":"ce4bhkp2rcd13ifvqgd0","pricing_plan_id":"cebpf4jnsgd1na2vs0mg"},{"bike_id":"ce870000-0b9d-4b44-bb6a-0c0895f51458","system_id":"levelo_inurba_marseille","lat":43.29879,"lon":5.37461,"is_reserved":false,"is_disabled":false,"rental_uris":{"android":"levelo://app?vid=ce870000-0b9d-4b44-bb6a-0c0895f51458","ios":"levelo://app?vid=ce870000-0b9d-4b44-bb6a-0c0895f51458"},"vehicle_type_id":"4","last_reported":1735571320,"current_range_meters":38800,"station_id":"ce4bgjh2rcd13ifvqbg0","pricing_plan_id":"cebpf4jnsgd1na2vs0mg"},{"bike_id":"299d264c-fd0b-4c1d-83d6-4d6e8aa30546","system_id":"levelo_inurba_marseille","lat":43.29551,"lon":5.42267,"is_reserved":false,"is_disabled":false,"rental_uris":{"android":"levelo://app?vid=299d264c-fd0b-4c1d-83d6-4d6e8aa30546","ios":"levelo://app?vid=299d264c-fd0b-4c1d-83d6-4d6e8aa30546"},"vehicle_type_id":"4","last_reported":1735571320,"current_range_meters":13600,"station_id":"ce4bhph2rcd13ifvqhdg","pricing_plan_id":"cebpf4jnsgd1na2vs0mg"},{"bike_id":"5fad7945-6828-4e6c-8f87-6adf43444392","system_id":"levelo_inurba_marseille","lat":43.3176,"lon":5.39015,"is_reserved":false,"is_disabled":false,"rental_uris":{"android":"levelo://app?vid=5fad7945-6828-4e6c-8f87-6adf43444392","ios":"levelo://app?vid=5fad7945-6828-4e6c-8f87-6adf43444392"},"vehicle_type_id":"4","last_reported":1735571320,"current_range_meters":38800,"station_id":"ce4bhqp2rcd13ifvqhng","pricing_plan_id":"cebpf4jnsgd1na2vs0mg"},{"bike_id":"1f417db0-efcc-4a13-ae16-c86ff07213ae","system_id":"levelo_inurba_marseille","lat":43.26489,"lon":5.39573,"is_reserved":false,"is_disabled":false,"rental_uris":{"android":"levelo://app?vid=1f417db0-efcc-4a13-ae16-c86ff07213ae","ios":"levelo://app?vid=1f417db0-efcc-4a13-ae16-c86ff07213ae"},"vehicle_type_id":"4","last_reported":1735571320,"current_range_meters":22400,"station_id":"ce4bhi12rcd13ifvqfq0","pricing_plan_id":"cebpf4jnsgd1na2vs0mg"},{"bike_id":"c1350c95-9889-4044-9cda-33e83a190ee8","system_id":"levelo_inurba_marseille","lat":43.30133,"lon":5.38791,"is_reserved":false,"is_disabled":false,"rental_uris":{"android":"levelo://app?vid=c1350c95-9889-4044-9cda-33e83a190ee8","ios":"levelo://app?vid=c1350c95-9889-4044-9cda-33e83a190ee8"},"vehicle_type_id":"4","last_reported":1735571320,"current_range_meters":16800,"station_id":"ce4bhoh2rcd13ifvqh6g","pricing_plan_id":"cebpf4jnsgd1na2vs0mg"},{"bike_id":"3a624cf6-1e7d-4731-8278-e821209a8530","system_id":"levelo_inurba_marseille","lat":43.24179,"lon":5.39746,"is_reserved":false,"is_disabled":false,"rental_uris":{"android":"levelo://app?vid=3a624cf6-1e7d-4731-8278-e821209a8530","ios":"levelo://app?vid=3a624cf6-1e7d-4731-8278-e821209a8530"},"vehicle_type_id":"4","last_reported":1735571320,"current_range_meters":38800,"station_id":"ce4bhn12rcd13ifvqgpg","pricing_plan_id":"cebpf4jnsgd1na2vs0mg"},{"bike_id":"a2dfaa5b-c1ad-4316-ae45-cf62c09c30b3","system_id":"levelo_inurba_marseille","lat":43.32119,"lon":5.36786,"is_reserved":false,"is_disabled":false,"rental_uris":{"android":"levelo://app?vid=a2dfaa5b-c1ad-4316-ae45-cf62c09c30b3","ios":"levelo://app?vid=a2dfaa5b-c1ad-4316-ae45-cf62c09c30b3"},"vehicle_type_id":"4","last_reported":1735571320,"current_range_meters":12000,"station_id":"ce4bhrh2rcd13ifvqhug","pricing_plan_id":"cebpf4jnsgd1na2vs0mg"},{"bike_id":"5f8ee9c5-4e33-43ee-b8aa-ac908ba0aac5","system_id":"levelo_inurba_marseille","lat":43.27494,"lon":5.42463,"is_reserved":false,"is_disabled":false,"rental_uris":{"android":"levelo://app?vid=5f8ee9c5-4e33-43ee-b8aa-ac908ba0aac5","ios":"levelo://app?vid=5f8ee9c5-4e33-43ee-b8aa-ac908ba0aac5"},"vehicle_type_id":"4","last_reported":1735571320,"current_range_meters":19600,"station_id":"ce4bhn92rcd13ifvqgrg","pricing_plan_id":"cebpf4jnsgd1na2vs0mg"},{"bike_id":"30e35f98-c9a8-42fb-aaae-efbb6dbf6587","system_id":"levelo_inurba_marseille","lat":43.29779,"lon":5.37101,"is_reserved":false,"is_disabled":false,"rental_uris":{"android":"levelo://app?vid=30e35f98-c9a8-42fb-aaae-efbb6dbf6587","ios":"levelo://app?vid=30e35f98-c9a8-42fb-aaae-efbb6dbf6587"},"vehicle_type_id":"4","last_reported":1735571320,"current_range_meters":32800,"station_id":"ce4bgop2rcd13ifvqc1g","pricing_plan_id":"cebpf4jnsgd1na2vs0mg"},{"bike_id":"f84e0a68-bf0a-4ee5-b7ea-154330e0c995","system_id":"levelo_inurba_marseille","lat":43.28615,"lon":5.37066,"is_reserved":false,"is_disabled":false,"rental_uris":{"android":"levelo://app?vid=f84e0a68-bf0a-4ee5-b7ea-154330e0c995","ios":"levelo://app?vid=f84e0a68-bf0a-4ee5-b7ea-154330e0c995"},"vehicle_type_id":"4","last_reported":1735571320,"current_range_meters":15200,"station_id":"ce4bht12rcd13ifvqi60","pricing_plan_id":"cebpf4jnsgd1na2vs0mg"},{"bike_id":"db32cf0d-643f-4166-93d9-c2dd42363683","system_id":"levelo_inurba_marseille","lat":43.30307,"lon":5.36903,"is_reserved":false,"is_disabled":false,"rental_uris":{"android":"levelo://app?vid=db32cf0d-643f-4166-93d9-c2dd42363683","ios":"levelo://app?vid=db32cf0d-643f-4166-93d9-c2dd42363683"},"vehicle_type_id":"4","last_reported":1735571320,"current_range_meters":31200,"station_id":"ce4bgqh2rcd13ifvqc5g","pricing_plan_id":"cebpf4jnsgd1na2vs0mg"},{"bike_id":"8de05a72-a0c9-494c-9d8c-b04847e3ba01","system_id":"levelo_inurba_marseille","lat":43.28156,"lon":5.4264,"is_reserved":false,"is_disabled":false,"rental_uris":{"android":"levelo://app?vid=8de05a72-a0c9-494c-9d8c-b04847e3ba01","ios":"levelo://app?vid=8de05a72-a0c9-494c-9d8c-b04847e3ba01"},"vehicle_type_id":"4","last_reported":1735571320,"current_range_meters":37600,"station_id":"ce4bhnh2rcd13ifvqgug","pricing_plan_id":"cebpf4jnsgd1na2vs0mg"},{"bike_id":"5d22d4f6-c5a9-4ef2-8663-0ea09a357db3","system_id":"levelo_inurba_marseille","lat":43.27208,"lon":5.39184,"is_reserved":false,"is_disabled":false,"rental_uris":{"android":"levelo://app?vid=5d22d4f6-c5a9-4ef2-8663-0ea09a357db3","ios":"levelo://app?vid=5d22d4f6-c5a9-4ef2-8663-0ea09a357db3"},"vehicle_type_id":"4","last_reported":1735571320,"current_range_meters":38800,"station_id":"ce4bhhp2rcd13ifvqfm0","pricing_plan_id":"cebpf4jnsgd1na2vs0mg"},{"bike_id":"1d3ff329-f840-4a21-beb9-bdffc8997bf2","system_id":"levelo_inurba_marseille","lat":43.29707,"lon":5.37706,"is_reserved":false,"is_disabled":false,"rental_uris":{"android":"levelo://app?vid=1d3ff329-f840-4a21-beb9-bdffc8997bf2","ios":"levelo://app?vid=1d3ff329-f840-4a21-beb9-bdffc8997bf2"},"vehicle_type_id":"4","last_reported":1735571320,"current_range_meters":38800,"station_id":"ce4bgkh2rcd13ifvqbl0","pricing_plan_id":"cebpf4jnsgd1na2vs0mg"},{"bike_id":"5367a292-5564-4681-91cd-97babb89fc00","system_id":"levelo_inurba_marseille","lat":43.22912,"lon":5.35392,"is_reserved":false,"is_disabled":false,"rental_uris":{"android":"levelo://app?vid=5367a292-5564-4681-91cd-97babb89fc00","ios":"levelo://app?vid=5367a292-5564-4681-91cd-97babb89fc00"},"vehicle_type_id":"4","last_reported":1735571320,"current_range_meters":32000,"station_id":"cpo3532slgdg3j2ikp40","pricing_plan_id":"cebpf4jnsgd1na2vs0mg"},{"bike_id":"07e0d40e-75ff-42f1-a3ab-cde599342e31","system_id":"levelo_inurba_marseille","lat":43.28467,"lon":5.38419,"is_reserved":false,"is_disabled":false,"rental_uris":{"android":"levelo://app?vid=07e0d40e-75ff-42f1-a3ab-cde599342e31","ios":"levelo://app?vid=07e0d40e-75ff-42f1-a3ab-cde599342e31"},"vehicle_type_id":"4","last_reported":1735571320,"current_range_meters":33600,"station_id":"ce4bh512rcd13ifvqe3g","pricing_plan_id":"cebpf4jnsgd1na2vs0mg"},{"bike_id":"0483d5a5-12c2-4b90-8e6c-47d6d5a4b82c","system_id":"levelo_inurba_marseille","lat":43.25818,"lon":5.39426,"is_reserved":false,"is_disabled":false,"rental_uris":{"android":"levelo://app?vid=0483d5a5-12c2-4b90-8e6c-47d6d5a4b82c","ios":"levelo://app?vid=0483d5a5-12c2-4b90-8e6c-47d6d5a4b82c"},"vehicle_type_id":"4","last_reported":1735571320,"current_range_meters":10800,"station_id":"ce4bhip2rcd13ifvqft0","pricing_plan_id":"cebpf4jnsgd1na2vs0mg"},{"bike_id":"1541baea-e8e6-4e14-ba62-4f643b020a4b","system_id":"levelo_inurba_marseille","lat":43.28272,"lon":5.35065,"is_reserved":false,"is_disabled":false,"rental_uris":{"android":"levelo://app?vid=1541baea-e8e6-4e14-ba62-4f643b020a4b","ios":"levelo://app?vid=1541baea-e8e6-4e14-ba62-4f643b020a4b"},"vehicle_type_id":"4","last_reported":1735571320,"current_range_meters":35200,"station_id":"ce4bhbp2rcd13ifvqerg","pricing_plan_id":"cebpf4jnsgd1na2vs0mg"},{"bike_id":"1cd25ecc-333a-4520-a0e1-5c948af38920","system_id":"levelo_inurba_marseille","lat":43.30322,"lon":5.36895,"is_reserved":false,"is_disabled":false,"rental_uris":{"android":"levelo://app?vid=1cd25ecc-333a-4520-a0e1-5c948af38920","ios":"levelo://app?vid=1cd25ecc-333a-4520-a0e1-5c948af38920"},"vehicle_type_id":"4","last_reported":1735571320,"current_range_meters":8000,"station_id":"ce4bgqh2rcd13ifvqc5g","pricing_plan_id":"cebpf4jnsgd1na2vs0mg"},{"bike_id":"3a9fa8d7-81f6-49fe-a79d-4074b36cd016","system_id":"levelo_inurba_marseille","lat":43.2695,"lon":5.38645,"is_reserved":false,"is_disabled":false,"rental_uris":{"android":"levelo://app?vid=3a9fa8d7-81f6-49fe-a79d-4074b36cd016","ios":"levelo://app?vid=3a9fa8d7-81f6-49fe-a79d-4074b36cd016"},"vehicle_type_id":"4","last_reported":1735571320,"current_range_meters":8400,"station_id":"ce4bhh92rcd13ifvqfh0","pricing_plan_id":"cebpf4jnsgd1na2vs0mg"},{"bike_id":"314cfe14-af0b-41ab-b053-9975e7cb9ae3","system_id":"levelo_inurba_marseille","lat":43.23154,"lon":5.40055,"is_reserved":false,"is_disabled":false,"rental_uris":{"android":"levelo://app?vid=314cfe14-af0b-41ab-b053-9975e7cb9ae3","ios":"levelo://app?vid=314cfe14-af0b-41ab-b053-9975e7cb9ae3"},"vehicle_type_id":"4","last_reported":1735571320,"current_range_meters":7200,"station_id":"ce4bhn12rcd13ifvqgqg","pricing_plan_id":"cebpf4jnsgd1na2vs0mg"},{"bike_id":"94d38955-21a2-4852-a963-0a3cc1374e49","system_id":"levelo_inurba_marseille","lat":43.23192,"lon":5.35546,"is_reserved":false,"is_disabled":false,"rental_uris":{"android":"levelo://app?vid=94d38955-21a2-4852-a963-0a3cc1374e49","ios":"levelo://app?vid=94d38955-21a2-4852-a963-0a3cc1374e49"},"vehicle_type_id":"4","last_reported":1735571320,"current_range_meters":21600,"station_id":"ce4bhu92rcd13ifvqi70","pricing_plan_id":"cebpf4jnsgd1na2vs0mg"},{"bike_id":"4e75906b-945d-46b4-8774-1da27a7dc1d4","system_id":"levelo_inurba_marseille","lat":43.23193,"lon":5.35552,"is_reserved":false,"is_disabled":false,"rental_uris":{"android":"levelo://app?vid=4e75906b-945d-46b4-8774-1da27a7dc1d4","ios":"levelo://app?vid=4e75906b-945d-46b4-8774-1da27a7dc1d4"},"vehicle_type_id":"4","last_reported":1735571320,"current_range_meters":19600,"station_id":"ce4bhu92rcd13ifvqi70","pricing_plan_id":"cebpf4jnsgd1na2vs0mg"},{"bike_id":"7dcccd74-e7f7-4380-a296-b1be121d1df8","system_id":"levelo_inurba_marseille","lat":43.28413,"lon":5.37509,"is_reserved":false,"is_disabled":false,"rental_uris":{"android":"levelo://app?vid=7dcccd74-e7f7-4380-a296-b1be121d1df8","ios":"levelo://app?vid=7dcccd74-e7f7-4380-a296-b1be121d1df8"},"vehicle_type_id":"4","last_reported":1735571320,"current_range_meters":38400,"station_id":"ce4bh412rcd13ifvqds0","pricing_plan_id":"cebpf4jnsgd1na2vs0mg"},{"bike_id":"647d23b8-4e7c-4423-a02a-d60eef618897","system_id":"levelo_inurba_marseille","lat":43.2784,"lon":5.40716,"is_reserved":false,"is_disabled":false,"rental_uris":{"android":"levelo://app?vid=647d23b8-4e7c-4423-a02a-d60eef618897","ios":"levelo://app?vid=647d23b8-4e7c-4423-a02a-d60eef618897"},"vehicle_type_id":"4","last_reported":1735571320,"current_range_meters":26800,"station_id":"ce4bhnh2rcd13ifvqgtg","pricing_plan_id":"cebpf4jnsgd1na2vs0mg"},{"bike_id":"19acab3f-f74d-4e03-bfdf-57c7881e3c78","system_id":"levelo_inurba_marseille","lat":43.31489,"lon":5.37267,"is_reserved":false,"is_disabled":false,"rental_uris":{"android":"levelo://app?vid=19acab3f-f74d-4e03-bfdf-57c7881e3c78","ios":"levelo://app?vid=19acab3f-f74d-4e03-bfdf-57c7881e3c78"},"vehicle_type_id":"4","last_reported":1735571320,"current_range_meters":36000,"station_id":"ce4bgt12rcd13ifvqcd0","pricing_plan_id":"cebpf4jnsgd1na2vs0mg"},{"bike_id":"1282d2e9-150f-4f96-b4a6-739d7d7c2c41","system_id":"levelo_inurba_marseille","lat":43.24812,"lon":5.3746,"is_reserved":false,"is_disabled":false,"rental_uris":{"android":"levelo://app?vid=1282d2e9-150f-4f96-b4a6-739d7d7c2c41","ios":"levelo://app?vid=1282d2e9-150f-4f96-b4a6-739d7d7c2c41"},"vehicle_type_id":"4","last_reported":1735571320,"current_range_meters":25600,"station_id":"ce4bhgh2rcd13ifvqfb0","pricing_plan_id":"cebpf4jnsgd1na2vs0mg"},{"bike_id":"179f7c7e-cf60-4979-b064-1b4336e1db8c","system_id":"levelo_inurba_marseille","lat":43.27818,"lon":5.39221,"is_reserved":false,"is_disabled":false,"rental_uris":{"android":"levelo://app?vid=179f7c7e-cf60-4979-b064-1b4336e1db8c","ios":"levelo://app?vid=179f7c7e-cf60-4979-b064-1b4336e1db8c"},"vehicle_type_id":"4","last_reported":1735571320,"current_range_meters":38800,"station_id":"ce4bhjp2rcd13ifvqga0","pricing_plan_id":"cebpf4jnsgd1na2vs0mg"},{"bike_id":"2e19126c-44cf-40bf-a549-dc01e1a05272","system_id":"levelo_inurba_marseille","lat":43.28409,"lon":5.3752,"is_reserved":false,"is_disabled":false,"rental_uris":{"android":"levelo://app?vid=2e19126c-44cf-40bf-a549-dc01e1a05272","ios":"levelo://app?vid=2e19126c-44cf-40bf-a549-dc01e1a05272"},"vehicle_type_id":"4","last_reported":1735571320,"current_range_meters":10800,"station_id":"ce4bh412rcd13ifvqds0","pricing_plan_id":"cebpf4jnsgd1na2vs0mg"},{"bike_id":"caa372f6-57cd-46be-b1b6-e4b6f7913495","system_id":"levelo_inurba_marseille","lat":43.31236,"lon":5.36769,"is_reserved":false,"is_disabled":false,"rental_uris":{"android":"levelo://app?vid=caa372f6-57cd-46be-b1b6-e4b6f7913495","ios":"levelo://app?vid=caa372f6-57cd-46be-b1b6-e4b6f7913495"},"vehicle_type_id":"4","last_reported":1735571320,"current_range_meters":23200,"station_id":"","pricing_plan_id":"cebpf4jnsgd1na2vs0mg"},{"bike_id":"09b230a8-ba34-4403-94a3-e7d692aa7773","system_id":"levelo_inurba_marseille","lat":43.26683,"lon":5.38272,"is_reserved":false,"is_disabled":false,"rental_uris":{"android":"levelo://app?vid=09b230a8-ba34-4403-94a3-e7d692aa7773","ios":"levelo://app?vid=09b230a8-ba34-4403-94a3-e7d692aa7773"},"vehicle_type_id":"4","last_reported":1735571320,"current_range_meters":36000,"station_id":"ce4bhg92rcd13ifvqf90","pricing_plan_id":"cebpf4jnsgd1na2vs0mg"},{"bike_id":"7f10fdf8-d7c6-46b9-94b4-cd895f175782","system_id":"levelo_inurba_marseille","lat":43.29614,"lon":5.37729,"is_reserved":false,"is_disabled":true,"rental_uris":{"android":"levelo://app?vid=7f10fdf8-d7c6-46b9-94b4-cd895f175782","ios":"levelo://app?vid=7f10fdf8-d7c6-46b9-94b4-cd895f175782"},"vehicle_type_id":"4","last_reported":1735571320,"current_range_meters":17200,"station_id":"ce4bgi92rcd13ifvqb90","pricing_plan_id":"cebpf4jnsgd1na2vs0mg"},{"bike_id":"dac94ecf-3203-4c89-acc0-21c14e979588","system_id":"levelo_inurba_marseille","lat":43.26687,"lon":5.38269,"is_reserved":false,"is_disabled":false,"rental_uris":{"android":"levelo://app?vid=dac94ecf-3203-4c89-acc0-21c14e979588","ios":"levelo://app?vid=dac94ecf-3203-4c89-acc0-21c14e979588"},"vehicle_type_id":"4","last_reported":1735571320,"current_range_meters":21600,"station_id":"ce4bhg92rcd13ifvqf90","pricing_plan_id":"cebpf4jnsgd1na2vs0mg"},{"bike_id":"91bb292a-df5c-4dce-bd7e-6647a12df4cd","system_id":"levelo_inurba_marseille","lat":43.2695,"lon":5.38639,"is_reserved":false,"is_disabled":false,"rental_uris":{"android":"levelo://app?vid=91bb292a-df5c-4dce-bd7e-6647a12df4cd","ios":"levelo://app?vid=91bb292a-df5c-4dce-bd7e-6647a12df4cd"},"vehicle_type_id":"4","last_reported":1735571320,"current_range_meters":38800,"station_id":"ce4bhh92rcd13ifvqfh0","pricing_plan_id":"cebpf4jnsgd1na2vs0mg"},{"bike_id":"dae442df-0334-4a2a-8901-28b38cfe10c7","system_id":"levelo_inurba_marseille","lat":43.23161,"lon":5.43719,"is_reserved":false,"is_disabled":false,"rental_uris":{"android":"levelo://app?vid=dae442df-0334-4a2a-8901-28b38cfe10c7","ios":"levelo://app?vid=dae442df-0334-4a2a-8901-28b38cfe10c7"},"vehicle_type_id":"4","last_reported":1735571320,"current_range_meters":36400,"station_id":"ce4bhmp2rcd13ifvqgog","pricing_plan_id":"cebpf4jnsgd1na2vs0mg"},{"bike_id":"9c42c59a-a990-48ee-91ac-32ebebcaabf5","system_id":"levelo_inurba_marseille","lat":43.27565,"lon":5.38408,"is_reserved":false,"is_disabled":false,"rental_uris":{"android":"levelo://app?vid=9c42c59a-a990-48ee-91ac-32ebebcaabf5","ios":"levelo://app?vid=9c42c59a-a990-48ee-91ac-32ebebcaabf5"},"vehicle_type_id":"4","last_reported":1735571320,"current_range_meters":38800,"station_id":"ce4bhh92rcd13ifvqfi0","pricing_plan_id":"cebpf4jnsgd1na2vs0mg"},{"bike_id":"14348531-e2c5-4669-8e8d-22780e655465","system_id":"levelo_inurba_marseille","lat":43.25807,"lon":5.39434,"is_reserved":false,"is_disabled":false,"rental_uris":{"android":"levelo://app?vid=14348531-e2c5-4669-8e8d-22780e655465","ios":"levelo://app?vid=14348531-e2c5-4669-8e8d-22780e655465"},"vehicle_type_id":"4","last_reported":1735571320,"current_range_meters":25600,"station_id":"ce4bhip2rcd13ifvqft0","pricing_plan_id":"cebpf4jnsgd1na2vs0mg"},{"bike_id":"d03c46bd-d8c1-4904-b26d-3530eab9a1ec","system_id":"levelo_inurba_marseille","lat":43.26056,"lon":5.39403,"is_reserved":false,"is_disabled":false,"rental_uris":{"android":"levelo://app?vid=d03c46bd-d8c1-4904-b26d-3530eab9a1ec","ios":"levelo://app?vid=d03c46bd-d8c1-4904-b26d-3530eab9a1ec"},"vehicle_type_id":"4","last_reported":1735571320,"current_range_meters":22800,"station_id":"ce4bhh92rcd13ifvqfj0","pricing_plan_id":"cebpf4jnsgd1na2vs0mg"},{"bike_id":"b7fd34d2-a34c-4dfc-87aa-9a94f35fd521","system_id":"levelo_inurba_marseille","lat":43.28451,"lon":5.35896,"is_reserved":false,"is_disabled":false,"rental_uris":{"android":"levelo://app?vid=b7fd34d2-a34c-4dfc-87aa-9a94f35fd521","ios":"levelo://app?vid=b7fd34d2-a34c-4dfc-87aa-9a94f35fd521"},"vehicle_type_id":"4","last_reported":1735571320,"current_range_meters":28000,"station_id":"ce4bhah2rcd13ifvqei0","pricing_plan_id":"cebpf4jnsgd1na2vs0mg"},{"bike_id":"689516bd-b1d8-4e6f-ba97-cfe8e8a9db89","system_id":"levelo_inurba_marseille","lat":43.28417,"lon":5.34989,"is_reserved":false,"is_disabled":false,"rental_uris":{"android":"levelo://app?vid=689516bd-b1d8-4e6f-ba97-cfe8e8a9db89","ios":"levelo://app?vid=689516bd-b1d8-4e6f-ba97-cfe8e8a9db89"},"vehicle_type_id":"4","last_reported":1735571320,"current_range_meters":38400,"station_id":"ce4bhbh2rcd13ifvqepg","pricing_plan_id":"cebpf4jnsgd1na2vs0mg"},{"bike_id":"b8e2e3d4-597b-4721-a36a-769f7d940844","system_id":"levelo_inurba_marseille","lat":43.26559,"lon":5.42085,"is_reserved":false,"is_disabled":false,"rental_uris":{"android":"levelo://app?vid=b8e2e3d4-597b-4721-a36a-769f7d940844","ios":"levelo://app?vid=b8e2e3d4-597b-4721-a36a-769f7d940844"},"vehicle_type_id":"4","last_reported":1735571320,"current_range_meters":24800,"station_id":"","pricing_plan_id":"cebpf4jnsgd1na2vs0mg"},{"bike_id":"6a22945e-e075-4290-bcce-e4edb3842cd1","system_id":"levelo_inurba_marseille","lat":43.2922,"lon":5.3637,"is_reserved":false,"is_disabled":false,"rental_uris":{"android":"levelo://app?vid=6a22945e-e075-4290-bcce-e4edb3842cd1","ios":"levelo://app?vid=6a22945e-e075-4290-bcce-e4edb3842cd1"},"vehicle_type_id":"4","last_reported":1735571320,"current_range_meters":12000,"station_id":"ce4bgi12rcd13ifvqb70","pricing_plan_id":"cebpf4jnsgd1na2vs0mg"},{"bike_id":"ddaa2fb9-dbb8-4086-8c94-de0ff251173c","system_id":"levelo_inurba_marseille","lat":43.27836,"lon":5.39213,"is_reserved":false,"is_disabled":false,"rental_uris":{"android":"levelo://app?vid=ddaa2fb9-dbb8-4086-8c94-de0ff251173c","ios":"levelo://app?vid=ddaa2fb9-dbb8-4086-8c94-de0ff251173c"},"vehicle_type_id":"4","last_reported":1735571320,"current_range_meters":38800,"station_id":"ce4bhjp2rcd13ifvqga0","pricing_plan_id":"cebpf4jnsgd1na2vs0mg"},{"bike_id":"5e57eef6-8100-463f-8b9f-a736bec4d03f","system_id":"levelo_inurba_marseille","lat":43.26937,"lon":5.38652,"is_reserved":false,"is_disabled":false,"rental_uris":{"android":"levelo://app?vid=5e57eef6-8100-463f-8b9f-a736bec4d03f","ios":"levelo://app?vid=5e57eef6-8100-463f-8b9f-a736bec4d03f"},"vehicle_type_id":"4","last_reported":1735571320,"current_range_meters":38800,"station_id":"ce4bhh92rcd13ifvqfh0","pricing_plan_id":"cebpf4jnsgd1na2vs0mg"},{"bike_id":"98852a54-fdb3-464b-be68-276a1456ced7","system_id":"levelo_inurba_marseille","lat":43.28465,"lon":5.38422,"is_reserved":false,"is_disabled":false,"rental_uris":{"android":"levelo://app?vid=98852a54-fdb3-464b-be68-276a1456ced7","ios":"levelo://app?vid=98852a54-fdb3-464b-be68-276a1456ced7"},"vehicle_type_id":"4","last_reported":1735571320,"current_range_meters":38000,"station_id":"ce4bh512rcd13ifvqe3g","pricing_plan_id":"cebpf4jnsgd1na2vs0mg"},{"bike_id":"fa5cfd3c-42a3-4753-bfd5-c945524927e0","system_id":"levelo_inurba_marseille","lat":43.29853,"lon":5.36278,"is_reserved":false,"is_disabled":false,"rental_uris":{"android":"levelo://app?vid=fa5cfd3c-42a3-4753-bfd5-c945524927e0","ios":"levelo://app?vid=fa5cfd3c-42a3-4753-bfd5-c945524927e0"},"vehicle_type_id":"4","last_reported":1735571320,"current_range_meters":23200,"station_id":"ce4bgpp2rcd13ifvqc3g","pricing_plan_id":"cebpf4jnsgd1na2vs0mg"},{"bike_id":"5c2def8a-2c65-42c6-ac07-783ced93d820","system_id":"levelo_inurba_marseille","lat":43.30634,"lon":5.37211,"is_reserved":false,"is_disabled":false,"rental_uris":{"android":"levelo://app?vid=5c2def8a-2c65-42c6-ac07-783ced93d820","ios":"levelo://app?vid=5c2def8a-2c65-42c6-ac07-783ced93d820"},"vehicle_type_id":"4","last_reported":1735571320,"current_range_meters":29600,"station_id":"ce4bgqh2rcd13ifvqc4g","pricing_plan_id":"cebpf4jnsgd1na2vs0mg"},{"bike_id":"4ccf6920-84bf-476d-9251-3c32481fde35","system_id":"levelo_inurba_marseille","lat":43.26677,"lon":5.38277,"is_reserved":false,"is_disabled":false,"rental_uris":{"android":"levelo://app?vid=4ccf6920-84bf-476d-9251-3c32481fde35","ios":"levelo://app?vid=4ccf6920-84bf-476d-9251-3c32481fde35"},"vehicle_type_id":"4","last_reported":1735571320,"current_range_meters":18800,"station_id":"ce4bhg92rcd13ifvqf90","pricing_plan_id":"cebpf4jnsgd1na2vs0mg"},{"bike_id":"ad69da91-2121-4f28-803c-5623f1854bee","system_id":"levelo_inurba_marseille","lat":43.28418,"lon":5.38652,"is_reserved":false,"is_disabled":false,"rental_uris":{"android":"levelo://app?vid=ad69da91-2121-4f28-803c-5623f1854bee","ios":"levelo://app?vid=ad69da91-2121-4f28-803c-5623f1854bee"},"vehicle_type_id":"4","last_reported":1735571320,"current_range_meters":38800,"station_id":"","pricing_plan_id":"cebpf4jnsgd1na2vs0mg"},{"bike_id":"fe17c963-ee96-4f5b-8f42-7842d71e406c","system_id":"levelo_inurba_marseille","lat":43.25727,"lon":5.41122,"is_reserved":false,"is_disabled":false,"rental_uris":{"android":"levelo://app?vid=fe17c963-ee96-4f5b-8f42-7842d71e406c","ios":"levelo://app?vid=fe17c963-ee96-4f5b-8f42-7842d71e406c"},"vehicle_type_id":"4","last_reported":1735571320,"current_range_meters":17200,"station_id":"ce4bhkp2rcd13ifvqgd0","pricing_plan_id":"cebpf4jnsgd1na2vs0mg"},{"bike_id":"836a2fdc-5c7f-4eaf-8248-358a78ee4601","system_id":"levelo_inurba_marseille","lat":43.26201,"lon":5.37458,"is_reserved":false,"is_disabled":false,"rental_uris":{"android":"levelo://app?vid=836a2fdc-5c7f-4eaf-8248-358a78ee4601","ios":"levelo://app?vid=836a2fdc-5c7f-4eaf-8248-358a78ee4601"},"vehicle_type_id":"4","last_reported":1735571320,"current_range_meters":24400,"station_id":"ce4bhgp2rcd13ifvqfc0","pricing_plan_id":"cebpf4jnsgd1na2vs0mg"},{"bike_id":"3e09f37a-c256-4c56-93f3-2d3e33869821","system_id":"levelo_inurba_marseille","lat":43.28426,"lon":5.34974,"is_reserved":false,"is_disabled":false,"rental_uris":{"android":"levelo://app?vid=3e09f37a-c256-4c56-93f3-2d3e33869821","ios":"levelo://app?vid=3e09f37a-c256-4c56-93f3-2d3e33869821"},"vehicle_type_id":"4","last_reported":1735571320,"current_range_meters":18000,"station_id":"ce4bhbh2rcd13ifvqepg","pricing_plan_id":"cebpf4jnsgd1na2vs0mg"},{"bike_id":"ff90d9a0-db6e-4528-82df-7d34dfa61d69","system_id":"levelo_inurba_marseille","lat":43.25166,"lon":5.40401,"is_reserved":false,"is_disabled":false,"rental_uris":{"android":"levelo://app?vid=ff90d9a0-db6e-4528-82df-7d34dfa61d69","ios":"levelo://app?vid=ff90d9a0-db6e-4528-82df-7d34dfa61d69"},"vehicle_type_id":"4","last_reported":1735571320,"current_range_meters":37600,"station_id":"ce4bhlh2rcd13ifvqgig","pricing_plan_id":"cebpf4jnsgd1na2vs0mg"},{"bike_id":"be333005-da92-4b93-aac1-b53b7d92ef8e","system_id":"levelo_inurba_marseille","lat":43.25934,"lon":5.40912,"is_reserved":false,"is_disabled":false,"rental_uris":{"android":"levelo://app?vid=be333005-da92-4b93-aac1-b53b7d92ef8e","ios":"levelo://app?vid=be333005-da92-4b93-aac1-b53b7d92ef8e"},"vehicle_type_id":"4","last_reported":1735571320,"current_range_meters":19200,"station_id":"ce4bhm92rcd13ifvqglg","pricing_plan_id":"cebpf4jnsgd1na2vs0mg"},{"bike_id":"b8feb562-9ac0-4974-8ba7-4af547dd85da","system_id":"levelo_inurba_marseille","lat":43.26053,"lon":5.394,"is_reserved":false,"is_disabled":false,"rental_uris":{"android":"levelo://app?vid=b8feb562-9ac0-4974-8ba7-4af547dd85da","ios":"levelo://app?vid=b8feb562-9ac0-4974-8ba7-4af547dd85da"},"vehicle_type_id":"4","last_reported":1735571320,"current_range_meters":38800,"station_id":"ce4bhh92rcd13ifvqfj0","pricing_plan_id":"cebpf4jnsgd1na2vs0mg"},{"bike_id":"46012680-f776-4d27-8d45-4bb31fb9dc2b","system_id":"levelo_inurba_marseille","lat":43.23063,"lon":5.35496,"is_reserved":false,"is_disabled":false,"rental_uris":{"android":"levelo://app?vid=46012680-f776-4d27-8d45-4bb31fb9dc2b","ios":"levelo://app?vid=46012680-f776-4d27-8d45-4bb31fb9dc2b"},"vehicle_type_id":"4","last_reported":1735571320,"current_range_meters":38800,"station_id":"cpo3342slgdg3j2ifvpg","pricing_plan_id":"cebpf4jnsgd1na2vs0mg"},{"bike_id":"53547cc1-a3c3-4cd5-88ff-76668d515032","system_id":"levelo_inurba_marseille","lat":43.29939,"lon":5.36532,"is_reserved":false,"is_disabled":false,"rental_uris":{"android":"levelo://app?vid=53547cc1-a3c3-4cd5-88ff-76668d515032","ios":"levelo://app?vid=53547cc1-a3c3-4cd5-88ff-76668d515032"},"vehicle_type_id":"4","last_reported":1735571320,"current_range_meters":3200,"station_id":"ce4bgi92rcd13ifvqb90","pricing_plan_id":"cebpf4jnsgd1na2vs0mg"},{"bike_id":"abfd25fc-c655-439b-8597-04a124918241","system_id":"levelo_inurba_marseille","lat":43.29789,"lon":5.38121,"is_reserved":false,"is_disabled":true,"rental_uris":{"android":"levelo://app?vid=abfd25fc-c655-439b-8597-04a124918241","ios":"levelo://app?vid=abfd25fc-c655-439b-8597-04a124918241"},"vehicle_type_id":"4","last_reported":1735571320,"current_range_meters":38800,"station_id":"ce4bgip2rcd13ifvqbb0","pricing_plan_id":"cebpf4jnsgd1na2vs0mg"},{"bike_id":"1e87cf0b-10c4-4800-b755-1b1768da1a22","system_id":"levelo_inurba_marseille","lat":43.28001,"lon":5.40023,"is_reserved":false,"is_disabled":false,"rental_uris":{"android":"levelo://app?vid=1e87cf0b-10c4-4800-b755-1b1768da1a22","ios":"levelo://app?vid=1e87cf0b-10c4-4800-b755-1b1768da1a22"},"vehicle_type_id":"4","last_reported":1735571320,"current_range_meters":8800,"station_id":"ce4bho92rcd13ifvqh4g","pricing_plan_id":"cebpf4jnsgd1na2vs0mg"},{"bike_id":"2d3a85f1-722c-4472-b7fd-57f2f6b7115c","system_id":"levelo_inurba_marseille","lat":43.24386,"lon":5.37064,"is_reserved":false,"is_disabled":false,"rental_uris":{"android":"levelo://app?vid=2d3a85f1-722c-4472-b7fd-57f2f6b7115c","ios":"levelo://app?vid=2d3a85f1-722c-4472-b7fd-57f2f6b7115c"},"vehicle_type_id":"4","last_reported":1735571320,"current_range_meters":12800,"station_id":"ce4bhhh2rcd13ifvqfk0","pricing_plan_id":"cebpf4jnsgd1na2vs0mg"},{"bike_id":"9ba46895-ef65-4b7e-95ce-b8ea5f2fc438","system_id":"levelo_inurba_marseille","lat":43.27685,"lon":5.38913,"is_reserved":false,"is_disabled":false,"rental_uris":{"android":"levelo://app?vid=9ba46895-ef65-4b7e-95ce-b8ea5f2fc438","ios":"levelo://app?vid=9ba46895-ef65-4b7e-95ce-b8ea5f2fc438"},"vehicle_type_id":"4","last_reported":1735571320,"current_range_meters":38800,"station_id":"ce4bhi12rcd13ifvqfo0","pricing_plan_id":"cebpf4jnsgd1na2vs0mg"},{"bike_id":"80924a51-84d5-4a88-941f-dcc238b3ab7b","system_id":"levelo_inurba_marseille","lat":43.24157,"lon":5.36407,"is_reserved":false,"is_disabled":false,"rental_uris":{"android":"levelo://app?vid=80924a51-84d5-4a88-941f-dcc238b3ab7b","ios":"levelo://app?vid=80924a51-84d5-4a88-941f-dcc238b3ab7b"},"vehicle_type_id":"4","last_reported":1735571320,"current_range_meters":8400,"station_id":"cpo36qri1sfpv3e86is0","pricing_plan_id":"cebpf4jnsgd1na2vs0mg"},{"bike_id":"11a55778-c715-4063-804d-5deeb5abbf4c","system_id":"levelo_inurba_marseille","lat":43.3171,"lon":5.43703,"is_reserved":false,"is_disabled":false,"rental_uris":{"android":"levelo://app?vid=11a55778-c715-4063-804d-5deeb5abbf4c","ios":"levelo://app?vid=11a55778-c715-4063-804d-5deeb5abbf4c"},"vehicle_type_id":"4","last_reported":1735571320,"current_range_meters":38800,"station_id":"ce4bhp92rcd13ifvqhcg","pricing_plan_id":"cebpf4jnsgd1na2vs0mg"},{"bike_id":"c7a16261-fcab-4d31-9a7c-3b5289d9e38c","system_id":"levelo_inurba_marseille","lat":43.27333,"lon":5.39134,"is_reserved":false,"is_disabled":false,"rental_uris":{"android":"levelo://app?vid=c7a16261-fcab-4d31-9a7c-3b5289d9e38c","ios":"levelo://app?vid=c7a16261-fcab-4d31-9a7c-3b5289d9e38c"},"vehicle_type_id":"4","last_reported":1735571320,"current_range_meters":38800,"station_id":"ce4bhgp2rcd13ifvqfe0","pricing_plan_id":"cebpf4jnsgd1na2vs0mg"},{"bike_id":"d7d31caa-bd08-482e-a9a4-1b0283b7c4b2","system_id":"levelo_inurba_marseille","lat":43.25115,"lon":5.4032,"is_reserved":false,"is_disabled":false,"rental_uris":{"android":"levelo://app?vid=d7d31caa-bd08-482e-a9a4-1b0283b7c4b2","ios":"levelo://app?vid=d7d31caa-bd08-482e-a9a4-1b0283b7c4b2"},"vehicle_type_id":"4","last_reported":1735571320,"current_range_meters":32400,"station_id":"ce4bhlh2rcd13ifvqgig","pricing_plan_id":"cebpf4jnsgd1na2vs0mg"},{"bike_id":"5fa2bc43-7c81-45c6-a7af-9e700d12d05b","system_id":"levelo_inurba_marseille","lat":43.30871,"lon":5.36864,"is_reserved":false,"is_disabled":false,"rental_uris":{"android":"levelo://app?vid=5fa2bc43-7c81-45c6-a7af-9e700d12d05b","ios":"levelo://app?vid=5fa2bc43-7c81-45c6-a7af-9e700d12d05b"},"vehicle_type_id":"4","last_reported":1735571320,"current_range_meters":28000,"station_id":"ce4bgn92rcd13ifvqbvg","pricing_plan_id":"cebpf4jnsgd1na2vs0mg"},{"bike_id":"c4fa8b26-bff7-4443-9f60-4eb78ee47219","system_id":"levelo_inurba_marseille","lat":43.337444,"lon":5.374475,"is_reserved":false,"is_disabled":false,"rental_uris":{"android":"levelo://app?vid=c4fa8b26-bff7-4443-9f60-4eb78ee47219","ios":"levelo://app?vid=c4fa8b26-bff7-4443-9f60-4eb78ee47219"},"vehicle_type_id":"4","last_reported":1735571320,"current_range_meters":27600,"station_id":"","pricing_plan_id":"cebpf4jnsgd1na2vs0mg"},{"bike_id":"faf56cb3-1d9f-4164-acf2-2b22d7c88f2e","system_id":"levelo_inurba_marseille","lat":43.27378,"lon":5.36267,"is_reserved":false,"is_disabled":false,"rental_uris":{"android":"levelo://app?vid=faf56cb3-1d9f-4164-acf2-2b22d7c88f2e","ios":"levelo://app?vid=faf56cb3-1d9f-4164-acf2-2b22d7c88f2e"},"vehicle_type_id":"4","last_reported":1735571320,"current_range_meters":2800,"station_id":"ce4bhbh2rcd13ifvqeo0","pricing_plan_id":"cebpf4jnsgd1na2vs0mg"},{"bike_id":"d82d9388-0ebd-4676-a25a-4c5688b1e993","system_id":"levelo_inurba_marseille","lat":43.29851,"lon":5.36291,"is_reserved":false,"is_disabled":false,"rental_uris":{"android":"levelo://app?vid=d82d9388-0ebd-4676-a25a-4c5688b1e993","ios":"levelo://app?vid=d82d9388-0ebd-4676-a25a-4c5688b1e993"},"vehicle_type_id":"4","last_reported":1735571320,"current_range_meters":27600,"station_id":"ce4bgpp2rcd13ifvqc3g","pricing_plan_id":"cebpf4jnsgd1na2vs0mg"},{"bike_id":"1c58b128-03a8-4698-9740-d547fba3b2fa","system_id":"levelo_inurba_marseille","lat":43.29971,"lon":5.38497,"is_reserved":false,"is_disabled":false,"rental_uris":{"android":"levelo://app?vid=1c58b128-03a8-4698-9740-d547fba3b2fa","ios":"levelo://app?vid=1c58b128-03a8-4698-9740-d547fba3b2fa"},"vehicle_type_id":"4","last_reported":1735571320,"current_range_meters":22400,"station_id":"ce4bgj92rcd13ifvqbd0","pricing_plan_id":"cebpf4jnsgd1na2vs0mg"},{"bike_id":"39532236-d23b-4244-ba6f-5e2bdfb832be","system_id":"levelo_inurba_marseille","lat":43.27954,"lon":5.41026,"is_reserved":false,"is_disabled":false,"rental_uris":{"android":"levelo://app?vid=39532236-d23b-4244-ba6f-5e2bdfb832be","ios":"levelo://app?vid=39532236-d23b-4244-ba6f-5e2bdfb832be"},"vehicle_type_id":"4","last_reported":1735571320,"current_range_meters":28800,"station_id":"ce4bhnp2rcd13ifvqh0g","pricing_plan_id":"cebpf4jnsgd1na2vs0mg"},{"bike_id":"9eb1e9d3-259d-427b-b177-23c534179f97","system_id":"levelo_inurba_marseille","lat":43.28152,"lon":5.42645,"is_reserved":false,"is_disabled":false,"rental_uris":{"android":"levelo://app?vid=9eb1e9d3-259d-427b-b177-23c534179f97","ios":"levelo://app?vid=9eb1e9d3-259d-427b-b177-23c534179f97"},"vehicle_type_id":"4","last_reported":1735571320,"current_range_meters":27200,"station_id":"ce4bhnh2rcd13ifvqgug","pricing_plan_id":"cebpf4jnsgd1na2vs0mg"},{"bike_id":"49b7a4a1-8389-46ba-a75c-88f3015f0a91","system_id":"levelo_inurba_marseille","lat":43.29918,"lon":5.37466,"is_reserved":false,"is_disabled":false,"rental_uris":{"android":"levelo://app?vid=49b7a4a1-8389-46ba-a75c-88f3015f0a91","ios":"levelo://app?vid=49b7a4a1-8389-46ba-a75c-88f3015f0a91"},"vehicle_type_id":"4","last_reported":1735571320,"current_range_meters":38000,"station_id":"ce4bgjh2rcd13ifvqbg0","pricing_plan_id":"cebpf4jnsgd1na2vs0mg"},{"bike_id":"73964e96-b062-49d4-93a6-803ee072593e","system_id":"levelo_inurba_marseille","lat":43.27369,"lon":5.36235,"is_reserved":false,"is_disabled":true,"rental_uris":{"android":"levelo://app?vid=73964e96-b062-49d4-93a6-803ee072593e","ios":"levelo://app?vid=73964e96-b062-49d4-93a6-803ee072593e"},"vehicle_type_id":"4","last_reported":1735571320,"current_range_meters":38800,"station_id":"ce4bhbh2rcd13ifvqeo0","pricing_plan_id":"cebpf4jnsgd1na2vs0mg"},{"bike_id":"96f5a5b9-2ac1-4f14-8379-2520a82b4153","system_id":"levelo_inurba_marseille","lat":43.26061,"lon":5.394,"is_reserved":false,"is_disabled":false,"rental_uris":{"android":"levelo://app?vid=96f5a5b9-2ac1-4f14-8379-2520a82b4153","ios":"levelo://app?vid=96f5a5b9-2ac1-4f14-8379-2520a82b4153"},"vehicle_type_id":"4","last_reported":1735571320,"current_range_meters":37600,"station_id":"ce4bhh92rcd13ifvqfj0","pricing_plan_id":"cebpf4jnsgd1na2vs0mg"},{"bike_id":"712c75c4-3652-4697-927f-3b9b03fea0a3","system_id":"levelo_inurba_marseille","lat":43.29903,"lon":5.37479,"is_reserved":false,"is_disabled":false,"rental_uris":{"android":"levelo://app?vid=712c75c4-3652-4697-927f-3b9b03fea0a3","ios":"levelo://app?vid=712c75c4-3652-4697-927f-3b9b03fea0a3"},"vehicle_type_id":"4","last_reported":1735571320,"current_range_meters":11600,"station_id":"ce4bgjh2rcd13ifvqbg0","pricing_plan_id":"cebpf4jnsgd1na2vs0mg"},{"bike_id":"a2b4dea9-986d-438f-808c-19f049a05e5c","system_id":"levelo_inurba_marseille","lat":43.29863,"lon":5.36282,"is_reserved":false,"is_disabled":false,"rental_uris":{"android":"levelo://app?vid=a2b4dea9-986d-438f-808c-19f049a05e5c","ios":"levelo://app?vid=a2b4dea9-986d-438f-808c-19f049a05e5c"},"vehicle_type_id":"4","last_reported":1735571320,"current_range_meters":38800,"station_id":"ce4bgpp2rcd13ifvqc3g","pricing_plan_id":"cebpf4jnsgd1na2vs0mg"},{"bike_id":"976abf1b-2fd1-4294-ac06-3c1193b2d559","system_id":"levelo_inurba_marseille","lat":43.23192,"lon":5.35572,"is_reserved":false,"is_disabled":false,"rental_uris":{"android":"levelo://app?vid=976abf1b-2fd1-4294-ac06-3c1193b2d559","ios":"levelo://app?vid=976abf1b-2fd1-4294-ac06-3c1193b2d559"},"vehicle_type_id":"4","last_reported":1735571320,"current_range_meters":38000,"station_id":"ce4bhu92rcd13ifvqi70","pricing_plan_id":"cebpf4jnsgd1na2vs0mg"},{"bike_id":"8cce4e7a-8af1-4906-a0ee-50da75170d4c","system_id":"levelo_inurba_marseille","lat":43.27428,"lon":5.39413,"is_reserved":false,"is_disabled":false,"rental_uris":{"android":"levelo://app?vid=8cce4e7a-8af1-4906-a0ee-50da75170d4c","ios":"levelo://app?vid=8cce4e7a-8af1-4906-a0ee-50da75170d4c"},"vehicle_type_id":"4","last_reported":1735571320,"current_range_meters":38800,"station_id":"ce4bhdp2rcd13ifvqf20","pricing_plan_id":"cebpf4jnsgd1na2vs0mg"},{"bike_id":"8960c74a-baeb-4914-9231-b9bd4900e6ca","system_id":"levelo_inurba_marseille","lat":43.269486,"lon":5.386347,"is_reserved":false,"is_disabled":false,"rental_uris":{"android":"levelo://app?vid=8960c74a-baeb-4914-9231-b9bd4900e6ca","ios":"levelo://app?vid=8960c74a-baeb-4914-9231-b9bd4900e6ca"},"vehicle_type_id":"4","last_reported":1735571320,"current_range_meters":28800,"station_id":"ce4bhh92rcd13ifvqfh0","pricing_plan_id":"cebpf4jnsgd1na2vs0mg"},{"bike_id":"5a0ce7fa-53be-4a8a-b533-c092d7088dc9","system_id":"levelo_inurba_marseille","lat":43.27825,"lon":5.40754,"is_reserved":false,"is_disabled":false,"rental_uris":{"android":"levelo://app?vid=5a0ce7fa-53be-4a8a-b533-c092d7088dc9","ios":"levelo://app?vid=5a0ce7fa-53be-4a8a-b533-c092d7088dc9"},"vehicle_type_id":"4","last_reported":1735571320,"current_range_meters":34000,"station_id":"ce4bhnh2rcd13ifvqgtg","pricing_plan_id":"cebpf4jnsgd1na2vs0mg"},{"bike_id":"67e411e3-fc9c-4032-aac7-3d485404f21c","system_id":"levelo_inurba_marseille","lat":43.28042,"lon":5.36953,"is_reserved":false,"is_disabled":false,"rental_uris":{"android":"levelo://app?vid=67e411e3-fc9c-4032-aac7-3d485404f21c","ios":"levelo://app?vid=67e411e3-fc9c-4032-aac7-3d485404f21c"},"vehicle_type_id":"4","last_reported":1735571320,"current_range_meters":25600,"station_id":"ce4bha12rcd13ifvqef0","pricing_plan_id":"cebpf4jnsgd1na2vs0mg"},{"bike_id":"1b3cb78d-ddda-4681-89cb-0323f5cddac6","system_id":"levelo_inurba_marseille","lat":43.279501,"lon":5.387198,"is_reserved":false,"is_disabled":false,"rental_uris":{"android":"levelo://app?vid=1b3cb78d-ddda-4681-89cb-0323f5cddac6","ios":"levelo://app?vid=1b3cb78d-ddda-4681-89cb-0323f5cddac6"},"vehicle_type_id":"4","last_reported":1735571320,"current_range_meters":39200,"station_id":"ce4bhg12rcd13ifvqf80","pricing_plan_id":"cebpf4jnsgd1na2vs0mg"},{"bike_id":"a980b102-b121-4b96-97bd-01321c384de3","system_id":"levelo_inurba_marseille","lat":43.30535,"lon":5.36705,"is_reserved":false,"is_disabled":false,"rental_uris":{"android":"levelo://app?vid=a980b102-b121-4b96-97bd-01321c384de3","ios":"levelo://app?vid=a980b102-b121-4b96-97bd-01321c384de3"},"vehicle_type_id":"4","last_reported":1735571320,"current_range_meters":14800,"station_id":"ce4bgrp2rcd13ifvqc9g","pricing_plan_id":"cebpf4jnsgd1na2vs0mg"},{"bike_id":"d68f5b94-c330-4cfe-93b0-bbaf65a32516","system_id":"levelo_inurba_marseille","lat":43.243835,"lon":5.370621,"is_reserved":false,"is_disabled":false,"rental_uris":{"android":"levelo://app?vid=d68f5b94-c330-4cfe-93b0-bbaf65a32516","ios":"levelo://app?vid=d68f5b94-c330-4cfe-93b0-bbaf65a32516"},"vehicle_type_id":"4","last_reported":1735571320,"current_range_meters":23200,"station_id":"ce4bhhh2rcd13ifvqfk0","pricing_plan_id":"cebpf4jnsgd1na2vs0mg"},{"bike_id":"df99bb22-741c-46e4-8058-017420af5485","system_id":"levelo_inurba_marseille","lat":43.31266,"lon":5.40163,"is_reserved":false,"is_disabled":false,"rental_uris":{"android":"levelo://app?vid=df99bb22-741c-46e4-8058-017420af5485","ios":"levelo://app?vid=df99bb22-741c-46e4-8058-017420af5485"},"vehicle_type_id":"4","last_reported":1735571320,"current_range_meters":16800,"station_id":"ce4bh092rcd13ifvqd30","pricing_plan_id":"cebpf4jnsgd1na2vs0mg"},