{"last_updated":1722694102,"ttl":30,"version":"2.2","data":{"bikes":[{"bike_id":"456fa786-469e-417a-8217-1539e9ff6d9d","system_id":"levelo_inurba_marseille","lat":43.309076,"lon":5.368465,"is_reserved":false,"is_disabled":false,"rental_uris":{"android":"levelo://app?vid=456fa786-469e-417a-8217-1539e9ff6d9d","ios":"levelo://app?vid=456fa786-469e-417a-8217-1539e9ff6d9d"},"vehicle_type_id":"4","last_reported":1722694102,"current_range_meters":30000,"station_id":"ce4bgn92rcd13ifvqbvg","pricing_plan_id":"cebpf4jnsgd1na2vs0mg"},{"bike_id":"50929a66-3316-4527-aeb6-d6ef0c6189d6","system_id":"levelo_inurba_marseille","lat":43.314811,"lon":5.373103,"is_reserved":false,"is_disabled":false,"rental_uris":{"android":"levelo://app?vid=50929a66-3316-4527-aeb6-d6ef0c6189d6","ios":"levelo://app?vid=50929a66-3316-4527-aeb6-d6ef0c6189d6"},"vehicle_type_id":"4","last_reported":1722694102,"current_range_meters":20400,"station_id":"ce4bgt12rcd13ifvqcd0","pricing_plan_id":"cebpf4jnsgd1na2vs0mg"},{"bike_id":"e98d17ac-ff86-4787-b55f-235579590860","system_id":"levelo_inurba_marseille","lat":43.309039,"lon":5.371797,"is_reserved":false,"is_disabled":false,"rental_uris":{"android":"levelo://app?vid=e98d17ac-ff86-4787-b55f-235579590860","ios":"levelo://app?vid=e98d17ac-ff86-4787-b55f-235579590860"},"vehicle_type_id":"4","last_reported":1722694102,"current_range_meters":17600,"station_id":"ce4bguh2rcd13ifvqckg","pricing_plan_id":"cebpf4jnsgd1na2vs0mg"},{"bike_id":"9cf058f3-bbf8-4aa8-a163-4bbe8934a857","system_id":"levelo_inurba_marseille","lat":43.309039,"lon":5.371797,"is_reserved":false,"is_disabled":false,"rental_uris":{"android":"levelo://app?vid=9cf058f3-bbf8-4aa8-a163-4bbe8934a857","ios":"levelo://app?vid=9cf058f3-bbf8-4aa8-a163-4bbe8934a857"},"vehicle_type_id":"4","last_reported":1722694102,"current_range_meters":12400,"station_id":"ce4bguh2rcd13ifvqckg","pricing_plan_id":"cebpf4jnsgd1na2vs0mg"},{"bike_id":"69eebdea-6b88-4f2e-913a-0898de38fbcc","system_id":"levelo_inurba_marseille","lat":43.31405,"lon":5.3751,"is_reserved":false,"is_disabled":false,"rental_uris":{"android":"levelo://app?vid=69eebdea-6b88-4f2e-913a-0898de38fbcc","ios":"levelo://app?vid=69eebdea-6b88-4f2e-913a-0898de38fbcc"},"vehicle_type_id":"4","last_reported":1722694102,"current_range_meters":26800,"station_id":"","pricing_plan_id":"cebpf4jnsgd1na2vs0mg"},{"bike_id":"15de6da9-004f-440f-9ca0-2f48b64adfcc","system_id":"levelo_inurba_marseille","lat":43.3063,"lon":5.36591,"is_reserved":false,"is_disabled":false,"rental_uris":{"android":"levelo://app?vid=15de6da9-004f-440f-9ca0-2f48b64adfcc","ios":"levelo://app?vid=15de6da9-004f-440f-9ca0-2f48b64adfcc"},"vehicle_type_id":"4","last_reported":1722694102,"current_range_meters":3600,"station_id":"","pricing_plan_id":"cebpf4jnsgd1na2vs0mg"},{"bike_id":"beb29842-ed55-4b2d-8381-0e77c72ff93f","system_id":"levelo_inurba_marseille","lat":43.30937,"lon":5.374823,"is_reserved":false,"is_disabled":false,"rental_uris":{"android":"levelo://app?vid=beb29842-ed55-4b2d-8381-0e77c72ff93f","ios":"levelo://app?vid=beb29842-ed55-4b2d-8381-0e77c72ff93f"},"vehicle_type_id":"4","last_reported":1722694102,"current_range_meters":17200,"station_id":"","pricing_plan_id":"cebpf4jnsgd1na2vs0mg"},{"bike_id":"996d71df-c0f3-4887-afe2-2d600d36cc45","system_id":"levelo_inurba_marseille","lat":43.305714,"lon":5.365633,"is_reserved":false,"is_disabled":false,"rental_uris":{"android":"levelo://app?vid=996d71df-c0f3-4887-afe2-2d600d36cc45","ios":"levelo://app?vid=996d71df-c0f3-4887-afe2-2d600d36cc45"},"vehicle_type_id":"4","last_reported":1722694102,"current_range_meters":3200,"station_id":"ce4bgs12rcd13ifvqcag","pricing_plan_id":"cebpf4jnsgd1na2vs0mg"},{"bike_id":"ece5c7fa-433e-4037-99d1-1356559eaf23","system_id":"levelo_inurba_marseille","lat":43.305714,"lon":5.365633,"is_reserved":false,"is_disabled":false,"rental_uris":{"android":"levelo://app?vid=ece5c7fa-433e-4037-99d1-1356559eaf23","ios":"levelo://app?vid=ece5c7fa-433e-4037-99d1-1356559eaf23"},"vehicle_type_id":"4","last_reported":1722694102,"current_range_meters":19600,"station_id":"ce4bgs12rcd13ifvqcag","pricing_plan_id":"cebpf4jnsgd1na2vs0mg"},{"bike_id":"ded14632-8226-430e-be15-f8c1b4d585b3","system_id":"levelo_inurba_marseille","lat":43.305368,"lon":5.367343,"is_reserved":false,"is_disabled":false,"rental_uris":{"android":"levelo://app?vid=ded14632-8226-430e-be15-f8c1b4d585b3","ios":"levelo://app?vid=ded14632-8226-430e-be15-f8c1b4d585b3"},"vehicle_type_id":"4","last_reported":1722694102,"current_range_meters":31200,"station_id":"ce4bgrp2rcd13ifvqc9g","pricing_plan_id":"cebpf4jnsgd1na2vs0mg"},{"bike_id":"5c90a470-3184-404e-a100-2f927090aa74","system_id":"levelo_inurba_marseille","lat":43.305714,"lon":5.365633,"is_reserved":false,"is_disabled":false,"rental_uris":{"android":"levelo://app?vid=5c90a470-3184-404e-a100-2f927090aa74","ios":"levelo://app?vid=5c90a470-3184-404e-a100-2f927090aa74"},"vehicle_type_id":"4","last_reported":1722694102,"current_range_meters":17600,"station_id":"ce4bgs12rcd13ifvqcag","pricing_plan_id":"cebpf4jnsgd1na2vs0mg"},{"bike_id":"1048b157-792b-48eb-ab61-e6c9aa606b50","system_id":"levelo_inurba_marseille","lat":43.30537,"lon":5.367345,"is_reserved":false,"is_disabled":false,"rental_uris":{"android":"levelo://app?vid=1048b157-792b-48eb-ab61-e6c9aa606b50","ios":"levelo://app?vid=1048b157-792b-48eb-ab61-e6c9aa606b50"},"vehicle_type_id":"4","last_reported":1722694102,"current_range_meters":16800,"station_id":"ce4bgrp2rcd13ifvqc9g","pricing_plan_id":"cebpf4jnsgd1na2vs0mg"},{"bike_id":"224f8128-74fc-4e19-b366-ee885c71c471","system_id":"levelo_inurba_marseille","lat":43.305989,"lon":5.37225,"is_reserved":false,"is_disabled":false,"rental_uris":{"android":"levelo://app?vid=224f8128-74fc-4e19-b366-ee885c71c471","ios":"levelo://app?vid=224f8128-74fc-4e19-b366-ee885c71c471"},"vehicle_type_id":"4","last_reported":1722694102,"current_range_meters":0,"station_id":"ce4bgqh2rcd13ifvqc4g","pricing_plan_id":"cebpf4jnsgd1na2vs0mg"},{"bike_id":"d91b8f31-3821-4fcf-8e9c-d16c57611421","system_id":"levelo_inurba_marseille","lat":43.30921,"lon":5.37874,"is_reserved":false,"is_disabled":false,"rental_uris":{"android":"levelo://app?vid=d91b8f31-3821-4fcf-8e9c-d16c57611421","ios":"levelo://app?vid=d91b8f31-3821-4fcf-8e9c-d16c57611421"},"vehicle_type_id":"4","last_reported":1722694102,"current_range_meters":23600,"station_id":"","pricing_plan_id":"cebpf4jnsgd1na2vs0mg"},{"bike_id":"746cd1d4-ddbc-43ad-bccc-6b9669e9fdd6","system_id":"levelo_inurba_marseille","lat":43.318874,"lon":5.377141,"is_reserved":false,"is_disabled":false,"rental_uris":{"android":"levelo://app?vid=746cd1d4-ddbc-43ad-bccc-6b9669e9fdd6","ios":"levelo://app?vid=746cd1d4-ddbc-43ad-bccc-6b9669e9fdd6"},"vehicle_type_id":"4","last_reported":1722694102,"current_range_meters":12000,"station_id":"","pricing_plan_id":"cebpf4jnsgd1na2vs0mg"},{"bike_id":"7d26f442-7c92-4f3d-8240-0ca62ad96ee4","system_id":"levelo_inurba_marseille","lat":43.32338,"lon":5.36484,"is_reserved":false,"is_disabled":false,"rental_uris":{"android":"levelo://app?vid=7d26f442-7c92-4f3d-8240-0ca62ad96ee4","ios":"levelo://app?vid=7d26f442-7c92-4f3d-8240-0ca62ad96ee4"},"vehicle_type_id":"4","last_reported":1722694102,"current_range_meters":25600,"station_id":"","pricing_plan_id":"cebpf4jnsgd1na2vs0mg"},{"bike_id":"675eb711-175f-466a-b779-5cbdbdcda2f1","system_id":"levelo_inurba_marseille","lat":43.30809,"lon":5.38152,"is_reserved":false,"is_disabled":false,"rental_uris":{"android":"levelo://app?vid=675eb711-175f-466a-b779-5cbdbdcda2f1","ios":"levelo://app?vid=675eb711-175f-466a-b779-5cbdbdcda2f1"},"vehicle_type_id":"4","last_reported":1722694102,"current_range_meters":31200,"station_id":"","pricing_plan_id":"cebpf4jnsgd1na2vs0mg"},{"bike_id":"3a4b9d4e-0c6c-445d-a6a2-39d3e09f0d7c","system_id":"levelo_inurba_marseille","lat":43.304606,"lon":5.379026,"is_reserved":false,"is_disabled":false,"rental_uris":{"android":"levelo://app?vid=3a4b9d4e-0c6c-445d-a6a2-39d3e09f0d7c","ios":"levelo://app?vid=3a4b9d4e-0c6c-445d-a6a2-39d3e09f0d7c"},"vehicle_type_id":"4","last_reported":1722694102,"current_range_meters":18000,"station_id":"ce4bgup2rcd13ifvqcn0","pricing_plan_id":"cebpf4jnsgd1na2vs0mg"},{"bike_id":"842b1796-3bfa-47c8-9d05-891e83af7d16","system_id":"levelo_inurba_marseille","lat":43.304606,"lon":5.379026,"is_reserved":false,"is_disabled":false,"rental_uris":{"android":"levelo://app?vid=842b1796-3bfa-47c8-9d05-891e83af7d16","ios":"levelo://app?vid=842b1796-3bfa-47c8-9d05-891e83af7d16"},"vehicle_type_id":"4","last_reported":1722694102,"current_range_meters":400,"station_id":"ce4bgup2rcd13ifvqcn0","pricing_plan_id":"cebpf4jnsgd1na2vs0mg"},{"bike_id":"ff4deeba-5127-4c9a-b037-334ce8ffc6c0","system_id":"levelo_inurba_marseille","lat":43.324771,"lon":5.36557,"is_reserved":false,"is_disabled":false,"rental_uris":{"android":"levelo://app?vid=ff4deeba-5127-4c9a-b037-334ce8ffc6c0","ios":"levelo://app?vid=ff4deeba-5127-4c9a-b037-334ce8ffc6c0"},"vehicle_type_id":"4","last_reported":1722694102,"current_range_meters":31200,"station_id":"ce4bhs12rcd13ifvqhvg","pricing_plan_id":"cebpf4jnsgd1na2vs0mg"},{"bike_id":"b7fae41d-6963-4edd-83fb-3d27696b2bf9","system_id":"levelo_inurba_marseille","lat":43.32478,"lon":5.36565,"is_reserved":false,"is_disabled":false,"rental_uris":{"android":"levelo://app?vid=b7fae41d-6963-4edd-83fb-3d27696b2bf9","ios":"levelo://app?vid=b7fae41d-6963-4edd-83fb-3d27696b2bf9"},"vehicle_type_id":"4","last_reported":1722694102,"current_range_meters":0,"station_id":"ce4bhs12rcd13ifvqhvg","pricing_plan_id":"cebpf4jnsgd1na2vs0mg"},{"bike_id":"cfbb5f88-214f-4b9d-a4eb-4496dbd9322a","system_id":"levelo_inurba_marseille","lat":43.324771,"lon":5.36557,"is_reserved":false,"is_disabled":false,"rental_uris":{"android":"levelo://app?vid=cfbb5f88-214f-4b9d-a4eb-4496dbd9322a","ios":"levelo://app?vid=cfbb5f88-214f-4b9d-a4eb-4496dbd9322a"},"vehicle_type_id":"4","last_reported":1722694102,"current_range_meters":31200,"station_id":"ce4bhs12rcd13ifvqhvg","pricing_plan_id":"cebpf4jnsgd1na2vs0mg"},{"bike_id":"41980ad8-51a2-43e4-bb99-3124a61598b8","system_id":"levelo_inurba_marseille","lat":43.32483,"lon":5.36573,"is_reserved":false,"is_disabled":false,"rental_uris":{"android":"levelo://app?vid=41980ad8-51a2-43e4-bb99-3124a61598b8","ios":"levelo://app?vid=41980ad8-51a2-43e4-bb99-3124a61598b8"},"vehicle_type_id":"4","last_reported":1722694102,"current_range_meters":23600,"station_id":"ce4bhs12rcd13ifvqhvg","pricing_plan_id":"cebpf4jnsgd1na2vs0mg"},{"bike_id":"39c3d13d-fef7-48cf-9300-21353a1419e2","system_id":"levelo_inurba_marseille","lat":43.324849,"lon":5.365753,"is_reserved":false,"is_disabled":false,"rental_uris":{"android":"levelo://app?vid=39c3d13d-fef7-48cf-9300-21353a1419e2","ios":"levelo://app?vid=39c3d13d-fef7-48cf-9300-21353a1419e2"},"vehicle_type_id":"4","last_reported":1722694102,"current_range_meters":30000,"station_id":"ce4bhs12rcd13ifvqhvg","pricing_plan_id":"cebpf4jnsgd1na2vs0mg"},{"bike_id":"81148f0e-b8c3-4d4b-a8c5-f0cd922d0ca2","system_id":"levelo_inurba_marseille","lat":43.324771,"lon":5.36557,"is_reserved":false,"is_disabled":false,"rental_uris":{"android":"levelo://app?vid=81148f0e-b8c3-4d4b-a8c5-f0cd922d0ca2","ios":"levelo://app?vid=81148f0e-b8c3-4d4b-a8c5-f0cd922d0ca2"},"vehicle_type_id":"4","last_reported":1722694102,"current_range_meters":31200,"station_id":"ce4bhs12rcd13ifvqhvg","pricing_plan_id":"cebpf4jnsgd1na2vs0mg"},{"bike_id":"2501f9f6-156e-4d44-8e10-98f865703041","system_id":"levelo_inurba_marseille","lat":43.31071,"lon":5.38357,"is_reserved":false,"is_disabled":false,"rental_uris":{"android":"levelo://app?vid=2501f9f6-156e-4d44-8e10-98f865703041","ios":"levelo://app?vid=2501f9f6-156e-4d44-8e10-98f865703041"},"vehicle_type_id":"4","last_reported":1722694102,"current_range_meters":5600,"station_id":"ce4bgv92rcd13ifvqcr0","pricing_plan_id":"cebpf4jnsgd1na2vs0mg"},{"bike_id":"64f744b1-84a9-48d1-8c2f-8cf6fdf815b1","system_id":"levelo_inurba_marseille","lat":43.31065,"lon":5.383607,"is_reserved":false,"is_disabled":false,"rental_uris":{"android":"levelo://app?vid=64f744b1-84a9-48d1-8c2f-8cf6fdf815b1","ios":"levelo://app?vid=64f744b1-84a9-48d1-8c2f-8cf6fdf815b1"},"vehicle_type_id":"4","last_reported":1722694102,"current_range_meters":5200,"station_id":"ce4bgv92rcd13ifvqcr0","pricing_plan_id":"cebpf4jnsgd1na2vs0mg"},{"bike_id":"80199bee-ded7-439c-bd2c-0d01ed3f95a1","system_id":"levelo_inurba_marseille","lat":43.310804,"lon":5.38359,"is_reserved":false,"is_disabled":false,"rental_uris":{"android":"levelo://app?vid=80199bee-ded7-439c-bd2c-0d01ed3f95a1","ios":"levelo://app?vid=80199bee-ded7-439c-bd2c-0d01ed3f95a1"},"vehicle_type_id":"4","last_reported":1722694102,"current_range_meters":0,"station_id":"ce4bgv92rcd13ifvqcr0","pricing_plan_id":"cebpf4jnsgd1na2vs0mg"},{"bike_id":"b8063fe8-8fd7-4dce-9e70-59b2996b9a85","system_id":"levelo_inurba_marseille","lat":43.31407,"lon":5.384607,"is_reserved":false,"is_disabled":false,"rental_uris":{"android":"levelo://app?vid=b8063fe8-8fd7-4dce-9e70-59b2996b9a85","ios":"levelo://app?vid=b8063fe8-8fd7-4dce-9e70-59b2996b9a85"},"vehicle_type_id":"4","last_reported":1722694102,"current_range_meters":0,"station_id":"","pricing_plan_id":"cebpf4jnsgd1na2vs0mg"},{"bike_id":"e38d50b2-c3a1-4e6b-86b8-e3b5034f32fe","system_id":"levelo_inurba_marseille","lat":43.313571,"lon":5.384829,"is_reserved":false,"is_disabled":false,"rental_uris":{"android":"levelo://app?vid=e38d50b2-c3a1-4e6b-86b8-e3b5034f32fe","ios":"levelo://app?vid=e38d50b2-c3a1-4e6b-86b8-e3b5034f32fe"},"vehicle_type_id":"4","last_reported":1722694102,"current_range_meters":31200,"station_id":"ce4bgt92rcd13ifvqcf0","pricing_plan_id":"cebpf4jnsgd1na2vs0mg"},{"bike_id":"026a91b6-076e-4b47-84dc-13e3f9031f72","system_id":"levelo_inurba_marseille","lat":43.299767,"lon":5.371825,"is_reserved":false,"is_disabled":false,"rental_uris":{"android":"levelo://app?vid=026a91b6-076e-4b47-84dc-13e3f9031f72","ios":"levelo://app?vid=026a91b6-076e-4b47-84dc-13e3f9031f72"},"vehicle_type_id":"4","last_reported":1722694102,"current_range_meters":31200,"station_id":"ce4bgr92rcd13ifvqc7g","pricing_plan_id":"cebpf4jnsgd1na2vs0mg"},{"bike_id":"c33ecbdb-1f19-439d-9d17-8e4e0ec43971","system_id":"levelo_inurba_marseille","lat":43.299724,"lon":5.371829,"is_reserved":false,"is_disabled":false,"rental_uris":{"android":"levelo://app?vid=c33ecbdb-1f19-439d-9d17-8e4e0ec43971","ios":"levelo://app?vid=c33ecbdb-1f19-439d-9d17-8e4e0ec43971"},"vehicle_type_id":"4","last_reported":1722694102,"current_range_meters":28800,"station_id":"ce4bgr92rcd13ifvqc7g","pricing_plan_id":"cebpf4jnsgd1na2vs0mg"},{"bike_id":"4c306cd9-ac09-4afa-b2ea-321bc317bfed","system_id":"levelo_inurba_marseille","lat":43.319935,"lon":5.381699,"is_reserved":false,"is_disabled":false,"rental_uris":{"android":"levelo://app?vid=4c306cd9-ac09-4afa-b2ea-321bc317bfed","ios":"levelo://app?vid=4c306cd9-ac09-4afa-b2ea-321bc317bfed"},"vehicle_type_id":"4","last_reported":1722694102,"current_range_meters":25600,"station_id":"ce4bhr12rcd13ifvqhpg","pricing_plan_id":"cebpf4jnsgd1na2vs0mg"},{"bike_id":"9a38ac4a-100a-4dae-a87f-c6eafc759656","system_id":"levelo_inurba_marseille","lat":43.298433,"lon":5.362774,"is_reserved":false,"is_disabled":false,"rental_uris":{"android":"levelo://app?vid=9a38ac4a-100a-4dae-a87f-c6eafc759656","ios":"levelo://app?vid=9a38ac4a-100a-4dae-a87f-c6eafc759656"},"vehicle_type_id":"4","last_reported":1722694102,"current_range_meters":25600,"station_id":"ce4bgpp2rcd13ifvqc3g","pricing_plan_id":"cebpf4jnsgd1na2vs0mg"},{"bike_id":"4115615d-ce2f-43ec-8774-1644d8e897e0","system_id":"levelo_inurba_marseille","lat":43.299243,"lon":5.374807,"is_reserved":false,"is_disabled":false,"rental_uris":{"android":"levelo://app?vid=4115615d-ce2f-43ec-8774-1644d8e897e0","ios":"levelo://app?vid=4115615d-ce2f-43ec-8774-1644d8e897e0"},"vehicle_type_id":"4","last_reported":1722694102,"current_range_meters":4800,"station_id":"ce4bgjh2rcd13ifvqbg0","pricing_plan_id":"cebpf4jnsgd1na2vs0mg"},{"bike_id":"b49834f7-878b-4feb-b3a9-132787febc3e","system_id":"levelo_inurba_marseille","lat":43.311722,"lon":5.387247,"is_reserved":false,"is_disabled":false,"rental_uris":{"android":"levelo://app?vid=b49834f7-878b-4feb-b3a9-132787febc3e","ios":"levelo://app?vid=b49834f7-878b-4feb-b3a9-132787febc3e"},"vehicle_type_id":"4","last_reported":1722694102,"current_range_meters":30800,"station_id":"ce4bgv12rcd13ifvqcp0","pricing_plan_id":"cebpf4jnsgd1na2vs0mg"},{"bike_id":"30ace1d0-ec93-4a77-b459-ba7b55cd61a4","system_id":"levelo_inurba_marseille","lat":43.311722,"lon":5.387247,"is_reserved":false,"is_disabled":false,"rental_uris":{"android":"levelo://app?vid=30ace1d0-ec93-4a77-b459-ba7b55cd61a4","ios":"levelo://app?vid=30ace1d0-ec93-4a77-b459-ba7b55cd61a4"},"vehicle_type_id":"4","last_reported":1722694102,"current_range_meters":800,"station_id":"ce4bgv12rcd13ifvqcp0","pricing_plan_id":"cebpf4jnsgd1na2vs0mg"},{"bike_id":"a99da085-1071-46f3-9192-f91f0afc0460","system_id":"levelo_inurba_marseille","lat":43.30146,"lon":5.38104,"is_reserved":false,"is_disabled":false,"rental_uris":{"android":"levelo://app?vid=a99da085-1071-46f3-9192-f91f0afc0460","ios":"levelo://app?vid=a99da085-1071-46f3-9192-f91f0afc0460"},"vehicle_type_id":"4","last_reported":1722694102,"current_range_meters":16000,"station_id":"","pricing_plan_id":"cebpf4jnsgd1na2vs0mg"},{"bike_id":"694aa667-6a9c-4ba1-9f9f-636d49894d24","system_id":"levelo_inurba_marseille","lat":43.322872,"lon":5.382756,"is_reserved":false,"is_disabled":false,"rental_uris":{"android":"levelo://app?vid=694aa667-6a9c-4ba1-9f9f-636d49894d24","ios":"levelo://app?vid=694aa667-6a9c-4ba1-9f9f-636d49894d24"},"vehicle_type_id":"4","last_reported":1722694102,"current_range_meters":29600,"station_id":"ce4bhr12rcd13ifvqhqg","pricing_plan_id":"cebpf4jnsgd1na2vs0mg"},{"bike_id":"d065c92c-6334-411c-b664-2fe7f58d580a","system_id":"levelo_inurba_marseille","lat":43.322872,"lon":5.382756,"is_reserved":false,"is_disabled":false,"rental_uris":{"android":"levelo://app?vid=d065c92c-6334-411c-b664-2fe7f58d580a","ios":"levelo://app?vid=d065c92c-6334-411c-b664-2fe7f58d580a"},"vehicle_type_id":"4","last_reported":1722694102,"current_range_meters":31200,"station_id":"ce4bhr12rcd13ifvqhqg","pricing_plan_id":"cebpf4jnsgd1na2vs0mg"},{"bike_id":"cac5c10b-b5c8-4cd1-9b89-57594189f83e","system_id":"levelo_inurba_marseille","lat":43.32288,"lon":5.38275,"is_reserved":false,"is_disabled":false,"rental_uris":{"android":"levelo://app?vid=cac5c10b-b5c8-4cd1-9b89-57594189f83e","ios":"levelo://app?vid=cac5c10b-b5c8-4cd1-9b89-57594189f83e"},"vehicle_type_id":"4","last_reported":1722694102,"current_range_meters":4800,"station_id":"ce4bhr12rcd13ifvqhqg","pricing_plan_id":"cebpf4jnsgd1na2vs0mg"},{"bike_id":"eba5b5a9-7938-4b21-a2c5-64be521e6500","system_id":"levelo_inurba_marseille","lat":43.32289,"lon":5.38275,"is_reserved":false,"is_disabled":false,"rental_uris":{"android":"levelo://app?vid=eba5b5a9-7938-4b21-a2c5-64be521e6500","ios":"levelo://app?vid=eba5b5a9-7938-4b21-a2c5-64be521e6500"},"vehicle_type_id":"4","last_reported":1722694102,"current_range_meters":30800,"station_id":"ce4bhr12rcd13ifvqhqg","pricing_plan_id":"cebpf4jnsgd1na2vs0mg"},{"bike_id":"f4f01933-09ef-4c02-867a-082e621eba71","system_id":"levelo_inurba_marseille","lat":43.322872,"lon":5.382756,"is_reserved":false,"is_disabled":false,"rental_uris":{"android":"levelo://app?vid=f4f01933-09ef-4c02-867a-082e621eba71","ios":"levelo://app?vid=f4f01933-09ef-4c02-867a-082e621eba71"},"vehicle_type_id":"4","last_reported":1722694102,"current_range_meters":2800,"station_id":"ce4bhr12rcd13ifvqhqg","pricing_plan_id":"cebpf4jnsgd1na2vs0mg"},{"bike_id":"35e59e07-dc6d-4cb7-b190-24a2b2530ee5","system_id":"levelo_inurba_marseille","lat":43.322872,"lon":5.382756,"is_reserved":false,"is_disabled":false,"rental_uris":{"android":"levelo://app?vid=35e59e07-dc6d-4cb7-b190-24a2b2530ee5","ios":"levelo://app?vid=35e59e07-dc6d-4cb7-b190-24a2b2530ee5"},"vehicle_type_id":"4","last_reported":1722694102,"current_range_meters":11600,"station_id":"ce4bhr12rcd13ifvqhqg","pricing_plan_id":"cebpf4jnsgd1na2vs0mg"},{"bike_id":"ca8a5bd0-77f7-42db-9849-8a963cccbc84","system_id":"levelo_inurba_marseille","lat":43.322872,"lon":5.382756,"is_reserved":false,"is_disabled":false,"rental_uris":{"android":"levelo://app?vid=ca8a5bd0-77f7-42db-9849-8a963cccbc84","ios":"levelo://app?vid=ca8a5bd0-77f7-42db-9849-8a963cccbc84"},"vehicle_type_id":"4","last_reported":1722694102,"current_range_meters":31600,"station_id":"ce4bhr12rcd13ifvqhqg","pricing_plan_id":"cebpf4jnsgd1na2vs0mg"},{"bike_id":"1993962a-6326-4b64-ba54-776836ae0442","system_id":"levelo_inurba_marseille","lat":43.297163,"lon":5.365866,"is_reserved":false,"is_disabled":false,"rental_uris":{"android":"levelo://app?vid=1993962a-6326-4b64-ba54-776836ae0442","ios":"levelo://app?vid=1993962a-6326-4b64-ba54-776836ae0442"},"vehicle_type_id":"4","last_reported":1722694102,"current_range_meters":4000,"station_id":"ce4bgn12rcd13ifvqbt0","pricing_plan_id":"cebpf4jnsgd1na2vs0mg"},{"bike_id":"a8084183-ccd8-4bf0-bf80-2117af852d6a","system_id":"levelo_inurba_marseille","lat":43.29687,"lon":5.36873,"is_reserved":false,"is_disabled":false,"rental_uris":{"android":"levelo://app?vid=a8084183-ccd8-4bf0-bf80-2117af852d6a","ios":"levelo://app?vid=a8084183-ccd8-4bf0-bf80-2117af852d6a"},"vehicle_type_id":"4","last_reported":1722694102,"current_range_meters":14000,"station_id":"","pricing_plan_id":"cebpf4jnsgd1na2vs0mg"},{"bike_id":"2914a6ce-7a25-4971-bc58-7eb345d80670","system_id":"levelo_inurba_marseille","lat":43.32931,"lon":5.36596,"is_reserved":false,"is_disabled":false,"rental_uris":{"android":"levelo://app?vid=2914a6ce-7a25-4971-bc58-7eb345d80670","ios":"levelo://app?vid=2914a6ce-7a25-4971-bc58-7eb345d80670"},"vehicle_type_id":"4","last_reported":1722694102,"current_range_meters":27600,"station_id":"","pricing_plan_id":"cebpf4jnsgd1na2vs0mg"},{"bike_id":"abb9ce0a-6b4b-442c-a769-b1c08daa6106","system_id":"levelo_inurba_marseille","lat":43.31619,"lon":5.38929,"is_reserved":false,"is_disabled":false,"rental_uris":{"android":"levelo://app?vid=abb9ce0a-6b4b-442c-a769-b1c08daa6106","ios":"levelo://app?vid=abb9ce0a-6b4b-442c-a769-b1c08daa6106"},"vehicle_type_id":"4","last_reported":1722694102,"current_range_meters":6800,"station_id":"","pricing_plan_id":"cebpf4jnsgd1na2vs0mg"},{"bike_id":"b920ba38-f16f-4887-9029-6c42c11619e3","system_id":"levelo_inurba_marseille","lat":43.296935,"lon":5.376544,"is_reserved":false,"is_disabled":false,"rental_uris":{"android":"levelo://app?vid=b920ba38-f16f-4887-9029-6c42c11619e3","ios":"levelo://app?vid=b920ba38-f16f-4887-9029-6c42c11619e3"},"vehicle_type_id":"4","last_reported":1722694102,"current_range_meters":400,"station_id":"ce4bgkh2rcd13ifvqbl0","pricing_plan_id":"cebpf4jnsgd1na2vs0mg"},{"bike_id":"979b65b1-9aaa-49d8-8cdf-a31d1725c1e4","system_id":"levelo_inurba_marseille","lat":43.309589,"lon":5.390258,"is_reserved":false,"is_disabled":false,"rental_uris":{"android":"levelo://app?vid=979b65b1-9aaa-49d8-8cdf-a31d1725c1e4","ios":"levelo://app?vid=979b65b1-9aaa-49d8-8cdf-a31d1725c1e4"},"vehicle_type_id":"4","last_reported":1722694102,"current_range_meters":6400,"station_id":"ce4bgup2rcd13ifvqco0","pricing_plan_id":"cebpf4jnsgd1na2vs0mg"},{"bike_id":"e613aaa9-aa5b-4353-b837-382c66d553c9","system_id":"levelo_inurba_marseille","lat":43.317531,"lon":5.390116,"is_reserved":false,"is_disabled":false,"rental_uris":{"android":"levelo://app?vid=e613aaa9-aa5b-4353-b837-382c66d553c9","ios":"levelo://app?vid=e613aaa9-aa5b-4353-b837-382c66d553c9"},"vehicle_type_id":"4","last_reported":1722694102,"current_range_meters":6000,"station_id":"ce4bhqp2rcd13ifvqhng","pricing_plan_id":"cebpf4jnsgd1na2vs0mg"},{"bike_id":"fba4411f-27d8-4c8a-b06b-83ae00d94fa2","system_id":"levelo_inurba_marseille","lat":43.31501,"lon":5.39127,"is_reserved":false,"is_disabled":false,"rental_uris":{"android":"levelo://app?vid=fba4411f-27d8-4c8a-b06b-83ae00d94fa2","ios":"levelo://app?vid=fba4411f-27d8-4c8a-b06b-83ae00d94fa2"},"vehicle_type_id":"4","last_reported":1722694102,"current_range_meters":14000,"station_id":"","pricing_plan_id":"cebpf4jnsgd1na2vs0mg"},{"bike_id":"45c44795-b7cd-4d29-8c90-37efce75e177","system_id":"levelo_inurba_marseille","lat":43.298037,"lon":5.381066,"is_reserved":false,"is_disabled":false,"rental_uris":{"android":"levelo://app?vid=45c44795-b7cd-4d29-8c90-37efce75e177","ios":"levelo://app?vid=45c44795-b7cd-4d29-8c90-37efce75e177"},"vehicle_type_id":"4","last_reported":1722694102,"current_range_meters":0,"station_id":"ce4bgip2rcd13ifvqbb0","pricing_plan_id":"cebpf4jnsgd1na2vs0mg"},{"bike_id":"c1edd6d6-ded6-44b5-b4b8-ac61152c33ce","system_id":"levelo_inurba_marseille","lat":43.296277,"lon":5.377108,"is_reserved":false,"is_disabled":false,"rental_uris":{"android":"levelo://app?vid=c1edd6d6-ded6-44b5-b4b8-ac61152c33ce","ios":"levelo://app?vid=c1edd6d6-ded6-44b5-b4b8-ac61152c33ce"},"vehicle_type_id":"4","last_reported":1722694102,"current_range_meters":20400,"station_id":"ce4bgi92rcd13ifvqb90","pricing_plan_id":"cebpf4jnsgd1na2vs0mg"},{"bike_id":"de420f8f-4032-494f-911e-d342670d5ce7","system_id":"levelo_inurba_marseille","lat":43.304274,"lon":5.388873,"is_reserved":false,"is_disabled":false,"rental_uris":{"android":"levelo://app?vid=de420f8f-4032-494f-911e-d342670d5ce7","ios":"levelo://app?vid=de420f8f-4032-494f-911e-d342670d5ce7"},"vehicle_type_id":"4","last_reported":1722694102,"current_range_meters":14400,"station_id":"ce4bgk12rcd13ifvqbi0","pricing_plan_id":"cebpf4jnsgd1na2vs0mg"},{"bike_id":"ba0b5577-655a-4bf1-9c68-aa1a51a3cb37","system_id":"levelo_inurba_marseille","lat":43.296263,"lon":5.377094,"is_reserved":false,"is_disabled":false,"rental_uris":{"android":"levelo://app?vid=ba0b5577-655a-4bf1-9c68-aa1a51a3cb37","ios":"levelo://app?vid=ba0b5577-655a-4bf1-9c68-aa1a51a3cb37"},"vehicle_type_id":"4","last_reported":1722694102,"current_range_meters":0,"station_id":"ce4bgi92rcd13ifvqb90","pricing_plan_id":"cebpf4jnsgd1na2vs0mg"},{"bike_id":"00d46d32-054c-42cb-b4a3-27b0da08a934","system_id":"levelo_inurba_marseille","lat":43.324814,"lon":5.386203,"is_reserved":false,"is_disabled":false,"rental_uris":{"android":"levelo://app?vid=00d46d32-054c-42cb-b4a3-27b0da08a934","ios":"levelo://app?vid=00d46d32-054c-42cb-b4a3-27b0da08a934"},"vehicle_type_id":"4","last_reported":1722694102,"current_range_meters":7600,"station_id":"","pricing_plan_id":"cebpf4jnsgd1na2vs0mg"},{"bike_id":"73189b23-e502-40e6-a497-88a5355a0d2b","system_id":"levelo_inurba_marseille","lat":43.32367,"lon":5.388836,"is_reserved":false,"is_disabled":false,"rental_uris":{"android":"levelo://app?vid=73189b23-e502-40e6-a497-88a5355a0d2b","ios":"levelo://app?vid=73189b23-e502-40e6-a497-88a5355a0d2b"},"vehicle_type_id":"4","last_reported":1722694102,"current_range_meters":9600,"station_id":"ce4bhqp2rcd13ifvqhog","pricing_plan_id":"cebpf4jnsgd1na2vs0mg"},{"bike_id":"511328e3-a1be-48ac-826b-c386d03ebec8","system_id":"levelo_inurba_marseille","lat":43.32367,"lon":5.388836,"is_reserved":false,"is_disabled":false,"rental_uris":{"android":"levelo://app?vid=511328e3-a1be-48ac-826b-c386d03ebec8","ios":"levelo://app?vid=511328e3-a1be-48ac-826b-c386d03ebec8"},"vehicle_type_id":"4","last_reported":1722694102,"current_range_meters":2400,"station_id":"ce4bhqp2rcd13ifvqhog","pricing_plan_id":"cebpf4jnsgd1na2vs0mg"},{"bike_id":"b15e94c8-cfa3-4dc2-a474-84188ff4b48b","system_id":"levelo_inurba_marseille","lat":43.32367,"lon":5.38885,"is_reserved":false,"is_disabled":false,"rental_uris":{"android":"levelo://app?vid=b15e94c8-cfa3-4dc2-a474-84188ff4b48b","ios":"levelo://app?vid=b15e94c8-cfa3-4dc2-a474-84188ff4b48b"},"vehicle_type_id":"4","last_reported":1722694102,"current_range_meters":0,"station_id":"ce4bhqp2rcd13ifvqhog","pricing_plan_id":"cebpf4jnsgd1na2vs0mg"},{"bike_id":"21106823-58b2-4f90-a112-112b6c766bf7","system_id":"levelo_inurba_marseille","lat":43.3236,"lon":5.38892,"is_reserved":false,"is_disabled":false,"rental_uris":{"android":"levelo://app?vid=21106823-58b2-4f90-a112-112b6c766bf7","ios":"levelo://app?vid=21106823-58b2-4f90-a112-112b6c766bf7"},"vehicle_type_id":"4","last_reported":1722694102,"current_range_meters":12400,"station_id":"ce4bhqp2rcd13ifvqhog","pricing_plan_id":"cebpf4jnsgd1na2vs0mg"},{"bike_id":"ae986a6b-42fd-4fff-8c29-fab224733d0c","system_id":"levelo_inurba_marseille","lat":43.32367,"lon":5.388836,"is_reserved":false,"is_disabled":false,"rental_uris":{"android":"levelo://app?vid=ae986a6b-42fd-4fff-8c29-fab224733d0c","ios":"levelo://app?vid=ae986a6b-42fd-4fff-8c29-fab224733d0c"},"vehicle_type_id":"4","last_reported":1722694102,"current_range_meters":4800,"station_id":"ce4bhqp2rcd13ifvqhog","pricing_plan_id":"cebpf4jnsgd1na2vs0mg"},{"bike_id":"49a089b9-6096-4568-8735-e222387a60e0","system_id":"levelo_inurba_marseille","lat":43.32367,"lon":5.388836,"is_reserved":false,"is_disabled":false,"rental_uris":{"android":"levelo://app?vid=49a089b9-6096-4568-8735-e222387a60e0","ios":"levelo://app?vid=49a089b9-6096-4568-8735-e222387a60e0"},"vehicle_type_id":"4","last_reported":1722694102,"current_range_meters":800,"station_id":"ce4bhqp2rcd13ifvqhog","pricing_plan_id":"cebpf4jnsgd1na2vs0mg"},{"bike_id":"ec70aa38-d121-4890-a5d1-829ff8392c03","system_id":"levelo_inurba_marseille","lat":43.29602,"lon":5.381084,"is_reserved":false,"is_disabled":false,"rental_uris":{"android":"levelo://app?vid=ec70aa38-d121-4890-a5d1-829ff8392c03","ios":"levelo://app?vid=ec70aa38-d121-4890-a5d1-829ff8392c03"},"vehicle_type_id":"4","last_reported":1722694102,"current_range_meters":18400,"station_id":"ce4bgl12rcd13ifvqbo0","pricing_plan_id":"cebpf4jnsgd1na2vs0mg"},{"bike_id":"19b7950a-cc74-4b04-af30-bab920807640","system_id":"levelo_inurba_marseille","lat":43.293259,"lon":5.371586,"is_reserved":false,"is_disabled":false,"rental_uris":{"android":"levelo://app?vid=19b7950a-cc74-4b04-af30-bab920807640","ios":"levelo://app?vid=19b7950a-cc74-4b04-af30-bab920807640"},"vehicle_type_id":"4","last_reported":1722694102,"current_range_meters":6000,"station_id":"ce4bgh92rcd13ifvqb40","pricing_plan_id":"cebpf4jnsgd1na2vs0mg"},{"bike_id":"6d445f1e-512d-4c1f-8f8e-74c347c8f3d2","system_id":"levelo_inurba_marseille","lat":43.292749,"lon":5.368402,"is_reserved":false,"is_disabled":false,"rental_uris":{"android":"levelo://app?vid=6d445f1e-512d-4c1f-8f8e-74c347c8f3d2","ios":"levelo://app?vid=6d445f1e-512d-4c1f-8f8e-74c347c8f3d2"},"vehicle_type_id":"4","last_reported":1722694102,"current_range_meters":18800,"station_id":"ce4bhbp2rcd13ifvqesg","pricing_plan_id":"cebpf4jnsgd1na2vs0mg"},{"bike_id":"d7f29b1c-6c61-4e6b-b941-59c3c687b8cf","system_id":"levelo_inurba_marseille","lat":43.292822,"lon":5.363637,"is_reserved":false,"is_disabled":false,"rental_uris":{"android":"levelo://app?vid=d7f29b1c-6c61-4e6b-b941-59c3c687b8cf","ios":"levelo://app?vid=d7f29b1c-6c61-4e6b-b941-59c3c687b8cf"},"vehicle_type_id":"4","last_reported":1722694102,"current_range_meters":400,"station_id":"","pricing_plan_id":"cebpf4jnsgd1na2vs0mg"},{"bike_id":"b2433a24-758e-4dab-aa28-e8ff6501a2a3","system_id":"levelo_inurba_marseille","lat":43.305994,"lon":5.393687,"is_reserved":false,"is_disabled":false,"rental_uris":{"android":"levelo://app?vid=b2433a24-758e-4dab-aa28-e8ff6501a2a3","ios":"levelo://app?vid=b2433a24-758e-4dab-aa28-e8ff6501a2a3"},"vehicle_type_id":"4","last_reported":1722694102,"current_range_meters":24000,"station_id":"ce4bh0p2rcd13ifvqd80","pricing_plan_id":"cebpf4jnsgd1na2vs0mg"},{"bike_id":"defcbee5-802b-48aa-94f3-d886cac2b5b7","system_id":"levelo_inurba_marseille","lat":43.305139,"lon":5.393251,"is_reserved":false,"is_disabled":false,"rental_uris":{"android":"levelo://app?vid=defcbee5-802b-48aa-94f3-d886cac2b5b7","ios":"levelo://app?vid=defcbee5-802b-48aa-94f3-d886cac2b5b7"},"vehicle_type_id":"4","last_reported":1722694102,"current_range_meters":18400,"station_id":"","pricing_plan_id":"cebpf4jnsgd1na2vs0mg"},{"bike_id":"b20dbf14-0db5-4cfd-9a2b-30c4ac026663","system_id":"levelo_inurba_marseille","lat":43.303002,"lon":5.392142,"is_reserved":false,"is_disabled":false,"rental_uris":{"android":"levelo://app?vid=b20dbf14-0db5-4cfd-9a2b-30c4ac026663","ios":"levelo://app?vid=b20dbf14-0db5-4cfd-9a2b-30c4ac026663"},"vehicle_type_id":"4","last_reported":1722694102,"current_range_meters":0,"station_id":"ce4bgkh2rcd13ifvqbk0","pricing_plan_id":"cebpf4jnsgd1na2vs0mg"},{"bike_id":"5b6a6ed2-c8ef-461d-9376-c9cc27b086fe","system_id":"levelo_inurba_marseille","lat":43.2936,"lon":5.37835,"is_reserved":false,"is_disabled":false,"rental_uris":{"android":"levelo://app?vid=5b6a6ed2-c8ef-461d-9376-c9cc27b086fe","ios":"levelo://app?vid=5b6a6ed2-c8ef-461d-9376-c9cc27b086fe"},"vehicle_type_id":"4","last_reported":1722694102,"current_range_meters":23600,"station_id":"ce4bgjh2rcd13ifvqbf0","pricing_plan_id":"cebpf4jnsgd1na2vs0mg"},{"bike_id":"f8407e99-841f-4e2b-a977-374d327a1a19","system_id":"levelo_inurba_marseille","lat":43.292311,"lon":5.360731,"is_reserved":false,"is_disabled":false,"rental_uris":{"android":"levelo://app?vid=f8407e99-841f-4e2b-a977-374d327a1a19","ios":"levelo://app?vid=f8407e99-841f-4e2b-a977-374d327a1a19"},"vehicle_type_id":"4","last_reported":1722694102,"current_range_meters":6800,"station_id":"ce4bhbh2rcd13ifvqeqg","pricing_plan_id":"cebpf4jnsgd1na2vs0mg"},{"bike_id":"5ae9a1bc-c8be-4e2b-ac3c-7dfc068774eb","system_id":"levelo_inurba_marseille","lat":43.292311,"lon":5.360731,"is_reserved":false,"is_disabled":false,"rental_uris":{"android":"levelo://app?vid=5ae9a1bc-c8be-4e2b-ac3c-7dfc068774eb","ios":"levelo://app?vid=5ae9a1bc-c8be-4e2b-ac3c-7dfc068774eb"},"vehicle_type_id":"4","last_reported":1722694102,"current_range_meters":22800,"station_id":"ce4bhbh2rcd13ifvqeqg","pricing_plan_id":"cebpf4jnsgd1na2vs0mg"},{"bike_id":"0844d277-e657-4da2-9df7-3a7c308c09c8","system_id":"levelo_inurba_marseille","lat":43.300852,"lon":5.390859,"is_reserved":false,"is_disabled":false,"rental_uris":{"android":"levelo://app?vid=0844d277-e657-4da2-9df7-3a7c308c09c8","ios":"levelo://app?vid=0844d277-e657-4da2-9df7-3a7c308c09c8"},"vehicle_type_id":"4","last_reported":1722694102,"current_range_meters":0,"station_id":"ce4bh192rcd13ifvqdb0","pricing_plan_id":"cebpf4jnsgd1na2vs0mg"},{"bike_id":"2206a246-493b-4b8f-82ef-72e01a2837f9","system_id":"levelo_inurba_marseille","lat":43.291675,"lon":5.371583,"is_reserved":false,"is_disabled":false,"rental_uris":{"android":"levelo://app?vid=2206a246-493b-4b8f-82ef-72e01a2837f9","ios":"levelo://app?vid=2206a246-493b-4b8f-82ef-72e01a2837f9"},"vehicle_type_id":"4","last_reported":1722694102,"current_range_meters":5200,"station_id":"ce4bha92rcd13ifvqeh0","pricing_plan_id":"cebpf4jnsgd1na2vs0mg"},{"bike_id":"cbd5af6d-2201-4261-8b05-6ed887786f1e","system_id":"levelo_inurba_marseille","lat":43.292005,"lon":5.357875,"is_reserved":false,"is_disabled":false,"rental_uris":{"android":"levelo://app?vid=cbd5af6d-2201-4261-8b05-6ed887786f1e","ios":"levelo://app?vid=cbd5af6d-2201-4261-8b05-6ed887786f1e"},"vehicle_type_id":"4","last_reported":1722694102,"current_range_meters":29200,"station_id":"ce4bhb12rcd13ifvqel0","pricing_plan_id":"cebpf4jnsgd1na2vs0mg"},{"bike_id":"7071fabd-6878-4764-a36b-756854fd591c","system_id":"levelo_inurba_marseille","lat":43.292005,"lon":5.357875,"is_reserved":false,"is_disabled":false,"rental_uris":{"android":"levelo://app?vid=7071fabd-6878-4764-a36b-756854fd591c","ios":"levelo://app?vid=7071fabd-6878-4764-a36b-756854fd591c"},"vehicle_type_id":"4","last_reported":1722694102,"current_range_meters":800,"station_id":"ce4bhb12rcd13ifvqel0","pricing_plan_id":"cebpf4jnsgd1na2vs0mg"},{"bike_id":"c088f50b-98ed-415d-9aee-a654c852c67c","system_id":"levelo_inurba_marseille","lat":43.309047,"lon":5.396551,"is_reserved":false,"is_disabled":false,"rental_uris":{"android":"levelo://app?vid=c088f50b-98ed-415d-9aee-a654c852c67c","ios":"levelo://app?vid=c088f50b-98ed-415d-9aee-a654c852c67c"},"vehicle_type_id":"4","last_reported":1722694102,"current_range_meters":20400,"station_id":"ce4bh012rcd13ifvqcv0","pricing_plan_id":"cebpf4jnsgd1na2vs0mg"},{"bike_id":"00c16f57-717c-47e3-85ee-b98be661d7d0","system_id":"levelo_inurba_marseille","lat":43.313291,"lon":5.396838,"is_reserved":false,"is_disabled":false,"rental_uris":{"android":"levelo://app?vid=00c16f57-717c-47e3-85ee-b98be661d7d0","ios":"levelo://app?vid=00c16f57-717c-47e3-85ee-b98be661d7d0"},"vehicle_type_id":"4","last_reported":1722694102,"current_range_meters":2400,"station_id":"ce4bgvp2rcd13ifvqcu0","pricing_plan_id":"cebpf4jnsgd1na2vs0mg"},{"bike_id":"2b6bc9b2-4cec-4fdb-bc76-b76930715cd7","system_id":"levelo_inurba_marseille","lat":43.29192,"lon":5.35797,"is_reserved":false,"is_disabled":false,"rental_uris":{"android":"levelo://app?vid=2b6bc9b2-4cec-4fdb-bc76-b76930715cd7","ios":"levelo://app?vid=2b6bc9b2-4cec-4fdb-bc76-b76930715cd7"},"vehicle_type_id":"4","last_reported":1722694102,"current_range_meters":0,"station_id":"ce4bhb12rcd13ifvqel0","pricing_plan_id":"cebpf4jnsgd1na2vs0mg"},{"bike_id":"1923ea39-be1c-41bb-88bf-73a631e68861","system_id":"levelo_inurba_marseille","lat":43.29191,"lon":5.35794,"is_reserved":false,"is_disabled":false,"rental_uris":{"android":"levelo://app?vid=1923ea39-be1c-41bb-88bf-73a631e68861","ios":"levelo://app?vid=1923ea39-be1c-41bb-88bf-73a631e68861"},"vehicle_type_id":"4","last_reported":1722694102,"current_range_meters":10800,"station_id":"ce4bhb12rcd13ifvqel0","pricing_plan_id":"cebpf4jnsgd1na2vs0mg"},{"bike_id":"97b1efc5-6fae-4524-b511-23fc4c5ae5d6","system_id":"levelo_inurba_marseille","lat":43.29187,"lon":5.358,"is_reserved":false,"is_disabled":false,"rental_uris":{"android":"levelo://app?vid=97b1efc5-6fae-4524-b511-23fc4c5ae5d6","ios":"levelo://app?vid=97b1efc5-6fae-4524-b511-23fc4c5ae5d6"},"vehicle_type_id":"4","last_reported":1722694102,"current_range_meters":25600,"station_id":"","pricing_plan_id":"cebpf4jnsgd1na2vs0mg"},{"bike_id":"47b02655-21c5-407d-8c5a-3238c37ce72a","system_id":"levelo_inurba_marseille","lat":43.30875,"lon":5.39654,"is_reserved":false,"is_disabled":false,"rental_uris":{"android":"levelo://app?vid=47b02655-21c5-407d-8c5a-3238c37ce72a","ios":"levelo://app?vid=47b02655-21c5-407d-8c5a-3238c37ce72a"},"vehicle_type_id":"4","last_reported":1722694102,"current_range_meters":15600,"station_id":"ce4bh012rcd13ifvqcv0","pricing_plan_id":"cebpf4jnsgd1na2vs0mg"},{"bike_id":"867ea9d2-3562-4f3d-97c8-6f9e9f790ffd","system_id":"levelo_inurba_marseille","lat":43.313291,"lon":5.396838,"is_reserved":false,"is_disabled":false,"rental_uris":{"android":"levelo://app?vid=867ea9d2-3562-4f3d-97c8-6f9e9f790ffd","ios":"levelo://app?vid=867ea9d2-3562-4f3d-97c8-6f9e9f790ffd"},"vehicle_type_id":"4","last_reported":1722694102,"current_range_meters":31200,"station_id":"ce4bgvp2rcd13ifvqcu0","pricing_plan_id":"cebpf4jnsgd1na2vs0mg"},{"bike_id":"64fd5940-cca6-4f81-a4f4-c0d6968c2690","system_id":"levelo_inurba_marseille","lat":43.29529,"lon":5.385581,"is_reserved":false,"is_disabled":false,"rental_uris":{"android":"levelo://app?vid=64fd5940-cca6-4f81-a4f4-c0d6968c2690","ios":"levelo://app?vid=64fd5940-cca6-4f81-a4f4-c0d6968c2690"},"vehicle_type_id":"4","last_reported":1722694102,"current_range_meters":3200,"station_id":"ce4bgih2rcd13ifvqba0","pricing_plan_id":"cebpf4jnsgd1na2vs0mg"},{"bike_id":"6b5f70b2-ad4c-48c5-9673-deb7295c96c8","system_id":"levelo_inurba_marseille","lat":43.29529,"lon":5.385581,"is_reserved":false,"is_disabled":false,"rental_uris":{"android":"levelo://app?vid=6b5f70b2-ad4c-48c5-9673-deb7295c96c8","ios":"levelo://app?vid=6b5f70b2-ad4c-48c5-9673-deb7295c96c8"},"vehicle_type_id":"4","last_reported":1722694102,"current_range_meters":12800,"station_id":"ce4bgih2rcd13ifvqba0","pricing_plan_id":"cebpf4jnsgd1na2vs0mg"},{"bike_id":"d6823751-b1cf-4369-a0cd-58043a0ce2c2","system_id":"levelo_inurba_marseille","lat":43.323621,"lon":5.394073,"is_reserved":false,"is_disabled":false,"rental_uris":{"android":"levelo://app?vid=d6823751-b1cf-4369-a0cd-58043a0ce2c2","ios":"levelo://app?vid=d6823751-b1cf-4369-a0cd-58043a0ce2c2"},"vehicle_type_id":"4","last_reported":1722694102,"current_range_meters":25600,"station_id":"","pricing_plan_id":"cebpf4jnsgd1na2vs0mg"},{"bike_id":"fb2d5896-7c99-462a-9736-94b3b80bc697","system_id":"levelo_inurba_marseille","lat":43.294162,"lon":5.386292,"is_reserved":false,"is_disabled":false,"rental_uris":{"android":"levelo://app?vid=fb2d5896-7c99-462a-9736-94b3b80bc697","ios":"levelo://app?vid=fb2d5896-7c99-462a-9736-94b3b80bc697"},"vehicle_type_id":"4","last_reported":1722694102,"current_range_meters":0,"station_id":"ce4bh2h2rcd13ifvqdh0","pricing_plan_id":"cebpf4jnsgd1na2vs0mg"},{"bike_id":"4d25d8b4-2b45-4af2-9b28-b6625e3f3d38","system_id":"levelo_inurba_marseille","lat":43.289184,"lon":5.366408,"is_reserved":false,"is_disabled":false,"rental_uris":{"android":"levelo://app?vid=4d25d8b4-2b45-4af2-9b28-b6625e3f3d38","ios":"levelo://app?vid=4d25d8b4-2b45-4af2-9b28-b6625e3f3d38"},"vehicle_type_id":"4","last_reported":1722694102,"current_range_meters":13200,"station_id":"ce4bhap2rcd13ifvqek0","pricing_plan_id":"cebpf4jnsgd1na2vs0mg"},{"bike_id":"d2fbf6f4-b093-4741-bd26-bc030f1e31ab","system_id":"levelo_inurba_marseille","lat":43.289184,"lon":5.366408,"is_reserved":false,"is_disabled":false,"rental_uris":{"android":"levelo://app?vid=d2fbf6f4-b093-4741-bd26-bc030f1e31ab","ios":"levelo://app?vid=d2fbf6f4-b093-4741-bd26-bc030f1e31ab"},"vehicle_type_id":"4","last_reported":1722694102,"current_range_meters":3200,"station_id":"ce4bhap2rcd13ifvqek0","pricing_plan_id":"cebpf4jnsgd1na2vs0mg"},{"bike_id":"a5c4ffe8-af61-465a-b594-66058df7676a","system_id":"levelo_inurba_marseille","lat":43.304296,"lon":5.397513,"is_reserved":false,"is_disabled":false,"rental_uris":{"android":"levelo://app?vid=a5c4ffe8-af61-465a-b594-66058df7676a","ios":"levelo://app?vid=a5c4ffe8-af61-465a-b594-66058df7676a"},"vehicle_type_id":"4","last_reported":1722694102,"current_range_meters":18000,"station_id":"ce4bh092rcd13ifvqd20","pricing_plan_id":"cebpf4jnsgd1na2vs0mg"},{"bike_id":"3a43f983-1a85-4273-8eca-f6707f9697fb","system_id":"levelo_inurba_marseille","lat":43.290104,"lon":5.356111,"is_reserved":false,"is_disabled":false,"rental_uris":{"android":"levelo://app?vid=3a43f983-1a85-4273-8eca-f6707f9697fb","ios":"levelo://app?vid=3a43f983-1a85-4273-8eca-f6707f9697fb"},"vehicle_type_id":"4","last_reported":1722694102,"current_range_meters":29600,"station_id":"ce4bhb92rcd13ifvqen0","pricing_plan_id":"cebpf4jnsgd1na2vs0mg"},{"bike_id":"f6f335be-1876-4547-b149-97f352edc33a","system_id":"levelo_inurba_marseille","lat":43.290103,"lon":5.356114,"is_reserved":false,"is_disabled":false,"rental_uris":{"android":"levelo://app?vid=f6f335be-1876-4547-b149-97f352edc33a","ios":"levelo://app?vid=f6f335be-1876-4547-b149-97f352edc33a"},"vehicle_type_id":"4","last_reported":1722694102,"current_range_meters":27200,"station_id":"ce4bhb92rcd13ifvqen0","pricing_plan_id":"cebpf4jnsgd1na2vs0mg"},{"bike_id":"c00b7d5f-7788-4b36-82a6-58ba3ebad403","system_id":"levelo_inurba_marseille","lat":43.29005,"lon":5.35608,"is_reserved":false,"is_disabled":false,"rental_uris":{"android":"levelo://app?vid=c00b7d5f-7788-4b36-82a6-58ba3ebad403","ios":"levelo://app?vid=c00b7d5f-7788-4b36-82a6-58ba3ebad403"},"vehicle_type_id":"4","last_reported":1722694102,"current_range_meters":0,"station_id":"ce4bhb92rcd13ifvqen0","pricing_plan_id":"cebpf4jnsgd1na2vs0mg"},{"bike_id":"6f6b0402-17c3-4a56-a7bb-844201c398b8","system_id":"levelo_inurba_marseille","lat":43.290103,"lon":5.356114,"is_reserved":false,"is_disabled":false,"rental_uris":{"android":"levelo://app?vid=6f6b0402-17c3-4a56-a7bb-844201c398b8","ios":"levelo://app?vid=6f6b0402-17c3-4a56-a7bb-844201c398b8"},"vehicle_type_id":"4","last_reported":1722694102,"current_range_meters":14800,"station_id":"ce4bhb92rcd13ifvqen0","pricing_plan_id":"cebpf4jnsgd1na2vs0mg"},{"bike_id":"b0baf0c1-720e-40f4-9a57-defdf1240fc1","system_id":"levelo_inurba_marseille","lat":43.290103,"lon":5.356114,"is_reserved":false,"is_disabled":false,"rental_uris":{"android":"levelo://app?vid=b0baf0c1-720e-40f4-9a57-defdf1240fc1","ios":"levelo://app?vid=b0baf0c1-720e-40f4-9a57-defdf1240fc1"},"vehicle_type_id":"4","last_reported":1722694102,"current_range_meters":8400,"station_id":"ce4bhb92rcd13ifvqen0","pricing_plan_id":"cebpf4jnsgd1na2vs0mg"},{"bike_id":"75d6ef45-4dba-4a11-89c7-c0dfc0a1dfaa","system_id":"levelo_inurba_marseille","lat":43.290103,"lon":5.356114,"is_reserved":false,"is_disabled":false,"rental_uris":{"android":"levelo://app?vid=75d6ef45-4dba-4a11-89c7-c0dfc0a1dfaa","ios":"levelo://app?vid=75d6ef45-4dba-4a11-89c7-c0dfc0a1dfaa"},"vehicle_type_id":"4","last_reported":1722694102,"current_range_meters":3200,"station_id":"ce4bhb92rcd13ifvqen0","pricing_plan_id":"cebpf4jnsgd1na2vs0mg"},{"bike_id":"40cc81ef-5543-45de-ac55-5a4b3109a082","system_id":"levelo_inurba_marseille","lat":43.290103,"lon":5.356114,"is_reserved":false,"is_disabled":false,"rental_uris":{"android":"levelo://app?vid=40cc81ef-5543-45de-ac55-5a4b3109a082","ios":"levelo://app?vid=40cc81ef-5543-45de-ac55-5a4b3109a082"},"vehicle_type_id":"4","last_reported":1722694102,"current_range_meters":24400,"station_id":"ce4bhb92rcd13ifvqen0","pricing_plan_id":"cebpf4jnsgd1na2vs0mg"},{"bike_id":"46e96d6b-ae92-44ab-b375-8fdd0a64e14c","system_id":"levelo_inurba_marseille","lat":43.319179,"lon":5.407725,"is_reserved":false,"is_disabled":false,"rental_uris":{"android":"levelo://app?vid=46e96d6b-ae92-44ab-b375-8fdd0a64e14c","ios":"levelo://app?vid=46e96d6b-ae92-44ab-b375-8fdd0a64e14c"},"vehicle_type_id":"4","last_reported":1722694102,"current_range_meters":31200,"station_id":"ce4bhq12rcd13ifvqhig","pricing_plan_id":"cebpf4jnsgd1na2vs0mg"},{"bike_id":"22a0484c-2f15-4146-b16c-89bd17d4935a","system_id":"levelo_inurba_marseille","lat":43.29023,"lon":5.35459,"is_reserved":false,"is_disabled":false,"rental_uris":{"android":"levelo://app?vid=22a0484c-2f15-4146-b16c-89bd17d4935a","ios":"levelo://app?vid=22a0484c-2f15-4146-b16c-89bd17d4935a"},"vehicle_type_id":"4","last_reported":1722694102,"current_range_meters":21200,"station_id":"","pricing_plan_id":"cebpf4jnsgd1na2vs0mg"},{"bike_id":"8ff12d94-7552-4caa-98c5-70f4642bb3d5","system_id":"levelo_inurba_marseille","lat":43.3301,"lon":5.39031,"is_reserved":false,"is_disabled":false,"rental_uris":{"android":"levelo://app?vid=8ff12d94-7552-4caa-98c5-70f4642bb3d5","ios":"levelo://app?vid=8ff12d94-7552-4caa-98c5-70f4642bb3d5"},"vehicle_type_id":"4","last_reported":1722694102,"current_range_meters":10800,"station_id":"ce4bhr92rcd13ifvqhrg","pricing_plan_id":"cebpf4jnsgd1na2vs0mg"},{"bike_id":"5354c2c3-78b1-4b29-acf1-85848b84b1dd","system_id":"levelo_inurba_marseille","lat":43.33017,"lon":5.39033,"is_reserved":false,"is_disabled":false,"rental_uris":{"android":"levelo://app?vid=5354c2c3-78b1-4b29-acf1-85848b84b1dd","ios":"levelo://app?vid=5354c2c3-78b1-4b29-acf1-85848b84b1dd"},"vehicle_type_id":"4","last_reported":1722694102,"current_range_meters":17600,"station_id":"ce4bhr92rcd13ifvqhrg","pricing_plan_id":"cebpf4jnsgd1na2vs0mg"},{"bike_id":"58f85b46-c85c-484a-bcd7-9de93a17eb32","system_id":"levelo_inurba_marseille","lat":43.330237,"lon":5.390377,"is_reserved":false,"is_disabled":false,"rental_uris":{"android":"levelo://app?vid=58f85b46-c85c-484a-bcd7-9de93a17eb32","ios":"levelo://app?vid=58f85b46-c85c-484a-bcd7-9de93a17eb32"},"vehicle_type_id":"4","last_reported":1722694102,"current_range_meters":1200,"station_id":"ce4bhr92rcd13ifvqhrg","pricing_plan_id":"cebpf4jnsgd1na2vs0mg"},{"bike_id":"9c66b3e2-58c7-4054-b121-8f0378f1a263","system_id":"levelo_inurba_marseille","lat":43.33022,"lon":5.39041,"is_reserved":false,"is_disabled":false,"rental_uris":{"android":"levelo://app?vid=9c66b3e2-58c7-4054-b121-8f0378f1a263","ios":"levelo://app?vid=9c66b3e2-58c7-4054-b121-8f0378f1a263"},"vehicle_type_id":"4","last_reported":1722694102,"current_range_meters":31200,"station_id":"ce4bhr92rcd13ifvqhrg","pricing_plan_id":"cebpf4jnsgd1na2vs0mg"},{"bike_id":"ad82c658-0f98-4feb-9b38-99b881d4e006","system_id":"levelo_inurba_marseille","lat":43.330442,"lon":5.389148,"is_reserved":false,"is_disabled":false,"rental_uris":{"android":"levelo://app?vid=ad82c658-0f98-4feb-9b38-99b881d4e006","ios":"levelo://app?vid=ad82c658-0f98-4feb-9b38-99b881d4e006"},"vehicle_type_id":"4","last_reported":1722694102,"current_range_meters":23600,"station_id":"ce4bhr92rcd13ifvqhrg","pricing_plan_id":"cebpf4jnsgd1na2vs0mg"},{"bike_id":"01dc9ef0-8006-488a-b649-944d1611ee61","system_id":"levelo_inurba_marseille","lat":43.33026,"lon":5.39036,"is_reserved":false,"is_disabled":false,"rental_uris":{"android":"levelo://app?vid=01dc9ef0-8006-488a-b649-944d1611ee61","ios":"levelo://app?vid=01dc9ef0-8006-488a-b649-944d1611ee61"},"vehicle_type_id":"4","last_reported":1722694102,"current_range_meters":14800,"station_id":"ce4bhr92rcd13ifvqhrg","pricing_plan_id":"cebpf4jnsgd1na2vs0mg"},{"bike_id":"541415d5-bf5f-4f71-aabc-9bb7d76b4cad","system_id":"levelo_inurba_marseille","lat":43.33026,"lon":5.39036,"is_reserved":false,"is_disabled":false,"rental_uris":{"android":"levelo://app?vid=541415d5-bf5f-4f71-aabc-9bb7d76b4cad","ios":"levelo://app?vid=541415d5-bf5f-4f71-aabc-9bb7d76b4cad"},"vehicle_type_id":"4","last_reported":1722694102,"current_range_meters":21600,"station_id":"ce4bhr92rcd13ifvqhrg","pricing_plan_id":"cebpf4jnsgd1na2vs0mg"},{"bike_id":"4aa94772-9f58-4c7b-8caa-eb1e8a9fd227","system_id":"levelo_inurba_marseille","lat":43.330442,"lon":5.389148,"is_reserved":false,"is_disabled":false,"rental_uris":{"android":"levelo://app?vid=4aa94772-9f58-4c7b-8caa-eb1e8a9fd227","ios":"levelo://app?vid=4aa94772-9f58-4c7b-8caa-eb1e8a9fd227"},"vehicle_type_id":"4","last_reported":1722694102,"current_range_meters":28000,"station_id":"ce4bhr92rcd13ifvqhrg","pricing_plan_id":"cebpf4jnsgd1na2vs0mg"},{"bike_id":"39f6f3da-7fa4-4953-bdd5-8061c04cca21","system_id":"levelo_inurba_marseille","lat":43.33025,"lon":5.39038,"is_reserved":false,"is_disabled":false,"rental_uris":{"android":"levelo://app?vid=39f6f3da-7fa4-4953-bdd5-8061c04cca21","ios":"levelo://app?vid=39f6f3da-7fa4-4953-bdd5-8061c04cca21"},"vehicle_type_id":"4","last_reported":1722694102,"current_range_meters":8000,"station_id":"ce4bhr92rcd13ifvqhrg","pricing_plan_id":"cebpf4jnsgd1na2vs0mg"},{"bike_id":"2742ce8d-75d9-48a8-ad88-2063106ff6bb","system_id":"levelo_inurba_marseille","lat":43.33025,"lon":5.39039,"is_reserved":false,"is_disabled":false,"rental_uris":{"android":"levelo://app?vid=2742ce8d-75d9-48a8-ad88-2063106ff6bb","ios":"levelo://app?vid=2742ce8d-75d9-48a8-ad88-2063106ff6bb"},"vehicle_type_id":"4","last_reported":1722694102,"current_range_meters":8000,"station_id":"ce4bhr92rcd13ifvqhrg","pricing_plan_id":"cebpf4jnsgd1na2vs0mg"},{"bike_id":"b576d70b-fd4a-42fd-b1f8-983ab3ecb4e3","system_id":"levelo_inurba_marseille","lat":43.289741,"lon":5.378306,"is_reserved":false,"is_disabled":false,"rental_uris":{"android":"levelo://app?vid=b576d70b-fd4a-42fd-b1f8-983ab3ecb4e3","ios":"levelo://app?vid=b576d70b-fd4a-42fd-b1f8-983ab3ecb4e3"},"vehicle_type_id":"4","last_reported":1722694102,"current_range_meters":16000,"station_id":"ce4bh9p2rcd13ifvqed0","pricing_plan_id":"cebpf4jnsgd1na2vs0mg"},{"bike_id":"0c9be5e9-c83c-4e09-9645-cae1dc7ac240","system_id":"levelo_inurba_marseille","lat":43.33028,"lon":5.39041,"is_reserved":false,"is_disabled":false,"rental_uris":{"android":"levelo://app?vid=0c9be5e9-c83c-4e09-9645-cae1dc7ac240","ios":"levelo://app?vid=0c9be5e9-c83c-4e09-9645-cae1dc7ac240"},"vehicle_type_id":"4","last_reported":1722694102,"current_range_meters":30800,"station_id":"ce4bhr92rcd13ifvqhrg","pricing_plan_id":"cebpf4jnsgd1na2vs0mg"},{"bike_id":"550a2ea7-451d-45fd-a11c-54b59cf65e27","system_id":"levelo_inurba_marseille","lat":43.33025,"lon":5.39046,"is_reserved":false,"is_disabled":false,"rental_uris":{"android":"levelo://app?vid=550a2ea7-451d-45fd-a11c-54b59cf65e27","ios":"levelo://app?vid=550a2ea7-451d-45fd-a11c-54b59cf65e27"},"vehicle_type_id":"4","last_reported":1722694102,"current_range_meters":30800,"station_id":"ce4bhr92rcd13ifvqhrg","pricing_plan_id":"cebpf4jnsgd1na2vs0mg"},{"bike_id":"27717b97-87d0-40ae-b3da-a00e007cfd4b","system_id":"levelo_inurba_marseille","lat":43.33027,"lon":5.39048,"is_reserved":false,"is_disabled":false,"rental_uris":{"android":"levelo://app?vid=27717b97-87d0-40ae-b3da-a00e007cfd4b","ios":"levelo://app?vid=27717b97-87d0-40ae-b3da-a00e007cfd4b"},"vehicle_type_id":"4","last_reported":1722694102,"current_range_meters":20800,"station_id":"ce4bhr92rcd13ifvqhrg","pricing_plan_id":"cebpf4jnsgd1na2vs0mg"},{"bike_id":"4214c720-8651-477a-94ca-93e38768f07d","system_id":"levelo_inurba_marseille","lat":43.330282,"lon":5.390472,"is_reserved":false,"is_disabled":false,"rental_uris":{"android":"levelo://app?vid=4214c720-8651-477a-94ca-93e38768f07d","ios":"levelo://app?vid=4214c720-8651-477a-94ca-93e38768f07d"},"vehicle_type_id":"4","last_reported":1722694102,"current_range_meters":7600,"station_id":"ce4bhr92rcd13ifvqhrg","pricing_plan_id":"cebpf4jnsgd1na2vs0mg"},{"bike_id":"f1b321e2-68b0-40fb-9e02-02f120b6eedf","system_id":"levelo_inurba_marseille","lat":43.289741,"lon":5.378306,"is_reserved":false,"is_disabled":false,"rental_uris":{"android":"levelo://app?vid=f1b321e2-68b0-40fb-9e02-02f120b6eedf","ios":"levelo://app?vid=f1b321e2-68b0-40fb-9e02-02f120b6eedf"},"vehicle_type_id":"4","last_reported":1722694102,"current_range_meters":14400,"station_id":"ce4bh9p2rcd13ifvqed0","pricing_plan_id":"cebpf4jnsgd1na2vs0mg"},{"bike_id":"59396f2e-4121-4769-a367-e3ba50d66ae9","system_id":"levelo_inurba_marseille","lat":43.2888,"lon":5.35833,"is_reserved":false,"is_disabled":false,"rental_uris":{"android":"levelo://app?vid=59396f2e-4121-4769-a367-e3ba50d66ae9","ios":"levelo://app?vid=59396f2e-4121-4769-a367-e3ba50d66ae9"},"vehicle_type_id":"4","last_reported":1722694102,"current_range_meters":14000,"station_id":"ce4bhb12rcd13ifvqem0","pricing_plan_id":"cebpf4jnsgd1na2vs0mg"},{"bike_id":"02cfd070-a771-4e96-ad43-d9c3fd740e93","system_id":"levelo_inurba_marseille","lat":43.29028,"lon":5.38131,"is_reserved":false,"is_disabled":false,"rental_uris":{"android":"levelo://app?vid=02cfd070-a771-4e96-ad43-d9c3fd740e93","ios":"levelo://app?vid=02cfd070-a771-4e96-ad43-d9c3fd740e93"},"vehicle_type_id":"4","last_reported":1722694102,"current_range_meters":0,"station_id":"ce4bh4p2rcd13ifvqe1g","pricing_plan_id":"cebpf4jnsgd1na2vs0mg"},{"bike_id":"f4cdf6f8-59cc-4926-bbd3-bf830cd7e7b6","system_id":"levelo_inurba_marseille","lat":43.290094,"lon":5.381264,"is_reserved":false,"is_disabled":false,"rental_uris":{"android":"levelo://app?vid=f4cdf6f8-59cc-4926-bbd3-bf830cd7e7b6","ios":"levelo://app?vid=f4cdf6f8-59cc-4926-bbd3-bf830cd7e7b6"},"vehicle_type_id":"4","last_reported":1722694102,"current_range_meters":28800,"station_id":"ce4bh4p2rcd13ifvqe1g","pricing_plan_id":"cebpf4jnsgd1na2vs0mg"},{"bike_id":"23c5b3b4-fc18-4d35-836b-32ad40b6f9fe","system_id":"levelo_inurba_marseille","lat":43.33085,"lon":5.3911,"is_reserved":false,"is_disabled":false,"rental_uris":{"android":"levelo://app?vid=23c5b3b4-fc18-4d35-836b-32ad40b6f9fe","ios":"levelo://app?vid=23c5b3b4-fc18-4d35-836b-32ad40b6f9fe"},"vehicle_type_id":"4","last_reported":1722694102,"current_range_meters":19200,"station_id":"","pricing_plan_id":"cebpf4jnsgd1na2vs0mg"},{"bike_id":"711bbdb7-4aae-43f7-98bc-a00f02c02487","system_id":"levelo_inurba_marseille","lat":43.33741,"lon":5.37446,"is_reserved":false,"is_disabled":false,"rental_uris":{"android":"levelo://app?vid=711bbdb7-4aae-43f7-98bc-a00f02c02487","ios":"levelo://app?vid=711bbdb7-4aae-43f7-98bc-a00f02c02487"},"vehicle_type_id":"4","last_reported":1722694102,"current_range_meters":24800,"station_id":"","pricing_plan_id":"cebpf4jnsgd1na2vs0mg"},{"bike_id":"6f044633-3688-4e83-af67-cf3db97c1cc7","system_id":"levelo_inurba_marseille","lat":43.337444,"lon":5.374475,"is_reserved":false,"is_disabled":false,"rental_uris":{"android":"levelo://app?vid=6f044633-3688-4e83-af67-cf3db97c1cc7","ios":"levelo://app?vid=6f044633-3688-4e83-af67-cf3db97c1cc7"},"vehicle_type_id":"3","last_reported":1722694102,"current_range_meters":24800,"station_id":"","pricing_plan_id":"cebpf4jnsgd1na2vs0mg"},{"bike_id":"f3a5c0ab-b2ac-436f-9f18-abc06f5a8324","system_id":"levelo_inurba_marseille","lat":43.30921,"lon":5.40141,"is_reserved":false,"is_disabled":false,"rental_uris":{"android":"levelo://app?vid=f3a5c0ab-b2ac-436f-9f18-abc06f5a8324","ios":"levelo://app?vid=f3a5c0ab-b2ac-436f-9f18-abc06f5a8324"},"vehicle_type_id":"4","last_reported":1722694102,"current_range_meters":31200,"station_id":"ce4bgvp2rcd13ifvqct0","pricing_plan_id":"cebpf4jnsgd1na2vs0mg"},{"bike_id":"748f740f-f9d3-463c-8508-ff0922caf3ee","system_id":"levelo_inurba_marseille","lat":43.309371,"lon":5.401449,"is_reserved":false,"is_disabled":false,"rental_uris":{"android":"levelo://app?vid=748f740f-f9d3-463c-8508-ff0922caf3ee","ios":"levelo://app?vid=748f740f-f9d3-463c-8508-ff0922caf3ee"},"vehicle_type_id":"4","last_reported":1722694102,"current_range_meters":22400,"station_id":"ce4bgvp2rcd13ifvqct0","pricing_plan_id":"cebpf4jnsgd1na2vs0mg"},{"bike_id":"912e288b-1623-481b-9fdd-903269c356bb","system_id":"levelo_inurba_marseille","lat":43.337503,"lon":5.374507,"is_reserved":false,"is_disabled":false,"rental_uris":{"android":"levelo://app?vid=912e288b-1623-481b-9fdd-903269c356bb","ios":"levelo://app?vid=912e288b-1623-481b-9fdd-903269c356bb"},"vehicle_type_id":"4","last_reported":1722694102,"current_range_meters":0,"station_id":"","pricing_plan_id":"cebpf4jnsgd1na2vs0mg"},{"bike_id":"fe41bbf1-53a8-4903-8a48-eaa539bb1e76","system_id":"levelo_inurba_marseille","lat":43.33762,"lon":5.37439,"is_reserved":false,"is_disabled":false,"rental_uris":{"android":"levelo://app?vid=fe41bbf1-53a8-4903-8a48-eaa539bb1e76","ios":"levelo://app?vid=fe41bbf1-53a8-4903-8a48-eaa539bb1e76"},"vehicle_type_id":"4","last_reported":1722694102,"current_range_meters":8400,"station_id":"","pricing_plan_id":"cebpf4jnsgd1na2vs0mg"},{"bike_id":"64f34ffc-83cc-43ce-91a5-e21925b7dacc","system_id":"levelo_inurba_marseille","lat":43.30646,"lon":5.400958,"is_reserved":false,"is_disabled":false,"rental_uris":{"android":"levelo://app?vid=64f34ffc-83cc-43ce-91a5-e21925b7dacc","ios":"levelo://app?vid=64f34ffc-83cc-43ce-91a5-e21925b7dacc"},"vehicle_type_id":"4","last_reported":1722694102,"current_range_meters":1600,"station_id":"ce4bh112rcd13ifvqda0","pricing_plan_id":"cebpf4jnsgd1na2vs0mg"},{"bike_id":"bac3b540-0f72-4eb1-b0f4-b7260c9119d5","system_id":"levelo_inurba_marseille","lat":43.301117,"lon":5.398795,"is_reserved":false,"is_disabled":false,"rental_uris":{"android":"levelo://app?vid=bac3b540-0f72-4eb1-b0f4-b7260c9119d5","ios":"levelo://app?vid=bac3b540-0f72-4eb1-b0f4-b7260c9119d5"},"vehicle_type_id":"4","last_reported":1722694102,"current_range_meters":18800,"station_id":"ce4bh0h2rcd13ifvqd40","pricing_plan_id":"cebpf4jnsgd1na2vs0mg"},{"bike_id":"dd162a62-8109-44e2-b4a8-e5343ef04266","system_id":"levelo_inurba_marseille","lat":43.286591,"lon":5.363346,"is_reserved":false,"is_disabled":false,"rental_uris":{"android":"levelo://app?vid=dd162a62-8109-44e2-b4a8-e5343ef04266","ios":"levelo://app?vid=dd162a62-8109-44e2-b4a8-e5343ef04266"},"vehicle_type_id":"4","last_reported":1722694102,"current_range_meters":10000,"station_id":"ce4bhah2rcd13ifvqej0","pricing_plan_id":"cebpf4jnsgd1na2vs0mg"},{"bike_id":"5371cf44-5c83-4e41-9bd0-590906b5e2e2","system_id":"levelo_inurba_marseille","lat":43.286591,"lon":5.363346,"is_reserved":false,"is_disabled":false,"rental_uris":{"android":"levelo://app?vid=5371cf44-5c83-4e41-9bd0-590906b5e2e2","ios":"levelo://app?vid=5371cf44-5c83-4e41-9bd0-590906b5e2e2"},"vehicle_type_id":"4","last_reported":1722694102,"current_range_meters":12000,"station_id":"ce4bhah2rcd13ifvqej0","pricing_plan_id":"cebpf4jnsgd1na2vs0mg"},{"bike_id":"67d1a0c7-27a1-47af-99d0-c4eac9856764","system_id":"levelo_inurba_marseille","lat":43.28661,"lon":5.36347,"is_reserved":false,"is_disabled":false,"rental_uris":{"android":"levelo://app?vid=67d1a0c7-27a1-47af-99d0-c4eac9856764","ios":"levelo://app?vid=67d1a0c7-27a1-47af-99d0-c4eac9856764"},"vehicle_type_id":"4","last_reported":1722694102,"current_range_meters":0,"station_id":"ce4bhah2rcd13ifvqej0","pricing_plan_id":"cebpf4jnsgd1na2vs0mg"},{"bike_id":"9dedd49a-28f0-4494-8303-3a2f8c271654","system_id":"levelo_inurba_marseille","lat":43.286593,"lon":5.363346,"is_reserved":false,"is_disabled":false,"rental_uris":{"android":"levelo://app?vid=9dedd49a-28f0-4494-8303-3a2f8c271654","ios":"levelo://app?vid=9dedd49a-28f0-4494-8303-3a2f8c271654"},"vehicle_type_id":"4","last_reported":1722694102,"current_range_meters":400,"station_id":"ce4bhah2rcd13ifvqej0","pricing_plan_id":"cebpf4jnsgd1na2vs0mg"},{"bike_id":"1a91a567-c0ab-4516-b639-88192e360457","system_id":"levelo_inurba_marseille","lat":43.289116,"lon":5.384333,"is_reserved":false,"is_disabled":false,"rental_uris":{"android":"levelo://app?vid=1a91a567-c0ab-4516-b639-88192e360457","ios":"levelo://app?vid=1a91a567-c0ab-4516-b639-88192e360457"},"vehicle_type_id":"4","last_reported":1722694102,"current_range_meters":30400,"station_id":"ce4bh612rcd13ifvqe6g","pricing_plan_id":"cebpf4jnsgd1na2vs0mg"},{"bike_id":"c86d06c5-8b9a-4e03-a983-ff8027fb40ee","system_id":"levelo_inurba_marseille","lat":43.30193,"lon":5.4007,"is_reserved":false,"is_disabled":false,"rental_uris":{"android":"levelo://app?vid=c86d06c5-8b9a-4e03-a983-ff8027fb40ee","ios":"levelo://app?vid=c86d06c5-8b9a-4e03-a983-ff8027fb40ee"},"vehicle_type_id":"4","last_reported":1722694102,"current_range_meters":10000,"station_id":"","pricing_plan_id":"cebpf4jnsgd1na2vs0mg"},{"bike_id":"a8f49bb9-3e3f-446d-a97e-52a04cb4f75c","system_id":"levelo_inurba_marseille","lat":43.287184,"lon":5.37937,"is_reserved":false,"is_disabled":false,"rental_uris":{"android":"levelo://app?vid=a8f49bb9-3e3f-446d-a97e-52a04cb4f75c","ios":"levelo://app?vid=a8f49bb9-3e3f-446d-a97e-52a04cb4f75c"},"vehicle_type_id":"4","last_reported":1722694102,"current_range_meters":0,"station_id":"ce4bh9p2rcd13ifvqec0","pricing_plan_id":"cebpf4jnsgd1na2vs0mg"},{"bike_id":"4311b3bc-c577-46b4-8466-4fb136eada83","system_id":"levelo_inurba_marseille","lat":43.316828,"lon":5.404723,"is_reserved":false,"is_disabled":false,"rental_uris":{"android":"levelo://app?vid=4311b3bc-c577-46b4-8466-4fb136eada83","ios":"levelo://app?vid=4311b3bc-c577-46b4-8466-4fb136eada83"},"vehicle_type_id":"4","last_reported":1722694102,"current_range_meters":17200,"station_id":"ce4bh012rcd13ifvqd00","pricing_plan_id":"cebpf4jnsgd1na2vs0mg"},{"bike_id":"cdd33631-131d-40cb-992a-853914b439ae","system_id":"levelo_inurba_marseille","lat":43.316821,"lon":5.404737,"is_reserved":false,"is_disabled":false,"rental_uris":{"android":"levelo://app?vid=cdd33631-131d-40cb-992a-853914b439ae","ios":"levelo://app?vid=cdd33631-131d-40cb-992a-853914b439ae"},"vehicle_type_id":"4","last_reported":1722694102,"current_range_meters":28400,"station_id":"ce4bh012rcd13ifvqd00","pricing_plan_id":"cebpf4jnsgd1na2vs0mg"},{"bike_id":"c408e22e-d3a2-484a-acdc-aa60b7c2a26f","system_id":"levelo_inurba_marseille","lat":43.316828,"lon":5.404723,"is_reserved":false,"is_disabled":false,"rental_uris":{"android":"levelo://app?vid=c408e22e-d3a2-484a-acdc-aa60b7c2a26f","ios":"levelo://app?vid=c408e22e-d3a2-484a-acdc-aa60b7c2a26f"},"vehicle_type_id":"4","last_reported":1722694102,"current_range_meters":27200,"station_id":"ce4bh012rcd13ifvqd00","pricing_plan_id":"cebpf4jnsgd1na2vs0mg"},{"bike_id":"e28bbef7-6e21-4e6a-8395-ec16f7c0c035","system_id":"levelo_inurba_marseille","lat":43.316828,"lon":5.404723,"is_reserved":false,"is_disabled":false,"rental_uris":{"android":"levelo://app?vid=e28bbef7-6e21-4e6a-8395-ec16f7c0c035","ios":"levelo://app?vid=e28bbef7-6e21-4e6a-8395-ec16f7c0c035"},"vehicle_type_id":"4","last_reported":1722694102,"current_range_meters":22400,"station_id":"ce4bh012rcd13ifvqd00","pricing_plan_id":"cebpf4jnsgd1na2vs0mg"},{"bike_id":"bcbaea84-1621-4de7-822e-720511be1402","system_id":"levelo_inurba_marseille","lat":43.316821,"lon":5.404737,"is_reserved":false,"is_disabled":false,"rental_uris":{"android":"levelo://app?vid=bcbaea84-1621-4de7-822e-720511be1402","ios":"levelo://app?vid=bcbaea84-1621-4de7-822e-720511be1402"},"vehicle_type_id":"4","last_reported":1722694102,"current_range_meters":29200,"station_id":"ce4bh012rcd13ifvqd00","pricing_plan_id":"cebpf4jnsgd1na2vs0mg"},{"bike_id":"6c187f6c-c11c-4d7f-a884-dd468686b12c","system_id":"levelo_inurba_marseille","lat":43.291994,"lon":5.392907,"is_reserved":false,"is_disabled":false,"rental_uris":{"android":"levelo://app?vid=6c187f6c-c11c-4d7f-a884-dd468686b12c","ios":"levelo://app?vid=6c187f6c-c11c-4d7f-a884-dd468686b12c"},"vehicle_type_id":"4","last_reported":1722694102,"current_range_meters":26000,"station_id":"ce4bh192rcd13ifvqdd0","pricing_plan_id":"cebpf4jnsgd1na2vs0mg"},{"bike_id":"72414285-2307-4d48-98f2-4cc7ffa240ac","system_id":"levelo_inurba_marseille","lat":43.291994,"lon":5.392907,"is_reserved":false,"is_disabled":false,"rental_uris":{"android":"levelo://app?vid=72414285-2307-4d48-98f2-4cc7ffa240ac","ios":"levelo://app?vid=72414285-2307-4d48-98f2-4cc7ffa240ac"},"vehicle_type_id":"4","last_reported":1722694102,"current_range_meters":5600,"station_id":"ce4bh192rcd13ifvqdd0","pricing_plan_id":"cebpf4jnsgd1na2vs0mg"},{"bike_id":"18ce738e-3c2d-4ae5-aeef-03473167b2d8","system_id":"levelo_inurba_marseille","lat":43.284534,"lon":5.358662,"is_reserved":false,"is_disabled":false,"rental_uris":{"android":"levelo://app?vid=18ce738e-3c2d-4ae5-aeef-03473167b2d8","ios":"levelo://app?vid=18ce738e-3c2d-4ae5-aeef-03473167b2d8"},"vehicle_type_id":"4","last_reported":1722694102,"current_range_meters":6800,"station_id":"ce4bhah2rcd13ifvqei0","pricing_plan_id":"cebpf4jnsgd1na2vs0mg"},{"bike_id":"2bcbc515-7521-4eda-bab4-a63c91e06b77","system_id":"levelo_inurba_marseille","lat":43.285848,"lon":5.350787,"is_reserved":false,"is_disabled":false,"rental_uris":{"android":"levelo://app?vid=2bcbc515-7521-4eda-bab4-a63c91e06b77","ios":"levelo://app?vid=2bcbc515-7521-4eda-bab4-a63c91e06b77"},"vehicle_type_id":"4","last_reported":1722694102,"current_range_meters":8800,"station_id":"ce4bhch2rcd13ifvqeug","pricing_plan_id":"cebpf4jnsgd1na2vs0mg"},{"bike_id":"02041f4a-0df6-452f-a45f-2bcb0c5228c9","system_id":"levelo_inurba_marseille","lat":43.285848,"lon":5.350787,"is_reserved":false,"is_disabled":false,"rental_uris":{"android":"levelo://app?vid=02041f4a-0df6-452f-a45f-2bcb0c5228c9","ios":"levelo://app?vid=02041f4a-0df6-452f-a45f-2bcb0c5228c9"},"vehicle_type_id":"4","last_reported":1722694102,"current_range_meters":0,"station_id":"ce4bhch2rcd13ifvqeug","pricing_plan_id":"cebpf4jnsgd1na2vs0mg"},{"bike_id":"d5f3c1a6-d32c-4777-84bf-707ef7ced64e","system_id":"levelo_inurba_marseille","lat":43.286039,"lon":5.370679,"is_reserved":false,"is_disabled":false,"rental_uris":{"android":"levelo://app?vid=d5f3c1a6-d32c-4777-84bf-707ef7ced64e","ios":"levelo://app?vid=d5f3c1a6-d32c-4777-84bf-707ef7ced64e"},"vehicle_type_id":"4","last_reported":1722694102,"current_range_meters":29200,"station_id":"ce4bht12rcd13ifvqi60","pricing_plan_id":"cebpf4jnsgd1na2vs0mg"},{"bike_id":"76eb8d1e-d789-46b7-9514-7734250fa8ee","system_id":"levelo_inurba_marseille","lat":43.285848,"lon":5.350787,"is_reserved":false,"is_disabled":false,"rental_uris":{"android":"levelo://app?vid=76eb8d1e-d789-46b7-9514-7734250fa8ee","ios":"levelo://app?vid=76eb8d1e-d789-46b7-9514-7734250fa8ee"},"vehicle_type_id":"4","last_reported":1722694102,"current_range_meters":28000,"station_id":"ce4bhch2rcd13ifvqeug","pricing_plan_id":"cebpf4jnsgd1na2vs0mg"},{"bike_id":"56464b9a-2d60-4521-af27-83c1e53b50c9","system_id":"levelo_inurba_marseille","lat":43.2862,"lon":5.35102,"is_reserved":false,"is_disabled":false,"rental_uris":{"android":"levelo://app?vid=56464b9a-2d60-4521-af27-83c1e53b50c9","ios":"levelo://app?vid=56464b9a-2d60-4521-af27-83c1e53b50c9"},"vehicle_type_id":"4","last_reported":1722694102,"current_range_meters":31200,"station_id":"ce4bhch2rcd13ifvqeug","pricing_plan_id":"cebpf4jnsgd1na2vs0mg"},{"bike_id":"99eac6af-6243-4736-a7bb-372e5ebf2c52","system_id":"levelo_inurba_marseille","lat":43.286039,"lon":5.370679,"is_reserved":false,"is_disabled":false,"rental_uris":{"android":"levelo://app?vid=99eac6af-6243-4736-a7bb-372e5ebf2c52","ios":"levelo://app?vid=99eac6af-6243-4736-a7bb-372e5ebf2c52"},"vehicle_type_id":"4","last_reported":1722694102,"current_range_meters":3200,"station_id":"ce4bht12rcd13ifvqi60","pricing_plan_id":"cebpf4jnsgd1na2vs0mg"},{"bike_id":"ec2a6468-b2f6-4e2d-9b4f-58ed742d9963","system_id":"levelo_inurba_marseille","lat":43.285848,"lon":5.350787,"is_reserved":false,"is_disabled":false,"rental_uris":{"android":"levelo://app?vid=ec2a6468-b2f6-4e2d-9b4f-58ed742d9963","ios":"levelo://app?vid=ec2a6468-b2f6-4e2d-9b4f-58ed742d9963"},"vehicle_type_id":"4","last_reported":1722694102,"current_range_meters":31200,"station_id":"ce4bhch2rcd13ifvqeug","pricing_plan_id":"cebpf4jnsgd1na2vs0mg"},{"bike_id":"329594b3-d280-413f-a816-f053bd3a6b7a","system_id":"levelo_inurba_marseille","lat":43.273613,"lon":5.362705,"is_reserved":false,"is_disabled":false,"rental_uris":{"android":"levelo://app?vid=329594b3-d280-413f-a816-f053bd3a6b7a","ios":"levelo://app?vid=329594b3-d280-413f-a816-f053bd3a6b7a"},"vehicle_type_id":"4","last_reported":1722694102,"current_range_meters":26000,"station_id":"ce4bhbh2rcd13ifvqeo0","pricing_plan_id":"cebpf4jnsgd1na2vs0mg"},{"bike_id":"62696340-fc81-41b7-8121-b3871bf36e00","system_id":"levelo_inurba_marseille","lat":43.28617,"lon":5.351017,"is_reserved":false,"is_disabled":false,"rental_uris":{"android":"levelo://app?vid=62696340-fc81-41b7-8121-b3871bf36e00","ios":"levelo://app?vid=62696340-fc81-41b7-8121-b3871bf36e00"},"vehicle_type_id":"4","last_reported":1722694102,"current_range_meters":30800,"station_id":"ce4bhch2rcd13ifvqeug","pricing_plan_id":"cebpf4jnsgd1na2vs0mg"},{"bike_id":"9e6b96f3-74c5-4490-8ead-e421e7c0b6fd","system_id":"levelo_inurba_marseille","lat":43.28616,"lon":5.35103,"is_reserved":false,"is_disabled":false,"rental_uris":{"android":"levelo://app?vid=9e6b96f3-74c5-4490-8ead-e421e7c0b6fd","ios":"levelo://app?vid=9e6b96f3-74c5-4490-8ead-e421e7c0b6fd"},"vehicle_type_id":"4","last_reported":1722694102,"current_range_meters":13600,"station_id":"ce4bhch2rcd13ifvqeug","pricing_plan_id":"cebpf4jnsgd1na2vs0mg"},{"bike_id":"b8529166-403d-4a63-bbbd-2c83852f897e","system_id":"levelo_inurba_marseille","lat":43.285848,"lon":5.350787,"is_reserved":false,"is_disabled":false,"rental_uris":{"android":"levelo://app?vid=b8529166-403d-4a63-bbbd-2c83852f897e","ios":"levelo://app?vid=b8529166-403d-4a63-bbbd-2c83852f897e"},"vehicle_type_id":"4","last_reported":1722694102,"current_range_meters":25600,"station_id":"ce4bhch2rcd13ifvqeug","pricing_plan_id":"cebpf4jnsgd1na2vs0mg"},{"bike_id":"dd551d82-89f3-4ade-88c7-a4de21e7643d","system_id":"levelo_inurba_marseille","lat":43.285856,"lon":5.350771,"is_reserved":false,"is_disabled":false,"rental_uris":{"android":"levelo://app?vid=dd551d82-89f3-4ade-88c7-a4de21e7643d","ios":"levelo://app?vid=dd551d82-89f3-4ade-88c7-a4de21e7643d"},"vehicle_type_id":"4","last_reported":1722694102,"current_range_meters":11600,"station_id":"ce4bhch2rcd13ifvqeug","pricing_plan_id":"cebpf4jnsgd1na2vs0mg"},{"bike_id":"b987380e-cff3-40ef-af17-b443bbe5a6a9","system_id":"levelo_inurba_marseille","lat":43.285856,"lon":5.350771,"is_reserved":false,"is_disabled":false,"rental_uris":{"android":"levelo://app?vid=b987380e-cff3-40ef-af17-b443bbe5a6a9","ios":"levelo://app?vid=b987380e-cff3-40ef-af17-b443bbe5a6a9"},"vehicle_type_id":"4","last_reported":1722694102,"current_range_meters":13200,"station_id":"ce4bhch2rcd13ifvqeug","pricing_plan_id":"cebpf4jnsgd1na2vs0mg"},{"bike_id":"71128bdb-c45b-4681-b73c-71a5f8051465","system_id":"levelo_inurba_marseille","lat":43.28614,"lon":5.35099,"is_reserved":false,"is_disabled":false,"rental_uris":{"android":"levelo://app?vid=71128bdb-c45b-4681-b73c-71a5f8051465","ios":"levelo://app?vid=71128bdb-c45b-4681-b73c-71a5f8051465"},"vehicle_type_id":"4","last_reported":1722694102,"current_range_meters":800,"station_id":"ce4bhch2rcd13ifvqeug","pricing_plan_id":"cebpf4jnsgd1na2vs0mg"},{"bike_id":"5f676914-0f70-4e20-9470-3a0b0736dbd8","system_id":"levelo_inurba_marseille","lat":43.285856,"lon":5.350771,"is_reserved":false,"is_disabled":false,"rental_uris":{"android":"levelo://app?vid=5f676914-0f70-4e20-9470-3a0b0736dbd8","ios":"levelo://app?vid=5f676914-0f70-4e20-9470-3a0b0736dbd8"},"vehicle_type_id":"4","last_reported":1722694102,"current_range_meters":12400,"station_id":"ce4bhch2rcd13ifvqeug","pricing_plan_id":"cebpf4jnsgd1na2vs0mg"},{"bike_id":"f15be48f-b236-4c95-b3e7-5a6d78839d4d","system_id":"levelo_inurba_marseille","lat":43.28607,"lon":5.35102,"is_reserved":false,"is_disabled":false,"rental_uris":{"android":"levelo://app?vid=f15be48f-b236-4c95-b3e7-5a6d78839d4d","ios":"levelo://app?vid=f15be48f-b236-4c95-b3e7-5a6d78839d4d"},"vehicle_type_id":"4","last_reported":1722694102,"current_range_meters":10800,"station_id":"ce4bhch2rcd13ifvqeug","pricing_plan_id":"cebpf4jnsgd1na2vs0mg"},{"bike_id":"62224a3b-c5ea-49c3-96c7-d674115c6847","system_id":"levelo_inurba_marseille","lat":43.283998,"lon":5.375062,"is_reserved":false,"is_disabled":false,"rental_uris":{"android":"levelo://app?vid=62224a3b-c5ea-49c3-96c7-d674115c6847","ios":"levelo://app?vid=62224a3b-c5ea-49c3-96c7-d674115c6847"},"vehicle_type_id":"4","last_reported":1722694102,"current_range_meters":0,"station_id":"ce4bh412rcd13ifvqds0","pricing_plan_id":"cebpf4jnsgd1na2vs0mg"},{"bike_id":"4a5482ac-4e51-4261-871c-7dc11d9a68c6","system_id":"levelo_inurba_marseille","lat":43.295713,"lon":5.399639,"is_reserved":false,"is_disabled":false,"rental_uris":{"android":"levelo://app?vid=4a5482ac-4e51-4261-871c-7dc11d9a68c6","ios":"levelo://app?vid=4a5482ac-4e51-4261-871c-7dc11d9a68c6"},"vehicle_type_id":"4","last_reported":1722694102,"current_range_meters":11200,"station_id":"ce4bh312rcd13ifvqdj0","pricing_plan_id":"cebpf4jnsgd1na2vs0mg"},{"bike_id":"d15147ec-70fc-4359-9265-da06ccd4617b","system_id":"levelo_inurba_marseille","lat":43.295713,"lon":5.399639,"is_reserved":false,"is_disabled":false,"rental_uris":{"android":"levelo://app?vid=d15147ec-70fc-4359-9265-da06ccd4617b","ios":"levelo://app?vid=d15147ec-70fc-4359-9265-da06ccd4617b"},"vehicle_type_id":"4","last_reported":1722694102,"current_range_meters":20000,"station_id":"ce4bh312rcd13ifvqdj0","pricing_plan_id":"cebpf4jnsgd1na2vs0mg"},{"bike_id":"97b435be-880a-4a01-9f02-b2b6890c4b8a","system_id":"levelo_inurba_marseille","lat":43.29567,"lon":5.39979,"is_reserved":false,"is_disabled":false,"rental_uris":{"android":"levelo://app?vid=97b435be-880a-4a01-9f02-b2b6890c4b8a","ios":"levelo://app?vid=97b435be-880a-4a01-9f02-b2b6890c4b8a"},"vehicle_type_id":"4","last_reported":1722694102,"current_range_meters":0,"station_id":"ce4bh312rcd13ifvqdj0","pricing_plan_id":"cebpf4jnsgd1na2vs0mg"},{"bike_id":"642dc755-6c60-4fd3-99b4-0947f26f5065","system_id":"levelo_inurba_marseille","lat":43.295713,"lon":5.399639,"is_reserved":false,"is_disabled":false,"rental_uris":{"android":"levelo://app?vid=642dc755-6c60-4fd3-99b4-0947f26f5065","ios":"levelo://app?vid=642dc755-6c60-4fd3-99b4-0947f26f5065"},"vehicle_type_id":"4","last_reported":1722694102,"current_range_meters":25200,"station_id":"ce4bh312rcd13ifvqdj0","pricing_plan_id":"cebpf4jnsgd1na2vs0mg"},{"bike_id":"20b40e51-4e87-4ea8-b19e-295f6d874002","system_id":"levelo_inurba_marseille","lat":43.283998,"lon":5.375062,"is_reserved":false,"is_disabled":false,"rental_uris":{"android":"levelo://app?vid=20b40e51-4e87-4ea8-b19e-295f6d874002","ios":"levelo://app?vid=20b40e51-4e87-4ea8-b19e-295f6d874002"},"vehicle_type_id":"4","last_reported":1722694102,"current_range_meters":24400,"station_id":"ce4bh412rcd13ifvqds0","pricing_plan_id":"cebpf4jnsgd1na2vs0mg"},{"bike_id":"9e45a381-b86e-44dc-a49a-5358e1d92f3d","system_id":"levelo_inurba_marseille","lat":43.283998,"lon":5.375062,"is_reserved":false,"is_disabled":false,"rental_uris":{"android":"levelo://app?vid=9e45a381-b86e-44dc-a49a-5358e1d92f3d","ios":"levelo://app?vid=9e45a381-b86e-44dc-a49a-5358e1d92f3d"},"vehicle_type_id":"4","last_reported":1722694102,"current_range_meters":22800,"station_id":"ce4bh412rcd13ifvqds0","pricing_plan_id":"cebpf4jnsgd1na2vs0mg"},{"bike_id":"48bf1e98-0ef4-478b-8457-530b1f851393","system_id":"levelo_inurba_marseille","lat":43.33221,"lon":5.39804,"is_reserved":false,"is_disabled":false,"rental_uris":{"android":"levelo://app?vid=48bf1e98-0ef4-478b-8457-530b1f851393","ios":"levelo://app?vid=48bf1e98-0ef4-478b-8457-530b1f851393"},"vehicle_type_id":"4","last_reported":1722694102,"current_range_meters":23200,"station_id":"","pricing_plan_id":"cebpf4jnsgd1na2vs0mg"},{"bike_id":"5412b588-3528-469d-9c99-7aaac0587300","system_id":"levelo_inurba_marseille","lat":43.319179,"lon":5.407725,"is_reserved":false,"is_disabled":false,"rental_uris":{"android":"levelo://app?vid=5412b588-3528-469d-9c99-7aaac0587300","ios":"levelo://app?vid=5412b588-3528-469d-9c99-7aaac0587300"},"vehicle_type_id":"4","last_reported":1722694102,"current_range_meters":28400,"station_id":"ce4bhq12rcd13ifvqhig","pricing_plan_id":"cebpf4jnsgd1na2vs0mg"},{"bike_id":"0ccac908-f470-46a5-9dc3-292c70a883ab","system_id":"levelo_inurba_marseille","lat":43.319179,"lon":5.407725,"is_reserved":false,"is_disabled":false,"rental_uris":{"android":"levelo://app?vid=0ccac908-f470-46a5-9dc3-292c70a883ab","ios":"levelo://app?vid=0ccac908-f470-46a5-9dc3-292c70a883ab"},"vehicle_type_id":"4","last_reported":1722694102,"current_range_meters":25200,"station_id":"ce4bhq12rcd13ifvqhig","pricing_plan_id":"cebpf4jnsgd1na2vs0mg"},{"bike_id":"75e9a398-ea02-4ca4-b1f6-5de15438791c","system_id":"levelo_inurba_marseille","lat":43.319179,"lon":5.407725,"is_reserved":false,"is_disabled":false,"rental_uris":{"android":"levelo://app?vid=75e9a398-ea02-4ca4-b1f6-5de15438791c","ios":"levelo://app?vid=75e9a398-ea02-4ca4-b1f6-5de15438791c"},"vehicle_type_id":"4","last_reported":1722694102,"current_range_meters":6400,"station_id":"ce4bhq12rcd13ifvqhig","pricing_plan_id":"cebpf4jnsgd1na2vs0mg"},{"bike_id":"87534628-aae9-4a1a-9f08-9c59a0fee064","system_id":"levelo_inurba_marseille","lat":43.33717,"lon":5.391857,"is_reserved":false,"is_disabled":false,"rental_uris":{"android":"levelo://app?vid=87534628-aae9-4a1a-9f08-9c59a0fee064","ios":"levelo://app?vid=87534628-aae9-4a1a-9f08-9c59a0fee064"},"vehicle_type_id":"4","last_reported":1722694102,"current_range_meters":2000,"station_id":"ce4bhr92rcd13ifvqhsg","pricing_plan_id":"cebpf4jnsgd1na2vs0mg"},{"bike_id":"fcc95342-2a16-41f7-932f-3a14f9a57fb7","system_id":"levelo_inurba_marseille","lat":43.33717,"lon":5.391857,"is_reserved":false,"is_disabled":false,"rental_uris":{"android":"levelo://app?vid=fcc95342-2a16-41f7-932f-3a14f9a57fb7","ios":"levelo://app?vid=fcc95342-2a16-41f7-932f-3a14f9a57fb7"},"vehicle_type_id":"4","last_reported":1722694102,"current_range_meters":30800,"station_id":"ce4bhr92rcd13ifvqhsg","pricing_plan_id":"cebpf4jnsgd1na2vs0mg"},{"bike_id":"2d38b7c3-b3ba-41d8-833e-4a63852a23db","system_id":"levelo_inurba_marseille","lat":43.33717,"lon":5.391857,"is_reserved":false,"is_disabled":false,"rental_uris":{"android":"levelo://app?vid=2d38b7c3-b3ba-41d8-833e-4a63852a23db","ios":"levelo://app?vid=2d38b7c3-b3ba-41d8-833e-4a63852a23db"},"vehicle_type_id":"4","last_reported":1722694102,"current_range_meters":8000,"station_id":"ce4bhr92rcd13ifvqhsg","pricing_plan_id":"cebpf4jnsgd1na2vs0mg"},{"bike_id":"a3ecfcfa-8f47-4a7d-b333-50b2ad2aa4dd","system_id":"levelo_inurba_marseille","lat":43.337168,"lon":5.391825,"is_reserved":false,"is_disabled":false,"rental_uris":{"android":"levelo://app?vid=a3ecfcfa-8f47-4a7d-b333-50b2ad2aa4dd","ios":"levelo://app?vid=a3ecfcfa-8f47-4a7d-b333-50b2ad2aa4dd"},"vehicle_type_id":"4","last_reported":1722694102,"current_range_meters":2400,"station_id":"ce4bhr92rcd13ifvqhsg","pricing_plan_id":"cebpf4jnsgd1na2vs0mg"},{"bike_id":"12f46083-add6-4a12-ae1c-bc11339a8f7c","system_id":"levelo_inurba_marseille","lat":43.337168,"lon":5.391825,"is_reserved":false,"is_disabled":false,"rental_uris":{"android":"levelo://app?vid=12f46083-add6-4a12-ae1c-bc11339a8f7c","ios":"levelo://app?vid=12f46083-add6-4a12-ae1c-bc11339a8f7c"},"vehicle_type_id":"4","last_reported":1722694102,"current_range_meters":800,"station_id":"ce4bhr92rcd13ifvqhsg","pricing_plan_id":"cebpf4jnsgd1na2vs0mg"},{"bike_id":"c33f213e-202a-4662-b1f3-3fea3e8836f4","system_id":"levelo_inurba_marseille","lat":43.323464,"lon":5.406297,"is_reserved":false,"is_disabled":false,"rental_uris":{"android":"levelo://app?vid=c33f213e-202a-4662-b1f3-3fea3e8836f4","ios":"levelo://app?vid=c33f213e-202a-4662-b1f3-3fea3e8836f4"},"vehicle_type_id":"4","last_reported":1722694102,"current_range_meters":4800,"station_id":"ce4bhq92rcd13ifvqhjg","pricing_plan_id":"cebpf4jnsgd1na2vs0mg"},{"bike_id":"1bd0a61d-ca45-4b9d-9e29-322f6a24c67f","system_id":"levelo_inurba_marseille","lat":43.323464,"lon":5.406297,"is_reserved":false,"is_disabled":false,"rental_uris":{"android":"levelo://app?vid=1bd0a61d-ca45-4b9d-9e29-322f6a24c67f","ios":"levelo://app?vid=1bd0a61d-ca45-4b9d-9e29-322f6a24c67f"},"vehicle_type_id":"4","last_reported":1722694102,"current_range_meters":30000,"station_id":"ce4bhq92rcd13ifvqhjg","pricing_plan_id":"cebpf4jnsgd1na2vs0mg"},{"bike_id":"f7c3d11c-809e-426c-ab66-af0537b1886e","system_id":"levelo_inurba_marseille","lat":43.337168,"lon":5.391825,"is_reserved":false,"is_disabled":false,"rental_uris":{"android":"levelo://app?vid=f7c3d11c-809e-426c-ab66-af0537b1886e","ios":"levelo://app?vid=f7c3d11c-809e-426c-ab66-af0537b1886e"},"vehicle_type_id":"4","last_reported":1722694102,"current_range_meters":14800,"station_id":"ce4bhr92rcd13ifvqhsg","pricing_plan_id":"cebpf4jnsgd1na2vs0mg"},{"bike_id":"0501fed2-4580-49bc-b5d1-7a481a881322","system_id":"levelo_inurba_marseille","lat":43.3234,"lon":5.40627,"is_reserved":false,"is_disabled":false,"rental_uris":{"android":"levelo://app?vid=0501fed2-4580-49bc-b5d1-7a481a881322","ios":"levelo://app?vid=0501fed2-4580-49bc-b5d1-7a481a881322"},"vehicle_type_id":"4","last_reported":1722694102,"current_range_meters":0,"station_id":"ce4bhq92rcd13ifvqhjg","pricing_plan_id":"cebpf4jnsgd1na2vs0mg"},{"bike_id":"966e97af-1cee-4047-a9c7-e3fde82961ce","system_id":"levelo_inurba_marseille","lat":43.284793,"lon":5.384113,"is_reserved":false,"is_disabled":false,"rental_uris":{"android":"levelo://app?vid=966e97af-1cee-4047-a9c7-e3fde82961ce","ios":"levelo://app?vid=966e97af-1cee-4047-a9c7-e3fde82961ce"},"vehicle_type_id":"4","last_reported":1722694102,"current_range_meters":0,"station_id":"ce4bh512rcd13ifvqe3g","pricing_plan_id":"cebpf4jnsgd1na2vs0mg"},{"bike_id":"b147fc03-6208-48a7-a783-e2a0e177c31e","system_id":"levelo_inurba_marseille","lat":43.297946,"lon":5.404063,"is_reserved":false,"is_disabled":false,"rental_uris":{"android":"levelo://app?vid=b147fc03-6208-48a7-a783-e2a0e177c31e","ios":"levelo://app?vid=b147fc03-6208-48a7-a783-e2a0e177c31e"},"vehicle_type_id":"4","last_reported":1722694102,"current_range_meters":28000,"station_id":"ce4bh112rcd13ifvqd90","pricing_plan_id":"cebpf4jnsgd1na2vs0mg"},{"bike_id":"afd5bcf4-d6b6-4cc8-b27b-f6ef2e16b4d3","system_id":"levelo_inurba_marseille","lat":43.288501,"lon":5.393087,"is_reserved":false,"is_disabled":false,"rental_uris":{"android":"levelo://app?vid=afd5bcf4-d6b6-4cc8-b27b-f6ef2e16b4d3","ios":"levelo://app?vid=afd5bcf4-d6b6-4cc8-b27b-f6ef2e16b4d3"},"vehicle_type_id":"4","last_reported":1722694102,"current_range_meters":24400,"station_id":"ce4bh2p2rcd13ifvqdi0","pricing_plan_id":"cebpf4jnsgd1na2vs0mg"},{"bike_id":"26cc3d2d-e08d-43b8-b7d4-52e624cb473e","system_id":"levelo_inurba_marseille","lat":43.29795,"lon":5.404086,"is_reserved":false,"is_disabled":false,"rental_uris":{"android":"levelo://app?vid=26cc3d2d-e08d-43b8-b7d4-52e624cb473e","ios":"levelo://app?vid=26cc3d2d-e08d-43b8-b7d4-52e624cb473e"},"vehicle_type_id":"4","last_reported":1722694102,"current_range_meters":2000,"station_id":"ce4bh112rcd13ifvqd90","pricing_plan_id":"cebpf4jnsgd1na2vs0mg"},{"bike_id":"1e88f1ca-bcb3-420b-8c8c-791756e3a1f6","system_id":"levelo_inurba_marseille","lat":43.284363,"lon":5.349997,"is_reserved":false,"is_disabled":false,"rental_uris":{"android":"levelo://app?vid=1e88f1ca-bcb3-420b-8c8c-791756e3a1f6","ios":"levelo://app?vid=1e88f1ca-bcb3-420b-8c8c-791756e3a1f6"},"vehicle_type_id":"4","last_reported":1722694102,"current_range_meters":22400,"station_id":"ce4bhbh2rcd13ifvqepg","pricing_plan_id":"cebpf4jnsgd1na2vs0mg"},{"bike_id":"c67934ae-c694-48b2-9822-0548e681fd64","system_id":"levelo_inurba_marseille","lat":43.340751,"lon":5.385,"is_reserved":false,"is_disabled":false,"rental_uris":{"android":"levelo://app?vid=c67934ae-c694-48b2-9822-0548e681fd64","ios":"levelo://app?vid=c67934ae-c694-48b2-9822-0548e681fd64"},"vehicle_type_id":"4","last_reported":1722694102,"current_range_meters":7600,"station_id":"","pricing_plan_id":"cebpf4jnsgd1na2vs0mg"},{"bike_id":"cd9c5fc7-70e2-4065-b777-08525a4b1cc5","system_id":"levelo_inurba_marseille","lat":43.284281,"lon":5.349948,"is_reserved":false,"is_disabled":false,"rental_uris":{"android":"levelo://app?vid=cd9c5fc7-70e2-4065-b777-08525a4b1cc5","ios":"levelo://app?vid=cd9c5fc7-70e2-4065-b777-08525a4b1cc5"},"vehicle_type_id":"4","last_reported":1722694102,"current_range_meters":24400,"station_id":"ce4bhbh2rcd13ifvqepg","pricing_plan_id":"cebpf4jnsgd1na2vs0mg"},{"bike_id":"3648a3d9-304e-4b21-8c4f-689a57d5f756","system_id":"levelo_inurba_marseille","lat":43.284267,"lon":5.349959,"is_reserved":false,"is_disabled":false,"rental_uris":{"android":"levelo://app?vid=3648a3d9-304e-4b21-8c4f-689a57d5f756","ios":"levelo://app?vid=3648a3d9-304e-4b21-8c4f-689a57d5f756"},"vehicle_type_id":"4","last_reported":1722694102,"current_range_meters":31200,"station_id":"ce4bhbh2rcd13ifvqepg","pricing_plan_id":"cebpf4jnsgd1na2vs0mg"},{"bike_id":"97dd8212-17ed-4f5f-bf6f-32d1fbe09ad5","system_id":"levelo_inurba_marseille","lat":43.284281,"lon":5.349911,"is_reserved":false,"is_disabled":false,"rental_uris":{"android":"levelo://app?vid=97dd8212-17ed-4f5f-bf6f-32d1fbe09ad5","ios":"levelo://app?vid=97dd8212-17ed-4f5f-bf6f-32d1fbe09ad5"},"vehicle_type_id":"4","last_reported":1722694102,"current_range_meters":22400,"station_id":"ce4bhbh2rcd13ifvqepg","pricing_plan_id":"cebpf4jnsgd1na2vs0mg"},{"bike_id":"f0f3202a-808b-4ab7-9f4d-b2ce50fdba32","system_id":"levelo_inurba_marseille","lat":43.28427,"lon":5.349942,"is_reserved":false,"is_disabled":false,"rental_uris":{"android":"levelo://app?vid=f0f3202a-808b-4ab7-9f4d-b2ce50fdba32","ios":"levelo://app?vid=f0f3202a-808b-4ab7-9f4d-b2ce50fdba32"},"vehicle_type_id":"4","last_reported":1722694102,"current_range_meters":19600,"station_id":"ce4bhbh2rcd13ifvqepg","pricing_plan_id":"cebpf4jnsgd1na2vs0mg"},{"bike_id":"0e7cebb2-c5d8-4764-be3d-90f1fd220974","system_id":"levelo_inurba_marseille","lat":43.283498,"lon":5.380948,"is_reserved":false,"is_disabled":false,"rental_uris":{"android":"levelo://app?vid=0e7cebb2-c5d8-4764-be3d-90f1fd220974","ios":"levelo://app?vid=0e7cebb2-c5d8-4764-be3d-90f1fd220974"},"vehicle_type_id":"4","last_reported":1722694102,"current_range_meters":12000,"station_id":"ce4bh412rcd13ifvqdr0","pricing_plan_id":"cebpf4jnsgd1na2vs0mg"},{"bike_id":"abd9f37f-80c1-4e96-aa20-d96243a2a614","system_id":"levelo_inurba_marseille","lat":43.284258,"lon":5.34997,"is_reserved":false,"is_disabled":false,"rental_uris":{"android":"levelo://app?vid=abd9f37f-80c1-4e96-aa20-d96243a2a614","ios":"levelo://app?vid=abd9f37f-80c1-4e96-aa20-d96243a2a614"},"vehicle_type_id":"4","last_reported":1722694102,"current_range_meters":24400,"station_id":"ce4bhbh2rcd13ifvqepg","pricing_plan_id":"cebpf4jnsgd1na2vs0mg"},{"bike_id":"dc9a7712-a35a-4410-acce-45d11f066014","system_id":"levelo_inurba_marseille","lat":43.283494,"lon":5.380945,"is_reserved":false,"is_disabled":false,"rental_uris":{"android":"levelo://app?vid=dc9a7712-a35a-4410-acce-45d11f066014","ios":"levelo://app?vid=dc9a7712-a35a-4410-acce-45d11f066014"},"vehicle_type_id":"4","last_reported":1722694102,"current_range_meters":18400,"station_id":"ce4bh412rcd13ifvqdr0","pricing_plan_id":"cebpf4jnsgd1na2vs0mg"},{"bike_id":"29b562e0-0b2f-4fc7-8ff9-0ee40cccf17f","system_id":"levelo_inurba_marseille","lat":43.284255,"lon":5.349957,"is_reserved":false,"is_disabled":false,"rental_uris":{"android":"levelo://app?vid=29b562e0-0b2f-4fc7-8ff9-0ee40cccf17f","ios":"levelo://app?vid=29b562e0-0b2f-4fc7-8ff9-0ee40cccf17f"},"vehicle_type_id":"4","last_reported":1722694102,"current_range_meters":31200,"station_id":"ce4bhbh2rcd13ifvqepg","pricing_plan_id":"cebpf4jnsgd1na2vs0mg"},{"bike_id":"4fa18870-c5f9-43bb-aa71-681c4fc43ace","system_id":"levelo_inurba_marseille","lat":43.284225,"lon":5.34992,"is_reserved":false,"is_disabled":false,"rental_uris":{"android":"levelo://app?vid=4fa18870-c5f9-43bb-aa71-681c4fc43ace","ios":"levelo://app?vid=4fa18870-c5f9-43bb-aa71-681c4fc43ace"},"vehicle_type_id":"4","last_reported":1722694102,"current_range_meters":8400,"station_id":"ce4bhbh2rcd13ifvqepg","pricing_plan_id":"cebpf4jnsgd1na2vs0mg"},{"bike_id":"8a977128-89d5-4fec-beb0-ee03a0338a77","system_id":"levelo_inurba_marseille","lat":43.283494,"lon":5.380945,"is_reserved":false,"is_disabled":false,"rental_uris":{"android":"levelo://app?vid=8a977128-89d5-4fec-beb0-ee03a0338a77","ios":"levelo://app?vid=8a977128-89d5-4fec-beb0-ee03a0338a77"},"vehicle_type_id":"4","last_reported":1722694102,"current_range_meters":25600,"station_id":"ce4bh412rcd13ifvqdr0","pricing_plan_id":"cebpf4jnsgd1na2vs0mg"},{"bike_id":"9c4027de-6a4a-44b6-b9fc-ea053c59e669","system_id":"levelo_inurba_marseille","lat":43.283494,"lon":5.380945,"is_reserved":false,"is_disabled":false,"rental_uris":{"android":"levelo://app?vid=9c4027de-6a4a-44b6-b9fc-ea053c59e669","ios":"levelo://app?vid=9c4027de-6a4a-44b6-b9fc-ea053c59e669"},"vehicle_type_id":"4","last_reported":1722694102,"current_range_meters":15200,"station_id":"ce4bh412rcd13ifvqdr0","pricing_plan_id":"cebpf4jnsgd1na2vs0mg"},{"bike_id":"5dbb99bb-407b-4f24-8eb8-8fd159843d80","system_id":"levelo_inurba_marseille","lat":43.284218,"lon":5.349919,"is_reserved":false,"is_disabled":false,"rental_uris":{"android":"levelo://app?vid=5dbb99bb-407b-4f24-8eb8-8fd159843d80","ios":"levelo://app?vid=5dbb99bb-407b-4f24-8eb8-8fd159843d80"},"vehicle_type_id":"4","last_reported":1722694102,"current_range_meters":28000,"station_id":"ce4bhbh2rcd13ifvqepg","pricing_plan_id":"cebpf4jnsgd1na2vs0mg"},{"bike_id":"e91be354-a0e6-40d7-a70d-29a7681030b8","system_id":"levelo_inurba_marseille","lat":43.28421,"lon":5.34989,"is_reserved":false,"is_disabled":false,"rental_uris":{"android":"levelo://app?vid=e91be354-a0e6-40d7-a70d-29a7681030b8","ios":"levelo://app?vid=e91be354-a0e6-40d7-a70d-29a7681030b8"},"vehicle_type_id":"4","last_reported":1722694102,"current_range_meters":21200,"station_id":"ce4bhbh2rcd13ifvqepg","pricing_plan_id":"cebpf4jnsgd1na2vs0mg"},{"bike_id":"b6ddb9b9-90ad-411d-87f5-c9db3901f2aa","system_id":"levelo_inurba_marseille","lat":43.284214,"lon":5.349865,"is_reserved":false,"is_disabled":false,"rental_uris":{"android":"levelo://app?vid=b6ddb9b9-90ad-411d-87f5-c9db3901f2aa","ios":"levelo://app?vid=b6ddb9b9-90ad-411d-87f5-c9db3901f2aa"},"vehicle_type_id":"4","last_reported":1722694102,"current_range_meters":30400,"station_id":"ce4bhbh2rcd13ifvqepg","pricing_plan_id":"cebpf4jnsgd1na2vs0mg"},{"bike_id":"3f9de0cb-95d0-454c-9da8-fb192e676229","system_id":"levelo_inurba_marseille","lat":43.284196,"lon":5.349894,"is_reserved":false,"is_disabled":false,"rental_uris":{"android":"levelo://app?vid=3f9de0cb-95d0-454c-9da8-fb192e676229","ios":"levelo://app?vid=3f9de0cb-95d0-454c-9da8-fb192e676229"},"vehicle_type_id":"4","last_reported":1722694102,"current_range_meters":12000,"station_id":"ce4bhbh2rcd13ifvqepg","pricing_plan_id":"cebpf4jnsgd1na2vs0mg"},{"bike_id":"5e66eb24-4520-493d-8aa7-7bf46222ee99","system_id":"levelo_inurba_marseille","lat":43.284177,"lon":5.349947,"is_reserved":false,"is_disabled":false,"rental_uris":{"android":"levelo://app?vid=5e66eb24-4520-493d-8aa7-7bf46222ee99","ios":"levelo://app?vid=5e66eb24-4520-493d-8aa7-7bf46222ee99"},"vehicle_type_id":"4","last_reported":1722694102,"current_range_meters":30800,"station_id":"ce4bhbh2rcd13ifvqepg","pricing_plan_id":"cebpf4jnsgd1na2vs0mg"},{"bike_id":"0ba12f93-a7aa-4349-9cc8-8aeb027a276a","system_id":"levelo_inurba_marseille","lat":43.284196,"lon":5.34986,"is_reserved":false,"is_disabled":false,"rental_uris":{"android":"levelo://app?vid=0ba12f93-a7aa-4349-9cc8-8aeb027a276a","ios":"levelo://app?vid=0ba12f93-a7aa-4349-9cc8-8aeb027a276a"},"vehicle_type_id":"4","last_reported":1722694102,"current_range_meters":30400,"station_id":"ce4bhbh2rcd13ifvqepg","pricing_plan_id":"cebpf4jnsgd1na2vs0mg"},{"bike_id":"ab491089-e7e2-4d20-a62f-24134beaf6d0","system_id":"levelo_inurba_marseille","lat":43.284167,"lon":5.349953,"is_reserved":false,"is_disabled":false,"rental_uris":{"android":"levelo://app?vid=ab491089-e7e2-4d20-a62f-24134beaf6d0","ios":"levelo://app?vid=ab491089-e7e2-4d20-a62f-24134beaf6d0"},"vehicle_type_id":"4","last_reported":1722694102,"current_range_meters":17200,"station_id":"ce4bhbh2rcd13ifvqepg","pricing_plan_id":"cebpf4jnsgd1na2vs0mg"},{"bike_id":"fc9cd927-8dae-48bd-a8c6-d4947234c3c9","system_id":"levelo_inurba_marseille","lat":43.284143,"lon":5.350024,"is_reserved":false,"is_disabled":false,"rental_uris":{"android":"levelo://app?vid=fc9cd927-8dae-48bd-a8c6-d4947234c3c9","ios":"levelo://app?vid=fc9cd927-8dae-48bd-a8c6-d4947234c3c9"},"vehicle_type_id":"4","last_reported":1722694102,"current_range_meters":20800,"station_id":"ce4bhbh2rcd13ifvqepg","pricing_plan_id":"cebpf4jnsgd1na2vs0mg"},{"bike_id":"2a88a23b-330a-4f87-8928-95ede3291ae0","system_id":"levelo_inurba_marseille","lat":43.284187,"lon":5.349866,"is_reserved":false,"is_disabled":false,"rental_uris":{"android":"levelo://app?vid=2a88a23b-330a-4f87-8928-95ede3291ae0","ios":"levelo://app?vid=2a88a23b-330a-4f87-8928-95ede3291ae0"},"vehicle_type_id":"4","last_reported":1722694102,"current_range_meters":17600,"station_id":"ce4bhbh2rcd13ifvqepg","pricing_plan_id":"cebpf4jnsgd1na2vs0mg"},{"bike_id":"ac8f8114-8d01-4947-9920-445d732f4362","system_id":"levelo_inurba_marseille","lat":43.284201,"lon":5.349801,"is_reserved":false,"is_disabled":false,"rental_uris":{"android":"levelo://app?vid=ac8f8114-8d01-4947-9920-445d732f4362","ios":"levelo://app?vid=ac8f8114-8d01-4947-9920-445d732f4362"},"vehicle_type_id":"4","last_reported":1722694102,"current_range_meters":23200,"station_id":"ce4bhbh2rcd13ifvqepg","pricing_plan_id":"cebpf4jnsgd1na2vs0mg"},{"bike_id":"8d6c5248-1398-4f99-ab7a-d301bd6dd72a","system_id":"levelo_inurba_marseille","lat":43.284166,"lon":5.349912,"is_reserved":false,"is_disabled":false,"rental_uris":{"android":"levelo://app?vid=8d6c5248-1398-4f99-ab7a-d301bd6dd72a","ios":"levelo://app?vid=8d6c5248-1398-4f99-ab7a-d301bd6dd72a"},"vehicle_type_id":"4","last_reported":1722694102,"current_range_meters":12800,"station_id":"ce4bhbh2rcd13ifvqepg","pricing_plan_id":"cebpf4jnsgd1na2vs0mg"},{"bike_id":"978a807c-1644-4a51-bb95-fed7e5e4c66b","system_id":"levelo_inurba_marseille","lat":43.284154,"lon":5.349944,"is_reserved":false,"is_disabled":false,"rental_uris":{"android":"levelo://app?vid=978a807c-1644-4a51-bb95-fed7e5e4c66b","ios":"levelo://app?vid=978a807c-1644-4a51-bb95-fed7e5e4c66b"},"vehicle_type_id":"4","last_reported":1722694102,"current_range_meters":31200,"station_id":"ce4bhbh2rcd13ifvqepg","pricing_plan_id":"cebpf4jnsgd1na2vs0mg"},{"bike_id":"c544c12e-4874-4f16-bca7-1a6a2e0ad52d","system_id":"levelo_inurba_marseille","lat":43.28416,"lon":5.34991,"is_reserved":false,"is_disabled":false,"rental_uris":{"android":"levelo://app?vid=c544c12e-4874-4f16-bca7-1a6a2e0ad52d","ios":"levelo://app?vid=c544c12e-4874-4f16-bca7-1a6a2e0ad52d"},"vehicle_type_id":"4","last_reported":1722694102,"current_range_meters":29600,"station_id":"ce4bhbh2rcd13ifvqepg","pricing_plan_id":"cebpf4jnsgd1na2vs0mg"},{"bike_id":"5a464022-86d3-42aa-828b-eb8f67675860","system_id":"levelo_inurba_marseille","lat":43.2842,"lon":5.34978,"is_reserved":false,"is_disabled":false,"rental_uris":{"android":"levelo://app?vid=5a464022-86d3-42aa-828b-eb8f67675860","ios":"levelo://app?vid=5a464022-86d3-42aa-828b-eb8f67675860"},"vehicle_type_id":"4","last_reported":1722694102,"current_range_meters":20400,"station_id":"ce4bhbh2rcd13ifvqepg","pricing_plan_id":"cebpf4jnsgd1na2vs0mg"},{"bike_id":"1ac59fd8-e789-4a6c-9b57-7170512bd4d5","system_id":"levelo_inurba_marseille","lat":43.28421,"lon":5.34974,"is_reserved":false,"is_disabled":false,"rental_uris":{"android":"levelo://app?vid=1ac59fd8-e789-4a6c-9b57-7170512bd4d5","ios":"levelo://app?vid=1ac59fd8-e789-4a6c-9b57-7170512bd4d5"},"vehicle_type_id":"4","last_reported":1722694102,"current_range_meters":18000,"station_id":"ce4bhbh2rcd13ifvqepg","pricing_plan_id":"cebpf4jnsgd1na2vs0mg"},{"bike_id":"19875ce8-45af-487f-98be-9d9e4b5acf18","system_id":"levelo_inurba_marseille","lat":43.28478,"lon":5.3858,"is_reserved":false,"is_disabled":false,"rental_uris":{"android":"levelo://app?vid=19875ce8-45af-487f-98be-9d9e4b5acf18","ios":"levelo://app?vid=19875ce8-45af-487f-98be-9d9e4b5acf18"},"vehicle_type_id":"4","last_reported":1722694102,"current_range_meters":24400,"station_id":"","pricing_plan_id":"cebpf4jnsgd1na2vs0mg"},{"bike_id":"7f459498-bc3a-4077-b349-2de6659b6f48","system_id":"levelo_inurba_marseille","lat":43.28419,"lon":5.34979,"is_reserved":false,"is_disabled":false,"rental_uris":{"android":"levelo://app?vid=7f459498-bc3a-4077-b349-2de6659b6f48","ios":"levelo://app?vid=7f459498-bc3a-4077-b349-2de6659b6f48"},"vehicle_type_id":"4","last_reported":1722694102,"current_range_meters":9600,"station_id":"ce4bhbh2rcd13ifvqepg","pricing_plan_id":"cebpf4jnsgd1na2vs0mg"},{"bike_id":"71da5212-63af-43c9-b9ca-723ef1f8358a","system_id":"levelo_inurba_marseille","lat":43.28416,"lon":5.34988,"is_reserved":false,"is_disabled":false,"rental_uris":{"android":"levelo://app?vid=71da5212-63af-43c9-b9ca-723ef1f8358a","ios":"levelo://app?vid=71da5212-63af-43c9-b9ca-723ef1f8358a"},"vehicle_type_id":"4","last_reported":1722694102,"current_range_meters":13600,"station_id":"ce4bhbh2rcd13ifvqepg","pricing_plan_id":"cebpf4jnsgd1na2vs0mg"},{"bike_id":"c01c9aef-79b6-498e-8db1-c7a32b4f7b99","system_id":"levelo_inurba_marseille","lat":43.28419,"lon":5.34978,"is_reserved":false,"is_disabled":false,"rental_uris":{"android":"levelo://app?vid=c01c9aef-79b6-498e-8db1-c7a32b4f7b99","ios":"levelo://app?vid=c01c9aef-79b6-498e-8db1-c7a32b4f7b99"},"vehicle_type_id":"4","last_reported":1722694102,"current_range_meters":16000,"station_id":"ce4bhbh2rcd13ifvqepg","pricing_plan_id":"cebpf4jnsgd1na2vs0mg"},{"bike_id":"89d580a0-4d40-4fc6-8da6-5c851879b50b","system_id":"levelo_inurba_marseille","lat":43.284156,"lon":5.34988,"is_reserved":false,"is_disabled":false,"rental_uris":{"android":"levelo://app?vid=89d580a0-4d40-4fc6-8da6-5c851879b50b","ios":"levelo://app?vid=89d580a0-4d40-4fc6-8da6-5c851879b50b"},"vehicle_type_id":"4","last_reported":1722694102,"current_range_meters":28400,"station_id":"ce4bhbh2rcd13ifvqepg","pricing_plan_id":"cebpf4jnsgd1na2vs0mg"},{"bike_id":"bd60d38c-d7f1-41bd-b654-b0841486609a","system_id":"levelo_inurba_marseille","lat":43.284139,"lon":5.349907,"is_reserved":false,"is_disabled":false,"rental_uris":{"android":"levelo://app?vid=bd60d38c-d7f1-41bd-b654-b0841486609a","ios":"levelo://app?vid=bd60d38c-d7f1-41bd-b654-b0841486609a"},"vehicle_type_id":"4","last_reported":1722694102,"current_range_meters":31200,"station_id":"ce4bhbh2rcd13ifvqepg","pricing_plan_id":"cebpf4jnsgd1na2vs0mg"},{"bike_id":"46d1e462-3e9a-4140-a5fb-151194a64c8c","system_id":"levelo_inurba_marseille","lat":43.28416,"lon":5.34984,"is_reserved":false,"is_disabled":false,"rental_uris":{"android":"levelo://app?vid=46d1e462-3e9a-4140-a5fb-151194a64c8c","ios":"levelo://app?vid=46d1e462-3e9a-4140-a5fb-151194a64c8c"},"vehicle_type_id":"4","last_reported":1722694102,"current_range_meters":3600,"station_id":"ce4bhbh2rcd13ifvqepg","pricing_plan_id":"cebpf4jnsgd1na2vs0mg"},