{"last_updated":1781210689,"ttl":60,"version":"2.2","data":{"bikes":[{"bike_id":"ec12d144-24c8-4071-abf6-197e520eae96","system_id":"levelo_inurba_marseille","lat":43.337444,"lon":5.374475,"is_reserved":false,"is_disabled":false,"rental_uris":{"android":"levelo://app?vid=ec12d144-24c8-4071-abf6-197e520eae96","ios":"levelo://app?vid=ec12d144-24c8-4071-abf6-197e520eae96"},"vehicle_type_id":"4","last_reported":1781210690,"current_range_meters":0,"station_id":"","pricing_plan_id":"cebpf4jnsgd1na2vs0mg"},{"bike_id":"42ce0662-1437-4a17-8fbb-4a3524110752","system_id":"levelo_inurba_marseille","lat":43.27184,"lon":5.40977,"is_reserved":false,"is_disabled":false,"rental_uris":{"android":"levelo://app?vid=42ce0662-1437-4a17-8fbb-4a3524110752","ios":"levelo://app?vid=42ce0662-1437-4a17-8fbb-4a3524110752"},"vehicle_type_id":"4","last_reported":1781210690,"current_range_meters":2800,"station_id":"ce4bhl12rcd13ifvqgf0","pricing_plan_id":"cebpf4jnsgd1na2vs0mg"},{"bike_id":"3289b7e2-fa31-4cbf-9046-96a34ed2b0db","system_id":"levelo_inurba_marseille","lat":43.30908,"lon":5.39618,"is_reserved":false,"is_disabled":true,"rental_uris":{"android":"levelo://app?vid=3289b7e2-fa31-4cbf-9046-96a34ed2b0db","ios":"levelo://app?vid=3289b7e2-fa31-4cbf-9046-96a34ed2b0db"},"vehicle_type_id":"4","last_reported":1781210690,"current_range_meters":2800,"station_id":"ce4bh012rcd13ifvqcv0","pricing_plan_id":"cebpf4jnsgd1na2vs0mg"},{"bike_id":"1b6ca918-1743-49ab-af19-a83031407f07","system_id":"levelo_inurba_marseille","lat":43.239,"lon":5.37452,"is_reserved":false,"is_disabled":true,"rental_uris":{"android":"levelo://app?vid=1b6ca918-1743-49ab-af19-a83031407f07","ios":"levelo://app?vid=1b6ca918-1743-49ab-af19-a83031407f07"},"vehicle_type_id":"4","last_reported":1781210690,"current_range_meters":2800,"station_id":"st_d6sm7csbq4hs73f8fpjg","pricing_plan_id":"cebpf4jnsgd1na2vs0mg"},{"bike_id":"ecf64d25-1386-4b9f-9c60-8d63d47ce766","system_id":"levelo_inurba_marseille","lat":43.30538,"lon":5.38429,"is_reserved":false,"is_disabled":false,"rental_uris":{"android":"levelo://app?vid=ecf64d25-1386-4b9f-9c60-8d63d47ce766","ios":"levelo://app?vid=ecf64d25-1386-4b9f-9c60-8d63d47ce766"},"vehicle_type_id":"4","last_reported":1781210690,"current_range_meters":2800,"station_id":"ce4bgg92rcd13ifvqb30","pricing_plan_id":"cebpf4jnsgd1na2vs0mg"},{"bike_id":"26a548b1-2ac5-4ad7-89b5-8bc650cf2caa","system_id":"levelo_inurba_marseille","lat":43.24661,"lon":5.38153,"is_reserved":false,"is_disabled":false,"rental_uris":{"android":"levelo://app?vid=26a548b1-2ac5-4ad7-89b5-8bc650cf2caa","ios":"levelo://app?vid=26a548b1-2ac5-4ad7-89b5-8bc650cf2caa"},"vehicle_type_id":"4","last_reported":1781210690,"current_range_meters":2800,"station_id":"ce4bhih2rcd13ifvqfr0","pricing_plan_id":"cebpf4jnsgd1na2vs0mg"},{"bike_id":"4c9315b6-5037-48f8-acd1-7a92cedaad02","system_id":"levelo_inurba_marseille","lat":43.27297,"lon":5.41025,"is_reserved":false,"is_disabled":false,"rental_uris":{"android":"levelo://app?vid=4c9315b6-5037-48f8-acd1-7a92cedaad02","ios":"levelo://app?vid=4c9315b6-5037-48f8-acd1-7a92cedaad02"},"vehicle_type_id":"4","last_reported":1781210690,"current_range_meters":2800,"station_id":"","pricing_plan_id":"cebpf4jnsgd1na2vs0mg"},{"bike_id":"5a5ac9f0-ff16-4226-8a7d-30362127445a","system_id":"levelo_inurba_marseille","lat":43.25584,"lon":5.38216,"is_reserved":false,"is_disabled":false,"rental_uris":{"android":"levelo://app?vid=5a5ac9f0-ff16-4226-8a7d-30362127445a","ios":"levelo://app?vid=5a5ac9f0-ff16-4226-8a7d-30362127445a"},"vehicle_type_id":"4","last_reported":1781210690,"current_range_meters":2800,"station_id":"ce4bhih2rcd13ifvqfs0","pricing_plan_id":"cebpf4jnsgd1na2vs0mg"},{"bike_id":"176e7736-1444-40e6-8f99-d4698af2fada","system_id":"levelo_inurba_marseille","lat":43.299234,"lon":5.374735,"is_reserved":false,"is_disabled":false,"rental_uris":{"android":"levelo://app?vid=176e7736-1444-40e6-8f99-d4698af2fada","ios":"levelo://app?vid=176e7736-1444-40e6-8f99-d4698af2fada"},"vehicle_type_id":"4","last_reported":1781210690,"current_range_meters":2800,"station_id":"ce4bgjh2rcd13ifvqbg0","pricing_plan_id":"cebpf4jnsgd1na2vs0mg"},{"bike_id":"85758460-57d2-4c66-b4d3-95b06c23dc3f","system_id":"levelo_inurba_marseille","lat":43.2762,"lon":5.36115,"is_reserved":false,"is_disabled":false,"rental_uris":{"android":"levelo://app?vid=85758460-57d2-4c66-b4d3-95b06c23dc3f","ios":"levelo://app?vid=85758460-57d2-4c66-b4d3-95b06c23dc3f"},"vehicle_type_id":"4","last_reported":1781210690,"current_range_meters":2800,"station_id":"ce4bgj92rcd13ifvqbe0","pricing_plan_id":"cebpf4jnsgd1na2vs0mg"},{"bike_id":"7cb532d3-0aeb-47b3-9f62-ffdba8d6965a","system_id":"levelo_inurba_marseille","lat":43.30589,"lon":5.39353,"is_reserved":false,"is_disabled":false,"rental_uris":{"android":"levelo://app?vid=7cb532d3-0aeb-47b3-9f62-ffdba8d6965a","ios":"levelo://app?vid=7cb532d3-0aeb-47b3-9f62-ffdba8d6965a"},"vehicle_type_id":"4","last_reported":1781210690,"current_range_meters":2800,"station_id":"ce4bh0p2rcd13ifvqd80","pricing_plan_id":"cebpf4jnsgd1na2vs0mg"},{"bike_id":"339aa150-c052-4705-ae8d-360a6d78e987","system_id":"levelo_inurba_marseille","lat":43.3054,"lon":5.36533,"is_reserved":false,"is_disabled":false,"rental_uris":{"android":"levelo://app?vid=339aa150-c052-4705-ae8d-360a6d78e987","ios":"levelo://app?vid=339aa150-c052-4705-ae8d-360a6d78e987"},"vehicle_type_id":"4","last_reported":1781210690,"current_range_meters":2800,"station_id":"ce4bgs12rcd13ifvqcag","pricing_plan_id":"cebpf4jnsgd1na2vs0mg"},{"bike_id":"564980c7-4086-4d0c-b20e-906bc61640a8","system_id":"levelo_inurba_marseille","lat":43.29675,"lon":5.36326,"is_reserved":false,"is_disabled":false,"rental_uris":{"android":"levelo://app?vid=564980c7-4086-4d0c-b20e-906bc61640a8","ios":"levelo://app?vid=564980c7-4086-4d0c-b20e-906bc61640a8"},"vehicle_type_id":"4","last_reported":1781210690,"current_range_meters":2800,"station_id":"","pricing_plan_id":"cebpf4jnsgd1na2vs0mg"},{"bike_id":"fad1015f-dbc4-4aa2-9aa7-7c10b9542bd4","system_id":"levelo_inurba_marseille","lat":43.27999,"lon":5.41667,"is_reserved":false,"is_disabled":false,"rental_uris":{"android":"levelo://app?vid=fad1015f-dbc4-4aa2-9aa7-7c10b9542bd4","ios":"levelo://app?vid=fad1015f-dbc4-4aa2-9aa7-7c10b9542bd4"},"vehicle_type_id":"4","last_reported":1781210690,"current_range_meters":2800,"station_id":"ce4bho12rcd13ifvqh1g","pricing_plan_id":"cebpf4jnsgd1na2vs0mg"},{"bike_id":"a54be5f0-e0ce-4d83-8577-cdd8f1091a80","system_id":"levelo_inurba_marseille","lat":43.31529,"lon":5.38038,"is_reserved":false,"is_disabled":false,"rental_uris":{"android":"levelo://app?vid=a54be5f0-e0ce-4d83-8577-cdd8f1091a80","ios":"levelo://app?vid=a54be5f0-e0ce-4d83-8577-cdd8f1091a80"},"vehicle_type_id":"4","last_reported":1781210690,"current_range_meters":2800,"station_id":"ce4bhsp2rcd13ifvqi50","pricing_plan_id":"cebpf4jnsgd1na2vs0mg"},{"bike_id":"380eeb0a-ddcf-4d2f-a116-c2459cb019db","system_id":"levelo_inurba_marseille","lat":43.25587,"lon":5.38229,"is_reserved":false,"is_disabled":false,"rental_uris":{"android":"levelo://app?vid=380eeb0a-ddcf-4d2f-a116-c2459cb019db","ios":"levelo://app?vid=380eeb0a-ddcf-4d2f-a116-c2459cb019db"},"vehicle_type_id":"4","last_reported":1781210690,"current_range_meters":2800,"station_id":"ce4bhih2rcd13ifvqfs0","pricing_plan_id":"cebpf4jnsgd1na2vs0mg"},{"bike_id":"12df29cc-abfa-41e4-9d8d-6005376fb963","system_id":"levelo_inurba_marseille","lat":43.266188,"lon":5.394222,"is_reserved":false,"is_disabled":false,"rental_uris":{"android":"levelo://app?vid=12df29cc-abfa-41e4-9d8d-6005376fb963","ios":"levelo://app?vid=12df29cc-abfa-41e4-9d8d-6005376fb963"},"vehicle_type_id":"4","last_reported":1781210690,"current_range_meters":3200,"station_id":"","pricing_plan_id":"cebpf4jnsgd1na2vs0mg"},{"bike_id":"2ef412fd-d7b6-4498-b44a-afd57ce84955","system_id":"levelo_inurba_marseille","lat":43.29038,"lon":5.39955,"is_reserved":false,"is_disabled":false,"rental_uris":{"android":"levelo://app?vid=2ef412fd-d7b6-4498-b44a-afd57ce84955","ios":"levelo://app?vid=2ef412fd-d7b6-4498-b44a-afd57ce84955"},"vehicle_type_id":"4","last_reported":1781210690,"current_range_meters":3200,"station_id":"ce4bh392rcd13ifvqdm0","pricing_plan_id":"cebpf4jnsgd1na2vs0mg"},{"bike_id":"1a63c251-af14-41fb-839f-6a652d14a508","system_id":"levelo_inurba_marseille","lat":43.27372,"lon":5.36259,"is_reserved":false,"is_disabled":false,"rental_uris":{"android":"levelo://app?vid=1a63c251-af14-41fb-839f-6a652d14a508","ios":"levelo://app?vid=1a63c251-af14-41fb-839f-6a652d14a508"},"vehicle_type_id":"4","last_reported":1781210690,"current_range_meters":3200,"station_id":"ce4bhbh2rcd13ifvqeo0","pricing_plan_id":"cebpf4jnsgd1na2vs0mg"},{"bike_id":"2a8ee5a0-6852-44b0-a6e2-f4e4bf4a3fe5","system_id":"levelo_inurba_marseille","lat":43.25503,"lon":5.38911,"is_reserved":false,"is_disabled":true,"rental_uris":{"android":"levelo://app?vid=2a8ee5a0-6852-44b0-a6e2-f4e4bf4a3fe5","ios":"levelo://app?vid=2a8ee5a0-6852-44b0-a6e2-f4e4bf4a3fe5"},"vehicle_type_id":"4","last_reported":1781210690,"current_range_meters":3200,"station_id":"","pricing_plan_id":"cebpf4jnsgd1na2vs0mg"},{"bike_id":"4cf4a57f-7f39-4e6d-9c3f-ccda5af3ecde","system_id":"levelo_inurba_marseille","lat":43.29042,"lon":5.35919,"is_reserved":false,"is_disabled":false,"rental_uris":{"android":"levelo://app?vid=4cf4a57f-7f39-4e6d-9c3f-ccda5af3ecde","ios":"levelo://app?vid=4cf4a57f-7f39-4e6d-9c3f-ccda5af3ecde"},"vehicle_type_id":"4","last_reported":1781210690,"current_range_meters":3200,"station_id":"ce4bha92rcd13ifvqeg0","pricing_plan_id":"cebpf4jnsgd1na2vs0mg"},{"bike_id":"627383c3-1ca4-4292-a0f0-c21bf7584678","system_id":"levelo_inurba_marseille","lat":43.28743,"lon":5.42694,"is_reserved":false,"is_disabled":false,"rental_uris":{"android":"levelo://app?vid=627383c3-1ca4-4292-a0f0-c21bf7584678","ios":"levelo://app?vid=627383c3-1ca4-4292-a0f0-c21bf7584678"},"vehicle_type_id":"4","last_reported":1781210690,"current_range_meters":3200,"station_id":"","pricing_plan_id":"cebpf4jnsgd1na2vs0mg"},{"bike_id":"291a9c35-35dd-42aa-bdfc-4e281234a90a","system_id":"levelo_inurba_marseille","lat":43.28488,"lon":5.38551,"is_reserved":false,"is_disabled":true,"rental_uris":{"android":"levelo://app?vid=291a9c35-35dd-42aa-bdfc-4e281234a90a","ios":"levelo://app?vid=291a9c35-35dd-42aa-bdfc-4e281234a90a"},"vehicle_type_id":"4","last_reported":1781210690,"current_range_meters":3200,"station_id":"ce4bh8p2rcd13ifvqeb0","pricing_plan_id":"cebpf4jnsgd1na2vs0mg"},{"bike_id":"a949ab75-be2f-4de3-87b1-03b69d2967c5","system_id":"levelo_inurba_marseille","lat":43.25182,"lon":5.41122,"is_reserved":false,"is_disabled":false,"rental_uris":{"android":"levelo://app?vid=a949ab75-be2f-4de3-87b1-03b69d2967c5","ios":"levelo://app?vid=a949ab75-be2f-4de3-87b1-03b69d2967c5"},"vehicle_type_id":"4","last_reported":1781210690,"current_range_meters":3200,"station_id":"","pricing_plan_id":"cebpf4jnsgd1na2vs0mg"},{"bike_id":"66a57e97-9916-4ab9-af0c-be880c2d5570","system_id":"levelo_inurba_marseille","lat":43.28717,"lon":5.40411,"is_reserved":false,"is_disabled":false,"rental_uris":{"android":"levelo://app?vid=66a57e97-9916-4ab9-af0c-be880c2d5570","ios":"levelo://app?vid=66a57e97-9916-4ab9-af0c-be880c2d5570"},"vehicle_type_id":"4","last_reported":1781210690,"current_range_meters":3200,"station_id":"","pricing_plan_id":"cebpf4jnsgd1na2vs0mg"},{"bike_id":"a35d6ad5-98df-4043-bf93-164e38cc614c","system_id":"levelo_inurba_marseille","lat":43.33097,"lon":5.40799,"is_reserved":false,"is_disabled":false,"rental_uris":{"android":"levelo://app?vid=a35d6ad5-98df-4043-bf93-164e38cc614c","ios":"levelo://app?vid=a35d6ad5-98df-4043-bf93-164e38cc614c"},"vehicle_type_id":"4","last_reported":1781210690,"current_range_meters":3200,"station_id":"","pricing_plan_id":"cebpf4jnsgd1na2vs0mg"},{"bike_id":"23a99f6d-e56f-4435-bb51-1c89c86a3b48","system_id":"levelo_inurba_marseille","lat":43.30253,"lon":5.40069,"is_reserved":false,"is_disabled":false,"rental_uris":{"android":"levelo://app?vid=23a99f6d-e56f-4435-bb51-1c89c86a3b48","ios":"levelo://app?vid=23a99f6d-e56f-4435-bb51-1c89c86a3b48"},"vehicle_type_id":"4","last_reported":1781210690,"current_range_meters":3200,"station_id":"ce4bgvh2rcd13ifvqcs0","pricing_plan_id":"cebpf4jnsgd1na2vs0mg"},{"bike_id":"fafdb545-4263-4738-90a4-2c4a24e0b45a","system_id":"levelo_inurba_marseille","lat":43.33337,"lon":5.41061,"is_reserved":false,"is_disabled":false,"rental_uris":{"android":"levelo://app?vid=fafdb545-4263-4738-90a4-2c4a24e0b45a","ios":"levelo://app?vid=fafdb545-4263-4738-90a4-2c4a24e0b45a"},"vehicle_type_id":"4","last_reported":1781210690,"current_range_meters":3200,"station_id":"","pricing_plan_id":"cebpf4jnsgd1na2vs0mg"},{"bike_id":"edd0a9c5-c05e-4267-aaf0-8203cd12020b","system_id":"levelo_inurba_marseille","lat":43.30317,"lon":5.37322,"is_reserved":false,"is_disabled":false,"rental_uris":{"android":"levelo://app?vid=edd0a9c5-c05e-4267-aaf0-8203cd12020b","ios":"levelo://app?vid=edd0a9c5-c05e-4267-aaf0-8203cd12020b"},"vehicle_type_id":"4","last_reported":1781210690,"current_range_meters":3200,"station_id":"","pricing_plan_id":"cebpf4jnsgd1na2vs0mg"},{"bike_id":"60726254-c8fc-4392-ad13-50ba34082b25","system_id":"levelo_inurba_marseille","lat":43.28136,"lon":5.40491,"is_reserved":false,"is_disabled":false,"rental_uris":{"android":"levelo://app?vid=60726254-c8fc-4392-ad13-50ba34082b25","ios":"levelo://app?vid=60726254-c8fc-4392-ad13-50ba34082b25"},"vehicle_type_id":"4","last_reported":1781210690,"current_range_meters":3200,"station_id":"","pricing_plan_id":"cebpf4jnsgd1na2vs0mg"},{"bike_id":"9f59dfa0-6a15-4279-88d5-0d5ef43f954e","system_id":"levelo_inurba_marseille","lat":43.28278,"lon":5.35074,"is_reserved":false,"is_disabled":false,"rental_uris":{"android":"levelo://app?vid=9f59dfa0-6a15-4279-88d5-0d5ef43f954e","ios":"levelo://app?vid=9f59dfa0-6a15-4279-88d5-0d5ef43f954e"},"vehicle_type_id":"4","last_reported":1781210690,"current_range_meters":3200,"station_id":"ce4bhbp2rcd13ifvqerg","pricing_plan_id":"cebpf4jnsgd1na2vs0mg"},{"bike_id":"c50a9e43-666a-4ebb-bb15-fba6ac3b0d59","system_id":"levelo_inurba_marseille","lat":43.29292,"lon":5.36326,"is_reserved":false,"is_disabled":false,"rental_uris":{"android":"levelo://app?vid=c50a9e43-666a-4ebb-bb15-fba6ac3b0d59","ios":"levelo://app?vid=c50a9e43-666a-4ebb-bb15-fba6ac3b0d59"},"vehicle_type_id":"4","last_reported":1781210690,"current_range_meters":3200,"station_id":"","pricing_plan_id":"cebpf4jnsgd1na2vs0mg"},{"bike_id":"c769b9c6-d5e7-402b-819b-b3ca6f1dcb5b","system_id":"levelo_inurba_marseille","lat":43.30307,"lon":5.39209,"is_reserved":false,"is_disabled":false,"rental_uris":{"android":"levelo://app?vid=c769b9c6-d5e7-402b-819b-b3ca6f1dcb5b","ios":"levelo://app?vid=c769b9c6-d5e7-402b-819b-b3ca6f1dcb5b"},"vehicle_type_id":"4","last_reported":1781210690,"current_range_meters":3600,"station_id":"ce4bgkh2rcd13ifvqbk0","pricing_plan_id":"cebpf4jnsgd1na2vs0mg"},{"bike_id":"3a0a3c1e-d128-4138-b2e1-df846eb876c4","system_id":"levelo_inurba_marseille","lat":43.28701,"lon":5.39424,"is_reserved":false,"is_disabled":false,"rental_uris":{"android":"levelo://app?vid=3a0a3c1e-d128-4138-b2e1-df846eb876c4","ios":"levelo://app?vid=3a0a3c1e-d128-4138-b2e1-df846eb876c4"},"vehicle_type_id":"4","last_reported":1781210690,"current_range_meters":3600,"station_id":"","pricing_plan_id":"cebpf4jnsgd1na2vs0mg"},{"bike_id":"afa141d8-c809-4a59-afb8-1edd9c818eec","system_id":"levelo_inurba_marseille","lat":43.29866,"lon":5.39727,"is_reserved":false,"is_disabled":false,"rental_uris":{"android":"levelo://app?vid=afa141d8-c809-4a59-afb8-1edd9c818eec","ios":"levelo://app?vid=afa141d8-c809-4a59-afb8-1edd9c818eec"},"vehicle_type_id":"4","last_reported":1781210690,"current_range_meters":3600,"station_id":"ce4bh0h2rcd13ifvqd50","pricing_plan_id":"cebpf4jnsgd1na2vs0mg"},{"bike_id":"402cee7f-7d33-47c7-a4a6-ec74389838c4","system_id":"levelo_inurba_marseille","lat":43.31455,"lon":5.37399,"is_reserved":false,"is_disabled":false,"rental_uris":{"android":"levelo://app?vid=402cee7f-7d33-47c7-a4a6-ec74389838c4","ios":"levelo://app?vid=402cee7f-7d33-47c7-a4a6-ec74389838c4"},"vehicle_type_id":"4","last_reported":1781210690,"current_range_meters":3600,"station_id":"","pricing_plan_id":"cebpf4jnsgd1na2vs0mg"},{"bike_id":"33676267-77eb-4130-9e3f-9f08bed2d07a","system_id":"levelo_inurba_marseille","lat":43.28854,"lon":5.42531,"is_reserved":false,"is_disabled":false,"rental_uris":{"android":"levelo://app?vid=33676267-77eb-4130-9e3f-9f08bed2d07a","ios":"levelo://app?vid=33676267-77eb-4130-9e3f-9f08bed2d07a"},"vehicle_type_id":"4","last_reported":1781210690,"current_range_meters":3600,"station_id":"st_d3b462108ojc7389ooeg","pricing_plan_id":"cebpf4jnsgd1na2vs0mg"},{"bike_id":"cc044a5d-6424-486c-a90d-3884464a6b29","system_id":"levelo_inurba_marseille","lat":43.32062,"lon":5.36287,"is_reserved":false,"is_disabled":false,"rental_uris":{"android":"levelo://app?vid=cc044a5d-6424-486c-a90d-3884464a6b29","ios":"levelo://app?vid=cc044a5d-6424-486c-a90d-3884464a6b29"},"vehicle_type_id":"4","last_reported":1781210690,"current_range_meters":3600,"station_id":"","pricing_plan_id":"cebpf4jnsgd1na2vs0mg"},{"bike_id":"60954059-5fda-48aa-98c1-e617f1c7017b","system_id":"levelo_inurba_marseille","lat":43.26027,"lon":5.37546,"is_reserved":false,"is_disabled":false,"rental_uris":{"android":"levelo://app?vid=60954059-5fda-48aa-98c1-e617f1c7017b","ios":"levelo://app?vid=60954059-5fda-48aa-98c1-e617f1c7017b"},"vehicle_type_id":"4","last_reported":1781210690,"current_range_meters":3600,"station_id":"ce4bhgh2rcd13ifvqfa0","pricing_plan_id":"cebpf4jnsgd1na2vs0mg"},{"bike_id":"4ac9e88b-c671-4557-8838-fe3557509874","system_id":"levelo_inurba_marseille","lat":43.24063,"lon":5.3774,"is_reserved":false,"is_disabled":true,"rental_uris":{"android":"levelo://app?vid=4ac9e88b-c671-4557-8838-fe3557509874","ios":"levelo://app?vid=4ac9e88b-c671-4557-8838-fe3557509874"},"vehicle_type_id":"4","last_reported":1781210690,"current_range_meters":3600,"station_id":"ce4bhnp2rcd13ifvqgvg","pricing_plan_id":"cebpf4jnsgd1na2vs0mg"},{"bike_id":"2c1c2bbe-f6c3-4a1f-9c74-18e98279c1e2","system_id":"levelo_inurba_marseille","lat":43.27996,"lon":5.40013,"is_reserved":false,"is_disabled":false,"rental_uris":{"android":"levelo://app?vid=2c1c2bbe-f6c3-4a1f-9c74-18e98279c1e2","ios":"levelo://app?vid=2c1c2bbe-f6c3-4a1f-9c74-18e98279c1e2"},"vehicle_type_id":"4","last_reported":1781210690,"current_range_meters":3600,"station_id":"ce4bho92rcd13ifvqh4g","pricing_plan_id":"cebpf4jnsgd1na2vs0mg"},{"bike_id":"ea291c3f-6317-4f6a-be81-a3696dbf4926","system_id":"levelo_inurba_marseille","lat":43.27822,"lon":5.40717,"is_reserved":false,"is_disabled":false,"rental_uris":{"android":"levelo://app?vid=ea291c3f-6317-4f6a-be81-a3696dbf4926","ios":"levelo://app?vid=ea291c3f-6317-4f6a-be81-a3696dbf4926"},"vehicle_type_id":"4","last_reported":1781210690,"current_range_meters":3600,"station_id":"ce4bhnh2rcd13ifvqgtg","pricing_plan_id":"cebpf4jnsgd1na2vs0mg"},{"bike_id":"845a3784-b288-41b3-8cc0-32d8dd65a7d5","system_id":"levelo_inurba_marseille","lat":43.29484,"lon":5.43294,"is_reserved":false,"is_disabled":false,"rental_uris":{"android":"levelo://app?vid=845a3784-b288-41b3-8cc0-32d8dd65a7d5","ios":"levelo://app?vid=845a3784-b288-41b3-8cc0-32d8dd65a7d5"},"vehicle_type_id":"4","last_reported":1781210690,"current_range_meters":3600,"station_id":"st_d3j5ugp08ojc73fj9d10","pricing_plan_id":"cebpf4jnsgd1na2vs0mg"},{"bike_id":"8b476511-21d9-4a0f-a1a0-2547d4284bd0","system_id":"levelo_inurba_marseille","lat":43.28742,"lon":5.3606,"is_reserved":false,"is_disabled":false,"rental_uris":{"android":"levelo://app?vid=8b476511-21d9-4a0f-a1a0-2547d4284bd0","ios":"levelo://app?vid=8b476511-21d9-4a0f-a1a0-2547d4284bd0"},"vehicle_type_id":"4","last_reported":1781210690,"current_range_meters":3600,"station_id":"cki0cbj6b192h4jlfktg","pricing_plan_id":"cebpf4jnsgd1na2vs0mg"},{"bike_id":"bd2e40d2-7020-432e-b2cc-46b0645e31d9","system_id":"levelo_inurba_marseille","lat":43.306,"lon":5.3935,"is_reserved":false,"is_disabled":false,"rental_uris":{"android":"levelo://app?vid=bd2e40d2-7020-432e-b2cc-46b0645e31d9","ios":"levelo://app?vid=bd2e40d2-7020-432e-b2cc-46b0645e31d9"},"vehicle_type_id":"4","last_reported":1781210690,"current_range_meters":3600,"station_id":"ce4bh0p2rcd13ifvqd80","pricing_plan_id":"cebpf4jnsgd1na2vs0mg"},{"bike_id":"d2b0d730-e62a-4bc5-bb79-94d3000fd1e0","system_id":"levelo_inurba_marseille","lat":43.29784,"lon":5.39359,"is_reserved":false,"is_disabled":false,"rental_uris":{"android":"levelo://app?vid=d2b0d730-e62a-4bc5-bb79-94d3000fd1e0","ios":"levelo://app?vid=d2b0d730-e62a-4bc5-bb79-94d3000fd1e0"},"vehicle_type_id":"4","last_reported":1781210690,"current_range_meters":3600,"station_id":"chh1huq6cuj3fo74tm60","pricing_plan_id":"cebpf4jnsgd1na2vs0mg"},{"bike_id":"e1c6b1e8-b0de-43ea-92d4-e0c13058b35e","system_id":"levelo_inurba_marseille","lat":43.25499,"lon":5.3765,"is_reserved":false,"is_disabled":false,"rental_uris":{"android":"levelo://app?vid=e1c6b1e8-b0de-43ea-92d4-e0c13058b35e","ios":"levelo://app?vid=e1c6b1e8-b0de-43ea-92d4-e0c13058b35e"},"vehicle_type_id":"4","last_reported":1781210690,"current_range_meters":3600,"station_id":"ce4bhh12rcd13ifvqff0","pricing_plan_id":"cebpf4jnsgd1na2vs0mg"},{"bike_id":"2cdb905a-de9e-490b-83da-3edf017e824b","system_id":"levelo_inurba_marseille","lat":43.29711,"lon":5.36618,"is_reserved":false,"is_disabled":false,"rental_uris":{"android":"levelo://app?vid=2cdb905a-de9e-490b-83da-3edf017e824b","ios":"levelo://app?vid=2cdb905a-de9e-490b-83da-3edf017e824b"},"vehicle_type_id":"4","last_reported":1781210690,"current_range_meters":3600,"station_id":"ce4bgn12rcd13ifvqbt0","pricing_plan_id":"cebpf4jnsgd1na2vs0mg"},{"bike_id":"1140d017-c3b9-43dd-ba73-6e5a45e2fcc8","system_id":"levelo_inurba_marseille","lat":43.32012,"lon":5.38161,"is_reserved":false,"is_disabled":false,"rental_uris":{"android":"levelo://app?vid=1140d017-c3b9-43dd-ba73-6e5a45e2fcc8","ios":"levelo://app?vid=1140d017-c3b9-43dd-ba73-6e5a45e2fcc8"},"vehicle_type_id":"4","last_reported":1781210690,"current_range_meters":3600,"station_id":"ce4bhr12rcd13ifvqhpg","pricing_plan_id":"cebpf4jnsgd1na2vs0mg"},{"bike_id":"f8671556-b7c4-4a04-86c9-422f70a6fa84","system_id":"levelo_inurba_marseille","lat":43.33466,"lon":5.42026,"is_reserved":false,"is_disabled":false,"rental_uris":{"android":"levelo://app?vid=f8671556-b7c4-4a04-86c9-422f70a6fa84","ios":"levelo://app?vid=f8671556-b7c4-4a04-86c9-422f70a6fa84"},"vehicle_type_id":"4","last_reported":1781210690,"current_range_meters":3600,"station_id":"","pricing_plan_id":"cebpf4jnsgd1na2vs0mg"},{"bike_id":"91913d3b-0e15-4b80-9642-2a0b6773e407","system_id":"levelo_inurba_marseille","lat":43.31751,"lon":5.39028,"is_reserved":false,"is_disabled":false,"rental_uris":{"android":"levelo://app?vid=91913d3b-0e15-4b80-9642-2a0b6773e407","ios":"levelo://app?vid=91913d3b-0e15-4b80-9642-2a0b6773e407"},"vehicle_type_id":"4","last_reported":1781210690,"current_range_meters":3600,"station_id":"ce4bhqp2rcd13ifvqhng","pricing_plan_id":"cebpf4jnsgd1na2vs0mg"},{"bike_id":"c5ab485f-9d17-4442-8a02-4fd199bef794","system_id":"levelo_inurba_marseille","lat":43.2495,"lon":5.40477,"is_reserved":false,"is_disabled":false,"rental_uris":{"android":"levelo://app?vid=c5ab485f-9d17-4442-8a02-4fd199bef794","ios":"levelo://app?vid=c5ab485f-9d17-4442-8a02-4fd199bef794"},"vehicle_type_id":"4","last_reported":1781210690,"current_range_meters":3600,"station_id":"st_d2ngiaodas8pm72gd1h0","pricing_plan_id":"cebpf4jnsgd1na2vs0mg"},{"bike_id":"f1ed67dc-a39d-48d4-99dc-c95b59cf79ac","system_id":"levelo_inurba_marseille","lat":43.30801,"lon":5.38156,"is_reserved":false,"is_disabled":false,"rental_uris":{"android":"levelo://app?vid=f1ed67dc-a39d-48d4-99dc-c95b59cf79ac","ios":"levelo://app?vid=f1ed67dc-a39d-48d4-99dc-c95b59cf79ac"},"vehicle_type_id":"4","last_reported":1781210690,"current_range_meters":3600,"station_id":"ce4bgt12rcd13ifvqce0","pricing_plan_id":"cebpf4jnsgd1na2vs0mg"},{"bike_id":"858bc1f1-e9df-4cf9-9233-92d9caba6756","system_id":"levelo_inurba_marseille","lat":43.26549,"lon":5.37281,"is_reserved":false,"is_disabled":true,"rental_uris":{"android":"levelo://app?vid=858bc1f1-e9df-4cf9-9233-92d9caba6756","ios":"levelo://app?vid=858bc1f1-e9df-4cf9-9233-92d9caba6756"},"vehicle_type_id":"4","last_reported":1781210690,"current_range_meters":4000,"station_id":"ce4bhg12rcd13ifvqf70","pricing_plan_id":"cebpf4jnsgd1na2vs0mg"},{"bike_id":"720b7a81-8ca4-4e49-b6a1-61c4c62a08f7","system_id":"levelo_inurba_marseille","lat":43.24812,"lon":5.37449,"is_reserved":false,"is_disabled":true,"rental_uris":{"android":"levelo://app?vid=720b7a81-8ca4-4e49-b6a1-61c4c62a08f7","ios":"levelo://app?vid=720b7a81-8ca4-4e49-b6a1-61c4c62a08f7"},"vehicle_type_id":"4","last_reported":1781210690,"current_range_meters":4000,"station_id":"ce4bhgh2rcd13ifvqfb0","pricing_plan_id":"cebpf4jnsgd1na2vs0mg"},{"bike_id":"6ba15c2b-70bf-4892-8b14-66870b37121b","system_id":"levelo_inurba_marseille","lat":43.29797,"lon":5.37118,"is_reserved":false,"is_disabled":true,"rental_uris":{"android":"levelo://app?vid=6ba15c2b-70bf-4892-8b14-66870b37121b","ios":"levelo://app?vid=6ba15c2b-70bf-4892-8b14-66870b37121b"},"vehicle_type_id":"4","last_reported":1781210690,"current_range_meters":4000,"station_id":"ce4bgop2rcd13ifvqc1g","pricing_plan_id":"cebpf4jnsgd1na2vs0mg"},{"bike_id":"26e715a8-50ad-4259-804a-7f3d5bf68bc5","system_id":"levelo_inurba_marseille","lat":43.28345,"lon":5.38093,"is_reserved":false,"is_disabled":false,"rental_uris":{"android":"levelo://app?vid=26e715a8-50ad-4259-804a-7f3d5bf68bc5","ios":"levelo://app?vid=26e715a8-50ad-4259-804a-7f3d5bf68bc5"},"vehicle_type_id":"4","last_reported":1781210690,"current_range_meters":4000,"station_id":"ce4bh412rcd13ifvqdr0","pricing_plan_id":"cebpf4jnsgd1na2vs0mg"},{"bike_id":"fa8687c9-0246-4a50-a77f-6e17350d19b9","system_id":"levelo_inurba_marseille","lat":43.251188,"lon":5.403216,"is_reserved":false,"is_disabled":false,"rental_uris":{"android":"levelo://app?vid=fa8687c9-0246-4a50-a77f-6e17350d19b9","ios":"levelo://app?vid=fa8687c9-0246-4a50-a77f-6e17350d19b9"},"vehicle_type_id":"4","last_reported":1781210690,"current_range_meters":4000,"station_id":"ce4bhlh2rcd13ifvqgig","pricing_plan_id":"cebpf4jnsgd1na2vs0mg"},{"bike_id":"36a52cc1-4b60-4aac-8384-5286b63a149c","system_id":"levelo_inurba_marseille","lat":43.32126,"lon":5.36758,"is_reserved":false,"is_disabled":false,"rental_uris":{"android":"levelo://app?vid=36a52cc1-4b60-4aac-8384-5286b63a149c","ios":"levelo://app?vid=36a52cc1-4b60-4aac-8384-5286b63a149c"},"vehicle_type_id":"4","last_reported":1781210690,"current_range_meters":4000,"station_id":"ce4bhrh2rcd13ifvqhug","pricing_plan_id":"cebpf4jnsgd1na2vs0mg"},{"bike_id":"0e2978c3-c8f7-46c4-9648-c79ef479d04e","system_id":"levelo_inurba_marseille","lat":43.28411,"lon":5.34982,"is_reserved":false,"is_disabled":false,"rental_uris":{"android":"levelo://app?vid=0e2978c3-c8f7-46c4-9648-c79ef479d04e","ios":"levelo://app?vid=0e2978c3-c8f7-46c4-9648-c79ef479d04e"},"vehicle_type_id":"4","last_reported":1781210690,"current_range_meters":4000,"station_id":"ce4bhbh2rcd13ifvqepg","pricing_plan_id":"cebpf4jnsgd1na2vs0mg"},{"bike_id":"e1c6c299-9da3-4fb8-8020-b461c214840d","system_id":"levelo_inurba_marseille","lat":43.3197,"lon":5.39009,"is_reserved":false,"is_disabled":false,"rental_uris":{"android":"levelo://app?vid=e1c6c299-9da3-4fb8-8020-b461c214840d","ios":"levelo://app?vid=e1c6c299-9da3-4fb8-8020-b461c214840d"},"vehicle_type_id":"4","last_reported":1781210690,"current_range_meters":4000,"station_id":"","pricing_plan_id":"cebpf4jnsgd1na2vs0mg"},{"bike_id":"cef6c6a1-99d8-4050-9252-1e1a94269c8b","system_id":"levelo_inurba_marseille","lat":43.29108,"lon":5.38136,"is_reserved":false,"is_disabled":false,"rental_uris":{"android":"levelo://app?vid=cef6c6a1-99d8-4050-9252-1e1a94269c8b","ios":"levelo://app?vid=cef6c6a1-99d8-4050-9252-1e1a94269c8b"},"vehicle_type_id":"4","last_reported":1781210690,"current_range_meters":4000,"station_id":"ce4bh512rcd13ifvqe2g","pricing_plan_id":"cebpf4jnsgd1na2vs0mg"},{"bike_id":"a261e416-085f-43ad-be55-095f325ab0d1","system_id":"levelo_inurba_marseille","lat":43.29196,"lon":5.37157,"is_reserved":false,"is_disabled":false,"rental_uris":{"android":"levelo://app?vid=a261e416-085f-43ad-be55-095f325ab0d1","ios":"levelo://app?vid=a261e416-085f-43ad-be55-095f325ab0d1"},"vehicle_type_id":"4","last_reported":1781210690,"current_range_meters":4000,"station_id":"ce4bha92rcd13ifvqeh0","pricing_plan_id":"cebpf4jnsgd1na2vs0mg"},{"bike_id":"10735159-3397-4800-83f9-6dea2cbec6ca","system_id":"levelo_inurba_marseille","lat":43.33497,"lon":5.37361,"is_reserved":false,"is_disabled":false,"rental_uris":{"android":"levelo://app?vid=10735159-3397-4800-83f9-6dea2cbec6ca","ios":"levelo://app?vid=10735159-3397-4800-83f9-6dea2cbec6ca"},"vehicle_type_id":"4","last_reported":1781210690,"current_range_meters":4000,"station_id":"st_d46tts09ee8s73dlu43g","pricing_plan_id":"cebpf4jnsgd1na2vs0mg"},{"bike_id":"80523438-5de1-4acb-aa7c-07ea88be4dae","system_id":"levelo_inurba_marseille","lat":43.31273,"lon":5.40259,"is_reserved":false,"is_disabled":false,"rental_uris":{"android":"levelo://app?vid=80523438-5de1-4acb-aa7c-07ea88be4dae","ios":"levelo://app?vid=80523438-5de1-4acb-aa7c-07ea88be4dae"},"vehicle_type_id":"4","last_reported":1781210690,"current_range_meters":4000,"station_id":"","pricing_plan_id":"cebpf4jnsgd1na2vs0mg"},{"bike_id":"9caa4f18-c443-48c6-a3d1-f58fac60bb1f","system_id":"levelo_inurba_marseille","lat":43.26145,"lon":5.37359,"is_reserved":false,"is_disabled":false,"rental_uris":{"android":"levelo://app?vid=9caa4f18-c443-48c6-a3d1-f58fac60bb1f","ios":"levelo://app?vid=9caa4f18-c443-48c6-a3d1-f58fac60bb1f"},"vehicle_type_id":"4","last_reported":1781210690,"current_range_meters":4000,"station_id":"","pricing_plan_id":"cebpf4jnsgd1na2vs0mg"},{"bike_id":"41f4f1e9-c667-411c-b6f4-8333f0343705","system_id":"levelo_inurba_marseille","lat":43.305412,"lon":5.365573,"is_reserved":false,"is_disabled":false,"rental_uris":{"android":"levelo://app?vid=41f4f1e9-c667-411c-b6f4-8333f0343705","ios":"levelo://app?vid=41f4f1e9-c667-411c-b6f4-8333f0343705"},"vehicle_type_id":"4","last_reported":1781210690,"current_range_meters":4000,"station_id":"ce4bgs12rcd13ifvqcag","pricing_plan_id":"cebpf4jnsgd1na2vs0mg"},{"bike_id":"14b4b371-8f26-4cf1-95b4-880cc3bc4611","system_id":"levelo_inurba_marseille","lat":43.2929,"lon":5.3719,"is_reserved":false,"is_disabled":true,"rental_uris":{"android":"levelo://app?vid=14b4b371-8f26-4cf1-95b4-880cc3bc4611","ios":"levelo://app?vid=14b4b371-8f26-4cf1-95b4-880cc3bc4611"},"vehicle_type_id":"4","last_reported":1781210690,"current_range_meters":4000,"station_id":"ce4bgh92rcd13ifvqb40","pricing_plan_id":"cebpf4jnsgd1na2vs0mg"},{"bike_id":"4df93a2d-aa6a-4b31-93fb-7fa77fa8a80d","system_id":"levelo_inurba_marseille","lat":43.32207,"lon":5.44054,"is_reserved":false,"is_disabled":false,"rental_uris":{"android":"levelo://app?vid=4df93a2d-aa6a-4b31-93fb-7fa77fa8a80d","ios":"levelo://app?vid=4df93a2d-aa6a-4b31-93fb-7fa77fa8a80d"},"vehicle_type_id":"4","last_reported":1781210690,"current_range_meters":4000,"station_id":"","pricing_plan_id":"cebpf4jnsgd1na2vs0mg"},{"bike_id":"95c81c38-d1f6-4024-b076-f9248ef58fe7","system_id":"levelo_inurba_marseille","lat":43.302695,"lon":5.398177,"is_reserved":false,"is_disabled":false,"rental_uris":{"android":"levelo://app?vid=95c81c38-d1f6-4024-b076-f9248ef58fe7","ios":"levelo://app?vid=95c81c38-d1f6-4024-b076-f9248ef58fe7"},"vehicle_type_id":"4","last_reported":1781210690,"current_range_meters":4400,"station_id":"ce4bgvh2rcd13ifvqcs0","pricing_plan_id":"cebpf4jnsgd1na2vs0mg"},{"bike_id":"582c6b7b-37e6-4a03-8f89-52fb5665e43d","system_id":"levelo_inurba_marseille","lat":43.2903,"lon":5.3862,"is_reserved":false,"is_disabled":true,"rental_uris":{"android":"levelo://app?vid=582c6b7b-37e6-4a03-8f89-52fb5665e43d","ios":"levelo://app?vid=582c6b7b-37e6-4a03-8f89-52fb5665e43d"},"vehicle_type_id":"4","last_reported":1781210690,"current_range_meters":4400,"station_id":"ce4bh4p2rcd13ifvqe0g","pricing_plan_id":"cebpf4jnsgd1na2vs0mg"},{"bike_id":"6c96fca7-4a83-479d-ac62-b341b0e9aa74","system_id":"levelo_inurba_marseille","lat":43.30441,"lon":5.38856,"is_reserved":false,"is_disabled":false,"rental_uris":{"android":"levelo://app?vid=6c96fca7-4a83-479d-ac62-b341b0e9aa74","ios":"levelo://app?vid=6c96fca7-4a83-479d-ac62-b341b0e9aa74"},"vehicle_type_id":"4","last_reported":1781210690,"current_range_meters":4400,"station_id":"ce4bgk12rcd13ifvqbi0","pricing_plan_id":"cebpf4jnsgd1na2vs0mg"},{"bike_id":"75b1fd4f-107b-4ebf-99ad-eeeaef9183aa","system_id":"levelo_inurba_marseille","lat":43.262146,"lon":5.3744,"is_reserved":false,"is_disabled":false,"rental_uris":{"android":"levelo://app?vid=75b1fd4f-107b-4ebf-99ad-eeeaef9183aa","ios":"levelo://app?vid=75b1fd4f-107b-4ebf-99ad-eeeaef9183aa"},"vehicle_type_id":"4","last_reported":1781210690,"current_range_meters":4400,"station_id":"ce4bhgp2rcd13ifvqfc0","pricing_plan_id":"cebpf4jnsgd1na2vs0mg"},{"bike_id":"18ef74f6-f248-4a2c-8cf7-9e3e238771e6","system_id":"levelo_inurba_marseille","lat":43.28617,"lon":5.35091,"is_reserved":false,"is_disabled":false,"rental_uris":{"android":"levelo://app?vid=18ef74f6-f248-4a2c-8cf7-9e3e238771e6","ios":"levelo://app?vid=18ef74f6-f248-4a2c-8cf7-9e3e238771e6"},"vehicle_type_id":"4","last_reported":1781210690,"current_range_meters":4400,"station_id":"ce4bhch2rcd13ifvqeug","pricing_plan_id":"cebpf4jnsgd1na2vs0mg"},{"bike_id":"7559c9b8-1654-435b-8728-35bdc7d39a8e","system_id":"levelo_inurba_marseille","lat":43.26211,"lon":5.37439,"is_reserved":false,"is_disabled":false,"rental_uris":{"android":"levelo://app?vid=7559c9b8-1654-435b-8728-35bdc7d39a8e","ios":"levelo://app?vid=7559c9b8-1654-435b-8728-35bdc7d39a8e"},"vehicle_type_id":"4","last_reported":1781210690,"current_range_meters":4400,"station_id":"ce4bhgp2rcd13ifvqfc0","pricing_plan_id":"cebpf4jnsgd1na2vs0mg"},{"bike_id":"a4b00031-ee09-4aec-8eb7-94d1603e3e96","system_id":"levelo_inurba_marseille","lat":43.32181,"lon":5.36773,"is_reserved":false,"is_disabled":false,"rental_uris":{"android":"levelo://app?vid=a4b00031-ee09-4aec-8eb7-94d1603e3e96","ios":"levelo://app?vid=a4b00031-ee09-4aec-8eb7-94d1603e3e96"},"vehicle_type_id":"4","last_reported":1781210690,"current_range_meters":4400,"station_id":"","pricing_plan_id":"cebpf4jnsgd1na2vs0mg"},{"bike_id":"3a75f0d0-f871-460b-9645-7adb90b5c1ca","system_id":"levelo_inurba_marseille","lat":43.25121,"lon":5.40279,"is_reserved":false,"is_disabled":true,"rental_uris":{"android":"levelo://app?vid=3a75f0d0-f871-460b-9645-7adb90b5c1ca","ios":"levelo://app?vid=3a75f0d0-f871-460b-9645-7adb90b5c1ca"},"vehicle_type_id":"4","last_reported":1781210690,"current_range_meters":4400,"station_id":"ce4bhlh2rcd13ifvqgig","pricing_plan_id":"cebpf4jnsgd1na2vs0mg"},{"bike_id":"9845ecd6-c2e1-44c8-9b95-22ed5860c660","system_id":"levelo_inurba_marseille","lat":43.23155,"lon":5.40492,"is_reserved":false,"is_disabled":false,"rental_uris":{"android":"levelo://app?vid=9845ecd6-c2e1-44c8-9b95-22ed5860c660","ios":"levelo://app?vid=9845ecd6-c2e1-44c8-9b95-22ed5860c660"},"vehicle_type_id":"4","last_reported":1781210690,"current_range_meters":4400,"station_id":"","pricing_plan_id":"cebpf4jnsgd1na2vs0mg"},{"bike_id":"9167f767-0d7d-4a75-a2ed-c3bb3be42588","system_id":"levelo_inurba_marseille","lat":43.31361,"lon":5.38496,"is_reserved":false,"is_disabled":false,"rental_uris":{"android":"levelo://app?vid=9167f767-0d7d-4a75-a2ed-c3bb3be42588","ios":"levelo://app?vid=9167f767-0d7d-4a75-a2ed-c3bb3be42588"},"vehicle_type_id":"4","last_reported":1781210690,"current_range_meters":4400,"station_id":"ce4bgt92rcd13ifvqcf0","pricing_plan_id":"cebpf4jnsgd1na2vs0mg"},{"bike_id":"c2fd1dcf-9515-4468-8e03-d5ed5d6a02f1","system_id":"levelo_inurba_marseille","lat":43.28855,"lon":5.35858,"is_reserved":false,"is_disabled":false,"rental_uris":{"android":"levelo://app?vid=c2fd1dcf-9515-4468-8e03-d5ed5d6a02f1","ios":"levelo://app?vid=c2fd1dcf-9515-4468-8e03-d5ed5d6a02f1"},"vehicle_type_id":"4","last_reported":1781210690,"current_range_meters":4400,"station_id":"ce4bhb12rcd13ifvqem0","pricing_plan_id":"cebpf4jnsgd1na2vs0mg"},{"bike_id":"31d391cf-deb0-4bdc-8122-c7bce88320de","system_id":"levelo_inurba_marseille","lat":43.28556,"lon":5.38448,"is_reserved":false,"is_disabled":false,"rental_uris":{"android":"levelo://app?vid=31d391cf-deb0-4bdc-8122-c7bce88320de","ios":"levelo://app?vid=31d391cf-deb0-4bdc-8122-c7bce88320de"},"vehicle_type_id":"4","last_reported":1781210690,"current_range_meters":4800,"station_id":"","pricing_plan_id":"cebpf4jnsgd1na2vs0mg"},{"bike_id":"06b0e4c9-7d0e-4204-99ac-ea2c0040b0a5","system_id":"levelo_inurba_marseille","lat":43.2795,"lon":5.4103,"is_reserved":false,"is_disabled":false,"rental_uris":{"android":"levelo://app?vid=06b0e4c9-7d0e-4204-99ac-ea2c0040b0a5","ios":"levelo://app?vid=06b0e4c9-7d0e-4204-99ac-ea2c0040b0a5"},"vehicle_type_id":"4","last_reported":1781210690,"current_range_meters":4800,"station_id":"ce4bhnp2rcd13ifvqh0g","pricing_plan_id":"cebpf4jnsgd1na2vs0mg"},{"bike_id":"e2efc7c7-a347-4a56-a140-e9f45c94d1eb","system_id":"levelo_inurba_marseille","lat":43.28482,"lon":5.38536,"is_reserved":false,"is_disabled":true,"rental_uris":{"android":"levelo://app?vid=e2efc7c7-a347-4a56-a140-e9f45c94d1eb","ios":"levelo://app?vid=e2efc7c7-a347-4a56-a140-e9f45c94d1eb"},"vehicle_type_id":"4","last_reported":1781210690,"current_range_meters":4800,"station_id":"ce4bh8p2rcd13ifvqeb0","pricing_plan_id":"cebpf4jnsgd1na2vs0mg"},{"bike_id":"428c3e3c-12af-4f39-baa9-d9e5d7e21c93","system_id":"levelo_inurba_marseille","lat":43.28971,"lon":5.3785,"is_reserved":false,"is_disabled":false,"rental_uris":{"android":"levelo://app?vid=428c3e3c-12af-4f39-baa9-d9e5d7e21c93","ios":"levelo://app?vid=428c3e3c-12af-4f39-baa9-d9e5d7e21c93"},"vehicle_type_id":"4","last_reported":1781210690,"current_range_meters":4800,"station_id":"ce4bh9p2rcd13ifvqed0","pricing_plan_id":"cebpf4jnsgd1na2vs0mg"},{"bike_id":"5c17057b-bf5f-46fb-a6d3-4474bdd8a421","system_id":"levelo_inurba_marseille","lat":43.29265,"lon":5.38459,"is_reserved":false,"is_disabled":false,"rental_uris":{"android":"levelo://app?vid=5c17057b-bf5f-46fb-a6d3-4474bdd8a421","ios":"levelo://app?vid=5c17057b-bf5f-46fb-a6d3-4474bdd8a421"},"vehicle_type_id":"4","last_reported":1781210690,"current_range_meters":4800,"station_id":"ce4bh692rcd13ifvqea0","pricing_plan_id":"cebpf4jnsgd1na2vs0mg"},{"bike_id":"a1c015e9-3e11-46f0-b642-1fa3036dfa73","system_id":"levelo_inurba_marseille","lat":43.33162,"lon":5.37681,"is_reserved":false,"is_disabled":false,"rental_uris":{"android":"levelo://app?vid=a1c015e9-3e11-46f0-b642-1fa3036dfa73","ios":"levelo://app?vid=a1c015e9-3e11-46f0-b642-1fa3036dfa73"},"vehicle_type_id":"4","last_reported":1781210690,"current_range_meters":4800,"station_id":"st_d46cu089ee8s73dldbu0","pricing_plan_id":"cebpf4jnsgd1na2vs0mg"},{"bike_id":"915dc4cb-f120-4096-b04a-3a5582354374","system_id":"levelo_inurba_marseille","lat":43.29202,"lon":5.3933,"is_reserved":false,"is_disabled":false,"rental_uris":{"android":"levelo://app?vid=915dc4cb-f120-4096-b04a-3a5582354374","ios":"levelo://app?vid=915dc4cb-f120-4096-b04a-3a5582354374"},"vehicle_type_id":"4","last_reported":1781210690,"current_range_meters":4800,"station_id":"ce4bh192rcd13ifvqdd0","pricing_plan_id":"cebpf4jnsgd1na2vs0mg"},{"bike_id":"e24b70c6-3a8a-4e01-ab56-31a97bcc3861","system_id":"levelo_inurba_marseille","lat":43.29261,"lon":5.38439,"is_reserved":false,"is_disabled":false,"rental_uris":{"android":"levelo://app?vid=e24b70c6-3a8a-4e01-ab56-31a97bcc3861","ios":"levelo://app?vid=e24b70c6-3a8a-4e01-ab56-31a97bcc3861"},"vehicle_type_id":"4","last_reported":1781210690,"current_range_meters":4800,"station_id":"ce4bh692rcd13ifvqea0","pricing_plan_id":"cebpf4jnsgd1na2vs0mg"},{"bike_id":"db878d09-78f8-433c-b1c2-03f523409cfa","system_id":"levelo_inurba_marseille","lat":43.27913,"lon":5.39571,"is_reserved":false,"is_disabled":false,"rental_uris":{"android":"levelo://app?vid=db878d09-78f8-433c-b1c2-03f523409cfa","ios":"levelo://app?vid=db878d09-78f8-433c-b1c2-03f523409cfa"},"vehicle_type_id":"4","last_reported":1781210690,"current_range_meters":4800,"station_id":"ce4bhf92rcd13ifvqf40","pricing_plan_id":"cebpf4jnsgd1na2vs0mg"},{"bike_id":"1310b6fd-c32c-4655-baa4-e66a23058acd","system_id":"levelo_inurba_marseille","lat":43.31042,"lon":5.37168,"is_reserved":false,"is_disabled":false,"rental_uris":{"android":"levelo://app?vid=1310b6fd-c32c-4655-baa4-e66a23058acd","ios":"levelo://app?vid=1310b6fd-c32c-4655-baa4-e66a23058acd"},"vehicle_type_id":"4","last_reported":1781210690,"current_range_meters":4800,"station_id":"st_d4kl2rp97mjs73e7tdfg","pricing_plan_id":"cebpf4jnsgd1na2vs0mg"},{"bike_id":"e8cf9eca-54d0-4eb8-ae8a-b7fb6cbc0e8f","system_id":"levelo_inurba_marseille","lat":43.29592,"lon":5.38638,"is_reserved":false,"is_disabled":false,"rental_uris":{"android":"levelo://app?vid=e8cf9eca-54d0-4eb8-ae8a-b7fb6cbc0e8f","ios":"levelo://app?vid=e8cf9eca-54d0-4eb8-ae8a-b7fb6cbc0e8f"},"vehicle_type_id":"4","last_reported":1781210690,"current_range_meters":4800,"station_id":"","pricing_plan_id":"cebpf4jnsgd1na2vs0mg"},{"bike_id":"ee630227-b472-4a9b-99e9-bdd036978952","system_id":"levelo_inurba_marseille","lat":43.28585,"lon":5.39406,"is_reserved":false,"is_disabled":false,"rental_uris":{"android":"levelo://app?vid=ee630227-b472-4a9b-99e9-bdd036978952","ios":"levelo://app?vid=ee630227-b472-4a9b-99e9-bdd036978952"},"vehicle_type_id":"4","last_reported":1781210690,"current_range_meters":4800,"station_id":"","pricing_plan_id":"cebpf4jnsgd1na2vs0mg"},{"bike_id":"fd9825f9-bc7d-4382-a59f-c71db44d5b7c","system_id":"levelo_inurba_marseille","lat":43.25494,"lon":5.37642,"is_reserved":false,"is_disabled":false,"rental_uris":{"android":"levelo://app?vid=fd9825f9-bc7d-4382-a59f-c71db44d5b7c","ios":"levelo://app?vid=fd9825f9-bc7d-4382-a59f-c71db44d5b7c"},"vehicle_type_id":"4","last_reported":1781210690,"current_range_meters":4800,"station_id":"ce4bhh12rcd13ifvqff0","pricing_plan_id":"cebpf4jnsgd1na2vs0mg"},{"bike_id":"6129c293-e1ac-4d7e-85c8-adbe022df066","system_id":"levelo_inurba_marseille","lat":43.24957,"lon":5.40486,"is_reserved":false,"is_disabled":false,"rental_uris":{"android":"levelo://app?vid=6129c293-e1ac-4d7e-85c8-adbe022df066","ios":"levelo://app?vid=6129c293-e1ac-4d7e-85c8-adbe022df066"},"vehicle_type_id":"4","last_reported":1781210690,"current_range_meters":4800,"station_id":"st_d2ngiaodas8pm72gd1h0","pricing_plan_id":"cebpf4jnsgd1na2vs0mg"},{"bike_id":"2342907d-28d7-441e-a79f-1a070462f8e5","system_id":"levelo_inurba_marseille","lat":43.28943,"lon":5.39597,"is_reserved":false,"is_disabled":false,"rental_uris":{"android":"levelo://app?vid=2342907d-28d7-441e-a79f-1a070462f8e5","ios":"levelo://app?vid=2342907d-28d7-441e-a79f-1a070462f8e5"},"vehicle_type_id":"4","last_reported":1781210690,"current_range_meters":4800,"station_id":"ce4bh3h2rcd13ifvqdn0","pricing_plan_id":"cebpf4jnsgd1na2vs0mg"},{"bike_id":"1b46b3a9-16b1-4dc0-ba9c-b4a91ee35a59","system_id":"levelo_inurba_marseille","lat":43.26564,"lon":5.3899,"is_reserved":false,"is_disabled":false,"rental_uris":{"android":"levelo://app?vid=1b46b3a9-16b1-4dc0-ba9c-b4a91ee35a59","ios":"levelo://app?vid=1b46b3a9-16b1-4dc0-ba9c-b4a91ee35a59"},"vehicle_type_id":"4","last_reported":1781210690,"current_range_meters":4800,"station_id":"ce4bhe12rcd13ifvqf30","pricing_plan_id":"cebpf4jnsgd1na2vs0mg"},{"bike_id":"76f5dd5d-ca31-4b0e-8dbb-b6ce3553ebe9","system_id":"levelo_inurba_marseille","lat":43.26054,"lon":5.3939,"is_reserved":false,"is_disabled":false,"rental_uris":{"android":"levelo://app?vid=76f5dd5d-ca31-4b0e-8dbb-b6ce3553ebe9","ios":"levelo://app?vid=76f5dd5d-ca31-4b0e-8dbb-b6ce3553ebe9"},"vehicle_type_id":"4","last_reported":1781210690,"current_range_meters":4800,"station_id":"ce4bhh92rcd13ifvqfj0","pricing_plan_id":"cebpf4jnsgd1na2vs0mg"},{"bike_id":"80b6575a-787e-4cc1-9c47-73963fb63968","system_id":"levelo_inurba_marseille","lat":43.2862,"lon":5.35103,"is_reserved":false,"is_disabled":false,"rental_uris":{"android":"levelo://app?vid=80b6575a-787e-4cc1-9c47-73963fb63968","ios":"levelo://app?vid=80b6575a-787e-4cc1-9c47-73963fb63968"},"vehicle_type_id":"4","last_reported":1781210690,"current_range_meters":4800,"station_id":"ce4bhch2rcd13ifvqeug","pricing_plan_id":"cebpf4jnsgd1na2vs0mg"},{"bike_id":"a5738529-d6fe-4d63-b356-4ef3c5027584","system_id":"levelo_inurba_marseille","lat":43.2494,"lon":5.39019,"is_reserved":false,"is_disabled":false,"rental_uris":{"android":"levelo://app?vid=a5738529-d6fe-4d63-b356-4ef3c5027584","ios":"levelo://app?vid=a5738529-d6fe-4d63-b356-4ef3c5027584"},"vehicle_type_id":"4","last_reported":1781210690,"current_range_meters":4800,"station_id":"","pricing_plan_id":"cebpf4jnsgd1na2vs0mg"},{"bike_id":"9c950017-90b1-4f2a-8b80-26f2a3bd699c","system_id":"levelo_inurba_marseille","lat":43.27175,"lon":5.40983,"is_reserved":false,"is_disabled":false,"rental_uris":{"android":"levelo://app?vid=9c950017-90b1-4f2a-8b80-26f2a3bd699c","ios":"levelo://app?vid=9c950017-90b1-4f2a-8b80-26f2a3bd699c"},"vehicle_type_id":"4","last_reported":1781210690,"current_range_meters":4800,"station_id":"ce4bhl12rcd13ifvqgf0","pricing_plan_id":"cebpf4jnsgd1na2vs0mg"},{"bike_id":"f6bac920-035a-425f-9d43-04738b60b9e9","system_id":"levelo_inurba_marseille","lat":43.29284,"lon":5.38874,"is_reserved":false,"is_disabled":false,"rental_uris":{"android":"levelo://app?vid=f6bac920-035a-425f-9d43-04738b60b9e9","ios":"levelo://app?vid=f6bac920-035a-425f-9d43-04738b60b9e9"},"vehicle_type_id":"4","last_reported":1781210690,"current_range_meters":4800,"station_id":"","pricing_plan_id":"cebpf4jnsgd1na2vs0mg"},{"bike_id":"4c2252fc-e4e5-45d5-aee3-e7266645c2c8","system_id":"levelo_inurba_marseille","lat":43.3143,"lon":5.37244,"is_reserved":false,"is_disabled":false,"rental_uris":{"android":"levelo://app?vid=4c2252fc-e4e5-45d5-aee3-e7266645c2c8","ios":"levelo://app?vid=4c2252fc-e4e5-45d5-aee3-e7266645c2c8"},"vehicle_type_id":"4","last_reported":1781210690,"current_range_meters":4800,"station_id":"","pricing_plan_id":"cebpf4jnsgd1na2vs0mg"},{"bike_id":"1a40880f-06f1-44a4-ba92-708afeb30515","system_id":"levelo_inurba_marseille","lat":43.26172,"lon":5.37429,"is_reserved":false,"is_disabled":false,"rental_uris":{"android":"levelo://app?vid=1a40880f-06f1-44a4-ba92-708afeb30515","ios":"levelo://app?vid=1a40880f-06f1-44a4-ba92-708afeb30515"},"vehicle_type_id":"4","last_reported":1781210690,"current_range_meters":5600,"station_id":"ce4bhgp2rcd13ifvqfc0","pricing_plan_id":"cebpf4jnsgd1na2vs0mg"},{"bike_id":"581eb976-4601-4f87-b521-f567cf030906","system_id":"levelo_inurba_marseille","lat":43.23941,"lon":5.43807,"is_reserved":false,"is_disabled":false,"rental_uris":{"android":"levelo://app?vid=581eb976-4601-4f87-b521-f567cf030906","ios":"levelo://app?vid=581eb976-4601-4f87-b521-f567cf030906"},"vehicle_type_id":"4","last_reported":1781210690,"current_range_meters":5600,"station_id":"","pricing_plan_id":"cebpf4jnsgd1na2vs0mg"},{"bike_id":"f42ad956-5eb1-4d9b-82e8-cfaf1aa616a2","system_id":"levelo_inurba_marseille","lat":43.26017,"lon":5.37554,"is_reserved":false,"is_disabled":false,"rental_uris":{"android":"levelo://app?vid=f42ad956-5eb1-4d9b-82e8-cfaf1aa616a2","ios":"levelo://app?vid=f42ad956-5eb1-4d9b-82e8-cfaf1aa616a2"},"vehicle_type_id":"4","last_reported":1781210690,"current_range_meters":5600,"station_id":"ce4bhgh2rcd13ifvqfa0","pricing_plan_id":"cebpf4jnsgd1na2vs0mg"},{"bike_id":"1d00e877-a9f8-4a55-8de8-7f231d49d2e1","system_id":"levelo_inurba_marseille","lat":43.2857,"lon":5.39495,"is_reserved":false,"is_disabled":true,"rental_uris":{"android":"levelo://app?vid=1d00e877-a9f8-4a55-8de8-7f231d49d2e1","ios":"levelo://app?vid=1d00e877-a9f8-4a55-8de8-7f231d49d2e1"},"vehicle_type_id":"4","last_reported":1781210690,"current_range_meters":5600,"station_id":"ce4bh292rcd13ifvqdg0","pricing_plan_id":"cebpf4jnsgd1na2vs0mg"},{"bike_id":"e30ddbc6-0254-49b9-9ae4-b157e53a94df","system_id":"levelo_inurba_marseille","lat":43.26206,"lon":5.3744,"is_reserved":false,"is_disabled":false,"rental_uris":{"android":"levelo://app?vid=e30ddbc6-0254-49b9-9ae4-b157e53a94df","ios":"levelo://app?vid=e30ddbc6-0254-49b9-9ae4-b157e53a94df"},"vehicle_type_id":"4","last_reported":1781210690,"current_range_meters":5600,"station_id":"ce4bhgp2rcd13ifvqfc0","pricing_plan_id":"cebpf4jnsgd1na2vs0mg"},{"bike_id":"a9c6ea0e-e582-4254-8783-076f5e9d8d41","system_id":"levelo_inurba_marseille","lat":43.28846,"lon":5.3933,"is_reserved":false,"is_disabled":true,"rental_uris":{"android":"levelo://app?vid=a9c6ea0e-e582-4254-8783-076f5e9d8d41","ios":"levelo://app?vid=a9c6ea0e-e582-4254-8783-076f5e9d8d41"},"vehicle_type_id":"4","last_reported":1781210690,"current_range_meters":5600,"station_id":"ce4bh2p2rcd13ifvqdi0","pricing_plan_id":"cebpf4jnsgd1na2vs0mg"},{"bike_id":"1b19ecd1-a8c9-42eb-b4bc-6e17a49af936","system_id":"levelo_inurba_marseille","lat":43.29027,"lon":5.3864,"is_reserved":false,"is_disabled":false,"rental_uris":{"android":"levelo://app?vid=1b19ecd1-a8c9-42eb-b4bc-6e17a49af936","ios":"levelo://app?vid=1b19ecd1-a8c9-42eb-b4bc-6e17a49af936"},"vehicle_type_id":"4","last_reported":1781210690,"current_range_meters":5600,"station_id":"ce4bh4p2rcd13ifvqe0g","pricing_plan_id":"cebpf4jnsgd1na2vs0mg"},{"bike_id":"becf7538-a49a-47b2-898c-da691a16b228","system_id":"levelo_inurba_marseille","lat":43.29028,"lon":5.35904,"is_reserved":false,"is_disabled":true,"rental_uris":{"android":"levelo://app?vid=becf7538-a49a-47b2-898c-da691a16b228","ios":"levelo://app?vid=becf7538-a49a-47b2-898c-da691a16b228"},"vehicle_type_id":"4","last_reported":1781210690,"current_range_meters":5600,"station_id":"ce4bha92rcd13ifvqeg0","pricing_plan_id":"cebpf4jnsgd1na2vs0mg"},{"bike_id":"68f8e769-250d-4e94-9e5d-d91e277a0123","system_id":"levelo_inurba_marseille","lat":43.293,"lon":5.37459,"is_reserved":false,"is_disabled":false,"rental_uris":{"android":"levelo://app?vid=68f8e769-250d-4e94-9e5d-d91e277a0123","ios":"levelo://app?vid=68f8e769-250d-4e94-9e5d-d91e277a0123"},"vehicle_type_id":"4","last_reported":1781210690,"current_range_meters":5600,"station_id":"ce4bgi12rcd13ifvqb70","pricing_plan_id":"cebpf4jnsgd1na2vs0mg"},{"bike_id":"05cb6286-1955-4fb9-9132-52963aaae345","system_id":"levelo_inurba_marseille","lat":43.2953,"lon":5.38516,"is_reserved":false,"is_disabled":false,"rental_uris":{"android":"levelo://app?vid=05cb6286-1955-4fb9-9132-52963aaae345","ios":"levelo://app?vid=05cb6286-1955-4fb9-9132-52963aaae345"},"vehicle_type_id":"4","last_reported":1781210690,"current_range_meters":5600,"station_id":"ce4bgih2rcd13ifvqba0","pricing_plan_id":"cebpf4jnsgd1na2vs0mg"},{"bike_id":"eef80d5e-0c37-4e3b-a7c8-e434f4ea77e2","system_id":"levelo_inurba_marseille","lat":43.30439,"lon":5.38892,"is_reserved":false,"is_disabled":false,"rental_uris":{"android":"levelo://app?vid=eef80d5e-0c37-4e3b-a7c8-e434f4ea77e2","ios":"levelo://app?vid=eef80d5e-0c37-4e3b-a7c8-e434f4ea77e2"},"vehicle_type_id":"4","last_reported":1781210690,"current_range_meters":5600,"station_id":"ce4bgk12rcd13ifvqbi0","pricing_plan_id":"cebpf4jnsgd1na2vs0mg"},{"bike_id":"b3b9d53c-3df4-40f0-ada2-c2029c13fb1f","system_id":"levelo_inurba_marseille","lat":43.30651,"lon":5.401,"is_reserved":false,"is_disabled":false,"rental_uris":{"android":"levelo://app?vid=b3b9d53c-3df4-40f0-ada2-c2029c13fb1f","ios":"levelo://app?vid=b3b9d53c-3df4-40f0-ada2-c2029c13fb1f"},"vehicle_type_id":"4","last_reported":1781210690,"current_range_meters":5600,"station_id":"ce4bh112rcd13ifvqda0","pricing_plan_id":"cebpf4jnsgd1na2vs0mg"},{"bike_id":"cdaffa5f-9ecb-409f-93bc-f132f49ebaf0","system_id":"levelo_inurba_marseille","lat":43.27627,"lon":5.36103,"is_reserved":false,"is_disabled":false,"rental_uris":{"android":"levelo://app?vid=cdaffa5f-9ecb-409f-93bc-f132f49ebaf0","ios":"levelo://app?vid=cdaffa5f-9ecb-409f-93bc-f132f49ebaf0"},"vehicle_type_id":"4","last_reported":1781210690,"current_range_meters":5600,"station_id":"ce4bgj92rcd13ifvqbe0","pricing_plan_id":"cebpf4jnsgd1na2vs0mg"},{"bike_id":"7c131e63-4882-494d-814c-185065bffc7c","system_id":"levelo_inurba_marseille","lat":43.28473,"lon":5.48405,"is_reserved":false,"is_disabled":false,"rental_uris":{"android":"levelo://app?vid=7c131e63-4882-494d-814c-185065bffc7c","ios":"levelo://app?vid=7c131e63-4882-494d-814c-185065bffc7c"},"vehicle_type_id":"4","last_reported":1781210690,"current_range_meters":5600,"station_id":"st_d3svhcjqgbts73a3dn0g","pricing_plan_id":"cebpf4jnsgd1na2vs0mg"},{"bike_id":"72596ebd-ea6d-4b6d-968a-acb42e5b04cf","system_id":"levelo_inurba_marseille","lat":43.29616,"lon":5.379,"is_reserved":false,"is_disabled":false,"rental_uris":{"android":"levelo://app?vid=72596ebd-ea6d-4b6d-968a-acb42e5b04cf","ios":"levelo://app?vid=72596ebd-ea6d-4b6d-968a-acb42e5b04cf"},"vehicle_type_id":"4","last_reported":1781210690,"current_range_meters":5600,"station_id":"","pricing_plan_id":"cebpf4jnsgd1na2vs0mg"},{"bike_id":"4343f291-38b8-47e7-a883-039a0fd0f77e","system_id":"levelo_inurba_marseille","lat":43.32124,"lon":5.36754,"is_reserved":false,"is_disabled":false,"rental_uris":{"android":"levelo://app?vid=4343f291-38b8-47e7-a883-039a0fd0f77e","ios":"levelo://app?vid=4343f291-38b8-47e7-a883-039a0fd0f77e"},"vehicle_type_id":"4","last_reported":1781210690,"current_range_meters":5600,"station_id":"ce4bhrh2rcd13ifvqhug","pricing_plan_id":"cebpf4jnsgd1na2vs0mg"},{"bike_id":"d00e8805-27b9-4520-8162-b56084224f32","system_id":"levelo_inurba_marseille","lat":43.31096,"lon":5.37743,"is_reserved":false,"is_disabled":false,"rental_uris":{"android":"levelo://app?vid=d00e8805-27b9-4520-8162-b56084224f32","ios":"levelo://app?vid=d00e8805-27b9-4520-8162-b56084224f32"},"vehicle_type_id":"4","last_reported":1781210690,"current_range_meters":5600,"station_id":"ce4bgt92rcd13ifvqcg0","pricing_plan_id":"cebpf4jnsgd1na2vs0mg"},{"bike_id":"d2fae584-e8a4-411b-8497-01e9defa4f72","system_id":"levelo_inurba_marseille","lat":43.28611,"lon":5.35103,"is_reserved":false,"is_disabled":false,"rental_uris":{"android":"levelo://app?vid=d2fae584-e8a4-411b-8497-01e9defa4f72","ios":"levelo://app?vid=d2fae584-e8a4-411b-8497-01e9defa4f72"},"vehicle_type_id":"4","last_reported":1781210690,"current_range_meters":5600,"station_id":"ce4bhch2rcd13ifvqeug","pricing_plan_id":"cebpf4jnsgd1na2vs0mg"},{"bike_id":"954e3355-5fd3-400f-9041-6432c39b51f3","system_id":"levelo_inurba_marseille","lat":43.27993,"lon":5.41666,"is_reserved":false,"is_disabled":false,"rental_uris":{"android":"levelo://app?vid=954e3355-5fd3-400f-9041-6432c39b51f3","ios":"levelo://app?vid=954e3355-5fd3-400f-9041-6432c39b51f3"},"vehicle_type_id":"4","last_reported":1781210690,"current_range_meters":5600,"station_id":"ce4bho12rcd13ifvqh1g","pricing_plan_id":"cebpf4jnsgd1na2vs0mg"},{"bike_id":"55b5bfc5-4cc2-4013-8a9d-77fc56d78c5e","system_id":"levelo_inurba_marseille","lat":43.29247,"lon":5.38439,"is_reserved":false,"is_disabled":false,"rental_uris":{"android":"levelo://app?vid=55b5bfc5-4cc2-4013-8a9d-77fc56d78c5e","ios":"levelo://app?vid=55b5bfc5-4cc2-4013-8a9d-77fc56d78c5e"},"vehicle_type_id":"4","last_reported":1781210690,"current_range_meters":5600,"station_id":"ce4bh692rcd13ifvqea0","pricing_plan_id":"cebpf4jnsgd1na2vs0mg"},{"bike_id":"d8a3a082-3a8a-404e-ab31-a06649f9bec8","system_id":"levelo_inurba_marseille","lat":43.28938,"lon":5.36636,"is_reserved":false,"is_disabled":false,"rental_uris":{"android":"levelo://app?vid=d8a3a082-3a8a-404e-ab31-a06649f9bec8","ios":"levelo://app?vid=d8a3a082-3a8a-404e-ab31-a06649f9bec8"},"vehicle_type_id":"4","last_reported":1781210690,"current_range_meters":5600,"station_id":"ce4bhap2rcd13ifvqek0","pricing_plan_id":"cebpf4jnsgd1na2vs0mg"},{"bike_id":"0ae2479e-38d3-48bf-8199-89c9a9150b07","system_id":"levelo_inurba_marseille","lat":43.26014,"lon":5.37565,"is_reserved":false,"is_disabled":false,"rental_uris":{"android":"levelo://app?vid=0ae2479e-38d3-48bf-8199-89c9a9150b07","ios":"levelo://app?vid=0ae2479e-38d3-48bf-8199-89c9a9150b07"},"vehicle_type_id":"4","last_reported":1781210690,"current_range_meters":5600,"station_id":"ce4bhgh2rcd13ifvqfa0","pricing_plan_id":"cebpf4jnsgd1na2vs0mg"},{"bike_id":"bc21bf03-4137-4d04-86ac-ec41e9d80439","system_id":"levelo_inurba_marseille","lat":43.28866,"lon":5.42507,"is_reserved":false,"is_disabled":false,"rental_uris":{"android":"levelo://app?vid=bc21bf03-4137-4d04-86ac-ec41e9d80439","ios":"levelo://app?vid=bc21bf03-4137-4d04-86ac-ec41e9d80439"},"vehicle_type_id":"4","last_reported":1781210690,"current_range_meters":5600,"station_id":"st_d3b462108ojc7389ooeg","pricing_plan_id":"cebpf4jnsgd1na2vs0mg"},{"bike_id":"070057c1-c992-4bf0-8866-a67f352f117e","system_id":"levelo_inurba_marseille","lat":43.2954,"lon":5.38538,"is_reserved":false,"is_disabled":false,"rental_uris":{"android":"levelo://app?vid=070057c1-c992-4bf0-8866-a67f352f117e","ios":"levelo://app?vid=070057c1-c992-4bf0-8866-a67f352f117e"},"vehicle_type_id":"4","last_reported":1781210690,"current_range_meters":5600,"station_id":"ce4bgih2rcd13ifvqba0","pricing_plan_id":"cebpf4jnsgd1na2vs0mg"},{"bike_id":"61cf2985-70aa-4d5e-a9bd-3b7e24724c70","system_id":"levelo_inurba_marseille","lat":43.30639,"lon":5.40064,"is_reserved":false,"is_disabled":false,"rental_uris":{"android":"levelo://app?vid=61cf2985-70aa-4d5e-a9bd-3b7e24724c70","ios":"levelo://app?vid=61cf2985-70aa-4d5e-a9bd-3b7e24724c70"},"vehicle_type_id":"4","last_reported":1781210690,"current_range_meters":6000,"station_id":"ce4bh112rcd13ifvqda0","pricing_plan_id":"cebpf4jnsgd1na2vs0mg"},{"bike_id":"a2e67601-4678-407f-a001-e53cd8d57696","system_id":"levelo_inurba_marseille","lat":43.29543,"lon":5.38538,"is_reserved":false,"is_disabled":false,"rental_uris":{"android":"levelo://app?vid=a2e67601-4678-407f-a001-e53cd8d57696","ios":"levelo://app?vid=a2e67601-4678-407f-a001-e53cd8d57696"},"vehicle_type_id":"4","last_reported":1781210690,"current_range_meters":6000,"station_id":"ce4bgih2rcd13ifvqba0","pricing_plan_id":"cebpf4jnsgd1na2vs0mg"},{"bike_id":"742dca8c-f5db-4c45-bb54-d3bc982dbb56","system_id":"levelo_inurba_marseille","lat":43.30454,"lon":5.38878,"is_reserved":false,"is_disabled":false,"rental_uris":{"android":"levelo://app?vid=742dca8c-f5db-4c45-bb54-d3bc982dbb56","ios":"levelo://app?vid=742dca8c-f5db-4c45-bb54-d3bc982dbb56"},"vehicle_type_id":"4","last_reported":1781210690,"current_range_meters":6000,"station_id":"ce4bgk12rcd13ifvqbi0","pricing_plan_id":"cebpf4jnsgd1na2vs0mg"},{"bike_id":"a49e079e-56e5-45de-9def-f5d53e5437d9","system_id":"levelo_inurba_marseille","lat":43.28034,"lon":5.35347,"is_reserved":false,"is_disabled":false,"rental_uris":{"android":"levelo://app?vid=a49e079e-56e5-45de-9def-f5d53e5437d9","ios":"levelo://app?vid=a49e079e-56e5-45de-9def-f5d53e5437d9"},"vehicle_type_id":"4","last_reported":1781210690,"current_range_meters":6000,"station_id":"","pricing_plan_id":"cebpf4jnsgd1na2vs0mg"},{"bike_id":"2a7495fc-f4a5-437b-90db-4aae0fffcd92","system_id":"levelo_inurba_marseille","lat":43.29709,"lon":5.36605,"is_reserved":false,"is_disabled":false,"rental_uris":{"android":"levelo://app?vid=2a7495fc-f4a5-437b-90db-4aae0fffcd92","ios":"levelo://app?vid=2a7495fc-f4a5-437b-90db-4aae0fffcd92"},"vehicle_type_id":"4","last_reported":1781210690,"current_range_meters":6000,"station_id":"ce4bgn12rcd13ifvqbt0","pricing_plan_id":"cebpf4jnsgd1na2vs0mg"},{"bike_id":"7a2582a1-9f4e-4b77-a662-c666529e13ef","system_id":"levelo_inurba_marseille","lat":43.28048,"lon":5.35013,"is_reserved":false,"is_disabled":false,"rental_uris":{"android":"levelo://app?vid=7a2582a1-9f4e-4b77-a662-c666529e13ef","ios":"levelo://app?vid=7a2582a1-9f4e-4b77-a662-c666529e13ef"},"vehicle_type_id":"4","last_reported":1781210690,"current_range_meters":6000,"station_id":"","pricing_plan_id":"cebpf4jnsgd1na2vs0mg"},{"bike_id":"f4604c3b-a56a-425f-8d90-3b8e1f77f859","system_id":"levelo_inurba_marseille","lat":43.3136,"lon":5.38532,"is_reserved":false,"is_disabled":false,"rental_uris":{"android":"levelo://app?vid=f4604c3b-a56a-425f-8d90-3b8e1f77f859","ios":"levelo://app?vid=f4604c3b-a56a-425f-8d90-3b8e1f77f859"},"vehicle_type_id":"4","last_reported":1781210690,"current_range_meters":6000,"station_id":"ce4bgt92rcd13ifvqcf0","pricing_plan_id":"cebpf4jnsgd1na2vs0mg"},{"bike_id":"de648162-aaef-4bfd-86bb-810a5c9563cf","system_id":"levelo_inurba_marseille","lat":43.26491,"lon":5.39535,"is_reserved":false,"is_disabled":false,"rental_uris":{"android":"levelo://app?vid=de648162-aaef-4bfd-86bb-810a5c9563cf","ios":"levelo://app?vid=de648162-aaef-4bfd-86bb-810a5c9563cf"},"vehicle_type_id":"4","last_reported":1781210690,"current_range_meters":6000,"station_id":"ce4bhi12rcd13ifvqfq0","pricing_plan_id":"cebpf4jnsgd1na2vs0mg"},{"bike_id":"aa6cab79-c2c3-408a-b9d6-b691804efdf5","system_id":"levelo_inurba_marseille","lat":43.29535,"lon":5.38536,"is_reserved":false,"is_disabled":false,"rental_uris":{"android":"levelo://app?vid=aa6cab79-c2c3-408a-b9d6-b691804efdf5","ios":"levelo://app?vid=aa6cab79-c2c3-408a-b9d6-b691804efdf5"},"vehicle_type_id":"4","last_reported":1781210690,"current_range_meters":6000,"station_id":"ce4bgih2rcd13ifvqba0","pricing_plan_id":"cebpf4jnsgd1na2vs0mg"},{"bike_id":"76c7fd52-7f1a-4007-8d4a-79ff993c8464","system_id":"levelo_inurba_marseille","lat":43.30248,"lon":5.40047,"is_reserved":false,"is_disabled":false,"rental_uris":{"android":"levelo://app?vid=76c7fd52-7f1a-4007-8d4a-79ff993c8464","ios":"levelo://app?vid=76c7fd52-7f1a-4007-8d4a-79ff993c8464"},"vehicle_type_id":"4","last_reported":1781210690,"current_range_meters":6000,"station_id":"ce4bgvh2rcd13ifvqcs0","pricing_plan_id":"cebpf4jnsgd1na2vs0mg"},{"bike_id":"e9821af1-9020-40ef-8394-c2fbd16cf750","system_id":"levelo_inurba_marseille","lat":43.23779,"lon":5.36632,"is_reserved":false,"is_disabled":false,"rental_uris":{"android":"levelo://app?vid=e9821af1-9020-40ef-8394-c2fbd16cf750","ios":"levelo://app?vid=e9821af1-9020-40ef-8394-c2fbd16cf750"},"vehicle_type_id":"4","last_reported":1781210690,"current_range_meters":6000,"station_id":"st_d3nk18o9ro0c73en2l3g","pricing_plan_id":"cebpf4jnsgd1na2vs0mg"},{"bike_id":"75fef152-62c5-4e54-978d-e8ddf81662d8","system_id":"levelo_inurba_marseille","lat":43.292868,"lon":5.401391,"is_reserved":false,"is_disabled":false,"rental_uris":{"android":"levelo://app?vid=75fef152-62c5-4e54-978d-e8ddf81662d8","ios":"levelo://app?vid=75fef152-62c5-4e54-978d-e8ddf81662d8"},"vehicle_type_id":"4","last_reported":1781210690,"current_range_meters":6000,"station_id":"ce4bh312rcd13ifvqdk0","pricing_plan_id":"cebpf4jnsgd1na2vs0mg"},{"bike_id":"5ef8b45c-5a2e-4ef3-b317-791d97d054bf","system_id":"levelo_inurba_marseille","lat":43.27138,"lon":5.41392,"is_reserved":false,"is_disabled":false,"rental_uris":{"android":"levelo://app?vid=5ef8b45c-5a2e-4ef3-b317-791d97d054bf","ios":"levelo://app?vid=5ef8b45c-5a2e-4ef3-b317-791d97d054bf"},"vehicle_type_id":"4","last_reported":1781210690,"current_range_meters":6000,"station_id":"","pricing_plan_id":"cebpf4jnsgd1na2vs0mg"},{"bike_id":"2d5655a8-f560-4463-b115-a37f2a56b8ad","system_id":"levelo_inurba_marseille","lat":43.29618,"lon":5.37722,"is_reserved":false,"is_disabled":false,"rental_uris":{"android":"levelo://app?vid=2d5655a8-f560-4463-b115-a37f2a56b8ad","ios":"levelo://app?vid=2d5655a8-f560-4463-b115-a37f2a56b8ad"},"vehicle_type_id":"4","last_reported":1781210690,"current_range_meters":6000,"station_id":"ce4bgi92rcd13ifvqb90","pricing_plan_id":"cebpf4jnsgd1na2vs0mg"},{"bike_id":"0adc8e9f-7880-42db-9e68-19cdef99c12e","system_id":"levelo_inurba_marseille","lat":43.28687,"lon":5.37395,"is_reserved":false,"is_disabled":false,"rental_uris":{"android":"levelo://app?vid=0adc8e9f-7880-42db-9e68-19cdef99c12e","ios":"levelo://app?vid=0adc8e9f-7880-42db-9e68-19cdef99c12e"},"vehicle_type_id":"4","last_reported":1781210690,"current_range_meters":6000,"station_id":"ce4bh3p2rcd13ifvqdq0","pricing_plan_id":"cebpf4jnsgd1na2vs0mg"},{"bike_id":"05dbeb00-c94d-4fd8-88ff-0b9e5369bba0","system_id":"levelo_inurba_marseille","lat":43.2439,"lon":5.37072,"is_reserved":false,"is_disabled":false,"rental_uris":{"android":"levelo://app?vid=05dbeb00-c94d-4fd8-88ff-0b9e5369bba0","ios":"levelo://app?vid=05dbeb00-c94d-4fd8-88ff-0b9e5369bba0"},"vehicle_type_id":"4","last_reported":1781210690,"current_range_meters":6400,"station_id":"ce4bhhh2rcd13ifvqfk0","pricing_plan_id":"cebpf4jnsgd1na2vs0mg"},{"bike_id":"b2ad6388-0d4f-4e9c-8ff3-f1ad38b97382","system_id":"levelo_inurba_marseille","lat":43.27676,"lon":5.42441,"is_reserved":false,"is_disabled":false,"rental_uris":{"android":"levelo://app?vid=b2ad6388-0d4f-4e9c-8ff3-f1ad38b97382","ios":"levelo://app?vid=b2ad6388-0d4f-4e9c-8ff3-f1ad38b97382"},"vehicle_type_id":"4","last_reported":1781210690,"current_range_meters":6400,"station_id":"","pricing_plan_id":"cebpf4jnsgd1na2vs0mg"},{"bike_id":"3baa0b0a-3f15-4a6e-8e8a-c926251735e9","system_id":"levelo_inurba_marseille","lat":43.30569,"lon":5.36561,"is_reserved":false,"is_disabled":true,"rental_uris":{"android":"levelo://app?vid=3baa0b0a-3f15-4a6e-8e8a-c926251735e9","ios":"levelo://app?vid=3baa0b0a-3f15-4a6e-8e8a-c926251735e9"},"vehicle_type_id":"4","last_reported":1781210690,"current_range_meters":6400,"station_id":"ce4bgs12rcd13ifvqcag","pricing_plan_id":"cebpf4jnsgd1na2vs0mg"},{"bike_id":"23ae47f5-c564-485d-805f-a3f32f7b712a","system_id":"levelo_inurba_marseille","lat":43.278123,"lon":5.40714,"is_reserved":false,"is_disabled":false,"rental_uris":{"android":"levelo://app?vid=23ae47f5-c564-485d-805f-a3f32f7b712a","ios":"levelo://app?vid=23ae47f5-c564-485d-805f-a3f32f7b712a"},"vehicle_type_id":"4","last_reported":1781210690,"current_range_meters":6400,"station_id":"ce4bhnh2rcd13ifvqgtg","pricing_plan_id":"cebpf4jnsgd1na2vs0mg"},{"bike_id":"406c92e3-e806-4551-a2b6-fea67fbe0a72","system_id":"levelo_inurba_marseille","lat":43.28609,"lon":5.35103,"is_reserved":false,"is_disabled":false,"rental_uris":{"android":"levelo://app?vid=406c92e3-e806-4551-a2b6-fea67fbe0a72","ios":"levelo://app?vid=406c92e3-e806-4551-a2b6-fea67fbe0a72"},"vehicle_type_id":"4","last_reported":1781210690,"current_range_meters":6400,"station_id":"ce4bhch2rcd13ifvqeug","pricing_plan_id":"cebpf4jnsgd1na2vs0mg"},{"bike_id":"6bcc356f-7f69-45b4-a42f-c8af24594173","system_id":"levelo_inurba_marseille","lat":43.29639,"lon":5.3805,"is_reserved":false,"is_disabled":false,"rental_uris":{"android":"levelo://app?vid=6bcc356f-7f69-45b4-a42f-c8af24594173","ios":"levelo://app?vid=6bcc356f-7f69-45b4-a42f-c8af24594173"},"vehicle_type_id":"4","last_reported":1781210690,"current_range_meters":6400,"station_id":"","pricing_plan_id":"cebpf4jnsgd1na2vs0mg"},{"bike_id":"72477282-3901-47f8-8e4f-cec0d47fffe9","system_id":"levelo_inurba_marseille","lat":43.27068,"lon":5.42275,"is_reserved":false,"is_disabled":false,"rental_uris":{"android":"levelo://app?vid=72477282-3901-47f8-8e4f-cec0d47fffe9","ios":"levelo://app?vid=72477282-3901-47f8-8e4f-cec0d47fffe9"},"vehicle_type_id":"4","last_reported":1781210690,"current_range_meters":6400,"station_id":"ce4bhk92rcd13ifvqgb0","pricing_plan_id":"cebpf4jnsgd1na2vs0mg"},{"bike_id":"95d4cd27-1914-4549-910d-e788342e2817","system_id":"levelo_inurba_marseille","lat":43.25479,"lon":5.37644,"is_reserved":false,"is_disabled":false,"rental_uris":{"android":"levelo://app?vid=95d4cd27-1914-4549-910d-e788342e2817","ios":"levelo://app?vid=95d4cd27-1914-4549-910d-e788342e2817"},"vehicle_type_id":"4","last_reported":1781210690,"current_range_meters":6400,"station_id":"ce4bhh12rcd13ifvqff0","pricing_plan_id":"cebpf4jnsgd1na2vs0mg"},{"bike_id":"bf0d513d-d24a-47b1-bcdb-11e9c8e00198","system_id":"levelo_inurba_marseille","lat":43.26396,"lon":5.41095,"is_reserved":false,"is_disabled":true,"rental_uris":{"android":"levelo://app?vid=bf0d513d-d24a-47b1-bcdb-11e9c8e00198","ios":"levelo://app?vid=bf0d513d-d24a-47b1-bcdb-11e9c8e00198"},"vehicle_type_id":"4","last_reported":1781210690,"current_range_meters":6400,"station_id":"st_d4e5ca6na9uc73bfl5fg","pricing_plan_id":"cebpf4jnsgd1na2vs0mg"},{"bike_id":"136e4448-6a20-415d-895f-c0d5fea55b74","system_id":"levelo_inurba_marseille","lat":43.28091,"lon":5.37838,"is_reserved":false,"is_disabled":false,"rental_uris":{"android":"levelo://app?vid=136e4448-6a20-415d-895f-c0d5fea55b74","ios":"levelo://app?vid=136e4448-6a20-415d-895f-c0d5fea55b74"},"vehicle_type_id":"4","last_reported":1781210690,"current_range_meters":6400,"station_id":"ce4bha12rcd13ifvqee0","pricing_plan_id":"cebpf4jnsgd1na2vs0mg"},{"bike_id":"d15eba13-a915-482c-b275-d8bc0a704605","system_id":"levelo_inurba_marseille","lat":43.29611,"lon":5.37695,"is_reserved":false,"is_disabled":false,"rental_uris":{"android":"levelo://app?vid=d15eba13-a915-482c-b275-d8bc0a704605","ios":"levelo://app?vid=d15eba13-a915-482c-b275-d8bc0a704605"},"vehicle_type_id":"4","last_reported":1781210690,"current_range_meters":6400,"station_id":"ce4bgi92rcd13ifvqb90","pricing_plan_id":"cebpf4jnsgd1na2vs0mg"},{"bike_id":"77d1dd5a-943e-4e0a-8be2-63dd37ad9ee4","system_id":"levelo_inurba_marseille","lat":43.29373,"lon":5.37829,"is_reserved":false,"is_disabled":false,"rental_uris":{"android":"levelo://app?vid=77d1dd5a-943e-4e0a-8be2-63dd37ad9ee4","ios":"levelo://app?vid=77d1dd5a-943e-4e0a-8be2-63dd37ad9ee4"},"vehicle_type_id":"4","last_reported":1781210690,"current_range_meters":6400,"station_id":"ce4bgjh2rcd13ifvqbf0","pricing_plan_id":"cebpf4jnsgd1na2vs0mg"},{"bike_id":"60210465-87aa-4993-adce-44c433a76140","system_id":"levelo_inurba_marseille","lat":43.27329,"lon":5.36274,"is_reserved":false,"is_disabled":false,"rental_uris":{"android":"levelo://app?vid=60210465-87aa-4993-adce-44c433a76140","ios":"levelo://app?vid=60210465-87aa-4993-adce-44c433a76140"},"vehicle_type_id":"4","last_reported":1781210690,"current_range_meters":6400,"station_id":"ce4bhbh2rcd13ifvqeo0","pricing_plan_id":"cebpf4jnsgd1na2vs0mg"},{"bike_id":"8682f4e8-0798-4b4f-8fef-c4dc002ea1c8","system_id":"levelo_inurba_marseille","lat":43.291442,"lon":5.46115,"is_reserved":false,"is_disabled":false,"rental_uris":{"android":"levelo://app?vid=8682f4e8-0798-4b4f-8fef-c4dc002ea1c8","ios":"levelo://app?vid=8682f4e8-0798-4b4f-8fef-c4dc002ea1c8"},"vehicle_type_id":"4","last_reported":1781210690,"current_range_meters":6400,"station_id":"","pricing_plan_id":"cebpf4jnsgd1na2vs0mg"},{"bike_id":"1cb8ef7c-e98e-4cfb-992d-d3305541d0a3","system_id":"levelo_inurba_marseille","lat":43.27377,"lon":5.36262,"is_reserved":false,"is_disabled":false,"rental_uris":{"android":"levelo://app?vid=1cb8ef7c-e98e-4cfb-992d-d3305541d0a3","ios":"levelo://app?vid=1cb8ef7c-e98e-4cfb-992d-d3305541d0a3"},"vehicle_type_id":"4","last_reported":1781210690,"current_range_meters":6400,"station_id":"ce4bhbh2rcd13ifvqeo0","pricing_plan_id":"cebpf4jnsgd1na2vs0mg"},{"bike_id":"ff3f8ae3-b500-4185-bec6-1d96949fa697","system_id":"levelo_inurba_marseille","lat":43.30933,"lon":5.40138,"is_reserved":false,"is_disabled":false,"rental_uris":{"android":"levelo://app?vid=ff3f8ae3-b500-4185-bec6-1d96949fa697","ios":"levelo://app?vid=ff3f8ae3-b500-4185-bec6-1d96949fa697"},"vehicle_type_id":"4","last_reported":1781210690,"current_range_meters":6400,"station_id":"ce4bgvp2rcd13ifvqct0","pricing_plan_id":"cebpf4jnsgd1na2vs0mg"},{"bike_id":"31e2ad24-3edc-483e-9c48-bdf3d89974f0","system_id":"levelo_inurba_marseille","lat":43.2813,"lon":5.38303,"is_reserved":false,"is_disabled":false,"rental_uris":{"android":"levelo://app?vid=31e2ad24-3edc-483e-9c48-bdf3d89974f0","ios":"levelo://app?vid=31e2ad24-3edc-483e-9c48-bdf3d89974f0"},"vehicle_type_id":"4","last_reported":1781210690,"current_range_meters":6400,"station_id":"","pricing_plan_id":"cebpf4jnsgd1na2vs0mg"},{"bike_id":"80ceadb3-7668-423f-bb31-2867199ad540","system_id":"levelo_inurba_marseille","lat":43.31491,"lon":5.37307,"is_reserved":false,"is_disabled":false,"rental_uris":{"android":"levelo://app?vid=80ceadb3-7668-423f-bb31-2867199ad540","ios":"levelo://app?vid=80ceadb3-7668-423f-bb31-2867199ad540"},"vehicle_type_id":"4","last_reported":1781210690,"current_range_meters":6400,"station_id":"ce4bgt12rcd13ifvqcd0","pricing_plan_id":"cebpf4jnsgd1na2vs0mg"},{"bike_id":"b598c738-a367-41df-9cdc-2ced2e03c6a5","system_id":"levelo_inurba_marseille","lat":43.28136,"lon":5.38275,"is_reserved":false,"is_disabled":false,"rental_uris":{"android":"levelo://app?vid=b598c738-a367-41df-9cdc-2ced2e03c6a5","ios":"levelo://app?vid=b598c738-a367-41df-9cdc-2ced2e03c6a5"},"vehicle_type_id":"4","last_reported":1781210690,"current_range_meters":6400,"station_id":"","pricing_plan_id":"cebpf4jnsgd1na2vs0mg"},{"bike_id":"643a5108-6712-460c-84ac-96a9e310c2a1","system_id":"levelo_inurba_marseille","lat":43.32372,"lon":5.36735,"is_reserved":false,"is_disabled":false,"rental_uris":{"android":"levelo://app?vid=643a5108-6712-460c-84ac-96a9e310c2a1","ios":"levelo://app?vid=643a5108-6712-460c-84ac-96a9e310c2a1"},"vehicle_type_id":"4","last_reported":1781210690,"current_range_meters":6800,"station_id":"ce4bhsh2rcd13ifvqi2g","pricing_plan_id":"cebpf4jnsgd1na2vs0mg"},{"bike_id":"e2301970-743d-48b6-a9cc-2abc9beb0150","system_id":"levelo_inurba_marseille","lat":43.29301,"lon":5.3716,"is_reserved":false,"is_disabled":false,"rental_uris":{"android":"levelo://app?vid=e2301970-743d-48b6-a9cc-2abc9beb0150","ios":"levelo://app?vid=e2301970-743d-48b6-a9cc-2abc9beb0150"},"vehicle_type_id":"4","last_reported":1781210690,"current_range_meters":6800,"station_id":"ce4bgh92rcd13ifvqb40","pricing_plan_id":"cebpf4jnsgd1na2vs0mg"},{"bike_id":"a4519ab8-8a91-4627-a831-ddbbcc2b09e2","system_id":"levelo_inurba_marseille","lat":43.30424,"lon":5.39744,"is_reserved":false,"is_disabled":true,"rental_uris":{"android":"levelo://app?vid=a4519ab8-8a91-4627-a831-ddbbcc2b09e2","ios":"levelo://app?vid=a4519ab8-8a91-4627-a831-ddbbcc2b09e2"},"vehicle_type_id":"4","last_reported":1781210690,"current_range_meters":6800,"station_id":"ce4bh092rcd13ifvqd20","pricing_plan_id":"cebpf4jnsgd1na2vs0mg"},{"bike_id":"3c1659d8-5e56-4dbb-908b-68c028d3c70c","system_id":"levelo_inurba_marseille","lat":43.24797,"lon":5.37456,"is_reserved":false,"is_disabled":false,"rental_uris":{"android":"levelo://app?vid=3c1659d8-5e56-4dbb-908b-68c028d3c70c","ios":"levelo://app?vid=3c1659d8-5e56-4dbb-908b-68c028d3c70c"},"vehicle_type_id":"4","last_reported":1781210690,"current_range_meters":6800,"station_id":"ce4bhgh2rcd13ifvqfb0","pricing_plan_id":"cebpf4jnsgd1na2vs0mg"},{"bike_id":"70eaaf10-991d-4235-857f-4132c8289c1e","system_id":"levelo_inurba_marseille","lat":43.25512,"lon":5.37656,"is_reserved":false,"is_disabled":false,"rental_uris":{"android":"levelo://app?vid=70eaaf10-991d-4235-857f-4132c8289c1e","ios":"levelo://app?vid=70eaaf10-991d-4235-857f-4132c8289c1e"},"vehicle_type_id":"4","last_reported":1781210690,"current_range_meters":6800,"station_id":"ce4bhh12rcd13ifvqff0","pricing_plan_id":"cebpf4jnsgd1na2vs0mg"},{"bike_id":"67799720-e017-4463-93c1-4b1015965ae9","system_id":"levelo_inurba_marseille","lat":43.29028,"lon":5.39945,"is_reserved":false,"is_disabled":false,"rental_uris":{"android":"levelo://app?vid=67799720-e017-4463-93c1-4b1015965ae9","ios":"levelo://app?vid=67799720-e017-4463-93c1-4b1015965ae9"},"vehicle_type_id":"4","last_reported":1781210690,"current_range_meters":6800,"station_id":"ce4bh392rcd13ifvqdm0","pricing_plan_id":"cebpf4jnsgd1na2vs0mg"},{"bike_id":"315d3cd3-9556-47d2-bf87-42573b9faa84","system_id":"levelo_inurba_marseille","lat":43.29912,"lon":5.3837,"is_reserved":false,"is_disabled":false,"rental_uris":{"android":"levelo://app?vid=315d3cd3-9556-47d2-bf87-42573b9faa84","ios":"levelo://app?vid=315d3cd3-9556-47d2-bf87-42573b9faa84"},"vehicle_type_id":"4","last_reported":1781210690,"current_range_meters":6800,"station_id":"","pricing_plan_id":"cebpf4jnsgd1na2vs0mg"},{"bike_id":"17369bee-43fb-4510-ab11-4bc54a77a2f2","system_id":"levelo_inurba_marseille","lat":43.28623,"lon":5.35118,"is_reserved":false,"is_disabled":false,"rental_uris":{"android":"levelo://app?vid=17369bee-43fb-4510-ab11-4bc54a77a2f2","ios":"levelo://app?vid=17369bee-43fb-4510-ab11-4bc54a77a2f2"},"vehicle_type_id":"4","last_reported":1781210690,"current_range_meters":6800,"station_id":"ce4bhch2rcd13ifvqeug","pricing_plan_id":"cebpf4jnsgd1na2vs0mg"},{"bike_id":"5ac28b06-af05-4d8b-a509-2f5043908588","system_id":"levelo_inurba_marseille","lat":43.23424,"lon":5.36846,"is_reserved":false,"is_disabled":false,"rental_uris":{"android":"levelo://app?vid=5ac28b06-af05-4d8b-a509-2f5043908588","ios":"levelo://app?vid=5ac28b06-af05-4d8b-a509-2f5043908588"},"vehicle_type_id":"4","last_reported":1781210690,"current_range_meters":6800,"station_id":"","pricing_plan_id":"cebpf4jnsgd1na2vs0mg"},{"bike_id":"e47dfd39-5c0c-45eb-a41f-cf3fd7d5df32","system_id":"levelo_inurba_marseille","lat":43.28976,"lon":5.46095,"is_reserved":false,"is_disabled":true,"rental_uris":{"android":"levelo://app?vid=e47dfd39-5c0c-45eb-a41f-cf3fd7d5df32","ios":"levelo://app?vid=e47dfd39-5c0c-45eb-a41f-cf3fd7d5df32"},"vehicle_type_id":"4","last_reported":1781210690,"current_range_meters":6800,"station_id":"","pricing_plan_id":"cebpf4jnsgd1na2vs0mg"},{"bike_id":"f73dd67c-61e1-4328-b5e9-f2e039d6fd7a","system_id":"levelo_inurba_marseille","lat":43.29015,"lon":5.3813,"is_reserved":false,"is_disabled":false,"rental_uris":{"android":"levelo://app?vid=f73dd67c-61e1-4328-b5e9-f2e039d6fd7a","ios":"levelo://app?vid=f73dd67c-61e1-4328-b5e9-f2e039d6fd7a"},"vehicle_type_id":"4","last_reported":1781210690,"current_range_meters":6800,"station_id":"ce4bh4p2rcd13ifvqe1g","pricing_plan_id":"cebpf4jnsgd1na2vs0mg"},{"bike_id":"40de0209-043c-4ed6-84c3-7ac1da5cf58d","system_id":"levelo_inurba_marseille","lat":43.32104,"lon":5.36774,"is_reserved":false,"is_disabled":false,"rental_uris":{"android":"levelo://app?vid=40de0209-043c-4ed6-84c3-7ac1da5cf58d","ios":"levelo://app?vid=40de0209-043c-4ed6-84c3-7ac1da5cf58d"},"vehicle_type_id":"4","last_reported":1781210690,"current_range_meters":6800,"station_id":"ce4bhrh2rcd13ifvqhug","pricing_plan_id":"cebpf4jnsgd1na2vs0mg"},{"bike_id":"598964c1-0708-4576-bd76-d069a496d3e1","system_id":"levelo_inurba_marseille","lat":43.32656,"lon":5.40991,"is_reserved":false,"is_disabled":false,"rental_uris":{"android":"levelo://app?vid=598964c1-0708-4576-bd76-d069a496d3e1","ios":"levelo://app?vid=598964c1-0708-4576-bd76-d069a496d3e1"},"vehicle_type_id":"4","last_reported":1781210690,"current_range_meters":6800,"station_id":"ce4bhpp2rcd13ifvqhgg","pricing_plan_id":"cebpf4jnsgd1na2vs0mg"},{"bike_id":"8859d173-9f5d-4e39-86ed-34ec86a90175","system_id":"levelo_inurba_marseille","lat":43.29912,"lon":5.42792,"is_reserved":false,"is_disabled":false,"rental_uris":{"android":"levelo://app?vid=8859d173-9f5d-4e39-86ed-34ec86a90175","ios":"levelo://app?vid=8859d173-9f5d-4e39-86ed-34ec86a90175"},"vehicle_type_id":"4","last_reported":1781210690,"current_range_meters":6800,"station_id":"","pricing_plan_id":"cebpf4jnsgd1na2vs0mg"},{"bike_id":"f67cab2c-e764-478b-a2ae-c896cb92f30a","system_id":"levelo_inurba_marseille","lat":43.29309,"lon":5.37177,"is_reserved":false,"is_disabled":false,"rental_uris":{"android":"levelo://app?vid=f67cab2c-e764-478b-a2ae-c896cb92f30a","ios":"levelo://app?vid=f67cab2c-e764-478b-a2ae-c896cb92f30a"},"vehicle_type_id":"4","last_reported":1781210690,"current_range_meters":6800,"station_id":"ce4bgh92rcd13ifvqb40","pricing_plan_id":"cebpf4jnsgd1na2vs0mg"},{"bike_id":"dedca6ab-ea1a-4adc-8ebc-caf57a72d77b","system_id":"levelo_inurba_marseille","lat":43.25314,"lon":5.42171,"is_reserved":false,"is_disabled":false,"rental_uris":{"android":"levelo://app?vid=dedca6ab-ea1a-4adc-8ebc-caf57a72d77b","ios":"levelo://app?vid=dedca6ab-ea1a-4adc-8ebc-caf57a72d77b"},"vehicle_type_id":"4","last_reported":1781210690,"current_range_meters":6800,"station_id":"st_d2m65c5bi1j21697t3ng","pricing_plan_id":"cebpf4jnsgd1na2vs0mg"},{"bike_id":"3577bf75-9a8a-496e-823b-45c97da1febd","system_id":"levelo_inurba_marseille","lat":43.29495,"lon":5.38715,"is_reserved":false,"is_disabled":false,"rental_uris":{"android":"levelo://app?vid=3577bf75-9a8a-496e-823b-45c97da1febd","ios":"levelo://app?vid=3577bf75-9a8a-496e-823b-45c97da1febd"},"vehicle_type_id":"4","last_reported":1781210690,"current_range_meters":6800,"station_id":"","pricing_plan_id":"cebpf4jnsgd1na2vs0mg"},{"bike_id":"397736ae-ddf7-4a55-b20d-a9b88be08d15","system_id":"levelo_inurba_marseille","lat":43.29265,"lon":5.38435,"is_reserved":false,"is_disabled":false,"rental_uris":{"android":"levelo://app?vid=397736ae-ddf7-4a55-b20d-a9b88be08d15","ios":"levelo://app?vid=397736ae-ddf7-4a55-b20d-a9b88be08d15"},"vehicle_type_id":"4","last_reported":1781210690,"current_range_meters":6800,"station_id":"ce4bh692rcd13ifvqea0","pricing_plan_id":"cebpf4jnsgd1na2vs0mg"},{"bike_id":"3584e241-1942-4015-86a4-f6e09519a952","system_id":"levelo_inurba_marseille","lat":43.28943,"lon":5.3663,"is_reserved":false,"is_disabled":false,"rental_uris":{"android":"levelo://app?vid=3584e241-1942-4015-86a4-f6e09519a952","ios":"levelo://app?vid=3584e241-1942-4015-86a4-f6e09519a952"},"vehicle_type_id":"4","last_reported":1781210690,"current_range_meters":6800,"station_id":"ce4bhap2rcd13ifvqek0","pricing_plan_id":"cebpf4jnsgd1na2vs0mg"},{"bike_id":"75248494-6e46-4c4b-92d2-9db9ddbe9016","system_id":"levelo_inurba_marseille","lat":43.28481,"lon":5.48405,"is_reserved":false,"is_disabled":false,"rental_uris":{"android":"levelo://app?vid=75248494-6e46-4c4b-92d2-9db9ddbe9016","ios":"levelo://app?vid=75248494-6e46-4c4b-92d2-9db9ddbe9016"},"vehicle_type_id":"4","last_reported":1781210690,"current_range_meters":6800,"station_id":"st_d3svhcjqgbts73a3dn0g","pricing_plan_id":"cebpf4jnsgd1na2vs0mg"},{"bike_id":"078a9912-314b-4791-a1b5-9e120e7893fe","system_id":"levelo_inurba_marseille","lat":43.26032,"lon":5.37569,"is_reserved":false,"is_disabled":false,"rental_uris":{"android":"levelo://app?vid=078a9912-314b-4791-a1b5-9e120e7893fe","ios":"levelo://app?vid=078a9912-314b-4791-a1b5-9e120e7893fe"},"vehicle_type_id":"4","last_reported":1781210690,"current_range_meters":6800,"station_id":"ce4bhgh2rcd13ifvqfa0","pricing_plan_id":"cebpf4jnsgd1na2vs0mg"},{"bike_id":"6f713cd9-cdf7-45c3-8a53-4c0c21910317","system_id":"levelo_inurba_marseille","lat":43.28456,"lon":5.35887,"is_reserved":false,"is_disabled":false,"rental_uris":{"android":"levelo://app?vid=6f713cd9-cdf7-45c3-8a53-4c0c21910317","ios":"levelo://app?vid=6f713cd9-cdf7-45c3-8a53-4c0c21910317"},"vehicle_type_id":"4","last_reported":1781210690,"current_range_meters":7200,"station_id":"ce4bhah2rcd13ifvqei0","pricing_plan_id":"cebpf4jnsgd1na2vs0mg"},{"bike_id":"a8cff10f-925f-47d3-8d2a-4913d17e9425","system_id":"levelo_inurba_marseille","lat":43.30228,"lon":5.40055,"is_reserved":false,"is_disabled":true,"rental_uris":{"android":"levelo://app?vid=a8cff10f-925f-47d3-8d2a-4913d17e9425","ios":"levelo://app?vid=a8cff10f-925f-47d3-8d2a-4913d17e9425"},"vehicle_type_id":"4","last_reported":1781210690,"current_range_meters":7200,"station_id":"","pricing_plan_id":"cebpf4jnsgd1na2vs0mg"},{"bike_id":"b932282a-6189-4022-adc3-aa3464dec1ee","system_id":"levelo_inurba_marseille","lat":43.29112,"lon":5.3814,"is_reserved":false,"is_disabled":false,"rental_uris":{"android":"levelo://app?vid=b932282a-6189-4022-adc3-aa3464dec1ee","ios":"levelo://app?vid=b932282a-6189-4022-adc3-aa3464dec1ee"},"vehicle_type_id":"4","last_reported":1781210690,"current_range_meters":7200,"station_id":"ce4bh512rcd13ifvqe2g","pricing_plan_id":"cebpf4jnsgd1na2vs0mg"},{"bike_id":"cebd1f5e-4615-475e-bb1f-b98342d910da","system_id":"levelo_inurba_marseille","lat":43.25129,"lon":5.39442,"is_reserved":false,"is_disabled":false,"rental_uris":{"android":"levelo://app?vid=cebd1f5e-4615-475e-bb1f-b98342d910da","ios":"levelo://app?vid=cebd1f5e-4615-475e-bb1f-b98342d910da"},"vehicle_type_id":"4","last_reported":1781210690,"current_range_meters":7200,"station_id":"ce4bhm12rcd13ifvqgkg","pricing_plan_id":"cebpf4jnsgd1na2vs0mg"},{"bike_id":"59d963d0-d1fe-483b-80d5-41df37ab3e9b","system_id":"levelo_inurba_marseille","lat":43.25556,"lon":5.38243,"is_reserved":false,"is_disabled":false,"rental_uris":{"android":"levelo://app?vid=59d963d0-d1fe-483b-80d5-41df37ab3e9b","ios":"levelo://app?vid=59d963d0-d1fe-483b-80d5-41df37ab3e9b"},"vehicle_type_id":"4","last_reported":1781210690,"current_range_meters":7200,"station_id":"ce4bhih2rcd13ifvqfs0","pricing_plan_id":"cebpf4jnsgd1na2vs0mg"},{"bike_id":"2e41d0d3-9e86-4c08-89a6-e0a70cc8ae89","system_id":"levelo_inurba_marseille","lat":43.29248,"lon":5.38251,"is_reserved":false,"is_disabled":true,"rental_uris":{"android":"levelo://app?vid=2e41d0d3-9e86-4c08-89a6-e0a70cc8ae89","ios":"levelo://app?vid=2e41d0d3-9e86-4c08-89a6-e0a70cc8ae89"},"vehicle_type_id":"4","last_reported":1781210690,"current_range_meters":7200,"station_id":"","pricing_plan_id":"cebpf4jnsgd1na2vs0mg"},{"bike_id":"14308449-0dbe-45aa-a61a-4feced6ded38","system_id":"levelo_inurba_marseille","lat":43.28729,"lon":5.37938,"is_reserved":false,"is_disabled":false,"rental_uris":{"android":"levelo://app?vid=14308449-0dbe-45aa-a61a-4feced6ded38","ios":"levelo://app?vid=14308449-0dbe-45aa-a61a-4feced6ded38"},"vehicle_type_id":"4","last_reported":1781210690,"current_range_meters":7200,"station_id":"ce4bh9p2rcd13ifvqec0","pricing_plan_id":"cebpf4jnsgd1na2vs0mg"},{"bike_id":"fc972235-3e35-4e5a-bc6b-0eedcab28dad","system_id":"levelo_inurba_marseille","lat":43.28615,"lon":5.35108,"is_reserved":false,"is_disabled":false,"rental_uris":{"android":"levelo://app?vid=fc972235-3e35-4e5a-bc6b-0eedcab28dad","ios":"levelo://app?vid=fc972235-3e35-4e5a-bc6b-0eedcab28dad"},"vehicle_type_id":"4","last_reported":1781210690,"current_range_meters":7200,"station_id":"ce4bhch2rcd13ifvqeug","pricing_plan_id":"cebpf4jnsgd1na2vs0mg"},{"bike_id":"b6d507f5-c915-4915-8d1e-3c84726370da","system_id":"levelo_inurba_marseille","lat":43.32103,"lon":5.36787,"is_reserved":false,"is_disabled":false,"rental_uris":{"android":"levelo://app?vid=b6d507f5-c915-4915-8d1e-3c84726370da","ios":"levelo://app?vid=b6d507f5-c915-4915-8d1e-3c84726370da"},"vehicle_type_id":"4","last_reported":1781210690,"current_range_meters":7200,"station_id":"ce4bhrh2rcd13ifvqhug","pricing_plan_id":"cebpf4jnsgd1na2vs0mg"},{"bike_id":"f63e0e69-6a54-4e19-8d8e-f67680de3ed1","system_id":"levelo_inurba_marseille","lat":43.24648,"lon":5.43138,"is_reserved":false,"is_disabled":false,"rental_uris":{"android":"levelo://app?vid=f63e0e69-6a54-4e19-8d8e-f67680de3ed1","ios":"levelo://app?vid=f63e0e69-6a54-4e19-8d8e-f67680de3ed1"},"vehicle_type_id":"4","last_reported":1781210690,"current_range_meters":7200,"station_id":"st_d2m6c4gdas8pm72e190g","pricing_plan_id":"cebpf4jnsgd1na2vs0mg"},{"bike_id":"c93c5c3d-0399-41f2-9364-8579b4d871cd","system_id":"levelo_inurba_marseille","lat":43.23993,"lon":5.36228,"is_reserved":false,"is_disabled":false,"rental_uris":{"android":"levelo://app?vid=c93c5c3d-0399-41f2-9364-8579b4d871cd","ios":"levelo://app?vid=c93c5c3d-0399-41f2-9364-8579b4d871cd"},"vehicle_type_id":"4","last_reported":1781210690,"current_range_meters":7200,"station_id":"","pricing_plan_id":"cebpf4jnsgd1na2vs0mg"},{"bike_id":"f36a7326-9811-479f-8f8d-7d9611e1577d","system_id":"levelo_inurba_marseille","lat":43.26207,"lon":5.37461,"is_reserved":false,"is_disabled":false,"rental_uris":{"android":"levelo://app?vid=f36a7326-9811-479f-8f8d-7d9611e1577d","ios":"levelo://app?vid=f36a7326-9811-479f-8f8d-7d9611e1577d"},"vehicle_type_id":"4","last_reported":1781210690,"current_range_meters":7200,"station_id":"ce4bhgp2rcd13ifvqfc0","pricing_plan_id":"cebpf4jnsgd1na2vs0mg"},{"bike_id":"2507d607-3822-4c87-a669-ab9b0690fc01","system_id":"levelo_inurba_marseille","lat":43.28617,"lon":5.35088,"is_reserved":false,"is_disabled":false,"rental_uris":{"android":"levelo://app?vid=2507d607-3822-4c87-a669-ab9b0690fc01","ios":"levelo://app?vid=2507d607-3822-4c87-a669-ab9b0690fc01"},"vehicle_type_id":"4","last_reported":1781210690,"current_range_meters":7200,"station_id":"ce4bhch2rcd13ifvqeug","pricing_plan_id":"cebpf4jnsgd1na2vs0mg"},{"bike_id":"aa4feefe-7cb2-4164-8f2d-cad0daf0bf63","system_id":"levelo_inurba_marseille","lat":43.28101,"lon":5.37828,"is_reserved":false,"is_disabled":false,"rental_uris":{"android":"levelo://app?vid=aa4feefe-7cb2-4164-8f2d-cad0daf0bf63","ios":"levelo://app?vid=aa4feefe-7cb2-4164-8f2d-cad0daf0bf63"},"vehicle_type_id":"4","last_reported":1781210690,"current_range_meters":7200,"station_id":"ce4bha12rcd13ifvqee0","pricing_plan_id":"cebpf4jnsgd1na2vs0mg"},{"bike_id":"a03b7c10-ac9b-478d-8584-d1f842d2e855","system_id":"levelo_inurba_marseille","lat":43.28599,"lon":5.39929,"is_reserved":false,"is_disabled":false,"rental_uris":{"android":"levelo://app?vid=a03b7c10-ac9b-478d-8584-d1f842d2e855","ios":"levelo://app?vid=a03b7c10-ac9b-478d-8584-d1f842d2e855"},"vehicle_type_id":"4","last_reported":1781210690,"current_range_meters":7200,"station_id":"ce4bho92rcd13ifvqh3g","pricing_plan_id":"cebpf4jnsgd1na2vs0mg"},{"bike_id":"e9ce25b8-b480-4907-8ce1-b8aecfbb3105","system_id":"levelo_inurba_marseille","lat":43.32323,"lon":5.36743,"is_reserved":false,"is_disabled":false,"rental_uris":{"android":"levelo://app?vid=e9ce25b8-b480-4907-8ce1-b8aecfbb3105","ios":"levelo://app?vid=e9ce25b8-b480-4907-8ce1-b8aecfbb3105"},"vehicle_type_id":"4","last_reported":1781210690,"current_range_meters":7200,"station_id":"ce4bhsh2rcd13ifvqi2g","pricing_plan_id":"cebpf4jnsgd1na2vs0mg"},{"bike_id":"154a4988-c768-4d61-b1b6-de5533699c92","system_id":"levelo_inurba_marseille","lat":43.25337,"lon":5.4221,"is_reserved":false,"is_disabled":false,"rental_uris":{"android":"levelo://app?vid=154a4988-c768-4d61-b1b6-de5533699c92","ios":"levelo://app?vid=154a4988-c768-4d61-b1b6-de5533699c92"},"vehicle_type_id":"4","last_reported":1781210690,"current_range_meters":7200,"station_id":"st_d2m65c5bi1j21697t3ng","pricing_plan_id":"cebpf4jnsgd1na2vs0mg"},{"bike_id":"b27ff276-fc6c-4782-af58-4ae8cf4e23b8","system_id":"levelo_inurba_marseille","lat":43.29253,"lon":5.3844,"is_reserved":false,"is_disabled":false,"rental_uris":{"android":"levelo://app?vid=b27ff276-fc6c-4782-af58-4ae8cf4e23b8","ios":"levelo://app?vid=b27ff276-fc6c-4782-af58-4ae8cf4e23b8"},"vehicle_type_id":"4","last_reported":1781210690,"current_range_meters":7200,"station_id":"ce4bh692rcd13ifvqea0","pricing_plan_id":"cebpf4jnsgd1na2vs0mg"},{"bike_id":"edd7f6cf-c00d-4334-ba4f-ddda86c6a12e","system_id":"levelo_inurba_marseille","lat":43.30291,"lon":5.37637,"is_reserved":false,"is_disabled":false,"rental_uris":{"android":"levelo://app?vid=edd7f6cf-c00d-4334-ba4f-ddda86c6a12e","ios":"levelo://app?vid=edd7f6cf-c00d-4334-ba4f-ddda86c6a12e"},"vehicle_type_id":"4","last_reported":1781210690,"current_range_meters":7200,"station_id":"","pricing_plan_id":"cebpf4jnsgd1na2vs0mg"},{"bike_id":"0193df8e-e671-4439-b878-059ede893bd0","system_id":"levelo_inurba_marseille","lat":43.24653,"lon":5.38161,"is_reserved":false,"is_disabled":false,"rental_uris":{"android":"levelo://app?vid=0193df8e-e671-4439-b878-059ede893bd0","ios":"levelo://app?vid=0193df8e-e671-4439-b878-059ede893bd0"},"vehicle_type_id":"4","last_reported":1781210690,"current_range_meters":7200,"station_id":"ce4bhih2rcd13ifvqfr0","pricing_plan_id":"cebpf4jnsgd1na2vs0mg"},{"bike_id":"5c600159-14e8-4d8b-9a1b-812391e10b1d","system_id":"levelo_inurba_marseille","lat":43.33602,"lon":5.4101,"is_reserved":false,"is_disabled":false,"rental_uris":{"android":"levelo://app?vid=5c600159-14e8-4d8b-9a1b-812391e10b1d","ios":"levelo://app?vid=5c600159-14e8-4d8b-9a1b-812391e10b1d"},"vehicle_type_id":"4","last_reported":1781210690,"current_range_meters":7200,"station_id":"ce4bhqh2rcd13ifvqhmg","pricing_plan_id":"cebpf4jnsgd1na2vs0mg"},{"bike_id":"6c1032c8-b06f-4947-9782-f7d96757e793","system_id":"levelo_inurba_marseille","lat":43.30146,"lon":5.38772,"is_reserved":false,"is_disabled":false,"rental_uris":{"android":"levelo://app?vid=6c1032c8-b06f-4947-9782-f7d96757e793","ios":"levelo://app?vid=6c1032c8-b06f-4947-9782-f7d96757e793"},"vehicle_type_id":"4","last_reported":1781210690,"current_range_meters":7200,"station_id":"ce4bghh2rcd13ifvqb60","pricing_plan_id":"cebpf4jnsgd1na2vs0mg"},{"bike_id":"3a44773b-a64a-45f6-9197-56969bf49878","system_id":"levelo_inurba_marseille","lat":43.29711,"lon":5.37029,"is_reserved":false,"is_disabled":false,"rental_uris":{"android":"levelo://app?vid=3a44773b-a64a-45f6-9197-56969bf49878","ios":"levelo://app?vid=3a44773b-a64a-45f6-9197-56969bf49878"},"vehicle_type_id":"4","last_reported":1781210690,"current_range_meters":7200,"station_id":"","pricing_plan_id":"cebpf4jnsgd1na2vs0mg"},{"bike_id":"cee6644e-3f7f-438f-874a-02654dd35298","system_id":"levelo_inurba_marseille","lat":43.24548,"lon":5.39532,"is_reserved":false,"is_disabled":false,"rental_uris":{"android":"levelo://app?vid=cee6644e-3f7f-438f-874a-02654dd35298","ios":"levelo://app?vid=cee6644e-3f7f-438f-874a-02654dd35298"},"vehicle_type_id":"4","last_reported":1781210690,"current_range_meters":7200,"station_id":"ce4bhlp2rcd13ifvqgjg","pricing_plan_id":"cebpf4jnsgd1na2vs0mg"},{"bike_id":"7614f617-3b67-487e-a1ee-b00a2ef07635","system_id":"levelo_inurba_marseille","lat":43.28722,"lon":5.36083,"is_reserved":false,"is_disabled":false,"rental_uris":{"android":"levelo://app?vid=7614f617-3b67-487e-a1ee-b00a2ef07635","ios":"levelo://app?vid=7614f617-3b67-487e-a1ee-b00a2ef07635"},"vehicle_type_id":"4","last_reported":1781210690,"current_range_meters":7200,"station_id":"cki0cbj6b192h4jlfktg","pricing_plan_id":"cebpf4jnsgd1na2vs0mg"},{"bike_id":"7174a037-033a-4532-b7d8-62a6cadea8be","system_id":"levelo_inurba_marseille","lat":43.30644,"lon":5.3986,"is_reserved":false,"is_disabled":false,"rental_uris":{"android":"levelo://app?vid=7174a037-033a-4532-b7d8-62a6cadea8be","ios":"levelo://app?vid=7174a037-033a-4532-b7d8-62a6cadea8be"},"vehicle_type_id":"4","last_reported":1781210690,"current_range_meters":7200,"station_id":"","pricing_plan_id":"cebpf4jnsgd1na2vs0mg"},{"bike_id":"ee494397-ad1c-4b5e-80ed-9cc6e888762d","system_id":"levelo_inurba_marseille","lat":43.31892,"lon":5.425,"is_reserved":false,"is_disabled":false,"rental_uris":{"android":"levelo://app?vid=ee494397-ad1c-4b5e-80ed-9cc6e888762d","ios":"levelo://app?vid=ee494397-ad1c-4b5e-80ed-9cc6e888762d"},"vehicle_type_id":"4","last_reported":1781210690,"current_range_meters":7200,"station_id":"","pricing_plan_id":"cebpf4jnsgd1na2vs0mg"},{"bike_id":"2a192182-021b-439d-a0e2-993561972500","system_id":"levelo_inurba_marseille","lat":43.225345,"lon":5.348271,"is_reserved":false,"is_disabled":false,"rental_uris":{"android":"levelo://app?vid=2a192182-021b-439d-a0e2-993561972500","ios":"levelo://app?vid=2a192182-021b-439d-a0e2-993561972500"},"vehicle_type_id":"4","last_reported":1781210690,"current_range_meters":8000,"station_id":"st_cvj5dfep6f1abm77gieg","pricing_plan_id":"cebpf4jnsgd1na2vs0mg"},{"bike_id":"9485992f-6b3a-44de-9cef-64756ba6b13f","system_id":"levelo_inurba_marseille","lat":43.29538,"lon":5.38545,"is_reserved":false,"is_disabled":false,"rental_uris":{"android":"levelo://app?vid=9485992f-6b3a-44de-9cef-64756ba6b13f","ios":"levelo://app?vid=9485992f-6b3a-44de-9cef-64756ba6b13f"},"vehicle_type_id":"4","last_reported":1781210690,"current_range_meters":8000,"station_id":"ce4bgih2rcd13ifvqba0","pricing_plan_id":"cebpf4jnsgd1na2vs0mg"},{"bike_id":"779fdad7-e7f4-436c-9fce-9a7825f91cf8","system_id":"levelo_inurba_marseille","lat":43.26208,"lon":5.37441,"is_reserved":false,"is_disabled":false,"rental_uris":{"android":"levelo://app?vid=779fdad7-e7f4-436c-9fce-9a7825f91cf8","ios":"levelo://app?vid=779fdad7-e7f4-436c-9fce-9a7825f91cf8"},"vehicle_type_id":"4","last_reported":1781210690,"current_range_meters":8000,"station_id":"ce4bhgp2rcd13ifvqfc0","pricing_plan_id":"cebpf4jnsgd1na2vs0mg"},{"bike_id":"1c2a1b5b-c049-4e5c-b1d0-b40ecc795b35","system_id":"levelo_inurba_marseille","lat":43.23003,"lon":5.43716,"is_reserved":false,"is_disabled":false,"rental_uris":{"android":"levelo://app?vid=1c2a1b5b-c049-4e5c-b1d0-b40ecc795b35","ios":"levelo://app?vid=1c2a1b5b-c049-4e5c-b1d0-b40ecc795b35"},"vehicle_type_id":"4","last_reported":1781210690,"current_range_meters":8000,"station_id":"","pricing_plan_id":"cebpf4jnsgd1na2vs0mg"},{"bike_id":"0e86ce8f-0e91-432f-80bf-d4513463cb14","system_id":"levelo_inurba_marseille","lat":43.26211,"lon":5.37443,"is_reserved":false,"is_disabled":false,"rental_uris":{"android":"levelo://app?vid=0e86ce8f-0e91-432f-80bf-d4513463cb14","ios":"levelo://app?vid=0e86ce8f-0e91-432f-80bf-d4513463cb14"},"vehicle_type_id":"4","last_reported":1781210690,"current_range_meters":8000,"station_id":"ce4bhgp2rcd13ifvqfc0","pricing_plan_id":"cebpf4jnsgd1na2vs0mg"},{"bike_id":"9d08f453-997e-4a86-bb77-48f13810d5e6","system_id":"levelo_inurba_marseille","lat":43.26746,"lon":5.38964,"is_reserved":false,"is_disabled":false,"rental_uris":{"android":"levelo://app?vid=9d08f453-997e-4a86-bb77-48f13810d5e6","ios":"levelo://app?vid=9d08f453-997e-4a86-bb77-48f13810d5e6"},"vehicle_type_id":"4","last_reported":1781210690,"current_range_meters":8000,"station_id":"","pricing_plan_id":"cebpf4jnsgd1na2vs0mg"},{"bike_id":"3643eb2e-b0e4-40f6-9aa2-b567c4963540","system_id":"levelo_inurba_marseille","lat":43.32103,"lon":5.36762,"is_reserved":false,"is_disabled":false,"rental_uris":{"android":"levelo://app?vid=3643eb2e-b0e4-40f6-9aa2-b567c4963540","ios":"levelo://app?vid=3643eb2e-b0e4-40f6-9aa2-b567c4963540"},"vehicle_type_id":"4","last_reported":1781210690,"current_range_meters":8000,"station_id":"ce4bhrh2rcd13ifvqhug","pricing_plan_id":"cebpf4jnsgd1na2vs0mg"},{"bike_id":"2e26d0e9-aca9-4cbe-acea-6ca83db1a561","system_id":"levelo_inurba_marseille","lat":43.297053,"lon":5.376977,"is_reserved":false,"is_disabled":false,"rental_uris":{"android":"levelo://app?vid=2e26d0e9-aca9-4cbe-acea-6ca83db1a561","ios":"levelo://app?vid=2e26d0e9-aca9-4cbe-acea-6ca83db1a561"},"vehicle_type_id":"4","last_reported":1781210690,"current_range_meters":8000,"station_id":"ce4bh392rcd13ifvqdm0","pricing_plan_id":"cebpf4jnsgd1na2vs0mg"},{"bike_id":"1e49d24b-5436-48c9-9727-5ea995eafb73","system_id":"levelo_inurba_marseille","lat":43.29849,"lon":5.36279,"is_reserved":false,"is_disabled":false,"rental_uris":{"android":"levelo://app?vid=1e49d24b-5436-48c9-9727-5ea995eafb73","ios":"levelo://app?vid=1e49d24b-5436-48c9-9727-5ea995eafb73"},"vehicle_type_id":"4","last_reported":1781210690,"current_range_meters":8000,"station_id":"ce4bgpp2rcd13ifvqc3g","pricing_plan_id":"cebpf4jnsgd1na2vs0mg"},{"bike_id":"f8546570-fa2b-4ba3-bf49-3e69c77ebd2d","system_id":"levelo_inurba_marseille","lat":43.30089,"lon":5.3908,"is_reserved":false,"is_disabled":false,"rental_uris":{"android":"levelo://app?vid=f8546570-fa2b-4ba3-bf49-3e69c77ebd2d","ios":"levelo://app?vid=f8546570-fa2b-4ba3-bf49-3e69c77ebd2d"},"vehicle_type_id":"4","last_reported":1781210690,"current_range_meters":8000,"station_id":"ce4bh192rcd13ifvqdb0","pricing_plan_id":"cebpf4jnsgd1na2vs0mg"},{"bike_id":"3570045d-68d1-44c4-89a4-c4877f8e7816","system_id":"levelo_inurba_marseille","lat":43.28266,"lon":5.35063,"is_reserved":false,"is_disabled":true,"rental_uris":{"android":"levelo://app?vid=3570045d-68d1-44c4-89a4-c4877f8e7816","ios":"levelo://app?vid=3570045d-68d1-44c4-89a4-c4877f8e7816"},"vehicle_type_id":"4","last_reported":1781210690,"current_range_meters":8000,"station_id":"ce4bhbp2rcd13ifvqerg","pricing_plan_id":"cebpf4jnsgd1na2vs0mg"},{"bike_id":"78486d95-eae8-4f9f-af58-decc1476efea","system_id":"levelo_inurba_marseille","lat":43.26559,"lon":5.37279,"is_reserved":false,"is_disabled":false,"rental_uris":{"android":"levelo://app?vid=78486d95-eae8-4f9f-af58-decc1476efea","ios":"levelo://app?vid=78486d95-eae8-4f9f-af58-decc1476efea"},"vehicle_type_id":"4","last_reported":1781210690,"current_range_meters":8000,"station_id":"ce4bhg12rcd13ifvqf70","pricing_plan_id":"cebpf4jnsgd1na2vs0mg"},{"bike_id":"232edbfa-acff-4f98-80aa-3701b413e26d","system_id":"levelo_inurba_marseille","lat":43.3043,"lon":5.38891,"is_reserved":false,"is_disabled":false,"rental_uris":{"android":"levelo://app?vid=232edbfa-acff-4f98-80aa-3701b413e26d","ios":"levelo://app?vid=232edbfa-acff-4f98-80aa-3701b413e26d"},"vehicle_type_id":"4","last_reported":1781210690,"current_range_meters":8000,"station_id":"ce4bgk12rcd13ifvqbi0","pricing_plan_id":"cebpf4jnsgd1na2vs0mg"},