{"last_updated":1685315176,"ttl":30,"version":"2.2","data":{"bikes":[{"bike_id":"cafa39a6-151e-4b43-8798-0e078854a369","system_id":"levelo_inurba_marseille","lat":43.314811,"lon":5.373104,"is_reserved":false,"is_disabled":false,"rental_uris":{"android":"levelo://app?vid=cafa39a6-151e-4b43-8798-0e078854a369","ios":"levelo://app?vid=cafa39a6-151e-4b43-8798-0e078854a369"},"vehicle_type_id":"4","last_reported":1685315177,"current_range_meters":28000,"station_id":"ce4bgt12rcd13ifvqcd0","pricing_plan_id":"free"},{"bike_id":"96ba65e2-2e82-4e19-90c3-74496ba0eede","system_id":"levelo_inurba_marseille","lat":43.30887,"lon":5.37179,"is_reserved":false,"is_disabled":false,"rental_uris":{"android":"levelo://app?vid=96ba65e2-2e82-4e19-90c3-74496ba0eede","ios":"levelo://app?vid=96ba65e2-2e82-4e19-90c3-74496ba0eede"},"vehicle_type_id":"4","last_reported":1685315177,"current_range_meters":29600,"station_id":"","pricing_plan_id":"free"},{"bike_id":"81b7c7cb-bb96-44d0-8ce5-cfe3e28a4917","system_id":"levelo_inurba_marseille","lat":43.308614,"lon":5.372098,"is_reserved":false,"is_disabled":false,"rental_uris":{"android":"levelo://app?vid=81b7c7cb-bb96-44d0-8ce5-cfe3e28a4917","ios":"levelo://app?vid=81b7c7cb-bb96-44d0-8ce5-cfe3e28a4917"},"vehicle_type_id":"4","last_reported":1685315177,"current_range_meters":19200,"station_id":"ce4bguh2rcd13ifvqckg","pricing_plan_id":"free"},{"bike_id":"fe083984-66d9-4fd8-8d74-954deb5dbb65","system_id":"levelo_inurba_marseille","lat":43.30883,"lon":5.37184,"is_reserved":false,"is_disabled":false,"rental_uris":{"android":"levelo://app?vid=fe083984-66d9-4fd8-8d74-954deb5dbb65","ios":"levelo://app?vid=fe083984-66d9-4fd8-8d74-954deb5dbb65"},"vehicle_type_id":"4","last_reported":1685315177,"current_range_meters":25200,"station_id":"","pricing_plan_id":"free"},{"bike_id":"3f584a0c-a8f5-4160-a580-20eead6f45f9","system_id":"levelo_inurba_marseille","lat":43.30884,"lon":5.37187,"is_reserved":false,"is_disabled":false,"rental_uris":{"android":"levelo://app?vid=3f584a0c-a8f5-4160-a580-20eead6f45f9","ios":"levelo://app?vid=3f584a0c-a8f5-4160-a580-20eead6f45f9"},"vehicle_type_id":"4","last_reported":1685315177,"current_range_meters":31200,"station_id":"ce4bguh2rcd13ifvqckg","pricing_plan_id":"free"},{"bike_id":"09ff56ca-723c-4b20-af2f-491b6f1b8a24","system_id":"levelo_inurba_marseille","lat":43.3088,"lon":5.37191,"is_reserved":false,"is_disabled":false,"rental_uris":{"android":"levelo://app?vid=09ff56ca-723c-4b20-af2f-491b6f1b8a24","ios":"levelo://app?vid=09ff56ca-723c-4b20-af2f-491b6f1b8a24"},"vehicle_type_id":"4","last_reported":1685315177,"current_range_meters":30000,"station_id":"ce4bguh2rcd13ifvqckg","pricing_plan_id":"free"},{"bike_id":"19e2c3fb-9ff8-42c3-a0ae-91280c9a1c54","system_id":"levelo_inurba_marseille","lat":43.311125,"lon":5.377624,"is_reserved":false,"is_disabled":false,"rental_uris":{"android":"levelo://app?vid=19e2c3fb-9ff8-42c3-a0ae-91280c9a1c54","ios":"levelo://app?vid=19e2c3fb-9ff8-42c3-a0ae-91280c9a1c54"},"vehicle_type_id":"4","last_reported":1685315177,"current_range_meters":28800,"station_id":"ce4bgt92rcd13ifvqcg0","pricing_plan_id":"free"},{"bike_id":"2044d5d2-d31a-49c9-96c0-ba790bfca7d0","system_id":"levelo_inurba_marseille","lat":43.311125,"lon":5.377624,"is_reserved":false,"is_disabled":false,"rental_uris":{"android":"levelo://app?vid=2044d5d2-d31a-49c9-96c0-ba790bfca7d0","ios":"levelo://app?vid=2044d5d2-d31a-49c9-96c0-ba790bfca7d0"},"vehicle_type_id":"4","last_reported":1685315177,"current_range_meters":27600,"station_id":"ce4bgt92rcd13ifvqcg0","pricing_plan_id":"free"},{"bike_id":"c62862f2-d5d7-4a7f-a0d6-0782f5642e89","system_id":"levelo_inurba_marseille","lat":43.303046,"lon":5.368981,"is_reserved":false,"is_disabled":false,"rental_uris":{"android":"levelo://app?vid=c62862f2-d5d7-4a7f-a0d6-0782f5642e89","ios":"levelo://app?vid=c62862f2-d5d7-4a7f-a0d6-0782f5642e89"},"vehicle_type_id":"4","last_reported":1685315177,"current_range_meters":30800,"station_id":"ce4bgqh2rcd13ifvqc5g","pricing_plan_id":"free"},{"bike_id":"f9c6be89-4427-465a-aec3-401a3c18d01d","system_id":"levelo_inurba_marseille","lat":43.303046,"lon":5.368981,"is_reserved":false,"is_disabled":false,"rental_uris":{"android":"levelo://app?vid=f9c6be89-4427-465a-aec3-401a3c18d01d","ios":"levelo://app?vid=f9c6be89-4427-465a-aec3-401a3c18d01d"},"vehicle_type_id":"4","last_reported":1685315177,"current_range_meters":0,"station_id":"ce4bgqh2rcd13ifvqc5g","pricing_plan_id":"free"},{"bike_id":"1e3d3dda-c4c6-4546-90c7-937e92459c6d","system_id":"levelo_inurba_marseille","lat":43.303046,"lon":5.368981,"is_reserved":false,"is_disabled":false,"rental_uris":{"android":"levelo://app?vid=1e3d3dda-c4c6-4546-90c7-937e92459c6d","ios":"levelo://app?vid=1e3d3dda-c4c6-4546-90c7-937e92459c6d"},"vehicle_type_id":"4","last_reported":1685315177,"current_range_meters":800,"station_id":"ce4bgqh2rcd13ifvqc5g","pricing_plan_id":"free"},{"bike_id":"5f93b383-2651-470f-b7dd-be6c2068b10e","system_id":"levelo_inurba_marseille","lat":43.303046,"lon":5.368981,"is_reserved":false,"is_disabled":false,"rental_uris":{"android":"levelo://app?vid=5f93b383-2651-470f-b7dd-be6c2068b10e","ios":"levelo://app?vid=5f93b383-2651-470f-b7dd-be6c2068b10e"},"vehicle_type_id":"4","last_reported":1685315177,"current_range_meters":2800,"station_id":"ce4bgqh2rcd13ifvqc5g","pricing_plan_id":"free"},{"bike_id":"9a7d1a88-7bc5-4bee-a909-7b1c07088442","system_id":"levelo_inurba_marseille","lat":43.315293,"lon":5.380349,"is_reserved":false,"is_disabled":false,"rental_uris":{"android":"levelo://app?vid=9a7d1a88-7bc5-4bee-a909-7b1c07088442","ios":"levelo://app?vid=9a7d1a88-7bc5-4bee-a909-7b1c07088442"},"vehicle_type_id":"4","last_reported":1685315177,"current_range_meters":26800,"station_id":"ce4bhsp2rcd13ifvqi50","pricing_plan_id":"free"},{"bike_id":"b4528151-4074-469c-8168-ebdc0f414930","system_id":"levelo_inurba_marseille","lat":43.315293,"lon":5.380349,"is_reserved":false,"is_disabled":false,"rental_uris":{"android":"levelo://app?vid=b4528151-4074-469c-8168-ebdc0f414930","ios":"levelo://app?vid=b4528151-4074-469c-8168-ebdc0f414930"},"vehicle_type_id":"4","last_reported":1685315177,"current_range_meters":15600,"station_id":"ce4bhsp2rcd13ifvqi50","pricing_plan_id":"free"},{"bike_id":"d73af6c6-2955-45b1-989a-8ba82d1b9123","system_id":"levelo_inurba_marseille","lat":43.301939,"lon":5.366286,"is_reserved":false,"is_disabled":false,"rental_uris":{"android":"levelo://app?vid=d73af6c6-2955-45b1-989a-8ba82d1b9123","ios":"levelo://app?vid=d73af6c6-2955-45b1-989a-8ba82d1b9123"},"vehicle_type_id":"4","last_reported":1685315177,"current_range_meters":400,"station_id":"ce4bgrh2rcd13ifvqc8g","pricing_plan_id":"free"},{"bike_id":"f92bfc59-f6bb-4779-b7d0-f42e6e4683ea","system_id":"levelo_inurba_marseille","lat":43.319935,"lon":5.381699,"is_reserved":false,"is_disabled":false,"rental_uris":{"android":"levelo://app?vid=f92bfc59-f6bb-4779-b7d0-f42e6e4683ea","ios":"levelo://app?vid=f92bfc59-f6bb-4779-b7d0-f42e6e4683ea"},"vehicle_type_id":"4","last_reported":1685315177,"current_range_meters":21600,"station_id":"ce4bhr12rcd13ifvqhpg","pricing_plan_id":"free"},{"bike_id":"1431ceea-e6b2-4aee-8e38-ba96e4e7d2d2","system_id":"levelo_inurba_marseille","lat":43.313571,"lon":5.384829,"is_reserved":false,"is_disabled":false,"rental_uris":{"android":"levelo://app?vid=1431ceea-e6b2-4aee-8e38-ba96e4e7d2d2","ios":"levelo://app?vid=1431ceea-e6b2-4aee-8e38-ba96e4e7d2d2"},"vehicle_type_id":"4","last_reported":1685315177,"current_range_meters":27600,"station_id":"ce4bgt92rcd13ifvqcf0","pricing_plan_id":"free"},{"bike_id":"06193faf-9b70-44e9-bc78-e8654b59e835","system_id":"levelo_inurba_marseille","lat":43.313571,"lon":5.384829,"is_reserved":false,"is_disabled":false,"rental_uris":{"android":"levelo://app?vid=06193faf-9b70-44e9-bc78-e8654b59e835","ios":"levelo://app?vid=06193faf-9b70-44e9-bc78-e8654b59e835"},"vehicle_type_id":"4","last_reported":1685315177,"current_range_meters":19200,"station_id":"ce4bgt92rcd13ifvqcf0","pricing_plan_id":"free"},{"bike_id":"09c3cdd3-c99d-4a96-ae04-258e70b34875","system_id":"levelo_inurba_marseille","lat":43.305364,"lon":5.384119,"is_reserved":false,"is_disabled":false,"rental_uris":{"android":"levelo://app?vid=09c3cdd3-c99d-4a96-ae04-258e70b34875","ios":"levelo://app?vid=09c3cdd3-c99d-4a96-ae04-258e70b34875"},"vehicle_type_id":"4","last_reported":1685315177,"current_range_meters":5200,"station_id":"ce4bgg92rcd13ifvqb30","pricing_plan_id":"free"},{"bike_id":"67513196-83d6-4477-a8e0-b530416ea09d","system_id":"levelo_inurba_marseille","lat":43.299243,"lon":5.37481,"is_reserved":false,"is_disabled":false,"rental_uris":{"android":"levelo://app?vid=67513196-83d6-4477-a8e0-b530416ea09d","ios":"levelo://app?vid=67513196-83d6-4477-a8e0-b530416ea09d"},"vehicle_type_id":"4","last_reported":1685315177,"current_range_meters":2400,"station_id":"ce4bgjh2rcd13ifvqbg0","pricing_plan_id":"free"},{"bike_id":"28ccaf63-2c20-4f48-af81-c1890d5e1e7e","system_id":"levelo_inurba_marseille","lat":43.31185,"lon":5.38712,"is_reserved":false,"is_disabled":false,"rental_uris":{"android":"levelo://app?vid=28ccaf63-2c20-4f48-af81-c1890d5e1e7e","ios":"levelo://app?vid=28ccaf63-2c20-4f48-af81-c1890d5e1e7e"},"vehicle_type_id":"4","last_reported":1685315177,"current_range_meters":26000,"station_id":"ce4bgv12rcd13ifvqcp0","pricing_plan_id":"free"},{"bike_id":"1b064916-ce14-4dd7-8822-0096c3687352","system_id":"levelo_inurba_marseille","lat":43.31184,"lon":5.38712,"is_reserved":false,"is_disabled":false,"rental_uris":{"android":"levelo://app?vid=1b064916-ce14-4dd7-8822-0096c3687352","ios":"levelo://app?vid=1b064916-ce14-4dd7-8822-0096c3687352"},"vehicle_type_id":"4","last_reported":1685315177,"current_range_meters":2400,"station_id":"ce4bgv12rcd13ifvqcp0","pricing_plan_id":"free"},{"bike_id":"e66f4db6-a6d7-4e28-a9c6-11554c77624e","system_id":"levelo_inurba_marseille","lat":43.299243,"lon":5.374807,"is_reserved":false,"is_disabled":false,"rental_uris":{"android":"levelo://app?vid=e66f4db6-a6d7-4e28-a9c6-11554c77624e","ios":"levelo://app?vid=e66f4db6-a6d7-4e28-a9c6-11554c77624e"},"vehicle_type_id":"4","last_reported":1685315177,"current_range_meters":6400,"station_id":"ce4bgjh2rcd13ifvqbg0","pricing_plan_id":"free"},{"bike_id":"51cf0176-0c97-4194-a204-3ce503c7086d","system_id":"levelo_inurba_marseille","lat":43.311722,"lon":5.387247,"is_reserved":false,"is_disabled":false,"rental_uris":{"android":"levelo://app?vid=51cf0176-0c97-4194-a204-3ce503c7086d","ios":"levelo://app?vid=51cf0176-0c97-4194-a204-3ce503c7086d"},"vehicle_type_id":"4","last_reported":1685315177,"current_range_meters":11600,"station_id":"ce4bgv12rcd13ifvqcp0","pricing_plan_id":"free"},{"bike_id":"c125d695-a76c-428d-9101-a9ed0c6a413d","system_id":"levelo_inurba_marseille","lat":43.31175,"lon":5.38715,"is_reserved":false,"is_disabled":false,"rental_uris":{"android":"levelo://app?vid=c125d695-a76c-428d-9101-a9ed0c6a413d","ios":"levelo://app?vid=c125d695-a76c-428d-9101-a9ed0c6a413d"},"vehicle_type_id":"4","last_reported":1685315177,"current_range_meters":12000,"station_id":"ce4bgv12rcd13ifvqcp0","pricing_plan_id":"free"},{"bike_id":"2f6c2caf-d87c-4590-88a2-8c511b31b265","system_id":"levelo_inurba_marseille","lat":43.311722,"lon":5.387247,"is_reserved":false,"is_disabled":false,"rental_uris":{"android":"levelo://app?vid=2f6c2caf-d87c-4590-88a2-8c511b31b265","ios":"levelo://app?vid=2f6c2caf-d87c-4590-88a2-8c511b31b265"},"vehicle_type_id":"4","last_reported":1685315177,"current_range_meters":16800,"station_id":"ce4bgv12rcd13ifvqcp0","pricing_plan_id":"free"},{"bike_id":"5895156f-f83a-4b54-a0b5-57f02c18ef1a","system_id":"levelo_inurba_marseille","lat":43.328371,"lon":5.366912,"is_reserved":false,"is_disabled":false,"rental_uris":{"android":"levelo://app?vid=5895156f-f83a-4b54-a0b5-57f02c18ef1a","ios":"levelo://app?vid=5895156f-f83a-4b54-a0b5-57f02c18ef1a"},"vehicle_type_id":"4","last_reported":1685315177,"current_range_meters":24800,"station_id":"ce4bhs92rcd13ifvqi0g","pricing_plan_id":"free"},{"bike_id":"0e82a065-aa2b-4aa8-89cf-7166425c0102","system_id":"levelo_inurba_marseille","lat":43.296935,"lon":5.376544,"is_reserved":false,"is_disabled":false,"rental_uris":{"android":"levelo://app?vid=0e82a065-aa2b-4aa8-89cf-7166425c0102","ios":"levelo://app?vid=0e82a065-aa2b-4aa8-89cf-7166425c0102"},"vehicle_type_id":"4","last_reported":1685315177,"current_range_meters":22000,"station_id":"ce4bgkh2rcd13ifvqbl0","pricing_plan_id":"free"},{"bike_id":"0a6f0a90-9371-4440-b27c-06f4af2cf9a0","system_id":"levelo_inurba_marseille","lat":43.296935,"lon":5.376544,"is_reserved":false,"is_disabled":false,"rental_uris":{"android":"levelo://app?vid=0a6f0a90-9371-4440-b27c-06f4af2cf9a0","ios":"levelo://app?vid=0a6f0a90-9371-4440-b27c-06f4af2cf9a0"},"vehicle_type_id":"4","last_reported":1685315177,"current_range_meters":30000,"station_id":"ce4bgkh2rcd13ifvqbl0","pricing_plan_id":"free"},{"bike_id":"857d19d3-1ad1-4abd-a723-e560f557aaef","system_id":"levelo_inurba_marseille","lat":43.317557,"lon":5.390173,"is_reserved":false,"is_disabled":false,"rental_uris":{"android":"levelo://app?vid=857d19d3-1ad1-4abd-a723-e560f557aaef","ios":"levelo://app?vid=857d19d3-1ad1-4abd-a723-e560f557aaef"},"vehicle_type_id":"4","last_reported":1685315177,"current_range_meters":6800,"station_id":"ce4bhqp2rcd13ifvqhng","pricing_plan_id":"free"},{"bike_id":"13405fcc-c8cc-467d-b24a-316b0d27b570","system_id":"levelo_inurba_marseille","lat":43.31761,"lon":5.3902,"is_reserved":false,"is_disabled":false,"rental_uris":{"android":"levelo://app?vid=13405fcc-c8cc-467d-b24a-316b0d27b570","ios":"levelo://app?vid=13405fcc-c8cc-467d-b24a-316b0d27b570"},"vehicle_type_id":"4","last_reported":1685315177,"current_range_meters":0,"station_id":"ce4bhqp2rcd13ifvqhng","pricing_plan_id":"free"},{"bike_id":"5a2e37f4-ece8-4ab2-a31b-039541c7aad1","system_id":"levelo_inurba_marseille","lat":43.30432,"lon":5.38886,"is_reserved":false,"is_disabled":false,"rental_uris":{"android":"levelo://app?vid=5a2e37f4-ece8-4ab2-a31b-039541c7aad1","ios":"levelo://app?vid=5a2e37f4-ece8-4ab2-a31b-039541c7aad1"},"vehicle_type_id":"4","last_reported":1685315177,"current_range_meters":0,"station_id":"ce4bgk12rcd13ifvqbi0","pricing_plan_id":"free"},{"bike_id":"6f5c8a62-3385-406d-9b08-96ba929864cc","system_id":"levelo_inurba_marseille","lat":43.304291,"lon":5.388881,"is_reserved":false,"is_disabled":false,"rental_uris":{"android":"levelo://app?vid=6f5c8a62-3385-406d-9b08-96ba929864cc","ios":"levelo://app?vid=6f5c8a62-3385-406d-9b08-96ba929864cc"},"vehicle_type_id":"4","last_reported":1685315177,"current_range_meters":800,"station_id":"ce4bgk12rcd13ifvqbi0","pricing_plan_id":"free"},{"bike_id":"824162d2-5de6-4371-bd0d-475b8eac9d88","system_id":"levelo_inurba_marseille","lat":43.30419,"lon":5.38889,"is_reserved":false,"is_disabled":false,"rental_uris":{"android":"levelo://app?vid=824162d2-5de6-4371-bd0d-475b8eac9d88","ios":"levelo://app?vid=824162d2-5de6-4371-bd0d-475b8eac9d88"},"vehicle_type_id":"4","last_reported":1685315177,"current_range_meters":0,"station_id":"ce4bgk12rcd13ifvqbi0","pricing_plan_id":"free"},{"bike_id":"df30dba7-0c34-4c6c-8c42-22e2e76dd8f1","system_id":"levelo_inurba_marseille","lat":43.295279,"lon":5.375048,"is_reserved":false,"is_disabled":false,"rental_uris":{"android":"levelo://app?vid=df30dba7-0c34-4c6c-8c42-22e2e76dd8f1","ios":"levelo://app?vid=df30dba7-0c34-4c6c-8c42-22e2e76dd8f1"},"vehicle_type_id":"4","last_reported":1685315177,"current_range_meters":0,"station_id":"ce4bgkp2rcd13ifvqbmg","pricing_plan_id":"free"},{"bike_id":"148f46be-5bd3-43ee-bc6a-4fe162e7b773","system_id":"levelo_inurba_marseille","lat":43.299724,"lon":5.384848,"is_reserved":false,"is_disabled":false,"rental_uris":{"android":"levelo://app?vid=148f46be-5bd3-43ee-bc6a-4fe162e7b773","ios":"levelo://app?vid=148f46be-5bd3-43ee-bc6a-4fe162e7b773"},"vehicle_type_id":"4","last_reported":1685315177,"current_range_meters":28000,"station_id":"ce4bgj92rcd13ifvqbd0","pricing_plan_id":"free"},{"bike_id":"652b6e83-7b35-4c20-a0ac-7ead99d315c5","system_id":"levelo_inurba_marseille","lat":43.299717,"lon":5.384845,"is_reserved":false,"is_disabled":false,"rental_uris":{"android":"levelo://app?vid=652b6e83-7b35-4c20-a0ac-7ead99d315c5","ios":"levelo://app?vid=652b6e83-7b35-4c20-a0ac-7ead99d315c5"},"vehicle_type_id":"4","last_reported":1685315177,"current_range_meters":10800,"station_id":"ce4bgj92rcd13ifvqbd0","pricing_plan_id":"free"},{"bike_id":"ddfffe7f-ecf3-4188-879b-1dc09c6ec0d1","system_id":"levelo_inurba_marseille","lat":43.32367,"lon":5.388836,"is_reserved":false,"is_disabled":false,"rental_uris":{"android":"levelo://app?vid=ddfffe7f-ecf3-4188-879b-1dc09c6ec0d1","ios":"levelo://app?vid=ddfffe7f-ecf3-4188-879b-1dc09c6ec0d1"},"vehicle_type_id":"4","last_reported":1685315177,"current_range_meters":14400,"station_id":"ce4bhqp2rcd13ifvqhog","pricing_plan_id":"free"},{"bike_id":"9268d6c8-652d-4b2d-abac-bb1c39f5de40","system_id":"levelo_inurba_marseille","lat":43.292749,"lon":5.368402,"is_reserved":false,"is_disabled":false,"rental_uris":{"android":"levelo://app?vid=9268d6c8-652d-4b2d-abac-bb1c39f5de40","ios":"levelo://app?vid=9268d6c8-652d-4b2d-abac-bb1c39f5de40"},"vehicle_type_id":"4","last_reported":1685315177,"current_range_meters":24800,"station_id":"ce4bhbp2rcd13ifvqesg","pricing_plan_id":"free"},{"bike_id":"1ddcc1e3-064a-45fe-8548-c3fa9200518e","system_id":"levelo_inurba_marseille","lat":43.294,"lon":5.37722,"is_reserved":false,"is_disabled":false,"rental_uris":{"android":"levelo://app?vid=1ddcc1e3-064a-45fe-8548-c3fa9200518e","ios":"levelo://app?vid=1ddcc1e3-064a-45fe-8548-c3fa9200518e"},"vehicle_type_id":"4","last_reported":1685315177,"current_range_meters":0,"station_id":"","pricing_plan_id":"free"},{"bike_id":"2628bc6b-4d15-4fed-adc0-829c4af8f3bc","system_id":"levelo_inurba_marseille","lat":43.29325,"lon":5.37433,"is_reserved":false,"is_disabled":false,"rental_uris":{"android":"levelo://app?vid=2628bc6b-4d15-4fed-adc0-829c4af8f3bc","ios":"levelo://app?vid=2628bc6b-4d15-4fed-adc0-829c4af8f3bc"},"vehicle_type_id":"4","last_reported":1685315177,"current_range_meters":0,"station_id":"","pricing_plan_id":"free"},{"bike_id":"7340f60f-51f6-4670-9ef4-40de49416aae","system_id":"levelo_inurba_marseille","lat":43.305994,"lon":5.393687,"is_reserved":false,"is_disabled":false,"rental_uris":{"android":"levelo://app?vid=7340f60f-51f6-4670-9ef4-40de49416aae","ios":"levelo://app?vid=7340f60f-51f6-4670-9ef4-40de49416aae"},"vehicle_type_id":"4","last_reported":1685315177,"current_range_meters":5200,"station_id":"ce4bh0p2rcd13ifvqd80","pricing_plan_id":"free"},{"bike_id":"3e609a9f-c9ad-482b-878d-3e79ccaecc4a","system_id":"levelo_inurba_marseille","lat":43.303002,"lon":5.392142,"is_reserved":false,"is_disabled":false,"rental_uris":{"android":"levelo://app?vid=3e609a9f-c9ad-482b-878d-3e79ccaecc4a","ios":"levelo://app?vid=3e609a9f-c9ad-482b-878d-3e79ccaecc4a"},"vehicle_type_id":"4","last_reported":1685315177,"current_range_meters":29200,"station_id":"ce4bgkh2rcd13ifvqbk0","pricing_plan_id":"free"},{"bike_id":"58bb30ba-cda7-4ac6-93b6-28dfacd228c0","system_id":"levelo_inurba_marseille","lat":43.302992,"lon":5.392136,"is_reserved":false,"is_disabled":false,"rental_uris":{"android":"levelo://app?vid=58bb30ba-cda7-4ac6-93b6-28dfacd228c0","ios":"levelo://app?vid=58bb30ba-cda7-4ac6-93b6-28dfacd228c0"},"vehicle_type_id":"4","last_reported":1685315177,"current_range_meters":7600,"station_id":"ce4bgkh2rcd13ifvqbk0","pricing_plan_id":"free"},{"bike_id":"8c609461-fb14-46dd-b30a-f097fe150b44","system_id":"levelo_inurba_marseille","lat":43.302992,"lon":5.392136,"is_reserved":false,"is_disabled":false,"rental_uris":{"android":"levelo://app?vid=8c609461-fb14-46dd-b30a-f097fe150b44","ios":"levelo://app?vid=8c609461-fb14-46dd-b30a-f097fe150b44"},"vehicle_type_id":"4","last_reported":1685315177,"current_range_meters":14000,"station_id":"ce4bgkh2rcd13ifvqbk0","pricing_plan_id":"free"},{"bike_id":"aa3def76-22b8-4446-b67a-66c8a9294f44","system_id":"levelo_inurba_marseille","lat":43.292663,"lon":5.376394,"is_reserved":false,"is_disabled":false,"rental_uris":{"android":"levelo://app?vid=aa3def76-22b8-4446-b67a-66c8a9294f44","ios":"levelo://app?vid=aa3def76-22b8-4446-b67a-66c8a9294f44"},"vehicle_type_id":"4","last_reported":1685315177,"current_range_meters":21200,"station_id":"ce4bgi12rcd13ifvqb80","pricing_plan_id":"free"},{"bike_id":"23c2d0ac-5244-4819-89ce-fe0a96cbd0fd","system_id":"levelo_inurba_marseille","lat":43.292663,"lon":5.376394,"is_reserved":false,"is_disabled":false,"rental_uris":{"android":"levelo://app?vid=23c2d0ac-5244-4819-89ce-fe0a96cbd0fd","ios":"levelo://app?vid=23c2d0ac-5244-4819-89ce-fe0a96cbd0fd"},"vehicle_type_id":"4","last_reported":1685315177,"current_range_meters":24000,"station_id":"ce4bgi12rcd13ifvqb80","pricing_plan_id":"free"},{"bike_id":"1eeb1383-d329-49ea-89c2-2de14b02c36c","system_id":"levelo_inurba_marseille","lat":43.298764,"lon":5.388973,"is_reserved":false,"is_disabled":false,"rental_uris":{"android":"levelo://app?vid=1eeb1383-d329-49ea-89c2-2de14b02c36c","ios":"levelo://app?vid=1eeb1383-d329-49ea-89c2-2de14b02c36c"},"vehicle_type_id":"4","last_reported":1685315177,"current_range_meters":0,"station_id":"ce4bh392rcd13ifvqdl0","pricing_plan_id":"free"},{"bike_id":"bfadac5a-9815-42c2-9304-b8440150b98e","system_id":"levelo_inurba_marseille","lat":43.298764,"lon":5.388973,"is_reserved":false,"is_disabled":false,"rental_uris":{"android":"levelo://app?vid=bfadac5a-9815-42c2-9304-b8440150b98e","ios":"levelo://app?vid=bfadac5a-9815-42c2-9304-b8440150b98e"},"vehicle_type_id":"4","last_reported":1685315177,"current_range_meters":27200,"station_id":"ce4bh392rcd13ifvqdl0","pricing_plan_id":"free"},{"bike_id":"663d8b28-2908-4448-95e1-c287dbd355e7","system_id":"levelo_inurba_marseille","lat":43.309038,"lon":5.396546,"is_reserved":false,"is_disabled":false,"rental_uris":{"android":"levelo://app?vid=663d8b28-2908-4448-95e1-c287dbd355e7","ios":"levelo://app?vid=663d8b28-2908-4448-95e1-c287dbd355e7"},"vehicle_type_id":"4","last_reported":1685315177,"current_range_meters":6000,"station_id":"ce4bh012rcd13ifvqcv0","pricing_plan_id":"free"},{"bike_id":"5573483a-75af-41be-88a7-934a4ca72bcd","system_id":"levelo_inurba_marseille","lat":43.309038,"lon":5.396546,"is_reserved":false,"is_disabled":false,"rental_uris":{"android":"levelo://app?vid=5573483a-75af-41be-88a7-934a4ca72bcd","ios":"levelo://app?vid=5573483a-75af-41be-88a7-934a4ca72bcd"},"vehicle_type_id":"4","last_reported":1685315177,"current_range_meters":5200,"station_id":"ce4bh012rcd13ifvqcv0","pricing_plan_id":"free"},{"bike_id":"55ed2660-4a9d-447a-bded-4c88f087e5d6","system_id":"levelo_inurba_marseille","lat":43.31326,"lon":5.39696,"is_reserved":false,"is_disabled":false,"rental_uris":{"android":"levelo://app?vid=55ed2660-4a9d-447a-bded-4c88f087e5d6","ios":"levelo://app?vid=55ed2660-4a9d-447a-bded-4c88f087e5d6"},"vehicle_type_id":"4","last_reported":1685315177,"current_range_meters":31200,"station_id":"ce4bgvp2rcd13ifvqcu0","pricing_plan_id":"free"},{"bike_id":"2a152b9b-7b62-4133-a3d5-c655212b49e1","system_id":"levelo_inurba_marseille","lat":43.309038,"lon":5.396546,"is_reserved":false,"is_disabled":false,"rental_uris":{"android":"levelo://app?vid=2a152b9b-7b62-4133-a3d5-c655212b49e1","ios":"levelo://app?vid=2a152b9b-7b62-4133-a3d5-c655212b49e1"},"vehicle_type_id":"4","last_reported":1685315177,"current_range_meters":31200,"station_id":"ce4bh012rcd13ifvqcv0","pricing_plan_id":"free"},{"bike_id":"556e1f3f-a774-44a1-9c89-e71d806fd500","system_id":"levelo_inurba_marseille","lat":43.309038,"lon":5.396546,"is_reserved":false,"is_disabled":false,"rental_uris":{"android":"levelo://app?vid=556e1f3f-a774-44a1-9c89-e71d806fd500","ios":"levelo://app?vid=556e1f3f-a774-44a1-9c89-e71d806fd500"},"vehicle_type_id":"4","last_reported":1685315177,"current_range_meters":31200,"station_id":"ce4bh012rcd13ifvqcv0","pricing_plan_id":"free"},{"bike_id":"ad27dbb9-6a06-425e-931a-974a7f93a3a8","system_id":"levelo_inurba_marseille","lat":43.309038,"lon":5.396546,"is_reserved":false,"is_disabled":false,"rental_uris":{"android":"levelo://app?vid=ad27dbb9-6a06-425e-931a-974a7f93a3a8","ios":"levelo://app?vid=ad27dbb9-6a06-425e-931a-974a7f93a3a8"},"vehicle_type_id":"4","last_reported":1685315177,"current_range_meters":26800,"station_id":"ce4bh012rcd13ifvqcv0","pricing_plan_id":"free"},{"bike_id":"038e619b-d52e-4a9b-b4d8-3223487b1a4d","system_id":"levelo_inurba_marseille","lat":43.29529,"lon":5.385581,"is_reserved":false,"is_disabled":false,"rental_uris":{"android":"levelo://app?vid=038e619b-d52e-4a9b-b4d8-3223487b1a4d","ios":"levelo://app?vid=038e619b-d52e-4a9b-b4d8-3223487b1a4d"},"vehicle_type_id":"4","last_reported":1685315177,"current_range_meters":14800,"station_id":"ce4bgih2rcd13ifvqba0","pricing_plan_id":"free"},{"bike_id":"e4eb0995-8dea-4111-afec-5ce1b55d604c","system_id":"levelo_inurba_marseille","lat":43.29529,"lon":5.385581,"is_reserved":false,"is_disabled":false,"rental_uris":{"android":"levelo://app?vid=e4eb0995-8dea-4111-afec-5ce1b55d604c","ios":"levelo://app?vid=e4eb0995-8dea-4111-afec-5ce1b55d604c"},"vehicle_type_id":"4","last_reported":1685315177,"current_range_meters":24400,"station_id":"ce4bgih2rcd13ifvqba0","pricing_plan_id":"free"},{"bike_id":"412f8562-9631-4040-8772-ff912f55332b","system_id":"levelo_inurba_marseille","lat":43.302008,"lon":5.394694,"is_reserved":false,"is_disabled":false,"rental_uris":{"android":"levelo://app?vid=412f8562-9631-4040-8772-ff912f55332b","ios":"levelo://app?vid=412f8562-9631-4040-8772-ff912f55332b"},"vehicle_type_id":"4","last_reported":1685315177,"current_range_meters":29200,"station_id":"ce4bh0p2rcd13ifvqd70","pricing_plan_id":"free"},{"bike_id":"53d592d6-4062-4ec6-97f9-209533722e43","system_id":"levelo_inurba_marseille","lat":43.302008,"lon":5.394694,"is_reserved":false,"is_disabled":false,"rental_uris":{"android":"levelo://app?vid=53d592d6-4062-4ec6-97f9-209533722e43","ios":"levelo://app?vid=53d592d6-4062-4ec6-97f9-209533722e43"},"vehicle_type_id":"4","last_reported":1685315177,"current_range_meters":400,"station_id":"ce4bh0p2rcd13ifvqd70","pricing_plan_id":"free"},{"bike_id":"687f358c-4e4a-4019-b8ca-8f90a736ed3a","system_id":"levelo_inurba_marseille","lat":43.290631,"lon":5.359244,"is_reserved":false,"is_disabled":false,"rental_uris":{"android":"levelo://app?vid=687f358c-4e4a-4019-b8ca-8f90a736ed3a","ios":"levelo://app?vid=687f358c-4e4a-4019-b8ca-8f90a736ed3a"},"vehicle_type_id":"4","last_reported":1685315177,"current_range_meters":31200,"station_id":"ce4bha92rcd13ifvqeg0","pricing_plan_id":"free"},{"bike_id":"c1af9cc9-0d22-4f0f-b227-d99b8d446a7b","system_id":"levelo_inurba_marseille","lat":43.290554,"lon":5.375631,"is_reserved":false,"is_disabled":false,"rental_uris":{"android":"levelo://app?vid=c1af9cc9-0d22-4f0f-b227-d99b8d446a7b","ios":"levelo://app?vid=c1af9cc9-0d22-4f0f-b227-d99b8d446a7b"},"vehicle_type_id":"4","last_reported":1685315177,"current_range_meters":27200,"station_id":"ce4bh692rcd13ifvqe90","pricing_plan_id":"free"},{"bike_id":"651bd262-c463-45bb-8449-0936254a0f85","system_id":"levelo_inurba_marseille","lat":43.290631,"lon":5.359244,"is_reserved":false,"is_disabled":false,"rental_uris":{"android":"levelo://app?vid=651bd262-c463-45bb-8449-0936254a0f85","ios":"levelo://app?vid=651bd262-c463-45bb-8449-0936254a0f85"},"vehicle_type_id":"4","last_reported":1685315177,"current_range_meters":11200,"station_id":"ce4bha92rcd13ifvqeg0","pricing_plan_id":"free"},{"bike_id":"95b1ab27-6ab3-4f05-aacd-2bad634b518f","system_id":"levelo_inurba_marseille","lat":43.290327,"lon":5.375711,"is_reserved":false,"is_disabled":false,"rental_uris":{"android":"levelo://app?vid=95b1ab27-6ab3-4f05-aacd-2bad634b518f","ios":"levelo://app?vid=95b1ab27-6ab3-4f05-aacd-2bad634b518f"},"vehicle_type_id":"4","last_reported":1685315177,"current_range_meters":16000,"station_id":"ce4bh692rcd13ifvqe90","pricing_plan_id":"free"},{"bike_id":"da150a22-ace0-4237-b6b5-0d3f3e15f103","system_id":"levelo_inurba_marseille","lat":43.289184,"lon":5.366408,"is_reserved":false,"is_disabled":false,"rental_uris":{"android":"levelo://app?vid=da150a22-ace0-4237-b6b5-0d3f3e15f103","ios":"levelo://app?vid=da150a22-ace0-4237-b6b5-0d3f3e15f103"},"vehicle_type_id":"4","last_reported":1685315177,"current_range_meters":26000,"station_id":"ce4bhap2rcd13ifvqek0","pricing_plan_id":"free"},{"bike_id":"ee02176e-ee34-433e-b2e2-a156d3f76dd8","system_id":"levelo_inurba_marseille","lat":43.289184,"lon":5.366408,"is_reserved":false,"is_disabled":false,"rental_uris":{"android":"levelo://app?vid=ee02176e-ee34-433e-b2e2-a156d3f76dd8","ios":"levelo://app?vid=ee02176e-ee34-433e-b2e2-a156d3f76dd8"},"vehicle_type_id":"4","last_reported":1685315177,"current_range_meters":26000,"station_id":"ce4bhap2rcd13ifvqek0","pricing_plan_id":"free"},{"bike_id":"c974b1f1-fa6d-4a76-9925-e9e40b57299f","system_id":"levelo_inurba_marseille","lat":43.289468,"lon":5.363719,"is_reserved":false,"is_disabled":false,"rental_uris":{"android":"levelo://app?vid=c974b1f1-fa6d-4a76-9925-e9e40b57299f","ios":"levelo://app?vid=c974b1f1-fa6d-4a76-9925-e9e40b57299f"},"vehicle_type_id":"4","last_reported":1685315177,"current_range_meters":30000,"station_id":"ce4bhc92rcd13ifvqetg","pricing_plan_id":"free"},{"bike_id":"b95f2652-0497-435c-bd55-c58f0312ad55","system_id":"levelo_inurba_marseille","lat":43.289468,"lon":5.363719,"is_reserved":false,"is_disabled":false,"rental_uris":{"android":"levelo://app?vid=b95f2652-0497-435c-bd55-c58f0312ad55","ios":"levelo://app?vid=b95f2652-0497-435c-bd55-c58f0312ad55"},"vehicle_type_id":"4","last_reported":1685315177,"current_range_meters":30400,"station_id":"ce4bhc92rcd13ifvqetg","pricing_plan_id":"free"},{"bike_id":"0424a6cb-0a74-4947-a7be-e085648270af","system_id":"levelo_inurba_marseille","lat":43.304274,"lon":5.397513,"is_reserved":false,"is_disabled":false,"rental_uris":{"android":"levelo://app?vid=0424a6cb-0a74-4947-a7be-e085648270af","ios":"levelo://app?vid=0424a6cb-0a74-4947-a7be-e085648270af"},"vehicle_type_id":"4","last_reported":1685315177,"current_range_meters":24800,"station_id":"ce4bh092rcd13ifvqd20","pricing_plan_id":"free"},{"bike_id":"533025ee-40bc-4100-a009-badddfe63e0a","system_id":"levelo_inurba_marseille","lat":43.304296,"lon":5.397513,"is_reserved":false,"is_disabled":false,"rental_uris":{"android":"levelo://app?vid=533025ee-40bc-4100-a009-badddfe63e0a","ios":"levelo://app?vid=533025ee-40bc-4100-a009-badddfe63e0a"},"vehicle_type_id":"4","last_reported":1685315177,"current_range_meters":25600,"station_id":"ce4bh092rcd13ifvqd20","pricing_plan_id":"free"},{"bike_id":"7b434767-1e1b-4204-a52c-72df47e6748d","system_id":"levelo_inurba_marseille","lat":43.296921,"lon":5.376579,"is_reserved":false,"is_disabled":false,"rental_uris":{"android":"levelo://app?vid=7b434767-1e1b-4204-a52c-72df47e6748d","ios":"levelo://app?vid=7b434767-1e1b-4204-a52c-72df47e6748d"},"vehicle_type_id":"4","last_reported":1685315177,"current_range_meters":30000,"station_id":"ce4bgkh2rcd13ifvqbl0","pricing_plan_id":"free"},{"bike_id":"2fba1c75-2911-4a0d-a5e6-4bffe0784f0d","system_id":"levelo_inurba_marseille","lat":43.290067,"lon":5.356172,"is_reserved":false,"is_disabled":false,"rental_uris":{"android":"levelo://app?vid=2fba1c75-2911-4a0d-a5e6-4bffe0784f0d","ios":"levelo://app?vid=2fba1c75-2911-4a0d-a5e6-4bffe0784f0d"},"vehicle_type_id":"4","last_reported":1685315177,"current_range_meters":9200,"station_id":"ce4bhb92rcd13ifvqen0","pricing_plan_id":"free"},{"bike_id":"c5a17238-50aa-4b06-aa27-bc57aebb5da4","system_id":"levelo_inurba_marseille","lat":43.290104,"lon":5.356111,"is_reserved":false,"is_disabled":false,"rental_uris":{"android":"levelo://app?vid=c5a17238-50aa-4b06-aa27-bc57aebb5da4","ios":"levelo://app?vid=c5a17238-50aa-4b06-aa27-bc57aebb5da4"},"vehicle_type_id":"4","last_reported":1685315177,"current_range_meters":13600,"station_id":"ce4bhb92rcd13ifvqen0","pricing_plan_id":"free"},{"bike_id":"9222bf40-886a-4d82-953e-2fe519d029c7","system_id":"levelo_inurba_marseille","lat":43.29001,"lon":5.35611,"is_reserved":false,"is_disabled":false,"rental_uris":{"android":"levelo://app?vid=9222bf40-886a-4d82-953e-2fe519d029c7","ios":"levelo://app?vid=9222bf40-886a-4d82-953e-2fe519d029c7"},"vehicle_type_id":"4","last_reported":1685315177,"current_range_meters":26000,"station_id":"ce4bhb92rcd13ifvqen0","pricing_plan_id":"free"},{"bike_id":"63a3f39a-09f1-44de-a1db-57ea36130995","system_id":"levelo_inurba_marseille","lat":43.28999,"lon":5.35613,"is_reserved":false,"is_disabled":false,"rental_uris":{"android":"levelo://app?vid=63a3f39a-09f1-44de-a1db-57ea36130995","ios":"levelo://app?vid=63a3f39a-09f1-44de-a1db-57ea36130995"},"vehicle_type_id":"4","last_reported":1685315177,"current_range_meters":29200,"station_id":"ce4bhb92rcd13ifvqen0","pricing_plan_id":"free"},{"bike_id":"39184026-67dc-4e2f-b2b7-1382659b3821","system_id":"levelo_inurba_marseille","lat":43.290104,"lon":5.356111,"is_reserved":false,"is_disabled":false,"rental_uris":{"android":"levelo://app?vid=39184026-67dc-4e2f-b2b7-1382659b3821","ios":"levelo://app?vid=39184026-67dc-4e2f-b2b7-1382659b3821"},"vehicle_type_id":"4","last_reported":1685315177,"current_range_meters":30400,"station_id":"ce4bhb92rcd13ifvqen0","pricing_plan_id":"free"},{"bike_id":"fe1e85a1-936b-4739-bbb2-f657a1dda6ff","system_id":"levelo_inurba_marseille","lat":43.290104,"lon":5.356111,"is_reserved":false,"is_disabled":false,"rental_uris":{"android":"levelo://app?vid=fe1e85a1-936b-4739-bbb2-f657a1dda6ff","ios":"levelo://app?vid=fe1e85a1-936b-4739-bbb2-f657a1dda6ff"},"vehicle_type_id":"4","last_reported":1685315177,"current_range_meters":16800,"station_id":"ce4bhb92rcd13ifvqen0","pricing_plan_id":"free"},{"bike_id":"c271fa48-7a89-43b8-ba5b-bd269bf06dae","system_id":"levelo_inurba_marseille","lat":43.290104,"lon":5.356111,"is_reserved":false,"is_disabled":false,"rental_uris":{"android":"levelo://app?vid=c271fa48-7a89-43b8-ba5b-bd269bf06dae","ios":"levelo://app?vid=c271fa48-7a89-43b8-ba5b-bd269bf06dae"},"vehicle_type_id":"4","last_reported":1685315177,"current_range_meters":28000,"station_id":"ce4bhb92rcd13ifvqen0","pricing_plan_id":"free"},{"bike_id":"8e2777b2-d8ff-49cd-8ec3-e99209dbdb6c","system_id":"levelo_inurba_marseille","lat":43.297814,"lon":5.393513,"is_reserved":false,"is_disabled":false,"rental_uris":{"android":"levelo://app?vid=8e2777b2-d8ff-49cd-8ec3-e99209dbdb6c","ios":"levelo://app?vid=8e2777b2-d8ff-49cd-8ec3-e99209dbdb6c"},"vehicle_type_id":"4","last_reported":1685315177,"current_range_meters":0,"station_id":"chh1huq6cuj3fo74tm60","pricing_plan_id":"free"},{"bike_id":"a599e329-48a6-43d2-a559-9bee606fa8eb","system_id":"levelo_inurba_marseille","lat":43.295169,"lon":5.390426,"is_reserved":false,"is_disabled":false,"rental_uris":{"android":"levelo://app?vid=a599e329-48a6-43d2-a559-9bee606fa8eb","ios":"levelo://app?vid=a599e329-48a6-43d2-a559-9bee606fa8eb"},"vehicle_type_id":"4","last_reported":1685315177,"current_range_meters":2800,"station_id":"ce4bh3p2rcd13ifvqdp0","pricing_plan_id":"free"},{"bike_id":"be8e4278-6a7c-4537-8082-e23bebde2c3a","system_id":"levelo_inurba_marseille","lat":43.28856,"lon":5.358371,"is_reserved":false,"is_disabled":false,"rental_uris":{"android":"levelo://app?vid=be8e4278-6a7c-4537-8082-e23bebde2c3a","ios":"levelo://app?vid=be8e4278-6a7c-4537-8082-e23bebde2c3a"},"vehicle_type_id":"4","last_reported":1685315177,"current_range_meters":25600,"station_id":"ce4bhb12rcd13ifvqem0","pricing_plan_id":"free"},{"bike_id":"3042264f-d84c-443f-b428-0b9ccbe7d198","system_id":"levelo_inurba_marseille","lat":43.28856,"lon":5.358371,"is_reserved":false,"is_disabled":false,"rental_uris":{"android":"levelo://app?vid=3042264f-d84c-443f-b428-0b9ccbe7d198","ios":"levelo://app?vid=3042264f-d84c-443f-b428-0b9ccbe7d198"},"vehicle_type_id":"4","last_reported":1685315177,"current_range_meters":29600,"station_id":"ce4bhb12rcd13ifvqem0","pricing_plan_id":"free"},{"bike_id":"141c14ea-594b-43ee-894e-8c44af1dcd73","system_id":"levelo_inurba_marseille","lat":43.33735,"lon":5.37449,"is_reserved":false,"is_disabled":false,"rental_uris":{"android":"levelo://app?vid=141c14ea-594b-43ee-894e-8c44af1dcd73","ios":"levelo://app?vid=141c14ea-594b-43ee-894e-8c44af1dcd73"},"vehicle_type_id":"4","last_reported":1685315177,"current_range_meters":30400,"station_id":"","pricing_plan_id":"free"},{"bike_id":"12cf4a86-bd72-4040-8ff3-d7a5ea8fe284","system_id":"levelo_inurba_marseille","lat":43.337444,"lon":5.374475,"is_reserved":false,"is_disabled":false,"rental_uris":{"android":"levelo://app?vid=12cf4a86-bd72-4040-8ff3-d7a5ea8fe284","ios":"levelo://app?vid=12cf4a86-bd72-4040-8ff3-d7a5ea8fe284"},"vehicle_type_id":"4","last_reported":1685315177,"current_range_meters":26000,"station_id":"","pricing_plan_id":"free"},{"bike_id":"c67b547c-3fcb-4384-8614-e15f558fec55","system_id":"levelo_inurba_marseille","lat":43.33744,"lon":5.37451,"is_reserved":false,"is_disabled":false,"rental_uris":{"android":"levelo://app?vid=c67b547c-3fcb-4384-8614-e15f558fec55","ios":"levelo://app?vid=c67b547c-3fcb-4384-8614-e15f558fec55"},"vehicle_type_id":"4","last_reported":1685315177,"current_range_meters":25600,"station_id":"","pricing_plan_id":"free"},{"bike_id":"493860ce-e063-4684-ab33-c360eaf64153","system_id":"levelo_inurba_marseille","lat":43.33744,"lon":5.37451,"is_reserved":false,"is_disabled":false,"rental_uris":{"android":"levelo://app?vid=493860ce-e063-4684-ab33-c360eaf64153","ios":"levelo://app?vid=493860ce-e063-4684-ab33-c360eaf64153"},"vehicle_type_id":"4","last_reported":1685315177,"current_range_meters":16400,"station_id":"","pricing_plan_id":"free"},{"bike_id":"556c6db1-2600-4c2b-9521-aae8453517c1","system_id":"levelo_inurba_marseille","lat":43.33746,"lon":5.3744,"is_reserved":false,"is_disabled":false,"rental_uris":{"android":"levelo://app?vid=556c6db1-2600-4c2b-9521-aae8453517c1","ios":"levelo://app?vid=556c6db1-2600-4c2b-9521-aae8453517c1"},"vehicle_type_id":"4","last_reported":1685315177,"current_range_meters":12400,"station_id":"","pricing_plan_id":"free"},{"bike_id":"5aaf445f-f097-4041-99e9-0b2edc8a39b1","system_id":"levelo_inurba_marseille","lat":43.33757,"lon":5.37447,"is_reserved":false,"is_disabled":false,"rental_uris":{"android":"levelo://app?vid=5aaf445f-f097-4041-99e9-0b2edc8a39b1","ios":"levelo://app?vid=5aaf445f-f097-4041-99e9-0b2edc8a39b1"},"vehicle_type_id":"4","last_reported":1685315177,"current_range_meters":28800,"station_id":"","pricing_plan_id":"free"},{"bike_id":"ff1b49ea-4d67-40b1-9bcc-12af1e30efad","system_id":"levelo_inurba_marseille","lat":43.28824,"lon":5.37666,"is_reserved":false,"is_disabled":false,"rental_uris":{"android":"levelo://app?vid=ff1b49ea-4d67-40b1-9bcc-12af1e30efad","ios":"levelo://app?vid=ff1b49ea-4d67-40b1-9bcc-12af1e30efad"},"vehicle_type_id":"4","last_reported":1685315177,"current_range_meters":2400,"station_id":"","pricing_plan_id":"free"},{"bike_id":"3678a7ab-e98d-4e38-b857-d48a5f4ab210","system_id":"levelo_inurba_marseille","lat":43.286591,"lon":5.363346,"is_reserved":false,"is_disabled":false,"rental_uris":{"android":"levelo://app?vid=3678a7ab-e98d-4e38-b857-d48a5f4ab210","ios":"levelo://app?vid=3678a7ab-e98d-4e38-b857-d48a5f4ab210"},"vehicle_type_id":"4","last_reported":1685315177,"current_range_meters":2800,"station_id":"ce4bhah2rcd13ifvqej0","pricing_plan_id":"free"},{"bike_id":"97988c66-f4d0-4fac-bba8-96a2b9f7e41c","system_id":"levelo_inurba_marseille","lat":43.286591,"lon":5.363346,"is_reserved":false,"is_disabled":false,"rental_uris":{"android":"levelo://app?vid=97988c66-f4d0-4fac-bba8-96a2b9f7e41c","ios":"levelo://app?vid=97988c66-f4d0-4fac-bba8-96a2b9f7e41c"},"vehicle_type_id":"4","last_reported":1685315177,"current_range_meters":28000,"station_id":"ce4bhah2rcd13ifvqej0","pricing_plan_id":"free"},{"bike_id":"107d009f-9c83-4e33-bf31-2c71acd52599","system_id":"levelo_inurba_marseille","lat":43.286591,"lon":5.363346,"is_reserved":false,"is_disabled":false,"rental_uris":{"android":"levelo://app?vid=107d009f-9c83-4e33-bf31-2c71acd52599","ios":"levelo://app?vid=107d009f-9c83-4e33-bf31-2c71acd52599"},"vehicle_type_id":"4","last_reported":1685315177,"current_range_meters":30400,"station_id":"ce4bhah2rcd13ifvqej0","pricing_plan_id":"free"},{"bike_id":"ef76fac9-1dbc-4d27-897e-1048cb630683","system_id":"levelo_inurba_marseille","lat":43.286591,"lon":5.363346,"is_reserved":false,"is_disabled":false,"rental_uris":{"android":"levelo://app?vid=ef76fac9-1dbc-4d27-897e-1048cb630683","ios":"levelo://app?vid=ef76fac9-1dbc-4d27-897e-1048cb630683"},"vehicle_type_id":"4","last_reported":1685315177,"current_range_meters":26400,"station_id":"ce4bhah2rcd13ifvqej0","pricing_plan_id":"free"},{"bike_id":"f0d726ab-c366-40fd-891f-96cb97a7b94a","system_id":"levelo_inurba_marseille","lat":43.295196,"lon":5.39397,"is_reserved":false,"is_disabled":false,"rental_uris":{"android":"levelo://app?vid=f0d726ab-c366-40fd-891f-96cb97a7b94a","ios":"levelo://app?vid=f0d726ab-c366-40fd-891f-96cb97a7b94a"},"vehicle_type_id":"4","last_reported":1685315177,"current_range_meters":25600,"station_id":"ce4bh292rcd13ifvqdf0","pricing_plan_id":"free"},{"bike_id":"bedde045-8ad7-48fb-9746-256a908e5a96","system_id":"levelo_inurba_marseille","lat":43.29518,"lon":5.39406,"is_reserved":false,"is_disabled":false,"rental_uris":{"android":"levelo://app?vid=bedde045-8ad7-48fb-9746-256a908e5a96","ios":"levelo://app?vid=bedde045-8ad7-48fb-9746-256a908e5a96"},"vehicle_type_id":"4","last_reported":1685315177,"current_range_meters":9600,"station_id":"ce4bh292rcd13ifvqdf0","pricing_plan_id":"free"},{"bike_id":"951fd62d-affc-4b24-918f-7b3043fd24ea","system_id":"levelo_inurba_marseille","lat":43.302759,"lon":5.400793,"is_reserved":false,"is_disabled":false,"rental_uris":{"android":"levelo://app?vid=951fd62d-affc-4b24-918f-7b3043fd24ea","ios":"levelo://app?vid=951fd62d-affc-4b24-918f-7b3043fd24ea"},"vehicle_type_id":"4","last_reported":1685315177,"current_range_meters":23600,"station_id":"ce4bgvh2rcd13ifvqcs0","pricing_plan_id":"free"},{"bike_id":"c83b78e0-ca22-4dc2-9969-e55fde6fa900","system_id":"levelo_inurba_marseille","lat":43.302759,"lon":5.400793,"is_reserved":false,"is_disabled":false,"rental_uris":{"android":"levelo://app?vid=c83b78e0-ca22-4dc2-9969-e55fde6fa900","ios":"levelo://app?vid=c83b78e0-ca22-4dc2-9969-e55fde6fa900"},"vehicle_type_id":"4","last_reported":1685315177,"current_range_meters":21200,"station_id":"ce4bgvh2rcd13ifvqcs0","pricing_plan_id":"free"},{"bike_id":"774ff2fb-1092-45f6-970c-0f28e31ebcd4","system_id":"levelo_inurba_marseille","lat":43.290336,"lon":5.386425,"is_reserved":false,"is_disabled":false,"rental_uris":{"android":"levelo://app?vid=774ff2fb-1092-45f6-970c-0f28e31ebcd4","ios":"levelo://app?vid=774ff2fb-1092-45f6-970c-0f28e31ebcd4"},"vehicle_type_id":"4","last_reported":1685315177,"current_range_meters":0,"station_id":"ce4bh4p2rcd13ifvqe0g","pricing_plan_id":"free"},{"bike_id":"2d97bb7e-f34d-49de-9d90-5206376db3c1","system_id":"levelo_inurba_marseille","lat":43.286039,"lon":5.370679,"is_reserved":false,"is_disabled":false,"rental_uris":{"android":"levelo://app?vid=2d97bb7e-f34d-49de-9d90-5206376db3c1","ios":"levelo://app?vid=2d97bb7e-f34d-49de-9d90-5206376db3c1"},"vehicle_type_id":"4","last_reported":1685315177,"current_range_meters":8000,"station_id":"ce4bht12rcd13ifvqi60","pricing_plan_id":"free"},{"bike_id":"5a63bdb5-2a76-4866-90e6-3907ef84ff0f","system_id":"levelo_inurba_marseille","lat":43.286593,"lon":5.363346,"is_reserved":false,"is_disabled":false,"rental_uris":{"android":"levelo://app?vid=5a63bdb5-2a76-4866-90e6-3907ef84ff0f","ios":"levelo://app?vid=5a63bdb5-2a76-4866-90e6-3907ef84ff0f"},"vehicle_type_id":"4","last_reported":1685315177,"current_range_meters":28400,"station_id":"ce4bhah2rcd13ifvqej0","pricing_plan_id":"free"},{"bike_id":"ec02f902-9c39-437b-ac38-0eb440d94cd5","system_id":"levelo_inurba_marseille","lat":43.28725,"lon":5.37928,"is_reserved":false,"is_disabled":false,"rental_uris":{"android":"levelo://app?vid=ec02f902-9c39-437b-ac38-0eb440d94cd5","ios":"levelo://app?vid=ec02f902-9c39-437b-ac38-0eb440d94cd5"},"vehicle_type_id":"4","last_reported":1685315177,"current_range_meters":0,"station_id":"ce4bh9p2rcd13ifvqec0","pricing_plan_id":"free"},{"bike_id":"dba03c2a-c477-4e36-818d-68610cc1538b","system_id":"levelo_inurba_marseille","lat":43.28721,"lon":5.37937,"is_reserved":false,"is_disabled":false,"rental_uris":{"android":"levelo://app?vid=dba03c2a-c477-4e36-818d-68610cc1538b","ios":"levelo://app?vid=dba03c2a-c477-4e36-818d-68610cc1538b"},"vehicle_type_id":"4","last_reported":1685315177,"current_range_meters":27200,"station_id":"ce4bh9p2rcd13ifvqec0","pricing_plan_id":"free"},{"bike_id":"58edda7b-3a8f-4c21-bb97-da840879b230","system_id":"levelo_inurba_marseille","lat":43.316517,"lon":5.404375,"is_reserved":false,"is_disabled":false,"rental_uris":{"android":"levelo://app?vid=58edda7b-3a8f-4c21-bb97-da840879b230","ios":"levelo://app?vid=58edda7b-3a8f-4c21-bb97-da840879b230"},"vehicle_type_id":"4","last_reported":1685315177,"current_range_meters":31200,"station_id":"ce4bh012rcd13ifvqd00","pricing_plan_id":"free"},{"bike_id":"1ec4e3cf-a211-4a07-9135-4f164b3e23c9","system_id":"levelo_inurba_marseille","lat":43.31645,"lon":5.40436,"is_reserved":false,"is_disabled":false,"rental_uris":{"android":"levelo://app?vid=1ec4e3cf-a211-4a07-9135-4f164b3e23c9","ios":"levelo://app?vid=1ec4e3cf-a211-4a07-9135-4f164b3e23c9"},"vehicle_type_id":"4","last_reported":1685315177,"current_range_meters":27600,"station_id":"ce4bh012rcd13ifvqd00","pricing_plan_id":"free"},{"bike_id":"2f56200c-0408-42e2-b6a3-92029c19ed3b","system_id":"levelo_inurba_marseille","lat":43.31646,"lon":5.4044,"is_reserved":false,"is_disabled":false,"rental_uris":{"android":"levelo://app?vid=2f56200c-0408-42e2-b6a3-92029c19ed3b","ios":"levelo://app?vid=2f56200c-0408-42e2-b6a3-92029c19ed3b"},"vehicle_type_id":"4","last_reported":1685315177,"current_range_meters":31200,"station_id":"ce4bh012rcd13ifvqd00","pricing_plan_id":"free"},{"bike_id":"7e1fe4f5-345b-46bd-ab0e-c6b5a3db933d","system_id":"levelo_inurba_marseille","lat":43.316517,"lon":5.404375,"is_reserved":false,"is_disabled":false,"rental_uris":{"android":"levelo://app?vid=7e1fe4f5-345b-46bd-ab0e-c6b5a3db933d","ios":"levelo://app?vid=7e1fe4f5-345b-46bd-ab0e-c6b5a3db933d"},"vehicle_type_id":"4","last_reported":1685315177,"current_range_meters":31600,"station_id":"ce4bh012rcd13ifvqd00","pricing_plan_id":"free"},{"bike_id":"399a568f-226b-4288-b803-8add96160650","system_id":"levelo_inurba_marseille","lat":43.316517,"lon":5.404375,"is_reserved":false,"is_disabled":false,"rental_uris":{"android":"levelo://app?vid=399a568f-226b-4288-b803-8add96160650","ios":"levelo://app?vid=399a568f-226b-4288-b803-8add96160650"},"vehicle_type_id":"4","last_reported":1685315177,"current_range_meters":30800,"station_id":"ce4bh012rcd13ifvqd00","pricing_plan_id":"free"},{"bike_id":"2b2f6c5d-446d-4953-9831-18c4ad742753","system_id":"levelo_inurba_marseille","lat":43.31635,"lon":5.40466,"is_reserved":false,"is_disabled":false,"rental_uris":{"android":"levelo://app?vid=2b2f6c5d-446d-4953-9831-18c4ad742753","ios":"levelo://app?vid=2b2f6c5d-446d-4953-9831-18c4ad742753"},"vehicle_type_id":"4","last_reported":1685315177,"current_range_meters":31200,"station_id":"ce4bh012rcd13ifvqd00","pricing_plan_id":"free"},{"bike_id":"80309540-8ba8-40a9-b297-40852e0c1713","system_id":"levelo_inurba_marseille","lat":43.284534,"lon":5.358662,"is_reserved":false,"is_disabled":false,"rental_uris":{"android":"levelo://app?vid=80309540-8ba8-40a9-b297-40852e0c1713","ios":"levelo://app?vid=80309540-8ba8-40a9-b297-40852e0c1713"},"vehicle_type_id":"4","last_reported":1685315177,"current_range_meters":16000,"station_id":"ce4bhah2rcd13ifvqei0","pricing_plan_id":"free"},{"bike_id":"5db91f20-14ff-43aa-a162-8a380f484e30","system_id":"levelo_inurba_marseille","lat":43.285856,"lon":5.350771,"is_reserved":false,"is_disabled":false,"rental_uris":{"android":"levelo://app?vid=5db91f20-14ff-43aa-a162-8a380f484e30","ios":"levelo://app?vid=5db91f20-14ff-43aa-a162-8a380f484e30"},"vehicle_type_id":"4","last_reported":1685315177,"current_range_meters":31200,"station_id":"ce4bhch2rcd13ifvqeug","pricing_plan_id":"free"},{"bike_id":"6aa0ace1-9004-409f-a870-9ef9048480f0","system_id":"levelo_inurba_marseille","lat":43.285856,"lon":5.350771,"is_reserved":false,"is_disabled":false,"rental_uris":{"android":"levelo://app?vid=6aa0ace1-9004-409f-a870-9ef9048480f0","ios":"levelo://app?vid=6aa0ace1-9004-409f-a870-9ef9048480f0"},"vehicle_type_id":"4","last_reported":1685315177,"current_range_meters":31200,"station_id":"ce4bhch2rcd13ifvqeug","pricing_plan_id":"free"},{"bike_id":"5def35d2-320b-4ffd-922c-4d28df7eed1f","system_id":"levelo_inurba_marseille","lat":43.285856,"lon":5.350771,"is_reserved":false,"is_disabled":false,"rental_uris":{"android":"levelo://app?vid=5def35d2-320b-4ffd-922c-4d28df7eed1f","ios":"levelo://app?vid=5def35d2-320b-4ffd-922c-4d28df7eed1f"},"vehicle_type_id":"4","last_reported":1685315177,"current_range_meters":31200,"station_id":"ce4bhch2rcd13ifvqeug","pricing_plan_id":"free"},{"bike_id":"f1796e92-0067-4c36-92a6-648f47af4223","system_id":"levelo_inurba_marseille","lat":43.286155,"lon":5.351033,"is_reserved":false,"is_disabled":false,"rental_uris":{"android":"levelo://app?vid=f1796e92-0067-4c36-92a6-648f47af4223","ios":"levelo://app?vid=f1796e92-0067-4c36-92a6-648f47af4223"},"vehicle_type_id":"4","last_reported":1685315177,"current_range_meters":13600,"station_id":"","pricing_plan_id":"free"},{"bike_id":"3b1a741f-4ea7-4782-ab6a-cb5dc80ab9e4","system_id":"levelo_inurba_marseille","lat":43.286125,"lon":5.351072,"is_reserved":false,"is_disabled":false,"rental_uris":{"android":"levelo://app?vid=3b1a741f-4ea7-4782-ab6a-cb5dc80ab9e4","ios":"levelo://app?vid=3b1a741f-4ea7-4782-ab6a-cb5dc80ab9e4"},"vehicle_type_id":"4","last_reported":1685315177,"current_range_meters":31200,"station_id":"","pricing_plan_id":"free"},{"bike_id":"26c9141e-1e63-4741-9e6e-1d6a42ac54f0","system_id":"levelo_inurba_marseille","lat":43.285856,"lon":5.350771,"is_reserved":false,"is_disabled":false,"rental_uris":{"android":"levelo://app?vid=26c9141e-1e63-4741-9e6e-1d6a42ac54f0","ios":"levelo://app?vid=26c9141e-1e63-4741-9e6e-1d6a42ac54f0"},"vehicle_type_id":"4","last_reported":1685315177,"current_range_meters":22800,"station_id":"ce4bhch2rcd13ifvqeug","pricing_plan_id":"free"},{"bike_id":"c093bb38-7b7f-46a1-a625-b5deb2a7293f","system_id":"levelo_inurba_marseille","lat":43.28613,"lon":5.35098,"is_reserved":false,"is_disabled":false,"rental_uris":{"android":"levelo://app?vid=c093bb38-7b7f-46a1-a625-b5deb2a7293f","ios":"levelo://app?vid=c093bb38-7b7f-46a1-a625-b5deb2a7293f"},"vehicle_type_id":"4","last_reported":1685315177,"current_range_meters":24000,"station_id":"","pricing_plan_id":"free"},{"bike_id":"3ee442e5-5a00-451c-9a8e-15fed1d74c57","system_id":"levelo_inurba_marseille","lat":43.295713,"lon":5.399639,"is_reserved":false,"is_disabled":false,"rental_uris":{"android":"levelo://app?vid=3ee442e5-5a00-451c-9a8e-15fed1d74c57","ios":"levelo://app?vid=3ee442e5-5a00-451c-9a8e-15fed1d74c57"},"vehicle_type_id":"4","last_reported":1685315177,"current_range_meters":30400,"station_id":"ce4bh312rcd13ifvqdj0","pricing_plan_id":"free"},{"bike_id":"210d1533-8fdd-4949-a982-abe959f1b7c5","system_id":"levelo_inurba_marseille","lat":43.295713,"lon":5.399639,"is_reserved":false,"is_disabled":false,"rental_uris":{"android":"levelo://app?vid=210d1533-8fdd-4949-a982-abe959f1b7c5","ios":"levelo://app?vid=210d1533-8fdd-4949-a982-abe959f1b7c5"},"vehicle_type_id":"4","last_reported":1685315177,"current_range_meters":31200,"station_id":"ce4bh312rcd13ifvqdj0","pricing_plan_id":"free"},{"bike_id":"3f78ced0-d7df-4611-a428-37b884a6e1d1","system_id":"levelo_inurba_marseille","lat":43.31046,"lon":5.40925,"is_reserved":false,"is_disabled":false,"rental_uris":{"android":"levelo://app?vid=3f78ced0-d7df-4611-a428-37b884a6e1d1","ios":"levelo://app?vid=3f78ced0-d7df-4611-a428-37b884a6e1d1"},"vehicle_type_id":"4","last_reported":1685315177,"current_range_meters":0,"station_id":"","pricing_plan_id":"free"},{"bike_id":"5f15e58a-1ada-4549-bc98-df6d98790471","system_id":"levelo_inurba_marseille","lat":43.283526,"lon":5.38102,"is_reserved":false,"is_disabled":false,"rental_uris":{"android":"levelo://app?vid=5f15e58a-1ada-4549-bc98-df6d98790471","ios":"levelo://app?vid=5f15e58a-1ada-4549-bc98-df6d98790471"},"vehicle_type_id":"4","last_reported":1685315177,"current_range_meters":16800,"station_id":"ce4bh412rcd13ifvqdr0","pricing_plan_id":"free"},{"bike_id":"a06fd93c-ec5e-4396-9b3f-a9049bad7220","system_id":"levelo_inurba_marseille","lat":43.283494,"lon":5.380945,"is_reserved":false,"is_disabled":false,"rental_uris":{"android":"levelo://app?vid=a06fd93c-ec5e-4396-9b3f-a9049bad7220","ios":"levelo://app?vid=a06fd93c-ec5e-4396-9b3f-a9049bad7220"},"vehicle_type_id":"4","last_reported":1685315177,"current_range_meters":31200,"station_id":"ce4bh412rcd13ifvqdr0","pricing_plan_id":"free"},{"bike_id":"df280f50-6aae-4d25-bfb2-071498faecb0","system_id":"levelo_inurba_marseille","lat":43.28869,"lon":5.39419,"is_reserved":false,"is_disabled":false,"rental_uris":{"android":"levelo://app?vid=df280f50-6aae-4d25-bfb2-071498faecb0","ios":"levelo://app?vid=df280f50-6aae-4d25-bfb2-071498faecb0"},"vehicle_type_id":"4","last_reported":1685315177,"current_range_meters":11600,"station_id":"","pricing_plan_id":"free"},{"bike_id":"af87fe2d-3f05-48af-a0eb-8b91327b7b5c","system_id":"levelo_inurba_marseille","lat":43.317121,"lon":5.423936,"is_reserved":false,"is_disabled":false,"rental_uris":{"android":"levelo://app?vid=af87fe2d-3f05-48af-a0eb-8b91327b7b5c","ios":"levelo://app?vid=af87fe2d-3f05-48af-a0eb-8b91327b7b5c"},"vehicle_type_id":"4","last_reported":1685315177,"current_range_meters":22800,"station_id":"ce4bhp92rcd13ifvqhbg","pricing_plan_id":"free"},{"bike_id":"50aed651-308d-4703-a479-f99be126791e","system_id":"levelo_inurba_marseille","lat":43.292724,"lon":5.401131,"is_reserved":false,"is_disabled":false,"rental_uris":{"android":"levelo://app?vid=50aed651-308d-4703-a479-f99be126791e","ios":"levelo://app?vid=50aed651-308d-4703-a479-f99be126791e"},"vehicle_type_id":"4","last_reported":1685315177,"current_range_meters":4000,"station_id":"ce4bh312rcd13ifvqdk0","pricing_plan_id":"free"},{"bike_id":"a43a0fdf-c9c8-493a-b655-b0ac921f2f7d","system_id":"levelo_inurba_marseille","lat":43.282754,"lon":5.350519,"is_reserved":false,"is_disabled":false,"rental_uris":{"android":"levelo://app?vid=a43a0fdf-c9c8-493a-b655-b0ac921f2f7d","ios":"levelo://app?vid=a43a0fdf-c9c8-493a-b655-b0ac921f2f7d"},"vehicle_type_id":"4","last_reported":1685315177,"current_range_meters":31200,"station_id":"ce4bhbp2rcd13ifvqerg","pricing_plan_id":"free"},{"bike_id":"af027aa5-cd0d-4466-bafe-b4f39adaf392","system_id":"levelo_inurba_marseille","lat":43.282754,"lon":5.350519,"is_reserved":false,"is_disabled":false,"rental_uris":{"android":"levelo://app?vid=af027aa5-cd0d-4466-bafe-b4f39adaf392","ios":"levelo://app?vid=af027aa5-cd0d-4466-bafe-b4f39adaf392"},"vehicle_type_id":"4","last_reported":1685315177,"current_range_meters":15600,"station_id":"ce4bhbp2rcd13ifvqerg","pricing_plan_id":"free"},{"bike_id":"50a35045-7c3f-4fb1-a168-d2e647281c29","system_id":"levelo_inurba_marseille","lat":43.282744,"lon":5.350533,"is_reserved":false,"is_disabled":false,"rental_uris":{"android":"levelo://app?vid=50a35045-7c3f-4fb1-a168-d2e647281c29","ios":"levelo://app?vid=50a35045-7c3f-4fb1-a168-d2e647281c29"},"vehicle_type_id":"4","last_reported":1685315177,"current_range_meters":28800,"station_id":"ce4bhbp2rcd13ifvqerg","pricing_plan_id":"free"},{"bike_id":"e4b847fe-25d7-4165-9146-035a50c128eb","system_id":"levelo_inurba_marseille","lat":43.2836,"lon":5.38641,"is_reserved":false,"is_disabled":false,"rental_uris":{"android":"levelo://app?vid=e4b847fe-25d7-4165-9146-035a50c128eb","ios":"levelo://app?vid=e4b847fe-25d7-4165-9146-035a50c128eb"},"vehicle_type_id":"4","last_reported":1685315177,"current_range_meters":11200,"station_id":"ce4bh492rcd13ifvqdvg","pricing_plan_id":"free"},{"bike_id":"fae916d6-c9bc-4d29-bead-b1ea2bedd1f5","system_id":"levelo_inurba_marseille","lat":43.28039,"lon":5.369297,"is_reserved":false,"is_disabled":false,"rental_uris":{"android":"levelo://app?vid=fae916d6-c9bc-4d29-bead-b1ea2bedd1f5","ios":"levelo://app?vid=fae916d6-c9bc-4d29-bead-b1ea2bedd1f5"},"vehicle_type_id":"4","last_reported":1685315177,"current_range_meters":9600,"station_id":"ce4bha12rcd13ifvqef0","pricing_plan_id":"free"},{"bike_id":"9da06e87-2fdb-4269-8503-afba93795f9f","system_id":"levelo_inurba_marseille","lat":43.2904,"lon":5.39946,"is_reserved":false,"is_disabled":false,"rental_uris":{"android":"levelo://app?vid=9da06e87-2fdb-4269-8503-afba93795f9f","ios":"levelo://app?vid=9da06e87-2fdb-4269-8503-afba93795f9f"},"vehicle_type_id":"4","last_reported":1685315177,"current_range_meters":0,"station_id":"ce4bh392rcd13ifvqdm0","pricing_plan_id":"free"},{"bike_id":"f86a777a-463c-4f45-88fe-0d2362f33ba5","system_id":"levelo_inurba_marseille","lat":43.29043,"lon":5.39958,"is_reserved":false,"is_disabled":false,"rental_uris":{"android":"levelo://app?vid=f86a777a-463c-4f45-88fe-0d2362f33ba5","ios":"levelo://app?vid=f86a777a-463c-4f45-88fe-0d2362f33ba5"},"vehicle_type_id":"4","last_reported":1685315177,"current_range_meters":22000,"station_id":"ce4bh392rcd13ifvqdm0","pricing_plan_id":"free"},{"bike_id":"91da9236-6226-441c-830e-ca4782cddc41","system_id":"levelo_inurba_marseille","lat":43.281044,"lon":5.378308,"is_reserved":false,"is_disabled":false,"rental_uris":{"android":"levelo://app?vid=91da9236-6226-441c-830e-ca4782cddc41","ios":"levelo://app?vid=91da9236-6226-441c-830e-ca4782cddc41"},"vehicle_type_id":"4","last_reported":1685315177,"current_range_meters":26800,"station_id":"ce4bha12rcd13ifvqee0","pricing_plan_id":"free"},{"bike_id":"75b20958-2073-4883-8438-9ccaa5291a6b","system_id":"levelo_inurba_marseille","lat":43.281044,"lon":5.378308,"is_reserved":false,"is_disabled":false,"rental_uris":{"android":"levelo://app?vid=75b20958-2073-4883-8438-9ccaa5291a6b","ios":"levelo://app?vid=75b20958-2073-4883-8438-9ccaa5291a6b"},"vehicle_type_id":"4","last_reported":1685315177,"current_range_meters":28400,"station_id":"ce4bha12rcd13ifvqee0","pricing_plan_id":"free"},{"bike_id":"1b20b2ac-3f61-4f55-8dca-28730db1af6d","system_id":"levelo_inurba_marseille","lat":43.29041,"lon":5.399634,"is_reserved":false,"is_disabled":false,"rental_uris":{"android":"levelo://app?vid=1b20b2ac-3f61-4f55-8dca-28730db1af6d","ios":"levelo://app?vid=1b20b2ac-3f61-4f55-8dca-28730db1af6d"},"vehicle_type_id":"4","last_reported":1685315177,"current_range_meters":1600,"station_id":"ce4bh392rcd13ifvqdm0","pricing_plan_id":"free"},{"bike_id":"00569499-675e-470b-b7fc-b3562095cede","system_id":"levelo_inurba_marseille","lat":43.29041,"lon":5.399634,"is_reserved":false,"is_disabled":false,"rental_uris":{"android":"levelo://app?vid=00569499-675e-470b-b7fc-b3562095cede","ios":"levelo://app?vid=00569499-675e-470b-b7fc-b3562095cede"},"vehicle_type_id":"4","last_reported":1685315177,"current_range_meters":2400,"station_id":"ce4bh392rcd13ifvqdm0","pricing_plan_id":"free"},{"bike_id":"9928e20b-0c7b-4a0b-9d84-76d8982997f7","system_id":"levelo_inurba_marseille","lat":43.296263,"lon":5.40601,"is_reserved":false,"is_disabled":false,"rental_uris":{"android":"levelo://app?vid=9928e20b-0c7b-4a0b-9d84-76d8982997f7","ios":"levelo://app?vid=9928e20b-0c7b-4a0b-9d84-76d8982997f7"},"vehicle_type_id":"4","last_reported":1685315177,"current_range_meters":30000,"station_id":"ce4bh0h2rcd13ifvqd60","pricing_plan_id":"free"},{"bike_id":"e548e35c-a076-454f-bd89-45d972833809","system_id":"levelo_inurba_marseille","lat":43.28573,"lon":5.394992,"is_reserved":false,"is_disabled":false,"rental_uris":{"android":"levelo://app?vid=e548e35c-a076-454f-bd89-45d972833809","ios":"levelo://app?vid=e548e35c-a076-454f-bd89-45d972833809"},"vehicle_type_id":"4","last_reported":1685315177,"current_range_meters":28800,"station_id":"ce4bh292rcd13ifvqdg0","pricing_plan_id":"free"},{"bike_id":"48cdf7cb-da73-4c99-8df5-f0c860ca97d1","system_id":"levelo_inurba_marseille","lat":43.28573,"lon":5.394992,"is_reserved":false,"is_disabled":false,"rental_uris":{"android":"levelo://app?vid=48cdf7cb-da73-4c99-8df5-f0c860ca97d1","ios":"levelo://app?vid=48cdf7cb-da73-4c99-8df5-f0c860ca97d1"},"vehicle_type_id":"4","last_reported":1685315177,"current_range_meters":27600,"station_id":"ce4bh292rcd13ifvqdg0","pricing_plan_id":"free"},{"bike_id":"84fb31e2-fa2f-49a4-8473-1c7be801f3df","system_id":"levelo_inurba_marseille","lat":43.285742,"lon":5.395004,"is_reserved":false,"is_disabled":false,"rental_uris":{"android":"levelo://app?vid=84fb31e2-fa2f-49a4-8473-1c7be801f3df","ios":"levelo://app?vid=84fb31e2-fa2f-49a4-8473-1c7be801f3df"},"vehicle_type_id":"4","last_reported":1685315177,"current_range_meters":31200,"station_id":"ce4bh292rcd13ifvqdg0","pricing_plan_id":"free"},{"bike_id":"2fc95317-4986-49fe-9356-13c9ae75a35f","system_id":"levelo_inurba_marseille","lat":43.27903,"lon":5.38026,"is_reserved":false,"is_disabled":false,"rental_uris":{"android":"levelo://app?vid=2fc95317-4986-49fe-9356-13c9ae75a35f","ios":"levelo://app?vid=2fc95317-4986-49fe-9356-13c9ae75a35f"},"vehicle_type_id":"4","last_reported":1685315177,"current_range_meters":4400,"station_id":"","pricing_plan_id":"free"},{"bike_id":"133306e4-864e-4bb3-be4f-b8d95d51eac1","system_id":"levelo_inurba_marseille","lat":43.287154,"lon":5.399979,"is_reserved":false,"is_disabled":false,"rental_uris":{"android":"levelo://app?vid=133306e4-864e-4bb3-be4f-b8d95d51eac1","ios":"levelo://app?vid=133306e4-864e-4bb3-be4f-b8d95d51eac1"},"vehicle_type_id":"4","last_reported":1685315177,"current_range_meters":27200,"station_id":"ce4bho92rcd13ifvqh3g","pricing_plan_id":"free"},{"bike_id":"23770266-7990-4210-b424-f8fab1d87695","system_id":"levelo_inurba_marseille","lat":43.287154,"lon":5.399979,"is_reserved":false,"is_disabled":false,"rental_uris":{"android":"levelo://app?vid=23770266-7990-4210-b424-f8fab1d87695","ios":"levelo://app?vid=23770266-7990-4210-b424-f8fab1d87695"},"vehicle_type_id":"4","last_reported":1685315177,"current_range_meters":31200,"station_id":"ce4bho92rcd13ifvqh3g","pricing_plan_id":"free"},{"bike_id":"63154aa4-9c47-4f7b-9726-f6059684ab53","system_id":"levelo_inurba_marseille","lat":43.287154,"lon":5.399979,"is_reserved":false,"is_disabled":false,"rental_uris":{"android":"levelo://app?vid=63154aa4-9c47-4f7b-9726-f6059684ab53","ios":"levelo://app?vid=63154aa4-9c47-4f7b-9726-f6059684ab53"},"vehicle_type_id":"4","last_reported":1685315177,"current_range_meters":8400,"station_id":"ce4bho92rcd13ifvqh3g","pricing_plan_id":"free"},{"bike_id":"970f3cd1-3d58-476f-a521-b9dca6e24829","system_id":"levelo_inurba_marseille","lat":43.287154,"lon":5.399979,"is_reserved":false,"is_disabled":false,"rental_uris":{"android":"levelo://app?vid=970f3cd1-3d58-476f-a521-b9dca6e24829","ios":"levelo://app?vid=970f3cd1-3d58-476f-a521-b9dca6e24829"},"vehicle_type_id":"4","last_reported":1685315177,"current_range_meters":31200,"station_id":"ce4bho92rcd13ifvqh3g","pricing_plan_id":"free"},{"bike_id":"36dd5ff4-386e-42ed-a89f-d10865188b93","system_id":"levelo_inurba_marseille","lat":43.287154,"lon":5.399979,"is_reserved":false,"is_disabled":false,"rental_uris":{"android":"levelo://app?vid=36dd5ff4-386e-42ed-a89f-d10865188b93","ios":"levelo://app?vid=36dd5ff4-386e-42ed-a89f-d10865188b93"},"vehicle_type_id":"4","last_reported":1685315177,"current_range_meters":31200,"station_id":"ce4bho92rcd13ifvqh3g","pricing_plan_id":"free"},{"bike_id":"23bc9113-7a05-451f-934f-04eaef850e70","system_id":"levelo_inurba_marseille","lat":43.287154,"lon":5.399979,"is_reserved":false,"is_disabled":false,"rental_uris":{"android":"levelo://app?vid=23bc9113-7a05-451f-934f-04eaef850e70","ios":"levelo://app?vid=23bc9113-7a05-451f-934f-04eaef850e70"},"vehicle_type_id":"4","last_reported":1685315177,"current_range_meters":0,"station_id":"ce4bho92rcd13ifvqh3g","pricing_plan_id":"free"},{"bike_id":"6f9455fa-4713-4e42-85f5-88de30e099ed","system_id":"levelo_inurba_marseille","lat":43.287154,"lon":5.399979,"is_reserved":false,"is_disabled":false,"rental_uris":{"android":"levelo://app?vid=6f9455fa-4713-4e42-85f5-88de30e099ed","ios":"levelo://app?vid=6f9455fa-4713-4e42-85f5-88de30e099ed"},"vehicle_type_id":"4","last_reported":1685315177,"current_range_meters":2800,"station_id":"ce4bho92rcd13ifvqh3g","pricing_plan_id":"free"},{"bike_id":"998f9162-3146-45d4-8743-2dd547c43873","system_id":"levelo_inurba_marseille","lat":43.287154,"lon":5.399979,"is_reserved":false,"is_disabled":false,"rental_uris":{"android":"levelo://app?vid=998f9162-3146-45d4-8743-2dd547c43873","ios":"levelo://app?vid=998f9162-3146-45d4-8743-2dd547c43873"},"vehicle_type_id":"4","last_reported":1685315177,"current_range_meters":6800,"station_id":"ce4bho92rcd13ifvqh3g","pricing_plan_id":"free"},{"bike_id":"7dbc3f4f-7cc5-41c9-ad66-12dac34c4785","system_id":"levelo_inurba_marseille","lat":43.287156,"lon":5.400191,"is_reserved":false,"is_disabled":false,"rental_uris":{"android":"levelo://app?vid=7dbc3f4f-7cc5-41c9-ad66-12dac34c4785","ios":"levelo://app?vid=7dbc3f4f-7cc5-41c9-ad66-12dac34c4785"},"vehicle_type_id":"4","last_reported":1685315177,"current_range_meters":11600,"station_id":"","pricing_plan_id":"free"},{"bike_id":"c689499c-895a-4aae-b360-8cc3c099eb56","system_id":"levelo_inurba_marseille","lat":43.287154,"lon":5.399979,"is_reserved":false,"is_disabled":false,"rental_uris":{"android":"levelo://app?vid=c689499c-895a-4aae-b360-8cc3c099eb56","ios":"levelo://app?vid=c689499c-895a-4aae-b360-8cc3c099eb56"},"vehicle_type_id":"4","last_reported":1685315177,"current_range_meters":18800,"station_id":"ce4bho92rcd13ifvqh3g","pricing_plan_id":"free"},{"bike_id":"db1489de-a7c4-4c0f-8abf-73d0898bb77a","system_id":"levelo_inurba_marseille","lat":43.28168,"lon":5.39169,"is_reserved":false,"is_disabled":false,"rental_uris":{"android":"levelo://app?vid=db1489de-a7c4-4c0f-8abf-73d0898bb77a","ios":"levelo://app?vid=db1489de-a7c4-4c0f-8abf-73d0898bb77a"},"vehicle_type_id":"4","last_reported":1685315177,"current_range_meters":16800,"station_id":"","pricing_plan_id":"free"},{"bike_id":"748e0dac-e065-4177-beb9-45e4c03eb474","system_id":"levelo_inurba_marseille","lat":43.320045,"lon":5.415048,"is_reserved":false,"is_disabled":false,"rental_uris":{"android":"levelo://app?vid=748e0dac-e065-4177-beb9-45e4c03eb474","ios":"levelo://app?vid=748e0dac-e065-4177-beb9-45e4c03eb474"},"vehicle_type_id":"4","last_reported":1685315177,"current_range_meters":30800,"station_id":"ce4bhq92rcd13ifvqhkg","pricing_plan_id":"free"},{"bike_id":"03030a27-97fb-4f3b-91a8-a9451bc22986","system_id":"levelo_inurba_marseille","lat":43.279742,"lon":5.38744,"is_reserved":false,"is_disabled":false,"rental_uris":{"android":"levelo://app?vid=03030a27-97fb-4f3b-91a8-a9451bc22986","ios":"levelo://app?vid=03030a27-97fb-4f3b-91a8-a9451bc22986"},"vehicle_type_id":"4","last_reported":1685315177,"current_range_meters":23600,"station_id":"ce4bhg12rcd13ifvqf80","pricing_plan_id":"free"},{"bike_id":"3829f4c2-3a0c-4168-8fb8-ee280339bd4b","system_id":"levelo_inurba_marseille","lat":43.292571,"lon":5.409107,"is_reserved":false,"is_disabled":false,"rental_uris":{"android":"levelo://app?vid=3829f4c2-3a0c-4168-8fb8-ee280339bd4b","ios":"levelo://app?vid=3829f4c2-3a0c-4168-8fb8-ee280339bd4b"},"vehicle_type_id":"4","last_reported":1685315177,"current_range_meters":25200,"station_id":"ce4bh192rcd13ifvqdc0","pricing_plan_id":"free"},{"bike_id":"64fd907c-88bf-49df-9845-471e50783e7c","system_id":"levelo_inurba_marseille","lat":43.292571,"lon":5.409107,"is_reserved":false,"is_disabled":false,"rental_uris":{"android":"levelo://app?vid=64fd907c-88bf-49df-9845-471e50783e7c","ios":"levelo://app?vid=64fd907c-88bf-49df-9845-471e50783e7c"},"vehicle_type_id":"4","last_reported":1685315177,"current_range_meters":31200,"station_id":"ce4bh192rcd13ifvqdc0","pricing_plan_id":"free"},{"bike_id":"2c73e87b-3c7d-4ba3-8edf-648242e62e06","system_id":"levelo_inurba_marseille","lat":43.292571,"lon":5.409107,"is_reserved":false,"is_disabled":false,"rental_uris":{"android":"levelo://app?vid=2c73e87b-3c7d-4ba3-8edf-648242e62e06","ios":"levelo://app?vid=2c73e87b-3c7d-4ba3-8edf-648242e62e06"},"vehicle_type_id":"4","last_reported":1685315177,"current_range_meters":26000,"station_id":"ce4bh192rcd13ifvqdc0","pricing_plan_id":"free"},{"bike_id":"448e1e79-7a00-445f-9439-0c43795fce70","system_id":"levelo_inurba_marseille","lat":43.27614,"lon":5.36104,"is_reserved":false,"is_disabled":false,"rental_uris":{"android":"levelo://app?vid=448e1e79-7a00-445f-9439-0c43795fce70","ios":"levelo://app?vid=448e1e79-7a00-445f-9439-0c43795fce70"},"vehicle_type_id":"4","last_reported":1685315177,"current_range_meters":0,"station_id":"ce4bgj92rcd13ifvqbe0","pricing_plan_id":"free"},{"bike_id":"4d2ddf16-48e5-426b-9f49-7a83729058bc","system_id":"levelo_inurba_marseille","lat":43.28079,"lon":5.396664,"is_reserved":false,"is_disabled":false,"rental_uris":{"android":"levelo://app?vid=4d2ddf16-48e5-426b-9f49-7a83729058bc","ios":"levelo://app?vid=4d2ddf16-48e5-426b-9f49-7a83729058bc"},"vehicle_type_id":"4","last_reported":1685315177,"current_range_meters":1600,"station_id":"ce4bhgp2rcd13ifvqfc0","pricing_plan_id":"free"},{"bike_id":"4259c7a8-2047-47f0-a04d-85b77cbb35d0","system_id":"levelo_inurba_marseille","lat":43.30361,"lon":5.41874,"is_reserved":false,"is_disabled":false,"rental_uris":{"android":"levelo://app?vid=4259c7a8-2047-47f0-a04d-85b77cbb35d0","ios":"levelo://app?vid=4259c7a8-2047-47f0-a04d-85b77cbb35d0"},"vehicle_type_id":"4","last_reported":1685315177,"current_range_meters":24400,"station_id":"","pricing_plan_id":"free"},{"bike_id":"665abfef-ab1f-44f2-bbdc-794943aed85f","system_id":"levelo_inurba_marseille","lat":43.30355,"lon":5.41877,"is_reserved":false,"is_disabled":false,"rental_uris":{"android":"levelo://app?vid=665abfef-ab1f-44f2-bbdc-794943aed85f","ios":"levelo://app?vid=665abfef-ab1f-44f2-bbdc-794943aed85f"},"vehicle_type_id":"4","last_reported":1685315177,"current_range_meters":22800,"station_id":"","pricing_plan_id":"free"},{"bike_id":"b825cc48-1e3d-4178-93f6-8fb4d03247ce","system_id":"levelo_inurba_marseille","lat":43.3036,"lon":5.41885,"is_reserved":false,"is_disabled":false,"rental_uris":{"android":"levelo://app?vid=b825cc48-1e3d-4178-93f6-8fb4d03247ce","ios":"levelo://app?vid=b825cc48-1e3d-4178-93f6-8fb4d03247ce"},"vehicle_type_id":"4","last_reported":1685315177,"current_range_meters":0,"station_id":"ce4bhop2rcd13ifvqh7g","pricing_plan_id":"free"},{"bike_id":"3a1c3023-e41a-4b20-b202-416fd3210270","system_id":"levelo_inurba_marseille","lat":43.278401,"lon":5.392152,"is_reserved":false,"is_disabled":false,"rental_uris":{"android":"levelo://app?vid=3a1c3023-e41a-4b20-b202-416fd3210270","ios":"levelo://app?vid=3a1c3023-e41a-4b20-b202-416fd3210270"},"vehicle_type_id":"4","last_reported":1685315177,"current_range_meters":11600,"station_id":"ce4bhjp2rcd13ifvqga0","pricing_plan_id":"free"},{"bike_id":"3233b62c-e1d9-41e8-b65f-ad4dab2454b1","system_id":"levelo_inurba_marseille","lat":43.273609,"lon":5.362708,"is_reserved":false,"is_disabled":false,"rental_uris":{"android":"levelo://app?vid=3233b62c-e1d9-41e8-b65f-ad4dab2454b1","ios":"levelo://app?vid=3233b62c-e1d9-41e8-b65f-ad4dab2454b1"},"vehicle_type_id":"4","last_reported":1685315177,"current_range_meters":31200,"station_id":"ce4bhbh2rcd13ifvqeo0","pricing_plan_id":"free"},{"bike_id":"0003f130-1b13-4930-b1fe-7ce81e8823a1","system_id":"levelo_inurba_marseille","lat":43.273609,"lon":5.362708,"is_reserved":false,"is_disabled":false,"rental_uris":{"android":"levelo://app?vid=0003f130-1b13-4930-b1fe-7ce81e8823a1","ios":"levelo://app?vid=0003f130-1b13-4930-b1fe-7ce81e8823a1"},"vehicle_type_id":"4","last_reported":1685315177,"current_range_meters":31200,"station_id":"ce4bhbh2rcd13ifvqeo0","pricing_plan_id":"free"},{"bike_id":"d393b598-3bbd-483c-b425-f0e37a24a8ee","system_id":"levelo_inurba_marseille","lat":43.276769,"lon":5.388787,"is_reserved":false,"is_disabled":false,"rental_uris":{"android":"levelo://app?vid=d393b598-3bbd-483c-b425-f0e37a24a8ee","ios":"levelo://app?vid=d393b598-3bbd-483c-b425-f0e37a24a8ee"},"vehicle_type_id":"4","last_reported":1685315177,"current_range_meters":28400,"station_id":"ce4bhi12rcd13ifvqfo0","pricing_plan_id":"free"},{"bike_id":"ae7b6021-a642-444b-b8b3-b4d0f4df7870","system_id":"levelo_inurba_marseille","lat":43.276771,"lon":5.388799,"is_reserved":false,"is_disabled":false,"rental_uris":{"android":"levelo://app?vid=ae7b6021-a642-444b-b8b3-b4d0f4df7870","ios":"levelo://app?vid=ae7b6021-a642-444b-b8b3-b4d0f4df7870"},"vehicle_type_id":"4","last_reported":1685315177,"current_range_meters":29600,"station_id":"ce4bhi12rcd13ifvqfo0","pricing_plan_id":"free"},{"bike_id":"67c6d7ea-a827-4835-8a78-ae295b55dcb0","system_id":"levelo_inurba_marseille","lat":43.276771,"lon":5.388799,"is_reserved":false,"is_disabled":false,"rental_uris":{"android":"levelo://app?vid=67c6d7ea-a827-4835-8a78-ae295b55dcb0","ios":"levelo://app?vid=67c6d7ea-a827-4835-8a78-ae295b55dcb0"},"vehicle_type_id":"4","last_reported":1685315177,"current_range_meters":6400,"station_id":"ce4bhi12rcd13ifvqfo0","pricing_plan_id":"free"},{"bike_id":"7013eff0-6db1-4b14-8b3a-2df616a78f0f","system_id":"levelo_inurba_marseille","lat":43.276771,"lon":5.388799,"is_reserved":false,"is_disabled":false,"rental_uris":{"android":"levelo://app?vid=7013eff0-6db1-4b14-8b3a-2df616a78f0f","ios":"levelo://app?vid=7013eff0-6db1-4b14-8b3a-2df616a78f0f"},"vehicle_type_id":"4","last_reported":1685315177,"current_range_meters":29200,"station_id":"ce4bhi12rcd13ifvqfo0","pricing_plan_id":"free"},{"bike_id":"91b49189-18df-431a-bbbf-f0b2350181de","system_id":"levelo_inurba_marseille","lat":43.28425,"lon":5.40793,"is_reserved":false,"is_disabled":false,"rental_uris":{"android":"levelo://app?vid=91b49189-18df-431a-bbbf-f0b2350181de","ios":"levelo://app?vid=91b49189-18df-431a-bbbf-f0b2350181de"},"vehicle_type_id":"4","last_reported":1685315177,"current_range_meters":5600,"station_id":"","pricing_plan_id":"free"},{"bike_id":"cc1cc54e-1a9a-49f4-a8bd-07697f28e60a","system_id":"levelo_inurba_marseille","lat":43.317121,"lon":5.423936,"is_reserved":false,"is_disabled":false,"rental_uris":{"android":"levelo://app?vid=cc1cc54e-1a9a-49f4-a8bd-07697f28e60a","ios":"levelo://app?vid=cc1cc54e-1a9a-49f4-a8bd-07697f28e60a"},"vehicle_type_id":"4","last_reported":1685315177,"current_range_meters":23600,"station_id":"ce4bhp92rcd13ifvqhbg","pricing_plan_id":"free"},{"bike_id":"6b586849-4cb2-4f0c-a6d8-7549b3a03b77","system_id":"levelo_inurba_marseille","lat":43.310785,"lon":5.424305,"is_reserved":false,"is_disabled":false,"rental_uris":{"android":"levelo://app?vid=6b586849-4cb2-4f0c-a6d8-7549b3a03b77","ios":"levelo://app?vid=6b586849-4cb2-4f0c-a6d8-7549b3a03b77"},"vehicle_type_id":"4","last_reported":1685315177,"current_range_meters":22000,"station_id":"ce4bhp92rcd13ifvqhag","pricing_plan_id":"free"},{"bike_id":"61975327-2901-4c46-99c0-45dcaddab9b1","system_id":"levelo_inurba_marseille","lat":43.27314,"lon":5.39086,"is_reserved":false,"is_disabled":false,"rental_uris":{"android":"levelo://app?vid=61975327-2901-4c46-99c0-45dcaddab9b1","ios":"levelo://app?vid=61975327-2901-4c46-99c0-45dcaddab9b1"},"vehicle_type_id":"4","last_reported":1685315177,"current_range_meters":0,"station_id":"ce4bhgp2rcd13ifvqfe0","pricing_plan_id":"free"},{"bike_id":"d7edb3f7-2835-4cf2-afc5-0c212fb31f47","system_id":"levelo_inurba_marseille","lat":43.295511,"lon":5.422926,"is_reserved":false,"is_disabled":false,"rental_uris":{"android":"levelo://app?vid=d7edb3f7-2835-4cf2-afc5-0c212fb31f47","ios":"levelo://app?vid=d7edb3f7-2835-4cf2-afc5-0c212fb31f47"},"vehicle_type_id":"4","last_reported":1685315177,"current_range_meters":31200,"station_id":"ce4bhph2rcd13ifvqhdg","pricing_plan_id":"free"},{"bike_id":"a429b482-454d-4125-b3ab-2aedb91094d1","system_id":"levelo_inurba_marseille","lat":43.295511,"lon":5.422926,"is_reserved":false,"is_disabled":false,"rental_uris":{"android":"levelo://app?vid=a429b482-454d-4125-b3ab-2aedb91094d1","ios":"levelo://app?vid=a429b482-454d-4125-b3ab-2aedb91094d1"},"vehicle_type_id":"4","last_reported":1685315177,"current_range_meters":31200,"station_id":"ce4bhph2rcd13ifvqhdg","pricing_plan_id":"free"},{"bike_id":"29dd7db9-268d-4e11-9de5-f9528bcd0c2c","system_id":"levelo_inurba_marseille","lat":43.295511,"lon":5.422926,"is_reserved":false,"is_disabled":false,"rental_uris":{"android":"levelo://app?vid=29dd7db9-268d-4e11-9de5-f9528bcd0c2c","ios":"levelo://app?vid=29dd7db9-268d-4e11-9de5-f9528bcd0c2c"},"vehicle_type_id":"4","last_reported":1685315177,"current_range_meters":31200,"station_id":"ce4bhph2rcd13ifvqhdg","pricing_plan_id":"free"},{"bike_id":"68e87034-1075-470d-8d18-7ebbc411a4a8","system_id":"levelo_inurba_marseille","lat":43.278128,"lon":5.407195,"is_reserved":false,"is_disabled":false,"rental_uris":{"android":"levelo://app?vid=68e87034-1075-470d-8d18-7ebbc411a4a8","ios":"levelo://app?vid=68e87034-1075-470d-8d18-7ebbc411a4a8"},"vehicle_type_id":"4","last_reported":1685315177,"current_range_meters":25200,"station_id":"ce4bhnh2rcd13ifvqgtg","pricing_plan_id":"free"},{"bike_id":"abb6f177-15b8-4b2c-a44b-f52bf7fc6daf","system_id":"levelo_inurba_marseille","lat":43.278128,"lon":5.407195,"is_reserved":false,"is_disabled":false,"rental_uris":{"android":"levelo://app?vid=abb6f177-15b8-4b2c-a44b-f52bf7fc6daf","ios":"levelo://app?vid=abb6f177-15b8-4b2c-a44b-f52bf7fc6daf"},"vehicle_type_id":"4","last_reported":1685315177,"current_range_meters":26000,"station_id":"ce4bhnh2rcd13ifvqgtg","pricing_plan_id":"free"},{"bike_id":"ddc95760-a116-4496-99dd-97b4da3c060e","system_id":"levelo_inurba_marseille","lat":43.27816,"lon":5.40721,"is_reserved":false,"is_disabled":false,"rental_uris":{"android":"levelo://app?vid=ddc95760-a116-4496-99dd-97b4da3c060e","ios":"levelo://app?vid=ddc95760-a116-4496-99dd-97b4da3c060e"},"vehicle_type_id":"4","last_reported":1685315177,"current_range_meters":0,"station_id":"ce4bhnh2rcd13ifvqgtg","pricing_plan_id":"free"},{"bike_id":"c104644d-2d22-412e-896f-c2a46962ad06","system_id":"levelo_inurba_marseille","lat":43.278128,"lon":5.407195,"is_reserved":false,"is_disabled":false,"rental_uris":{"android":"levelo://app?vid=c104644d-2d22-412e-896f-c2a46962ad06","ios":"levelo://app?vid=c104644d-2d22-412e-896f-c2a46962ad06"},"vehicle_type_id":"4","last_reported":1685315177,"current_range_meters":10000,"station_id":"ce4bhnh2rcd13ifvqgtg","pricing_plan_id":"free"},{"bike_id":"08911019-ebd7-45d3-9d60-49f94d620432","system_id":"levelo_inurba_marseille","lat":43.269319,"lon":5.389397,"is_reserved":false,"is_disabled":false,"rental_uris":{"android":"levelo://app?vid=08911019-ebd7-45d3-9d60-49f94d620432","ios":"levelo://app?vid=08911019-ebd7-45d3-9d60-49f94d620432"},"vehicle_type_id":"4","last_reported":1685315177,"current_range_meters":8400,"station_id":"ce4bhhh2rcd13ifvqfl0","pricing_plan_id":"free"},{"bike_id":"c31ffb96-2da9-45c5-af88-f9d13fde6d4b","system_id":"levelo_inurba_marseille","lat":43.269319,"lon":5.389397,"is_reserved":false,"is_disabled":false,"rental_uris":{"android":"levelo://app?vid=c31ffb96-2da9-45c5-af88-f9d13fde6d4b","ios":"levelo://app?vid=c31ffb96-2da9-45c5-af88-f9d13fde6d4b"},"vehicle_type_id":"4","last_reported":1685315177,"current_range_meters":5200,"station_id":"ce4bhhh2rcd13ifvqfl0","pricing_plan_id":"free"},{"bike_id":"3b55b5f7-29d4-42d7-97a3-c1e0b9ec0299","system_id":"levelo_inurba_marseille","lat":43.2656,"lon":5.37283,"is_reserved":false,"is_disabled":false,"rental_uris":{"android":"levelo://app?vid=3b55b5f7-29d4-42d7-97a3-c1e0b9ec0299","ios":"levelo://app?vid=3b55b5f7-29d4-42d7-97a3-c1e0b9ec0299"},"vehicle_type_id":"4","last_reported":1685315177,"current_range_meters":31200,"station_id":"ce4bhg12rcd13ifvqf70","pricing_plan_id":"free"},{"bike_id":"803318ce-54db-4e25-82d9-95ac7ada0872","system_id":"levelo_inurba_marseille","lat":43.26559,"lon":5.37282,"is_reserved":false,"is_disabled":false,"rental_uris":{"android":"levelo://app?vid=803318ce-54db-4e25-82d9-95ac7ada0872","ios":"levelo://app?vid=803318ce-54db-4e25-82d9-95ac7ada0872"},"vehicle_type_id":"4","last_reported":1685315177,"current_range_meters":31200,"station_id":"ce4bhg12rcd13ifvqf70","pricing_plan_id":"free"},{"bike_id":"f88b15eb-46a9-479d-adc4-6b398ea95550","system_id":"levelo_inurba_marseille","lat":43.26558,"lon":5.37282,"is_reserved":false,"is_disabled":false,"rental_uris":{"android":"levelo://app?vid=f88b15eb-46a9-479d-adc4-6b398ea95550","ios":"levelo://app?vid=f88b15eb-46a9-479d-adc4-6b398ea95550"},"vehicle_type_id":"4","last_reported":1685315177,"current_range_meters":30000,"station_id":"ce4bhg12rcd13ifvqf70","pricing_plan_id":"free"},{"bike_id":"d349e231-4e57-48f1-a7e1-e9a34b4f0d3f","system_id":"levelo_inurba_marseille","lat":43.26558,"lon":5.37283,"is_reserved":false,"is_disabled":false,"rental_uris":{"android":"levelo://app?vid=d349e231-4e57-48f1-a7e1-e9a34b4f0d3f","ios":"levelo://app?vid=d349e231-4e57-48f1-a7e1-e9a34b4f0d3f"},"vehicle_type_id":"4","last_reported":1685315177,"current_range_meters":31200,"station_id":"ce4bhg12rcd13ifvqf70","pricing_plan_id":"free"},{"bike_id":"31bcb8cb-f88d-4dcb-afba-ff381599bc09","system_id":"levelo_inurba_marseille","lat":43.26558,"lon":5.37285,"is_reserved":false,"is_disabled":false,"rental_uris":{"android":"levelo://app?vid=31bcb8cb-f88d-4dcb-afba-ff381599bc09","ios":"levelo://app?vid=31bcb8cb-f88d-4dcb-afba-ff381599bc09"},"vehicle_type_id":"4","last_reported":1685315177,"current_range_meters":31200,"station_id":"ce4bhg12rcd13ifvqf70","pricing_plan_id":"free"},{"bike_id":"1b06b6f6-af38-4173-b3a5-24403279085c","system_id":"levelo_inurba_marseille","lat":43.26557,"lon":5.37284,"is_reserved":false,"is_disabled":false,"rental_uris":{"android":"levelo://app?vid=1b06b6f6-af38-4173-b3a5-24403279085c","ios":"levelo://app?vid=1b06b6f6-af38-4173-b3a5-24403279085c"},"vehicle_type_id":"4","last_reported":1685315177,"current_range_meters":31200,"station_id":"","pricing_plan_id":"free"},{"bike_id":"1ec20cc1-7363-4af0-a4b4-2ec760666506","system_id":"levelo_inurba_marseille","lat":43.265714,"lon":5.372891,"is_reserved":false,"is_disabled":false,"rental_uris":{"android":"levelo://app?vid=1ec20cc1-7363-4af0-a4b4-2ec760666506","ios":"levelo://app?vid=1ec20cc1-7363-4af0-a4b4-2ec760666506"},"vehicle_type_id":"4","last_reported":1685315177,"current_range_meters":31200,"station_id":"ce4bhg12rcd13ifvqf70","pricing_plan_id":"free"},{"bike_id":"e69d1181-62cc-47b4-a4d5-0f8270714ddc","system_id":"levelo_inurba_marseille","lat":43.26555,"lon":5.37283,"is_reserved":false,"is_disabled":false,"rental_uris":{"android":"levelo://app?vid=e69d1181-62cc-47b4-a4d5-0f8270714ddc","ios":"levelo://app?vid=e69d1181-62cc-47b4-a4d5-0f8270714ddc"},"vehicle_type_id":"4","last_reported":1685315177,"current_range_meters":31200,"station_id":"ce4bhg12rcd13ifvqf70","pricing_plan_id":"free"},{"bike_id":"28073e52-8ac4-4b0d-83e6-dfcd5ef1bc4d","system_id":"levelo_inurba_marseille","lat":43.26555,"lon":5.37285,"is_reserved":false,"is_disabled":false,"rental_uris":{"android":"levelo://app?vid=28073e52-8ac4-4b0d-83e6-dfcd5ef1bc4d","ios":"levelo://app?vid=28073e52-8ac4-4b0d-83e6-dfcd5ef1bc4d"},"vehicle_type_id":"4","last_reported":1685315177,"current_range_meters":31200,"station_id":"ce4bhg12rcd13ifvqf70","pricing_plan_id":"free"},{"bike_id":"8fc3f9ae-b546-4343-8edf-f35a6ca9b2ba","system_id":"levelo_inurba_marseille","lat":43.26555,"lon":5.37287,"is_reserved":false,"is_disabled":false,"rental_uris":{"android":"levelo://app?vid=8fc3f9ae-b546-4343-8edf-f35a6ca9b2ba","ios":"levelo://app?vid=8fc3f9ae-b546-4343-8edf-f35a6ca9b2ba"},"vehicle_type_id":"4","last_reported":1685315177,"current_range_meters":30000,"station_id":"ce4bhg12rcd13ifvqf70","pricing_plan_id":"free"},{"bike_id":"bb2f3b38-dbf8-4225-8c84-77ba430b9a58","system_id":"levelo_inurba_marseille","lat":43.26555,"lon":5.37288,"is_reserved":false,"is_disabled":false,"rental_uris":{"android":"levelo://app?vid=bb2f3b38-dbf8-4225-8c84-77ba430b9a58","ios":"levelo://app?vid=bb2f3b38-dbf8-4225-8c84-77ba430b9a58"},"vehicle_type_id":"4","last_reported":1685315177,"current_range_meters":31200,"station_id":"ce4bhg12rcd13ifvqf70","pricing_plan_id":"free"},{"bike_id":"2cae4b29-7a7e-4cb5-8d25-aebd4cf71995","system_id":"levelo_inurba_marseille","lat":43.26555,"lon":5.37291,"is_reserved":false,"is_disabled":false,"rental_uris":{"android":"levelo://app?vid=2cae4b29-7a7e-4cb5-8d25-aebd4cf71995","ios":"levelo://app?vid=2cae4b29-7a7e-4cb5-8d25-aebd4cf71995"},"vehicle_type_id":"4","last_reported":1685315177,"current_range_meters":31200,"station_id":"ce4bhg12rcd13ifvqf70","pricing_plan_id":"free"},{"bike_id":"77210880-b717-4f38-a8cf-aeabbf781fda","system_id":"levelo_inurba_marseille","lat":43.26552,"lon":5.37288,"is_reserved":false,"is_disabled":false,"rental_uris":{"android":"levelo://app?vid=77210880-b717-4f38-a8cf-aeabbf781fda","ios":"levelo://app?vid=77210880-b717-4f38-a8cf-aeabbf781fda"},"vehicle_type_id":"4","last_reported":1685315177,"current_range_meters":31200,"station_id":"ce4bhg12rcd13ifvqf70","pricing_plan_id":"free"},{"bike_id":"2d19076d-258b-4fc1-9595-d920cadf31bc","system_id":"levelo_inurba_marseille","lat":43.2655,"lon":5.37288,"is_reserved":false,"is_disabled":false,"rental_uris":{"android":"levelo://app?vid=2d19076d-258b-4fc1-9595-d920cadf31bc","ios":"levelo://app?vid=2d19076d-258b-4fc1-9595-d920cadf31bc"},"vehicle_type_id":"4","last_reported":1685315177,"current_range_meters":30400,"station_id":"ce4bhg12rcd13ifvqf70","pricing_plan_id":"free"},{"bike_id":"97f92444-dc7f-4ac8-885e-43ac50454dc0","system_id":"levelo_inurba_marseille","lat":43.31679,"lon":5.43328,"is_reserved":false,"is_disabled":false,"rental_uris":{"android":"levelo://app?vid=97f92444-dc7f-4ac8-885e-43ac50454dc0","ios":"levelo://app?vid=97f92444-dc7f-4ac8-885e-43ac50454dc0"},"vehicle_type_id":"4","last_reported":1685315177,"current_range_meters":0,"station_id":"","pricing_plan_id":"free"},{"bike_id":"e065ceaf-3d4c-4df5-ab28-155e7ac2b139","system_id":"levelo_inurba_marseille","lat":43.28,"lon":5.41634,"is_reserved":false,"is_disabled":false,"rental_uris":{"android":"levelo://app?vid=e065ceaf-3d4c-4df5-ab28-155e7ac2b139","ios":"levelo://app?vid=e065ceaf-3d4c-4df5-ab28-155e7ac2b139"},"vehicle_type_id":"4","last_reported":1685315177,"current_range_meters":0,"station_id":"ce4bho12rcd13ifvqh1g","pricing_plan_id":"free"},{"bike_id":"b96b77e2-1312-4a96-8f0b-77ccc74b58f0","system_id":"levelo_inurba_marseille","lat":43.27992,"lon":5.41648,"is_reserved":false,"is_disabled":false,"rental_uris":{"android":"levelo://app?vid=b96b77e2-1312-4a96-8f0b-77ccc74b58f0","ios":"levelo://app?vid=b96b77e2-1312-4a96-8f0b-77ccc74b58f0"},"vehicle_type_id":"4","last_reported":1685315177,"current_range_meters":31200,"station_id":"ce4bho12rcd13ifvqh1g","pricing_plan_id":"free"},{"bike_id":"36af0dea-3dc7-42ac-8582-d931c1c7b4c4","system_id":"levelo_inurba_marseille","lat":43.27996,"lon":5.416624,"is_reserved":false,"is_disabled":false,"rental_uris":{"android":"levelo://app?vid=36af0dea-3dc7-42ac-8582-d931c1c7b4c4","ios":"levelo://app?vid=36af0dea-3dc7-42ac-8582-d931c1c7b4c4"},"vehicle_type_id":"4","last_reported":1685315177,"current_range_meters":0,"station_id":"ce4bho12rcd13ifvqh1g","pricing_plan_id":"free"},{"bike_id":"8a49813e-1411-4c89-8032-d13c72b96057","system_id":"levelo_inurba_marseille","lat":43.27994,"lon":5.41657,"is_reserved":false,"is_disabled":false,"rental_uris":{"android":"levelo://app?vid=8a49813e-1411-4c89-8032-d13c72b96057","ios":"levelo://app?vid=8a49813e-1411-4c89-8032-d13c72b96057"},"vehicle_type_id":"4","last_reported":1685315177,"current_range_meters":24800,"station_id":"ce4bho12rcd13ifvqh1g","pricing_plan_id":"free"},{"bike_id":"148a822e-6efc-488f-9546-f2f078ec928d","system_id":"levelo_inurba_marseille","lat":43.27993,"lon":5.41659,"is_reserved":false,"is_disabled":false,"rental_uris":{"android":"levelo://app?vid=148a822e-6efc-488f-9546-f2f078ec928d","ios":"levelo://app?vid=148a822e-6efc-488f-9546-f2f078ec928d"},"vehicle_type_id":"4","last_reported":1685315177,"current_range_meters":27200,"station_id":"ce4bho12rcd13ifvqh1g","pricing_plan_id":"free"},{"bike_id":"a659b602-d511-4ec0-a0d4-2ab3cf469a06","system_id":"levelo_inurba_marseille","lat":43.27988,"lon":5.41653,"is_reserved":false,"is_disabled":false,"rental_uris":{"android":"levelo://app?vid=a659b602-d511-4ec0-a0d4-2ab3cf469a06","ios":"levelo://app?vid=a659b602-d511-4ec0-a0d4-2ab3cf469a06"},"vehicle_type_id":"4","last_reported":1685315177,"current_range_meters":28000,"station_id":"ce4bho12rcd13ifvqh1g","pricing_plan_id":"free"},{"bike_id":"7291c008-ed8b-483d-aab7-eb661f22d003","system_id":"levelo_inurba_marseille","lat":43.2799,"lon":5.41656,"is_reserved":false,"is_disabled":false,"rental_uris":{"android":"levelo://app?vid=7291c008-ed8b-483d-aab7-eb661f22d003","ios":"levelo://app?vid=7291c008-ed8b-483d-aab7-eb661f22d003"},"vehicle_type_id":"4","last_reported":1685315177,"current_range_meters":31200,"station_id":"ce4bho12rcd13ifvqh1g","pricing_plan_id":"free"},{"bike_id":"d376a549-630c-4e3f-86ee-98b4f019d584","system_id":"levelo_inurba_marseille","lat":43.267966,"lon":5.393976,"is_reserved":false,"is_disabled":false,"rental_uris":{"android":"levelo://app?vid=d376a549-630c-4e3f-86ee-98b4f019d584","ios":"levelo://app?vid=d376a549-630c-4e3f-86ee-98b4f019d584"},"vehicle_type_id":"4","last_reported":1685315177,"current_range_meters":5200,"station_id":"ce4bhh12rcd13ifvqfg0","pricing_plan_id":"free"},{"bike_id":"2b180f4c-bb20-4e74-8a1b-22c504f46b8e","system_id":"levelo_inurba_marseille","lat":43.267966,"lon":5.393976,"is_reserved":false,"is_disabled":false,"rental_uris":{"android":"levelo://app?vid=2b180f4c-bb20-4e74-8a1b-22c504f46b8e","ios":"levelo://app?vid=2b180f4c-bb20-4e74-8a1b-22c504f46b8e"},"vehicle_type_id":"4","last_reported":1685315177,"current_range_meters":2800,"station_id":"ce4bhh12rcd13ifvqfg0","pricing_plan_id":"free"},{"bike_id":"6e3f955f-5aae-4645-a8bf-8f95a6cda57e","system_id":"levelo_inurba_marseille","lat":43.26364,"lon":5.37529,"is_reserved":false,"is_disabled":false,"rental_uris":{"android":"levelo://app?vid=6e3f955f-5aae-4645-a8bf-8f95a6cda57e","ios":"levelo://app?vid=6e3f955f-5aae-4645-a8bf-8f95a6cda57e"},"vehicle_type_id":"4","last_reported":1685315177,"current_range_meters":400,"station_id":"","pricing_plan_id":"free"},{"bike_id":"b8e07922-f074-4378-9c0d-0a256de36fe0","system_id":"levelo_inurba_marseille","lat":43.308,"lon":5.43522,"is_reserved":false,"is_disabled":false,"rental_uris":{"android":"levelo://app?vid=b8e07922-f074-4378-9c0d-0a256de36fe0","ios":"levelo://app?vid=b8e07922-f074-4378-9c0d-0a256de36fe0"},"vehicle_type_id":"4","last_reported":1685315177,"current_range_meters":12000,"station_id":"","pricing_plan_id":"free"},{"bike_id":"d207cc69-0dc5-4d1c-995d-3c811974eda1","system_id":"levelo_inurba_marseille","lat":43.30802,"lon":5.43526,"is_reserved":false,"is_disabled":false,"rental_uris":{"android":"levelo://app?vid=d207cc69-0dc5-4d1c-995d-3c811974eda1","ios":"levelo://app?vid=d207cc69-0dc5-4d1c-995d-3c811974eda1"},"vehicle_type_id":"4","last_reported":1685315177,"current_range_meters":800,"station_id":"","pricing_plan_id":"free"},{"bike_id":"29a03498-22e2-4c62-9017-ff6bdbc313b0","system_id":"levelo_inurba_marseille","lat":43.265569,"lon":5.390047,"is_reserved":false,"is_disabled":false,"rental_uris":{"android":"levelo://app?vid=29a03498-22e2-4c62-9017-ff6bdbc313b0","ios":"levelo://app?vid=29a03498-22e2-4c62-9017-ff6bdbc313b0"},"vehicle_type_id":"4","last_reported":1685315177,"current_range_meters":25600,"station_id":"ce4bhe12rcd13ifvqf30","pricing_plan_id":"free"},{"bike_id":"26e47252-b4dd-4f24-b41a-1c0a452f830a","system_id":"levelo_inurba_marseille","lat":43.317104,"lon":5.436818,"is_reserved":false,"is_disabled":false,"rental_uris":{"android":"levelo://app?vid=26e47252-b4dd-4f24-b41a-1c0a452f830a","ios":"levelo://app?vid=26e47252-b4dd-4f24-b41a-1c0a452f830a"},"vehicle_type_id":"4","last_reported":1685315177,"current_range_meters":26000,"station_id":"ce4bhp92rcd13ifvqhcg","pricing_plan_id":"free"},{"bike_id":"24de674a-bfc7-4622-9f63-7e4007389eb4","system_id":"levelo_inurba_marseille","lat":43.317104,"lon":5.436818,"is_reserved":false,"is_disabled":false,"rental_uris":{"android":"levelo://app?vid=24de674a-bfc7-4622-9f63-7e4007389eb4","ios":"levelo://app?vid=24de674a-bfc7-4622-9f63-7e4007389eb4"},"vehicle_type_id":"4","last_reported":1685315177,"current_range_meters":24000,"station_id":"ce4bhp92rcd13ifvqhcg","pricing_plan_id":"free"},{"bike_id":"c95c281d-08f4-4d33-95c6-f51c0e29eb9e","system_id":"levelo_inurba_marseille","lat":43.271388,"lon":5.409269,"is_reserved":false,"is_disabled":false,"rental_uris":{"android":"levelo://app?vid=c95c281d-08f4-4d33-95c6-f51c0e29eb9e","ios":"levelo://app?vid=c95c281d-08f4-4d33-95c6-f51c0e29eb9e"},"vehicle_type_id":"4","last_reported":1685315177,"current_range_meters":26800,"station_id":"ce4bhl12rcd13ifvqgf0","pricing_plan_id":"free"},{"bike_id":"760bfc38-e96f-40b9-8091-70e7d4460480","system_id":"levelo_inurba_marseille","lat":43.26195,"lon":5.37927,"is_reserved":false,"is_disabled":false,"rental_uris":{"android":"levelo://app?vid=760bfc38-e96f-40b9-8091-70e7d4460480","ios":"levelo://app?vid=760bfc38-e96f-40b9-8091-70e7d4460480"},"vehicle_type_id":"4","last_reported":1685315177,"current_range_meters":0,"station_id":"ce4bhjp2rcd13ifvqg90","pricing_plan_id":"free"},{"bike_id":"df86ea7d-4abf-4c0f-abed-07b5d4036757","system_id":"levelo_inurba_marseille","lat":43.271388,"lon":5.409269,"is_reserved":false,"is_disabled":false,"rental_uris":{"android":"levelo://app?vid=df86ea7d-4abf-4c0f-abed-07b5d4036757","ios":"levelo://app?vid=df86ea7d-4abf-4c0f-abed-07b5d4036757"},"vehicle_type_id":"4","last_reported":1685315177,"current_range_meters":30400,"station_id":"ce4bhl12rcd13ifvqgf0","pricing_plan_id":"free"},{"bike_id":"235d610b-1691-453d-a9b3-720afabdcb53","system_id":"levelo_inurba_marseille","lat":43.271368,"lon":5.40928,"is_reserved":false,"is_disabled":false,"rental_uris":{"android":"levelo://app?vid=235d610b-1691-453d-a9b3-720afabdcb53","ios":"levelo://app?vid=235d610b-1691-453d-a9b3-720afabdcb53"},"vehicle_type_id":"4","last_reported":1685315177,"current_range_meters":29600,"station_id":"ce4bhl12rcd13ifvqgf0","pricing_plan_id":"free"},{"bike_id":"933f42be-453b-4f51-8fc5-139da5459b29","system_id":"levelo_inurba_marseille","lat":43.28157,"lon":5.42505,"is_reserved":false,"is_disabled":false,"rental_uris":{"android":"levelo://app?vid=933f42be-453b-4f51-8fc5-139da5459b29","ios":"levelo://app?vid=933f42be-453b-4f51-8fc5-139da5459b29"},"vehicle_type_id":"4","last_reported":1685315177,"current_range_meters":3600,"station_id":"","pricing_plan_id":"free"},{"bike_id":"38a00cf5-faa9-4ab7-9359-f11271798cd3","system_id":"levelo_inurba_marseille","lat":43.298768,"lon":5.43643,"is_reserved":false,"is_disabled":false,"rental_uris":{"android":"levelo://app?vid=38a00cf5-faa9-4ab7-9359-f11271798cd3","ios":"levelo://app?vid=38a00cf5-faa9-4ab7-9359-f11271798cd3"},"vehicle_type_id":"4","last_reported":1685315177,"current_range_meters":14800,"station_id":"ce4bhpp2rcd13ifvqhfg","pricing_plan_id":"free"},{"bike_id":"6b404443-757b-4b8d-9a78-a03ca59013fb","system_id":"levelo_inurba_marseille","lat":43.2592,"lon":5.37283,"is_reserved":false,"is_disabled":false,"rental_uris":{"android":"levelo://app?vid=6b404443-757b-4b8d-9a78-a03ca59013fb","ios":"levelo://app?vid=6b404443-757b-4b8d-9a78-a03ca59013fb"},"vehicle_type_id":"4","last_reported":1685315177,"current_range_meters":8800,"station_id":"","pricing_plan_id":"free"},{"bike_id":"0d26d242-5567-4cfe-9ae1-397713759c18","system_id":"levelo_inurba_marseille","lat":43.260909,"lon":5.397591,"is_reserved":false,"is_disabled":false,"rental_uris":{"android":"levelo://app?vid=0d26d242-5567-4cfe-9ae1-397713759c18","ios":"levelo://app?vid=0d26d242-5567-4cfe-9ae1-397713759c18"},"vehicle_type_id":"4","last_reported":1685315177,"current_range_meters":13200,"station_id":"ce4bhi12rcd13ifvqfq0","pricing_plan_id":"free"},{"bike_id":"0e2fdd56-7acd-40f1-98eb-fa2d624695a6","system_id":"levelo_inurba_marseille","lat":43.26088,"lon":5.39761,"is_reserved":false,"is_disabled":false,"rental_uris":{"android":"levelo://app?vid=0e2fdd56-7acd-40f1-98eb-fa2d624695a6","ios":"levelo://app?vid=0e2fdd56-7acd-40f1-98eb-fa2d624695a6"},"vehicle_type_id":"4","last_reported":1685315177,"current_range_meters":20400,"station_id":"ce4bhi12rcd13ifvqfq0","pricing_plan_id":"free"},{"bike_id":"21a94e83-2bcf-4902-8a6a-85407ac0d3c9","system_id":"levelo_inurba_marseille","lat":43.254952,"lon":5.376471,"is_reserved":false,"is_disabled":false,"rental_uris":{"android":"levelo://app?vid=21a94e83-2bcf-4902-8a6a-85407ac0d3c9","ios":"levelo://app?vid=21a94e83-2bcf-4902-8a6a-85407ac0d3c9"},"vehicle_type_id":"4","last_reported":1685315177,"current_range_meters":0,"station_id":"","pricing_plan_id":"free"},{"bike_id":"69a5ecd5-d1b4-46d1-8414-bd8a28d22556","system_id":"levelo_inurba_marseille","lat":43.270721,"lon":5.422764,"is_reserved":false,"is_disabled":false,"rental_uris":{"android":"levelo://app?vid=69a5ecd5-d1b4-46d1-8414-bd8a28d22556","ios":"levelo://app?vid=69a5ecd5-d1b4-46d1-8414-bd8a28d22556"},"vehicle_type_id":"4","last_reported":1685315177,"current_range_meters":31200,"station_id":"ce4bhk92rcd13ifvqgb0","pricing_plan_id":"free"},{"bike_id":"6e51d88c-8fa3-4680-ba4d-a1ddf8e06ff8","system_id":"levelo_inurba_marseille","lat":43.270721,"lon":5.422764,"is_reserved":false,"is_disabled":false,"rental_uris":{"android":"levelo://app?vid=6e51d88c-8fa3-4680-ba4d-a1ddf8e06ff8","ios":"levelo://app?vid=6e51d88c-8fa3-4680-ba4d-a1ddf8e06ff8"},"vehicle_type_id":"4","last_reported":1685315177,"current_range_meters":31200,"station_id":"ce4bhk92rcd13ifvqgb0","pricing_plan_id":"free"},{"bike_id":"07197c27-49e4-4c65-aea3-184a56157b42","system_id":"levelo_inurba_marseille","lat":43.270721,"lon":5.422764,"is_reserved":false,"is_disabled":false,"rental_uris":{"android":"levelo://app?vid=07197c27-49e4-4c65-aea3-184a56157b42","ios":"levelo://app?vid=07197c27-49e4-4c65-aea3-184a56157b42"},"vehicle_type_id":"4","last_reported":1685315177,"current_range_meters":31200,"station_id":"ce4bhk92rcd13ifvqgb0","pricing_plan_id":"free"},{"bike_id":"f70601b2-90d1-4791-8127-007efe8e864b","system_id":"levelo_inurba_marseille","lat":43.270721,"lon":5.422764,"is_reserved":false,"is_disabled":false,"rental_uris":{"android":"levelo://app?vid=f70601b2-90d1-4791-8127-007efe8e864b","ios":"levelo://app?vid=f70601b2-90d1-4791-8127-007efe8e864b"},"vehicle_type_id":"4","last_reported":1685315177,"current_range_meters":31200,"station_id":"ce4bhk92rcd13ifvqgb0","pricing_plan_id":"free"},{"bike_id":"b540a9e6-4ea8-44fd-8cc9-9e347866723e","system_id":"levelo_inurba_marseille","lat":43.270721,"lon":5.422764,"is_reserved":false,"is_disabled":false,"rental_uris":{"android":"levelo://app?vid=b540a9e6-4ea8-44fd-8cc9-9e347866723e","ios":"levelo://app?vid=b540a9e6-4ea8-44fd-8cc9-9e347866723e"},"vehicle_type_id":"4","last_reported":1685315177,"current_range_meters":30000,"station_id":"ce4bhk92rcd13ifvqgb0","pricing_plan_id":"free"},{"bike_id":"b20ba745-0494-4f3f-b887-31cd8f6f48f0","system_id":"levelo_inurba_marseille","lat":43.258658,"lon":5.398935,"is_reserved":false,"is_disabled":false,"rental_uris":{"android":"levelo://app?vid=b20ba745-0494-4f3f-b887-31cd8f6f48f0","ios":"levelo://app?vid=b20ba745-0494-4f3f-b887-31cd8f6f48f0"},"vehicle_type_id":"4","last_reported":1685315177,"current_range_meters":20400,"station_id":"ce4bhl92rcd13ifvqghg","pricing_plan_id":"free"},{"bike_id":"17ef26ac-7128-4f37-adb6-a2acd52cbb52","system_id":"levelo_inurba_marseille","lat":43.24902,"lon":5.38958,"is_reserved":false,"is_disabled":false,"rental_uris":{"android":"levelo://app?vid=17ef26ac-7128-4f37-adb6-a2acd52cbb52","ios":"levelo://app?vid=17ef26ac-7128-4f37-adb6-a2acd52cbb52"},"vehicle_type_id":"4","last_reported":1685315177,"current_range_meters":11600,"station_id":"","pricing_plan_id":"free"},{"bike_id":"6d2073a6-d325-48b2-a6bc-c5f818f0cdb3","system_id":"levelo_inurba_marseille","lat":43.24662,"lon":5.3816,"is_reserved":false,"is_disabled":false,"rental_uris":{"android":"levelo://app?vid=6d2073a6-d325-48b2-a6bc-c5f818f0cdb3","ios":"levelo://app?vid=6d2073a6-d325-48b2-a6bc-c5f818f0cdb3"},