{"last_updated":1769202701,"ttl":60,"version":"2.2","data":{"bikes":[{"bike_id":"fb842022-45b9-4c4c-bfeb-5beaac36a9dc","system_id":"levelo_inurba_marseille","lat":43.31043,"lon":5.37144,"is_reserved":false,"is_disabled":false,"rental_uris":{"android":"levelo://app?vid=fb842022-45b9-4c4c-bfeb-5beaac36a9dc","ios":"levelo://app?vid=fb842022-45b9-4c4c-bfeb-5beaac36a9dc"},"vehicle_type_id":"4","last_reported":1769202702,"current_range_meters":2800,"station_id":"st_d4kl2rp97mjs73e7tdfg","pricing_plan_id":"cebpf4jnsgd1na2vs0mg"},{"bike_id":"9864eb71-e1a9-41e3-a300-f80070833647","system_id":"levelo_inurba_marseille","lat":43.2656,"lon":5.40325,"is_reserved":false,"is_disabled":false,"rental_uris":{"android":"levelo://app?vid=9864eb71-e1a9-41e3-a300-f80070833647","ios":"levelo://app?vid=9864eb71-e1a9-41e3-a300-f80070833647"},"vehicle_type_id":"4","last_reported":1769202702,"current_range_meters":2800,"station_id":"ce4bhmp2rcd13ifvqgng","pricing_plan_id":"cebpf4jnsgd1na2vs0mg"},{"bike_id":"22dbf862-85e0-4c40-b4f1-72ade0defb67","system_id":"levelo_inurba_marseille","lat":43.26376,"lon":5.4106,"is_reserved":false,"is_disabled":false,"rental_uris":{"android":"levelo://app?vid=22dbf862-85e0-4c40-b4f1-72ade0defb67","ios":"levelo://app?vid=22dbf862-85e0-4c40-b4f1-72ade0defb67"},"vehicle_type_id":"4","last_reported":1769202702,"current_range_meters":2800,"station_id":"st_d4e5ca6na9uc73bfl5fg","pricing_plan_id":"cebpf4jnsgd1na2vs0mg"},{"bike_id":"40e5e2c7-0e64-4220-a47b-eba55999faf7","system_id":"levelo_inurba_marseille","lat":43.22561,"lon":5.41636,"is_reserved":false,"is_disabled":false,"rental_uris":{"android":"levelo://app?vid=40e5e2c7-0e64-4220-a47b-eba55999faf7","ios":"levelo://app?vid=40e5e2c7-0e64-4220-a47b-eba55999faf7"},"vehicle_type_id":"4","last_reported":1769202702,"current_range_meters":2800,"station_id":"st_d2o4gvlbi1j2169b742g","pricing_plan_id":"cebpf4jnsgd1na2vs0mg"},{"bike_id":"5754ee10-49c8-4174-9097-38fd8b045e1c","system_id":"levelo_inurba_marseille","lat":43.30142,"lon":5.38104,"is_reserved":false,"is_disabled":false,"rental_uris":{"android":"levelo://app?vid=5754ee10-49c8-4174-9097-38fd8b045e1c","ios":"levelo://app?vid=5754ee10-49c8-4174-9097-38fd8b045e1c"},"vehicle_type_id":"4","last_reported":1769202702,"current_range_meters":2800,"station_id":"ce4bgjp2rcd13ifvqbh0","pricing_plan_id":"cebpf4jnsgd1na2vs0mg"},{"bike_id":"884b714b-de31-400c-acad-491c87710532","system_id":"levelo_inurba_marseille","lat":43.29901,"lon":5.43698,"is_reserved":false,"is_disabled":false,"rental_uris":{"android":"levelo://app?vid=884b714b-de31-400c-acad-491c87710532","ios":"levelo://app?vid=884b714b-de31-400c-acad-491c87710532"},"vehicle_type_id":"4","last_reported":1769202702,"current_range_meters":2800,"station_id":"","pricing_plan_id":"cebpf4jnsgd1na2vs0mg"},{"bike_id":"2024e9ce-2b25-490b-8edf-27c86d4e84bf","system_id":"levelo_inurba_marseille","lat":43.240742,"lon":5.377614,"is_reserved":false,"is_disabled":false,"rental_uris":{"android":"levelo://app?vid=2024e9ce-2b25-490b-8edf-27c86d4e84bf","ios":"levelo://app?vid=2024e9ce-2b25-490b-8edf-27c86d4e84bf"},"vehicle_type_id":"4","last_reported":1769202702,"current_range_meters":3200,"station_id":"ce4bgkh2rcd13ifvqbk0","pricing_plan_id":"cebpf4jnsgd1na2vs0mg"},{"bike_id":"a6647b88-80b4-4619-873e-fc05f3342456","system_id":"levelo_inurba_marseille","lat":43.246307,"lon":5.431467,"is_reserved":false,"is_disabled":false,"rental_uris":{"android":"levelo://app?vid=a6647b88-80b4-4619-873e-fc05f3342456","ios":"levelo://app?vid=a6647b88-80b4-4619-873e-fc05f3342456"},"vehicle_type_id":"4","last_reported":1769202702,"current_range_meters":3200,"station_id":"st_d2m6c4gdas8pm72e190g","pricing_plan_id":"cebpf4jnsgd1na2vs0mg"},{"bike_id":"5f03eed3-4723-4553-8184-63ccd72658f2","system_id":"levelo_inurba_marseille","lat":43.29918,"lon":5.38139,"is_reserved":false,"is_disabled":false,"rental_uris":{"android":"levelo://app?vid=5f03eed3-4723-4553-8184-63ccd72658f2","ios":"levelo://app?vid=5f03eed3-4723-4553-8184-63ccd72658f2"},"vehicle_type_id":"4","last_reported":1769202702,"current_range_meters":3200,"station_id":"ce4bgj12rcd13ifvqbc0","pricing_plan_id":"cebpf4jnsgd1na2vs0mg"},{"bike_id":"242b11c4-4e1d-4bda-a6c0-c261fbee4d2e","system_id":"levelo_inurba_marseille","lat":43.26568,"lon":5.37295,"is_reserved":false,"is_disabled":false,"rental_uris":{"android":"levelo://app?vid=242b11c4-4e1d-4bda-a6c0-c261fbee4d2e","ios":"levelo://app?vid=242b11c4-4e1d-4bda-a6c0-c261fbee4d2e"},"vehicle_type_id":"4","last_reported":1769202702,"current_range_meters":3200,"station_id":"ce4bhg12rcd13ifvqf70","pricing_plan_id":"cebpf4jnsgd1na2vs0mg"},{"bike_id":"8fe17bd2-62d8-40ea-84ad-b1fa98add4b4","system_id":"levelo_inurba_marseille","lat":43.2534,"lon":5.42175,"is_reserved":false,"is_disabled":false,"rental_uris":{"android":"levelo://app?vid=8fe17bd2-62d8-40ea-84ad-b1fa98add4b4","ios":"levelo://app?vid=8fe17bd2-62d8-40ea-84ad-b1fa98add4b4"},"vehicle_type_id":"4","last_reported":1769202702,"current_range_meters":3600,"station_id":"st_d2m65c5bi1j21697t3ng","pricing_plan_id":"cebpf4jnsgd1na2vs0mg"},{"bike_id":"b29a27b1-bcbd-4def-8615-85d425d55ccc","system_id":"levelo_inurba_marseille","lat":43.29803,"lon":5.38107,"is_reserved":false,"is_disabled":false,"rental_uris":{"android":"levelo://app?vid=b29a27b1-bcbd-4def-8615-85d425d55ccc","ios":"levelo://app?vid=b29a27b1-bcbd-4def-8615-85d425d55ccc"},"vehicle_type_id":"4","last_reported":1769202702,"current_range_meters":3600,"station_id":"ce4bgip2rcd13ifvqbb0","pricing_plan_id":"cebpf4jnsgd1na2vs0mg"},{"bike_id":"8090fd07-cef0-4bb4-9500-617758667c76","system_id":"levelo_inurba_marseille","lat":43.29229,"lon":5.38233,"is_reserved":false,"is_disabled":false,"rental_uris":{"android":"levelo://app?vid=8090fd07-cef0-4bb4-9500-617758667c76","ios":"levelo://app?vid=8090fd07-cef0-4bb4-9500-617758667c76"},"vehicle_type_id":"4","last_reported":1769202702,"current_range_meters":3600,"station_id":"","pricing_plan_id":"cebpf4jnsgd1na2vs0mg"},{"bike_id":"c462c4a3-3f5e-4fd1-8a2f-56615210c468","system_id":"levelo_inurba_marseille","lat":43.25807,"lon":5.38587,"is_reserved":false,"is_disabled":false,"rental_uris":{"android":"levelo://app?vid=c462c4a3-3f5e-4fd1-8a2f-56615210c468","ios":"levelo://app?vid=c462c4a3-3f5e-4fd1-8a2f-56615210c468"},"vehicle_type_id":"4","last_reported":1769202702,"current_range_meters":3600,"station_id":"","pricing_plan_id":"cebpf4jnsgd1na2vs0mg"},{"bike_id":"8201b82f-83b0-49f2-99bb-f454c070ebda","system_id":"levelo_inurba_marseille","lat":43.22551,"lon":5.41632,"is_reserved":false,"is_disabled":false,"rental_uris":{"android":"levelo://app?vid=8201b82f-83b0-49f2-99bb-f454c070ebda","ios":"levelo://app?vid=8201b82f-83b0-49f2-99bb-f454c070ebda"},"vehicle_type_id":"4","last_reported":1769202702,"current_range_meters":3600,"station_id":"st_d2o4gvlbi1j2169b742g","pricing_plan_id":"cebpf4jnsgd1na2vs0mg"},{"bike_id":"b09ed71e-6bcb-4ee2-9445-f554353e284e","system_id":"levelo_inurba_marseille","lat":43.2315,"lon":5.43716,"is_reserved":false,"is_disabled":false,"rental_uris":{"android":"levelo://app?vid=b09ed71e-6bcb-4ee2-9445-f554353e284e","ios":"levelo://app?vid=b09ed71e-6bcb-4ee2-9445-f554353e284e"},"vehicle_type_id":"4","last_reported":1769202702,"current_range_meters":3600,"station_id":"ce4bhmp2rcd13ifvqgog","pricing_plan_id":"cebpf4jnsgd1na2vs0mg"},{"bike_id":"45babb45-93f7-4f3b-b6b9-60f993fef36c","system_id":"levelo_inurba_marseille","lat":43.32369,"lon":5.36716,"is_reserved":false,"is_disabled":false,"rental_uris":{"android":"levelo://app?vid=45babb45-93f7-4f3b-b6b9-60f993fef36c","ios":"levelo://app?vid=45babb45-93f7-4f3b-b6b9-60f993fef36c"},"vehicle_type_id":"4","last_reported":1769202702,"current_range_meters":3600,"station_id":"ce4bhsh2rcd13ifvqi2g","pricing_plan_id":"cebpf4jnsgd1na2vs0mg"},{"bike_id":"13a4e1ef-4f43-4f82-803b-aedbd05bec5a","system_id":"levelo_inurba_marseille","lat":43.23966,"lon":5.36636,"is_reserved":false,"is_disabled":false,"rental_uris":{"android":"levelo://app?vid=13a4e1ef-4f43-4f82-803b-aedbd05bec5a","ios":"levelo://app?vid=13a4e1ef-4f43-4f82-803b-aedbd05bec5a"},"vehicle_type_id":"4","last_reported":1769202702,"current_range_meters":3600,"station_id":"ce4bhi12rcd13ifvqfp0","pricing_plan_id":"cebpf4jnsgd1na2vs0mg"},{"bike_id":"fe3350b5-ccbd-45e4-b52d-f2070401a0a4","system_id":"levelo_inurba_marseille","lat":43.29874,"lon":5.38901,"is_reserved":false,"is_disabled":true,"rental_uris":{"android":"levelo://app?vid=fe3350b5-ccbd-45e4-b52d-f2070401a0a4","ios":"levelo://app?vid=fe3350b5-ccbd-45e4-b52d-f2070401a0a4"},"vehicle_type_id":"4","last_reported":1769202702,"current_range_meters":3600,"station_id":"ce4bh392rcd13ifvqdl0","pricing_plan_id":"cebpf4jnsgd1na2vs0mg"},{"bike_id":"cc3c0fa4-318c-42a8-b516-2cb6a62d73ef","system_id":"levelo_inurba_marseille","lat":43.25005,"lon":5.38906,"is_reserved":false,"is_disabled":false,"rental_uris":{"android":"levelo://app?vid=cc3c0fa4-318c-42a8-b516-2cb6a62d73ef","ios":"levelo://app?vid=cc3c0fa4-318c-42a8-b516-2cb6a62d73ef"},"vehicle_type_id":"4","last_reported":1769202702,"current_range_meters":3600,"station_id":"ce4bhgp2rcd13ifvqfd0","pricing_plan_id":"cebpf4jnsgd1na2vs0mg"},{"bike_id":"2e4f0c90-c77a-4077-8905-0e01e4ff8d10","system_id":"levelo_inurba_marseille","lat":43.29254,"lon":5.36847,"is_reserved":false,"is_disabled":false,"rental_uris":{"android":"levelo://app?vid=2e4f0c90-c77a-4077-8905-0e01e4ff8d10","ios":"levelo://app?vid=2e4f0c90-c77a-4077-8905-0e01e4ff8d10"},"vehicle_type_id":"4","last_reported":1769202702,"current_range_meters":3600,"station_id":"ce4bhbp2rcd13ifvqesg","pricing_plan_id":"cebpf4jnsgd1na2vs0mg"},{"bike_id":"bd0535ba-10b9-4c42-8719-57ce904bf19b","system_id":"levelo_inurba_marseille","lat":43.29507,"lon":5.39401,"is_reserved":false,"is_disabled":false,"rental_uris":{"android":"levelo://app?vid=bd0535ba-10b9-4c42-8719-57ce904bf19b","ios":"levelo://app?vid=bd0535ba-10b9-4c42-8719-57ce904bf19b"},"vehicle_type_id":"4","last_reported":1769202702,"current_range_meters":3600,"station_id":"ce4bh292rcd13ifvqdf0","pricing_plan_id":"cebpf4jnsgd1na2vs0mg"},{"bike_id":"20c1cc69-3a0d-4679-b45c-9954ef47fca5","system_id":"levelo_inurba_marseille","lat":43.23075,"lon":5.35502,"is_reserved":false,"is_disabled":false,"rental_uris":{"android":"levelo://app?vid=20c1cc69-3a0d-4679-b45c-9954ef47fca5","ios":"levelo://app?vid=20c1cc69-3a0d-4679-b45c-9954ef47fca5"},"vehicle_type_id":"4","last_reported":1769202702,"current_range_meters":3600,"station_id":"cpo3342slgdg3j2ifvpg","pricing_plan_id":"cebpf4jnsgd1na2vs0mg"},{"bike_id":"9bf61c2c-8793-4461-bba6-da184a1c702f","system_id":"levelo_inurba_marseille","lat":43.295273,"lon":5.390271,"is_reserved":false,"is_disabled":false,"rental_uris":{"android":"levelo://app?vid=9bf61c2c-8793-4461-bba6-da184a1c702f","ios":"levelo://app?vid=9bf61c2c-8793-4461-bba6-da184a1c702f"},"vehicle_type_id":"4","last_reported":1769202702,"current_range_meters":3600,"station_id":"ce4bh3p2rcd13ifvqdp0","pricing_plan_id":"cebpf4jnsgd1na2vs0mg"},{"bike_id":"cf557c85-8b34-4929-8f7e-4bc211ee95de","system_id":"levelo_inurba_marseille","lat":43.21751,"lon":5.34607,"is_reserved":false,"is_disabled":false,"rental_uris":{"android":"levelo://app?vid=cf557c85-8b34-4929-8f7e-4bc211ee95de","ios":"levelo://app?vid=cf557c85-8b34-4929-8f7e-4bc211ee95de"},"vehicle_type_id":"4","last_reported":1769202702,"current_range_meters":4000,"station_id":"","pricing_plan_id":"cebpf4jnsgd1na2vs0mg"},{"bike_id":"efacbe2f-6950-4f87-bcea-9f5d9076767b","system_id":"levelo_inurba_marseille","lat":43.26373,"lon":5.4109,"is_reserved":false,"is_disabled":false,"rental_uris":{"android":"levelo://app?vid=efacbe2f-6950-4f87-bcea-9f5d9076767b","ios":"levelo://app?vid=efacbe2f-6950-4f87-bcea-9f5d9076767b"},"vehicle_type_id":"4","last_reported":1769202702,"current_range_meters":4000,"station_id":"st_d4e5ca6na9uc73bfl5fg","pricing_plan_id":"cebpf4jnsgd1na2vs0mg"},{"bike_id":"cc9f4717-497d-46b4-8770-89f5df0571cd","system_id":"levelo_inurba_marseille","lat":43.24403,"lon":5.37075,"is_reserved":false,"is_disabled":false,"rental_uris":{"android":"levelo://app?vid=cc9f4717-497d-46b4-8770-89f5df0571cd","ios":"levelo://app?vid=cc9f4717-497d-46b4-8770-89f5df0571cd"},"vehicle_type_id":"4","last_reported":1769202702,"current_range_meters":4000,"station_id":"ce4bhhh2rcd13ifvqfk0","pricing_plan_id":"cebpf4jnsgd1na2vs0mg"},{"bike_id":"95eb68af-ab4c-4e16-8d10-671324079ca2","system_id":"levelo_inurba_marseille","lat":43.29983,"lon":5.38501,"is_reserved":false,"is_disabled":false,"rental_uris":{"android":"levelo://app?vid=95eb68af-ab4c-4e16-8d10-671324079ca2","ios":"levelo://app?vid=95eb68af-ab4c-4e16-8d10-671324079ca2"},"vehicle_type_id":"4","last_reported":1769202702,"current_range_meters":4000,"station_id":"ce4bgj92rcd13ifvqbd0","pricing_plan_id":"cebpf4jnsgd1na2vs0mg"},{"bike_id":"c0285b55-73df-4265-a2e1-4a0bb225f766","system_id":"levelo_inurba_marseille","lat":43.24652,"lon":5.38891,"is_reserved":false,"is_disabled":false,"rental_uris":{"android":"levelo://app?vid=c0285b55-73df-4265-a2e1-4a0bb225f766","ios":"levelo://app?vid=c0285b55-73df-4265-a2e1-4a0bb225f766"},"vehicle_type_id":"4","last_reported":1769202702,"current_range_meters":4000,"station_id":"ce4bhg12rcd13ifvqf60","pricing_plan_id":"cebpf4jnsgd1na2vs0mg"},{"bike_id":"8d79e999-534d-46eb-b226-e914c7d703b0","system_id":"levelo_inurba_marseille","lat":43.30587,"lon":5.36499,"is_reserved":false,"is_disabled":false,"rental_uris":{"android":"levelo://app?vid=8d79e999-534d-46eb-b226-e914c7d703b0","ios":"levelo://app?vid=8d79e999-534d-46eb-b226-e914c7d703b0"},"vehicle_type_id":"4","last_reported":1769202702,"current_range_meters":4000,"station_id":"","pricing_plan_id":"cebpf4jnsgd1na2vs0mg"},{"bike_id":"c7787279-dfd5-4b81-b413-3d26395ee6e9","system_id":"levelo_inurba_marseille","lat":43.29532,"lon":5.39065,"is_reserved":false,"is_disabled":false,"rental_uris":{"android":"levelo://app?vid=c7787279-dfd5-4b81-b413-3d26395ee6e9","ios":"levelo://app?vid=c7787279-dfd5-4b81-b413-3d26395ee6e9"},"vehicle_type_id":"4","last_reported":1769202702,"current_range_meters":4000,"station_id":"ce4bh3p2rcd13ifvqdp0","pricing_plan_id":"cebpf4jnsgd1na2vs0mg"},{"bike_id":"f8de7cc1-8ec6-45be-87b1-75cf47d46683","system_id":"levelo_inurba_marseille","lat":43.29281,"lon":5.38451,"is_reserved":false,"is_disabled":false,"rental_uris":{"android":"levelo://app?vid=f8de7cc1-8ec6-45be-87b1-75cf47d46683","ios":"levelo://app?vid=f8de7cc1-8ec6-45be-87b1-75cf47d46683"},"vehicle_type_id":"4","last_reported":1769202702,"current_range_meters":4000,"station_id":"ce4bh692rcd13ifvqea0","pricing_plan_id":"cebpf4jnsgd1na2vs0mg"},{"bike_id":"ff1fab3d-6e7f-4501-9fc0-ca0297283764","system_id":"levelo_inurba_marseille","lat":43.30648,"lon":5.40084,"is_reserved":false,"is_disabled":false,"rental_uris":{"android":"levelo://app?vid=ff1fab3d-6e7f-4501-9fc0-ca0297283764","ios":"levelo://app?vid=ff1fab3d-6e7f-4501-9fc0-ca0297283764"},"vehicle_type_id":"4","last_reported":1769202702,"current_range_meters":4000,"station_id":"ce4bh112rcd13ifvqda0","pricing_plan_id":"cebpf4jnsgd1na2vs0mg"},{"bike_id":"70aa8391-3c8c-41ab-8c43-1b3661572c84","system_id":"levelo_inurba_marseille","lat":43.24651,"lon":5.38166,"is_reserved":false,"is_disabled":false,"rental_uris":{"android":"levelo://app?vid=70aa8391-3c8c-41ab-8c43-1b3661572c84","ios":"levelo://app?vid=70aa8391-3c8c-41ab-8c43-1b3661572c84"},"vehicle_type_id":"4","last_reported":1769202702,"current_range_meters":4000,"station_id":"ce4bhih2rcd13ifvqfr0","pricing_plan_id":"cebpf4jnsgd1na2vs0mg"},{"bike_id":"e7749718-e7be-491a-9956-725eeb6a6f4f","system_id":"levelo_inurba_marseille","lat":43.28347,"lon":5.38103,"is_reserved":false,"is_disabled":false,"rental_uris":{"android":"levelo://app?vid=e7749718-e7be-491a-9956-725eeb6a6f4f","ios":"levelo://app?vid=e7749718-e7be-491a-9956-725eeb6a6f4f"},"vehicle_type_id":"4","last_reported":1769202702,"current_range_meters":4000,"station_id":"ce4bh412rcd13ifvqdr0","pricing_plan_id":"cebpf4jnsgd1na2vs0mg"},{"bike_id":"7529d9bf-4569-4b73-9110-96c3aed47ab4","system_id":"levelo_inurba_marseille","lat":43.26196,"lon":5.40415,"is_reserved":false,"is_disabled":false,"rental_uris":{"android":"levelo://app?vid=7529d9bf-4569-4b73-9110-96c3aed47ab4","ios":"levelo://app?vid=7529d9bf-4569-4b73-9110-96c3aed47ab4"},"vehicle_type_id":"4","last_reported":1769202702,"current_range_meters":4000,"station_id":"ce4bhmh2rcd13ifvqgmg","pricing_plan_id":"cebpf4jnsgd1na2vs0mg"},{"bike_id":"8008594e-a479-4cad-900c-79592b5808d4","system_id":"levelo_inurba_marseille","lat":43.29215,"lon":5.36067,"is_reserved":false,"is_disabled":false,"rental_uris":{"android":"levelo://app?vid=8008594e-a479-4cad-900c-79592b5808d4","ios":"levelo://app?vid=8008594e-a479-4cad-900c-79592b5808d4"},"vehicle_type_id":"4","last_reported":1769202702,"current_range_meters":4400,"station_id":"ce4bhbh2rcd13ifvqeqg","pricing_plan_id":"cebpf4jnsgd1na2vs0mg"},{"bike_id":"13968750-3719-4ac6-aefd-0a9132929815","system_id":"levelo_inurba_marseille","lat":43.265477,"lon":5.372902,"is_reserved":false,"is_disabled":false,"rental_uris":{"android":"levelo://app?vid=13968750-3719-4ac6-aefd-0a9132929815","ios":"levelo://app?vid=13968750-3719-4ac6-aefd-0a9132929815"},"vehicle_type_id":"4","last_reported":1769202702,"current_range_meters":4400,"station_id":"ce4bhg12rcd13ifvqf70","pricing_plan_id":"cebpf4jnsgd1na2vs0mg"},{"bike_id":"493afd47-0150-4eb7-b05d-19b96b3484d1","system_id":"levelo_inurba_marseille","lat":43.2637,"lon":5.41071,"is_reserved":false,"is_disabled":false,"rental_uris":{"android":"levelo://app?vid=493afd47-0150-4eb7-b05d-19b96b3484d1","ios":"levelo://app?vid=493afd47-0150-4eb7-b05d-19b96b3484d1"},"vehicle_type_id":"4","last_reported":1769202702,"current_range_meters":4400,"station_id":"st_d4e5ca6na9uc73bfl5fg","pricing_plan_id":"cebpf4jnsgd1na2vs0mg"},{"bike_id":"b4a45049-fdf8-495e-a6c0-fb9aaa60a609","system_id":"levelo_inurba_marseille","lat":43.30788,"lon":5.38157,"is_reserved":false,"is_disabled":false,"rental_uris":{"android":"levelo://app?vid=b4a45049-fdf8-495e-a6c0-fb9aaa60a609","ios":"levelo://app?vid=b4a45049-fdf8-495e-a6c0-fb9aaa60a609"},"vehicle_type_id":"4","last_reported":1769202702,"current_range_meters":4400,"station_id":"ce4bgt12rcd13ifvqce0","pricing_plan_id":"cebpf4jnsgd1na2vs0mg"},{"bike_id":"ba4dbbff-8d2b-4731-b2d8-2ba2461db1db","system_id":"levelo_inurba_marseille","lat":43.28874,"lon":5.42509,"is_reserved":false,"is_disabled":false,"rental_uris":{"android":"levelo://app?vid=ba4dbbff-8d2b-4731-b2d8-2ba2461db1db","ios":"levelo://app?vid=ba4dbbff-8d2b-4731-b2d8-2ba2461db1db"},"vehicle_type_id":"4","last_reported":1769202702,"current_range_meters":4400,"station_id":"st_d3b462108ojc7389ooeg","pricing_plan_id":"cebpf4jnsgd1na2vs0mg"},{"bike_id":"249a4cf7-06f6-4fea-96cc-c9c6b750c37f","system_id":"levelo_inurba_marseille","lat":43.24162,"lon":5.36395,"is_reserved":false,"is_disabled":false,"rental_uris":{"android":"levelo://app?vid=249a4cf7-06f6-4fea-96cc-c9c6b750c37f","ios":"levelo://app?vid=249a4cf7-06f6-4fea-96cc-c9c6b750c37f"},"vehicle_type_id":"4","last_reported":1769202702,"current_range_meters":4400,"station_id":"cpo36qri1sfpv3e86is0","pricing_plan_id":"cebpf4jnsgd1na2vs0mg"},{"bike_id":"5bbd5d83-0192-4c9a-be58-dffe4f98121d","system_id":"levelo_inurba_marseille","lat":43.26069,"lon":5.39401,"is_reserved":false,"is_disabled":false,"rental_uris":{"android":"levelo://app?vid=5bbd5d83-0192-4c9a-be58-dffe4f98121d","ios":"levelo://app?vid=5bbd5d83-0192-4c9a-be58-dffe4f98121d"},"vehicle_type_id":"4","last_reported":1769202702,"current_range_meters":4400,"station_id":"ce4bhh92rcd13ifvqfj0","pricing_plan_id":"cebpf4jnsgd1na2vs0mg"},{"bike_id":"63d1a6c9-9e9a-428d-b94b-2715dec1d26b","system_id":"levelo_inurba_marseille","lat":43.29971,"lon":5.3856,"is_reserved":false,"is_disabled":false,"rental_uris":{"android":"levelo://app?vid=63d1a6c9-9e9a-428d-b94b-2715dec1d26b","ios":"levelo://app?vid=63d1a6c9-9e9a-428d-b94b-2715dec1d26b"},"vehicle_type_id":"4","last_reported":1769202702,"current_range_meters":4400,"station_id":"","pricing_plan_id":"cebpf4jnsgd1na2vs0mg"},{"bike_id":"2baa1a44-3300-4a4a-a3e6-a0bd3fe138b5","system_id":"levelo_inurba_marseille","lat":43.25104,"lon":5.40309,"is_reserved":false,"is_disabled":false,"rental_uris":{"android":"levelo://app?vid=2baa1a44-3300-4a4a-a3e6-a0bd3fe138b5","ios":"levelo://app?vid=2baa1a44-3300-4a4a-a3e6-a0bd3fe138b5"},"vehicle_type_id":"4","last_reported":1769202702,"current_range_meters":4400,"station_id":"ce4bhlh2rcd13ifvqgig","pricing_plan_id":"cebpf4jnsgd1na2vs0mg"},{"bike_id":"92295e8e-aa68-4e38-8fb7-fb93e0d44651","system_id":"levelo_inurba_marseille","lat":43.23196,"lon":5.3555,"is_reserved":false,"is_disabled":false,"rental_uris":{"android":"levelo://app?vid=92295e8e-aa68-4e38-8fb7-fb93e0d44651","ios":"levelo://app?vid=92295e8e-aa68-4e38-8fb7-fb93e0d44651"},"vehicle_type_id":"4","last_reported":1769202702,"current_range_meters":4400,"station_id":"ce4bhu92rcd13ifvqi70","pricing_plan_id":"cebpf4jnsgd1na2vs0mg"},{"bike_id":"e3867ab7-bf93-449d-98d2-74bd0c3f6230","system_id":"levelo_inurba_marseille","lat":43.31501,"lon":5.37253,"is_reserved":false,"is_disabled":false,"rental_uris":{"android":"levelo://app?vid=e3867ab7-bf93-449d-98d2-74bd0c3f6230","ios":"levelo://app?vid=e3867ab7-bf93-449d-98d2-74bd0c3f6230"},"vehicle_type_id":"4","last_reported":1769202702,"current_range_meters":4400,"station_id":"","pricing_plan_id":"cebpf4jnsgd1na2vs0mg"},{"bike_id":"7da886c1-c8ff-4e03-8888-2106996331bd","system_id":"levelo_inurba_marseille","lat":43.29532,"lon":5.3853,"is_reserved":false,"is_disabled":false,"rental_uris":{"android":"levelo://app?vid=7da886c1-c8ff-4e03-8888-2106996331bd","ios":"levelo://app?vid=7da886c1-c8ff-4e03-8888-2106996331bd"},"vehicle_type_id":"4","last_reported":1769202702,"current_range_meters":4400,"station_id":"ce4bgih2rcd13ifvqba0","pricing_plan_id":"cebpf4jnsgd1na2vs0mg"},{"bike_id":"f78947df-deca-4141-ad9c-b28b8e18cc28","system_id":"levelo_inurba_marseille","lat":43.29507,"lon":5.37413,"is_reserved":false,"is_disabled":false,"rental_uris":{"android":"levelo://app?vid=f78947df-deca-4141-ad9c-b28b8e18cc28","ios":"levelo://app?vid=f78947df-deca-4141-ad9c-b28b8e18cc28"},"vehicle_type_id":"4","last_reported":1769202702,"current_range_meters":4800,"station_id":"","pricing_plan_id":"cebpf4jnsgd1na2vs0mg"},{"bike_id":"64554e54-c473-4dc7-85fd-aa2167597bab","system_id":"levelo_inurba_marseille","lat":43.31454,"lon":5.45375,"is_reserved":false,"is_disabled":false,"rental_uris":{"android":"levelo://app?vid=64554e54-c473-4dc7-85fd-aa2167597bab","ios":"levelo://app?vid=64554e54-c473-4dc7-85fd-aa2167597bab"},"vehicle_type_id":"4","last_reported":1769202702,"current_range_meters":4800,"station_id":"","pricing_plan_id":"cebpf4jnsgd1na2vs0mg"},{"bike_id":"d767e7c0-28ef-446e-a457-d46a58053161","system_id":"levelo_inurba_marseille","lat":43.29031,"lon":5.3866,"is_reserved":false,"is_disabled":false,"rental_uris":{"android":"levelo://app?vid=d767e7c0-28ef-446e-a457-d46a58053161","ios":"levelo://app?vid=d767e7c0-28ef-446e-a457-d46a58053161"},"vehicle_type_id":"4","last_reported":1769202702,"current_range_meters":4800,"station_id":"ce4bh4p2rcd13ifvqe0g","pricing_plan_id":"cebpf4jnsgd1na2vs0mg"},{"bike_id":"bf8e6b90-031a-47aa-9f84-294270d7caa0","system_id":"levelo_inurba_marseille","lat":43.2926,"lon":5.38452,"is_reserved":false,"is_disabled":false,"rental_uris":{"android":"levelo://app?vid=bf8e6b90-031a-47aa-9f84-294270d7caa0","ios":"levelo://app?vid=bf8e6b90-031a-47aa-9f84-294270d7caa0"},"vehicle_type_id":"4","last_reported":1769202702,"current_range_meters":4800,"station_id":"ce4bh692rcd13ifvqea0","pricing_plan_id":"cebpf4jnsgd1na2vs0mg"},{"bike_id":"f63daf56-a99e-44d7-95f4-827aceec2846","system_id":"levelo_inurba_marseille","lat":43.29797,"lon":5.38237,"is_reserved":false,"is_disabled":false,"rental_uris":{"android":"levelo://app?vid=f63daf56-a99e-44d7-95f4-827aceec2846","ios":"levelo://app?vid=f63daf56-a99e-44d7-95f4-827aceec2846"},"vehicle_type_id":"4","last_reported":1769202702,"current_range_meters":4800,"station_id":"","pricing_plan_id":"cebpf4jnsgd1na2vs0mg"},{"bike_id":"7bb2da68-c022-41ab-ba0e-e7dabd2e6286","system_id":"levelo_inurba_marseille","lat":43.28467,"lon":5.35892,"is_reserved":false,"is_disabled":false,"rental_uris":{"android":"levelo://app?vid=7bb2da68-c022-41ab-ba0e-e7dabd2e6286","ios":"levelo://app?vid=7bb2da68-c022-41ab-ba0e-e7dabd2e6286"},"vehicle_type_id":"4","last_reported":1769202702,"current_range_meters":4800,"station_id":"ce4bhah2rcd13ifvqei0","pricing_plan_id":"cebpf4jnsgd1na2vs0mg"},{"bike_id":"a730c815-e775-4129-8064-c5472248920d","system_id":"levelo_inurba_marseille","lat":43.22922,"lon":5.35373,"is_reserved":false,"is_disabled":false,"rental_uris":{"android":"levelo://app?vid=a730c815-e775-4129-8064-c5472248920d","ios":"levelo://app?vid=a730c815-e775-4129-8064-c5472248920d"},"vehicle_type_id":"4","last_reported":1769202702,"current_range_meters":4800,"station_id":"cpo3532slgdg3j2ikp40","pricing_plan_id":"cebpf4jnsgd1na2vs0mg"},{"bike_id":"5ed4e9d2-631e-4b69-8907-913cd14f0cf9","system_id":"levelo_inurba_marseille","lat":43.258221,"lon":5.394397,"is_reserved":false,"is_disabled":false,"rental_uris":{"android":"levelo://app?vid=5ed4e9d2-631e-4b69-8907-913cd14f0cf9","ios":"levelo://app?vid=5ed4e9d2-631e-4b69-8907-913cd14f0cf9"},"vehicle_type_id":"4","last_reported":1769202702,"current_range_meters":5600,"station_id":"ce4bhip2rcd13ifvqft0","pricing_plan_id":"cebpf4jnsgd1na2vs0mg"},{"bike_id":"217c986b-eb9e-44c4-a3e0-92f4ba70b7a5","system_id":"levelo_inurba_marseille","lat":43.23185,"lon":5.39987,"is_reserved":false,"is_disabled":false,"rental_uris":{"android":"levelo://app?vid=217c986b-eb9e-44c4-a3e0-92f4ba70b7a5","ios":"levelo://app?vid=217c986b-eb9e-44c4-a3e0-92f4ba70b7a5"},"vehicle_type_id":"4","last_reported":1769202702,"current_range_meters":5600,"station_id":"ce4bhn12rcd13ifvqgqg","pricing_plan_id":"cebpf4jnsgd1na2vs0mg"},{"bike_id":"cb460f60-b642-42e9-b6ac-50ce1fc863df","system_id":"levelo_inurba_marseille","lat":43.28983,"lon":5.378433,"is_reserved":false,"is_disabled":false,"rental_uris":{"android":"levelo://app?vid=cb460f60-b642-42e9-b6ac-50ce1fc863df","ios":"levelo://app?vid=cb460f60-b642-42e9-b6ac-50ce1fc863df"},"vehicle_type_id":"4","last_reported":1769202702,"current_range_meters":5600,"station_id":"","pricing_plan_id":"cebpf4jnsgd1na2vs0mg"},{"bike_id":"cb9dd186-8cde-41dc-bd23-4fa0175e5161","system_id":"levelo_inurba_marseille","lat":43.27078,"lon":5.40319,"is_reserved":false,"is_disabled":false,"rental_uris":{"android":"levelo://app?vid=cb9dd186-8cde-41dc-bd23-4fa0175e5161","ios":"levelo://app?vid=cb9dd186-8cde-41dc-bd23-4fa0175e5161"},"vehicle_type_id":"4","last_reported":1769202702,"current_range_meters":5600,"station_id":"","pricing_plan_id":"cebpf4jnsgd1na2vs0mg"},{"bike_id":"b57df7ad-97cd-44b3-a204-ea83c250292c","system_id":"levelo_inurba_marseille","lat":43.23191,"lon":5.35563,"is_reserved":false,"is_disabled":false,"rental_uris":{"android":"levelo://app?vid=b57df7ad-97cd-44b3-a204-ea83c250292c","ios":"levelo://app?vid=b57df7ad-97cd-44b3-a204-ea83c250292c"},"vehicle_type_id":"4","last_reported":1769202702,"current_range_meters":5600,"station_id":"ce4bhu92rcd13ifvqi70","pricing_plan_id":"cebpf4jnsgd1na2vs0mg"},{"bike_id":"69007c9d-760c-45d8-9780-1368df6b6ae3","system_id":"levelo_inurba_marseille","lat":43.287015,"lon":5.399809,"is_reserved":false,"is_disabled":false,"rental_uris":{"android":"levelo://app?vid=69007c9d-760c-45d8-9780-1368df6b6ae3","ios":"levelo://app?vid=69007c9d-760c-45d8-9780-1368df6b6ae3"},"vehicle_type_id":"4","last_reported":1769202702,"current_range_meters":5600,"station_id":"ce4bho92rcd13ifvqh3g","pricing_plan_id":"cebpf4jnsgd1na2vs0mg"},{"bike_id":"209aebf5-778c-4fb0-b333-023b657a6795","system_id":"levelo_inurba_marseille","lat":43.29295,"lon":5.37474,"is_reserved":false,"is_disabled":false,"rental_uris":{"android":"levelo://app?vid=209aebf5-778c-4fb0-b333-023b657a6795","ios":"levelo://app?vid=209aebf5-778c-4fb0-b333-023b657a6795"},"vehicle_type_id":"4","last_reported":1769202702,"current_range_meters":5600,"station_id":"ce4bgi12rcd13ifvqb70","pricing_plan_id":"cebpf4jnsgd1na2vs0mg"},{"bike_id":"9f9c4f85-7d9e-4e8a-9123-cbd1f8de03db","system_id":"levelo_inurba_marseille","lat":43.31851,"lon":5.38967,"is_reserved":false,"is_disabled":false,"rental_uris":{"android":"levelo://app?vid=9f9c4f85-7d9e-4e8a-9123-cbd1f8de03db","ios":"levelo://app?vid=9f9c4f85-7d9e-4e8a-9123-cbd1f8de03db"},"vehicle_type_id":"4","last_reported":1769202702,"current_range_meters":5600,"station_id":"","pricing_plan_id":"cebpf4jnsgd1na2vs0mg"},{"bike_id":"a887fc7f-7edf-476c-a4e2-1301810a1681","system_id":"levelo_inurba_marseille","lat":43.23787,"lon":5.36645,"is_reserved":false,"is_disabled":false,"rental_uris":{"android":"levelo://app?vid=a887fc7f-7edf-476c-a4e2-1301810a1681","ios":"levelo://app?vid=a887fc7f-7edf-476c-a4e2-1301810a1681"},"vehicle_type_id":"4","last_reported":1769202702,"current_range_meters":5600,"station_id":"st_d3nk18o9ro0c73en2l3g","pricing_plan_id":"cebpf4jnsgd1na2vs0mg"},{"bike_id":"eac3130b-3d80-4e31-9196-f622cf6df9b4","system_id":"levelo_inurba_marseille","lat":43.29925,"lon":5.38145,"is_reserved":false,"is_disabled":false,"rental_uris":{"android":"levelo://app?vid=eac3130b-3d80-4e31-9196-f622cf6df9b4","ios":"levelo://app?vid=eac3130b-3d80-4e31-9196-f622cf6df9b4"},"vehicle_type_id":"4","last_reported":1769202702,"current_range_meters":6000,"station_id":"ce4bgj12rcd13ifvqbc0","pricing_plan_id":"cebpf4jnsgd1na2vs0mg"},{"bike_id":"c080daa4-9ebe-4ac1-9cac-4b6651d9267a","system_id":"levelo_inurba_marseille","lat":43.27052,"lon":5.40263,"is_reserved":false,"is_disabled":false,"rental_uris":{"android":"levelo://app?vid=c080daa4-9ebe-4ac1-9cac-4b6651d9267a","ios":"levelo://app?vid=c080daa4-9ebe-4ac1-9cac-4b6651d9267a"},"vehicle_type_id":"4","last_reported":1769202702,"current_range_meters":6000,"station_id":"ce4bhk92rcd13ifvqgc0","pricing_plan_id":"cebpf4jnsgd1na2vs0mg"},{"bike_id":"bc61b31d-a59b-43b4-9147-44220082005b","system_id":"levelo_inurba_marseille","lat":43.30514,"lon":5.36698,"is_reserved":false,"is_disabled":false,"rental_uris":{"android":"levelo://app?vid=bc61b31d-a59b-43b4-9147-44220082005b","ios":"levelo://app?vid=bc61b31d-a59b-43b4-9147-44220082005b"},"vehicle_type_id":"4","last_reported":1769202702,"current_range_meters":6000,"station_id":"ce4bgrp2rcd13ifvqc9g","pricing_plan_id":"cebpf4jnsgd1na2vs0mg"},{"bike_id":"b773bbbb-d72b-4b38-92a3-28fca628ed6c","system_id":"levelo_inurba_marseille","lat":43.22933,"lon":5.35392,"is_reserved":false,"is_disabled":false,"rental_uris":{"android":"levelo://app?vid=b773bbbb-d72b-4b38-92a3-28fca628ed6c","ios":"levelo://app?vid=b773bbbb-d72b-4b38-92a3-28fca628ed6c"},"vehicle_type_id":"4","last_reported":1769202702,"current_range_meters":6000,"station_id":"cpo3532slgdg3j2ikp40","pricing_plan_id":"cebpf4jnsgd1na2vs0mg"},{"bike_id":"17ce03ac-b852-455a-8f41-b3a09136849e","system_id":"levelo_inurba_marseille","lat":43.24163,"lon":5.36409,"is_reserved":false,"is_disabled":false,"rental_uris":{"android":"levelo://app?vid=17ce03ac-b852-455a-8f41-b3a09136849e","ios":"levelo://app?vid=17ce03ac-b852-455a-8f41-b3a09136849e"},"vehicle_type_id":"4","last_reported":1769202702,"current_range_meters":6000,"station_id":"cpo36qri1sfpv3e86is0","pricing_plan_id":"cebpf4jnsgd1na2vs0mg"},{"bike_id":"d8368424-7a2e-4ab4-b75d-24eb5c1743cf","system_id":"levelo_inurba_marseille","lat":43.305287,"lon":5.36711,"is_reserved":false,"is_disabled":false,"rental_uris":{"android":"levelo://app?vid=d8368424-7a2e-4ab4-b75d-24eb5c1743cf","ios":"levelo://app?vid=d8368424-7a2e-4ab4-b75d-24eb5c1743cf"},"vehicle_type_id":"4","last_reported":1769202702,"current_range_meters":6000,"station_id":"ce4bgrp2rcd13ifvqc9g","pricing_plan_id":"cebpf4jnsgd1na2vs0mg"},{"bike_id":"8765f5ca-3ede-4ade-8d10-982a2f369fc3","system_id":"levelo_inurba_marseille","lat":43.31625,"lon":5.40698,"is_reserved":false,"is_disabled":false,"rental_uris":{"android":"levelo://app?vid=8765f5ca-3ede-4ade-8d10-982a2f369fc3","ios":"levelo://app?vid=8765f5ca-3ede-4ade-8d10-982a2f369fc3"},"vehicle_type_id":"4","last_reported":1769202702,"current_range_meters":6000,"station_id":"","pricing_plan_id":"cebpf4jnsgd1na2vs0mg"},{"bike_id":"99394146-cfc6-499a-8733-ffa17c4e7f7a","system_id":"levelo_inurba_marseille","lat":43.30192,"lon":5.3853,"is_reserved":false,"is_disabled":false,"rental_uris":{"android":"levelo://app?vid=99394146-cfc6-499a-8733-ffa17c4e7f7a","ios":"levelo://app?vid=99394146-cfc6-499a-8733-ffa17c4e7f7a"},"vehicle_type_id":"4","last_reported":1769202702,"current_range_meters":6000,"station_id":"","pricing_plan_id":"cebpf4jnsgd1na2vs0mg"},{"bike_id":"751ffa1c-687c-4c14-b167-cf8c71a79ffa","system_id":"levelo_inurba_marseille","lat":43.29562,"lon":5.37506,"is_reserved":false,"is_disabled":true,"rental_uris":{"android":"levelo://app?vid=751ffa1c-687c-4c14-b167-cf8c71a79ffa","ios":"levelo://app?vid=751ffa1c-687c-4c14-b167-cf8c71a79ffa"},"vehicle_type_id":"4","last_reported":1769202702,"current_range_meters":6000,"station_id":"ce4bgh92rcd13ifvqb50","pricing_plan_id":"cebpf4jnsgd1na2vs0mg"},{"bike_id":"7417ac5f-ba9c-4291-912c-03a50aabdc7a","system_id":"levelo_inurba_marseille","lat":43.2959,"lon":5.38124,"is_reserved":false,"is_disabled":false,"rental_uris":{"android":"levelo://app?vid=7417ac5f-ba9c-4291-912c-03a50aabdc7a","ios":"levelo://app?vid=7417ac5f-ba9c-4291-912c-03a50aabdc7a"},"vehicle_type_id":"4","last_reported":1769202702,"current_range_meters":6000,"station_id":"ce4bgl12rcd13ifvqbo0","pricing_plan_id":"cebpf4jnsgd1na2vs0mg"},{"bike_id":"16590669-22b9-475f-acf3-c7e2ee0e80fd","system_id":"levelo_inurba_marseille","lat":43.25033,"lon":5.38897,"is_reserved":false,"is_disabled":false,"rental_uris":{"android":"levelo://app?vid=16590669-22b9-475f-acf3-c7e2ee0e80fd","ios":"levelo://app?vid=16590669-22b9-475f-acf3-c7e2ee0e80fd"},"vehicle_type_id":"4","last_reported":1769202702,"current_range_meters":6000,"station_id":"ce4bhgp2rcd13ifvqfd0","pricing_plan_id":"cebpf4jnsgd1na2vs0mg"},{"bike_id":"4656ced7-866b-4405-99f7-01085d8601a7","system_id":"levelo_inurba_marseille","lat":43.28033,"lon":5.36956,"is_reserved":false,"is_disabled":false,"rental_uris":{"android":"levelo://app?vid=4656ced7-866b-4405-99f7-01085d8601a7","ios":"levelo://app?vid=4656ced7-866b-4405-99f7-01085d8601a7"},"vehicle_type_id":"4","last_reported":1769202702,"current_range_meters":6000,"station_id":"ce4bha12rcd13ifvqef0","pricing_plan_id":"cebpf4jnsgd1na2vs0mg"},{"bike_id":"3046e026-9ad0-4040-9762-5420b00c2e3e","system_id":"levelo_inurba_marseille","lat":43.3105,"lon":5.3717,"is_reserved":false,"is_disabled":false,"rental_uris":{"android":"levelo://app?vid=3046e026-9ad0-4040-9762-5420b00c2e3e","ios":"levelo://app?vid=3046e026-9ad0-4040-9762-5420b00c2e3e"},"vehicle_type_id":"4","last_reported":1769202702,"current_range_meters":6000,"station_id":"st_d4kl2rp97mjs73e7tdfg","pricing_plan_id":"cebpf4jnsgd1na2vs0mg"},{"bike_id":"de09e7c1-ecbf-4b50-afe0-39a74bf8e586","system_id":"levelo_inurba_marseille","lat":43.29251,"lon":5.3844,"is_reserved":false,"is_disabled":false,"rental_uris":{"android":"levelo://app?vid=de09e7c1-ecbf-4b50-afe0-39a74bf8e586","ios":"levelo://app?vid=de09e7c1-ecbf-4b50-afe0-39a74bf8e586"},"vehicle_type_id":"4","last_reported":1769202702,"current_range_meters":6000,"station_id":"ce4bh692rcd13ifvqea0","pricing_plan_id":"cebpf4jnsgd1na2vs0mg"},{"bike_id":"d4d32883-f39c-45b7-9422-2bc624c73138","system_id":"levelo_inurba_marseille","lat":43.29532,"lon":5.38545,"is_reserved":false,"is_disabled":false,"rental_uris":{"android":"levelo://app?vid=d4d32883-f39c-45b7-9422-2bc624c73138","ios":"levelo://app?vid=d4d32883-f39c-45b7-9422-2bc624c73138"},"vehicle_type_id":"4","last_reported":1769202702,"current_range_meters":6400,"station_id":"ce4bgih2rcd13ifvqba0","pricing_plan_id":"cebpf4jnsgd1na2vs0mg"},{"bike_id":"8c777498-e2d2-4cd4-8097-e0cc71ce5708","system_id":"levelo_inurba_marseille","lat":43.23138,"lon":5.4372,"is_reserved":false,"is_disabled":false,"rental_uris":{"android":"levelo://app?vid=8c777498-e2d2-4cd4-8097-e0cc71ce5708","ios":"levelo://app?vid=8c777498-e2d2-4cd4-8097-e0cc71ce5708"},"vehicle_type_id":"4","last_reported":1769202702,"current_range_meters":6400,"station_id":"ce4bhmp2rcd13ifvqgog","pricing_plan_id":"cebpf4jnsgd1na2vs0mg"},{"bike_id":"dc82bfc6-2b44-4bff-8892-9b8eb7e91578","system_id":"levelo_inurba_marseille","lat":43.23965,"lon":5.36623,"is_reserved":false,"is_disabled":false,"rental_uris":{"android":"levelo://app?vid=dc82bfc6-2b44-4bff-8892-9b8eb7e91578","ios":"levelo://app?vid=dc82bfc6-2b44-4bff-8892-9b8eb7e91578"},"vehicle_type_id":"4","last_reported":1769202702,"current_range_meters":6400,"station_id":"ce4bhi12rcd13ifvqfp0","pricing_plan_id":"cebpf4jnsgd1na2vs0mg"},{"bike_id":"33fc742a-a588-4e47-9cc8-3a0d0808d058","system_id":"levelo_inurba_marseille","lat":43.23138,"lon":5.43738,"is_reserved":false,"is_disabled":false,"rental_uris":{"android":"levelo://app?vid=33fc742a-a588-4e47-9cc8-3a0d0808d058","ios":"levelo://app?vid=33fc742a-a588-4e47-9cc8-3a0d0808d058"},"vehicle_type_id":"4","last_reported":1769202702,"current_range_meters":6400,"station_id":"ce4bhmp2rcd13ifvqgog","pricing_plan_id":"cebpf4jnsgd1na2vs0mg"},{"bike_id":"8922c302-f86b-43f3-9807-7ebc28264ed3","system_id":"levelo_inurba_marseille","lat":43.26221,"lon":5.40457,"is_reserved":false,"is_disabled":false,"rental_uris":{"android":"levelo://app?vid=8922c302-f86b-43f3-9807-7ebc28264ed3","ios":"levelo://app?vid=8922c302-f86b-43f3-9807-7ebc28264ed3"},"vehicle_type_id":"4","last_reported":1769202702,"current_range_meters":6400,"station_id":"ce4bhmh2rcd13ifvqgmg","pricing_plan_id":"cebpf4jnsgd1na2vs0mg"},{"bike_id":"6cebd568-4c0d-49be-8020-67662f6cb99c","system_id":"levelo_inurba_marseille","lat":43.29529,"lon":5.39039,"is_reserved":false,"is_disabled":false,"rental_uris":{"android":"levelo://app?vid=6cebd568-4c0d-49be-8020-67662f6cb99c","ios":"levelo://app?vid=6cebd568-4c0d-49be-8020-67662f6cb99c"},"vehicle_type_id":"4","last_reported":1769202702,"current_range_meters":6400,"station_id":"ce4bh3p2rcd13ifvqdp0","pricing_plan_id":"cebpf4jnsgd1na2vs0mg"},{"bike_id":"cfbb9345-bae0-43a7-a74b-5ceff25b15dd","system_id":"levelo_inurba_marseille","lat":43.28932,"lon":5.3664,"is_reserved":false,"is_disabled":false,"rental_uris":{"android":"levelo://app?vid=cfbb9345-bae0-43a7-a74b-5ceff25b15dd","ios":"levelo://app?vid=cfbb9345-bae0-43a7-a74b-5ceff25b15dd"},"vehicle_type_id":"4","last_reported":1769202702,"current_range_meters":6400,"station_id":"ce4bhap2rcd13ifvqek0","pricing_plan_id":"cebpf4jnsgd1na2vs0mg"},{"bike_id":"fcce31df-82f9-497f-9745-06d74f31a333","system_id":"levelo_inurba_marseille","lat":43.29766,"lon":5.37672,"is_reserved":false,"is_disabled":false,"rental_uris":{"android":"levelo://app?vid=fcce31df-82f9-497f-9745-06d74f31a333","ios":"levelo://app?vid=fcce31df-82f9-497f-9745-06d74f31a333"},"vehicle_type_id":"4","last_reported":1769202702,"current_range_meters":6400,"station_id":"ce4bgkh2rcd13ifvqbl0","pricing_plan_id":"cebpf4jnsgd1na2vs0mg"},{"bike_id":"bfffd4a6-8de5-49c1-bd6c-7f4485235ac1","system_id":"levelo_inurba_marseille","lat":43.296107,"lon":5.373981,"is_reserved":false,"is_disabled":false,"rental_uris":{"android":"levelo://app?vid=bfffd4a6-8de5-49c1-bd6c-7f4485235ac1","ios":"levelo://app?vid=bfffd4a6-8de5-49c1-bd6c-7f4485235ac1"},"vehicle_type_id":"4","last_reported":1769202702,"current_range_meters":6400,"station_id":"ce4bgnh2rcd13ifvqc0g","pricing_plan_id":"cebpf4jnsgd1na2vs0mg"},{"bike_id":"20e053f6-9212-4115-b83d-2dbd882bdf50","system_id":"levelo_inurba_marseille","lat":43.29626,"lon":5.37185,"is_reserved":false,"is_disabled":false,"rental_uris":{"android":"levelo://app?vid=20e053f6-9212-4115-b83d-2dbd882bdf50","ios":"levelo://app?vid=20e053f6-9212-4115-b83d-2dbd882bdf50"},"vehicle_type_id":"4","last_reported":1769202702,"current_range_meters":6400,"station_id":"ce4bgnh2rcd13ifvqc0g","pricing_plan_id":"cebpf4jnsgd1na2vs0mg"},{"bike_id":"d5979a98-94ba-4609-af07-e02fe23bf3bc","system_id":"levelo_inurba_marseille","lat":43.22557,"lon":5.4164,"is_reserved":false,"is_disabled":false,"rental_uris":{"android":"levelo://app?vid=d5979a98-94ba-4609-af07-e02fe23bf3bc","ios":"levelo://app?vid=d5979a98-94ba-4609-af07-e02fe23bf3bc"},"vehicle_type_id":"4","last_reported":1769202702,"current_range_meters":6400,"station_id":"st_d2o4gvlbi1j2169b742g","pricing_plan_id":"cebpf4jnsgd1na2vs0mg"},{"bike_id":"bad75388-e421-4a71-a9aa-cd2865663d67","system_id":"levelo_inurba_marseille","lat":43.32095,"lon":5.36818,"is_reserved":false,"is_disabled":false,"rental_uris":{"android":"levelo://app?vid=bad75388-e421-4a71-a9aa-cd2865663d67","ios":"levelo://app?vid=bad75388-e421-4a71-a9aa-cd2865663d67"},"vehicle_type_id":"4","last_reported":1769202702,"current_range_meters":6400,"station_id":"ce4bhrh2rcd13ifvqhug","pricing_plan_id":"cebpf4jnsgd1na2vs0mg"},{"bike_id":"02e7a81c-add2-44fa-966b-2d696b46b0f6","system_id":"levelo_inurba_marseille","lat":43.29485,"lon":5.3738,"is_reserved":false,"is_disabled":false,"rental_uris":{"android":"levelo://app?vid=02e7a81c-add2-44fa-966b-2d696b46b0f6","ios":"levelo://app?vid=02e7a81c-add2-44fa-966b-2d696b46b0f6"},"vehicle_type_id":"4","last_reported":1769202702,"current_range_meters":6400,"station_id":"","pricing_plan_id":"cebpf4jnsgd1na2vs0mg"},{"bike_id":"a42ece2e-03ec-475d-862b-6a21deffbb96","system_id":"levelo_inurba_marseille","lat":43.305279,"lon":5.367072,"is_reserved":false,"is_disabled":false,"rental_uris":{"android":"levelo://app?vid=a42ece2e-03ec-475d-862b-6a21deffbb96","ios":"levelo://app?vid=a42ece2e-03ec-475d-862b-6a21deffbb96"},"vehicle_type_id":"4","last_reported":1769202702,"current_range_meters":6400,"station_id":"ce4bgl12rcd13ifvqbo0","pricing_plan_id":"cebpf4jnsgd1na2vs0mg"},{"bike_id":"731e3c39-4cfc-47aa-926e-d6f514d68010","system_id":"levelo_inurba_marseille","lat":43.22561,"lon":5.41617,"is_reserved":false,"is_disabled":false,"rental_uris":{"android":"levelo://app?vid=731e3c39-4cfc-47aa-926e-d6f514d68010","ios":"levelo://app?vid=731e3c39-4cfc-47aa-926e-d6f514d68010"},"vehicle_type_id":"4","last_reported":1769202702,"current_range_meters":6800,"station_id":"st_d2o4gvlbi1j2169b742g","pricing_plan_id":"cebpf4jnsgd1na2vs0mg"},{"bike_id":"5c96700a-9e12-4d19-961a-9025f4693021","system_id":"levelo_inurba_marseille","lat":43.29215,"lon":5.37172,"is_reserved":false,"is_disabled":false,"rental_uris":{"android":"levelo://app?vid=5c96700a-9e12-4d19-961a-9025f4693021","ios":"levelo://app?vid=5c96700a-9e12-4d19-961a-9025f4693021"},"vehicle_type_id":"4","last_reported":1769202702,"current_range_meters":6800,"station_id":"","pricing_plan_id":"cebpf4jnsgd1na2vs0mg"},{"bike_id":"14298e52-c046-4bce-a5a6-d78d93fab385","system_id":"levelo_inurba_marseille","lat":43.29528,"lon":5.38539,"is_reserved":false,"is_disabled":false,"rental_uris":{"android":"levelo://app?vid=14298e52-c046-4bce-a5a6-d78d93fab385","ios":"levelo://app?vid=14298e52-c046-4bce-a5a6-d78d93fab385"},"vehicle_type_id":"4","last_reported":1769202702,"current_range_meters":6800,"station_id":"ce4bgih2rcd13ifvqba0","pricing_plan_id":"cebpf4jnsgd1na2vs0mg"},{"bike_id":"8eaf95b9-2df1-4a74-8f59-61e24f4dc40c","system_id":"levelo_inurba_marseille","lat":43.31275,"lon":5.4019,"is_reserved":false,"is_disabled":false,"rental_uris":{"android":"levelo://app?vid=8eaf95b9-2df1-4a74-8f59-61e24f4dc40c","ios":"levelo://app?vid=8eaf95b9-2df1-4a74-8f59-61e24f4dc40c"},"vehicle_type_id":"4","last_reported":1769202702,"current_range_meters":6800,"station_id":"ce4bh092rcd13ifvqd30","pricing_plan_id":"cebpf4jnsgd1na2vs0mg"},{"bike_id":"d2dd2bd5-35c6-4cf8-86dc-87c4bf274249","system_id":"levelo_inurba_marseille","lat":43.24666,"lon":5.38871,"is_reserved":false,"is_disabled":false,"rental_uris":{"android":"levelo://app?vid=d2dd2bd5-35c6-4cf8-86dc-87c4bf274249","ios":"levelo://app?vid=d2dd2bd5-35c6-4cf8-86dc-87c4bf274249"},"vehicle_type_id":"4","last_reported":1769202702,"current_range_meters":6800,"station_id":"ce4bhg12rcd13ifvqf60","pricing_plan_id":"cebpf4jnsgd1na2vs0mg"},{"bike_id":"a35fc7cd-b47c-4ba6-a634-a7d7023a9baf","system_id":"levelo_inurba_marseille","lat":43.29243,"lon":5.38445,"is_reserved":false,"is_disabled":false,"rental_uris":{"android":"levelo://app?vid=a35fc7cd-b47c-4ba6-a634-a7d7023a9baf","ios":"levelo://app?vid=a35fc7cd-b47c-4ba6-a634-a7d7023a9baf"},"vehicle_type_id":"4","last_reported":1769202702,"current_range_meters":6800,"station_id":"ce4bh692rcd13ifvqea0","pricing_plan_id":"cebpf4jnsgd1na2vs0mg"},{"bike_id":"ee1097c7-66cb-4cde-affa-a4b0a3128b81","system_id":"levelo_inurba_marseille","lat":43.28436,"lon":5.37154,"is_reserved":false,"is_disabled":false,"rental_uris":{"android":"levelo://app?vid=ee1097c7-66cb-4cde-affa-a4b0a3128b81","ios":"levelo://app?vid=ee1097c7-66cb-4cde-affa-a4b0a3128b81"},"vehicle_type_id":"4","last_reported":1769202702,"current_range_meters":6800,"station_id":"","pricing_plan_id":"cebpf4jnsgd1na2vs0mg"},{"bike_id":"d9784f4f-2fe3-4692-8635-7eba08c09370","system_id":"levelo_inurba_marseille","lat":43.29107,"lon":5.40019,"is_reserved":false,"is_disabled":false,"rental_uris":{"android":"levelo://app?vid=d9784f4f-2fe3-4692-8635-7eba08c09370","ios":"levelo://app?vid=d9784f4f-2fe3-4692-8635-7eba08c09370"},"vehicle_type_id":"4","last_reported":1769202702,"current_range_meters":6800,"station_id":"ce4bh392rcd13ifvqdm0","pricing_plan_id":"cebpf4jnsgd1na2vs0mg"},{"bike_id":"83cfc6fc-818a-4d29-b877-3fdba22e0a51","system_id":"levelo_inurba_marseille","lat":43.30524,"lon":5.36666,"is_reserved":false,"is_disabled":false,"rental_uris":{"android":"levelo://app?vid=83cfc6fc-818a-4d29-b877-3fdba22e0a51","ios":"levelo://app?vid=83cfc6fc-818a-4d29-b877-3fdba22e0a51"},"vehicle_type_id":"4","last_reported":1769202702,"current_range_meters":6800,"station_id":"","pricing_plan_id":"cebpf4jnsgd1na2vs0mg"},{"bike_id":"5560fc7f-1e40-4887-b56f-d8792953a489","system_id":"levelo_inurba_marseille","lat":43.24162,"lon":5.36417,"is_reserved":false,"is_disabled":false,"rental_uris":{"android":"levelo://app?vid=5560fc7f-1e40-4887-b56f-d8792953a489","ios":"levelo://app?vid=5560fc7f-1e40-4887-b56f-d8792953a489"},"vehicle_type_id":"4","last_reported":1769202702,"current_range_meters":6800,"station_id":"cpo36qri1sfpv3e86is0","pricing_plan_id":"cebpf4jnsgd1na2vs0mg"},{"bike_id":"4c0d7a9e-f646-46f0-a3a2-f40abb70d76c","system_id":"levelo_inurba_marseille","lat":43.30304,"lon":5.3692,"is_reserved":false,"is_disabled":false,"rental_uris":{"android":"levelo://app?vid=4c0d7a9e-f646-46f0-a3a2-f40abb70d76c","ios":"levelo://app?vid=4c0d7a9e-f646-46f0-a3a2-f40abb70d76c"},"vehicle_type_id":"4","last_reported":1769202702,"current_range_meters":6800,"station_id":"ce4bgqh2rcd13ifvqc5g","pricing_plan_id":"cebpf4jnsgd1na2vs0mg"},{"bike_id":"d3746757-64c0-4deb-8ffa-a59c72b048ff","system_id":"levelo_inurba_marseille","lat":43.29695,"lon":5.37296,"is_reserved":false,"is_disabled":false,"rental_uris":{"android":"levelo://app?vid=d3746757-64c0-4deb-8ffa-a59c72b048ff","ios":"levelo://app?vid=d3746757-64c0-4deb-8ffa-a59c72b048ff"},"vehicle_type_id":"4","last_reported":1769202702,"current_range_meters":6800,"station_id":"ce4bgk12rcd13ifvqbj0","pricing_plan_id":"cebpf4jnsgd1na2vs0mg"},{"bike_id":"c38778ee-080e-49fd-8be4-6a282e770f48","system_id":"levelo_inurba_marseille","lat":43.25573,"lon":5.38246,"is_reserved":false,"is_disabled":false,"rental_uris":{"android":"levelo://app?vid=c38778ee-080e-49fd-8be4-6a282e770f48","ios":"levelo://app?vid=c38778ee-080e-49fd-8be4-6a282e770f48"},"vehicle_type_id":"4","last_reported":1769202702,"current_range_meters":6800,"station_id":"ce4bhih2rcd13ifvqfs0","pricing_plan_id":"cebpf4jnsgd1na2vs0mg"},{"bike_id":"d59e6b5b-9c85-4878-84e5-489dc79053a5","system_id":"levelo_inurba_marseille","lat":43.29516,"lon":5.38545,"is_reserved":false,"is_disabled":false,"rental_uris":{"android":"levelo://app?vid=d59e6b5b-9c85-4878-84e5-489dc79053a5","ios":"levelo://app?vid=d59e6b5b-9c85-4878-84e5-489dc79053a5"},"vehicle_type_id":"4","last_reported":1769202702,"current_range_meters":6800,"station_id":"ce4bgih2rcd13ifvqba0","pricing_plan_id":"cebpf4jnsgd1na2vs0mg"},{"bike_id":"10d81607-b2c6-4f43-9034-1dd057977b39","system_id":"levelo_inurba_marseille","lat":43.2422,"lon":5.39689,"is_reserved":false,"is_disabled":false,"rental_uris":{"android":"levelo://app?vid=10d81607-b2c6-4f43-9034-1dd057977b39","ios":"levelo://app?vid=10d81607-b2c6-4f43-9034-1dd057977b39"},"vehicle_type_id":"4","last_reported":1769202702,"current_range_meters":6800,"station_id":"","pricing_plan_id":"cebpf4jnsgd1na2vs0mg"},{"bike_id":"8750ab90-342c-4b21-9046-287ee13df746","system_id":"levelo_inurba_marseille","lat":43.32361,"lon":5.36739,"is_reserved":false,"is_disabled":false,"rental_uris":{"android":"levelo://app?vid=8750ab90-342c-4b21-9046-287ee13df746","ios":"levelo://app?vid=8750ab90-342c-4b21-9046-287ee13df746"},"vehicle_type_id":"4","last_reported":1769202702,"current_range_meters":6800,"station_id":"ce4bhsh2rcd13ifvqi2g","pricing_plan_id":"cebpf4jnsgd1na2vs0mg"},{"bike_id":"a35157b8-f52d-4b67-9dfc-9c6979992a5c","system_id":"levelo_inurba_marseille","lat":43.24818,"lon":5.37469,"is_reserved":false,"is_disabled":false,"rental_uris":{"android":"levelo://app?vid=a35157b8-f52d-4b67-9dfc-9c6979992a5c","ios":"levelo://app?vid=a35157b8-f52d-4b67-9dfc-9c6979992a5c"},"vehicle_type_id":"4","last_reported":1769202702,"current_range_meters":6800,"station_id":"ce4bhgh2rcd13ifvqfb0","pricing_plan_id":"cebpf4jnsgd1na2vs0mg"},{"bike_id":"5c6da10b-38e9-4dc2-819a-b9596fb94c5b","system_id":"levelo_inurba_marseille","lat":43.2618,"lon":5.37479,"is_reserved":false,"is_disabled":false,"rental_uris":{"android":"levelo://app?vid=5c6da10b-38e9-4dc2-819a-b9596fb94c5b","ios":"levelo://app?vid=5c6da10b-38e9-4dc2-819a-b9596fb94c5b"},"vehicle_type_id":"4","last_reported":1769202702,"current_range_meters":7200,"station_id":"ce4bhgp2rcd13ifvqfc0","pricing_plan_id":"cebpf4jnsgd1na2vs0mg"},{"bike_id":"9a401371-c11b-4fb8-a6da-d007a0da7136","system_id":"levelo_inurba_marseille","lat":43.295278,"lon":5.385526,"is_reserved":false,"is_disabled":false,"rental_uris":{"android":"levelo://app?vid=9a401371-c11b-4fb8-a6da-d007a0da7136","ios":"levelo://app?vid=9a401371-c11b-4fb8-a6da-d007a0da7136"},"vehicle_type_id":"4","last_reported":1769202702,"current_range_meters":7200,"station_id":"","pricing_plan_id":"cebpf4jnsgd1na2vs0mg"},{"bike_id":"651915f3-ebc5-4ef3-a2ae-2742ff4a9c5f","system_id":"levelo_inurba_marseille","lat":43.28151,"lon":5.42653,"is_reserved":false,"is_disabled":false,"rental_uris":{"android":"levelo://app?vid=651915f3-ebc5-4ef3-a2ae-2742ff4a9c5f","ios":"levelo://app?vid=651915f3-ebc5-4ef3-a2ae-2742ff4a9c5f"},"vehicle_type_id":"4","last_reported":1769202702,"current_range_meters":7200,"station_id":"ce4bhnh2rcd13ifvqgug","pricing_plan_id":"cebpf4jnsgd1na2vs0mg"},{"bike_id":"d1248e4b-c241-4185-9668-62cef44fb4ea","system_id":"levelo_inurba_marseille","lat":43.32357,"lon":5.36735,"is_reserved":false,"is_disabled":false,"rental_uris":{"android":"levelo://app?vid=d1248e4b-c241-4185-9668-62cef44fb4ea","ios":"levelo://app?vid=d1248e4b-c241-4185-9668-62cef44fb4ea"},"vehicle_type_id":"4","last_reported":1769202702,"current_range_meters":7200,"station_id":"ce4bhsh2rcd13ifvqi2g","pricing_plan_id":"cebpf4jnsgd1na2vs0mg"},{"bike_id":"2e995637-b7b6-4dd4-be9d-8c11c56f4e5e","system_id":"levelo_inurba_marseille","lat":43.30157,"lon":5.38077,"is_reserved":false,"is_disabled":false,"rental_uris":{"android":"levelo://app?vid=2e995637-b7b6-4dd4-be9d-8c11c56f4e5e","ios":"levelo://app?vid=2e995637-b7b6-4dd4-be9d-8c11c56f4e5e"},"vehicle_type_id":"4","last_reported":1769202702,"current_range_meters":7200,"station_id":"ce4bgjp2rcd13ifvqbh0","pricing_plan_id":"cebpf4jnsgd1na2vs0mg"},{"bike_id":"3f2251c2-5185-4cac-808a-d69526c32cf1","system_id":"levelo_inurba_marseille","lat":43.249509,"lon":5.404878,"is_reserved":false,"is_disabled":false,"rental_uris":{"android":"levelo://app?vid=3f2251c2-5185-4cac-808a-d69526c32cf1","ios":"levelo://app?vid=3f2251c2-5185-4cac-808a-d69526c32cf1"},"vehicle_type_id":"4","last_reported":1769202702,"current_range_meters":7200,"station_id":"st_d2ngiaodas8pm72gd1h0","pricing_plan_id":"cebpf4jnsgd1na2vs0mg"},{"bike_id":"6282d9a7-88b7-444d-a3bd-050bf586be70","system_id":"levelo_inurba_marseille","lat":43.29682,"lon":5.37302,"is_reserved":false,"is_disabled":false,"rental_uris":{"android":"levelo://app?vid=6282d9a7-88b7-444d-a3bd-050bf586be70","ios":"levelo://app?vid=6282d9a7-88b7-444d-a3bd-050bf586be70"},"vehicle_type_id":"4","last_reported":1769202702,"current_range_meters":7200,"station_id":"ce4bgk12rcd13ifvqbj0","pricing_plan_id":"cebpf4jnsgd1na2vs0mg"},{"bike_id":"c57210ff-a332-4133-95c9-92bc6b927d01","system_id":"levelo_inurba_marseille","lat":43.30454,"lon":5.37906,"is_reserved":false,"is_disabled":false,"rental_uris":{"android":"levelo://app?vid=c57210ff-a332-4133-95c9-92bc6b927d01","ios":"levelo://app?vid=c57210ff-a332-4133-95c9-92bc6b927d01"},"vehicle_type_id":"4","last_reported":1769202702,"current_range_meters":7200,"station_id":"ce4bgup2rcd13ifvqcn0","pricing_plan_id":"cebpf4jnsgd1na2vs0mg"},{"bike_id":"816a83f9-b0ab-47af-8e0c-dd006772b6ce","system_id":"levelo_inurba_marseille","lat":43.23147,"lon":5.4371,"is_reserved":false,"is_disabled":false,"rental_uris":{"android":"levelo://app?vid=816a83f9-b0ab-47af-8e0c-dd006772b6ce","ios":"levelo://app?vid=816a83f9-b0ab-47af-8e0c-dd006772b6ce"},"vehicle_type_id":"4","last_reported":1769202702,"current_range_meters":7200,"station_id":"ce4bhmp2rcd13ifvqgog","pricing_plan_id":"cebpf4jnsgd1na2vs0mg"},{"bike_id":"04df064f-6595-4d9c-a76e-ac9b3521f389","system_id":"levelo_inurba_marseille","lat":43.24651,"lon":5.38896,"is_reserved":false,"is_disabled":false,"rental_uris":{"android":"levelo://app?vid=04df064f-6595-4d9c-a76e-ac9b3521f389","ios":"levelo://app?vid=04df064f-6595-4d9c-a76e-ac9b3521f389"},"vehicle_type_id":"4","last_reported":1769202702,"current_range_meters":7200,"station_id":"ce4bhg12rcd13ifvqf60","pricing_plan_id":"cebpf4jnsgd1na2vs0mg"},{"bike_id":"577f0ccd-224a-4c2a-b932-fab3f28b9db2","system_id":"levelo_inurba_marseille","lat":43.29259,"lon":5.38439,"is_reserved":false,"is_disabled":false,"rental_uris":{"android":"levelo://app?vid=577f0ccd-224a-4c2a-b932-fab3f28b9db2","ios":"levelo://app?vid=577f0ccd-224a-4c2a-b932-fab3f28b9db2"},"vehicle_type_id":"4","last_reported":1769202702,"current_range_meters":7200,"station_id":"ce4bh692rcd13ifvqea0","pricing_plan_id":"cebpf4jnsgd1na2vs0mg"},{"bike_id":"cefb199d-63a0-4788-90c9-ae445fc3e8c1","system_id":"levelo_inurba_marseille","lat":43.28468,"lon":5.38426,"is_reserved":false,"is_disabled":false,"rental_uris":{"android":"levelo://app?vid=cefb199d-63a0-4788-90c9-ae445fc3e8c1","ios":"levelo://app?vid=cefb199d-63a0-4788-90c9-ae445fc3e8c1"},"vehicle_type_id":"4","last_reported":1769202702,"current_range_meters":7200,"station_id":"ce4bh512rcd13ifvqe3g","pricing_plan_id":"cebpf4jnsgd1na2vs0mg"},{"bike_id":"242c68f1-6b62-4a57-bfce-28531eca4eaf","system_id":"levelo_inurba_marseille","lat":43.29744,"lon":5.42785,"is_reserved":false,"is_disabled":false,"rental_uris":{"android":"levelo://app?vid=242c68f1-6b62-4a57-bfce-28531eca4eaf","ios":"levelo://app?vid=242c68f1-6b62-4a57-bfce-28531eca4eaf"},"vehicle_type_id":"4","last_reported":1769202702,"current_range_meters":7200,"station_id":"st_d3md5207bmas73dh9klg","pricing_plan_id":"cebpf4jnsgd1na2vs0mg"},{"bike_id":"746d66bd-d406-4192-af73-8a16a76a3687","system_id":"levelo_inurba_marseille","lat":43.31143,"lon":5.38773,"is_reserved":false,"is_disabled":true,"rental_uris":{"android":"levelo://app?vid=746d66bd-d406-4192-af73-8a16a76a3687","ios":"levelo://app?vid=746d66bd-d406-4192-af73-8a16a76a3687"},"vehicle_type_id":"4","last_reported":1769202702,"current_range_meters":8000,"station_id":"ce4bgv12rcd13ifvqcp0","pricing_plan_id":"cebpf4jnsgd1na2vs0mg"},{"bike_id":"3a904c28-b5d3-44ce-8dbc-fbb8f7a99de8","system_id":"levelo_inurba_marseille","lat":43.28445,"lon":5.3589,"is_reserved":false,"is_disabled":false,"rental_uris":{"android":"levelo://app?vid=3a904c28-b5d3-44ce-8dbc-fbb8f7a99de8","ios":"levelo://app?vid=3a904c28-b5d3-44ce-8dbc-fbb8f7a99de8"},"vehicle_type_id":"4","last_reported":1769202702,"current_range_meters":8000,"station_id":"ce4bhah2rcd13ifvqei0","pricing_plan_id":"cebpf4jnsgd1na2vs0mg"},{"bike_id":"9610a3a8-a0cb-4f50-91d5-011de8a06a00","system_id":"levelo_inurba_marseille","lat":43.32107,"lon":5.36789,"is_reserved":false,"is_disabled":false,"rental_uris":{"android":"levelo://app?vid=9610a3a8-a0cb-4f50-91d5-011de8a06a00","ios":"levelo://app?vid=9610a3a8-a0cb-4f50-91d5-011de8a06a00"},"vehicle_type_id":"4","last_reported":1769202702,"current_range_meters":8000,"station_id":"ce4bhrh2rcd13ifvqhug","pricing_plan_id":"cebpf4jnsgd1na2vs0mg"},{"bike_id":"87e699ce-6406-45b4-91be-9f2824787ca2","system_id":"levelo_inurba_marseille","lat":43.2925,"lon":5.3844,"is_reserved":false,"is_disabled":false,"rental_uris":{"android":"levelo://app?vid=87e699ce-6406-45b4-91be-9f2824787ca2","ios":"levelo://app?vid=87e699ce-6406-45b4-91be-9f2824787ca2"},"vehicle_type_id":"4","last_reported":1769202702,"current_range_meters":8000,"station_id":"ce4bh692rcd13ifvqea0","pricing_plan_id":"cebpf4jnsgd1na2vs0mg"},{"bike_id":"1bbeabd9-a430-4806-ad6a-9018c97bf925","system_id":"levelo_inurba_marseille","lat":43.28614,"lon":5.35102,"is_reserved":false,"is_disabled":false,"rental_uris":{"android":"levelo://app?vid=1bbeabd9-a430-4806-ad6a-9018c97bf925","ios":"levelo://app?vid=1bbeabd9-a430-4806-ad6a-9018c97bf925"},"vehicle_type_id":"4","last_reported":1769202702,"current_range_meters":8000,"station_id":"ce4bhch2rcd13ifvqeug","pricing_plan_id":"cebpf4jnsgd1na2vs0mg"},{"bike_id":"ec5eb2f7-22b0-46ba-b67c-6278697b67b5","system_id":"levelo_inurba_marseille","lat":43.295121,"lon":5.390423,"is_reserved":false,"is_disabled":false,"rental_uris":{"android":"levelo://app?vid=ec5eb2f7-22b0-46ba-b67c-6278697b67b5","ios":"levelo://app?vid=ec5eb2f7-22b0-46ba-b67c-6278697b67b5"},"vehicle_type_id":"4","last_reported":1769202702,"current_range_meters":8000,"station_id":"ce4bh3p2rcd13ifvqdp0","pricing_plan_id":"cebpf4jnsgd1na2vs0mg"},{"bike_id":"1b139ae1-6ca0-4d07-883d-20a8cc24d754","system_id":"levelo_inurba_marseille","lat":43.31275,"lon":5.40176,"is_reserved":false,"is_disabled":false,"rental_uris":{"android":"levelo://app?vid=1b139ae1-6ca0-4d07-883d-20a8cc24d754","ios":"levelo://app?vid=1b139ae1-6ca0-4d07-883d-20a8cc24d754"},"vehicle_type_id":"4","last_reported":1769202702,"current_range_meters":8000,"station_id":"ce4bh092rcd13ifvqd30","pricing_plan_id":"cebpf4jnsgd1na2vs0mg"},{"bike_id":"640121a6-98f3-4df3-8ec4-d218eca026e4","system_id":"levelo_inurba_marseille","lat":43.24164,"lon":5.36401,"is_reserved":false,"is_disabled":false,"rental_uris":{"android":"levelo://app?vid=640121a6-98f3-4df3-8ec4-d218eca026e4","ios":"levelo://app?vid=640121a6-98f3-4df3-8ec4-d218eca026e4"},"vehicle_type_id":"4","last_reported":1769202702,"current_range_meters":8000,"station_id":"cpo36qri1sfpv3e86is0","pricing_plan_id":"cebpf4jnsgd1na2vs0mg"},{"bike_id":"8d651ce5-2af6-4d67-a695-d29bc342bb83","system_id":"levelo_inurba_marseille","lat":43.22936,"lon":5.35372,"is_reserved":false,"is_disabled":false,"rental_uris":{"android":"levelo://app?vid=8d651ce5-2af6-4d67-a695-d29bc342bb83","ios":"levelo://app?vid=8d651ce5-2af6-4d67-a695-d29bc342bb83"},"vehicle_type_id":"4","last_reported":1769202702,"current_range_meters":8000,"station_id":"cpo3532slgdg3j2ikp40","pricing_plan_id":"cebpf4jnsgd1na2vs0mg"},{"bike_id":"03dc2a17-f992-45f1-b590-564bffc17a8a","system_id":"levelo_inurba_marseille","lat":43.29519,"lon":5.38546,"is_reserved":false,"is_disabled":false,"rental_uris":{"android":"levelo://app?vid=03dc2a17-f992-45f1-b590-564bffc17a8a","ios":"levelo://app?vid=03dc2a17-f992-45f1-b590-564bffc17a8a"},"vehicle_type_id":"4","last_reported":1769202702,"current_range_meters":8000,"station_id":"ce4bgih2rcd13ifvqba0","pricing_plan_id":"cebpf4jnsgd1na2vs0mg"},{"bike_id":"15ce2f7b-e27b-4b73-b1d7-521910c86f00","system_id":"levelo_inurba_marseille","lat":43.28482,"lon":5.48387,"is_reserved":false,"is_disabled":false,"rental_uris":{"android":"levelo://app?vid=15ce2f7b-e27b-4b73-b1d7-521910c86f00","ios":"levelo://app?vid=15ce2f7b-e27b-4b73-b1d7-521910c86f00"},"vehicle_type_id":"4","last_reported":1769202702,"current_range_meters":8000,"station_id":"st_d3svhcjqgbts73a3dn0g","pricing_plan_id":"cebpf4jnsgd1na2vs0mg"},{"bike_id":"1300ded7-38f8-48ea-8cda-4bcde6508d56","system_id":"levelo_inurba_marseille","lat":43.31067,"lon":5.38343,"is_reserved":false,"is_disabled":false,"rental_uris":{"android":"levelo://app?vid=1300ded7-38f8-48ea-8cda-4bcde6508d56","ios":"levelo://app?vid=1300ded7-38f8-48ea-8cda-4bcde6508d56"},"vehicle_type_id":"4","last_reported":1769202702,"current_range_meters":8000,"station_id":"ce4bgv92rcd13ifvqcr0","pricing_plan_id":"cebpf4jnsgd1na2vs0mg"},{"bike_id":"42258f14-4722-4aac-b949-245a1ef55bb3","system_id":"levelo_inurba_marseille","lat":43.229304,"lon":5.353717,"is_reserved":false,"is_disabled":false,"rental_uris":{"android":"levelo://app?vid=42258f14-4722-4aac-b949-245a1ef55bb3","ios":"levelo://app?vid=42258f14-4722-4aac-b949-245a1ef55bb3"},"vehicle_type_id":"4","last_reported":1769202702,"current_range_meters":8000,"station_id":"cpo3532slgdg3j2ikp40","pricing_plan_id":"cebpf4jnsgd1na2vs0mg"},{"bike_id":"dca5a5e3-f9ef-438a-9f98-fe8f71b0ba09","system_id":"levelo_inurba_marseille","lat":43.25343,"lon":5.42161,"is_reserved":false,"is_disabled":false,"rental_uris":{"android":"levelo://app?vid=dca5a5e3-f9ef-438a-9f98-fe8f71b0ba09","ios":"levelo://app?vid=dca5a5e3-f9ef-438a-9f98-fe8f71b0ba09"},"vehicle_type_id":"4","last_reported":1769202702,"current_range_meters":8000,"station_id":"st_d2m65c5bi1j21697t3ng","pricing_plan_id":"cebpf4jnsgd1na2vs0mg"},{"bike_id":"f9a9942f-2b8c-4b2e-91ad-50a9e46645a4","system_id":"levelo_inurba_marseille","lat":43.30974,"lon":5.37853,"is_reserved":false,"is_disabled":false,"rental_uris":{"android":"levelo://app?vid=f9a9942f-2b8c-4b2e-91ad-50a9e46645a4","ios":"levelo://app?vid=f9a9942f-2b8c-4b2e-91ad-50a9e46645a4"},"vehicle_type_id":"4","last_reported":1769202702,"current_range_meters":8000,"station_id":"","pricing_plan_id":"cebpf4jnsgd1na2vs0mg"},{"bike_id":"dd178b0d-57a2-42e1-8a69-79f640f4f2cc","system_id":"levelo_inurba_marseille","lat":43.33385,"lon":5.39425,"is_reserved":false,"is_disabled":false,"rental_uris":{"android":"levelo://app?vid=dd178b0d-57a2-42e1-8a69-79f640f4f2cc","ios":"levelo://app?vid=dd178b0d-57a2-42e1-8a69-79f640f4f2cc"},"vehicle_type_id":"4","last_reported":1769202702,"current_range_meters":8000,"station_id":"","pricing_plan_id":"cebpf4jnsgd1na2vs0mg"},{"bike_id":"3718653d-c0c7-4bef-a55c-c549788d4e39","system_id":"levelo_inurba_marseille","lat":43.29517,"lon":5.39416,"is_reserved":false,"is_disabled":false,"rental_uris":{"android":"levelo://app?vid=3718653d-c0c7-4bef-a55c-c549788d4e39","ios":"levelo://app?vid=3718653d-c0c7-4bef-a55c-c549788d4e39"},"vehicle_type_id":"4","last_reported":1769202702,"current_range_meters":8000,"station_id":"ce4bh292rcd13ifvqdf0","pricing_plan_id":"cebpf4jnsgd1na2vs0mg"},{"bike_id":"8c62329e-71c2-4f7a-81bf-708e91fc92be","system_id":"levelo_inurba_marseille","lat":43.24903,"lon":5.38979,"is_reserved":false,"is_disabled":true,"rental_uris":{"android":"levelo://app?vid=8c62329e-71c2-4f7a-81bf-708e91fc92be","ios":"levelo://app?vid=8c62329e-71c2-4f7a-81bf-708e91fc92be"},"vehicle_type_id":"4","last_reported":1769202702,"current_range_meters":8000,"station_id":"","pricing_plan_id":"cebpf4jnsgd1na2vs0mg"},{"bike_id":"269dba95-abd7-4cfd-ba9a-e67805768849","system_id":"levelo_inurba_marseille","lat":43.28651,"lon":5.35075,"is_reserved":false,"is_disabled":false,"rental_uris":{"android":"levelo://app?vid=269dba95-abd7-4cfd-ba9a-e67805768849","ios":"levelo://app?vid=269dba95-abd7-4cfd-ba9a-e67805768849"},"vehicle_type_id":"4","last_reported":1769202702,"current_range_meters":8000,"station_id":"","pricing_plan_id":"cebpf4jnsgd1na2vs0mg"},{"bike_id":"2c2055ba-db74-478c-91d5-55a6dd91d5a0","system_id":"levelo_inurba_marseille","lat":43.304232,"lon":5.379009,"is_reserved":false,"is_disabled":false,"rental_uris":{"android":"levelo://app?vid=2c2055ba-db74-478c-91d5-55a6dd91d5a0","ios":"levelo://app?vid=2c2055ba-db74-478c-91d5-55a6dd91d5a0"},"vehicle_type_id":"4","last_reported":1769202702,"current_range_meters":8400,"station_id":"ce4bgup2rcd13ifvqcn0","pricing_plan_id":"cebpf4jnsgd1na2vs0mg"},{"bike_id":"18d6c642-fb42-4546-954e-362c3a034a30","system_id":"levelo_inurba_marseille","lat":43.28946,"lon":5.3638,"is_reserved":false,"is_disabled":false,"rental_uris":{"android":"levelo://app?vid=18d6c642-fb42-4546-954e-362c3a034a30","ios":"levelo://app?vid=18d6c642-fb42-4546-954e-362c3a034a30"},"vehicle_type_id":"4","last_reported":1769202702,"current_range_meters":8400,"station_id":"ce4bhc92rcd13ifvqetg","pricing_plan_id":"cebpf4jnsgd1na2vs0mg"},{"bike_id":"ac97975c-8c7a-4222-9567-ab07b5d4a53a","system_id":"levelo_inurba_marseille","lat":43.24067,"lon":5.37765,"is_reserved":false,"is_disabled":false,"rental_uris":{"android":"levelo://app?vid=ac97975c-8c7a-4222-9567-ab07b5d4a53a","ios":"levelo://app?vid=ac97975c-8c7a-4222-9567-ab07b5d4a53a"},"vehicle_type_id":"4","last_reported":1769202702,"current_range_meters":8400,"station_id":"ce4bhnp2rcd13ifvqgvg","pricing_plan_id":"cebpf4jnsgd1na2vs0mg"},{"bike_id":"3e10bd30-a062-4bb4-8e27-f93eb1e497ff","system_id":"levelo_inurba_marseille","lat":43.29619,"lon":5.3771,"is_reserved":false,"is_disabled":true,"rental_uris":{"android":"levelo://app?vid=3e10bd30-a062-4bb4-8e27-f93eb1e497ff","ios":"levelo://app?vid=3e10bd30-a062-4bb4-8e27-f93eb1e497ff"},"vehicle_type_id":"4","last_reported":1769202702,"current_range_meters":8400,"station_id":"ce4bgi92rcd13ifvqb90","pricing_plan_id":"cebpf4jnsgd1na2vs0mg"},{"bike_id":"0dc9dc39-9a79-4974-b3ae-9c8631cf059e","system_id":"levelo_inurba_marseille","lat":43.239942,"lon":5.39586,"is_reserved":false,"is_disabled":false,"rental_uris":{"android":"levelo://app?vid=0dc9dc39-9a79-4974-b3ae-9c8631cf059e","ios":"levelo://app?vid=0dc9dc39-9a79-4974-b3ae-9c8631cf059e"},"vehicle_type_id":"4","last_reported":1769202702,"current_range_meters":8400,"station_id":"","pricing_plan_id":"cebpf4jnsgd1na2vs0mg"},{"bike_id":"911d5535-cfd0-4827-af14-2b91cedb15fe","system_id":"levelo_inurba_marseille","lat":43.29988,"lon":5.39888,"is_reserved":false,"is_disabled":false,"rental_uris":{"android":"levelo://app?vid=911d5535-cfd0-4827-af14-2b91cedb15fe","ios":"levelo://app?vid=911d5535-cfd0-4827-af14-2b91cedb15fe"},"vehicle_type_id":"4","last_reported":1769202702,"current_range_meters":8400,"station_id":"","pricing_plan_id":"cebpf4jnsgd1na2vs0mg"},{"bike_id":"42ded6ad-0f4e-498c-b031-201b0d68f6c8","system_id":"levelo_inurba_marseille","lat":43.29266,"lon":5.38454,"is_reserved":false,"is_disabled":false,"rental_uris":{"android":"levelo://app?vid=42ded6ad-0f4e-498c-b031-201b0d68f6c8","ios":"levelo://app?vid=42ded6ad-0f4e-498c-b031-201b0d68f6c8"},"vehicle_type_id":"4","last_reported":1769202702,"current_range_meters":8400,"station_id":"ce4bh692rcd13ifvqea0","pricing_plan_id":"cebpf4jnsgd1na2vs0mg"},{"bike_id":"10c585ec-0d69-49bc-a403-a71e7446105a","system_id":"levelo_inurba_marseille","lat":43.24943,"lon":5.39707,"is_reserved":false,"is_disabled":false,"rental_uris":{"android":"levelo://app?vid=10c585ec-0d69-49bc-a403-a71e7446105a","ios":"levelo://app?vid=10c585ec-0d69-49bc-a403-a71e7446105a"},"vehicle_type_id":"4","last_reported":1769202702,"current_range_meters":8400,"station_id":"","pricing_plan_id":"cebpf4jnsgd1na2vs0mg"},{"bike_id":"7c7cc252-7f4f-4ac1-8175-44f20e46ac77","system_id":"levelo_inurba_marseille","lat":43.26732,"lon":5.40196,"is_reserved":false,"is_disabled":false,"rental_uris":{"android":"levelo://app?vid=7c7cc252-7f4f-4ac1-8175-44f20e46ac77","ios":"levelo://app?vid=7c7cc252-7f4f-4ac1-8175-44f20e46ac77"},"vehicle_type_id":"4","last_reported":1769202702,"current_range_meters":8400,"station_id":"","pricing_plan_id":"cebpf4jnsgd1na2vs0mg"},{"bike_id":"17ed46bf-b051-47fc-a887-339e35ccca50","system_id":"levelo_inurba_marseille","lat":43.29041,"lon":5.37565,"is_reserved":false,"is_disabled":false,"rental_uris":{"android":"levelo://app?vid=17ed46bf-b051-47fc-a887-339e35ccca50","ios":"levelo://app?vid=17ed46bf-b051-47fc-a887-339e35ccca50"},"vehicle_type_id":"4","last_reported":1769202702,"current_range_meters":8400,"station_id":"ce4bh692rcd13ifvqe90","pricing_plan_id":"cebpf4jnsgd1na2vs0mg"},{"bike_id":"e3bf064c-53bb-4e5e-a214-36779e2347bf","system_id":"levelo_inurba_marseille","lat":43.27994,"lon":5.41551,"is_reserved":false,"is_disabled":false,"rental_uris":{"android":"levelo://app?vid=e3bf064c-53bb-4e5e-a214-36779e2347bf","ios":"levelo://app?vid=e3bf064c-53bb-4e5e-a214-36779e2347bf"},"vehicle_type_id":"4","last_reported":1769202702,"current_range_meters":8400,"station_id":"ce4bho12rcd13ifvqh1g","pricing_plan_id":"cebpf4jnsgd1na2vs0mg"},{"bike_id":"7a686c61-b5b8-4674-8acc-2934172591c3","system_id":"levelo_inurba_marseille","lat":43.24553,"lon":5.39518,"is_reserved":false,"is_disabled":false,"rental_uris":{"android":"levelo://app?vid=7a686c61-b5b8-4674-8acc-2934172591c3","ios":"levelo://app?vid=7a686c61-b5b8-4674-8acc-2934172591c3"},"vehicle_type_id":"4","last_reported":1769202702,"current_range_meters":8400,"station_id":"ce4bhlp2rcd13ifvqgjg","pricing_plan_id":"cebpf4jnsgd1na2vs0mg"},{"bike_id":"9efed3b6-c2c5-42d9-aec2-08a345e6ba87","system_id":"levelo_inurba_marseille","lat":43.26381,"lon":5.41081,"is_reserved":false,"is_disabled":false,"rental_uris":{"android":"levelo://app?vid=9efed3b6-c2c5-42d9-aec2-08a345e6ba87","ios":"levelo://app?vid=9efed3b6-c2c5-42d9-aec2-08a345e6ba87"},"vehicle_type_id":"4","last_reported":1769202702,"current_range_meters":8400,"station_id":"st_d4e5ca6na9uc73bfl5fg","pricing_plan_id":"cebpf4jnsgd1na2vs0mg"},{"bike_id":"4ebbb6b0-c269-434a-8402-eaec07ebe191","system_id":"levelo_inurba_marseille","lat":43.25514,"lon":5.3765,"is_reserved":false,"is_disabled":false,"rental_uris":{"android":"levelo://app?vid=4ebbb6b0-c269-434a-8402-eaec07ebe191","ios":"levelo://app?vid=4ebbb6b0-c269-434a-8402-eaec07ebe191"},"vehicle_type_id":"4","last_reported":1769202702,"current_range_meters":8400,"station_id":"ce4bhh12rcd13ifvqff0","pricing_plan_id":"cebpf4jnsgd1na2vs0mg"},{"bike_id":"e7bcb6ad-af77-4144-aee4-6c0bad5236a6","system_id":"levelo_inurba_marseille","lat":43.29264,"lon":5.38431,"is_reserved":false,"is_disabled":false,"rental_uris":{"android":"levelo://app?vid=e7bcb6ad-af77-4144-aee4-6c0bad5236a6","ios":"levelo://app?vid=e7bcb6ad-af77-4144-aee4-6c0bad5236a6"},"vehicle_type_id":"4","last_reported":1769202702,"current_range_meters":8400,"station_id":"ce4bh692rcd13ifvqea0","pricing_plan_id":"cebpf4jnsgd1na2vs0mg"},{"bike_id":"231ff2d6-b559-46f9-b659-afda44c3cdb8","system_id":"levelo_inurba_marseille","lat":43.24501,"lon":5.3962,"is_reserved":false,"is_disabled":false,"rental_uris":{"android":"levelo://app?vid=231ff2d6-b559-46f9-b659-afda44c3cdb8","ios":"levelo://app?vid=231ff2d6-b559-46f9-b659-afda44c3cdb8"},"vehicle_type_id":"4","last_reported":1769202702,"current_range_meters":8400,"station_id":"","pricing_plan_id":"cebpf4jnsgd1na2vs0mg"},{"bike_id":"16525725-a4c4-4bd9-9925-eb9b950936aa","system_id":"levelo_inurba_marseille","lat":43.26937,"lon":5.3905,"is_reserved":false,"is_disabled":false,"rental_uris":{"android":"levelo://app?vid=16525725-a4c4-4bd9-9925-eb9b950936aa","ios":"levelo://app?vid=16525725-a4c4-4bd9-9925-eb9b950936aa"},"vehicle_type_id":"4","last_reported":1769202702,"current_range_meters":8400,"station_id":"","pricing_plan_id":"cebpf4jnsgd1na2vs0mg"},{"bike_id":"ed53e9e0-4af8-4698-ae27-cfd5d5aade97","system_id":"levelo_inurba_marseille","lat":43.29323,"lon":5.37204,"is_reserved":false,"is_disabled":false,"rental_uris":{"android":"levelo://app?vid=ed53e9e0-4af8-4698-ae27-cfd5d5aade97","ios":"levelo://app?vid=ed53e9e0-4af8-4698-ae27-cfd5d5aade97"},"vehicle_type_id":"4","last_reported":1769202702,"current_range_meters":8400,"station_id":"ce4bgh92rcd13ifvqb40","pricing_plan_id":"cebpf4jnsgd1na2vs0mg"},{"bike_id":"325d6000-e7a8-417c-aa29-6d5b58f2d9fb","system_id":"levelo_inurba_marseille","lat":43.29607,"lon":5.37183,"is_reserved":false,"is_disabled":false,"rental_uris":{"android":"levelo://app?vid=325d6000-e7a8-417c-aa29-6d5b58f2d9fb","ios":"levelo://app?vid=325d6000-e7a8-417c-aa29-6d5b58f2d9fb"},"vehicle_type_id":"4","last_reported":1769202702,"current_range_meters":8400,"station_id":"ce4bgnh2rcd13ifvqc0g","pricing_plan_id":"cebpf4jnsgd1na2vs0mg"},{"bike_id":"514778f3-cb3c-44e7-bfaa-f93fb491b5fc","system_id":"levelo_inurba_marseille","lat":43.24992,"lon":5.3892,"is_reserved":false,"is_disabled":false,"rental_uris":{"android":"levelo://app?vid=514778f3-cb3c-44e7-bfaa-f93fb491b5fc","ios":"levelo://app?vid=514778f3-cb3c-44e7-bfaa-f93fb491b5fc"},"vehicle_type_id":"4","last_reported":1769202702,"current_range_meters":8400,"station_id":"ce4bhgp2rcd13ifvqfd0","pricing_plan_id":"cebpf4jnsgd1na2vs0mg"},{"bike_id":"631483d0-ada8-4ace-8a32-eb461cd8070c","system_id":"levelo_inurba_marseille","lat":43.30559,"lon":5.36698,"is_reserved":false,"is_disabled":false,"rental_uris":{"android":"levelo://app?vid=631483d0-ada8-4ace-8a32-eb461cd8070c","ios":"levelo://app?vid=631483d0-ada8-4ace-8a32-eb461cd8070c"},"vehicle_type_id":"4","last_reported":1769202702,"current_range_meters":8400,"station_id":"ce4bgrp2rcd13ifvqc9g","pricing_plan_id":"cebpf4jnsgd1na2vs0mg"},{"bike_id":"6985bdab-f92b-457f-b504-204355252882","system_id":"levelo_inurba_marseille","lat":43.29532,"lon":5.39058,"is_reserved":false,"is_disabled":false,"rental_uris":{"android":"levelo://app?vid=6985bdab-f92b-457f-b504-204355252882","ios":"levelo://app?vid=6985bdab-f92b-457f-b504-204355252882"},"vehicle_type_id":"4","last_reported":1769202702,"current_range_meters":8400,"station_id":"ce4bh3p2rcd13ifvqdp0","pricing_plan_id":"cebpf4jnsgd1na2vs0mg"},{"bike_id":"2ad15ccb-1eb1-433a-943a-0c6ccece4cc1","system_id":"levelo_inurba_marseille","lat":43.28866,"lon":5.42514,"is_reserved":false,"is_disabled":false,"rental_uris":{"android":"levelo://app?vid=2ad15ccb-1eb1-433a-943a-0c6ccece4cc1","ios":"levelo://app?vid=2ad15ccb-1eb1-433a-943a-0c6ccece4cc1"},"vehicle_type_id":"4","last_reported":1769202702,"current_range_meters":8400,"station_id":"st_d3b462108ojc7389ooeg","pricing_plan_id":"cebpf4jnsgd1na2vs0mg"},{"bike_id":"2e2ce66a-3f89-4c21-a9df-34056a5a5860","system_id":"levelo_inurba_marseille","lat":43.22554,"lon":5.41632,"is_reserved":false,"is_disabled":false,"rental_uris":{"android":"levelo://app?vid=2e2ce66a-3f89-4c21-a9df-34056a5a5860","ios":"levelo://app?vid=2e2ce66a-3f89-4c21-a9df-34056a5a5860"},"vehicle_type_id":"4","last_reported":1769202702,"current_range_meters":8400,"station_id":"st_d2o4gvlbi1j2169b742g","pricing_plan_id":"cebpf4jnsgd1na2vs0mg"},{"bike_id":"e4c4f5dd-c80d-4d75-801c-35c973416425","system_id":"levelo_inurba_marseille","lat":43.26569,"lon":5.37291,"is_reserved":false,"is_disabled":false,"rental_uris":{"android":"levelo://app?vid=e4c4f5dd-c80d-4d75-801c-35c973416425","ios":"levelo://app?vid=e4c4f5dd-c80d-4d75-801c-35c973416425"},"vehicle_type_id":"4","last_reported":1769202702,"current_range_meters":8800,"station_id":"ce4bhg12rcd13ifvqf70","pricing_plan_id":"cebpf4jnsgd1na2vs0mg"},{"bike_id":"0e7c9739-7c0b-462d-b69e-90718e9a5775","system_id":"levelo_inurba_marseille","lat":43.26555,"lon":5.37269,"is_reserved":false,"is_disabled":false,"rental_uris":{"android":"levelo://app?vid=0e7c9739-7c0b-462d-b69e-90718e9a5775","ios":"levelo://app?vid=0e7c9739-7c0b-462d-b69e-90718e9a5775"},"vehicle_type_id":"4","last_reported":1769202702,"current_range_meters":8800,"station_id":"ce4bhg12rcd13ifvqf70","pricing_plan_id":"cebpf4jnsgd1na2vs0mg"},{"bike_id":"0067e0af-5ba0-4b0d-a268-ed0ed9e19547","system_id":"levelo_inurba_marseille","lat":43.32316,"lon":5.36609,"is_reserved":false,"is_disabled":false,"rental_uris":{"android":"levelo://app?vid=0067e0af-5ba0-4b0d-a268-ed0ed9e19547","ios":"levelo://app?vid=0067e0af-5ba0-4b0d-a268-ed0ed9e19547"},"vehicle_type_id":"4","last_reported":1769202702,"current_range_meters":8800,"station_id":"","pricing_plan_id":"cebpf4jnsgd1na2vs0mg"},{"bike_id":"994cd074-f869-4813-80d0-fd8e13f5f341","system_id":"levelo_inurba_marseille","lat":43.29957,"lon":5.36549,"is_reserved":false,"is_disabled":false,"rental_uris":{"android":"levelo://app?vid=994cd074-f869-4813-80d0-fd8e13f5f341","ios":"levelo://app?vid=994cd074-f869-4813-80d0-fd8e13f5f341"},"vehicle_type_id":"4","last_reported":1769202702,"current_range_meters":8800,"station_id":"ce4bgm92rcd13ifvqbr0","pricing_plan_id":"cebpf4jnsgd1na2vs0mg"},{"bike_id":"718d5db1-dc44-4b74-8e82-1e977ee8f15e","system_id":"levelo_inurba_marseille","lat":43.25106,"lon":5.40458,"is_reserved":false,"is_disabled":false,"rental_uris":{"android":"levelo://app?vid=718d5db1-dc44-4b74-8e82-1e977ee8f15e","ios":"levelo://app?vid=718d5db1-dc44-4b74-8e82-1e977ee8f15e"},"vehicle_type_id":"4","last_reported":1769202702,"current_range_meters":8800,"station_id":"","pricing_plan_id":"cebpf4jnsgd1na2vs0mg"},{"bike_id":"8176944f-821b-4386-85fc-36589c32740d","system_id":"levelo_inurba_marseille","lat":43.27957,"lon":5.38744,"is_reserved":false,"is_disabled":false,"rental_uris":{"android":"levelo://app?vid=8176944f-821b-4386-85fc-36589c32740d","ios":"levelo://app?vid=8176944f-821b-4386-85fc-36589c32740d"},"vehicle_type_id":"4","last_reported":1769202702,"current_range_meters":8800,"station_id":"ce4bhg12rcd13ifvqf80","pricing_plan_id":"cebpf4jnsgd1na2vs0mg"},{"bike_id":"3df1c2ce-b029-4e4a-acf7-75de203dd298","system_id":"levelo_inurba_marseille","lat":43.24945,"lon":5.40496,"is_reserved":false,"is_disabled":false,"rental_uris":{"android":"levelo://app?vid=3df1c2ce-b029-4e4a-acf7-75de203dd298","ios":"levelo://app?vid=3df1c2ce-b029-4e4a-acf7-75de203dd298"},"vehicle_type_id":"4","last_reported":1769202702,"current_range_meters":8800,"station_id":"st_d2ngiaodas8pm72gd1h0","pricing_plan_id":"cebpf4jnsgd1na2vs0mg"},{"bike_id":"5ef0fcdb-b107-4dbb-97e8-c66d13c4cf00","system_id":"levelo_inurba_marseille","lat":43.28057,"lon":5.39728,"is_reserved":false,"is_disabled":false,"rental_uris":{"android":"levelo://app?vid=5ef0fcdb-b107-4dbb-97e8-c66d13c4cf00","ios":"levelo://app?vid=5ef0fcdb-b107-4dbb-97e8-c66d13c4cf00"},"vehicle_type_id":"4","last_reported":1769202702,"current_range_meters":8800,"station_id":"","pricing_plan_id":"cebpf4jnsgd1na2vs0mg"},{"bike_id":"8f72bfe4-ee21-4ee8-b70c-bdb39befee0d","system_id":"levelo_inurba_marseille","lat":43.23186,"lon":5.39999,"is_reserved":false,"is_disabled":false,"rental_uris":{"android":"levelo://app?vid=8f72bfe4-ee21-4ee8-b70c-bdb39befee0d","ios":"levelo://app?vid=8f72bfe4-ee21-4ee8-b70c-bdb39befee0d"},"vehicle_type_id":"4","last_reported":1769202702,"current_range_meters":8800,"station_id":"ce4bhn12rcd13ifvqgqg","pricing_plan_id":"cebpf4jnsgd1na2vs0mg"},{"bike_id":"98ce3a91-bb68-49dc-9094-facdbdc00ca7","system_id":"levelo_inurba_marseille","lat":43.28159,"lon":5.42647,"is_reserved":false,"is_disabled":false,"rental_uris":{"android":"levelo://app?vid=98ce3a91-bb68-49dc-9094-facdbdc00ca7","ios":"levelo://app?vid=98ce3a91-bb68-49dc-9094-facdbdc00ca7"},"vehicle_type_id":"4","last_reported":1769202702,"current_range_meters":8800,"station_id":"ce4bhnh2rcd13ifvqgug","pricing_plan_id":"cebpf4jnsgd1na2vs0mg"},{"bike_id":"89d2f176-9210-47d4-8e8a-9009973231fc","system_id":"levelo_inurba_marseille","lat":43.31372,"lon":5.36754,"is_reserved":false,"is_disabled":false,"rental_uris":{"android":"levelo://app?vid=89d2f176-9210-47d4-8e8a-9009973231fc","ios":"levelo://app?vid=89d2f176-9210-47d4-8e8a-9009973231fc"},"vehicle_type_id":"4","last_reported":1769202702,"current_range_meters":8800,"station_id":"","pricing_plan_id":"cebpf4jnsgd1na2vs0mg"},{"bike_id":"05d1c121-28b2-4089-b97e-95b3b06f8585","system_id":"levelo_inurba_marseille","lat":43.31352,"lon":5.37178,"is_reserved":false,"is_disabled":false,"rental_uris":{"android":"levelo://app?vid=05d1c121-28b2-4089-b97e-95b3b06f8585","ios":"levelo://app?vid=05d1c121-28b2-4089-b97e-95b3b06f8585"},"vehicle_type_id":"4","last_reported":1769202702,"current_range_meters":8800,"station_id":"","pricing_plan_id":"cebpf4jnsgd1na2vs0mg"},{"bike_id":"859c0b56-daf9-47de-8a3d-a09ddfbed08a","system_id":"levelo_inurba_marseille","lat":43.25007,"lon":5.38949,"is_reserved":false,"is_disabled":false,"rental_uris":{"android":"levelo://app?vid=859c0b56-daf9-47de-8a3d-a09ddfbed08a","ios":"levelo://app?vid=859c0b56-daf9-47de-8a3d-a09ddfbed08a"},"vehicle_type_id":"4","last_reported":1769202702,"current_range_meters":8800,"station_id":"ce4bhgp2rcd13ifvqfd0","pricing_plan_id":"cebpf4jnsgd1na2vs0mg"},{"bike_id":"f9d93cc6-98c1-48c8-add8-814cde475c32","system_id":"levelo_inurba_marseille","lat":43.29204,"lon":5.39324,"is_reserved":false,"is_disabled":false,"rental_uris":{"android":"levelo://app?vid=f9d93cc6-98c1-48c8-add8-814cde475c32","ios":"levelo://app?vid=f9d93cc6-98c1-48c8-add8-814cde475c32"},"vehicle_type_id":"4","last_reported":1769202702,"current_range_meters":8800,"station_id":"ce4bh192rcd13ifvqdd0","pricing_plan_id":"cebpf4jnsgd1na2vs0mg"},{"bike_id":"d53aa9d5-2a5b-4c87-a2ec-7bd3f4bf9eba","system_id":"levelo_inurba_marseille","lat":43.24998,"lon":5.38932,"is_reserved":false,"is_disabled":false,"rental_uris":{"android":"levelo://app?vid=d53aa9d5-2a5b-4c87-a2ec-7bd3f4bf9eba","ios":"levelo://app?vid=d53aa9d5-2a5b-4c87-a2ec-7bd3f4bf9eba"},"vehicle_type_id":"4","last_reported":1769202702,"current_range_meters":8800,"station_id":"ce4bhgp2rcd13ifvqfd0","pricing_plan_id":"cebpf4jnsgd1na2vs0mg"},{"bike_id":"45bb63fe-8270-4a18-9d30-feedae2fa6a6","system_id":"levelo_inurba_marseille","lat":43.268242,"lon":5.384408,"is_reserved":false,"is_disabled":false,"rental_uris":{"android":"levelo://app?vid=45bb63fe-8270-4a18-9d30-feedae2fa6a6","ios":"levelo://app?vid=45bb63fe-8270-4a18-9d30-feedae2fa6a6"},"vehicle_type_id":"4","last_reported":1769202702,"current_range_meters":8800,"station_id":"","pricing_plan_id":"cebpf4jnsgd1na2vs0mg"},{"bike_id":"cdc6020b-483e-40c5-ba42-37ef4f05d111","system_id":"levelo_inurba_marseille","lat":43.29526,"lon":5.39039,"is_reserved":false,"is_disabled":false,"rental_uris":{"android":"levelo://app?vid=cdc6020b-483e-40c5-ba42-37ef4f05d111","ios":"levelo://app?vid=cdc6020b-483e-40c5-ba42-37ef4f05d111"},"vehicle_type_id":"4","last_reported":1769202702,"current_range_meters":8800,"station_id":"ce4bh3p2rcd13ifvqdp0","pricing_plan_id":"cebpf4jnsgd1na2vs0mg"},{"bike_id":"54247625-5421-4985-8cfb-4f29ba1ac252","system_id":"levelo_inurba_marseille","lat":43.31655,"lon":5.37681,"is_reserved":false,"is_disabled":false,"rental_uris":{"android":"levelo://app?vid=54247625-5421-4985-8cfb-4f29ba1ac252","ios":"levelo://app?vid=54247625-5421-4985-8cfb-4f29ba1ac252"},"vehicle_type_id":"4","last_reported":1769202702,"current_range_meters":8800,"station_id":"","pricing_plan_id":"cebpf4jnsgd1na2vs0mg"},{"bike_id":"2b16ff9b-1532-4a37-9b9d-95bb7d5a2516","system_id":"levelo_inurba_marseille","lat":43.281538,"lon":5.426385,"is_reserved":false,"is_disabled":true,"rental_uris":{"android":"levelo://app?vid=2b16ff9b-1532-4a37-9b9d-95bb7d5a2516","ios":"levelo://app?vid=2b16ff9b-1532-4a37-9b9d-95bb7d5a2516"},"vehicle_type_id":"4","last_reported":1769202702,"current_range_meters":8800,"station_id":"ce4bhnh2rcd13ifvqgug","pricing_plan_id":"cebpf4jnsgd1na2vs0mg"},{"bike_id":"c2b96582-d3c9-4229-a4bd-bca44384c79c","system_id":"levelo_inurba_marseille","lat":43.28724,"lon":5.36086,"is_reserved":false,"is_disabled":false,"rental_uris":{"android":"levelo://app?vid=c2b96582-d3c9-4229-a4bd-bca44384c79c","ios":"levelo://app?vid=c2b96582-d3c9-4229-a4bd-bca44384c79c"},"vehicle_type_id":"4","last_reported":1769202702,"current_range_meters":8800,"station_id":"cki0cbj6b192h4jlfktg","pricing_plan_id":"cebpf4jnsgd1na2vs0mg"},{"bike_id":"659801ea-543c-4468-8b42-99ee594819ce","system_id":"levelo_inurba_marseille","lat":43.30883,"lon":5.39631,"is_reserved":false,"is_disabled":true,"rental_uris":{"android":"levelo://app?vid=659801ea-543c-4468-8b42-99ee594819ce","ios":"levelo://app?vid=659801ea-543c-4468-8b42-99ee594819ce"},"vehicle_type_id":"4","last_reported":1769202702,"current_range_meters":8800,"station_id":"ce4bh012rcd13ifvqcv0","pricing_plan_id":"cebpf4jnsgd1na2vs0mg"},{"bike_id":"7a1b6b69-5f61-4e11-91d3-12cf02858ca8","system_id":"levelo_inurba_marseille","lat":43.24392,"lon":5.37071,"is_reserved":false,"is_disabled":false,"rental_uris":{"android":"levelo://app?vid=7a1b6b69-5f61-4e11-91d3-12cf02858ca8","ios":"levelo://app?vid=7a1b6b69-5f61-4e11-91d3-12cf02858ca8"},"vehicle_type_id":"4","last_reported":1769202702,"current_range_meters":9200,"station_id":"ce4bhhh2rcd13ifvqfk0","pricing_plan_id":"cebpf4jnsgd1na2vs0mg"},{"bike_id":"00017738-b4c1-47b3-8105-45d98f09854a","system_id":"levelo_inurba_marseille","lat":43.32108,"lon":5.3678,"is_reserved":false,"is_disabled":false,"rental_uris":{"android":"levelo://app?vid=00017738-b4c1-47b3-8105-45d98f09854a","ios":"levelo://app?vid=00017738-b4c1-47b3-8105-45d98f09854a"},"vehicle_type_id":"4","last_reported":1769202702,"current_range_meters":9200,"station_id":"ce4bhrh2rcd13ifvqhug","pricing_plan_id":"cebpf4jnsgd1na2vs0mg"},{"bike_id":"8c0442e3-2101-49d9-a999-4e4315bd74c6","system_id":"levelo_inurba_marseille","lat":43.33552,"lon":5.37453,"is_reserved":false,"is_disabled":false,"rental_uris":{"android":"levelo://app?vid=8c0442e3-2101-49d9-a999-4e4315bd74c6","ios":"levelo://app?vid=8c0442e3-2101-49d9-a999-4e4315bd74c6"},"vehicle_type_id":"4","last_reported":1769202702,"current_range_meters":9200,"station_id":"st_d46tts09ee8s73dlu43g","pricing_plan_id":"cebpf4jnsgd1na2vs0mg"},{"bike_id":"ce91f19c-6b5f-4475-ac98-6aba43530cf5","system_id":"levelo_inurba_marseille","lat":43.25029,"lon":5.38903,"is_reserved":false,"is_disabled":false,"rental_uris":{"android":"levelo://app?vid=ce91f19c-6b5f-4475-ac98-6aba43530cf5","ios":"levelo://app?vid=ce91f19c-6b5f-4475-ac98-6aba43530cf5"},"vehicle_type_id":"4","last_reported":1769202702,"current_range_meters":9200,"station_id":"ce4bhgp2rcd13ifvqfd0","pricing_plan_id":"cebpf4jnsgd1na2vs0mg"},{"bike_id":"21f6fd5f-51e0-4ace-adf3-8e7223e07642","system_id":"levelo_inurba_marseille","lat":43.29893,"lon":5.4364,"is_reserved":false,"is_disabled":false,"rental_uris":{"android":"levelo://app?vid=21f6fd5f-51e0-4ace-adf3-8e7223e07642","ios":"levelo://app?vid=21f6fd5f-51e0-4ace-adf3-8e7223e07642"},"vehicle_type_id":"4","last_reported":1769202702,"current_range_meters":9200,"station_id":"ce4bhpp2rcd13ifvqhfg","pricing_plan_id":"cebpf4jnsgd1na2vs0mg"},{"bike_id":"589eebb0-c0cf-4d19-afe3-eff9c648d5c0","system_id":"levelo_inurba_marseille","lat":43.262238,"lon":5.404464,"is_reserved":false,"is_disabled":false,"rental_uris":{"android":"levelo://app?vid=589eebb0-c0cf-4d19-afe3-eff9c648d5c0","ios":"levelo://app?vid=589eebb0-c0cf-4d19-afe3-eff9c648d5c0"},"vehicle_type_id":"4","last_reported":1769202702,"current_range_meters":9200,"station_id":"ce4bhmh2rcd13ifvqgmg","pricing_plan_id":"cebpf4jnsgd1na2vs0mg"},{"bike_id":"1ee07084-a0a9-43af-bdb4-955f248e5678","system_id":"levelo_inurba_marseille","lat":43.28431,"lon":5.38733,"is_reserved":false,"is_disabled":false,"rental_uris":{"android":"levelo://app?vid=1ee07084-a0a9-43af-bdb4-955f248e5678","ios":"levelo://app?vid=1ee07084-a0a9-43af-bdb4-955f248e5678"},"vehicle_type_id":"4","last_reported":1769202702,"current_range_meters":9200,"station_id":"","pricing_plan_id":"cebpf4jnsgd1na2vs0mg"},{"bike_id":"786d9288-fe4b-4af5-944f-89b1f2ed3ca1","system_id":"levelo_inurba_marseille","lat":43.294298,"lon":5.397528,"is_reserved":false,"is_disabled":false,"rental_uris":{"android":"levelo://app?vid=786d9288-fe4b-4af5-944f-89b1f2ed3ca1","ios":"levelo://app?vid=786d9288-fe4b-4af5-944f-89b1f2ed3ca1"},"vehicle_type_id":"4","last_reported":1769202702,"current_range_meters":9200,"station_id":"ce4bh3h2rcd13ifvqdo0","pricing_plan_id":"cebpf4jnsgd1na2vs0mg"},{"bike_id":"830a8f10-eae2-4706-8de2-4317b95956ac","system_id":"levelo_inurba_marseille","lat":43.31169,"lon":5.38731,"is_reserved":false,"is_disabled":false,"rental_uris":{"android":"levelo://app?vid=830a8f10-eae2-4706-8de2-4317b95956ac","ios":"levelo://app?vid=830a8f10-eae2-4706-8de2-4317b95956ac"},"vehicle_type_id":"4","last_reported":1769202702,"current_range_meters":9200,"station_id":"ce4bgv12rcd13ifvqcp0","pricing_plan_id":"cebpf4jnsgd1na2vs0mg"},{"bike_id":"f6f460da-b7b9-488f-bbdf-ade50c9a7709","system_id":"levelo_inurba_marseille","lat":43.30145,"lon":5.38099,"is_reserved":false,"is_disabled":false,"rental_uris":{"android":"levelo://app?vid=f6f460da-b7b9-488f-bbdf-ade50c9a7709","ios":"levelo://app?vid=f6f460da-b7b9-488f-bbdf-ade50c9a7709"},"vehicle_type_id":"4","last_reported":1769202702,"current_range_meters":9200,"station_id":"ce4bgjp2rcd13ifvqbh0","pricing_plan_id":"cebpf4jnsgd1na2vs0mg"},{"bike_id":"824c621c-a202-476e-adb4-d2ef81fa6574","system_id":"levelo_inurba_marseille","lat":43.24467,"lon":5.42546,"is_reserved":false,"is_disabled":false,"rental_uris":{"android":"levelo://app?vid=824c621c-a202-476e-adb4-d2ef81fa6574","ios":"levelo://app?vid=824c621c-a202-476e-adb4-d2ef81fa6574"},"vehicle_type_id":"4","last_reported":1769202702,"current_range_meters":9200,"station_id":"st_d4a3vfp97mjs738cd8kg","pricing_plan_id":"cebpf4jnsgd1na2vs0mg"},{"bike_id":"60e17fba-3b8a-4c94-a214-7485e58f4176","system_id":"levelo_inurba_marseille","lat":43.26369,"lon":5.41085,"is_reserved":false,"is_disabled":false,"rental_uris":{"android":"levelo://app?vid=60e17fba-3b8a-4c94-a214-7485e58f4176","ios":"levelo://app?vid=60e17fba-3b8a-4c94-a214-7485e58f4176"},"vehicle_type_id":"4","last_reported":1769202702,"current_range_meters":9600,"station_id":"st_d4e5ca6na9uc73bfl5fg","pricing_plan_id":"cebpf4jnsgd1na2vs0mg"},{"bike_id":"66c2f67d-9378-4299-a196-56e15500f607","system_id":"levelo_inurba_marseille","lat":43.24664,"lon":5.38149,"is_reserved":false,"is_disabled":false,"rental_uris":{"android":"levelo://app?vid=66c2f67d-9378-4299-a196-56e15500f607","ios":"levelo://app?vid=66c2f67d-9378-4299-a196-56e15500f607"},"vehicle_type_id":"4","last_reported":1769202702,"current_range_meters":9600,"station_id":"ce4bhih2rcd13ifvqfr0","pricing_plan_id":"cebpf4jnsgd1na2vs0mg"},{"bike_id":"7fbd08ac-4873-40ce-8348-00e50d4fd738","system_id":"levelo_inurba_marseille","lat":43.27163,"lon":5.40996,"is_reserved":false,"is_disabled":false,"rental_uris":{"android":"levelo://app?vid=7fbd08ac-4873-40ce-8348-00e50d4fd738","ios":"levelo://app?vid=7fbd08ac-4873-40ce-8348-00e50d4fd738"},"vehicle_type_id":"4","last_reported":1769202702,"current_range_meters":9600,"station_id":"ce4bhl12rcd13ifvqgf0","pricing_plan_id":"cebpf4jnsgd1na2vs0mg"},{"bike_id":"f95f1b41-c459-4716-90e0-3945d441d261","system_id":"levelo_inurba_marseille","lat":43.29707,"lon":5.36611,"is_reserved":false,"is_disabled":false,"rental_uris":{"android":"levelo://app?vid=f95f1b41-c459-4716-90e0-3945d441d261","ios":"levelo://app?vid=f95f1b41-c459-4716-90e0-3945d441d261"},"vehicle_type_id":"4","last_reported":1769202702,"current_range_meters":9600,"station_id":"ce4bgn12rcd13ifvqbt0","pricing_plan_id":"cebpf4jnsgd1na2vs0mg"},{"bike_id":"c4b9fb50-c1c1-45e2-a420-d27b5fd55927","system_id":"levelo_inurba_marseille","lat":43.23184,"lon":5.40001,"is_reserved":false,"is_disabled":false,"rental_uris":{"android":"levelo://app?vid=c4b9fb50-c1c1-45e2-a420-d27b5fd55927","ios":"levelo://app?vid=c4b9fb50-c1c1-45e2-a420-d27b5fd55927"},"vehicle_type_id":"4","last_reported":1769202702,"current_range_meters":9600,"station_id":"ce4bhn12rcd13ifvqgqg","pricing_plan_id":"cebpf4jnsgd1na2vs0mg"},{"bike_id":"dc3bd017-a36c-437c-a91a-6cab42202242","system_id":"levelo_inurba_marseille","lat":43.28529,"lon":5.44103,"is_reserved":false,"is_disabled":false,"rental_uris":{"android":"levelo://app?vid=dc3bd017-a36c-437c-a91a-6cab42202242","ios":"levelo://app?vid=dc3bd017-a36c-437c-a91a-6cab42202242"},"vehicle_type_id":"4","last_reported":1769202702,"current_range_meters":9600,"station_id":"st_d3j3df2ikq2c7380ej80","pricing_plan_id":"cebpf4jnsgd1na2vs0mg"},{"bike_id":"6212d7c7-04ef-43bf-8e1a-fca6f1495d5a","system_id":"levelo_inurba_marseille","lat":43.298148,"lon":5.440697,"is_reserved":false,"is_disabled":true,"rental_uris":{"android":"levelo://app?vid=6212d7c7-04ef-43bf-8e1a-fca6f1495d5a","ios":"levelo://app?vid=6212d7c7-04ef-43bf-8e1a-fca6f1495d5a"},"vehicle_type_id":"4","last_reported":1769202702,"current_range_meters":9600,"station_id":"","pricing_plan_id":"cebpf4jnsgd1na2vs0mg"},{"bike_id":"633bb5c9-2545-4867-a335-5a6913d4a81f","system_id":"levelo_inurba_marseille","lat":43.31113,"lon":5.37776,"is_reserved":false,"is_disabled":false,"rental_uris":{"android":"levelo://app?vid=633bb5c9-2545-4867-a335-5a6913d4a81f","ios":"levelo://app?vid=633bb5c9-2545-4867-a335-5a6913d4a81f"},"vehicle_type_id":"4","last_reported":1769202702,"current_range_meters":9600,"station_id":"ce4bgt92rcd13ifvqcg0","pricing_plan_id":"cebpf4jnsgd1na2vs0mg"},{"bike_id":"a45b2263-8932-4b9a-953f-0bf793914f71","system_id":"levelo_inurba_marseille","lat":43.29261,"lon":5.36841,"is_reserved":false,"is_disabled":false,"rental_uris":{"android":"levelo://app?vid=a45b2263-8932-4b9a-953f-0bf793914f71","ios":"levelo://app?vid=a45b2263-8932-4b9a-953f-0bf793914f71"},"vehicle_type_id":"4","last_reported":1769202702,"current_range_meters":9600,"station_id":"ce4bhbp2rcd13ifvqesg","pricing_plan_id":"cebpf4jnsgd1na2vs0mg"},{"bike_id":"e1d27491-b72b-4ef0-a0bb-689c46d99a28","system_id":"levelo_inurba_marseille","lat":43.28479,"lon":5.48414,"is_reserved":false,"is_disabled":false,"rental_uris":{"android":"levelo://app?vid=e1d27491-b72b-4ef0-a0bb-689c46d99a28","ios":"levelo://app?vid=e1d27491-b72b-4ef0-a0bb-689c46d99a28"},"vehicle_type_id":"4","last_reported":1769202702,"current_range_meters":9600,"station_id":"st_d3svhcjqgbts73a3dn0g","pricing_plan_id":"cebpf4jnsgd1na2vs0mg"},{"bike_id":"bdd65659-0a5e-48c6-b51d-f2a91bdd22d5","system_id":"levelo_inurba_marseille","lat":43.28461,"lon":5.35893,"is_reserved":false,"is_disabled":false,"rental_uris":{"android":"levelo://app?vid=bdd65659-0a5e-48c6-b51d-f2a91bdd22d5","ios":"levelo://app?vid=bdd65659-0a5e-48c6-b51d-f2a91bdd22d5"},"vehicle_type_id":"4","last_reported":1769202702,"current_range_meters":9600,"station_id":"ce4bhah2rcd13ifvqei0","pricing_plan_id":"cebpf4jnsgd1na2vs0mg"},{"bike_id":"33b8ea8f-7204-4afb-ae62-d27688a9f033","system_id":"levelo_inurba_marseille","lat":43.32152,"lon":5.36636,"is_reserved":false,"is_disabled":false,"rental_uris":{"android":"levelo://app?vid=33b8ea8f-7204-4afb-ae62-d27688a9f033","ios":"levelo://app?vid=33b8ea8f-7204-4afb-ae62-d27688a9f033"},"vehicle_type_id":"4","last_reported":1769202702,"current_range_meters":9600,"station_id":"","pricing_plan_id":"cebpf4jnsgd1na2vs0mg"},{"bike_id":"25a576da-3c6b-4f75-bf2d-f10640985333","system_id":"levelo_inurba_marseille","lat":43.30539,"lon":5.36668,"is_reserved":false,"is_disabled":false,"rental_uris":{"android":"levelo://app?vid=25a576da-3c6b-4f75-bf2d-f10640985333","ios":"levelo://app?vid=25a576da-3c6b-4f75-bf2d-f10640985333"},"vehicle_type_id":"4","last_reported":1769202702,"current_range_meters":9600,"station_id":"","pricing_plan_id":"cebpf4jnsgd1na2vs0mg"},{"bike_id":"bf5ddcd1-15d2-491d-b25c-68f3526a1caf","system_id":"levelo_inurba_marseille","lat":43.29218,"lon":5.3837,"is_reserved":false,"is_disabled":false,"rental_uris":{"android":"levelo://app?vid=bf5ddcd1-15d2-491d-b25c-68f3526a1caf","ios":"levelo://app?vid=bf5ddcd1-15d2-491d-b25c-68f3526a1caf"},"vehicle_type_id":"4","last_reported":1769202702,"current_range_meters":9600,"station_id":"","pricing_plan_id":"cebpf4jnsgd1na2vs0mg"},{"bike_id":"d4e112d2-ab7a-444f-a2ef-597ea4cfcd26","system_id":"levelo_inurba_marseille","lat":43.30742,"lon":5.40976,"is_reserved":false,"is_disabled":false,"rental_uris":{"android":"levelo://app?vid=d4e112d2-ab7a-444f-a2ef-597ea4cfcd26","ios":"levelo://app?vid=d4e112d2-ab7a-444f-a2ef-597ea4cfcd26"},"vehicle_type_id":"4","last_reported":1769202702,"current_range_meters":9600,"station_id":"","pricing_plan_id":"cebpf4jnsgd1na2vs0mg"},{"bike_id":"af0c53d6-32e7-4e05-99d2-ed965637b90a","system_id":"levelo_inurba_marseille","lat":43.29531,"lon":5.38536,"is_reserved":false,"is_disabled":false,"rental_uris":{"android":"levelo://app?vid=af0c53d6-32e7-4e05-99d2-ed965637b90a","ios":"levelo://app?vid=af0c53d6-32e7-4e05-99d2-ed965637b90a"},"vehicle_type_id":"4","last_reported":1769202702,"current_range_meters":9600,"station_id":"ce4bgih2rcd13ifvqba0","pricing_plan_id":"cebpf4jnsgd1na2vs0mg"},{"bike_id":"5c44d9da-a9f7-4333-ab1c-8bd91f24f729","system_id":"levelo_inurba_marseille","lat":43.22561,"lon":5.41622,"is_reserved":false,"is_disabled":false,"rental_uris":{"android":"levelo://app?vid=5c44d9da-a9f7-4333-ab1c-8bd91f24f729","ios":"levelo://app?vid=5c44d9da-a9f7-4333-ab1c-8bd91f24f729"},"vehicle_type_id":"4","last_reported":1769202702,"current_range_meters":9600,"station_id":"st_d2o4gvlbi1j2169b742g","pricing_plan_id":"cebpf4jnsgd1na2vs0mg"},{"bike_id":"ba883ae6-41d0-430b-b2c5-fa8f015c672b","system_id":"levelo_inurba_marseille","lat":43.30484,"lon":5.41075,"is_reserved":false,"is_disabled":false,"rental_uris":{"android":"levelo://app?vid=ba883ae6-41d0-430b-b2c5-fa8f015c672b","ios":"levelo://app?vid=ba883ae6-41d0-430b-b2c5-fa8f015c672b"},"vehicle_type_id":"4","last_reported":1769202702,"current_range_meters":9600,"station_id":"","pricing_plan_id":"cebpf4jnsgd1na2vs0mg"},{"bike_id":"903ed6fb-e30d-426f-a862-93953b3b0883","system_id":"levelo_inurba_marseille","lat":43.32388,"lon":5.36736,"is_reserved":false,"is_disabled":false,"rental_uris":{"android":"levelo://app?vid=903ed6fb-e30d-426f-a862-93953b3b0883","ios":"levelo://app?vid=903ed6fb-e30d-426f-a862-93953b3b0883"},"vehicle_type_id":"4","last_reported":1769202702,"current_range_meters":10000,"station_id":"","pricing_plan_id":"cebpf4jnsgd1na2vs0mg"},{"bike_id":"fbf1972c-97a7-40cb-9bd6-d9d20c672815","system_id":"levelo_inurba_marseille","lat":43.300015,"lon":5.430413,"is_reserved":false,"is_disabled":false,"rental_uris":{"android":"levelo://app?vid=fbf1972c-97a7-40cb-9bd6-d9d20c672815","ios":"levelo://app?vid=fbf1972c-97a7-40cb-9bd6-d9d20c672815"},"vehicle_type_id":"4","last_reported":1769202702,"current_range_meters":10000,"station_id":"","pricing_plan_id":"cebpf4jnsgd1na2vs0mg"},{"bike_id":"862cb741-2bf3-4242-8bdb-dee5bd865982","system_id":"levelo_inurba_marseille","lat":43.28942,"lon":5.36427,"is_reserved":false,"is_disabled":true,"rental_uris":{"android":"levelo://app?vid=862cb741-2bf3-4242-8bdb-dee5bd865982","ios":"levelo://app?vid=862cb741-2bf3-4242-8bdb-dee5bd865982"},"vehicle_type_id":"4","last_reported":1769202702,"current_range_meters":10000,"station_id":"ce4bhc92rcd13ifvqetg","pricing_plan_id":"cebpf4jnsgd1na2vs0mg"},{"bike_id":"f50ab09b-5d0e-47a7-a8be-db0e252af394","system_id":"levelo_inurba_marseille","lat":43.22533,"lon":5.41676,"is_reserved":false,"is_disabled":false,"rental_uris":{"android":"levelo://app?vid=f50ab09b-5d0e-47a7-a8be-db0e252af394","ios":"levelo://app?vid=f50ab09b-5d0e-47a7-a8be-db0e252af394"},"vehicle_type_id":"4","last_reported":1769202702,"current_range_meters":10000,"station_id":"","pricing_plan_id":"cebpf4jnsgd1na2vs0mg"},{"bike_id":"b019e1a9-e9bb-4a00-b8fa-7bb78b5700ac","system_id":"levelo_inurba_marseille","lat":43.32361,"lon":5.36773,"is_reserved":false,"is_disabled":false,"rental_uris":{"android":"levelo://app?vid=b019e1a9-e9bb-4a00-b8fa-7bb78b5700ac","ios":"levelo://app?vid=b019e1a9-e9bb-4a00-b8fa-7bb78b5700ac"},"vehicle_type_id":"4","last_reported":1769202702,"current_range_meters":10000,"station_id":"ce4bhsh2rcd13ifvqi2g","pricing_plan_id":"cebpf4jnsgd1na2vs0mg"},{"bike_id":"0c1db0f6-04c1-4e73-b12d-3dd98c0a03f3","system_id":"levelo_inurba_marseille","lat":43.3104,"lon":5.37215,"is_reserved":false,"is_disabled":false,"rental_uris":{"android":"levelo://app?vid=0c1db0f6-04c1-4e73-b12d-3dd98c0a03f3","ios":"levelo://app?vid=0c1db0f6-04c1-4e73-b12d-3dd98c0a03f3"},"vehicle_type_id":"4","last_reported":1769202702,"current_range_meters":10000,"station_id":"","pricing_plan_id":"cebpf4jnsgd1na2vs0mg"},