{"last_updated":1741252225,"ttl":60,"version":"2.2","data":{"bikes":[{"bike_id":"a6623549-fd86-4971-9ca4-f4d52df6df2e","system_id":"levelo_inurba_marseille","lat":43.23154,"lon":5.43706,"is_reserved":false,"is_disabled":false,"rental_uris":{"android":"levelo://app?vid=a6623549-fd86-4971-9ca4-f4d52df6df2e","ios":"levelo://app?vid=a6623549-fd86-4971-9ca4-f4d52df6df2e"},"vehicle_type_id":"4","last_reported":1741252226,"current_range_meters":2000,"station_id":"ce4bhmp2rcd13ifvqgog","pricing_plan_id":"cebpf4jnsgd1na2vs0mg"},{"bike_id":"8fe93df6-2fe6-41ee-aeb3-48d22ff05290","system_id":"levelo_inurba_marseille","lat":43.29164,"lon":5.38607,"is_reserved":false,"is_disabled":false,"rental_uris":{"android":"levelo://app?vid=8fe93df6-2fe6-41ee-aeb3-48d22ff05290","ios":"levelo://app?vid=8fe93df6-2fe6-41ee-aeb3-48d22ff05290"},"vehicle_type_id":"4","last_reported":1741252226,"current_range_meters":2800,"station_id":"","pricing_plan_id":"cebpf4jnsgd1na2vs0mg"},{"bike_id":"c0b87da3-53dc-49e0-8ac0-241b36c7a10b","system_id":"levelo_inurba_marseille","lat":43.29043,"lon":5.37552,"is_reserved":false,"is_disabled":false,"rental_uris":{"android":"levelo://app?vid=c0b87da3-53dc-49e0-8ac0-241b36c7a10b","ios":"levelo://app?vid=c0b87da3-53dc-49e0-8ac0-241b36c7a10b"},"vehicle_type_id":"4","last_reported":1741252226,"current_range_meters":2800,"station_id":"ce4bh692rcd13ifvqe90","pricing_plan_id":"cebpf4jnsgd1na2vs0mg"},{"bike_id":"cce0318a-6d0e-4d52-af2b-2e264c1324c8","system_id":"levelo_inurba_marseille","lat":43.29169,"lon":5.37166,"is_reserved":false,"is_disabled":false,"rental_uris":{"android":"levelo://app?vid=cce0318a-6d0e-4d52-af2b-2e264c1324c8","ios":"levelo://app?vid=cce0318a-6d0e-4d52-af2b-2e264c1324c8"},"vehicle_type_id":"4","last_reported":1741252226,"current_range_meters":2800,"station_id":"ce4bha92rcd13ifvqeh0","pricing_plan_id":"cebpf4jnsgd1na2vs0mg"},{"bike_id":"e0996d6b-c42b-4876-ad9d-2c6287e06fff","system_id":"levelo_inurba_marseille","lat":43.2408,"lon":5.37758,"is_reserved":false,"is_disabled":false,"rental_uris":{"android":"levelo://app?vid=e0996d6b-c42b-4876-ad9d-2c6287e06fff","ios":"levelo://app?vid=e0996d6b-c42b-4876-ad9d-2c6287e06fff"},"vehicle_type_id":"4","last_reported":1741252226,"current_range_meters":2000,"station_id":"ce4bhnp2rcd13ifvqgvg","pricing_plan_id":"cebpf4jnsgd1na2vs0mg"},{"bike_id":"54991513-f878-4116-a08f-541b88281cf9","system_id":"levelo_inurba_marseille","lat":43.27997,"lon":5.40007,"is_reserved":false,"is_disabled":true,"rental_uris":{"android":"levelo://app?vid=54991513-f878-4116-a08f-541b88281cf9","ios":"levelo://app?vid=54991513-f878-4116-a08f-541b88281cf9"},"vehicle_type_id":"4","last_reported":1741252226,"current_range_meters":2800,"station_id":"ce4bho92rcd13ifvqh4g","pricing_plan_id":"cebpf4jnsgd1na2vs0mg"},{"bike_id":"a96d146c-920f-48e5-b996-709d9b2bebf7","system_id":"levelo_inurba_marseille","lat":43.3376,"lon":5.374795,"is_reserved":false,"is_disabled":false,"rental_uris":{"android":"levelo://app?vid=a96d146c-920f-48e5-b996-709d9b2bebf7","ios":"levelo://app?vid=a96d146c-920f-48e5-b996-709d9b2bebf7"},"vehicle_type_id":"4","last_reported":1741252226,"current_range_meters":2800,"station_id":"","pricing_plan_id":"cebpf4jnsgd1na2vs0mg"},{"bike_id":"43b829a2-e76e-43b9-a17d-61d9eff9306d","system_id":"levelo_inurba_marseille","lat":43.29925,"lon":5.37484,"is_reserved":false,"is_disabled":false,"rental_uris":{"android":"levelo://app?vid=43b829a2-e76e-43b9-a17d-61d9eff9306d","ios":"levelo://app?vid=43b829a2-e76e-43b9-a17d-61d9eff9306d"},"vehicle_type_id":"4","last_reported":1741252226,"current_range_meters":3200,"station_id":"ce4bgjh2rcd13ifvqbg0","pricing_plan_id":"cebpf4jnsgd1na2vs0mg"},{"bike_id":"d1036841-bcdc-450d-813f-db392c9c8545","system_id":"levelo_inurba_marseille","lat":43.25084,"lon":5.40357,"is_reserved":false,"is_disabled":false,"rental_uris":{"android":"levelo://app?vid=d1036841-bcdc-450d-813f-db392c9c8545","ios":"levelo://app?vid=d1036841-bcdc-450d-813f-db392c9c8545"},"vehicle_type_id":"4","last_reported":1741252226,"current_range_meters":3200,"station_id":"ce4bhlh2rcd13ifvqgig","pricing_plan_id":"cebpf4jnsgd1na2vs0mg"},{"bike_id":"ee1d2ad1-36ca-49dd-a328-f2a9a9994ecb","system_id":"levelo_inurba_marseille","lat":43.31072,"lon":5.38163,"is_reserved":false,"is_disabled":false,"rental_uris":{"android":"levelo://app?vid=ee1d2ad1-36ca-49dd-a328-f2a9a9994ecb","ios":"levelo://app?vid=ee1d2ad1-36ca-49dd-a328-f2a9a9994ecb"},"vehicle_type_id":"4","last_reported":1741252226,"current_range_meters":3200,"station_id":"","pricing_plan_id":"cebpf4jnsgd1na2vs0mg"},{"bike_id":"85b21051-ddc6-4038-a7c1-a9f92926149a","system_id":"levelo_inurba_marseille","lat":43.27494,"lon":5.42453,"is_reserved":false,"is_disabled":false,"rental_uris":{"android":"levelo://app?vid=85b21051-ddc6-4038-a7c1-a9f92926149a","ios":"levelo://app?vid=85b21051-ddc6-4038-a7c1-a9f92926149a"},"vehicle_type_id":"4","last_reported":1741252226,"current_range_meters":3200,"station_id":"ce4bhn92rcd13ifvqgrg","pricing_plan_id":"cebpf4jnsgd1na2vs0mg"},{"bike_id":"cb379330-9ecf-41f8-afbd-727337f4b1df","system_id":"levelo_inurba_marseille","lat":43.31376,"lon":5.36689,"is_reserved":false,"is_disabled":false,"rental_uris":{"android":"levelo://app?vid=cb379330-9ecf-41f8-afbd-727337f4b1df","ios":"levelo://app?vid=cb379330-9ecf-41f8-afbd-727337f4b1df"},"vehicle_type_id":"4","last_reported":1741252226,"current_range_meters":3200,"station_id":"ce4bgr92rcd13ifvqc6g","pricing_plan_id":"cebpf4jnsgd1na2vs0mg"},{"bike_id":"8f3fb0d7-beaf-4b83-8c57-537c0ab44d51","system_id":"levelo_inurba_marseille","lat":43.24078,"lon":5.37757,"is_reserved":false,"is_disabled":false,"rental_uris":{"android":"levelo://app?vid=8f3fb0d7-beaf-4b83-8c57-537c0ab44d51","ios":"levelo://app?vid=8f3fb0d7-beaf-4b83-8c57-537c0ab44d51"},"vehicle_type_id":"4","last_reported":1741252226,"current_range_meters":3200,"station_id":"ce4bhnp2rcd13ifvqgvg","pricing_plan_id":"cebpf4jnsgd1na2vs0mg"},{"bike_id":"460ed211-1b1c-4bb1-84bb-3bd30698912f","system_id":"levelo_inurba_marseille","lat":43.24187,"lon":5.39731,"is_reserved":false,"is_disabled":false,"rental_uris":{"android":"levelo://app?vid=460ed211-1b1c-4bb1-84bb-3bd30698912f","ios":"levelo://app?vid=460ed211-1b1c-4bb1-84bb-3bd30698912f"},"vehicle_type_id":"4","last_reported":1741252226,"current_range_meters":3200,"station_id":"ce4bhn12rcd13ifvqgpg","pricing_plan_id":"cebpf4jnsgd1na2vs0mg"},{"bike_id":"83700fff-7841-4f11-a566-8e6e9ed8d5b0","system_id":"levelo_inurba_marseille","lat":43.28357,"lon":5.38098,"is_reserved":false,"is_disabled":false,"rental_uris":{"android":"levelo://app?vid=83700fff-7841-4f11-a566-8e6e9ed8d5b0","ios":"levelo://app?vid=83700fff-7841-4f11-a566-8e6e9ed8d5b0"},"vehicle_type_id":"4","last_reported":1741252226,"current_range_meters":2800,"station_id":"ce4bh412rcd13ifvqdr0","pricing_plan_id":"cebpf4jnsgd1na2vs0mg"},{"bike_id":"60dd8fe2-7382-4f3b-b539-28998377b361","system_id":"levelo_inurba_marseille","lat":43.2956,"lon":5.39397,"is_reserved":false,"is_disabled":false,"rental_uris":{"android":"levelo://app?vid=60dd8fe2-7382-4f3b-b539-28998377b361","ios":"levelo://app?vid=60dd8fe2-7382-4f3b-b539-28998377b361"},"vehicle_type_id":"4","last_reported":1741252226,"current_range_meters":3200,"station_id":"ce4bh292rcd13ifvqdf0","pricing_plan_id":"cebpf4jnsgd1na2vs0mg"},{"bike_id":"6639ce3d-ec2d-4174-87d0-be75bf163dad","system_id":"levelo_inurba_marseille","lat":43.29816,"lon":5.38084,"is_reserved":false,"is_disabled":false,"rental_uris":{"android":"levelo://app?vid=6639ce3d-ec2d-4174-87d0-be75bf163dad","ios":"levelo://app?vid=6639ce3d-ec2d-4174-87d0-be75bf163dad"},"vehicle_type_id":"4","last_reported":1741252226,"current_range_meters":3600,"station_id":"ce4bgip2rcd13ifvqbb0","pricing_plan_id":"cebpf4jnsgd1na2vs0mg"},{"bike_id":"a192c267-5938-4aa7-8ef1-60d2d01ee328","system_id":"levelo_inurba_marseille","lat":43.31229,"lon":5.36865,"is_reserved":false,"is_disabled":false,"rental_uris":{"android":"levelo://app?vid=a192c267-5938-4aa7-8ef1-60d2d01ee328","ios":"levelo://app?vid=a192c267-5938-4aa7-8ef1-60d2d01ee328"},"vehicle_type_id":"4","last_reported":1741252226,"current_range_meters":3600,"station_id":"ce4bgl92rcd13ifvqbq0","pricing_plan_id":"cebpf4jnsgd1na2vs0mg"},{"bike_id":"c3e12cd0-5b55-4fa8-9b46-bb2eb8bd5487","system_id":"levelo_inurba_marseille","lat":43.30924,"lon":5.40151,"is_reserved":false,"is_disabled":true,"rental_uris":{"android":"levelo://app?vid=c3e12cd0-5b55-4fa8-9b46-bb2eb8bd5487","ios":"levelo://app?vid=c3e12cd0-5b55-4fa8-9b46-bb2eb8bd5487"},"vehicle_type_id":"4","last_reported":1741252226,"current_range_meters":3600,"station_id":"ce4bgvp2rcd13ifvqct0","pricing_plan_id":"cebpf4jnsgd1na2vs0mg"},{"bike_id":"e992344b-2a19-477e-8efb-662fdf0ee9ad","system_id":"levelo_inurba_marseille","lat":43.27317,"lon":5.39108,"is_reserved":false,"is_disabled":false,"rental_uris":{"android":"levelo://app?vid=e992344b-2a19-477e-8efb-662fdf0ee9ad","ios":"levelo://app?vid=e992344b-2a19-477e-8efb-662fdf0ee9ad"},"vehicle_type_id":"4","last_reported":1741252226,"current_range_meters":3600,"station_id":"ce4bhgp2rcd13ifvqfe0","pricing_plan_id":"cebpf4jnsgd1na2vs0mg"},{"bike_id":"8a77dcc0-fb3a-4e57-96c0-17d2b233fd77","system_id":"levelo_inurba_marseille","lat":43.28695,"lon":5.37956,"is_reserved":false,"is_disabled":false,"rental_uris":{"android":"levelo://app?vid=8a77dcc0-fb3a-4e57-96c0-17d2b233fd77","ios":"levelo://app?vid=8a77dcc0-fb3a-4e57-96c0-17d2b233fd77"},"vehicle_type_id":"4","last_reported":1741252226,"current_range_meters":4000,"station_id":"ce4bh9p2rcd13ifvqec0","pricing_plan_id":"cebpf4jnsgd1na2vs0mg"},{"bike_id":"f2edebef-1288-4e72-8297-1f8e55d4d668","system_id":"levelo_inurba_marseille","lat":43.23151,"lon":5.43715,"is_reserved":false,"is_disabled":true,"rental_uris":{"android":"levelo://app?vid=f2edebef-1288-4e72-8297-1f8e55d4d668","ios":"levelo://app?vid=f2edebef-1288-4e72-8297-1f8e55d4d668"},"vehicle_type_id":"4","last_reported":1741252226,"current_range_meters":3600,"station_id":"ce4bhmp2rcd13ifvqgog","pricing_plan_id":"cebpf4jnsgd1na2vs0mg"},{"bike_id":"5d327b88-d8a2-4c59-9a43-4a7a4b07402a","system_id":"levelo_inurba_marseille","lat":43.29524,"lon":5.39031,"is_reserved":false,"is_disabled":true,"rental_uris":{"android":"levelo://app?vid=5d327b88-d8a2-4c59-9a43-4a7a4b07402a","ios":"levelo://app?vid=5d327b88-d8a2-4c59-9a43-4a7a4b07402a"},"vehicle_type_id":"4","last_reported":1741252226,"current_range_meters":4000,"station_id":"ce4bh3p2rcd13ifvqdp0","pricing_plan_id":"cebpf4jnsgd1na2vs0mg"},{"bike_id":"bc28d2af-5623-42ae-bdef-43ec4e1bde8c","system_id":"levelo_inurba_marseille","lat":43.30522,"lon":5.36535,"is_reserved":false,"is_disabled":false,"rental_uris":{"android":"levelo://app?vid=bc28d2af-5623-42ae-bdef-43ec4e1bde8c","ios":"levelo://app?vid=bc28d2af-5623-42ae-bdef-43ec4e1bde8c"},"vehicle_type_id":"4","last_reported":1741252226,"current_range_meters":4000,"station_id":"ce4bgs12rcd13ifvqcag","pricing_plan_id":"cebpf4jnsgd1na2vs0mg"},{"bike_id":"f6662bde-1632-4b0f-a966-f86b33b7c3b9","system_id":"levelo_inurba_marseille","lat":43.33768,"lon":5.37504,"is_reserved":false,"is_disabled":false,"rental_uris":{"android":"levelo://app?vid=f6662bde-1632-4b0f-a966-f86b33b7c3b9","ios":"levelo://app?vid=f6662bde-1632-4b0f-a966-f86b33b7c3b9"},"vehicle_type_id":"4","last_reported":1741252226,"current_range_meters":4400,"station_id":"","pricing_plan_id":"cebpf4jnsgd1na2vs0mg"},{"bike_id":"4b6c0f8d-5b52-4a74-ac05-9bf63ac5d49c","system_id":"levelo_inurba_marseille","lat":43.31883,"lon":5.4073,"is_reserved":false,"is_disabled":false,"rental_uris":{"android":"levelo://app?vid=4b6c0f8d-5b52-4a74-ac05-9bf63ac5d49c","ios":"levelo://app?vid=4b6c0f8d-5b52-4a74-ac05-9bf63ac5d49c"},"vehicle_type_id":"4","last_reported":1741252226,"current_range_meters":4400,"station_id":"ce4bhq12rcd13ifvqhig","pricing_plan_id":"cebpf4jnsgd1na2vs0mg"},{"bike_id":"dcfce61a-aeb2-4e27-bfee-7d62e9660ef4","system_id":"levelo_inurba_marseille","lat":43.30252,"lon":5.37732,"is_reserved":false,"is_disabled":false,"rental_uris":{"android":"levelo://app?vid=dcfce61a-aeb2-4e27-bfee-7d62e9660ef4","ios":"levelo://app?vid=dcfce61a-aeb2-4e27-bfee-7d62e9660ef4"},"vehicle_type_id":"4","last_reported":1741252226,"current_range_meters":4400,"station_id":"ce4bguh2rcd13ifvqcj0","pricing_plan_id":"cebpf4jnsgd1na2vs0mg"},{"bike_id":"49a530f5-70f2-4458-a0b0-fcf041820830","system_id":"levelo_inurba_marseille","lat":43.29169,"lon":5.37164,"is_reserved":false,"is_disabled":false,"rental_uris":{"android":"levelo://app?vid=49a530f5-70f2-4458-a0b0-fcf041820830","ios":"levelo://app?vid=49a530f5-70f2-4458-a0b0-fcf041820830"},"vehicle_type_id":"4","last_reported":1741252226,"current_range_meters":4400,"station_id":"ce4bha92rcd13ifvqeh0","pricing_plan_id":"cebpf4jnsgd1na2vs0mg"},{"bike_id":"9796ac4f-13e5-41cd-993f-35b958fd78f1","system_id":"levelo_inurba_marseille","lat":43.30957,"lon":5.39063,"is_reserved":false,"is_disabled":false,"rental_uris":{"android":"levelo://app?vid=9796ac4f-13e5-41cd-993f-35b958fd78f1","ios":"levelo://app?vid=9796ac4f-13e5-41cd-993f-35b958fd78f1"},"vehicle_type_id":"4","last_reported":1741252226,"current_range_meters":4400,"station_id":"ce4bgup2rcd13ifvqco0","pricing_plan_id":"cebpf4jnsgd1na2vs0mg"},{"bike_id":"624c9ede-3bdd-4f76-ad6d-9889cc81cb8e","system_id":"levelo_inurba_marseille","lat":43.3009,"lon":5.39072,"is_reserved":false,"is_disabled":false,"rental_uris":{"android":"levelo://app?vid=624c9ede-3bdd-4f76-ad6d-9889cc81cb8e","ios":"levelo://app?vid=624c9ede-3bdd-4f76-ad6d-9889cc81cb8e"},"vehicle_type_id":"4","last_reported":1741252226,"current_range_meters":4400,"station_id":"ce4bh192rcd13ifvqdb0","pricing_plan_id":"cebpf4jnsgd1na2vs0mg"},{"bike_id":"09586ae6-733d-4cb6-9f48-f6a3ebe4e905","system_id":"levelo_inurba_marseille","lat":43.27521,"lon":5.42465,"is_reserved":false,"is_disabled":false,"rental_uris":{"android":"levelo://app?vid=09586ae6-733d-4cb6-9f48-f6a3ebe4e905","ios":"levelo://app?vid=09586ae6-733d-4cb6-9f48-f6a3ebe4e905"},"vehicle_type_id":"4","last_reported":1741252226,"current_range_meters":4400,"station_id":"ce4bhn92rcd13ifvqgrg","pricing_plan_id":"cebpf4jnsgd1na2vs0mg"},{"bike_id":"3063672c-c72f-4b32-97ec-bd70efc91353","system_id":"levelo_inurba_marseille","lat":43.29044,"lon":5.37555,"is_reserved":false,"is_disabled":false,"rental_uris":{"android":"levelo://app?vid=3063672c-c72f-4b32-97ec-bd70efc91353","ios":"levelo://app?vid=3063672c-c72f-4b32-97ec-bd70efc91353"},"vehicle_type_id":"4","last_reported":1741252226,"current_range_meters":4400,"station_id":"ce4bh692rcd13ifvqe90","pricing_plan_id":"cebpf4jnsgd1na2vs0mg"},{"bike_id":"2063fb87-ac75-4891-94b8-cf14f2e7bc21","system_id":"levelo_inurba_marseille","lat":43.30921,"lon":5.36853,"is_reserved":false,"is_disabled":false,"rental_uris":{"android":"levelo://app?vid=2063fb87-ac75-4891-94b8-cf14f2e7bc21","ios":"levelo://app?vid=2063fb87-ac75-4891-94b8-cf14f2e7bc21"},"vehicle_type_id":"4","last_reported":1741252226,"current_range_meters":4400,"station_id":"ce4bgn92rcd13ifvqbvg","pricing_plan_id":"cebpf4jnsgd1na2vs0mg"},{"bike_id":"1a46a330-1e7a-4d22-8b76-01111d841da5","system_id":"levelo_inurba_marseille","lat":43.29586,"lon":5.36743,"is_reserved":false,"is_disabled":false,"rental_uris":{"android":"levelo://app?vid=1a46a330-1e7a-4d22-8b76-01111d841da5","ios":"levelo://app?vid=1a46a330-1e7a-4d22-8b76-01111d841da5"},"vehicle_type_id":"4","last_reported":1741252226,"current_range_meters":4400,"station_id":"ce4bgph2rcd13ifvqc2g","pricing_plan_id":"cebpf4jnsgd1na2vs0mg"},{"bike_id":"44a7153b-0fd7-4509-836b-676bbf84fb06","system_id":"levelo_inurba_marseille","lat":43.23174,"lon":5.3556,"is_reserved":false,"is_disabled":false,"rental_uris":{"android":"levelo://app?vid=44a7153b-0fd7-4509-836b-676bbf84fb06","ios":"levelo://app?vid=44a7153b-0fd7-4509-836b-676bbf84fb06"},"vehicle_type_id":"4","last_reported":1741252226,"current_range_meters":4400,"station_id":"ce4bhu92rcd13ifvqi70","pricing_plan_id":"cebpf4jnsgd1na2vs0mg"},{"bike_id":"9f76210d-4d3f-4a6b-81a5-10d8db3c8d11","system_id":"levelo_inurba_marseille","lat":43.28717,"lon":5.37946,"is_reserved":false,"is_disabled":false,"rental_uris":{"android":"levelo://app?vid=9f76210d-4d3f-4a6b-81a5-10d8db3c8d11","ios":"levelo://app?vid=9f76210d-4d3f-4a6b-81a5-10d8db3c8d11"},"vehicle_type_id":"4","last_reported":1741252226,"current_range_meters":5600,"station_id":"ce4bh9p2rcd13ifvqec0","pricing_plan_id":"cebpf4jnsgd1na2vs0mg"},{"bike_id":"c9181474-071a-48c1-9e23-dc6456f80bde","system_id":"levelo_inurba_marseille","lat":43.32098,"lon":5.36778,"is_reserved":false,"is_disabled":false,"rental_uris":{"android":"levelo://app?vid=c9181474-071a-48c1-9e23-dc6456f80bde","ios":"levelo://app?vid=c9181474-071a-48c1-9e23-dc6456f80bde"},"vehicle_type_id":"4","last_reported":1741252226,"current_range_meters":5600,"station_id":"ce4bhrh2rcd13ifvqhug","pricing_plan_id":"cebpf4jnsgd1na2vs0mg"},{"bike_id":"d20bfba6-3a43-4261-a14b-d008a17bf89a","system_id":"levelo_inurba_marseille","lat":43.24391,"lon":5.37064,"is_reserved":false,"is_disabled":false,"rental_uris":{"android":"levelo://app?vid=d20bfba6-3a43-4261-a14b-d008a17bf89a","ios":"levelo://app?vid=d20bfba6-3a43-4261-a14b-d008a17bf89a"},"vehicle_type_id":"4","last_reported":1741252226,"current_range_meters":5600,"station_id":"ce4bhhh2rcd13ifvqfk0","pricing_plan_id":"cebpf4jnsgd1na2vs0mg"},{"bike_id":"ab64e59d-3677-4cec-a930-9a208875beda","system_id":"levelo_inurba_marseille","lat":43.29715,"lon":5.37711,"is_reserved":false,"is_disabled":false,"rental_uris":{"android":"levelo://app?vid=ab64e59d-3677-4cec-a930-9a208875beda","ios":"levelo://app?vid=ab64e59d-3677-4cec-a930-9a208875beda"},"vehicle_type_id":"4","last_reported":1741252226,"current_range_meters":4800,"station_id":"ce4bgkh2rcd13ifvqbl0","pricing_plan_id":"cebpf4jnsgd1na2vs0mg"},{"bike_id":"5f8f0693-d520-43eb-bc16-636997028df9","system_id":"levelo_inurba_marseille","lat":43.26683,"lon":5.38283,"is_reserved":false,"is_disabled":false,"rental_uris":{"android":"levelo://app?vid=5f8f0693-d520-43eb-bc16-636997028df9","ios":"levelo://app?vid=5f8f0693-d520-43eb-bc16-636997028df9"},"vehicle_type_id":"4","last_reported":1741252226,"current_range_meters":5600,"station_id":"ce4bhg92rcd13ifvqf90","pricing_plan_id":"cebpf4jnsgd1na2vs0mg"},{"bike_id":"35a9cd89-362d-40dd-b65c-512ecc9b1a6c","system_id":"levelo_inurba_marseille","lat":43.28142,"lon":5.42645,"is_reserved":false,"is_disabled":false,"rental_uris":{"android":"levelo://app?vid=35a9cd89-362d-40dd-b65c-512ecc9b1a6c","ios":"levelo://app?vid=35a9cd89-362d-40dd-b65c-512ecc9b1a6c"},"vehicle_type_id":"4","last_reported":1741252226,"current_range_meters":6000,"station_id":"ce4bhnh2rcd13ifvqgug","pricing_plan_id":"cebpf4jnsgd1na2vs0mg"},{"bike_id":"d5083df6-980d-4044-b8d5-3d96f31409ea","system_id":"levelo_inurba_marseille","lat":43.2695,"lon":5.38639,"is_reserved":false,"is_disabled":false,"rental_uris":{"android":"levelo://app?vid=d5083df6-980d-4044-b8d5-3d96f31409ea","ios":"levelo://app?vid=d5083df6-980d-4044-b8d5-3d96f31409ea"},"vehicle_type_id":"4","last_reported":1741252226,"current_range_meters":6000,"station_id":"ce4bhh92rcd13ifvqfh0","pricing_plan_id":"cebpf4jnsgd1na2vs0mg"},{"bike_id":"ff018375-a2a6-43a0-8b69-9ec01bac048c","system_id":"levelo_inurba_marseille","lat":43.26218,"lon":5.40467,"is_reserved":false,"is_disabled":false,"rental_uris":{"android":"levelo://app?vid=ff018375-a2a6-43a0-8b69-9ec01bac048c","ios":"levelo://app?vid=ff018375-a2a6-43a0-8b69-9ec01bac048c"},"vehicle_type_id":"4","last_reported":1741252226,"current_range_meters":6400,"station_id":"ce4bhmh2rcd13ifvqgmg","pricing_plan_id":"cebpf4jnsgd1na2vs0mg"},{"bike_id":"818ebfb9-2613-43a7-b856-530ff05a8208","system_id":"levelo_inurba_marseille","lat":43.24078,"lon":5.37754,"is_reserved":false,"is_disabled":false,"rental_uris":{"android":"levelo://app?vid=818ebfb9-2613-43a7-b856-530ff05a8208","ios":"levelo://app?vid=818ebfb9-2613-43a7-b856-530ff05a8208"},"vehicle_type_id":"4","last_reported":1741252226,"current_range_meters":6400,"station_id":"ce4bhnp2rcd13ifvqgvg","pricing_plan_id":"cebpf4jnsgd1na2vs0mg"},{"bike_id":"52e5b3fd-1203-4c88-88f5-b8bf5c22f0ec","system_id":"levelo_inurba_marseille","lat":43.26691,"lon":5.38286,"is_reserved":false,"is_disabled":false,"rental_uris":{"android":"levelo://app?vid=52e5b3fd-1203-4c88-88f5-b8bf5c22f0ec","ios":"levelo://app?vid=52e5b3fd-1203-4c88-88f5-b8bf5c22f0ec"},"vehicle_type_id":"4","last_reported":1741252226,"current_range_meters":6400,"station_id":"ce4bhg92rcd13ifvqf90","pricing_plan_id":"cebpf4jnsgd1na2vs0mg"},{"bike_id":"dbf02f2f-e988-40fd-8f5f-ccb102ad34f7","system_id":"levelo_inurba_marseille","lat":43.29034,"lon":5.39969,"is_reserved":false,"is_disabled":false,"rental_uris":{"android":"levelo://app?vid=dbf02f2f-e988-40fd-8f5f-ccb102ad34f7","ios":"levelo://app?vid=dbf02f2f-e988-40fd-8f5f-ccb102ad34f7"},"vehicle_type_id":"4","last_reported":1741252226,"current_range_meters":6400,"station_id":"ce4bh392rcd13ifvqdm0","pricing_plan_id":"cebpf4jnsgd1na2vs0mg"},{"bike_id":"9993451f-799b-406b-a3da-253f53ed57ce","system_id":"levelo_inurba_marseille","lat":43.24647,"lon":5.38925,"is_reserved":false,"is_disabled":false,"rental_uris":{"android":"levelo://app?vid=9993451f-799b-406b-a3da-253f53ed57ce","ios":"levelo://app?vid=9993451f-799b-406b-a3da-253f53ed57ce"},"vehicle_type_id":"4","last_reported":1741252226,"current_range_meters":6400,"station_id":"ce4bhg12rcd13ifvqf60","pricing_plan_id":"cebpf4jnsgd1na2vs0mg"},{"bike_id":"3439a580-4b13-4596-bc3a-9d40342307f1","system_id":"levelo_inurba_marseille","lat":43.32099,"lon":5.36785,"is_reserved":false,"is_disabled":false,"rental_uris":{"android":"levelo://app?vid=3439a580-4b13-4596-bc3a-9d40342307f1","ios":"levelo://app?vid=3439a580-4b13-4596-bc3a-9d40342307f1"},"vehicle_type_id":"4","last_reported":1741252226,"current_range_meters":6400,"station_id":"ce4bhrh2rcd13ifvqhug","pricing_plan_id":"cebpf4jnsgd1na2vs0mg"},{"bike_id":"1c0978b7-e0b0-4c04-8863-236630968acd","system_id":"levelo_inurba_marseille","lat":43.25919,"lon":5.40902,"is_reserved":false,"is_disabled":false,"rental_uris":{"android":"levelo://app?vid=1c0978b7-e0b0-4c04-8863-236630968acd","ios":"levelo://app?vid=1c0978b7-e0b0-4c04-8863-236630968acd"},"vehicle_type_id":"4","last_reported":1741252226,"current_range_meters":6800,"station_id":"ce4bhm92rcd13ifvqglg","pricing_plan_id":"cebpf4jnsgd1na2vs0mg"},{"bike_id":"61233c23-f212-4002-9d78-8146b9e7ebb1","system_id":"levelo_inurba_marseille","lat":43.29956,"lon":5.41329,"is_reserved":false,"is_disabled":false,"rental_uris":{"android":"levelo://app?vid=61233c23-f212-4002-9d78-8146b9e7ebb1","ios":"levelo://app?vid=61233c23-f212-4002-9d78-8146b9e7ebb1"},"vehicle_type_id":"4","last_reported":1741252226,"current_range_meters":6800,"station_id":"ce4bhp12rcd13ifvqh9g","pricing_plan_id":"cebpf4jnsgd1na2vs0mg"},{"bike_id":"9b961e80-4b52-4281-8069-573178879577","system_id":"levelo_inurba_marseille","lat":43.24059,"lon":5.37686,"is_reserved":false,"is_disabled":false,"rental_uris":{"android":"levelo://app?vid=9b961e80-4b52-4281-8069-573178879577","ios":"levelo://app?vid=9b961e80-4b52-4281-8069-573178879577"},"vehicle_type_id":"4","last_reported":1741252226,"current_range_meters":6800,"station_id":"ce4bhnp2rcd13ifvqgvg","pricing_plan_id":"cebpf4jnsgd1na2vs0mg"},{"bike_id":"97399946-e3e6-4c82-9064-b3472fe1a6d0","system_id":"levelo_inurba_marseille","lat":43.26217,"lon":5.40452,"is_reserved":false,"is_disabled":true,"rental_uris":{"android":"levelo://app?vid=97399946-e3e6-4c82-9064-b3472fe1a6d0","ios":"levelo://app?vid=97399946-e3e6-4c82-9064-b3472fe1a6d0"},"vehicle_type_id":"4","last_reported":1741252226,"current_range_meters":6800,"station_id":"","pricing_plan_id":"cebpf4jnsgd1na2vs0mg"},{"bike_id":"2f20afa8-c778-4563-982f-2f8bc94920c9","system_id":"levelo_inurba_marseille","lat":43.29842,"lon":5.36273,"is_reserved":false,"is_disabled":false,"rental_uris":{"android":"levelo://app?vid=2f20afa8-c778-4563-982f-2f8bc94920c9","ios":"levelo://app?vid=2f20afa8-c778-4563-982f-2f8bc94920c9"},"vehicle_type_id":"4","last_reported":1741252226,"current_range_meters":6800,"station_id":"ce4bgpp2rcd13ifvqc3g","pricing_plan_id":"cebpf4jnsgd1na2vs0mg"},{"bike_id":"ff22ac5f-4107-4c43-91dd-83932ff30650","system_id":"levelo_inurba_marseille","lat":43.33773,"lon":5.37492,"is_reserved":false,"is_disabled":true,"rental_uris":{"android":"levelo://app?vid=ff22ac5f-4107-4c43-91dd-83932ff30650","ios":"levelo://app?vid=ff22ac5f-4107-4c43-91dd-83932ff30650"},"vehicle_type_id":"4","last_reported":1741252226,"current_range_meters":6800,"station_id":"","pricing_plan_id":"cebpf4jnsgd1na2vs0mg"},{"bike_id":"93c6d989-0cf6-46fc-98ce-814eb16de367","system_id":"levelo_inurba_marseille","lat":43.29218,"lon":5.39324,"is_reserved":false,"is_disabled":false,"rental_uris":{"android":"levelo://app?vid=93c6d989-0cf6-46fc-98ce-814eb16de367","ios":"levelo://app?vid=93c6d989-0cf6-46fc-98ce-814eb16de367"},"vehicle_type_id":"4","last_reported":1741252226,"current_range_meters":6800,"station_id":"ce4bh192rcd13ifvqdd0","pricing_plan_id":"cebpf4jnsgd1na2vs0mg"},{"bike_id":"e9993293-cb22-4b58-9104-8ef93003d618","system_id":"levelo_inurba_marseille","lat":43.26668,"lon":5.38258,"is_reserved":false,"is_disabled":false,"rental_uris":{"android":"levelo://app?vid=e9993293-cb22-4b58-9104-8ef93003d618","ios":"levelo://app?vid=e9993293-cb22-4b58-9104-8ef93003d618"},"vehicle_type_id":"4","last_reported":1741252226,"current_range_meters":6800,"station_id":"ce4bhg92rcd13ifvqf90","pricing_plan_id":"cebpf4jnsgd1na2vs0mg"},{"bike_id":"e59fccdd-f60b-4fcf-8101-4a747bffb1c1","system_id":"levelo_inurba_marseille","lat":43.24382,"lon":5.37067,"is_reserved":false,"is_disabled":false,"rental_uris":{"android":"levelo://app?vid=e59fccdd-f60b-4fcf-8101-4a747bffb1c1","ios":"levelo://app?vid=e59fccdd-f60b-4fcf-8101-4a747bffb1c1"},"vehicle_type_id":"4","last_reported":1741252226,"current_range_meters":6800,"station_id":"ce4bhhh2rcd13ifvqfk0","pricing_plan_id":"cebpf4jnsgd1na2vs0mg"},{"bike_id":"6484f0f7-d068-4840-8730-7ce6b1a9379d","system_id":"levelo_inurba_marseille","lat":43.27371,"lon":5.36264,"is_reserved":false,"is_disabled":false,"rental_uris":{"android":"levelo://app?vid=6484f0f7-d068-4840-8730-7ce6b1a9379d","ios":"levelo://app?vid=6484f0f7-d068-4840-8730-7ce6b1a9379d"},"vehicle_type_id":"4","last_reported":1741252226,"current_range_meters":6800,"station_id":"ce4bhbh2rcd13ifvqeo0","pricing_plan_id":"cebpf4jnsgd1na2vs0mg"},{"bike_id":"9b9062d7-f1cb-444b-bd95-acca8a69b85e","system_id":"levelo_inurba_marseille","lat":43.30956,"lon":5.39037,"is_reserved":false,"is_disabled":false,"rental_uris":{"android":"levelo://app?vid=9b9062d7-f1cb-444b-bd95-acca8a69b85e","ios":"levelo://app?vid=9b9062d7-f1cb-444b-bd95-acca8a69b85e"},"vehicle_type_id":"4","last_reported":1741252226,"current_range_meters":7200,"station_id":"ce4bgup2rcd13ifvqco0","pricing_plan_id":"cebpf4jnsgd1na2vs0mg"},{"bike_id":"04602ea3-ac36-4387-91cd-683c524f904f","system_id":"levelo_inurba_marseille","lat":43.27991,"lon":5.40014,"is_reserved":false,"is_disabled":false,"rental_uris":{"android":"levelo://app?vid=04602ea3-ac36-4387-91cd-683c524f904f","ios":"levelo://app?vid=04602ea3-ac36-4387-91cd-683c524f904f"},"vehicle_type_id":"4","last_reported":1741252226,"current_range_meters":7200,"station_id":"ce4bho92rcd13ifvqh4g","pricing_plan_id":"cebpf4jnsgd1na2vs0mg"},{"bike_id":"b8b19ae4-9e1f-4f8e-933c-45c41b074935","system_id":"levelo_inurba_marseille","lat":43.28564,"lon":5.426,"is_reserved":false,"is_disabled":true,"rental_uris":{"android":"levelo://app?vid=b8b19ae4-9e1f-4f8e-933c-45c41b074935","ios":"levelo://app?vid=b8b19ae4-9e1f-4f8e-933c-45c41b074935"},"vehicle_type_id":"4","last_reported":1741252226,"current_range_meters":7200,"station_id":"","pricing_plan_id":"cebpf4jnsgd1na2vs0mg"},{"bike_id":"cdfbd217-a6f7-49fd-94b3-19969f91f64b","system_id":"levelo_inurba_marseille","lat":43.27491,"lon":5.424578,"is_reserved":false,"is_disabled":false,"rental_uris":{"android":"levelo://app?vid=cdfbd217-a6f7-49fd-94b3-19969f91f64b","ios":"levelo://app?vid=cdfbd217-a6f7-49fd-94b3-19969f91f64b"},"vehicle_type_id":"4","last_reported":1741252226,"current_range_meters":7200,"station_id":"ce4bhn92rcd13ifvqgrg","pricing_plan_id":"cebpf4jnsgd1na2vs0mg"},{"bike_id":"482ef20f-c819-4c5b-812d-52f9d747061f","system_id":"levelo_inurba_marseille","lat":43.27315,"lon":5.39082,"is_reserved":false,"is_disabled":false,"rental_uris":{"android":"levelo://app?vid=482ef20f-c819-4c5b-812d-52f9d747061f","ios":"levelo://app?vid=482ef20f-c819-4c5b-812d-52f9d747061f"},"vehicle_type_id":"4","last_reported":1741252226,"current_range_meters":7200,"station_id":"ce4bhgp2rcd13ifvqfe0","pricing_plan_id":"cebpf4jnsgd1na2vs0mg"},{"bike_id":"a4f9c0a7-37a3-4724-bf69-0d1843c8440e","system_id":"levelo_inurba_marseille","lat":43.24065,"lon":5.37764,"is_reserved":false,"is_disabled":false,"rental_uris":{"android":"levelo://app?vid=a4f9c0a7-37a3-4724-bf69-0d1843c8440e","ios":"levelo://app?vid=a4f9c0a7-37a3-4724-bf69-0d1843c8440e"},"vehicle_type_id":"4","last_reported":1741252226,"current_range_meters":7200,"station_id":"ce4bhnp2rcd13ifvqgvg","pricing_plan_id":"cebpf4jnsgd1na2vs0mg"},{"bike_id":"1ae679cc-613d-44de-9c49-10aa5cef907c","system_id":"levelo_inurba_marseille","lat":43.27499,"lon":5.42463,"is_reserved":false,"is_disabled":false,"rental_uris":{"android":"levelo://app?vid=1ae679cc-613d-44de-9c49-10aa5cef907c","ios":"levelo://app?vid=1ae679cc-613d-44de-9c49-10aa5cef907c"},"vehicle_type_id":"4","last_reported":1741252226,"current_range_meters":7200,"station_id":"ce4bhn92rcd13ifvqgrg","pricing_plan_id":"cebpf4jnsgd1na2vs0mg"},{"bike_id":"c55557ad-1ed5-4997-aee7-ac92107f14b6","system_id":"levelo_inurba_marseille","lat":43.26462,"lon":5.37504,"is_reserved":false,"is_disabled":false,"rental_uris":{"android":"levelo://app?vid=c55557ad-1ed5-4997-aee7-ac92107f14b6","ios":"levelo://app?vid=c55557ad-1ed5-4997-aee7-ac92107f14b6"},"vehicle_type_id":"4","last_reported":1741252226,"current_range_meters":8000,"station_id":"","pricing_plan_id":"cebpf4jnsgd1na2vs0mg"},{"bike_id":"9fc9ecf0-ae9f-4a14-a3f8-71d09644aa9c","system_id":"levelo_inurba_marseille","lat":43.31366,"lon":5.3669,"is_reserved":false,"is_disabled":false,"rental_uris":{"android":"levelo://app?vid=9fc9ecf0-ae9f-4a14-a3f8-71d09644aa9c","ios":"levelo://app?vid=9fc9ecf0-ae9f-4a14-a3f8-71d09644aa9c"},"vehicle_type_id":"4","last_reported":1741252226,"current_range_meters":8000,"station_id":"ce4bgr92rcd13ifvqc6g","pricing_plan_id":"cebpf4jnsgd1na2vs0mg"},{"bike_id":"03c8e248-e246-4036-94eb-482c84a640de","system_id":"levelo_inurba_marseille","lat":43.292282,"lon":5.360749,"is_reserved":false,"is_disabled":false,"rental_uris":{"android":"levelo://app?vid=03c8e248-e246-4036-94eb-482c84a640de","ios":"levelo://app?vid=03c8e248-e246-4036-94eb-482c84a640de"},"vehicle_type_id":"4","last_reported":1741252226,"current_range_meters":8000,"station_id":"ce4bgh92rcd13ifvqb40","pricing_plan_id":"cebpf4jnsgd1na2vs0mg"},{"bike_id":"5b1a2ab0-287c-46cc-8a5e-a51743eaf1c0","system_id":"levelo_inurba_marseille","lat":43.29046,"lon":5.39969,"is_reserved":false,"is_disabled":false,"rental_uris":{"android":"levelo://app?vid=5b1a2ab0-287c-46cc-8a5e-a51743eaf1c0","ios":"levelo://app?vid=5b1a2ab0-287c-46cc-8a5e-a51743eaf1c0"},"vehicle_type_id":"4","last_reported":1741252226,"current_range_meters":8000,"station_id":"ce4bh392rcd13ifvqdm0","pricing_plan_id":"cebpf4jnsgd1na2vs0mg"},{"bike_id":"d92840e4-0d01-49f9-98d1-8cf92997218e","system_id":"levelo_inurba_marseille","lat":43.30461,"lon":5.37912,"is_reserved":false,"is_disabled":false,"rental_uris":{"android":"levelo://app?vid=d92840e4-0d01-49f9-98d1-8cf92997218e","ios":"levelo://app?vid=d92840e4-0d01-49f9-98d1-8cf92997218e"},"vehicle_type_id":"4","last_reported":1741252226,"current_range_meters":8000,"station_id":"ce4bgup2rcd13ifvqcn0","pricing_plan_id":"cebpf4jnsgd1na2vs0mg"},{"bike_id":"ba284b4d-52cb-4655-9310-1536f6825bd5","system_id":"levelo_inurba_marseille","lat":43.30908,"lon":5.36854,"is_reserved":false,"is_disabled":false,"rental_uris":{"android":"levelo://app?vid=ba284b4d-52cb-4655-9310-1536f6825bd5","ios":"levelo://app?vid=ba284b4d-52cb-4655-9310-1536f6825bd5"},"vehicle_type_id":"4","last_reported":1741252226,"current_range_meters":8000,"station_id":"ce4bgn92rcd13ifvqbvg","pricing_plan_id":"cebpf4jnsgd1na2vs0mg"},{"bike_id":"1b3b994c-2ebb-45d5-807b-85828892d182","system_id":"levelo_inurba_marseille","lat":43.28487,"lon":5.38469,"is_reserved":false,"is_disabled":false,"rental_uris":{"android":"levelo://app?vid=1b3b994c-2ebb-45d5-807b-85828892d182","ios":"levelo://app?vid=1b3b994c-2ebb-45d5-807b-85828892d182"},"vehicle_type_id":"4","last_reported":1741252226,"current_range_meters":8000,"station_id":"ce4bh512rcd13ifvqe3g","pricing_plan_id":"cebpf4jnsgd1na2vs0mg"},{"bike_id":"8e5e1d93-0986-43c0-8db3-a8b6bed71450","system_id":"levelo_inurba_marseille","lat":43.27996,"lon":5.41668,"is_reserved":false,"is_disabled":false,"rental_uris":{"android":"levelo://app?vid=8e5e1d93-0986-43c0-8db3-a8b6bed71450","ios":"levelo://app?vid=8e5e1d93-0986-43c0-8db3-a8b6bed71450"},"vehicle_type_id":"4","last_reported":1741252226,"current_range_meters":8000,"station_id":"ce4bho12rcd13ifvqh1g","pricing_plan_id":"cebpf4jnsgd1na2vs0mg"},{"bike_id":"455009f8-82e0-4280-810f-46e44d04e2ce","system_id":"levelo_inurba_marseille","lat":43.29375,"lon":5.37856,"is_reserved":false,"is_disabled":false,"rental_uris":{"android":"levelo://app?vid=455009f8-82e0-4280-810f-46e44d04e2ce","ios":"levelo://app?vid=455009f8-82e0-4280-810f-46e44d04e2ce"},"vehicle_type_id":"4","last_reported":1741252226,"current_range_meters":8000,"station_id":"ce4bgjh2rcd13ifvqbf0","pricing_plan_id":"cebpf4jnsgd1na2vs0mg"},{"bike_id":"e8d056c2-da0b-487c-a535-d769bfc9a472","system_id":"levelo_inurba_marseille","lat":43.28259,"lon":5.35055,"is_reserved":false,"is_disabled":false,"rental_uris":{"android":"levelo://app?vid=e8d056c2-da0b-487c-a535-d769bfc9a472","ios":"levelo://app?vid=e8d056c2-da0b-487c-a535-d769bfc9a472"},"vehicle_type_id":"4","last_reported":1741252226,"current_range_meters":8400,"station_id":"ce4bhbp2rcd13ifvqerg","pricing_plan_id":"cebpf4jnsgd1na2vs0mg"},{"bike_id":"766fa605-c73f-4f64-8f2f-f9159d699bb0","system_id":"levelo_inurba_marseille","lat":43.28859,"lon":5.35867,"is_reserved":false,"is_disabled":false,"rental_uris":{"android":"levelo://app?vid=766fa605-c73f-4f64-8f2f-f9159d699bb0","ios":"levelo://app?vid=766fa605-c73f-4f64-8f2f-f9159d699bb0"},"vehicle_type_id":"4","last_reported":1741252226,"current_range_meters":8400,"station_id":"ce4bhb12rcd13ifvqem0","pricing_plan_id":"cebpf4jnsgd1na2vs0mg"},{"bike_id":"c81ac480-1004-4a6a-beae-c9d970cd85c2","system_id":"levelo_inurba_marseille","lat":43.30426,"lon":5.397422,"is_reserved":false,"is_disabled":false,"rental_uris":{"android":"levelo://app?vid=c81ac480-1004-4a6a-beae-c9d970cd85c2","ios":"levelo://app?vid=c81ac480-1004-4a6a-beae-c9d970cd85c2"},"vehicle_type_id":"4","last_reported":1741252226,"current_range_meters":8000,"station_id":"ce4bgip2rcd13ifvqbb0","pricing_plan_id":"cebpf4jnsgd1na2vs0mg"},{"bike_id":"c072514f-cdef-44ff-a069-cf55d71c0741","system_id":"levelo_inurba_marseille","lat":43.24077,"lon":5.37748,"is_reserved":false,"is_disabled":false,"rental_uris":{"android":"levelo://app?vid=c072514f-cdef-44ff-a069-cf55d71c0741","ios":"levelo://app?vid=c072514f-cdef-44ff-a069-cf55d71c0741"},"vehicle_type_id":"4","last_reported":1741252226,"current_range_meters":8400,"station_id":"ce4bhnp2rcd13ifvqgvg","pricing_plan_id":"cebpf4jnsgd1na2vs0mg"},{"bike_id":"25d3518a-2a6c-4399-98bb-fbf811676a98","system_id":"levelo_inurba_marseille","lat":43.28355,"lon":5.3865,"is_reserved":false,"is_disabled":false,"rental_uris":{"android":"levelo://app?vid=25d3518a-2a6c-4399-98bb-fbf811676a98","ios":"levelo://app?vid=25d3518a-2a6c-4399-98bb-fbf811676a98"},"vehicle_type_id":"4","last_reported":1741252226,"current_range_meters":8400,"station_id":"ce4bh492rcd13ifvqdvg","pricing_plan_id":"cebpf4jnsgd1na2vs0mg"},{"bike_id":"87cc2b62-b442-4215-a043-611256d11643","system_id":"levelo_inurba_marseille","lat":43.31075,"lon":5.42428,"is_reserved":false,"is_disabled":false,"rental_uris":{"android":"levelo://app?vid=87cc2b62-b442-4215-a043-611256d11643","ios":"levelo://app?vid=87cc2b62-b442-4215-a043-611256d11643"},"vehicle_type_id":"4","last_reported":1741252226,"current_range_meters":8400,"station_id":"ce4bhp92rcd13ifvqhag","pricing_plan_id":"cebpf4jnsgd1na2vs0mg"},{"bike_id":"2e4a7bad-f325-40a8-bbf2-f5ce9ab01d68","system_id":"levelo_inurba_marseille","lat":43.24077,"lon":5.3776,"is_reserved":false,"is_disabled":false,"rental_uris":{"android":"levelo://app?vid=2e4a7bad-f325-40a8-bbf2-f5ce9ab01d68","ios":"levelo://app?vid=2e4a7bad-f325-40a8-bbf2-f5ce9ab01d68"},"vehicle_type_id":"4","last_reported":1741252226,"current_range_meters":8400,"station_id":"ce4bhnp2rcd13ifvqgvg","pricing_plan_id":"cebpf4jnsgd1na2vs0mg"},{"bike_id":"ecb30204-856e-4551-b122-313eabd56e36","system_id":"levelo_inurba_marseille","lat":43.26951,"lon":5.3863,"is_reserved":false,"is_disabled":false,"rental_uris":{"android":"levelo://app?vid=ecb30204-856e-4551-b122-313eabd56e36","ios":"levelo://app?vid=ecb30204-856e-4551-b122-313eabd56e36"},"vehicle_type_id":"4","last_reported":1741252226,"current_range_meters":8400,"station_id":"ce4bhh92rcd13ifvqfh0","pricing_plan_id":"cebpf4jnsgd1na2vs0mg"},{"bike_id":"478c7561-14a7-4b9d-bd73-431246676f26","system_id":"levelo_inurba_marseille","lat":43.33598,"lon":5.41,"is_reserved":false,"is_disabled":false,"rental_uris":{"android":"levelo://app?vid=478c7561-14a7-4b9d-bd73-431246676f26","ios":"levelo://app?vid=478c7561-14a7-4b9d-bd73-431246676f26"},"vehicle_type_id":"4","last_reported":1741252226,"current_range_meters":8800,"station_id":"ce4bhqh2rcd13ifvqhmg","pricing_plan_id":"cebpf4jnsgd1na2vs0mg"},{"bike_id":"74836d69-ca30-4a12-9778-ffbc313c7d57","system_id":"levelo_inurba_marseille","lat":43.28463,"lon":5.38446,"is_reserved":false,"is_disabled":false,"rental_uris":{"android":"levelo://app?vid=74836d69-ca30-4a12-9778-ffbc313c7d57","ios":"levelo://app?vid=74836d69-ca30-4a12-9778-ffbc313c7d57"},"vehicle_type_id":"4","last_reported":1741252226,"current_range_meters":8800,"station_id":"ce4bh512rcd13ifvqe3g","pricing_plan_id":"cebpf4jnsgd1na2vs0mg"},{"bike_id":"33219e21-f0f0-49f2-b535-26aa23d767fc","system_id":"levelo_inurba_marseille","lat":43.30292,"lon":5.37709,"is_reserved":false,"is_disabled":false,"rental_uris":{"android":"levelo://app?vid=33219e21-f0f0-49f2-b535-26aa23d767fc","ios":"levelo://app?vid=33219e21-f0f0-49f2-b535-26aa23d767fc"},"vehicle_type_id":"4","last_reported":1741252226,"current_range_meters":8800,"station_id":"ce4bguh2rcd13ifvqcj0","pricing_plan_id":"cebpf4jnsgd1na2vs0mg"},{"bike_id":"afcdcaad-f65e-4223-b1e4-fddd0b138574","system_id":"levelo_inurba_marseille","lat":43.2408,"lon":5.37756,"is_reserved":false,"is_disabled":false,"rental_uris":{"android":"levelo://app?vid=afcdcaad-f65e-4223-b1e4-fddd0b138574","ios":"levelo://app?vid=afcdcaad-f65e-4223-b1e4-fddd0b138574"},"vehicle_type_id":"4","last_reported":1741252226,"current_range_meters":8800,"station_id":"ce4bhnp2rcd13ifvqgvg","pricing_plan_id":"cebpf4jnsgd1na2vs0mg"},{"bike_id":"997d6d29-cdf6-481f-a2c3-43d99ec8e071","system_id":"levelo_inurba_marseille","lat":43.30665,"lon":5.40112,"is_reserved":false,"is_disabled":true,"rental_uris":{"android":"levelo://app?vid=997d6d29-cdf6-481f-a2c3-43d99ec8e071","ios":"levelo://app?vid=997d6d29-cdf6-481f-a2c3-43d99ec8e071"},"vehicle_type_id":"4","last_reported":1741252226,"current_range_meters":8800,"station_id":"ce4bh112rcd13ifvqda0","pricing_plan_id":"cebpf4jnsgd1na2vs0mg"},{"bike_id":"86723d49-325c-4da0-97b3-2b48647b3a72","system_id":"levelo_inurba_marseille","lat":43.29964,"lon":5.41316,"is_reserved":false,"is_disabled":false,"rental_uris":{"android":"levelo://app?vid=86723d49-325c-4da0-97b3-2b48647b3a72","ios":"levelo://app?vid=86723d49-325c-4da0-97b3-2b48647b3a72"},"vehicle_type_id":"4","last_reported":1741252226,"current_range_meters":8800,"station_id":"ce4bhp12rcd13ifvqh9g","pricing_plan_id":"cebpf4jnsgd1na2vs0mg"},{"bike_id":"4cb3fa0d-a181-486a-9c9a-e36113f7951f","system_id":"levelo_inurba_marseille","lat":43.26207,"lon":5.37924,"is_reserved":false,"is_disabled":true,"rental_uris":{"android":"levelo://app?vid=4cb3fa0d-a181-486a-9c9a-e36113f7951f","ios":"levelo://app?vid=4cb3fa0d-a181-486a-9c9a-e36113f7951f"},"vehicle_type_id":"4","last_reported":1741252226,"current_range_meters":8800,"station_id":"ce4bhjp2rcd13ifvqg90","pricing_plan_id":"cebpf4jnsgd1na2vs0mg"},{"bike_id":"8e67c6c2-1f86-420e-855b-676e159ed831","system_id":"levelo_inurba_marseille","lat":43.23062,"lon":5.35508,"is_reserved":false,"is_disabled":false,"rental_uris":{"android":"levelo://app?vid=8e67c6c2-1f86-420e-855b-676e159ed831","ios":"levelo://app?vid=8e67c6c2-1f86-420e-855b-676e159ed831"},"vehicle_type_id":"4","last_reported":1741252226,"current_range_meters":9200,"station_id":"cpo3342slgdg3j2ifvpg","pricing_plan_id":"cebpf4jnsgd1na2vs0mg"},{"bike_id":"4b37d7b2-e4f0-4881-ae4a-14e74b2ab8e7","system_id":"levelo_inurba_marseille","lat":43.29444,"lon":5.39778,"is_reserved":false,"is_disabled":true,"rental_uris":{"android":"levelo://app?vid=4b37d7b2-e4f0-4881-ae4a-14e74b2ab8e7","ios":"levelo://app?vid=4b37d7b2-e4f0-4881-ae4a-14e74b2ab8e7"},"vehicle_type_id":"4","last_reported":1741252226,"current_range_meters":9200,"station_id":"ce4bh3h2rcd13ifvqdo0","pricing_plan_id":"cebpf4jnsgd1na2vs0mg"},{"bike_id":"7be10eac-e616-4904-8cdc-c543b04d589f","system_id":"levelo_inurba_marseille","lat":43.24152,"lon":5.36439,"is_reserved":false,"is_disabled":false,"rental_uris":{"android":"levelo://app?vid=7be10eac-e616-4904-8cdc-c543b04d589f","ios":"levelo://app?vid=7be10eac-e616-4904-8cdc-c543b04d589f"},"vehicle_type_id":"4","last_reported":1741252226,"current_range_meters":9200,"station_id":"cpo36qri1sfpv3e86is0","pricing_plan_id":"cebpf4jnsgd1na2vs0mg"},{"bike_id":"bc393c01-9128-437d-8f54-fb73529d8647","system_id":"levelo_inurba_marseille","lat":43.26979,"lon":5.3861,"is_reserved":false,"is_disabled":false,"rental_uris":{"android":"levelo://app?vid=bc393c01-9128-437d-8f54-fb73529d8647","ios":"levelo://app?vid=bc393c01-9128-437d-8f54-fb73529d8647"},"vehicle_type_id":"4","last_reported":1741252226,"current_range_meters":9200,"station_id":"ce4bhh92rcd13ifvqfh0","pricing_plan_id":"cebpf4jnsgd1na2vs0mg"},{"bike_id":"d018904a-2249-4a67-968e-c53f925aa0d4","system_id":"levelo_inurba_marseille","lat":43.309,"lon":5.36847,"is_reserved":false,"is_disabled":false,"rental_uris":{"android":"levelo://app?vid=d018904a-2249-4a67-968e-c53f925aa0d4","ios":"levelo://app?vid=d018904a-2249-4a67-968e-c53f925aa0d4"},"vehicle_type_id":"4","last_reported":1741252226,"current_range_meters":9200,"station_id":"ce4bgn92rcd13ifvqbvg","pricing_plan_id":"cebpf4jnsgd1na2vs0mg"},{"bike_id":"dc12090d-3e06-49f9-b179-7b5aa1aa1b66","system_id":"levelo_inurba_marseille","lat":43.30953,"lon":5.3904,"is_reserved":false,"is_disabled":false,"rental_uris":{"android":"levelo://app?vid=dc12090d-3e06-49f9-b179-7b5aa1aa1b66","ios":"levelo://app?vid=dc12090d-3e06-49f9-b179-7b5aa1aa1b66"},"vehicle_type_id":"4","last_reported":1741252226,"current_range_meters":9600,"station_id":"ce4bgup2rcd13ifvqco0","pricing_plan_id":"cebpf4jnsgd1na2vs0mg"},{"bike_id":"1a745b30-9e09-468a-ac27-64787cfb2ab8","system_id":"levelo_inurba_marseille","lat":43.29553,"lon":5.37539,"is_reserved":false,"is_disabled":false,"rental_uris":{"android":"levelo://app?vid=1a745b30-9e09-468a-ac27-64787cfb2ab8","ios":"levelo://app?vid=1a745b30-9e09-468a-ac27-64787cfb2ab8"},"vehicle_type_id":"4","last_reported":1741252226,"current_range_meters":9600,"station_id":"ce4bgh92rcd13ifvqb50","pricing_plan_id":"cebpf4jnsgd1na2vs0mg"},{"bike_id":"4589d892-1f98-4311-a7b9-7f9e45a85f9a","system_id":"levelo_inurba_marseille","lat":43.28724,"lon":5.37983,"is_reserved":false,"is_disabled":false,"rental_uris":{"android":"levelo://app?vid=4589d892-1f98-4311-a7b9-7f9e45a85f9a","ios":"levelo://app?vid=4589d892-1f98-4311-a7b9-7f9e45a85f9a"},"vehicle_type_id":"4","last_reported":1741252226,"current_range_meters":9600,"station_id":"ce4bh9p2rcd13ifvqec0","pricing_plan_id":"cebpf4jnsgd1na2vs0mg"},{"bike_id":"0f0c01f1-8344-478d-bd63-41fbc91ad188","system_id":"levelo_inurba_marseille","lat":43.24069,"lon":5.37756,"is_reserved":false,"is_disabled":false,"rental_uris":{"android":"levelo://app?vid=0f0c01f1-8344-478d-bd63-41fbc91ad188","ios":"levelo://app?vid=0f0c01f1-8344-478d-bd63-41fbc91ad188"},"vehicle_type_id":"4","last_reported":1741252226,"current_range_meters":9600,"station_id":"ce4bhnp2rcd13ifvqgvg","pricing_plan_id":"cebpf4jnsgd1na2vs0mg"},{"bike_id":"16838032-87fd-4457-abf9-b992794b6527","system_id":"levelo_inurba_marseille","lat":43.29036,"lon":5.39971,"is_reserved":false,"is_disabled":false,"rental_uris":{"android":"levelo://app?vid=16838032-87fd-4457-abf9-b992794b6527","ios":"levelo://app?vid=16838032-87fd-4457-abf9-b992794b6527"},"vehicle_type_id":"4","last_reported":1741252226,"current_range_meters":9600,"station_id":"ce4bh392rcd13ifvqdm0","pricing_plan_id":"cebpf4jnsgd1na2vs0mg"},{"bike_id":"50d0768d-1a71-4e25-aee1-73e9ed90940f","system_id":"levelo_inurba_marseille","lat":43.30558,"lon":5.36717,"is_reserved":false,"is_disabled":false,"rental_uris":{"android":"levelo://app?vid=50d0768d-1a71-4e25-aee1-73e9ed90940f","ios":"levelo://app?vid=50d0768d-1a71-4e25-aee1-73e9ed90940f"},"vehicle_type_id":"4","last_reported":1741252226,"current_range_meters":9600,"station_id":"ce4bgrp2rcd13ifvqc9g","pricing_plan_id":"cebpf4jnsgd1na2vs0mg"},{"bike_id":"3f012b55-43c2-4f72-af68-bad9b36f123a","system_id":"levelo_inurba_marseille","lat":43.26207,"lon":5.40461,"is_reserved":false,"is_disabled":false,"rental_uris":{"android":"levelo://app?vid=3f012b55-43c2-4f72-af68-bad9b36f123a","ios":"levelo://app?vid=3f012b55-43c2-4f72-af68-bad9b36f123a"},"vehicle_type_id":"4","last_reported":1741252226,"current_range_meters":10000,"station_id":"ce4bhmh2rcd13ifvqgmg","pricing_plan_id":"cebpf4jnsgd1na2vs0mg"},{"bike_id":"f1969ae6-398f-4ca1-9c4a-74f3b1e55c0e","system_id":"levelo_inurba_marseille","lat":43.30859,"lon":5.39648,"is_reserved":false,"is_disabled":true,"rental_uris":{"android":"levelo://app?vid=f1969ae6-398f-4ca1-9c4a-74f3b1e55c0e","ios":"levelo://app?vid=f1969ae6-398f-4ca1-9c4a-74f3b1e55c0e"},"vehicle_type_id":"4","last_reported":1741252226,"current_range_meters":10000,"station_id":"","pricing_plan_id":"cebpf4jnsgd1na2vs0mg"},{"bike_id":"0ec63000-c3e6-4ebf-aa56-a6b75770e1d6","system_id":"levelo_inurba_marseille","lat":43.29272,"lon":5.3765,"is_reserved":false,"is_disabled":false,"rental_uris":{"android":"levelo://app?vid=0ec63000-c3e6-4ebf-aa56-a6b75770e1d6","ios":"levelo://app?vid=0ec63000-c3e6-4ebf-aa56-a6b75770e1d6"},"vehicle_type_id":"4","last_reported":1741252226,"current_range_meters":10000,"station_id":"ce4bgi12rcd13ifvqb80","pricing_plan_id":"cebpf4jnsgd1na2vs0mg"},{"bike_id":"bfec0831-cf8f-40a3-b576-b0a769dfdbbb","system_id":"levelo_inurba_marseille","lat":43.29968,"lon":5.4133,"is_reserved":false,"is_disabled":false,"rental_uris":{"android":"levelo://app?vid=bfec0831-cf8f-40a3-b576-b0a769dfdbbb","ios":"levelo://app?vid=bfec0831-cf8f-40a3-b576-b0a769dfdbbb"},"vehicle_type_id":"4","last_reported":1741252226,"current_range_meters":10000,"station_id":"ce4bhp12rcd13ifvqh9g","pricing_plan_id":"cebpf4jnsgd1na2vs0mg"},{"bike_id":"d042490b-89be-4965-8498-025836790f65","system_id":"levelo_inurba_marseille","lat":43.25924,"lon":5.40896,"is_reserved":false,"is_disabled":false,"rental_uris":{"android":"levelo://app?vid=d042490b-89be-4965-8498-025836790f65","ios":"levelo://app?vid=d042490b-89be-4965-8498-025836790f65"},"vehicle_type_id":"4","last_reported":1741252226,"current_range_meters":10000,"station_id":"ce4bhm92rcd13ifvqglg","pricing_plan_id":"cebpf4jnsgd1na2vs0mg"},{"bike_id":"fb62a541-339d-43c0-b2ca-8f32b6c0dfd9","system_id":"levelo_inurba_marseille","lat":43.231897,"lon":5.436136,"is_reserved":false,"is_disabled":false,"rental_uris":{"android":"levelo://app?vid=fb62a541-339d-43c0-b2ca-8f32b6c0dfd9","ios":"levelo://app?vid=fb62a541-339d-43c0-b2ca-8f32b6c0dfd9"},"vehicle_type_id":"4","last_reported":1741252226,"current_range_meters":10000,"station_id":"ce4bhmp2rcd13ifvqgog","pricing_plan_id":"cebpf4jnsgd1na2vs0mg"},{"bike_id":"9208d63c-369f-4c4e-a7fc-9ad972621275","system_id":"levelo_inurba_marseille","lat":43.25921,"lon":5.4088,"is_reserved":false,"is_disabled":false,"rental_uris":{"android":"levelo://app?vid=9208d63c-369f-4c4e-a7fc-9ad972621275","ios":"levelo://app?vid=9208d63c-369f-4c4e-a7fc-9ad972621275"},"vehicle_type_id":"4","last_reported":1741252226,"current_range_meters":10000,"station_id":"ce4bhm92rcd13ifvqglg","pricing_plan_id":"cebpf4jnsgd1na2vs0mg"},{"bike_id":"7adfba6e-40f6-457a-aa9b-e019e32290c1","system_id":"levelo_inurba_marseille","lat":43.26682,"lon":5.38268,"is_reserved":false,"is_disabled":false,"rental_uris":{"android":"levelo://app?vid=7adfba6e-40f6-457a-aa9b-e019e32290c1","ios":"levelo://app?vid=7adfba6e-40f6-457a-aa9b-e019e32290c1"},"vehicle_type_id":"4","last_reported":1741252226,"current_range_meters":10000,"station_id":"ce4bhg92rcd13ifvqf90","pricing_plan_id":"cebpf4jnsgd1na2vs0mg"},{"bike_id":"76e19e46-be02-409e-97b6-5454e48b079f","system_id":"levelo_inurba_marseille","lat":43.29705,"lon":5.36607,"is_reserved":false,"is_disabled":false,"rental_uris":{"android":"levelo://app?vid=76e19e46-be02-409e-97b6-5454e48b079f","ios":"levelo://app?vid=76e19e46-be02-409e-97b6-5454e48b079f"},"vehicle_type_id":"4","last_reported":1741252226,"current_range_meters":10000,"station_id":"ce4bgn12rcd13ifvqbt0","pricing_plan_id":"cebpf4jnsgd1na2vs0mg"},{"bike_id":"1a8dd9c6-471b-45b4-8521-664ae5f96f06","system_id":"levelo_inurba_marseille","lat":43.2799,"lon":5.38758,"is_reserved":false,"is_disabled":false,"rental_uris":{"android":"levelo://app?vid=1a8dd9c6-471b-45b4-8521-664ae5f96f06","ios":"levelo://app?vid=1a8dd9c6-471b-45b4-8521-664ae5f96f06"},"vehicle_type_id":"4","last_reported":1741252226,"current_range_meters":10000,"station_id":"ce4bhg12rcd13ifvqf80","pricing_plan_id":"cebpf4jnsgd1na2vs0mg"},{"bike_id":"e0c0bec3-454a-410d-a60f-3aed516ec149","system_id":"levelo_inurba_marseille","lat":43.23203,"lon":5.35566,"is_reserved":false,"is_disabled":false,"rental_uris":{"android":"levelo://app?vid=e0c0bec3-454a-410d-a60f-3aed516ec149","ios":"levelo://app?vid=e0c0bec3-454a-410d-a60f-3aed516ec149"},"vehicle_type_id":"4","last_reported":1741252226,"current_range_meters":10800,"station_id":"ce4bhu92rcd13ifvqi70","pricing_plan_id":"cebpf4jnsgd1na2vs0mg"},{"bike_id":"3acabc1e-11c2-491e-bc5d-b11d8884d3d4","system_id":"levelo_inurba_marseille","lat":43.28693,"lon":5.38673,"is_reserved":false,"is_disabled":false,"rental_uris":{"android":"levelo://app?vid=3acabc1e-11c2-491e-bc5d-b11d8884d3d4","ios":"levelo://app?vid=3acabc1e-11c2-491e-bc5d-b11d8884d3d4"},"vehicle_type_id":"4","last_reported":1741252226,"current_range_meters":10800,"station_id":"ce4bh492rcd13ifvqdug","pricing_plan_id":"cebpf4jnsgd1na2vs0mg"},{"bike_id":"8460e21c-c00d-4bc3-87eb-99c84d24986e","system_id":"levelo_inurba_marseille","lat":43.26055,"lon":5.39389,"is_reserved":false,"is_disabled":false,"rental_uris":{"android":"levelo://app?vid=8460e21c-c00d-4bc3-87eb-99c84d24986e","ios":"levelo://app?vid=8460e21c-c00d-4bc3-87eb-99c84d24986e"},"vehicle_type_id":"4","last_reported":1741252226,"current_range_meters":10000,"station_id":"ce4bhh92rcd13ifvqfj0","pricing_plan_id":"cebpf4jnsgd1na2vs0mg"},{"bike_id":"0d94e7b2-84c7-46d0-85b8-bbbd08a2167f","system_id":"levelo_inurba_marseille","lat":43.23152,"lon":5.43726,"is_reserved":false,"is_disabled":false,"rental_uris":{"android":"levelo://app?vid=0d94e7b2-84c7-46d0-85b8-bbbd08a2167f","ios":"levelo://app?vid=0d94e7b2-84c7-46d0-85b8-bbbd08a2167f"},"vehicle_type_id":"4","last_reported":1741252226,"current_range_meters":10800,"station_id":"ce4bhmp2rcd13ifvqgog","pricing_plan_id":"cebpf4jnsgd1na2vs0mg"},{"bike_id":"81abd46f-88a5-433e-b996-c4028ce46154","system_id":"levelo_inurba_marseille","lat":43.304646,"lon":5.379162,"is_reserved":false,"is_disabled":false,"rental_uris":{"android":"levelo://app?vid=81abd46f-88a5-433e-b996-c4028ce46154","ios":"levelo://app?vid=81abd46f-88a5-433e-b996-c4028ce46154"},"vehicle_type_id":"4","last_reported":1741252226,"current_range_meters":10800,"station_id":"ce4bgup2rcd13ifvqcn0","pricing_plan_id":"cebpf4jnsgd1na2vs0mg"},{"bike_id":"7f1905bf-da4d-4f13-af14-c5d46804e585","system_id":"levelo_inurba_marseille","lat":43.23185,"lon":5.35587,"is_reserved":false,"is_disabled":false,"rental_uris":{"android":"levelo://app?vid=7f1905bf-da4d-4f13-af14-c5d46804e585","ios":"levelo://app?vid=7f1905bf-da4d-4f13-af14-c5d46804e585"},"vehicle_type_id":"4","last_reported":1741252226,"current_range_meters":10800,"station_id":"ce4bhu92rcd13ifvqi70","pricing_plan_id":"cebpf4jnsgd1na2vs0mg"},{"bike_id":"deccb326-0579-4f88-8ded-8a796f163b88","system_id":"levelo_inurba_marseille","lat":43.31425,"lon":5.37613,"is_reserved":false,"is_disabled":false,"rental_uris":{"android":"levelo://app?vid=deccb326-0579-4f88-8ded-8a796f163b88","ios":"levelo://app?vid=deccb326-0579-4f88-8ded-8a796f163b88"},"vehicle_type_id":"4","last_reported":1741252226,"current_range_meters":10800,"station_id":"","pricing_plan_id":"cebpf4jnsgd1na2vs0mg"},{"bike_id":"c73740cd-c6d7-4fd4-9ef4-71dcda844117","system_id":"levelo_inurba_marseille","lat":43.31235,"lon":5.36901,"is_reserved":false,"is_disabled":false,"rental_uris":{"android":"levelo://app?vid=c73740cd-c6d7-4fd4-9ef4-71dcda844117","ios":"levelo://app?vid=c73740cd-c6d7-4fd4-9ef4-71dcda844117"},"vehicle_type_id":"4","last_reported":1741252226,"current_range_meters":10800,"station_id":"ce4bgl92rcd13ifvqbq0","pricing_plan_id":"cebpf4jnsgd1na2vs0mg"},{"bike_id":"345296b4-45d9-4ada-873d-237ce9579591","system_id":"levelo_inurba_marseille","lat":43.29852,"lon":5.36294,"is_reserved":false,"is_disabled":false,"rental_uris":{"android":"levelo://app?vid=345296b4-45d9-4ada-873d-237ce9579591","ios":"levelo://app?vid=345296b4-45d9-4ada-873d-237ce9579591"},"vehicle_type_id":"4","last_reported":1741252226,"current_range_meters":10800,"station_id":"ce4bgpp2rcd13ifvqc3g","pricing_plan_id":"cebpf4jnsgd1na2vs0mg"},{"bike_id":"18c95407-be81-4a13-92dd-86f760b8ce3f","system_id":"levelo_inurba_marseille","lat":43.24073,"lon":5.37766,"is_reserved":false,"is_disabled":false,"rental_uris":{"android":"levelo://app?vid=18c95407-be81-4a13-92dd-86f760b8ce3f","ios":"levelo://app?vid=18c95407-be81-4a13-92dd-86f760b8ce3f"},"vehicle_type_id":"4","last_reported":1741252226,"current_range_meters":10800,"station_id":"ce4bhnp2rcd13ifvqgvg","pricing_plan_id":"cebpf4jnsgd1na2vs0mg"},{"bike_id":"104311c2-af82-4e6b-9e5f-ecc4efcb66d3","system_id":"levelo_inurba_marseille","lat":43.33609,"lon":5.41036,"is_reserved":false,"is_disabled":false,"rental_uris":{"android":"levelo://app?vid=104311c2-af82-4e6b-9e5f-ecc4efcb66d3","ios":"levelo://app?vid=104311c2-af82-4e6b-9e5f-ecc4efcb66d3"},"vehicle_type_id":"4","last_reported":1741252226,"current_range_meters":10800,"station_id":"ce4bhqh2rcd13ifvqhmg","pricing_plan_id":"cebpf4jnsgd1na2vs0mg"},{"bike_id":"9109bf38-4e22-4f79-95b6-2d4197ce8722","system_id":"levelo_inurba_marseille","lat":43.24073,"lon":5.37765,"is_reserved":false,"is_disabled":false,"rental_uris":{"android":"levelo://app?vid=9109bf38-4e22-4f79-95b6-2d4197ce8722","ios":"levelo://app?vid=9109bf38-4e22-4f79-95b6-2d4197ce8722"},"vehicle_type_id":"4","last_reported":1741252226,"current_range_meters":10800,"station_id":"ce4bhnp2rcd13ifvqgvg","pricing_plan_id":"cebpf4jnsgd1na2vs0mg"},{"bike_id":"bc1ff28f-0226-4fe1-bb42-0a1e2869659e","system_id":"levelo_inurba_marseille","lat":43.3239,"lon":5.38855,"is_reserved":false,"is_disabled":false,"rental_uris":{"android":"levelo://app?vid=bc1ff28f-0226-4fe1-bb42-0a1e2869659e","ios":"levelo://app?vid=bc1ff28f-0226-4fe1-bb42-0a1e2869659e"},"vehicle_type_id":"4","last_reported":1741252226,"current_range_meters":10800,"station_id":"ce4bhqp2rcd13ifvqhog","pricing_plan_id":"cebpf4jnsgd1na2vs0mg"},{"bike_id":"fdde8103-1f2a-4455-bcfa-e1d74ecb0194","system_id":"levelo_inurba_marseille","lat":43.2781,"lon":5.40711,"is_reserved":false,"is_disabled":false,"rental_uris":{"android":"levelo://app?vid=fdde8103-1f2a-4455-bcfa-e1d74ecb0194","ios":"levelo://app?vid=fdde8103-1f2a-4455-bcfa-e1d74ecb0194"},"vehicle_type_id":"4","last_reported":1741252226,"current_range_meters":11200,"station_id":"ce4bhnh2rcd13ifvqgtg","pricing_plan_id":"cebpf4jnsgd1na2vs0mg"},{"bike_id":"0b3cb245-c1ab-4265-9e03-36f6b9bfa685","system_id":"levelo_inurba_marseille","lat":43.23074,"lon":5.35493,"is_reserved":false,"is_disabled":false,"rental_uris":{"android":"levelo://app?vid=0b3cb245-c1ab-4265-9e03-36f6b9bfa685","ios":"levelo://app?vid=0b3cb245-c1ab-4265-9e03-36f6b9bfa685"},"vehicle_type_id":"4","last_reported":1741252226,"current_range_meters":11200,"station_id":"cpo3342slgdg3j2ifvpg","pricing_plan_id":"cebpf4jnsgd1na2vs0mg"},{"bike_id":"20553fcf-34c9-4df9-9c9d-05a4b88d4d5f","system_id":"levelo_inurba_marseille","lat":43.29581,"lon":5.36743,"is_reserved":false,"is_disabled":false,"rental_uris":{"android":"levelo://app?vid=20553fcf-34c9-4df9-9c9d-05a4b88d4d5f","ios":"levelo://app?vid=20553fcf-34c9-4df9-9c9d-05a4b88d4d5f"},"vehicle_type_id":"4","last_reported":1741252226,"current_range_meters":11200,"station_id":"ce4bgph2rcd13ifvqc2g","pricing_plan_id":"cebpf4jnsgd1na2vs0mg"},{"bike_id":"f4a9b063-e070-437f-9fba-9edf97433ed7","system_id":"levelo_inurba_marseille","lat":43.27944,"lon":5.41063,"is_reserved":false,"is_disabled":false,"rental_uris":{"android":"levelo://app?vid=f4a9b063-e070-437f-9fba-9edf97433ed7","ios":"levelo://app?vid=f4a9b063-e070-437f-9fba-9edf97433ed7"},"vehicle_type_id":"4","last_reported":1741252226,"current_range_meters":11200,"station_id":"ce4bhnp2rcd13ifvqh0g","pricing_plan_id":"cebpf4jnsgd1na2vs0mg"},{"bike_id":"5e1e23fa-c9a1-4e0c-be84-bf81860921f1","system_id":"levelo_inurba_marseille","lat":43.29576,"lon":5.37512,"is_reserved":false,"is_disabled":false,"rental_uris":{"android":"levelo://app?vid=5e1e23fa-c9a1-4e0c-be84-bf81860921f1","ios":"levelo://app?vid=5e1e23fa-c9a1-4e0c-be84-bf81860921f1"},"vehicle_type_id":"4","last_reported":1741252226,"current_range_meters":11200,"station_id":"ce4bgh92rcd13ifvqb50","pricing_plan_id":"cebpf4jnsgd1na2vs0mg"},{"bike_id":"2f13ac6e-5ae7-4fa4-ada4-d67c6ba6ff87","system_id":"levelo_inurba_marseille","lat":43.2408,"lon":5.37757,"is_reserved":false,"is_disabled":false,"rental_uris":{"android":"levelo://app?vid=2f13ac6e-5ae7-4fa4-ada4-d67c6ba6ff87","ios":"levelo://app?vid=2f13ac6e-5ae7-4fa4-ada4-d67c6ba6ff87"},"vehicle_type_id":"4","last_reported":1741252226,"current_range_meters":11200,"station_id":"ce4bhnp2rcd13ifvqgvg","pricing_plan_id":"cebpf4jnsgd1na2vs0mg"},{"bike_id":"6a10ab3a-3ca6-4b1f-815c-473ed184eb58","system_id":"levelo_inurba_marseille","lat":43.29686,"lon":5.37693,"is_reserved":false,"is_disabled":true,"rental_uris":{"android":"levelo://app?vid=6a10ab3a-3ca6-4b1f-815c-473ed184eb58","ios":"levelo://app?vid=6a10ab3a-3ca6-4b1f-815c-473ed184eb58"},"vehicle_type_id":"4","last_reported":1741252226,"current_range_meters":11600,"station_id":"ce4bgkh2rcd13ifvqbl0","pricing_plan_id":"cebpf4jnsgd1na2vs0mg"},{"bike_id":"5ba139a8-b766-4027-9a86-311061f4d0b7","system_id":"levelo_inurba_marseille","lat":43.337444,"lon":5.374475,"is_reserved":false,"is_disabled":true,"rental_uris":{"android":"levelo://app?vid=5ba139a8-b766-4027-9a86-311061f4d0b7","ios":"levelo://app?vid=5ba139a8-b766-4027-9a86-311061f4d0b7"},"vehicle_type_id":"4","last_reported":1741252226,"current_range_meters":11600,"station_id":"","pricing_plan_id":"cebpf4jnsgd1na2vs0mg"},{"bike_id":"0b78a1c6-e131-4e72-bb89-0edc713420c0","system_id":"levelo_inurba_marseille","lat":43.28613,"lon":5.35101,"is_reserved":false,"is_disabled":false,"rental_uris":{"android":"levelo://app?vid=0b78a1c6-e131-4e72-bb89-0edc713420c0","ios":"levelo://app?vid=0b78a1c6-e131-4e72-bb89-0edc713420c0"},"vehicle_type_id":"4","last_reported":1741252226,"current_range_meters":11600,"station_id":"ce4bhch2rcd13ifvqeug","pricing_plan_id":"cebpf4jnsgd1na2vs0mg"},{"bike_id":"88f1cdf8-d5f9-4bd1-9807-7495f7918208","system_id":"levelo_inurba_marseille","lat":43.31214,"lon":5.36851,"is_reserved":false,"is_disabled":false,"rental_uris":{"android":"levelo://app?vid=88f1cdf8-d5f9-4bd1-9807-7495f7918208","ios":"levelo://app?vid=88f1cdf8-d5f9-4bd1-9807-7495f7918208"},"vehicle_type_id":"4","last_reported":1741252226,"current_range_meters":11600,"station_id":"ce4bgl92rcd13ifvqbq0","pricing_plan_id":"cebpf4jnsgd1na2vs0mg"},{"bike_id":"fbb652ba-bd01-4ae3-9572-08242d69b857","system_id":"levelo_inurba_marseille","lat":43.26552,"lon":5.37288,"is_reserved":false,"is_disabled":false,"rental_uris":{"android":"levelo://app?vid=fbb652ba-bd01-4ae3-9572-08242d69b857","ios":"levelo://app?vid=fbb652ba-bd01-4ae3-9572-08242d69b857"},"vehicle_type_id":"4","last_reported":1741252226,"current_range_meters":11600,"station_id":"ce4bhg12rcd13ifvqf70","pricing_plan_id":"cebpf4jnsgd1na2vs0mg"},{"bike_id":"385cc28a-34ee-42ca-89f4-b356833e4487","system_id":"levelo_inurba_marseille","lat":43.29262,"lon":5.36858,"is_reserved":false,"is_disabled":false,"rental_uris":{"android":"levelo://app?vid=385cc28a-34ee-42ca-89f4-b356833e4487","ios":"levelo://app?vid=385cc28a-34ee-42ca-89f4-b356833e4487"},"vehicle_type_id":"4","last_reported":1741252226,"current_range_meters":12000,"station_id":"ce4bhbp2rcd13ifvqesg","pricing_plan_id":"cebpf4jnsgd1na2vs0mg"},{"bike_id":"3e8c034e-a7d7-4c46-8e31-3a0c6fbfb5cc","system_id":"levelo_inurba_marseille","lat":43.33605,"lon":5.41035,"is_reserved":false,"is_disabled":false,"rental_uris":{"android":"levelo://app?vid=3e8c034e-a7d7-4c46-8e31-3a0c6fbfb5cc","ios":"levelo://app?vid=3e8c034e-a7d7-4c46-8e31-3a0c6fbfb5cc"},"vehicle_type_id":"4","last_reported":1741252226,"current_range_meters":12000,"station_id":"ce4bhqh2rcd13ifvqhmg","pricing_plan_id":"cebpf4jnsgd1na2vs0mg"},{"bike_id":"40d727b2-72cb-498c-8c1a-9c33ec2a16cb","system_id":"levelo_inurba_marseille","lat":43.28141,"lon":5.42658,"is_reserved":false,"is_disabled":false,"rental_uris":{"android":"levelo://app?vid=40d727b2-72cb-498c-8c1a-9c33ec2a16cb","ios":"levelo://app?vid=40d727b2-72cb-498c-8c1a-9c33ec2a16cb"},"vehicle_type_id":"4","last_reported":1741252226,"current_range_meters":12000,"station_id":"ce4bhnh2rcd13ifvqgug","pricing_plan_id":"cebpf4jnsgd1na2vs0mg"},{"bike_id":"d942422d-550d-469f-92ab-ac19ef6dbe4d","system_id":"levelo_inurba_marseille","lat":43.30145,"lon":5.38085,"is_reserved":false,"is_disabled":false,"rental_uris":{"android":"levelo://app?vid=d942422d-550d-469f-92ab-ac19ef6dbe4d","ios":"levelo://app?vid=d942422d-550d-469f-92ab-ac19ef6dbe4d"},"vehicle_type_id":"4","last_reported":1741252226,"current_range_meters":12000,"station_id":"ce4bgjp2rcd13ifvqbh0","pricing_plan_id":"cebpf4jnsgd1na2vs0mg"},{"bike_id":"5767adce-4b87-4fa6-ab5a-cd6bc1f79831","system_id":"levelo_inurba_marseille","lat":43.29569,"lon":5.40284,"is_reserved":false,"is_disabled":false,"rental_uris":{"android":"levelo://app?vid=5767adce-4b87-4fa6-ab5a-cd6bc1f79831","ios":"levelo://app?vid=5767adce-4b87-4fa6-ab5a-cd6bc1f79831"},"vehicle_type_id":"4","last_reported":1741252226,"current_range_meters":12000,"station_id":"","pricing_plan_id":"cebpf4jnsgd1na2vs0mg"},{"bike_id":"06fb113e-3e7d-4397-b696-febf3533d9ba","system_id":"levelo_inurba_marseille","lat":43.26689,"lon":5.38266,"is_reserved":false,"is_disabled":false,"rental_uris":{"android":"levelo://app?vid=06fb113e-3e7d-4397-b696-febf3533d9ba","ios":"levelo://app?vid=06fb113e-3e7d-4397-b696-febf3533d9ba"},"vehicle_type_id":"4","last_reported":1741252226,"current_range_meters":11600,"station_id":"ce4bhg92rcd13ifvqf90","pricing_plan_id":"cebpf4jnsgd1na2vs0mg"},{"bike_id":"acf20595-7755-43d3-8c8f-296b234b0f1b","system_id":"levelo_inurba_marseille","lat":43.25072,"lon":5.4106,"is_reserved":false,"is_disabled":false,"rental_uris":{"android":"levelo://app?vid=acf20595-7755-43d3-8c8f-296b234b0f1b","ios":"levelo://app?vid=acf20595-7755-43d3-8c8f-296b234b0f1b"},"vehicle_type_id":"4","last_reported":1741252226,"current_range_meters":12400,"station_id":"","pricing_plan_id":"cebpf4jnsgd1na2vs0mg"},{"bike_id":"9b3e5916-05df-44c0-9447-093165adf9a6","system_id":"levelo_inurba_marseille","lat":43.24073,"lon":5.37761,"is_reserved":false,"is_disabled":false,"rental_uris":{"android":"levelo://app?vid=9b3e5916-05df-44c0-9447-093165adf9a6","ios":"levelo://app?vid=9b3e5916-05df-44c0-9447-093165adf9a6"},"vehicle_type_id":"4","last_reported":1741252226,"current_range_meters":12400,"station_id":"ce4bhnp2rcd13ifvqgvg","pricing_plan_id":"cebpf4jnsgd1na2vs0mg"},{"bike_id":"12dc18f6-3070-4c2f-97de-94cc94625f11","system_id":"levelo_inurba_marseille","lat":43.2669,"lon":5.38275,"is_reserved":false,"is_disabled":false,"rental_uris":{"android":"levelo://app?vid=12dc18f6-3070-4c2f-97de-94cc94625f11","ios":"levelo://app?vid=12dc18f6-3070-4c2f-97de-94cc94625f11"},"vehicle_type_id":"4","last_reported":1741252226,"current_range_meters":12800,"station_id":"ce4bhg92rcd13ifvqf90","pricing_plan_id":"cebpf4jnsgd1na2vs0mg"},{"bike_id":"874c23c8-e11f-44da-acf3-2a35d786f614","system_id":"levelo_inurba_marseille","lat":43.32035,"lon":5.41554,"is_reserved":false,"is_disabled":false,"rental_uris":{"android":"levelo://app?vid=874c23c8-e11f-44da-acf3-2a35d786f614","ios":"levelo://app?vid=874c23c8-e11f-44da-acf3-2a35d786f614"},"vehicle_type_id":"4","last_reported":1741252226,"current_range_meters":12800,"station_id":"ce4bhq92rcd13ifvqhkg","pricing_plan_id":"cebpf4jnsgd1na2vs0mg"},{"bike_id":"80af55fa-34d7-4164-a471-70c17fa994c2","system_id":"levelo_inurba_marseille","lat":43.27493,"lon":5.42455,"is_reserved":false,"is_disabled":true,"rental_uris":{"android":"levelo://app?vid=80af55fa-34d7-4164-a471-70c17fa994c2","ios":"levelo://app?vid=80af55fa-34d7-4164-a471-70c17fa994c2"},"vehicle_type_id":"4","last_reported":1741252226,"current_range_meters":12800,"station_id":"ce4bhn92rcd13ifvqgrg","pricing_plan_id":"cebpf4jnsgd1na2vs0mg"},{"bike_id":"c02b533c-a700-417e-a4de-2e733eef244c","system_id":"levelo_inurba_marseille","lat":43.23154,"lon":5.43722,"is_reserved":false,"is_disabled":false,"rental_uris":{"android":"levelo://app?vid=c02b533c-a700-417e-a4de-2e733eef244c","ios":"levelo://app?vid=c02b533c-a700-417e-a4de-2e733eef244c"},"vehicle_type_id":"4","last_reported":1741252226,"current_range_meters":12800,"station_id":"ce4bhmp2rcd13ifvqgog","pricing_plan_id":"cebpf4jnsgd1na2vs0mg"},{"bike_id":"e0fb2c78-eac2-4ca1-8d1c-5606bae9b50b","system_id":"levelo_inurba_marseille","lat":43.26576,"lon":5.39038,"is_reserved":false,"is_disabled":false,"rental_uris":{"android":"levelo://app?vid=e0fb2c78-eac2-4ca1-8d1c-5606bae9b50b","ios":"levelo://app?vid=e0fb2c78-eac2-4ca1-8d1c-5606bae9b50b"},"vehicle_type_id":"4","last_reported":1741252226,"current_range_meters":12800,"station_id":"ce4bhe12rcd13ifvqf30","pricing_plan_id":"cebpf4jnsgd1na2vs0mg"},{"bike_id":"f927a9c8-5d84-472f-b8fd-88f2fc3bc3e6","system_id":"levelo_inurba_marseille","lat":43.29908,"lon":5.43664,"is_reserved":false,"is_disabled":false,"rental_uris":{"android":"levelo://app?vid=f927a9c8-5d84-472f-b8fd-88f2fc3bc3e6","ios":"levelo://app?vid=f927a9c8-5d84-472f-b8fd-88f2fc3bc3e6"},"vehicle_type_id":"4","last_reported":1741252226,"current_range_meters":12800,"station_id":"ce4bhpp2rcd13ifvqhfg","pricing_plan_id":"cebpf4jnsgd1na2vs0mg"},{"bike_id":"431ccc62-558f-4557-a25f-b241214671ff","system_id":"levelo_inurba_marseille","lat":43.2318,"lon":5.39993,"is_reserved":false,"is_disabled":false,"rental_uris":{"android":"levelo://app?vid=431ccc62-558f-4557-a25f-b241214671ff","ios":"levelo://app?vid=431ccc62-558f-4557-a25f-b241214671ff"},"vehicle_type_id":"4","last_reported":1741252226,"current_range_meters":12800,"station_id":"ce4bhn12rcd13ifvqgqg","pricing_plan_id":"cebpf4jnsgd1na2vs0mg"},{"bike_id":"7e60168a-3877-41da-aa91-c7f2769524ce","system_id":"levelo_inurba_marseille","lat":43.23181,"lon":5.39992,"is_reserved":false,"is_disabled":false,"rental_uris":{"android":"levelo://app?vid=7e60168a-3877-41da-aa91-c7f2769524ce","ios":"levelo://app?vid=7e60168a-3877-41da-aa91-c7f2769524ce"},"vehicle_type_id":"4","last_reported":1741252226,"current_range_meters":12800,"station_id":"ce4bhn12rcd13ifvqgqg","pricing_plan_id":"cebpf4jnsgd1na2vs0mg"},{"bike_id":"e9ea0b14-f81c-40e0-9aad-18b138d7f8c8","system_id":"levelo_inurba_marseille","lat":43.30149,"lon":5.3745,"is_reserved":false,"is_disabled":false,"rental_uris":{"android":"levelo://app?vid=e9ea0b14-f81c-40e0-9aad-18b138d7f8c8","ios":"levelo://app?vid=e9ea0b14-f81c-40e0-9aad-18b138d7f8c8"},"vehicle_type_id":"4","last_reported":1741252226,"current_range_meters":12800,"station_id":"ce4bgs92rcd13ifvqcc0","pricing_plan_id":"cebpf4jnsgd1na2vs0mg"},{"bike_id":"25070293-927b-4a12-bb20-6530074eebac","system_id":"levelo_inurba_marseille","lat":43.29603,"lon":5.38104,"is_reserved":false,"is_disabled":false,"rental_uris":{"android":"levelo://app?vid=25070293-927b-4a12-bb20-6530074eebac","ios":"levelo://app?vid=25070293-927b-4a12-bb20-6530074eebac"},"vehicle_type_id":"4","last_reported":1741252226,"current_range_meters":13600,"station_id":"ce4bgl12rcd13ifvqbo0","pricing_plan_id":"cebpf4jnsgd1na2vs0mg"},{"bike_id":"76ccea9c-0963-4678-bd6c-2ee15628fca7","system_id":"levelo_inurba_marseille","lat":43.30553,"lon":5.36705,"is_reserved":false,"is_disabled":false,"rental_uris":{"android":"levelo://app?vid=76ccea9c-0963-4678-bd6c-2ee15628fca7","ios":"levelo://app?vid=76ccea9c-0963-4678-bd6c-2ee15628fca7"},"vehicle_type_id":"4","last_reported":1741252226,"current_range_meters":13600,"station_id":"ce4bgrp2rcd13ifvqc9g","pricing_plan_id":"cebpf4jnsgd1na2vs0mg"},{"bike_id":"b0dd1700-a77f-4882-839d-b1813f6c5375","system_id":"levelo_inurba_marseille","lat":43.272163,"lon":5.391743,"is_reserved":false,"is_disabled":true,"rental_uris":{"android":"levelo://app?vid=b0dd1700-a77f-4882-839d-b1813f6c5375","ios":"levelo://app?vid=b0dd1700-a77f-4882-839d-b1813f6c5375"},"vehicle_type_id":"4","last_reported":1741252226,"current_range_meters":13600,"station_id":"ce4bhhp2rcd13ifvqfm0","pricing_plan_id":"cebpf4jnsgd1na2vs0mg"},{"bike_id":"979e9499-88d2-4e85-a8be-38545ef97b22","system_id":"levelo_inurba_marseille","lat":43.27174,"lon":5.40996,"is_reserved":false,"is_disabled":false,"rental_uris":{"android":"levelo://app?vid=979e9499-88d2-4e85-a8be-38545ef97b22","ios":"levelo://app?vid=979e9499-88d2-4e85-a8be-38545ef97b22"},"vehicle_type_id":"4","last_reported":1741252226,"current_range_meters":12800,"station_id":"ce4bhl12rcd13ifvqgf0","pricing_plan_id":"cebpf4jnsgd1na2vs0mg"},{"bike_id":"14c614bb-d452-444b-9510-0dd691159d3e","system_id":"levelo_inurba_marseille","lat":43.30957,"lon":5.39037,"is_reserved":false,"is_disabled":false,"rental_uris":{"android":"levelo://app?vid=14c614bb-d452-444b-9510-0dd691159d3e","ios":"levelo://app?vid=14c614bb-d452-444b-9510-0dd691159d3e"},"vehicle_type_id":"4","last_reported":1741252226,"current_range_meters":14000,"station_id":"ce4bgup2rcd13ifvqco0","pricing_plan_id":"cebpf4jnsgd1na2vs0mg"},{"bike_id":"fb17b47e-3c41-4002-8ae3-c72bd0a49aa8","system_id":"levelo_inurba_marseille","lat":43.30462,"lon":5.3791,"is_reserved":false,"is_disabled":false,"rental_uris":{"android":"levelo://app?vid=fb17b47e-3c41-4002-8ae3-c72bd0a49aa8","ios":"levelo://app?vid=fb17b47e-3c41-4002-8ae3-c72bd0a49aa8"},"vehicle_type_id":"4","last_reported":1741252226,"current_range_meters":14000,"station_id":"ce4bgup2rcd13ifvqcn0","pricing_plan_id":"cebpf4jnsgd1na2vs0mg"},{"bike_id":"929dea7f-b651-442d-97f4-a9ea976ec36c","system_id":"levelo_inurba_marseille","lat":43.28372,"lon":5.3864,"is_reserved":false,"is_disabled":false,"rental_uris":{"android":"levelo://app?vid=929dea7f-b651-442d-97f4-a9ea976ec36c","ios":"levelo://app?vid=929dea7f-b651-442d-97f4-a9ea976ec36c"},"vehicle_type_id":"4","last_reported":1741252226,"current_range_meters":14000,"station_id":"ce4bh492rcd13ifvqdvg","pricing_plan_id":"cebpf4jnsgd1na2vs0mg"},{"bike_id":"9ec83695-2c29-406b-930c-97d35d980aad","system_id":"levelo_inurba_marseille","lat":43.31327,"lon":5.36722,"is_reserved":false,"is_disabled":false,"rental_uris":{"android":"levelo://app?vid=9ec83695-2c29-406b-930c-97d35d980aad","ios":"levelo://app?vid=9ec83695-2c29-406b-930c-97d35d980aad"},"vehicle_type_id":"4","last_reported":1741252226,"current_range_meters":14000,"station_id":"ce4bgr92rcd13ifvqc6g","pricing_plan_id":"cebpf4jnsgd1na2vs0mg"},{"bike_id":"0683a293-51f0-4d0e-abbf-5ca227d6f896","system_id":"levelo_inurba_marseille","lat":43.32472,"lon":5.36633,"is_reserved":false,"is_disabled":false,"rental_uris":{"android":"levelo://app?vid=0683a293-51f0-4d0e-abbf-5ca227d6f896","ios":"levelo://app?vid=0683a293-51f0-4d0e-abbf-5ca227d6f896"},"vehicle_type_id":"4","last_reported":1741252226,"current_range_meters":14000,"station_id":"ce4bhs12rcd13ifvqhvg","pricing_plan_id":"cebpf4jnsgd1na2vs0mg"},{"bike_id":"3de79faf-845c-411a-bed1-d17338ee94c9","system_id":"levelo_inurba_marseille","lat":43.299307,"lon":5.365457,"is_reserved":false,"is_disabled":false,"rental_uris":{"android":"levelo://app?vid=3de79faf-845c-411a-bed1-d17338ee94c9","ios":"levelo://app?vid=3de79faf-845c-411a-bed1-d17338ee94c9"},"vehicle_type_id":"4","last_reported":1741252226,"current_range_meters":14400,"station_id":"ce4bgm92rcd13ifvqbr0","pricing_plan_id":"cebpf4jnsgd1na2vs0mg"},{"bike_id":"b81487e6-4e94-4796-b0f1-26f672c3916d","system_id":"levelo_inurba_marseille","lat":43.30892,"lon":5.36857,"is_reserved":false,"is_disabled":false,"rental_uris":{"android":"levelo://app?vid=b81487e6-4e94-4796-b0f1-26f672c3916d","ios":"levelo://app?vid=b81487e6-4e94-4796-b0f1-26f672c3916d"},"vehicle_type_id":"4","last_reported":1741252226,"current_range_meters":14400,"station_id":"ce4bgn92rcd13ifvqbvg","pricing_plan_id":"cebpf4jnsgd1na2vs0mg"},{"bike_id":"52c2e64d-d15f-4aa1-aa34-c092f435ca6e","system_id":"levelo_inurba_marseille","lat":43.30148,"lon":5.38081,"is_reserved":false,"is_disabled":false,"rental_uris":{"android":"levelo://app?vid=52c2e64d-d15f-4aa1-aa34-c092f435ca6e","ios":"levelo://app?vid=52c2e64d-d15f-4aa1-aa34-c092f435ca6e"},"vehicle_type_id":"4","last_reported":1741252226,"current_range_meters":14400,"station_id":"ce4bgjp2rcd13ifvqbh0","pricing_plan_id":"cebpf4jnsgd1na2vs0mg"},{"bike_id":"24036bc2-2eae-4025-aada-6544bd85b5f1","system_id":"levelo_inurba_marseille","lat":43.24079,"lon":5.3776,"is_reserved":false,"is_disabled":false,"rental_uris":{"android":"levelo://app?vid=24036bc2-2eae-4025-aada-6544bd85b5f1","ios":"levelo://app?vid=24036bc2-2eae-4025-aada-6544bd85b5f1"},"vehicle_type_id":"4","last_reported":1741252226,"current_range_meters":14400,"station_id":"ce4bhnp2rcd13ifvqgvg","pricing_plan_id":"cebpf4jnsgd1na2vs0mg"},{"bike_id":"4b7964f7-0e0b-49b5-956e-434702d9d89b","system_id":"levelo_inurba_marseille","lat":43.23148,"lon":5.43724,"is_reserved":false,"is_disabled":false,"rental_uris":{"android":"levelo://app?vid=4b7964f7-0e0b-49b5-956e-434702d9d89b","ios":"levelo://app?vid=4b7964f7-0e0b-49b5-956e-434702d9d89b"},"vehicle_type_id":"4","last_reported":1741252226,"current_range_meters":14800,"station_id":"ce4bhmp2rcd13ifvqgog","pricing_plan_id":"cebpf4jnsgd1na2vs0mg"},{"bike_id":"c9fa1586-9fc6-4223-9f65-debf1e97cd32","system_id":"levelo_inurba_marseille","lat":43.30462,"lon":5.3791,"is_reserved":false,"is_disabled":false,"rental_uris":{"android":"levelo://app?vid=c9fa1586-9fc6-4223-9f65-debf1e97cd32","ios":"levelo://app?vid=c9fa1586-9fc6-4223-9f65-debf1e97cd32"},"vehicle_type_id":"4","last_reported":1741252226,"current_range_meters":14800,"station_id":"ce4bgup2rcd13ifvqcn0","pricing_plan_id":"cebpf4jnsgd1na2vs0mg"},{"bike_id":"46c83b3a-1590-4d8c-a47e-784a24cd1a5c","system_id":"levelo_inurba_marseille","lat":43.3014,"lon":5.38087,"is_reserved":false,"is_disabled":false,"rental_uris":{"android":"levelo://app?vid=46c83b3a-1590-4d8c-a47e-784a24cd1a5c","ios":"levelo://app?vid=46c83b3a-1590-4d8c-a47e-784a24cd1a5c"},"vehicle_type_id":"4","last_reported":1741252226,"current_range_meters":14800,"station_id":"ce4bgjp2rcd13ifvqbh0","pricing_plan_id":"cebpf4jnsgd1na2vs0mg"},{"bike_id":"a668d2a9-60f1-42c0-a312-c932f80f5299","system_id":"levelo_inurba_marseille","lat":43.30587,"lon":5.39359,"is_reserved":false,"is_disabled":false,"rental_uris":{"android":"levelo://app?vid=a668d2a9-60f1-42c0-a312-c932f80f5299","ios":"levelo://app?vid=a668d2a9-60f1-42c0-a312-c932f80f5299"},"vehicle_type_id":"4","last_reported":1741252226,"current_range_meters":14400,"station_id":"ce4bhpp2rcd13ifvqhfg","pricing_plan_id":"cebpf4jnsgd1na2vs0mg"},{"bike_id":"fd6f406c-9fc8-4ae1-8680-ea0b5a041fb1","system_id":"levelo_inurba_marseille","lat":43.29098,"lon":5.38122,"is_reserved":false,"is_disabled":false,"rental_uris":{"android":"levelo://app?vid=fd6f406c-9fc8-4ae1-8680-ea0b5a041fb1","ios":"levelo://app?vid=fd6f406c-9fc8-4ae1-8680-ea0b5a041fb1"},"vehicle_type_id":"4","last_reported":1741252226,"current_range_meters":14800,"station_id":"ce4bh512rcd13ifvqe2g","pricing_plan_id":"cebpf4jnsgd1na2vs0mg"},{"bike_id":"0fd15513-1c3e-443d-8fc1-867495994c6c","system_id":"levelo_inurba_marseille","lat":43.29963,"lon":5.41344,"is_reserved":false,"is_disabled":false,"rental_uris":{"android":"levelo://app?vid=0fd15513-1c3e-443d-8fc1-867495994c6c","ios":"levelo://app?vid=0fd15513-1c3e-443d-8fc1-867495994c6c"},"vehicle_type_id":"4","last_reported":1741252226,"current_range_meters":15200,"station_id":"ce4bhp12rcd13ifvqh9g","pricing_plan_id":"cebpf4jnsgd1na2vs0mg"},{"bike_id":"f2896ecd-b24b-46c4-8d75-7e3bebc05adf","system_id":"levelo_inurba_marseille","lat":43.29543,"lon":5.38541,"is_reserved":false,"is_disabled":true,"rental_uris":{"android":"levelo://app?vid=f2896ecd-b24b-46c4-8d75-7e3bebc05adf","ios":"levelo://app?vid=f2896ecd-b24b-46c4-8d75-7e3bebc05adf"},"vehicle_type_id":"4","last_reported":1741252226,"current_range_meters":15200,"station_id":"ce4bgih2rcd13ifvqba0","pricing_plan_id":"cebpf4jnsgd1na2vs0mg"},{"bike_id":"9f0f0224-b72b-4ee3-a38d-b5ba80204629","system_id":"levelo_inurba_marseille","lat":43.23188,"lon":5.35563,"is_reserved":false,"is_disabled":false,"rental_uris":{"android":"levelo://app?vid=9f0f0224-b72b-4ee3-a38d-b5ba80204629","ios":"levelo://app?vid=9f0f0224-b72b-4ee3-a38d-b5ba80204629"},"vehicle_type_id":"4","last_reported":1741252226,"current_range_meters":15200,"station_id":"ce4bhu92rcd13ifvqi70","pricing_plan_id":"cebpf4jnsgd1na2vs0mg"},{"bike_id":"6b91a6b6-fd3a-4e19-bed5-8e0ef9fac0b5","system_id":"levelo_inurba_marseille","lat":43.31504,"lon":5.37251,"is_reserved":false,"is_disabled":false,"rental_uris":{"android":"levelo://app?vid=6b91a6b6-fd3a-4e19-bed5-8e0ef9fac0b5","ios":"levelo://app?vid=6b91a6b6-fd3a-4e19-bed5-8e0ef9fac0b5"},"vehicle_type_id":"4","last_reported":1741252226,"current_range_meters":15200,"station_id":"","pricing_plan_id":"cebpf4jnsgd1na2vs0mg"},{"bike_id":"1beb12c1-e629-4277-b647-869437ab09f2","system_id":"levelo_inurba_marseille","lat":43.24157,"lon":5.39744,"is_reserved":false,"is_disabled":false,"rental_uris":{"android":"levelo://app?vid=1beb12c1-e629-4277-b647-869437ab09f2","ios":"levelo://app?vid=1beb12c1-e629-4277-b647-869437ab09f2"},"vehicle_type_id":"4","last_reported":1741252226,"current_range_meters":15200,"station_id":"ce4bhn12rcd13ifvqgpg","pricing_plan_id":"cebpf4jnsgd1na2vs0mg"},{"bike_id":"52b19b0a-896e-4508-971e-9b8862ef11d0","system_id":"levelo_inurba_marseille","lat":43.23065,"lon":5.35521,"is_reserved":false,"is_disabled":false,"rental_uris":{"android":"levelo://app?vid=52b19b0a-896e-4508-971e-9b8862ef11d0","ios":"levelo://app?vid=52b19b0a-896e-4508-971e-9b8862ef11d0"},"vehicle_type_id":"4","last_reported":1741252226,"current_range_meters":16000,"station_id":"cpo3342slgdg3j2ifvpg","pricing_plan_id":"cebpf4jnsgd1na2vs0mg"},{"bike_id":"6677cd50-1a42-4a45-a2b5-dd81b6c142f3","system_id":"levelo_inurba_marseille","lat":43.30275,"lon":5.37706,"is_reserved":false,"is_disabled":false,"rental_uris":{"android":"levelo://app?vid=6677cd50-1a42-4a45-a2b5-dd81b6c142f3","ios":"levelo://app?vid=6677cd50-1a42-4a45-a2b5-dd81b6c142f3"},"vehicle_type_id":"4","last_reported":1741252226,"current_range_meters":16000,"station_id":"ce4bguh2rcd13ifvqcj0","pricing_plan_id":"cebpf4jnsgd1na2vs0mg"},{"bike_id":"ce51e43d-08e5-4352-a6bd-d7aa7e8463bf","system_id":"levelo_inurba_marseille","lat":43.32481,"lon":5.36581,"is_reserved":false,"is_disabled":false,"rental_uris":{"android":"levelo://app?vid=ce51e43d-08e5-4352-a6bd-d7aa7e8463bf","ios":"levelo://app?vid=ce51e43d-08e5-4352-a6bd-d7aa7e8463bf"},"vehicle_type_id":"4","last_reported":1741252226,"current_range_meters":16000,"station_id":"ce4bhs12rcd13ifvqhvg","pricing_plan_id":"cebpf4jnsgd1na2vs0mg"},{"bike_id":"832d2793-cf2c-4571-b170-1c742986cf6d","system_id":"levelo_inurba_marseille","lat":43.28351,"lon":5.38113,"is_reserved":false,"is_disabled":false,"rental_uris":{"android":"levelo://app?vid=832d2793-cf2c-4571-b170-1c742986cf6d","ios":"levelo://app?vid=832d2793-cf2c-4571-b170-1c742986cf6d"},"vehicle_type_id":"4","last_reported":1741252226,"current_range_meters":15200,"station_id":"ce4bh412rcd13ifvqdr0","pricing_plan_id":"cebpf4jnsgd1na2vs0mg"},{"bike_id":"1fa5a069-71a6-4143-a22b-2c5e47e0c0c9","system_id":"levelo_inurba_marseille","lat":43.28436,"lon":5.34986,"is_reserved":false,"is_disabled":false,"rental_uris":{"android":"levelo://app?vid=1fa5a069-71a6-4143-a22b-2c5e47e0c0c9","ios":"levelo://app?vid=1fa5a069-71a6-4143-a22b-2c5e47e0c0c9"},"vehicle_type_id":"4","last_reported":1741252226,"current_range_meters":16000,"station_id":"ce4bhbh2rcd13ifvqepg","pricing_plan_id":"cebpf4jnsgd1na2vs0mg"},{"bike_id":"d21529b2-436f-4e4f-8b10-b066b476de74","system_id":"levelo_inurba_marseille","lat":43.264971,"lon":5.395394,"is_reserved":false,"is_disabled":false,"rental_uris":{"android":"levelo://app?vid=d21529b2-436f-4e4f-8b10-b066b476de74","ios":"levelo://app?vid=d21529b2-436f-4e4f-8b10-b066b476de74"},"vehicle_type_id":"4","last_reported":1741252226,"current_range_meters":16000,"station_id":"ce4bhlh2rcd13ifvqgig","pricing_plan_id":"cebpf4jnsgd1na2vs0mg"},{"bike_id":"8ee5f723-8d35-4bd4-90aa-e1609b359182","system_id":"levelo_inurba_marseille","lat":43.27472,"lon":5.42466,"is_reserved":false,"is_disabled":true,"rental_uris":{"android":"levelo://app?vid=8ee5f723-8d35-4bd4-90aa-e1609b359182","ios":"levelo://app?vid=8ee5f723-8d35-4bd4-90aa-e1609b359182"},"vehicle_type_id":"4","last_reported":1741252226,"current_range_meters":16000,"station_id":"ce4bhn92rcd13ifvqgrg","pricing_plan_id":"cebpf4jnsgd1na2vs0mg"},{"bike_id":"d0975067-6820-4c9b-8967-2dcd7378fd4f","system_id":"levelo_inurba_marseille","lat":43.30474,"lon":5.37906,"is_reserved":false,"is_disabled":false,"rental_uris":{"android":"levelo://app?vid=d0975067-6820-4c9b-8967-2dcd7378fd4f","ios":"levelo://app?vid=d0975067-6820-4c9b-8967-2dcd7378fd4f"},"vehicle_type_id":"4","last_reported":1741252226,"current_range_meters":16000,"station_id":"ce4bgup2rcd13ifvqcn0","pricing_plan_id":"cebpf4jnsgd1na2vs0mg"},{"bike_id":"96466a0c-1384-4def-a6a0-c76c0eb0954d","system_id":"levelo_inurba_marseille","lat":43.30911,"lon":5.36851,"is_reserved":false,"is_disabled":false,"rental_uris":{"android":"levelo://app?vid=96466a0c-1384-4def-a6a0-c76c0eb0954d","ios":"levelo://app?vid=96466a0c-1384-4def-a6a0-c76c0eb0954d"},"vehicle_type_id":"4","last_reported":1741252226,"current_range_meters":16000,"station_id":"ce4bgn92rcd13ifvqbvg","pricing_plan_id":"cebpf4jnsgd1na2vs0mg"},{"bike_id":"2f7f5d6f-ba2a-4126-af71-dfeac7995dcd","system_id":"levelo_inurba_marseille","lat":43.23154,"lon":5.43723,"is_reserved":false,"is_disabled":false,"rental_uris":{"android":"levelo://app?vid=2f7f5d6f-ba2a-4126-af71-dfeac7995dcd","ios":"levelo://app?vid=2f7f5d6f-ba2a-4126-af71-dfeac7995dcd"},"vehicle_type_id":"4","last_reported":1741252226,"current_range_meters":16400,"station_id":"ce4bhmp2rcd13ifvqgog","pricing_plan_id":"cebpf4jnsgd1na2vs0mg"},{"bike_id":"75c6c646-6ede-44e8-83f0-659d8c20c0df","system_id":"levelo_inurba_marseille","lat":43.29035,"lon":5.39968,"is_reserved":false,"is_disabled":false,"rental_uris":{"android":"levelo://app?vid=75c6c646-6ede-44e8-83f0-659d8c20c0df","ios":"levelo://app?vid=75c6c646-6ede-44e8-83f0-659d8c20c0df"},"vehicle_type_id":"4","last_reported":1741252226,"current_range_meters":16400,"station_id":"ce4bh392rcd13ifvqdm0","pricing_plan_id":"cebpf4jnsgd1na2vs0mg"},{"bike_id":"9806457d-4f4b-480b-82f9-5f8a7b8c485c","system_id":"levelo_inurba_marseille","lat":43.30292,"lon":5.37703,"is_reserved":false,"is_disabled":false,"rental_uris":{"android":"levelo://app?vid=9806457d-4f4b-480b-82f9-5f8a7b8c485c","ios":"levelo://app?vid=9806457d-4f4b-480b-82f9-5f8a7b8c485c"},"vehicle_type_id":"4","last_reported":1741252226,"current_range_meters":16400,"station_id":"ce4bguh2rcd13ifvqcj0","pricing_plan_id":"cebpf4jnsgd1na2vs0mg"},{"bike_id":"5ec6c0ad-1530-4f81-813f-189637cdd41a","system_id":"levelo_inurba_marseille","lat":43.26946,"lon":5.38638,"is_reserved":false,"is_disabled":false,"rental_uris":{"android":"levelo://app?vid=5ec6c0ad-1530-4f81-813f-189637cdd41a","ios":"levelo://app?vid=5ec6c0ad-1530-4f81-813f-189637cdd41a"},"vehicle_type_id":"4","last_reported":1741252226,"current_range_meters":16400,"station_id":"ce4bhh92rcd13ifvqfh0","pricing_plan_id":"cebpf4jnsgd1na2vs0mg"},{"bike_id":"396b3c83-63a7-4e9f-81bd-e5810b939dad","system_id":"levelo_inurba_marseille","lat":43.28614,"lon":5.35113,"is_reserved":false,"is_disabled":false,"rental_uris":{"android":"levelo://app?vid=396b3c83-63a7-4e9f-81bd-e5810b939dad","ios":"levelo://app?vid=396b3c83-63a7-4e9f-81bd-e5810b939dad"},"vehicle_type_id":"4","last_reported":1741252226,"current_range_meters":16400,"station_id":"ce4bhch2rcd13ifvqeug","pricing_plan_id":"cebpf4jnsgd1na2vs0mg"},{"bike_id":"c92bfcd4-eec3-4a93-89eb-9760b76a2e31","system_id":"levelo_inurba_marseille","lat":43.25928,"lon":5.40905,"is_reserved":false,"is_disabled":false,"rental_uris":{"android":"levelo://app?vid=c92bfcd4-eec3-4a93-89eb-9760b76a2e31","ios":"levelo://app?vid=c92bfcd4-eec3-4a93-89eb-9760b76a2e31"},"vehicle_type_id":"4","last_reported":1741252226,"current_range_meters":16400,"station_id":"ce4bhm92rcd13ifvqglg","pricing_plan_id":"cebpf4jnsgd1na2vs0mg"},{"bike_id":"b085439e-cb6b-496a-a8f4-7c0b0e3f5ec0","system_id":"levelo_inurba_marseille","lat":43.33721,"lon":5.35597,"is_reserved":false,"is_disabled":false,"rental_uris":{"android":"levelo://app?vid=b085439e-cb6b-496a-a8f4-7c0b0e3f5ec0","ios":"levelo://app?vid=b085439e-cb6b-496a-a8f4-7c0b0e3f5ec0"},"vehicle_type_id":"4","last_reported":1741252226,"current_range_meters":16400,"station_id":"","pricing_plan_id":"cebpf4jnsgd1na2vs0mg"},{"bike_id":"da20aebd-fb31-401d-bda2-a7f17bc6eab9","system_id":"levelo_inurba_marseille","lat":43.290161,"lon":5.381278,"is_reserved":false,"is_disabled":false,"rental_uris":{"android":"levelo://app?vid=da20aebd-fb31-401d-bda2-a7f17bc6eab9","ios":"levelo://app?vid=da20aebd-fb31-401d-bda2-a7f17bc6eab9"},"vehicle_type_id":"4","last_reported":1741252226,"current_range_meters":16400,"station_id":"cjm6bp8fraef2m0cb0m0","pricing_plan_id":"cebpf4jnsgd1na2vs0mg"},{"bike_id":"075c435d-6b14-4dfb-91b7-09fb5f865434","system_id":"levelo_inurba_marseille","lat":43.31369,"lon":5.36709,"is_reserved":false,"is_disabled":false,"rental_uris":{"android":"levelo://app?vid=075c435d-6b14-4dfb-91b7-09fb5f865434","ios":"levelo://app?vid=075c435d-6b14-4dfb-91b7-09fb5f865434"},"vehicle_type_id":"4","last_reported":1741252226,"current_range_meters":16800,"station_id":"ce4bgr92rcd13ifvqc6g","pricing_plan_id":"cebpf4jnsgd1na2vs0mg"},{"bike_id":"9d48d9fa-a15e-4d33-9598-696d2dab2014","system_id":"levelo_inurba_marseille","lat":43.24056,"lon":5.37764,"is_reserved":false,"is_disabled":false,"rental_uris":{"android":"levelo://app?vid=9d48d9fa-a15e-4d33-9598-696d2dab2014","ios":"levelo://app?vid=9d48d9fa-a15e-4d33-9598-696d2dab2014"},"vehicle_type_id":"4","last_reported":1741252226,"current_range_meters":16800,"station_id":"ce4bhnp2rcd13ifvqgvg","pricing_plan_id":"cebpf4jnsgd1na2vs0mg"},{"bike_id":"c1cb82e5-3a01-40b8-91a0-c876c2be072c","system_id":"levelo_inurba_marseille","lat":43.2784,"lon":5.39219,"is_reserved":false,"is_disabled":false,"rental_uris":{"android":"levelo://app?vid=c1cb82e5-3a01-40b8-91a0-c876c2be072c","ios":"levelo://app?vid=c1cb82e5-3a01-40b8-91a0-c876c2be072c"},"vehicle_type_id":"4","last_reported":1741252226,"current_range_meters":16400,"station_id":"ce4bhjp2rcd13ifvqga0","pricing_plan_id":"cebpf4jnsgd1na2vs0mg"},{"bike_id":"102d8b71-b688-4189-b738-f4e9e5b8c77d","system_id":"levelo_inurba_marseille","lat":43.29957,"lon":5.4132,"is_reserved":false,"is_disabled":false,"rental_uris":{"android":"levelo://app?vid=102d8b71-b688-4189-b738-f4e9e5b8c77d","ios":"levelo://app?vid=102d8b71-b688-4189-b738-f4e9e5b8c77d"},"vehicle_type_id":"4","last_reported":1741252226,"current_range_meters":16800,"station_id":"ce4bhp12rcd13ifvqh9g","pricing_plan_id":"cebpf4jnsgd1na2vs0mg"},{"bike_id":"b85fe782-f60f-4310-901e-397733b8910d","system_id":"levelo_inurba_marseille","lat":43.29071,"lon":5.37169,"is_reserved":false,"is_disabled":false,"rental_uris":{"android":"levelo://app?vid=b85fe782-f60f-4310-901e-397733b8910d","ios":"levelo://app?vid=b85fe782-f60f-4310-901e-397733b8910d"},"vehicle_type_id":"4","last_reported":1741252226,"current_range_meters":16800,"station_id":"ce4bh112rcd13ifvqda0","pricing_plan_id":"cebpf4jnsgd1na2vs0mg"},{"bike_id":"218732f9-7aab-45b6-927d-b736f1586618","system_id":"levelo_inurba_marseille","lat":43.31848,"lon":5.38769,"is_reserved":false,"is_disabled":false,"rental_uris":{"android":"levelo://app?vid=218732f9-7aab-45b6-927d-b736f1586618","ios":"levelo://app?vid=218732f9-7aab-45b6-927d-b736f1586618"},"vehicle_type_id":"4","last_reported":1741252226,"current_range_meters":16800,"station_id":"","pricing_plan_id":"cebpf4jnsgd1na2vs0mg"},{"bike_id":"6f95132a-28da-4f84-b698-ab324d2cd8d7","system_id":"levelo_inurba_marseille","lat":43.26199,"lon":5.37932,"is_reserved":false,"is_disabled":false,"rental_uris":{"android":"levelo://app?vid=6f95132a-28da-4f84-b698-ab324d2cd8d7","ios":"levelo://app?vid=6f95132a-28da-4f84-b698-ab324d2cd8d7"},"vehicle_type_id":"4","last_reported":1741252226,"current_range_meters":16800,"station_id":"ce4bhjp2rcd13ifvqg90","pricing_plan_id":"cebpf4jnsgd1na2vs0mg"},{"bike_id":"7d73e3df-94a0-42a0-b286-119cf13e4f75","system_id":"levelo_inurba_marseille","lat":43.29845,"lon":5.36278,"is_reserved":false,"is_disabled":false,"rental_uris":{"android":"levelo://app?vid=7d73e3df-94a0-42a0-b286-119cf13e4f75","ios":"levelo://app?vid=7d73e3df-94a0-42a0-b286-119cf13e4f75"},"vehicle_type_id":"4","last_reported":1741252226,"current_range_meters":16800,"station_id":"ce4bgpp2rcd13ifvqc3g","pricing_plan_id":"cebpf4jnsgd1na2vs0mg"},{"bike_id":"178aea7f-7674-424d-afa6-de3580ee38e5","system_id":"levelo_inurba_marseille","lat":43.30168,"lon":5.36628,"is_reserved":false,"is_disabled":false,"rental_uris":{"android":"levelo://app?vid=178aea7f-7674-424d-afa6-de3580ee38e5","ios":"levelo://app?vid=178aea7f-7674-424d-afa6-de3580ee38e5"},"vehicle_type_id":"4","last_reported":1741252226,"current_range_meters":16800,"station_id":"ce4bgrh2rcd13ifvqc8g","pricing_plan_id":"cebpf4jnsgd1na2vs0mg"},{"bike_id":"0061a3d5-2afe-4e14-b8e5-2ba2c4807de7","system_id":"levelo_inurba_marseille","lat":43.32538,"lon":5.41433,"is_reserved":false,"is_disabled":false,"rental_uris":{"android":"levelo://app?vid=0061a3d5-2afe-4e14-b8e5-2ba2c4807de7","ios":"levelo://app?vid=0061a3d5-2afe-4e14-b8e5-2ba2c4807de7"},"vehicle_type_id":"4","last_reported":1741252226,"current_range_meters":16800,"station_id":"ce4bhq12rcd13ifvqhhg","pricing_plan_id":"cebpf4jnsgd1na2vs0mg"},{"bike_id":"43bf0e86-1072-4836-816e-dbe642614423","system_id":"levelo_inurba_marseille","lat":43.30485,"lon":5.37912,"is_reserved":false,"is_disabled":false,"rental_uris":{"android":"levelo://app?vid=43bf0e86-1072-4836-816e-dbe642614423","ios":"levelo://app?vid=43bf0e86-1072-4836-816e-dbe642614423"},"vehicle_type_id":"4","last_reported":1741252226,"current_range_meters":17200,"station_id":"ce4bgup2rcd13ifvqcn0","pricing_plan_id":"cebpf4jnsgd1na2vs0mg"},{"bike_id":"fec809e4-6231-4979-af8a-fbdf23627286","system_id":"levelo_inurba_marseille","lat":43.28727,"lon":5.36087,"is_reserved":false,"is_disabled":false,"rental_uris":{"android":"levelo://app?vid=fec809e4-6231-4979-af8a-fbdf23627286","ios":"levelo://app?vid=fec809e4-6231-4979-af8a-fbdf23627286"},"vehicle_type_id":"4","last_reported":1741252226,"current_range_meters":17200,"station_id":"cki0cbj6b192h4jlfktg","pricing_plan_id":"cebpf4jnsgd1na2vs0mg"},{"bike_id":"459ed71f-fb70-4100-aa95-83a472c1824f","system_id":"levelo_inurba_marseille","lat":43.301437,"lon":5.37411,"is_reserved":false,"is_disabled":false,"rental_uris":{"android":"levelo://app?vid=459ed71f-fb70-4100-aa95-83a472c1824f","ios":"levelo://app?vid=459ed71f-fb70-4100-aa95-83a472c1824f"},"vehicle_type_id":"4","last_reported":1741252226,"current_range_meters":17200,"station_id":"ce4bgs92rcd13ifvqcc0","pricing_plan_id":"cebpf4jnsgd1na2vs0mg"},{"bike_id":"89a239ee-7c47-4377-a55d-c10cfde61abd","system_id":"levelo_inurba_marseille","lat":43.30541,"lon":5.36708,"is_reserved":false,"is_disabled":false,"rental_uris":{"android":"levelo://app?vid=89a239ee-7c47-4377-a55d-c10cfde61abd","ios":"levelo://app?vid=89a239ee-7c47-4377-a55d-c10cfde61abd"},"vehicle_type_id":"4","last_reported":1741252226,"current_range_meters":17200,"station_id":"ce4bgrp2rcd13ifvqc9g","pricing_plan_id":"cebpf4jnsgd1na2vs0mg"},{"bike_id":"b33ef1ad-3c2b-49ba-8ea8-d986a8cac053","system_id":"levelo_inurba_marseille","lat":43.2318,"lon":5.39991,"is_reserved":false,"is_disabled":false,"rental_uris":{"android":"levelo://app?vid=b33ef1ad-3c2b-49ba-8ea8-d986a8cac053","ios":"levelo://app?vid=b33ef1ad-3c2b-49ba-8ea8-d986a8cac053"},"vehicle_type_id":"4","last_reported":1741252226,"current_range_meters":17200,"station_id":"ce4bhn12rcd13ifvqgqg","pricing_plan_id":"cebpf4jnsgd1na2vs0mg"},{"bike_id":"6e7b1fd6-591c-4440-a85a-d6acf7d4b5a1","system_id":"levelo_inurba_marseille","lat":43.2917,"lon":5.37172,"is_reserved":false,"is_disabled":false,"rental_uris":{"android":"levelo://app?vid=6e7b1fd6-591c-4440-a85a-d6acf7d4b5a1","ios":"levelo://app?vid=6e7b1fd6-591c-4440-a85a-d6acf7d4b5a1"},"vehicle_type_id":"4","last_reported":1741252226,"current_range_meters":17200,"station_id":"ce4bha92rcd13ifvqeh0","pricing_plan_id":"cebpf4jnsgd1na2vs0mg"},{"bike_id":"7622fcff-0cb1-4eae-8615-56c51081d3d9","system_id":"levelo_inurba_marseille","lat":43.2315,"lon":5.43718,"is_reserved":false,"is_disabled":false,"rental_uris":{"android":"levelo://app?vid=7622fcff-0cb1-4eae-8615-56c51081d3d9","ios":"levelo://app?vid=7622fcff-0cb1-4eae-8615-56c51081d3d9"},"vehicle_type_id":"4","last_reported":1741252226,"current_range_meters":17200,"station_id":"ce4bhmp2rcd13ifvqgog","pricing_plan_id":"cebpf4jnsgd1na2vs0mg"},{"bike_id":"1cd69c1e-f2a2-4a5c-bf79-adc85fbf8cc4","system_id":"levelo_inurba_marseille","lat":43.31172,"lon":5.38716,"is_reserved":false,"is_disabled":false,"rental_uris":{"android":"levelo://app?vid=1cd69c1e-f2a2-4a5c-bf79-adc85fbf8cc4","ios":"levelo://app?vid=1cd69c1e-f2a2-4a5c-bf79-adc85fbf8cc4"},"vehicle_type_id":"4","last_reported":1741252226,"current_range_meters":17200,"station_id":"ce4bgv12rcd13ifvqcp0","pricing_plan_id":"cebpf4jnsgd1na2vs0mg"},{"bike_id":"8e253005-1e67-480d-9b43-caaa2b70656b","system_id":"levelo_inurba_marseille","lat":43.2749,"lon":5.42463,"is_reserved":false,"is_disabled":true,"rental_uris":{"android":"levelo://app?vid=8e253005-1e67-480d-9b43-caaa2b70656b","ios":"levelo://app?vid=8e253005-1e67-480d-9b43-caaa2b70656b"},"vehicle_type_id":"4","last_reported":1741252226,"current_range_meters":17200,"station_id":"ce4bhn92rcd13ifvqgrg","pricing_plan_id":"cebpf4jnsgd1na2vs0mg"},{"bike_id":"2195d6c0-bbff-4245-a0ee-53b4673cc551","system_id":"levelo_inurba_marseille","lat":43.24068,"lon":5.37762,"is_reserved":false,"is_disabled":false,"rental_uris":{"android":"levelo://app?vid=2195d6c0-bbff-4245-a0ee-53b4673cc551","ios":"levelo://app?vid=2195d6c0-bbff-4245-a0ee-53b4673cc551"},"vehicle_type_id":"4","last_reported":1741252226,"current_range_meters":17200,"station_id":"ce4bhnp2rcd13ifvqgvg","pricing_plan_id":"cebpf4jnsgd1na2vs0mg"},{"bike_id":"13736344-3bac-4d9c-ba86-385cf9c9d9f0","system_id":"levelo_inurba_marseille","lat":43.25821,"lon":5.39434,"is_reserved":false,"is_disabled":false,"rental_uris":{"android":"levelo://app?vid=13736344-3bac-4d9c-ba86-385cf9c9d9f0","ios":"levelo://app?vid=13736344-3bac-4d9c-ba86-385cf9c9d9f0"},"vehicle_type_id":"4","last_reported":1741252226,"current_range_meters":17200,"station_id":"ce4bhip2rcd13ifvqft0","pricing_plan_id":"cebpf4jnsgd1na2vs0mg"},{"bike_id":"cebb6504-396c-41fc-9943-57e158751507","system_id":"levelo_inurba_marseille","lat":43.29058,"lon":5.39985,"is_reserved":false,"is_disabled":false,"rental_uris":{"android":"levelo://app?vid=cebb6504-396c-41fc-9943-57e158751507","ios":"levelo://app?vid=cebb6504-396c-41fc-9943-57e158751507"},"vehicle_type_id":"4","last_reported":1741252226,"current_range_meters":17200,"station_id":"ce4bh392rcd13ifvqdm0","pricing_plan_id":"cebpf4jnsgd1na2vs0mg"},{"bike_id":"54833c0a-a9a7-4c42-873b-474bce89055b","system_id":"levelo_inurba_marseille","lat":43.23065,"lon":5.35503,"is_reserved":false,"is_disabled":false,"rental_uris":{"android":"levelo://app?vid=54833c0a-a9a7-4c42-873b-474bce89055b","ios":"levelo://app?vid=54833c0a-a9a7-4c42-873b-474bce89055b"},"vehicle_type_id":"4","last_reported":1741252226,"current_range_meters":17200,"station_id":"cpo3342slgdg3j2ifvpg","pricing_plan_id":"cebpf4jnsgd1na2vs0mg"},{"bike_id":"d0a9e0b6-7460-48af-b167-fa241d6b44c3","system_id":"levelo_inurba_marseille","lat":43.32121,"lon":5.36801,"is_reserved":false,"is_disabled":false,"rental_uris":{"android":"levelo://app?vid=d0a9e0b6-7460-48af-b167-fa241d6b44c3","ios":"levelo://app?vid=d0a9e0b6-7460-48af-b167-fa241d6b44c3"},"vehicle_type_id":"4","last_reported":1741252226,"current_range_meters":17200,"station_id":"ce4bhrh2rcd13ifvqhug","pricing_plan_id":"cebpf4jnsgd1na2vs0mg"},{"bike_id":"b2d7984b-f695-4724-b688-65efa1ea68ce","system_id":"levelo_inurba_marseille","lat":43.3091,"lon":5.36836,"is_reserved":false,"is_disabled":false,"rental_uris":{"android":"levelo://app?vid=b2d7984b-f695-4724-b688-65efa1ea68ce","ios":"levelo://app?vid=b2d7984b-f695-4724-b688-65efa1ea68ce"},"vehicle_type_id":"4","last_reported":1741252226,"current_range_meters":17600,"station_id":"ce4bgn92rcd13ifvqbvg","pricing_plan_id":"cebpf4jnsgd1na2vs0mg"},{"bike_id":"67d91b02-f2b7-4862-9a17-5bcc567241ce","system_id":"levelo_inurba_marseille","lat":43.28149,"lon":5.42681,"is_reserved":false,"is_disabled":false,"rental_uris":{"android":"levelo://app?vid=67d91b02-f2b7-4862-9a17-5bcc567241ce","ios":"levelo://app?vid=67d91b02-f2b7-4862-9a17-5bcc567241ce"},"vehicle_type_id":"4","last_reported":1741252226,"current_range_meters":17600,"station_id":"ce4bhnh2rcd13ifvqgug","pricing_plan_id":"cebpf4jnsgd1na2vs0mg"},{"bike_id":"9b9d9974-5a54-42bc-9756-5def0b0a2eb4","system_id":"levelo_inurba_marseille","lat":43.26684,"lon":5.38267,"is_reserved":false,"is_disabled":false,"rental_uris":{"android":"levelo://app?vid=9b9d9974-5a54-42bc-9756-5def0b0a2eb4","ios":"levelo://app?vid=9b9d9974-5a54-42bc-9756-5def0b0a2eb4"},"vehicle_type_id":"4","last_reported":1741252226,"current_range_meters":17600,"station_id":"ce4bhg92rcd13ifvqf90","pricing_plan_id":"cebpf4jnsgd1na2vs0mg"},{"bike_id":"8f8ffd82-d094-4076-99ce-302d87adc130","system_id":"levelo_inurba_marseille","lat":43.30952,"lon":5.39051,"is_reserved":false,"is_disabled":true,"rental_uris":{"android":"levelo://app?vid=8f8ffd82-d094-4076-99ce-302d87adc130","ios":"levelo://app?vid=8f8ffd82-d094-4076-99ce-302d87adc130"},"vehicle_type_id":"4","last_reported":1741252226,"current_range_meters":17600,"station_id":"ce4bgup2rcd13ifvqco0","pricing_plan_id":"cebpf4jnsgd1na2vs0mg"},{"bike_id":"14c75ee1-8fa9-405a-ae33-5c4f783af916","system_id":"levelo_inurba_marseille","lat":43.30154,"lon":5.38087,"is_reserved":false,"is_disabled":false,"rental_uris":{"android":"levelo://app?vid=14c75ee1-8fa9-405a-ae33-5c4f783af916","ios":"levelo://app?vid=14c75ee1-8fa9-405a-ae33-5c4f783af916"},