{"last_updated":1778884944,"ttl":60,"version":"2.2","data":{"bikes":[{"bike_id":"21667dd1-9598-455d-b496-5fa366bd70f8","system_id":"levelo_inurba_marseille","lat":43.24179,"lon":5.39728,"is_reserved":false,"is_disabled":false,"rental_uris":{"android":"levelo://app?vid=21667dd1-9598-455d-b496-5fa366bd70f8","ios":"levelo://app?vid=21667dd1-9598-455d-b496-5fa366bd70f8"},"vehicle_type_id":"4","last_reported":1778884945,"current_range_meters":2800,"station_id":"ce4bhn12rcd13ifvqgpg","pricing_plan_id":"cebpf4jnsgd1na2vs0mg"},{"bike_id":"238fcf7d-cec0-4ad4-91cd-954112bf38b3","system_id":"levelo_inurba_marseille","lat":43.30893,"lon":5.39655,"is_reserved":false,"is_disabled":false,"rental_uris":{"android":"levelo://app?vid=238fcf7d-cec0-4ad4-91cd-954112bf38b3","ios":"levelo://app?vid=238fcf7d-cec0-4ad4-91cd-954112bf38b3"},"vehicle_type_id":"4","last_reported":1778884945,"current_range_meters":2800,"station_id":"ce4bh012rcd13ifvqcv0","pricing_plan_id":"cebpf4jnsgd1na2vs0mg"},{"bike_id":"57716f1b-e850-455e-8535-b5db4b2543ce","system_id":"levelo_inurba_marseille","lat":43.27962,"lon":5.38729,"is_reserved":false,"is_disabled":false,"rental_uris":{"android":"levelo://app?vid=57716f1b-e850-455e-8535-b5db4b2543ce","ios":"levelo://app?vid=57716f1b-e850-455e-8535-b5db4b2543ce"},"vehicle_type_id":"4","last_reported":1778884945,"current_range_meters":2800,"station_id":"ce4bhg12rcd13ifvqf80","pricing_plan_id":"cebpf4jnsgd1na2vs0mg"},{"bike_id":"55dffde5-66bf-4aea-92e0-6969656f8c96","system_id":"levelo_inurba_marseille","lat":43.29003,"lon":5.35615,"is_reserved":false,"is_disabled":false,"rental_uris":{"android":"levelo://app?vid=55dffde5-66bf-4aea-92e0-6969656f8c96","ios":"levelo://app?vid=55dffde5-66bf-4aea-92e0-6969656f8c96"},"vehicle_type_id":"4","last_reported":1778884945,"current_range_meters":2800,"station_id":"ce4bhb92rcd13ifvqen0","pricing_plan_id":"cebpf4jnsgd1na2vs0mg"},{"bike_id":"cb0dd88b-146d-491c-bf64-528623d58e4e","system_id":"levelo_inurba_marseille","lat":43.28563,"lon":5.39501,"is_reserved":false,"is_disabled":false,"rental_uris":{"android":"levelo://app?vid=cb0dd88b-146d-491c-bf64-528623d58e4e","ios":"levelo://app?vid=cb0dd88b-146d-491c-bf64-528623d58e4e"},"vehicle_type_id":"4","last_reported":1778884945,"current_range_meters":2800,"station_id":"ce4bh292rcd13ifvqdg0","pricing_plan_id":"cebpf4jnsgd1na2vs0mg"},{"bike_id":"ff621d55-e944-4196-836b-2885d7d34f1e","system_id":"levelo_inurba_marseille","lat":43.2391,"lon":5.37439,"is_reserved":false,"is_disabled":true,"rental_uris":{"android":"levelo://app?vid=ff621d55-e944-4196-836b-2885d7d34f1e","ios":"levelo://app?vid=ff621d55-e944-4196-836b-2885d7d34f1e"},"vehicle_type_id":"4","last_reported":1778884945,"current_range_meters":2800,"station_id":"st_d6sm7csbq4hs73f8fpjg","pricing_plan_id":"cebpf4jnsgd1na2vs0mg"},{"bike_id":"8245535e-e8f6-450f-8271-b247e7ffd116","system_id":"levelo_inurba_marseille","lat":43.25111,"lon":5.40327,"is_reserved":false,"is_disabled":false,"rental_uris":{"android":"levelo://app?vid=8245535e-e8f6-450f-8271-b247e7ffd116","ios":"levelo://app?vid=8245535e-e8f6-450f-8271-b247e7ffd116"},"vehicle_type_id":"4","last_reported":1778884945,"current_range_meters":2800,"station_id":"ce4bhlh2rcd13ifvqgig","pricing_plan_id":"cebpf4jnsgd1na2vs0mg"},{"bike_id":"0687712c-226f-48a8-aba7-a626e608d9f3","system_id":"levelo_inurba_marseille","lat":43.2859,"lon":5.39479,"is_reserved":false,"is_disabled":false,"rental_uris":{"android":"levelo://app?vid=0687712c-226f-48a8-aba7-a626e608d9f3","ios":"levelo://app?vid=0687712c-226f-48a8-aba7-a626e608d9f3"},"vehicle_type_id":"4","last_reported":1778884945,"current_range_meters":2800,"station_id":"ce4bh292rcd13ifvqdg0","pricing_plan_id":"cebpf4jnsgd1na2vs0mg"},{"bike_id":"f8f43b51-e856-4680-8165-fa2dc57ab4ec","system_id":"levelo_inurba_marseille","lat":43.33162,"lon":5.40636,"is_reserved":false,"is_disabled":false,"rental_uris":{"android":"levelo://app?vid=f8f43b51-e856-4680-8165-fa2dc57ab4ec","ios":"levelo://app?vid=f8f43b51-e856-4680-8165-fa2dc57ab4ec"},"vehicle_type_id":"4","last_reported":1778884945,"current_range_meters":2800,"station_id":"","pricing_plan_id":"cebpf4jnsgd1na2vs0mg"},{"bike_id":"1916d67b-fa7f-4f0a-b648-678d6987a8f7","system_id":"levelo_inurba_marseille","lat":43.225359,"lon":5.348402,"is_reserved":false,"is_disabled":true,"rental_uris":{"android":"levelo://app?vid=1916d67b-fa7f-4f0a-b648-678d6987a8f7","ios":"levelo://app?vid=1916d67b-fa7f-4f0a-b648-678d6987a8f7"},"vehicle_type_id":"4","last_reported":1778884945,"current_range_meters":2800,"station_id":"st_cvj5dfep6f1abm77gieg","pricing_plan_id":"cebpf4jnsgd1na2vs0mg"},{"bike_id":"f36cdbee-066a-4a86-9446-8004149e84e2","system_id":"levelo_inurba_marseille","lat":43.28702,"lon":5.46688,"is_reserved":false,"is_disabled":false,"rental_uris":{"android":"levelo://app?vid=f36cdbee-066a-4a86-9446-8004149e84e2","ios":"levelo://app?vid=f36cdbee-066a-4a86-9446-8004149e84e2"},"vehicle_type_id":"4","last_reported":1778884945,"current_range_meters":3200,"station_id":"st_d6tc3vkotcvc738tfjhg","pricing_plan_id":"cebpf4jnsgd1na2vs0mg"},{"bike_id":"968f4444-1818-4ba9-9353-9bce9dac0c34","system_id":"levelo_inurba_marseille","lat":43.28034,"lon":5.3695,"is_reserved":false,"is_disabled":false,"rental_uris":{"android":"levelo://app?vid=968f4444-1818-4ba9-9353-9bce9dac0c34","ios":"levelo://app?vid=968f4444-1818-4ba9-9353-9bce9dac0c34"},"vehicle_type_id":"4","last_reported":1778884945,"current_range_meters":3200,"station_id":"ce4bha12rcd13ifvqef0","pricing_plan_id":"cebpf4jnsgd1na2vs0mg"},{"bike_id":"72002be6-07b4-4df1-b616-2a480884b745","system_id":"levelo_inurba_marseille","lat":43.28833,"lon":5.39647,"is_reserved":false,"is_disabled":false,"rental_uris":{"android":"levelo://app?vid=72002be6-07b4-4df1-b616-2a480884b745","ios":"levelo://app?vid=72002be6-07b4-4df1-b616-2a480884b745"},"vehicle_type_id":"4","last_reported":1778884945,"current_range_meters":3200,"station_id":"","pricing_plan_id":"cebpf4jnsgd1na2vs0mg"},{"bike_id":"54c3883d-19ba-4108-9be9-352862d56bcd","system_id":"levelo_inurba_marseille","lat":43.28531,"lon":5.44095,"is_reserved":false,"is_disabled":false,"rental_uris":{"android":"levelo://app?vid=54c3883d-19ba-4108-9be9-352862d56bcd","ios":"levelo://app?vid=54c3883d-19ba-4108-9be9-352862d56bcd"},"vehicle_type_id":"4","last_reported":1778884945,"current_range_meters":3200,"station_id":"st_d3j3df2ikq2c7380ej80","pricing_plan_id":"cebpf4jnsgd1na2vs0mg"},{"bike_id":"5b61dec2-ea69-4c1f-b8eb-d13c82c3482d","system_id":"levelo_inurba_marseille","lat":43.28536,"lon":5.44101,"is_reserved":false,"is_disabled":false,"rental_uris":{"android":"levelo://app?vid=5b61dec2-ea69-4c1f-b8eb-d13c82c3482d","ios":"levelo://app?vid=5b61dec2-ea69-4c1f-b8eb-d13c82c3482d"},"vehicle_type_id":"4","last_reported":1778884945,"current_range_meters":3200,"station_id":"st_d3j3df2ikq2c7380ej80","pricing_plan_id":"cebpf4jnsgd1na2vs0mg"},{"bike_id":"4b38d71c-b0b5-48d4-ba4b-2448d475a8ad","system_id":"levelo_inurba_marseille","lat":43.28421,"lon":5.34995,"is_reserved":false,"is_disabled":false,"rental_uris":{"android":"levelo://app?vid=4b38d71c-b0b5-48d4-ba4b-2448d475a8ad","ios":"levelo://app?vid=4b38d71c-b0b5-48d4-ba4b-2448d475a8ad"},"vehicle_type_id":"4","last_reported":1778884945,"current_range_meters":3200,"station_id":"ce4bhbh2rcd13ifvqepg","pricing_plan_id":"cebpf4jnsgd1na2vs0mg"},{"bike_id":"d777fd55-d11a-4e0a-b2e3-9e6cdd06801a","system_id":"levelo_inurba_marseille","lat":43.26212,"lon":5.40468,"is_reserved":false,"is_disabled":false,"rental_uris":{"android":"levelo://app?vid=d777fd55-d11a-4e0a-b2e3-9e6cdd06801a","ios":"levelo://app?vid=d777fd55-d11a-4e0a-b2e3-9e6cdd06801a"},"vehicle_type_id":"4","last_reported":1778884945,"current_range_meters":3200,"station_id":"ce4bhmh2rcd13ifvqgmg","pricing_plan_id":"cebpf4jnsgd1na2vs0mg"},{"bike_id":"a0d13da0-4216-4405-91d0-d37b45845c6a","system_id":"levelo_inurba_marseille","lat":43.225351,"lon":5.348298,"is_reserved":false,"is_disabled":false,"rental_uris":{"android":"levelo://app?vid=a0d13da0-4216-4405-91d0-d37b45845c6a","ios":"levelo://app?vid=a0d13da0-4216-4405-91d0-d37b45845c6a"},"vehicle_type_id":"4","last_reported":1778884945,"current_range_meters":3200,"station_id":"st_cvj5dfep6f1abm77gieg","pricing_plan_id":"cebpf4jnsgd1na2vs0mg"},{"bike_id":"123b58a5-f497-491e-a74c-48d3f1bda8a0","system_id":"levelo_inurba_marseille","lat":43.279941,"lon":5.40002,"is_reserved":false,"is_disabled":false,"rental_uris":{"android":"levelo://app?vid=123b58a5-f497-491e-a74c-48d3f1bda8a0","ios":"levelo://app?vid=123b58a5-f497-491e-a74c-48d3f1bda8a0"},"vehicle_type_id":"4","last_reported":1778884945,"current_range_meters":3200,"station_id":"ce4bho92rcd13ifvqh4g","pricing_plan_id":"cebpf4jnsgd1na2vs0mg"},{"bike_id":"7d116b05-e411-417d-9cbb-bd76310a3353","system_id":"levelo_inurba_marseille","lat":43.29523,"lon":5.39034,"is_reserved":false,"is_disabled":true,"rental_uris":{"android":"levelo://app?vid=7d116b05-e411-417d-9cbb-bd76310a3353","ios":"levelo://app?vid=7d116b05-e411-417d-9cbb-bd76310a3353"},"vehicle_type_id":"4","last_reported":1778884945,"current_range_meters":3200,"station_id":"ce4bh3p2rcd13ifvqdp0","pricing_plan_id":"cebpf4jnsgd1na2vs0mg"},{"bike_id":"04a14d65-2685-4f3f-9c2d-9b41e5bdce42","system_id":"levelo_inurba_marseille","lat":43.2736,"lon":5.36242,"is_reserved":false,"is_disabled":true,"rental_uris":{"android":"levelo://app?vid=04a14d65-2685-4f3f-9c2d-9b41e5bdce42","ios":"levelo://app?vid=04a14d65-2685-4f3f-9c2d-9b41e5bdce42"},"vehicle_type_id":"4","last_reported":1778884945,"current_range_meters":3200,"station_id":"ce4bhbh2rcd13ifvqeo0","pricing_plan_id":"cebpf4jnsgd1na2vs0mg"},{"bike_id":"f2ba9208-41da-46fb-a82e-80d2807a7138","system_id":"levelo_inurba_marseille","lat":43.28693,"lon":5.42676,"is_reserved":false,"is_disabled":false,"rental_uris":{"android":"levelo://app?vid=f2ba9208-41da-46fb-a82e-80d2807a7138","ios":"levelo://app?vid=f2ba9208-41da-46fb-a82e-80d2807a7138"},"vehicle_type_id":"4","last_reported":1778884945,"current_range_meters":3200,"station_id":"","pricing_plan_id":"cebpf4jnsgd1na2vs0mg"},{"bike_id":"857d0d4a-3636-42f3-9243-0c763f248b67","system_id":"levelo_inurba_marseille","lat":43.288643,"lon":5.425252,"is_reserved":false,"is_disabled":false,"rental_uris":{"android":"levelo://app?vid=857d0d4a-3636-42f3-9243-0c763f248b67","ios":"levelo://app?vid=857d0d4a-3636-42f3-9243-0c763f248b67"},"vehicle_type_id":"4","last_reported":1778884945,"current_range_meters":3200,"station_id":"st_d3b462108ojc7389ooeg","pricing_plan_id":"cebpf4jnsgd1na2vs0mg"},{"bike_id":"a1f650db-d917-4f62-9239-35affc1bb5cb","system_id":"levelo_inurba_marseille","lat":43.29621,"lon":5.38059,"is_reserved":false,"is_disabled":false,"rental_uris":{"android":"levelo://app?vid=a1f650db-d917-4f62-9239-35affc1bb5cb","ios":"levelo://app?vid=a1f650db-d917-4f62-9239-35affc1bb5cb"},"vehicle_type_id":"4","last_reported":1778884945,"current_range_meters":3600,"station_id":"ce4bgl12rcd13ifvqbo0","pricing_plan_id":"cebpf4jnsgd1na2vs0mg"},{"bike_id":"2fed85b5-627a-4650-95dc-41bedde1fa05","system_id":"levelo_inurba_marseille","lat":43.28225,"lon":5.35028,"is_reserved":false,"is_disabled":false,"rental_uris":{"android":"levelo://app?vid=2fed85b5-627a-4650-95dc-41bedde1fa05","ios":"levelo://app?vid=2fed85b5-627a-4650-95dc-41bedde1fa05"},"vehicle_type_id":"4","last_reported":1778884945,"current_range_meters":3600,"station_id":"","pricing_plan_id":"cebpf4jnsgd1na2vs0mg"},{"bike_id":"4552c73f-f6c1-4e54-a2bf-b6ea39b08d7e","system_id":"levelo_inurba_marseille","lat":43.28546,"lon":5.44086,"is_reserved":false,"is_disabled":false,"rental_uris":{"android":"levelo://app?vid=4552c73f-f6c1-4e54-a2bf-b6ea39b08d7e","ios":"levelo://app?vid=4552c73f-f6c1-4e54-a2bf-b6ea39b08d7e"},"vehicle_type_id":"4","last_reported":1778884945,"current_range_meters":3600,"station_id":"st_d3j3df2ikq2c7380ej80","pricing_plan_id":"cebpf4jnsgd1na2vs0mg"},{"bike_id":"5d7fb73d-4139-4dae-83a7-a1108499f28e","system_id":"levelo_inurba_marseille","lat":43.2834,"lon":5.40269,"is_reserved":false,"is_disabled":false,"rental_uris":{"android":"levelo://app?vid=5d7fb73d-4139-4dae-83a7-a1108499f28e","ios":"levelo://app?vid=5d7fb73d-4139-4dae-83a7-a1108499f28e"},"vehicle_type_id":"4","last_reported":1778884945,"current_range_meters":3600,"station_id":"","pricing_plan_id":"cebpf4jnsgd1na2vs0mg"},{"bike_id":"cf5330f8-2488-4ee7-969e-b94248076852","system_id":"levelo_inurba_marseille","lat":43.309508,"lon":5.390377,"is_reserved":false,"is_disabled":false,"rental_uris":{"android":"levelo://app?vid=cf5330f8-2488-4ee7-969e-b94248076852","ios":"levelo://app?vid=cf5330f8-2488-4ee7-969e-b94248076852"},"vehicle_type_id":"4","last_reported":1778884945,"current_range_meters":3600,"station_id":"ce4bgup2rcd13ifvqco0","pricing_plan_id":"cebpf4jnsgd1na2vs0mg"},{"bike_id":"5eb66f5b-e3c1-47fb-b1f8-d07ad202f4e1","system_id":"levelo_inurba_marseille","lat":43.33499,"lon":5.35956,"is_reserved":false,"is_disabled":false,"rental_uris":{"android":"levelo://app?vid=5eb66f5b-e3c1-47fb-b1f8-d07ad202f4e1","ios":"levelo://app?vid=5eb66f5b-e3c1-47fb-b1f8-d07ad202f4e1"},"vehicle_type_id":"4","last_reported":1778884945,"current_range_meters":3600,"station_id":"","pricing_plan_id":"cebpf4jnsgd1na2vs0mg"},{"bike_id":"ac59308f-41c6-4145-afc0-5d2fe9576c71","system_id":"levelo_inurba_marseille","lat":43.31486,"lon":5.37311,"is_reserved":false,"is_disabled":false,"rental_uris":{"android":"levelo://app?vid=ac59308f-41c6-4145-afc0-5d2fe9576c71","ios":"levelo://app?vid=ac59308f-41c6-4145-afc0-5d2fe9576c71"},"vehicle_type_id":"4","last_reported":1778884945,"current_range_meters":3600,"station_id":"ce4bgt12rcd13ifvqcd0","pricing_plan_id":"cebpf4jnsgd1na2vs0mg"},{"bike_id":"6fcaa970-fbb9-44f4-a1a2-a03710340699","system_id":"levelo_inurba_marseille","lat":43.22525,"lon":5.34832,"is_reserved":false,"is_disabled":true,"rental_uris":{"android":"levelo://app?vid=6fcaa970-fbb9-44f4-a1a2-a03710340699","ios":"levelo://app?vid=6fcaa970-fbb9-44f4-a1a2-a03710340699"},"vehicle_type_id":"4","last_reported":1778884945,"current_range_meters":4000,"station_id":"st_cvj5dfep6f1abm77gieg","pricing_plan_id":"cebpf4jnsgd1na2vs0mg"},{"bike_id":"5b3da65d-b2ee-4ba8-94b1-1d1c8e3d3f6f","system_id":"levelo_inurba_marseille","lat":43.29831,"lon":5.44052,"is_reserved":false,"is_disabled":false,"rental_uris":{"android":"levelo://app?vid=5b3da65d-b2ee-4ba8-94b1-1d1c8e3d3f6f","ios":"levelo://app?vid=5b3da65d-b2ee-4ba8-94b1-1d1c8e3d3f6f"},"vehicle_type_id":"4","last_reported":1778884945,"current_range_meters":4000,"station_id":"st_d3jp68qikq2c7381ktn0","pricing_plan_id":"cebpf4jnsgd1na2vs0mg"},{"bike_id":"b377143e-4597-406b-9854-5cc8360be131","system_id":"levelo_inurba_marseille","lat":43.27919,"lon":5.39223,"is_reserved":false,"is_disabled":false,"rental_uris":{"android":"levelo://app?vid=b377143e-4597-406b-9854-5cc8360be131","ios":"levelo://app?vid=b377143e-4597-406b-9854-5cc8360be131"},"vehicle_type_id":"4","last_reported":1778884945,"current_range_meters":4000,"station_id":"","pricing_plan_id":"cebpf4jnsgd1na2vs0mg"},{"bike_id":"b1b1c9ad-0e11-41a8-95b1-ee1803460284","system_id":"levelo_inurba_marseille","lat":43.33552,"lon":5.37466,"is_reserved":false,"is_disabled":false,"rental_uris":{"android":"levelo://app?vid=b1b1c9ad-0e11-41a8-95b1-ee1803460284","ios":"levelo://app?vid=b1b1c9ad-0e11-41a8-95b1-ee1803460284"},"vehicle_type_id":"4","last_reported":1778884945,"current_range_meters":4000,"station_id":"st_d46tts09ee8s73dlu43g","pricing_plan_id":"cebpf4jnsgd1na2vs0mg"},{"bike_id":"72277b18-998e-4463-b300-f417d0286dd0","system_id":"levelo_inurba_marseille","lat":43.27994,"lon":5.40005,"is_reserved":false,"is_disabled":false,"rental_uris":{"android":"levelo://app?vid=72277b18-998e-4463-b300-f417d0286dd0","ios":"levelo://app?vid=72277b18-998e-4463-b300-f417d0286dd0"},"vehicle_type_id":"4","last_reported":1778884945,"current_range_meters":4000,"station_id":"ce4bho92rcd13ifvqh4g","pricing_plan_id":"cebpf4jnsgd1na2vs0mg"},{"bike_id":"9eb9574c-e872-4dd5-9f6a-8a222bc0ffa5","system_id":"levelo_inurba_marseille","lat":43.28226,"lon":5.40585,"is_reserved":false,"is_disabled":false,"rental_uris":{"android":"levelo://app?vid=9eb9574c-e872-4dd5-9f6a-8a222bc0ffa5","ios":"levelo://app?vid=9eb9574c-e872-4dd5-9f6a-8a222bc0ffa5"},"vehicle_type_id":"4","last_reported":1778884945,"current_range_meters":4000,"station_id":"","pricing_plan_id":"cebpf4jnsgd1na2vs0mg"},{"bike_id":"99a4e885-b612-4bd3-8956-29255e17cff2","system_id":"levelo_inurba_marseille","lat":43.26208,"lon":5.37431,"is_reserved":false,"is_disabled":true,"rental_uris":{"android":"levelo://app?vid=99a4e885-b612-4bd3-8956-29255e17cff2","ios":"levelo://app?vid=99a4e885-b612-4bd3-8956-29255e17cff2"},"vehicle_type_id":"4","last_reported":1778884945,"current_range_meters":4000,"station_id":"ce4bhgp2rcd13ifvqfc0","pricing_plan_id":"cebpf4jnsgd1na2vs0mg"},{"bike_id":"131285ea-8cb3-4a28-9d2e-8be73c20f5ad","system_id":"levelo_inurba_marseille","lat":43.2586,"lon":5.39897,"is_reserved":false,"is_disabled":false,"rental_uris":{"android":"levelo://app?vid=131285ea-8cb3-4a28-9d2e-8be73c20f5ad","ios":"levelo://app?vid=131285ea-8cb3-4a28-9d2e-8be73c20f5ad"},"vehicle_type_id":"4","last_reported":1778884945,"current_range_meters":4000,"station_id":"ce4bhl92rcd13ifvqghg","pricing_plan_id":"cebpf4jnsgd1na2vs0mg"},{"bike_id":"b4202eb4-628a-46d8-b7be-4125c913e341","system_id":"levelo_inurba_marseille","lat":43.31118,"lon":5.37769,"is_reserved":false,"is_disabled":false,"rental_uris":{"android":"levelo://app?vid=b4202eb4-628a-46d8-b7be-4125c913e341","ios":"levelo://app?vid=b4202eb4-628a-46d8-b7be-4125c913e341"},"vehicle_type_id":"4","last_reported":1778884945,"current_range_meters":4000,"station_id":"ce4bgt92rcd13ifvqcg0","pricing_plan_id":"cebpf4jnsgd1na2vs0mg"},{"bike_id":"d194f185-ad3d-4bc0-b272-b72d19a7822c","system_id":"levelo_inurba_marseille","lat":43.24066,"lon":5.37714,"is_reserved":false,"is_disabled":false,"rental_uris":{"android":"levelo://app?vid=d194f185-ad3d-4bc0-b272-b72d19a7822c","ios":"levelo://app?vid=d194f185-ad3d-4bc0-b272-b72d19a7822c"},"vehicle_type_id":"4","last_reported":1778884945,"current_range_meters":4400,"station_id":"ce4bhnp2rcd13ifvqgvg","pricing_plan_id":"cebpf4jnsgd1na2vs0mg"},{"bike_id":"9b2cbbc1-9dda-4f79-bc45-8694c91bb5f6","system_id":"levelo_inurba_marseille","lat":43.28245,"lon":5.35119,"is_reserved":false,"is_disabled":true,"rental_uris":{"android":"levelo://app?vid=9b2cbbc1-9dda-4f79-bc45-8694c91bb5f6","ios":"levelo://app?vid=9b2cbbc1-9dda-4f79-bc45-8694c91bb5f6"},"vehicle_type_id":"4","last_reported":1778884945,"current_range_meters":4400,"station_id":"","pricing_plan_id":"cebpf4jnsgd1na2vs0mg"},{"bike_id":"b689131c-c740-461c-a491-d793d63702b1","system_id":"levelo_inurba_marseille","lat":43.22534,"lon":5.34832,"is_reserved":false,"is_disabled":true,"rental_uris":{"android":"levelo://app?vid=b689131c-c740-461c-a491-d793d63702b1","ios":"levelo://app?vid=b689131c-c740-461c-a491-d793d63702b1"},"vehicle_type_id":"4","last_reported":1778884945,"current_range_meters":4400,"station_id":"st_cvj5dfep6f1abm77gieg","pricing_plan_id":"cebpf4jnsgd1na2vs0mg"},{"bike_id":"05005507-3f2e-4667-8fe8-e5bc5ea35ae5","system_id":"levelo_inurba_marseille","lat":43.24811,"lon":5.37441,"is_reserved":false,"is_disabled":true,"rental_uris":{"android":"levelo://app?vid=05005507-3f2e-4667-8fe8-e5bc5ea35ae5","ios":"levelo://app?vid=05005507-3f2e-4667-8fe8-e5bc5ea35ae5"},"vehicle_type_id":"4","last_reported":1778884945,"current_range_meters":4400,"station_id":"ce4bhgh2rcd13ifvqfb0","pricing_plan_id":"cebpf4jnsgd1na2vs0mg"},{"bike_id":"f487b9a6-a816-4f73-97d2-e84d2c0676be","system_id":"levelo_inurba_marseille","lat":43.24654,"lon":5.38171,"is_reserved":false,"is_disabled":false,"rental_uris":{"android":"levelo://app?vid=f487b9a6-a816-4f73-97d2-e84d2c0676be","ios":"levelo://app?vid=f487b9a6-a816-4f73-97d2-e84d2c0676be"},"vehicle_type_id":"4","last_reported":1778884945,"current_range_meters":4400,"station_id":"ce4bhih2rcd13ifvqfr0","pricing_plan_id":"cebpf4jnsgd1na2vs0mg"},{"bike_id":"48635740-9d8d-4e49-9a62-f60624450678","system_id":"levelo_inurba_marseille","lat":43.3054,"lon":5.38431,"is_reserved":false,"is_disabled":false,"rental_uris":{"android":"levelo://app?vid=48635740-9d8d-4e49-9a62-f60624450678","ios":"levelo://app?vid=48635740-9d8d-4e49-9a62-f60624450678"},"vehicle_type_id":"4","last_reported":1778884945,"current_range_meters":4400,"station_id":"ce4bgg92rcd13ifvqb30","pricing_plan_id":"cebpf4jnsgd1na2vs0mg"},{"bike_id":"8f15a9af-8763-4981-8e91-75c970c63714","system_id":"levelo_inurba_marseille","lat":43.29601,"lon":5.38107,"is_reserved":false,"is_disabled":false,"rental_uris":{"android":"levelo://app?vid=8f15a9af-8763-4981-8e91-75c970c63714","ios":"levelo://app?vid=8f15a9af-8763-4981-8e91-75c970c63714"},"vehicle_type_id":"4","last_reported":1778884945,"current_range_meters":4400,"station_id":"ce4bgl12rcd13ifvqbo0","pricing_plan_id":"cebpf4jnsgd1na2vs0mg"},{"bike_id":"025846a1-1f40-465d-bbaf-0c31a9ffecb3","system_id":"levelo_inurba_marseille","lat":43.28847,"lon":5.39034,"is_reserved":false,"is_disabled":false,"rental_uris":{"android":"levelo://app?vid=025846a1-1f40-465d-bbaf-0c31a9ffecb3","ios":"levelo://app?vid=025846a1-1f40-465d-bbaf-0c31a9ffecb3"},"vehicle_type_id":"4","last_reported":1778884945,"current_range_meters":4400,"station_id":"","pricing_plan_id":"cebpf4jnsgd1na2vs0mg"},{"bike_id":"2c900b6d-c6bc-4eeb-a695-1fac18b6e8ba","system_id":"levelo_inurba_marseille","lat":43.270612,"lon":5.402586,"is_reserved":false,"is_disabled":false,"rental_uris":{"android":"levelo://app?vid=2c900b6d-c6bc-4eeb-a695-1fac18b6e8ba","ios":"levelo://app?vid=2c900b6d-c6bc-4eeb-a695-1fac18b6e8ba"},"vehicle_type_id":"4","last_reported":1778884945,"current_range_meters":4400,"station_id":"ce4bhk92rcd13ifvqgc0","pricing_plan_id":"cebpf4jnsgd1na2vs0mg"},{"bike_id":"683c2f64-d560-477d-bf79-f81884be1301","system_id":"levelo_inurba_marseille","lat":43.26377,"lon":5.40288,"is_reserved":false,"is_disabled":false,"rental_uris":{"android":"levelo://app?vid=683c2f64-d560-477d-bf79-f81884be1301","ios":"levelo://app?vid=683c2f64-d560-477d-bf79-f81884be1301"},"vehicle_type_id":"4","last_reported":1778884945,"current_range_meters":4400,"station_id":"","pricing_plan_id":"cebpf4jnsgd1na2vs0mg"},{"bike_id":"fb77b238-fe71-4780-9747-e992d92ea107","system_id":"levelo_inurba_marseille","lat":43.27066,"lon":5.42273,"is_reserved":false,"is_disabled":false,"rental_uris":{"android":"levelo://app?vid=fb77b238-fe71-4780-9747-e992d92ea107","ios":"levelo://app?vid=fb77b238-fe71-4780-9747-e992d92ea107"},"vehicle_type_id":"4","last_reported":1778884945,"current_range_meters":4400,"station_id":"ce4bhk92rcd13ifvqgb0","pricing_plan_id":"cebpf4jnsgd1na2vs0mg"},{"bike_id":"2e971375-9392-42ab-9a31-649b6cbbfa3d","system_id":"levelo_inurba_marseille","lat":43.29027,"lon":5.38641,"is_reserved":false,"is_disabled":false,"rental_uris":{"android":"levelo://app?vid=2e971375-9392-42ab-9a31-649b6cbbfa3d","ios":"levelo://app?vid=2e971375-9392-42ab-9a31-649b6cbbfa3d"},"vehicle_type_id":"4","last_reported":1778884945,"current_range_meters":4400,"station_id":"ce4bh4p2rcd13ifvqe0g","pricing_plan_id":"cebpf4jnsgd1na2vs0mg"},{"bike_id":"90eb2811-ac31-4177-af66-b925e76c7075","system_id":"levelo_inurba_marseille","lat":43.30802,"lon":5.37654,"is_reserved":false,"is_disabled":false,"rental_uris":{"android":"levelo://app?vid=90eb2811-ac31-4177-af66-b925e76c7075","ios":"levelo://app?vid=90eb2811-ac31-4177-af66-b925e76c7075"},"vehicle_type_id":"4","last_reported":1778884945,"current_range_meters":4400,"station_id":"ce4bgv92rcd13ifvqcq0","pricing_plan_id":"cebpf4jnsgd1na2vs0mg"},{"bike_id":"cc90d206-d5bf-410c-9e08-4a23c2131ff8","system_id":"levelo_inurba_marseille","lat":43.25485,"lon":5.37655,"is_reserved":false,"is_disabled":false,"rental_uris":{"android":"levelo://app?vid=cc90d206-d5bf-410c-9e08-4a23c2131ff8","ios":"levelo://app?vid=cc90d206-d5bf-410c-9e08-4a23c2131ff8"},"vehicle_type_id":"4","last_reported":1778884945,"current_range_meters":4800,"station_id":"ce4bhh12rcd13ifvqff0","pricing_plan_id":"cebpf4jnsgd1na2vs0mg"},{"bike_id":"6a3b9acc-d7b5-47af-a00b-22a8e4b375a2","system_id":"levelo_inurba_marseille","lat":43.30538,"lon":5.36521,"is_reserved":false,"is_disabled":false,"rental_uris":{"android":"levelo://app?vid=6a3b9acc-d7b5-47af-a00b-22a8e4b375a2","ios":"levelo://app?vid=6a3b9acc-d7b5-47af-a00b-22a8e4b375a2"},"vehicle_type_id":"4","last_reported":1778884945,"current_range_meters":4800,"station_id":"ce4bgs12rcd13ifvqcag","pricing_plan_id":"cebpf4jnsgd1na2vs0mg"},{"bike_id":"01adfd2a-8633-4d67-a743-89ebb59a4bc0","system_id":"levelo_inurba_marseille","lat":43.24666,"lon":5.38135,"is_reserved":false,"is_disabled":true,"rental_uris":{"android":"levelo://app?vid=01adfd2a-8633-4d67-a743-89ebb59a4bc0","ios":"levelo://app?vid=01adfd2a-8633-4d67-a743-89ebb59a4bc0"},"vehicle_type_id":"4","last_reported":1778884945,"current_range_meters":4800,"station_id":"ce4bhih2rcd13ifvqfr0","pricing_plan_id":"cebpf4jnsgd1na2vs0mg"},{"bike_id":"6333e7f6-67b5-49dd-8ef5-f232d586c2bb","system_id":"levelo_inurba_marseille","lat":43.26223,"lon":5.38799,"is_reserved":false,"is_disabled":false,"rental_uris":{"android":"levelo://app?vid=6333e7f6-67b5-49dd-8ef5-f232d586c2bb","ios":"levelo://app?vid=6333e7f6-67b5-49dd-8ef5-f232d586c2bb"},"vehicle_type_id":"4","last_reported":1778884945,"current_range_meters":4800,"station_id":"","pricing_plan_id":"cebpf4jnsgd1na2vs0mg"},{"bike_id":"c015344b-21f4-4daa-bd8e-6d232c97c068","system_id":"levelo_inurba_marseille","lat":43.29027,"lon":5.39989,"is_reserved":false,"is_disabled":false,"rental_uris":{"android":"levelo://app?vid=c015344b-21f4-4daa-bd8e-6d232c97c068","ios":"levelo://app?vid=c015344b-21f4-4daa-bd8e-6d232c97c068"},"vehicle_type_id":"4","last_reported":1778884945,"current_range_meters":4800,"station_id":"ce4bh392rcd13ifvqdm0","pricing_plan_id":"cebpf4jnsgd1na2vs0mg"},{"bike_id":"49dde2ef-9bde-469e-a709-f081dbfd2afb","system_id":"levelo_inurba_marseille","lat":43.23967,"lon":5.36616,"is_reserved":false,"is_disabled":false,"rental_uris":{"android":"levelo://app?vid=49dde2ef-9bde-469e-a709-f081dbfd2afb","ios":"levelo://app?vid=49dde2ef-9bde-469e-a709-f081dbfd2afb"},"vehicle_type_id":"4","last_reported":1778884945,"current_range_meters":4800,"station_id":"ce4bhi12rcd13ifvqfp0","pricing_plan_id":"cebpf4jnsgd1na2vs0mg"},{"bike_id":"19d69b75-f53d-4f9d-b459-a8ec1a163024","system_id":"levelo_inurba_marseille","lat":43.30187,"lon":5.37975,"is_reserved":false,"is_disabled":true,"rental_uris":{"android":"levelo://app?vid=19d69b75-f53d-4f9d-b459-a8ec1a163024","ios":"levelo://app?vid=19d69b75-f53d-4f9d-b459-a8ec1a163024"},"vehicle_type_id":"4","last_reported":1778884945,"current_range_meters":4800,"station_id":"","pricing_plan_id":"cebpf4jnsgd1na2vs0mg"},{"bike_id":"dadc9d3c-9366-4814-bf9b-a97d77bb6988","system_id":"levelo_inurba_marseille","lat":43.26019,"lon":5.37562,"is_reserved":false,"is_disabled":false,"rental_uris":{"android":"levelo://app?vid=dadc9d3c-9366-4814-bf9b-a97d77bb6988","ios":"levelo://app?vid=dadc9d3c-9366-4814-bf9b-a97d77bb6988"},"vehicle_type_id":"4","last_reported":1778884945,"current_range_meters":4800,"station_id":"ce4bhgh2rcd13ifvqfa0","pricing_plan_id":"cebpf4jnsgd1na2vs0mg"},{"bike_id":"0d5dd8d5-22ce-4cf4-96c4-a16487c95253","system_id":"levelo_inurba_marseille","lat":43.29956,"lon":5.38679,"is_reserved":false,"is_disabled":false,"rental_uris":{"android":"levelo://app?vid=0d5dd8d5-22ce-4cf4-96c4-a16487c95253","ios":"levelo://app?vid=0d5dd8d5-22ce-4cf4-96c4-a16487c95253"},"vehicle_type_id":"4","last_reported":1778884945,"current_range_meters":4800,"station_id":"","pricing_plan_id":"cebpf4jnsgd1na2vs0mg"},{"bike_id":"9d5f879f-815c-4108-9149-5d6da1dbb023","system_id":"levelo_inurba_marseille","lat":43.24468,"lon":5.4253,"is_reserved":false,"is_disabled":false,"rental_uris":{"android":"levelo://app?vid=9d5f879f-815c-4108-9149-5d6da1dbb023","ios":"levelo://app?vid=9d5f879f-815c-4108-9149-5d6da1dbb023"},"vehicle_type_id":"4","last_reported":1778884945,"current_range_meters":4800,"station_id":"st_d4a3vfp97mjs738cd8kg","pricing_plan_id":"cebpf4jnsgd1na2vs0mg"},{"bike_id":"def5bf59-e3d6-4ad4-a9f1-c57a6c935980","system_id":"levelo_inurba_marseille","lat":43.27327,"lon":5.36206,"is_reserved":false,"is_disabled":false,"rental_uris":{"android":"levelo://app?vid=def5bf59-e3d6-4ad4-a9f1-c57a6c935980","ios":"levelo://app?vid=def5bf59-e3d6-4ad4-a9f1-c57a6c935980"},"vehicle_type_id":"4","last_reported":1778884945,"current_range_meters":4800,"station_id":"","pricing_plan_id":"cebpf4jnsgd1na2vs0mg"},{"bike_id":"764d76ce-631a-497c-9391-15e48099c412","system_id":"levelo_inurba_marseille","lat":43.29485,"lon":5.38506,"is_reserved":false,"is_disabled":false,"rental_uris":{"android":"levelo://app?vid=764d76ce-631a-497c-9391-15e48099c412","ios":"levelo://app?vid=764d76ce-631a-497c-9391-15e48099c412"},"vehicle_type_id":"4","last_reported":1778884945,"current_range_meters":4800,"station_id":"","pricing_plan_id":"cebpf4jnsgd1na2vs0mg"},{"bike_id":"f305df5b-59bc-483b-954f-4fa8bf18b527","system_id":"levelo_inurba_marseille","lat":43.24804,"lon":5.37453,"is_reserved":false,"is_disabled":false,"rental_uris":{"android":"levelo://app?vid=f305df5b-59bc-483b-954f-4fa8bf18b527","ios":"levelo://app?vid=f305df5b-59bc-483b-954f-4fa8bf18b527"},"vehicle_type_id":"4","last_reported":1778884945,"current_range_meters":5600,"station_id":"ce4bhgh2rcd13ifvqfb0","pricing_plan_id":"cebpf4jnsgd1na2vs0mg"},{"bike_id":"c4ee361f-040e-4ad9-8fc8-7b730e9f0c39","system_id":"levelo_inurba_marseille","lat":43.337444,"lon":5.374475,"is_reserved":false,"is_disabled":true,"rental_uris":{"android":"levelo://app?vid=c4ee361f-040e-4ad9-8fc8-7b730e9f0c39","ios":"levelo://app?vid=c4ee361f-040e-4ad9-8fc8-7b730e9f0c39"},"vehicle_type_id":"4","last_reported":1778884945,"current_range_meters":5600,"station_id":"","pricing_plan_id":"cebpf4jnsgd1na2vs0mg"},{"bike_id":"eea4634b-338a-41d6-b3a1-0a07ae27ed98","system_id":"levelo_inurba_marseille","lat":43.27364,"lon":5.36257,"is_reserved":false,"is_disabled":true,"rental_uris":{"android":"levelo://app?vid=eea4634b-338a-41d6-b3a1-0a07ae27ed98","ios":"levelo://app?vid=eea4634b-338a-41d6-b3a1-0a07ae27ed98"},"vehicle_type_id":"4","last_reported":1778884945,"current_range_meters":5600,"station_id":"ce4bhbh2rcd13ifvqeo0","pricing_plan_id":"cebpf4jnsgd1na2vs0mg"},{"bike_id":"37d316cd-6e63-4dba-996f-5684dc1ba64d","system_id":"levelo_inurba_marseille","lat":43.24791,"lon":5.37463,"is_reserved":false,"is_disabled":false,"rental_uris":{"android":"levelo://app?vid=37d316cd-6e63-4dba-996f-5684dc1ba64d","ios":"levelo://app?vid=37d316cd-6e63-4dba-996f-5684dc1ba64d"},"vehicle_type_id":"4","last_reported":1778884945,"current_range_meters":5600,"station_id":"ce4bhgh2rcd13ifvqfb0","pricing_plan_id":"cebpf4jnsgd1na2vs0mg"},{"bike_id":"95253244-89cc-4e41-8d16-5de9b0d3b390","system_id":"levelo_inurba_marseille","lat":43.28691,"lon":5.39953,"is_reserved":false,"is_disabled":false,"rental_uris":{"android":"levelo://app?vid=95253244-89cc-4e41-8d16-5de9b0d3b390","ios":"levelo://app?vid=95253244-89cc-4e41-8d16-5de9b0d3b390"},"vehicle_type_id":"4","last_reported":1778884945,"current_range_meters":5600,"station_id":"ce4bho92rcd13ifvqh3g","pricing_plan_id":"cebpf4jnsgd1na2vs0mg"},{"bike_id":"936fa868-782b-40af-831a-a0159a0c0157","system_id":"levelo_inurba_marseille","lat":43.22546,"lon":5.34897,"is_reserved":false,"is_disabled":false,"rental_uris":{"android":"levelo://app?vid=936fa868-782b-40af-831a-a0159a0c0157","ios":"levelo://app?vid=936fa868-782b-40af-831a-a0159a0c0157"},"vehicle_type_id":"4","last_reported":1778884945,"current_range_meters":5600,"station_id":"st_cvj5dfep6f1abm77gieg","pricing_plan_id":"cebpf4jnsgd1na2vs0mg"},{"bike_id":"7f2bc73d-ddfa-4f6c-9143-ee3f7941be29","system_id":"levelo_inurba_marseille","lat":43.29767,"lon":5.37127,"is_reserved":false,"is_disabled":false,"rental_uris":{"android":"levelo://app?vid=7f2bc73d-ddfa-4f6c-9143-ee3f7941be29","ios":"levelo://app?vid=7f2bc73d-ddfa-4f6c-9143-ee3f7941be29"},"vehicle_type_id":"4","last_reported":1778884945,"current_range_meters":5600,"station_id":"ce4bgop2rcd13ifvqc1g","pricing_plan_id":"cebpf4jnsgd1na2vs0mg"},{"bike_id":"e88c25df-d499-4a39-950c-89435b72e9e8","system_id":"levelo_inurba_marseille","lat":43.28469,"lon":5.35873,"is_reserved":false,"is_disabled":false,"rental_uris":{"android":"levelo://app?vid=e88c25df-d499-4a39-950c-89435b72e9e8","ios":"levelo://app?vid=e88c25df-d499-4a39-950c-89435b72e9e8"},"vehicle_type_id":"4","last_reported":1778884945,"current_range_meters":5600,"station_id":"ce4bhah2rcd13ifvqei0","pricing_plan_id":"cebpf4jnsgd1na2vs0mg"},{"bike_id":"e95d3c0c-a37f-41c8-8e42-81fa6e69c3d7","system_id":"levelo_inurba_marseille","lat":43.24387,"lon":5.37078,"is_reserved":false,"is_disabled":false,"rental_uris":{"android":"levelo://app?vid=e95d3c0c-a37f-41c8-8e42-81fa6e69c3d7","ios":"levelo://app?vid=e95d3c0c-a37f-41c8-8e42-81fa6e69c3d7"},"vehicle_type_id":"4","last_reported":1778884945,"current_range_meters":5600,"station_id":"ce4bhhh2rcd13ifvqfk0","pricing_plan_id":"cebpf4jnsgd1na2vs0mg"},{"bike_id":"d3206ec1-0847-448a-b1be-18deed55b989","system_id":"levelo_inurba_marseille","lat":43.31985,"lon":5.38192,"is_reserved":false,"is_disabled":false,"rental_uris":{"android":"levelo://app?vid=d3206ec1-0847-448a-b1be-18deed55b989","ios":"levelo://app?vid=d3206ec1-0847-448a-b1be-18deed55b989"},"vehicle_type_id":"4","last_reported":1778884945,"current_range_meters":5600,"station_id":"ce4bhr12rcd13ifvqhpg","pricing_plan_id":"cebpf4jnsgd1na2vs0mg"},{"bike_id":"de18d8d3-16ef-4166-8728-366662f46df4","system_id":"levelo_inurba_marseille","lat":43.24074,"lon":5.37747,"is_reserved":false,"is_disabled":false,"rental_uris":{"android":"levelo://app?vid=de18d8d3-16ef-4166-8728-366662f46df4","ios":"levelo://app?vid=de18d8d3-16ef-4166-8728-366662f46df4"},"vehicle_type_id":"4","last_reported":1778884945,"current_range_meters":5600,"station_id":"ce4bhnp2rcd13ifvqgvg","pricing_plan_id":"cebpf4jnsgd1na2vs0mg"},{"bike_id":"1602e64f-38f4-48c2-aa6e-9ea48cc2c8f5","system_id":"levelo_inurba_marseille","lat":43.21816,"lon":5.34588,"is_reserved":false,"is_disabled":false,"rental_uris":{"android":"levelo://app?vid=1602e64f-38f4-48c2-aa6e-9ea48cc2c8f5","ios":"levelo://app?vid=1602e64f-38f4-48c2-aa6e-9ea48cc2c8f5"},"vehicle_type_id":"4","last_reported":1778884945,"current_range_meters":5600,"station_id":"","pricing_plan_id":"cebpf4jnsgd1na2vs0mg"},{"bike_id":"01ac69a4-5a53-4fdb-ba4b-7138dcf2f587","system_id":"levelo_inurba_marseille","lat":43.30524,"lon":5.36494,"is_reserved":false,"is_disabled":false,"rental_uris":{"android":"levelo://app?vid=01ac69a4-5a53-4fdb-ba4b-7138dcf2f587","ios":"levelo://app?vid=01ac69a4-5a53-4fdb-ba4b-7138dcf2f587"},"vehicle_type_id":"4","last_reported":1778884945,"current_range_meters":6000,"station_id":"","pricing_plan_id":"cebpf4jnsgd1na2vs0mg"},{"bike_id":"d8f85cb9-935d-44f7-8b4c-b6b61be4ba0b","system_id":"levelo_inurba_marseille","lat":43.29957,"lon":5.38473,"is_reserved":false,"is_disabled":false,"rental_uris":{"android":"levelo://app?vid=d8f85cb9-935d-44f7-8b4c-b6b61be4ba0b","ios":"levelo://app?vid=d8f85cb9-935d-44f7-8b4c-b6b61be4ba0b"},"vehicle_type_id":"4","last_reported":1778884945,"current_range_meters":6000,"station_id":"ce4bgj92rcd13ifvqbd0","pricing_plan_id":"cebpf4jnsgd1na2vs0mg"},{"bike_id":"ceeae13a-87c9-4495-9238-e5a5cc9c4c69","system_id":"levelo_inurba_marseille","lat":43.29618,"lon":5.37168,"is_reserved":false,"is_disabled":false,"rental_uris":{"android":"levelo://app?vid=ceeae13a-87c9-4495-9238-e5a5cc9c4c69","ios":"levelo://app?vid=ceeae13a-87c9-4495-9238-e5a5cc9c4c69"},"vehicle_type_id":"4","last_reported":1778884945,"current_range_meters":6000,"station_id":"ce4bgnh2rcd13ifvqc0g","pricing_plan_id":"cebpf4jnsgd1na2vs0mg"},{"bike_id":"08c772e3-0504-446f-b5ab-8f8a5debda77","system_id":"levelo_inurba_marseille","lat":43.28156,"lon":5.42642,"is_reserved":false,"is_disabled":false,"rental_uris":{"android":"levelo://app?vid=08c772e3-0504-446f-b5ab-8f8a5debda77","ios":"levelo://app?vid=08c772e3-0504-446f-b5ab-8f8a5debda77"},"vehicle_type_id":"4","last_reported":1778884945,"current_range_meters":6000,"station_id":"ce4bhnh2rcd13ifvqgug","pricing_plan_id":"cebpf4jnsgd1na2vs0mg"},{"bike_id":"cba99aea-2c08-40cc-a006-b2149cf236dc","system_id":"levelo_inurba_marseille","lat":43.27613,"lon":5.36103,"is_reserved":false,"is_disabled":false,"rental_uris":{"android":"levelo://app?vid=cba99aea-2c08-40cc-a006-b2149cf236dc","ios":"levelo://app?vid=cba99aea-2c08-40cc-a006-b2149cf236dc"},"vehicle_type_id":"4","last_reported":1778884945,"current_range_meters":6000,"station_id":"ce4bgj92rcd13ifvqbe0","pricing_plan_id":"cebpf4jnsgd1na2vs0mg"},{"bike_id":"bf1ca5d3-b417-4954-99bf-e471337e7bfb","system_id":"levelo_inurba_marseille","lat":43.24631,"lon":5.382,"is_reserved":false,"is_disabled":false,"rental_uris":{"android":"levelo://app?vid=bf1ca5d3-b417-4954-99bf-e471337e7bfb","ios":"levelo://app?vid=bf1ca5d3-b417-4954-99bf-e471337e7bfb"},"vehicle_type_id":"4","last_reported":1778884945,"current_range_meters":6000,"station_id":"ce4bhih2rcd13ifvqfr0","pricing_plan_id":"cebpf4jnsgd1na2vs0mg"},{"bike_id":"c8bbb2bb-cf5b-4353-abf6-9f441c763ca4","system_id":"levelo_inurba_marseille","lat":43.29951,"lon":5.36527,"is_reserved":false,"is_disabled":false,"rental_uris":{"android":"levelo://app?vid=c8bbb2bb-cf5b-4353-abf6-9f441c763ca4","ios":"levelo://app?vid=c8bbb2bb-cf5b-4353-abf6-9f441c763ca4"},"vehicle_type_id":"4","last_reported":1778884945,"current_range_meters":6000,"station_id":"ce4bgm92rcd13ifvqbr0","pricing_plan_id":"cebpf4jnsgd1na2vs0mg"},{"bike_id":"146dab31-404b-4d62-b261-022fa58bf707","system_id":"levelo_inurba_marseille","lat":43.33024,"lon":5.39038,"is_reserved":false,"is_disabled":false,"rental_uris":{"android":"levelo://app?vid=146dab31-404b-4d62-b261-022fa58bf707","ios":"levelo://app?vid=146dab31-404b-4d62-b261-022fa58bf707"},"vehicle_type_id":"4","last_reported":1778884945,"current_range_meters":6000,"station_id":"ce4bhr92rcd13ifvqhrg","pricing_plan_id":"cebpf4jnsgd1na2vs0mg"},{"bike_id":"65327f7c-e360-4450-b880-6bfdd1c2509b","system_id":"levelo_inurba_marseille","lat":43.31082,"lon":5.42428,"is_reserved":false,"is_disabled":false,"rental_uris":{"android":"levelo://app?vid=65327f7c-e360-4450-b880-6bfdd1c2509b","ios":"levelo://app?vid=65327f7c-e360-4450-b880-6bfdd1c2509b"},"vehicle_type_id":"4","last_reported":1778884945,"current_range_meters":6000,"station_id":"ce4bhp92rcd13ifvqhag","pricing_plan_id":"cebpf4jnsgd1na2vs0mg"},{"bike_id":"aa6bb981-2206-4b0e-be57-99420df52d7f","system_id":"levelo_inurba_marseille","lat":43.28729,"lon":5.42689,"is_reserved":false,"is_disabled":false,"rental_uris":{"android":"levelo://app?vid=aa6bb981-2206-4b0e-be57-99420df52d7f","ios":"levelo://app?vid=aa6bb981-2206-4b0e-be57-99420df52d7f"},"vehicle_type_id":"4","last_reported":1778884945,"current_range_meters":6000,"station_id":"","pricing_plan_id":"cebpf4jnsgd1na2vs0mg"},{"bike_id":"1d5fa909-b977-46a9-9408-7410d1722666","system_id":"levelo_inurba_marseille","lat":43.2439,"lon":5.37081,"is_reserved":false,"is_disabled":false,"rental_uris":{"android":"levelo://app?vid=1d5fa909-b977-46a9-9408-7410d1722666","ios":"levelo://app?vid=1d5fa909-b977-46a9-9408-7410d1722666"},"vehicle_type_id":"4","last_reported":1778884945,"current_range_meters":6000,"station_id":"ce4bhhh2rcd13ifvqfk0","pricing_plan_id":"cebpf4jnsgd1na2vs0mg"},{"bike_id":"1acf4b9e-bc2a-4444-8faa-988509eb626f","system_id":"levelo_inurba_marseille","lat":43.31033,"lon":5.37164,"is_reserved":false,"is_disabled":false,"rental_uris":{"android":"levelo://app?vid=1acf4b9e-bc2a-4444-8faa-988509eb626f","ios":"levelo://app?vid=1acf4b9e-bc2a-4444-8faa-988509eb626f"},"vehicle_type_id":"4","last_reported":1778884945,"current_range_meters":6000,"station_id":"st_d4kl2rp97mjs73e7tdfg","pricing_plan_id":"cebpf4jnsgd1na2vs0mg"},{"bike_id":"42b398f8-a8ea-44be-9411-45cdb22c6802","system_id":"levelo_inurba_marseille","lat":43.29541,"lon":5.39984,"is_reserved":false,"is_disabled":false,"rental_uris":{"android":"levelo://app?vid=42b398f8-a8ea-44be-9411-45cdb22c6802","ios":"levelo://app?vid=42b398f8-a8ea-44be-9411-45cdb22c6802"},"vehicle_type_id":"4","last_reported":1778884945,"current_range_meters":6000,"station_id":"ce4bh312rcd13ifvqdj0","pricing_plan_id":"cebpf4jnsgd1na2vs0mg"},{"bike_id":"a5b30788-7f54-4822-ab18-9d03c3d0a4c9","system_id":"levelo_inurba_marseille","lat":43.27358,"lon":5.36268,"is_reserved":false,"is_disabled":false,"rental_uris":{"android":"levelo://app?vid=a5b30788-7f54-4822-ab18-9d03c3d0a4c9","ios":"levelo://app?vid=a5b30788-7f54-4822-ab18-9d03c3d0a4c9"},"vehicle_type_id":"4","last_reported":1778884945,"current_range_meters":6000,"station_id":"ce4bhbh2rcd13ifvqeo0","pricing_plan_id":"cebpf4jnsgd1na2vs0mg"},{"bike_id":"9ca46757-0b6b-46db-a78e-07c0d2c11855","system_id":"levelo_inurba_marseille","lat":43.28729,"lon":5.3608,"is_reserved":false,"is_disabled":false,"rental_uris":{"android":"levelo://app?vid=9ca46757-0b6b-46db-a78e-07c0d2c11855","ios":"levelo://app?vid=9ca46757-0b6b-46db-a78e-07c0d2c11855"},"vehicle_type_id":"4","last_reported":1778884945,"current_range_meters":6000,"station_id":"cki0cbj6b192h4jlfktg","pricing_plan_id":"cebpf4jnsgd1na2vs0mg"},{"bike_id":"071cf419-ca8a-432d-b371-63e825e32ebc","system_id":"levelo_inurba_marseille","lat":43.28411,"lon":5.37513,"is_reserved":false,"is_disabled":false,"rental_uris":{"android":"levelo://app?vid=071cf419-ca8a-432d-b371-63e825e32ebc","ios":"levelo://app?vid=071cf419-ca8a-432d-b371-63e825e32ebc"},"vehicle_type_id":"4","last_reported":1778884945,"current_range_meters":6000,"station_id":"ce4bh412rcd13ifvqds0","pricing_plan_id":"cebpf4jnsgd1na2vs0mg"},{"bike_id":"18eb90ac-eec2-4913-9241-dd8d26049a6e","system_id":"levelo_inurba_marseille","lat":43.28693,"lon":5.46684,"is_reserved":false,"is_disabled":false,"rental_uris":{"android":"levelo://app?vid=18eb90ac-eec2-4913-9241-dd8d26049a6e","ios":"levelo://app?vid=18eb90ac-eec2-4913-9241-dd8d26049a6e"},"vehicle_type_id":"4","last_reported":1778884945,"current_range_meters":6000,"station_id":"st_d6tc3vkotcvc738tfjhg","pricing_plan_id":"cebpf4jnsgd1na2vs0mg"},{"bike_id":"a9ae89fc-206c-4d68-b57f-4b9d3c27636e","system_id":"levelo_inurba_marseille","lat":43.22551,"lon":5.41629,"is_reserved":false,"is_disabled":false,"rental_uris":{"android":"levelo://app?vid=a9ae89fc-206c-4d68-b57f-4b9d3c27636e","ios":"levelo://app?vid=a9ae89fc-206c-4d68-b57f-4b9d3c27636e"},"vehicle_type_id":"4","last_reported":1778884945,"current_range_meters":6000,"station_id":"st_d2o4gvlbi1j2169b742g","pricing_plan_id":"cebpf4jnsgd1na2vs0mg"},{"bike_id":"4836b46f-8492-4c0e-a261-8adef8cb58af","system_id":"levelo_inurba_marseille","lat":43.27057,"lon":5.42294,"is_reserved":false,"is_disabled":false,"rental_uris":{"android":"levelo://app?vid=4836b46f-8492-4c0e-a261-8adef8cb58af","ios":"levelo://app?vid=4836b46f-8492-4c0e-a261-8adef8cb58af"},"vehicle_type_id":"4","last_reported":1778884945,"current_range_meters":6000,"station_id":"ce4bhk92rcd13ifvqgb0","pricing_plan_id":"cebpf4jnsgd1na2vs0mg"},{"bike_id":"7b6875e0-fc1f-46ce-9151-4ad8f0a2d503","system_id":"levelo_inurba_marseille","lat":43.25575,"lon":5.38235,"is_reserved":false,"is_disabled":false,"rental_uris":{"android":"levelo://app?vid=7b6875e0-fc1f-46ce-9151-4ad8f0a2d503","ios":"levelo://app?vid=7b6875e0-fc1f-46ce-9151-4ad8f0a2d503"},"vehicle_type_id":"4","last_reported":1778884945,"current_range_meters":6000,"station_id":"ce4bhih2rcd13ifvqfs0","pricing_plan_id":"cebpf4jnsgd1na2vs0mg"},{"bike_id":"eb69ded8-3844-4366-a6c0-c2401c6cc839","system_id":"levelo_inurba_marseille","lat":43.28702,"lon":5.46691,"is_reserved":false,"is_disabled":false,"rental_uris":{"android":"levelo://app?vid=eb69ded8-3844-4366-a6c0-c2401c6cc839","ios":"levelo://app?vid=eb69ded8-3844-4366-a6c0-c2401c6cc839"},"vehicle_type_id":"4","last_reported":1778884945,"current_range_meters":6000,"station_id":"st_d6tc3vkotcvc738tfjhg","pricing_plan_id":"cebpf4jnsgd1na2vs0mg"},{"bike_id":"7f48fba2-ea38-43f6-8ecc-3254e0b95833","system_id":"levelo_inurba_marseille","lat":43.30465,"lon":5.37879,"is_reserved":false,"is_disabled":true,"rental_uris":{"android":"levelo://app?vid=7f48fba2-ea38-43f6-8ecc-3254e0b95833","ios":"levelo://app?vid=7f48fba2-ea38-43f6-8ecc-3254e0b95833"},"vehicle_type_id":"4","last_reported":1778884945,"current_range_meters":6400,"station_id":"ce4bgup2rcd13ifvqcn0","pricing_plan_id":"cebpf4jnsgd1na2vs0mg"},{"bike_id":"eb7dcfe6-0239-42bf-875b-cc052b1345ed","system_id":"levelo_inurba_marseille","lat":43.29176,"lon":5.37132,"is_reserved":false,"is_disabled":false,"rental_uris":{"android":"levelo://app?vid=eb7dcfe6-0239-42bf-875b-cc052b1345ed","ios":"levelo://app?vid=eb7dcfe6-0239-42bf-875b-cc052b1345ed"},"vehicle_type_id":"4","last_reported":1778884945,"current_range_meters":6400,"station_id":"ce4bha92rcd13ifvqeh0","pricing_plan_id":"cebpf4jnsgd1na2vs0mg"},{"bike_id":"a2faab7b-1a1e-4589-8d0e-13503bb9caf5","system_id":"levelo_inurba_marseille","lat":43.29794,"lon":5.38116,"is_reserved":false,"is_disabled":false,"rental_uris":{"android":"levelo://app?vid=a2faab7b-1a1e-4589-8d0e-13503bb9caf5","ios":"levelo://app?vid=a2faab7b-1a1e-4589-8d0e-13503bb9caf5"},"vehicle_type_id":"4","last_reported":1778884945,"current_range_meters":6400,"station_id":"ce4bgip2rcd13ifvqbb0","pricing_plan_id":"cebpf4jnsgd1na2vs0mg"},{"bike_id":"ab7dec06-4c92-43d0-8713-e8a2d965e8c1","system_id":"levelo_inurba_marseille","lat":43.3055,"lon":5.3843,"is_reserved":false,"is_disabled":false,"rental_uris":{"android":"levelo://app?vid=ab7dec06-4c92-43d0-8713-e8a2d965e8c1","ios":"levelo://app?vid=ab7dec06-4c92-43d0-8713-e8a2d965e8c1"},"vehicle_type_id":"4","last_reported":1778884945,"current_range_meters":6400,"station_id":"ce4bgg92rcd13ifvqb30","pricing_plan_id":"cebpf4jnsgd1na2vs0mg"},{"bike_id":"ab732321-0f43-4af8-819a-4da9fe09d5ed","system_id":"levelo_inurba_marseille","lat":43.28665,"lon":5.36354,"is_reserved":false,"is_disabled":false,"rental_uris":{"android":"levelo://app?vid=ab732321-0f43-4af8-819a-4da9fe09d5ed","ios":"levelo://app?vid=ab732321-0f43-4af8-819a-4da9fe09d5ed"},"vehicle_type_id":"4","last_reported":1778884945,"current_range_meters":6400,"station_id":"ce4bhah2rcd13ifvqej0","pricing_plan_id":"cebpf4jnsgd1na2vs0mg"},{"bike_id":"9b0d300e-df14-4113-9c71-af15c744e30b","system_id":"levelo_inurba_marseille","lat":43.31717,"lon":5.42397,"is_reserved":false,"is_disabled":false,"rental_uris":{"android":"levelo://app?vid=9b0d300e-df14-4113-9c71-af15c744e30b","ios":"levelo://app?vid=9b0d300e-df14-4113-9c71-af15c744e30b"},"vehicle_type_id":"4","last_reported":1778884945,"current_range_meters":6400,"station_id":"ce4bhp92rcd13ifvqhbg","pricing_plan_id":"cebpf4jnsgd1na2vs0mg"},{"bike_id":"538f37b0-047f-427d-bdee-4c68e20fce42","system_id":"levelo_inurba_marseille","lat":43.26602,"lon":5.37269,"is_reserved":false,"is_disabled":false,"rental_uris":{"android":"levelo://app?vid=538f37b0-047f-427d-bdee-4c68e20fce42","ios":"levelo://app?vid=538f37b0-047f-427d-bdee-4c68e20fce42"},"vehicle_type_id":"4","last_reported":1778884945,"current_range_meters":6400,"station_id":"ce4bhg12rcd13ifvqf70","pricing_plan_id":"cebpf4jnsgd1na2vs0mg"},{"bike_id":"8b95f8eb-fc13-43cf-97cf-82c8724c23ad","system_id":"levelo_inurba_marseille","lat":43.30531,"lon":5.36527,"is_reserved":false,"is_disabled":false,"rental_uris":{"android":"levelo://app?vid=8b95f8eb-fc13-43cf-97cf-82c8724c23ad","ios":"levelo://app?vid=8b95f8eb-fc13-43cf-97cf-82c8724c23ad"},"vehicle_type_id":"4","last_reported":1778884945,"current_range_meters":6400,"station_id":"ce4bgs12rcd13ifvqcag","pricing_plan_id":"cebpf4jnsgd1na2vs0mg"},{"bike_id":"3ab0a96b-db12-4979-826d-7212fffbc199","system_id":"levelo_inurba_marseille","lat":43.29025,"lon":5.38132,"is_reserved":false,"is_disabled":false,"rental_uris":{"android":"levelo://app?vid=3ab0a96b-db12-4979-826d-7212fffbc199","ios":"levelo://app?vid=3ab0a96b-db12-4979-826d-7212fffbc199"},"vehicle_type_id":"4","last_reported":1778884945,"current_range_meters":6400,"station_id":"ce4bh4p2rcd13ifvqe1g","pricing_plan_id":"cebpf4jnsgd1na2vs0mg"},{"bike_id":"f8fa4806-2300-4db8-8a68-898a5c270249","system_id":"levelo_inurba_marseille","lat":43.29271,"lon":5.38445,"is_reserved":false,"is_disabled":false,"rental_uris":{"android":"levelo://app?vid=f8fa4806-2300-4db8-8a68-898a5c270249","ios":"levelo://app?vid=f8fa4806-2300-4db8-8a68-898a5c270249"},"vehicle_type_id":"4","last_reported":1778884945,"current_range_meters":6400,"station_id":"ce4bh692rcd13ifvqea0","pricing_plan_id":"cebpf4jnsgd1na2vs0mg"},{"bike_id":"b307ebcf-a623-4ce8-bd6b-ce1a3ee616ac","system_id":"levelo_inurba_marseille","lat":43.25101,"lon":5.39371,"is_reserved":false,"is_disabled":false,"rental_uris":{"android":"levelo://app?vid=b307ebcf-a623-4ce8-bd6b-ce1a3ee616ac","ios":"levelo://app?vid=b307ebcf-a623-4ce8-bd6b-ce1a3ee616ac"},"vehicle_type_id":"4","last_reported":1778884945,"current_range_meters":6400,"station_id":"","pricing_plan_id":"cebpf4jnsgd1na2vs0mg"},{"bike_id":"f6417259-2e9f-4325-92c2-cb993cf8109d","system_id":"levelo_inurba_marseille","lat":43.29528,"lon":5.38546,"is_reserved":false,"is_disabled":false,"rental_uris":{"android":"levelo://app?vid=f6417259-2e9f-4325-92c2-cb993cf8109d","ios":"levelo://app?vid=f6417259-2e9f-4325-92c2-cb993cf8109d"},"vehicle_type_id":"4","last_reported":1778884945,"current_range_meters":6400,"station_id":"ce4bgih2rcd13ifvqba0","pricing_plan_id":"cebpf4jnsgd1na2vs0mg"},{"bike_id":"05741061-c13d-4356-ad5d-e487adc7691b","system_id":"levelo_inurba_marseille","lat":43.29599,"lon":5.38105,"is_reserved":false,"is_disabled":true,"rental_uris":{"android":"levelo://app?vid=05741061-c13d-4356-ad5d-e487adc7691b","ios":"levelo://app?vid=05741061-c13d-4356-ad5d-e487adc7691b"},"vehicle_type_id":"4","last_reported":1778884945,"current_range_meters":6400,"station_id":"ce4bgl12rcd13ifvqbo0","pricing_plan_id":"cebpf4jnsgd1na2vs0mg"},{"bike_id":"7a85f51e-f21e-4766-89b4-dd38dba1a7a1","system_id":"levelo_inurba_marseille","lat":43.29049,"lon":5.35897,"is_reserved":false,"is_disabled":false,"rental_uris":{"android":"levelo://app?vid=7a85f51e-f21e-4766-89b4-dd38dba1a7a1","ios":"levelo://app?vid=7a85f51e-f21e-4766-89b4-dd38dba1a7a1"},"vehicle_type_id":"4","last_reported":1778884945,"current_range_meters":6400,"station_id":"ce4bha92rcd13ifvqeg0","pricing_plan_id":"cebpf4jnsgd1na2vs0mg"},{"bike_id":"295b23cf-88f3-4532-bfd2-e73c230f5c13","system_id":"levelo_inurba_marseille","lat":43.27959,"lon":5.38745,"is_reserved":false,"is_disabled":false,"rental_uris":{"android":"levelo://app?vid=295b23cf-88f3-4532-bfd2-e73c230f5c13","ios":"levelo://app?vid=295b23cf-88f3-4532-bfd2-e73c230f5c13"},"vehicle_type_id":"4","last_reported":1778884945,"current_range_meters":6400,"station_id":"ce4bhg12rcd13ifvqf80","pricing_plan_id":"cebpf4jnsgd1na2vs0mg"},{"bike_id":"664a66cf-32f5-4d4e-b164-e0c7e3c4db03","system_id":"levelo_inurba_marseille","lat":43.250836,"lon":5.395278,"is_reserved":false,"is_disabled":false,"rental_uris":{"android":"levelo://app?vid=664a66cf-32f5-4d4e-b164-e0c7e3c4db03","ios":"levelo://app?vid=664a66cf-32f5-4d4e-b164-e0c7e3c4db03"},"vehicle_type_id":"4","last_reported":1778884945,"current_range_meters":6400,"station_id":"ce4bhm12rcd13ifvqgkg","pricing_plan_id":"cebpf4jnsgd1na2vs0mg"},{"bike_id":"d35a5361-ecbd-4756-a272-e790a164bf93","system_id":"levelo_inurba_marseille","lat":43.26217,"lon":5.40453,"is_reserved":false,"is_disabled":false,"rental_uris":{"android":"levelo://app?vid=d35a5361-ecbd-4756-a272-e790a164bf93","ios":"levelo://app?vid=d35a5361-ecbd-4756-a272-e790a164bf93"},"vehicle_type_id":"4","last_reported":1778884945,"current_range_meters":6400,"station_id":"ce4bhmh2rcd13ifvqgmg","pricing_plan_id":"cebpf4jnsgd1na2vs0mg"},{"bike_id":"2cd8024f-8bf1-4632-b64f-e6429f22c9e4","system_id":"levelo_inurba_marseille","lat":43.31712,"lon":5.43705,"is_reserved":false,"is_disabled":false,"rental_uris":{"android":"levelo://app?vid=2cd8024f-8bf1-4632-b64f-e6429f22c9e4","ios":"levelo://app?vid=2cd8024f-8bf1-4632-b64f-e6429f22c9e4"},"vehicle_type_id":"4","last_reported":1778884945,"current_range_meters":6400,"station_id":"ce4bhp92rcd13ifvqhcg","pricing_plan_id":"cebpf4jnsgd1na2vs0mg"},{"bike_id":"579c1010-a0a4-4e44-bcba-24d9838b4262","system_id":"levelo_inurba_marseille","lat":43.24952,"lon":5.40483,"is_reserved":false,"is_disabled":false,"rental_uris":{"android":"levelo://app?vid=579c1010-a0a4-4e44-bcba-24d9838b4262","ios":"levelo://app?vid=579c1010-a0a4-4e44-bcba-24d9838b4262"},"vehicle_type_id":"4","last_reported":1778884945,"current_range_meters":6400,"station_id":"st_d2ngiaodas8pm72gd1h0","pricing_plan_id":"cebpf4jnsgd1na2vs0mg"},{"bike_id":"b467cf52-e84d-42b9-ad71-bed97235ec79","system_id":"levelo_inurba_marseille","lat":43.29726,"lon":5.37665,"is_reserved":false,"is_disabled":false,"rental_uris":{"android":"levelo://app?vid=b467cf52-e84d-42b9-ad71-bed97235ec79","ios":"levelo://app?vid=b467cf52-e84d-42b9-ad71-bed97235ec79"},"vehicle_type_id":"4","last_reported":1778884945,"current_range_meters":6800,"station_id":"ce4bgkh2rcd13ifvqbl0","pricing_plan_id":"cebpf4jnsgd1na2vs0mg"},{"bike_id":"38e5524f-9270-46e3-9347-904a53ccf264","system_id":"levelo_inurba_marseille","lat":43.29523,"lon":5.39036,"is_reserved":false,"is_disabled":false,"rental_uris":{"android":"levelo://app?vid=38e5524f-9270-46e3-9347-904a53ccf264","ios":"levelo://app?vid=38e5524f-9270-46e3-9347-904a53ccf264"},"vehicle_type_id":"4","last_reported":1778884945,"current_range_meters":6800,"station_id":"ce4bh3p2rcd13ifvqdp0","pricing_plan_id":"cebpf4jnsgd1na2vs0mg"},{"bike_id":"2d670795-ba4f-472c-8cb2-f6597f8549c8","system_id":"levelo_inurba_marseille","lat":43.29781,"lon":5.3936,"is_reserved":false,"is_disabled":true,"rental_uris":{"android":"levelo://app?vid=2d670795-ba4f-472c-8cb2-f6597f8549c8","ios":"levelo://app?vid=2d670795-ba4f-472c-8cb2-f6597f8549c8"},"vehicle_type_id":"4","last_reported":1778884945,"current_range_meters":6800,"station_id":"chh1huq6cuj3fo74tm60","pricing_plan_id":"cebpf4jnsgd1na2vs0mg"},{"bike_id":"df06f853-df8b-44c5-8abd-63dd254e997c","system_id":"levelo_inurba_marseille","lat":43.29807,"lon":5.38643,"is_reserved":false,"is_disabled":false,"rental_uris":{"android":"levelo://app?vid=df06f853-df8b-44c5-8abd-63dd254e997c","ios":"levelo://app?vid=df06f853-df8b-44c5-8abd-63dd254e997c"},"vehicle_type_id":"4","last_reported":1778884945,"current_range_meters":6800,"station_id":"","pricing_plan_id":"cebpf4jnsgd1na2vs0mg"},{"bike_id":"67ecae68-d24a-4dbc-b685-351365b700de","system_id":"levelo_inurba_marseille","lat":43.25503,"lon":5.37653,"is_reserved":false,"is_disabled":false,"rental_uris":{"android":"levelo://app?vid=67ecae68-d24a-4dbc-b685-351365b700de","ios":"levelo://app?vid=67ecae68-d24a-4dbc-b685-351365b700de"},"vehicle_type_id":"4","last_reported":1778884945,"current_range_meters":6800,"station_id":"ce4bhh12rcd13ifvqff0","pricing_plan_id":"cebpf4jnsgd1na2vs0mg"},{"bike_id":"13105749-a35c-4a24-8632-613205513da5","system_id":"levelo_inurba_marseille","lat":43.33595,"lon":5.40973,"is_reserved":false,"is_disabled":false,"rental_uris":{"android":"levelo://app?vid=13105749-a35c-4a24-8632-613205513da5","ios":"levelo://app?vid=13105749-a35c-4a24-8632-613205513da5"},"vehicle_type_id":"4","last_reported":1778884945,"current_range_meters":6800,"station_id":"","pricing_plan_id":"cebpf4jnsgd1na2vs0mg"},{"bike_id":"197f8590-4140-4e11-8b87-67ad98bb4bca","system_id":"levelo_inurba_marseille","lat":43.28601,"lon":5.37059,"is_reserved":false,"is_disabled":true,"rental_uris":{"android":"levelo://app?vid=197f8590-4140-4e11-8b87-67ad98bb4bca","ios":"levelo://app?vid=197f8590-4140-4e11-8b87-67ad98bb4bca"},"vehicle_type_id":"4","last_reported":1778884945,"current_range_meters":6800,"station_id":"ce4bht12rcd13ifvqi60","pricing_plan_id":"cebpf4jnsgd1na2vs0mg"},{"bike_id":"c73b603c-d18f-447d-ac06-429d2b6b15a8","system_id":"levelo_inurba_marseille","lat":43.22943,"lon":5.35377,"is_reserved":false,"is_disabled":false,"rental_uris":{"android":"levelo://app?vid=c73b603c-d18f-447d-ac06-429d2b6b15a8","ios":"levelo://app?vid=c73b603c-d18f-447d-ac06-429d2b6b15a8"},"vehicle_type_id":"4","last_reported":1778884945,"current_range_meters":6800,"station_id":"cpo3532slgdg3j2ikp40","pricing_plan_id":"cebpf4jnsgd1na2vs0mg"},{"bike_id":"4c4af55b-f60f-4b0e-bc18-caba52c3f95e","system_id":"levelo_inurba_marseille","lat":43.29558,"lon":5.42292,"is_reserved":false,"is_disabled":false,"rental_uris":{"android":"levelo://app?vid=4c4af55b-f60f-4b0e-bc18-caba52c3f95e","ios":"levelo://app?vid=4c4af55b-f60f-4b0e-bc18-caba52c3f95e"},"vehicle_type_id":"4","last_reported":1778884945,"current_range_meters":6800,"station_id":"ce4bhph2rcd13ifvqhdg","pricing_plan_id":"cebpf4jnsgd1na2vs0mg"},{"bike_id":"dc0c6757-b834-4a5b-94c9-a7b9f022d20f","system_id":"levelo_inurba_marseille","lat":43.27353,"lon":5.36242,"is_reserved":false,"is_disabled":false,"rental_uris":{"android":"levelo://app?vid=dc0c6757-b834-4a5b-94c9-a7b9f022d20f","ios":"levelo://app?vid=dc0c6757-b834-4a5b-94c9-a7b9f022d20f"},"vehicle_type_id":"4","last_reported":1778884945,"current_range_meters":6800,"station_id":"ce4bhbh2rcd13ifvqeo0","pricing_plan_id":"cebpf4jnsgd1na2vs0mg"},{"bike_id":"69a4de94-ae1f-4385-aa61-58a2336f8cb8","system_id":"levelo_inurba_marseille","lat":43.29971,"lon":5.43017,"is_reserved":false,"is_disabled":false,"rental_uris":{"android":"levelo://app?vid=69a4de94-ae1f-4385-aa61-58a2336f8cb8","ios":"levelo://app?vid=69a4de94-ae1f-4385-aa61-58a2336f8cb8"},"vehicle_type_id":"4","last_reported":1778884945,"current_range_meters":6800,"station_id":"","pricing_plan_id":"cebpf4jnsgd1na2vs0mg"},{"bike_id":"44d71ae5-a5e6-42a3-99db-4175ddd046fa","system_id":"levelo_inurba_marseille","lat":43.31056,"lon":5.37152,"is_reserved":false,"is_disabled":false,"rental_uris":{"android":"levelo://app?vid=44d71ae5-a5e6-42a3-99db-4175ddd046fa","ios":"levelo://app?vid=44d71ae5-a5e6-42a3-99db-4175ddd046fa"},"vehicle_type_id":"4","last_reported":1778884945,"current_range_meters":6800,"station_id":"st_d4kl2rp97mjs73e7tdfg","pricing_plan_id":"cebpf4jnsgd1na2vs0mg"},{"bike_id":"580fe52f-7e9c-457a-b814-ad9e2d2f32ba","system_id":"levelo_inurba_marseille","lat":43.26536,"lon":5.37295,"is_reserved":false,"is_disabled":false,"rental_uris":{"android":"levelo://app?vid=580fe52f-7e9c-457a-b814-ad9e2d2f32ba","ios":"levelo://app?vid=580fe52f-7e9c-457a-b814-ad9e2d2f32ba"},"vehicle_type_id":"4","last_reported":1778884945,"current_range_meters":6800,"station_id":"ce4bhg12rcd13ifvqf70","pricing_plan_id":"cebpf4jnsgd1na2vs0mg"},{"bike_id":"bea8f6dc-3107-47d3-94c4-947f2ef9741a","system_id":"levelo_inurba_marseille","lat":43.24162,"lon":5.36397,"is_reserved":false,"is_disabled":false,"rental_uris":{"android":"levelo://app?vid=bea8f6dc-3107-47d3-94c4-947f2ef9741a","ios":"levelo://app?vid=bea8f6dc-3107-47d3-94c4-947f2ef9741a"},"vehicle_type_id":"4","last_reported":1778884945,"current_range_meters":6800,"station_id":"cpo36qri1sfpv3e86is0","pricing_plan_id":"cebpf4jnsgd1na2vs0mg"},{"bike_id":"8ddc9a86-069f-4990-8e9e-592bed9753d4","system_id":"levelo_inurba_marseille","lat":43.28466,"lon":5.35884,"is_reserved":false,"is_disabled":false,"rental_uris":{"android":"levelo://app?vid=8ddc9a86-069f-4990-8e9e-592bed9753d4","ios":"levelo://app?vid=8ddc9a86-069f-4990-8e9e-592bed9753d4"},"vehicle_type_id":"4","last_reported":1778884945,"current_range_meters":6800,"station_id":"ce4bhah2rcd13ifvqei0","pricing_plan_id":"cebpf4jnsgd1na2vs0mg"},{"bike_id":"12a0ca16-fd13-48b0-a305-a37bde5d7877","system_id":"levelo_inurba_marseille","lat":43.30546,"lon":5.36525,"is_reserved":false,"is_disabled":true,"rental_uris":{"android":"levelo://app?vid=12a0ca16-fd13-48b0-a305-a37bde5d7877","ios":"levelo://app?vid=12a0ca16-fd13-48b0-a305-a37bde5d7877"},"vehicle_type_id":"4","last_reported":1778884945,"current_range_meters":6800,"station_id":"ce4bgs12rcd13ifvqcag","pricing_plan_id":"cebpf4jnsgd1na2vs0mg"},{"bike_id":"caeefb51-7c3c-45aa-bafa-17ab17688b10","system_id":"levelo_inurba_marseille","lat":43.26028,"lon":5.37553,"is_reserved":false,"is_disabled":false,"rental_uris":{"android":"levelo://app?vid=caeefb51-7c3c-45aa-bafa-17ab17688b10","ios":"levelo://app?vid=caeefb51-7c3c-45aa-bafa-17ab17688b10"},"vehicle_type_id":"4","last_reported":1778884945,"current_range_meters":6800,"station_id":"ce4bhgh2rcd13ifvqfa0","pricing_plan_id":"cebpf4jnsgd1na2vs0mg"},{"bike_id":"8234b880-2918-4add-8ddc-1c519c3eb850","system_id":"levelo_inurba_marseille","lat":43.21191,"lon":5.35075,"is_reserved":false,"is_disabled":false,"rental_uris":{"android":"levelo://app?vid=8234b880-2918-4add-8ddc-1c519c3eb850","ios":"levelo://app?vid=8234b880-2918-4add-8ddc-1c519c3eb850"},"vehicle_type_id":"4","last_reported":1778884945,"current_range_meters":6800,"station_id":"st_cvj6sg6p6f1abm77japg","pricing_plan_id":"cebpf4jnsgd1na2vs0mg"},{"bike_id":"59cba0c3-1fde-4933-9c22-7aca45dd8376","system_id":"levelo_inurba_marseille","lat":43.3093,"lon":5.4014,"is_reserved":false,"is_disabled":false,"rental_uris":{"android":"levelo://app?vid=59cba0c3-1fde-4933-9c22-7aca45dd8376","ios":"levelo://app?vid=59cba0c3-1fde-4933-9c22-7aca45dd8376"},"vehicle_type_id":"4","last_reported":1778884945,"current_range_meters":6800,"station_id":"ce4bgvp2rcd13ifvqct0","pricing_plan_id":"cebpf4jnsgd1na2vs0mg"},{"bike_id":"4a8828bf-5352-4721-8c19-0a06947545c0","system_id":"levelo_inurba_marseille","lat":43.27979,"lon":5.4166,"is_reserved":false,"is_disabled":false,"rental_uris":{"android":"levelo://app?vid=4a8828bf-5352-4721-8c19-0a06947545c0","ios":"levelo://app?vid=4a8828bf-5352-4721-8c19-0a06947545c0"},"vehicle_type_id":"4","last_reported":1778884945,"current_range_meters":6800,"station_id":"ce4bho12rcd13ifvqh1g","pricing_plan_id":"cebpf4jnsgd1na2vs0mg"},{"bike_id":"9a5f0e5a-98fd-466b-9ae6-50d62b7490ed","system_id":"levelo_inurba_marseille","lat":43.30128,"lon":5.3987,"is_reserved":false,"is_disabled":false,"rental_uris":{"android":"levelo://app?vid=9a5f0e5a-98fd-466b-9ae6-50d62b7490ed","ios":"levelo://app?vid=9a5f0e5a-98fd-466b-9ae6-50d62b7490ed"},"vehicle_type_id":"4","last_reported":1778884945,"current_range_meters":6800,"station_id":"ce4bh0h2rcd13ifvqd40","pricing_plan_id":"cebpf4jnsgd1na2vs0mg"},{"bike_id":"5aaf1b0a-e597-4b95-92b0-c92c614c8bec","system_id":"levelo_inurba_marseille","lat":43.2972,"lon":5.37666,"is_reserved":false,"is_disabled":false,"rental_uris":{"android":"levelo://app?vid=5aaf1b0a-e597-4b95-92b0-c92c614c8bec","ios":"levelo://app?vid=5aaf1b0a-e597-4b95-92b0-c92c614c8bec"},"vehicle_type_id":"4","last_reported":1778884945,"current_range_meters":6800,"station_id":"ce4bgkh2rcd13ifvqbl0","pricing_plan_id":"cebpf4jnsgd1na2vs0mg"},{"bike_id":"ce9ee171-fd03-4b9f-85f6-b6605daf9ed2","system_id":"levelo_inurba_marseille","lat":43.28932,"lon":5.38384,"is_reserved":false,"is_disabled":false,"rental_uris":{"android":"levelo://app?vid=ce9ee171-fd03-4b9f-85f6-b6605daf9ed2","ios":"levelo://app?vid=ce9ee171-fd03-4b9f-85f6-b6605daf9ed2"},"vehicle_type_id":"4","last_reported":1778884945,"current_range_meters":6800,"station_id":"ce4bh612rcd13ifvqe6g","pricing_plan_id":"cebpf4jnsgd1na2vs0mg"},{"bike_id":"89a26143-74c4-49ae-b5cf-e30eaecdc6d9","system_id":"levelo_inurba_marseille","lat":43.25338,"lon":5.42126,"is_reserved":false,"is_disabled":false,"rental_uris":{"android":"levelo://app?vid=89a26143-74c4-49ae-b5cf-e30eaecdc6d9","ios":"levelo://app?vid=89a26143-74c4-49ae-b5cf-e30eaecdc6d9"},"vehicle_type_id":"4","last_reported":1778884945,"current_range_meters":6800,"station_id":"st_d2m65c5bi1j21697t3ng","pricing_plan_id":"cebpf4jnsgd1na2vs0mg"},{"bike_id":"3c2aaad4-691f-43b3-9d8f-0b0f6841d1ed","system_id":"levelo_inurba_marseille","lat":43.25579,"lon":5.38236,"is_reserved":false,"is_disabled":false,"rental_uris":{"android":"levelo://app?vid=3c2aaad4-691f-43b3-9d8f-0b0f6841d1ed","ios":"levelo://app?vid=3c2aaad4-691f-43b3-9d8f-0b0f6841d1ed"},"vehicle_type_id":"4","last_reported":1778884945,"current_range_meters":6800,"station_id":"ce4bhih2rcd13ifvqfs0","pricing_plan_id":"cebpf4jnsgd1na2vs0mg"},{"bike_id":"24cad884-f326-447a-9ef4-dd08493578cd","system_id":"levelo_inurba_marseille","lat":43.30107,"lon":5.39072,"is_reserved":false,"is_disabled":false,"rental_uris":{"android":"levelo://app?vid=24cad884-f326-447a-9ef4-dd08493578cd","ios":"levelo://app?vid=24cad884-f326-447a-9ef4-dd08493578cd"},"vehicle_type_id":"4","last_reported":1778884945,"current_range_meters":7200,"station_id":"ce4bh192rcd13ifvqdb0","pricing_plan_id":"cebpf4jnsgd1na2vs0mg"},{"bike_id":"a212985c-9cc0-4a7d-93df-44ec0b0323d6","system_id":"levelo_inurba_marseille","lat":43.29573,"lon":5.37508,"is_reserved":false,"is_disabled":false,"rental_uris":{"android":"levelo://app?vid=a212985c-9cc0-4a7d-93df-44ec0b0323d6","ios":"levelo://app?vid=a212985c-9cc0-4a7d-93df-44ec0b0323d6"},"vehicle_type_id":"4","last_reported":1778884945,"current_range_meters":7200,"station_id":"ce4bgh92rcd13ifvqb50","pricing_plan_id":"cebpf4jnsgd1na2vs0mg"},{"bike_id":"f13c9ed8-72a8-4760-98e0-b371b872d86f","system_id":"levelo_inurba_marseille","lat":43.29781,"lon":5.37109,"is_reserved":false,"is_disabled":true,"rental_uris":{"android":"levelo://app?vid=f13c9ed8-72a8-4760-98e0-b371b872d86f","ios":"levelo://app?vid=f13c9ed8-72a8-4760-98e0-b371b872d86f"},"vehicle_type_id":"4","last_reported":1778884945,"current_range_meters":7200,"station_id":"ce4bgop2rcd13ifvqc1g","pricing_plan_id":"cebpf4jnsgd1na2vs0mg"},{"bike_id":"305f8012-853c-4e5c-b4a3-badea1215a44","system_id":"levelo_inurba_marseille","lat":43.33754,"lon":5.37506,"is_reserved":false,"is_disabled":false,"rental_uris":{"android":"levelo://app?vid=305f8012-853c-4e5c-b4a3-badea1215a44","ios":"levelo://app?vid=305f8012-853c-4e5c-b4a3-badea1215a44"},"vehicle_type_id":"4","last_reported":1778884945,"current_range_meters":7200,"station_id":"","pricing_plan_id":"cebpf4jnsgd1na2vs0mg"},{"bike_id":"310313f9-4c8b-458d-834b-81e71f22dc3f","system_id":"levelo_inurba_marseille","lat":43.27922,"lon":5.39582,"is_reserved":false,"is_disabled":true,"rental_uris":{"android":"levelo://app?vid=310313f9-4c8b-458d-834b-81e71f22dc3f","ios":"levelo://app?vid=310313f9-4c8b-458d-834b-81e71f22dc3f"},"vehicle_type_id":"4","last_reported":1778884945,"current_range_meters":7200,"station_id":"ce4bhf92rcd13ifvqf40","pricing_plan_id":"cebpf4jnsgd1na2vs0mg"},{"bike_id":"ba857fbd-dfd7-4912-a275-4ec1b34f9a01","system_id":"levelo_inurba_marseille","lat":43.28029,"lon":5.36947,"is_reserved":false,"is_disabled":false,"rental_uris":{"android":"levelo://app?vid=ba857fbd-dfd7-4912-a275-4ec1b34f9a01","ios":"levelo://app?vid=ba857fbd-dfd7-4912-a275-4ec1b34f9a01"},"vehicle_type_id":"4","last_reported":1778884945,"current_range_meters":7200,"station_id":"ce4bha12rcd13ifvqef0","pricing_plan_id":"cebpf4jnsgd1na2vs0mg"},{"bike_id":"b8cdcb18-0992-41e0-9600-2f0349dd6257","system_id":"levelo_inurba_marseille","lat":43.29196,"lon":5.3933,"is_reserved":false,"is_disabled":false,"rental_uris":{"android":"levelo://app?vid=b8cdcb18-0992-41e0-9600-2f0349dd6257","ios":"levelo://app?vid=b8cdcb18-0992-41e0-9600-2f0349dd6257"},"vehicle_type_id":"4","last_reported":1778884945,"current_range_meters":7200,"station_id":"ce4bh192rcd13ifvqdd0","pricing_plan_id":"cebpf4jnsgd1na2vs0mg"},{"bike_id":"e2b01916-b402-42c0-8537-aa44111b4988","system_id":"levelo_inurba_marseille","lat":43.2732,"lon":5.39079,"is_reserved":false,"is_disabled":false,"rental_uris":{"android":"levelo://app?vid=e2b01916-b402-42c0-8537-aa44111b4988","ios":"levelo://app?vid=e2b01916-b402-42c0-8537-aa44111b4988"},"vehicle_type_id":"4","last_reported":1778884945,"current_range_meters":7200,"station_id":"ce4bhgp2rcd13ifvqfe0","pricing_plan_id":"cebpf4jnsgd1na2vs0mg"},{"bike_id":"9f099b54-5b53-4454-8009-293b63c1af4a","system_id":"levelo_inurba_marseille","lat":43.27992,"lon":5.41654,"is_reserved":false,"is_disabled":true,"rental_uris":{"android":"levelo://app?vid=9f099b54-5b53-4454-8009-293b63c1af4a","ios":"levelo://app?vid=9f099b54-5b53-4454-8009-293b63c1af4a"},"vehicle_type_id":"4","last_reported":1778884945,"current_range_meters":7200,"station_id":"ce4bho12rcd13ifvqh1g","pricing_plan_id":"cebpf4jnsgd1na2vs0mg"},{"bike_id":"76e33348-6a4a-4160-8477-e9650ddfdc10","system_id":"levelo_inurba_marseille","lat":43.29555,"lon":5.4229,"is_reserved":false,"is_disabled":false,"rental_uris":{"android":"levelo://app?vid=76e33348-6a4a-4160-8477-e9650ddfdc10","ios":"levelo://app?vid=76e33348-6a4a-4160-8477-e9650ddfdc10"},"vehicle_type_id":"4","last_reported":1778884945,"current_range_meters":7200,"station_id":"ce4bhph2rcd13ifvqhdg","pricing_plan_id":"cebpf4jnsgd1na2vs0mg"},{"bike_id":"ab883a8a-7183-49e5-b0ca-478bfd40dbb5","system_id":"levelo_inurba_marseille","lat":43.27573,"lon":5.38405,"is_reserved":false,"is_disabled":false,"rental_uris":{"android":"levelo://app?vid=ab883a8a-7183-49e5-b0ca-478bfd40dbb5","ios":"levelo://app?vid=ab883a8a-7183-49e5-b0ca-478bfd40dbb5"},"vehicle_type_id":"4","last_reported":1778884945,"current_range_meters":7200,"station_id":"ce4bhh92rcd13ifvqfi0","pricing_plan_id":"cebpf4jnsgd1na2vs0mg"},{"bike_id":"6683d1f5-e055-429a-a4ff-d6cb40a7917f","system_id":"levelo_inurba_marseille","lat":43.27036,"lon":5.38691,"is_reserved":false,"is_disabled":false,"rental_uris":{"android":"levelo://app?vid=6683d1f5-e055-429a-a4ff-d6cb40a7917f","ios":"levelo://app?vid=6683d1f5-e055-429a-a4ff-d6cb40a7917f"},"vehicle_type_id":"4","last_reported":1778884945,"current_range_meters":7200,"station_id":"","pricing_plan_id":"cebpf4jnsgd1na2vs0mg"},{"bike_id":"19547022-d3c4-4e70-8f92-94b73f02bbdd","system_id":"levelo_inurba_marseille","lat":43.337679,"lon":5.374413,"is_reserved":false,"is_disabled":false,"rental_uris":{"android":"levelo://app?vid=19547022-d3c4-4e70-8f92-94b73f02bbdd","ios":"levelo://app?vid=19547022-d3c4-4e70-8f92-94b73f02bbdd"},"vehicle_type_id":"4","last_reported":1778884945,"current_range_meters":7200,"station_id":"","pricing_plan_id":"cebpf4jnsgd1na2vs0mg"},{"bike_id":"417bd26b-1701-485b-b896-bb7adc98bac9","system_id":"levelo_inurba_marseille","lat":43.23959,"lon":5.36622,"is_reserved":false,"is_disabled":true,"rental_uris":{"android":"levelo://app?vid=417bd26b-1701-485b-b896-bb7adc98bac9","ios":"levelo://app?vid=417bd26b-1701-485b-b896-bb7adc98bac9"},"vehicle_type_id":"4","last_reported":1778884945,"current_range_meters":7200,"station_id":"ce4bhi12rcd13ifvqfp0","pricing_plan_id":"cebpf4jnsgd1na2vs0mg"},{"bike_id":"029a90b1-9418-4cea-8931-77bba43c3114","system_id":"levelo_inurba_marseille","lat":43.25577,"lon":5.38228,"is_reserved":false,"is_disabled":false,"rental_uris":{"android":"levelo://app?vid=029a90b1-9418-4cea-8931-77bba43c3114","ios":"levelo://app?vid=029a90b1-9418-4cea-8931-77bba43c3114"},"vehicle_type_id":"4","last_reported":1778884945,"current_range_meters":7200,"station_id":"ce4bhih2rcd13ifvqfs0","pricing_plan_id":"cebpf4jnsgd1na2vs0mg"},{"bike_id":"4c1456b4-c5f4-49ed-bd33-6f63525d7c4f","system_id":"levelo_inurba_marseille","lat":43.27976,"lon":5.38708,"is_reserved":false,"is_disabled":true,"rental_uris":{"android":"levelo://app?vid=4c1456b4-c5f4-49ed-bd33-6f63525d7c4f","ios":"levelo://app?vid=4c1456b4-c5f4-49ed-bd33-6f63525d7c4f"},"vehicle_type_id":"4","last_reported":1778884945,"current_range_meters":7200,"station_id":"ce4bhg12rcd13ifvqf80","pricing_plan_id":"cebpf4jnsgd1na2vs0mg"},{"bike_id":"9ff893e8-a35b-4276-8349-bacec107d22b","system_id":"levelo_inurba_marseille","lat":43.31233,"lon":5.37878,"is_reserved":false,"is_disabled":false,"rental_uris":{"android":"levelo://app?vid=9ff893e8-a35b-4276-8349-bacec107d22b","ios":"levelo://app?vid=9ff893e8-a35b-4276-8349-bacec107d22b"},"vehicle_type_id":"4","last_reported":1778884945,"current_range_meters":7200,"station_id":"","pricing_plan_id":"cebpf4jnsgd1na2vs0mg"},{"bike_id":"ca01c33c-99c8-4ff8-a274-d065c7262a1a","system_id":"levelo_inurba_marseille","lat":43.26402,"lon":5.38824,"is_reserved":false,"is_disabled":false,"rental_uris":{"android":"levelo://app?vid=ca01c33c-99c8-4ff8-a274-d065c7262a1a","ios":"levelo://app?vid=ca01c33c-99c8-4ff8-a274-d065c7262a1a"},"vehicle_type_id":"4","last_reported":1778884945,"current_range_meters":7200,"station_id":"","pricing_plan_id":"cebpf4jnsgd1na2vs0mg"},{"bike_id":"22d3d912-3119-4049-b2f8-8affd8e5feeb","system_id":"levelo_inurba_marseille","lat":43.25509,"lon":5.37632,"is_reserved":false,"is_disabled":false,"rental_uris":{"android":"levelo://app?vid=22d3d912-3119-4049-b2f8-8affd8e5feeb","ios":"levelo://app?vid=22d3d912-3119-4049-b2f8-8affd8e5feeb"},"vehicle_type_id":"4","last_reported":1778884945,"current_range_meters":7200,"station_id":"ce4bhh12rcd13ifvqff0","pricing_plan_id":"cebpf4jnsgd1na2vs0mg"},{"bike_id":"2b985fc8-08fa-4ec6-960d-c0c57f8b93de","system_id":"levelo_inurba_marseille","lat":43.24543,"lon":5.39525,"is_reserved":false,"is_disabled":false,"rental_uris":{"android":"levelo://app?vid=2b985fc8-08fa-4ec6-960d-c0c57f8b93de","ios":"levelo://app?vid=2b985fc8-08fa-4ec6-960d-c0c57f8b93de"},"vehicle_type_id":"4","last_reported":1778884945,"current_range_meters":7200,"station_id":"ce4bhlp2rcd13ifvqgjg","pricing_plan_id":"cebpf4jnsgd1na2vs0mg"},{"bike_id":"55ba4af7-a49e-4f0b-adbf-e969fb355a90","system_id":"levelo_inurba_marseille","lat":43.30141,"lon":5.39877,"is_reserved":false,"is_disabled":false,"rental_uris":{"android":"levelo://app?vid=55ba4af7-a49e-4f0b-adbf-e969fb355a90","ios":"levelo://app?vid=55ba4af7-a49e-4f0b-adbf-e969fb355a90"},"vehicle_type_id":"4","last_reported":1778884945,"current_range_meters":7200,"station_id":"ce4bh0h2rcd13ifvqd40","pricing_plan_id":"cebpf4jnsgd1na2vs0mg"},{"bike_id":"ea7b8b9e-c048-49c5-bb14-55af186de66e","system_id":"levelo_inurba_marseille","lat":43.2861,"lon":5.39885,"is_reserved":false,"is_disabled":false,"rental_uris":{"android":"levelo://app?vid=ea7b8b9e-c048-49c5-bb14-55af186de66e","ios":"levelo://app?vid=ea7b8b9e-c048-49c5-bb14-55af186de66e"},"vehicle_type_id":"4","last_reported":1778884945,"current_range_meters":7200,"station_id":"st_d4a7ka997mjs738ck50g","pricing_plan_id":"cebpf4jnsgd1na2vs0mg"},{"bike_id":"d2b9001b-3bd6-4e11-a455-c06b5cf0ca28","system_id":"levelo_inurba_marseille","lat":43.29599,"lon":5.3809,"is_reserved":false,"is_disabled":true,"rental_uris":{"android":"levelo://app?vid=d2b9001b-3bd6-4e11-a455-c06b5cf0ca28","ios":"levelo://app?vid=d2b9001b-3bd6-4e11-a455-c06b5cf0ca28"},"vehicle_type_id":"4","last_reported":1778884945,"current_range_meters":7200,"station_id":"ce4bgl12rcd13ifvqbo0","pricing_plan_id":"cebpf4jnsgd1na2vs0mg"},{"bike_id":"fc3434ec-3f12-4fe2-a883-c7406c4652f9","system_id":"levelo_inurba_marseille","lat":43.29484,"lon":5.43302,"is_reserved":false,"is_disabled":false,"rental_uris":{"android":"levelo://app?vid=fc3434ec-3f12-4fe2-a883-c7406c4652f9","ios":"levelo://app?vid=fc3434ec-3f12-4fe2-a883-c7406c4652f9"},"vehicle_type_id":"4","last_reported":1778884945,"current_range_meters":8000,"station_id":"st_d3j5ugp08ojc73fj9d10","pricing_plan_id":"cebpf4jnsgd1na2vs0mg"},{"bike_id":"2afb1c43-c4ae-4dbf-a94b-bbd6e75c31b0","system_id":"levelo_inurba_marseille","lat":43.29737,"lon":5.37704,"is_reserved":false,"is_disabled":false,"rental_uris":{"android":"levelo://app?vid=2afb1c43-c4ae-4dbf-a94b-bbd6e75c31b0","ios":"levelo://app?vid=2afb1c43-c4ae-4dbf-a94b-bbd6e75c31b0"},"vehicle_type_id":"4","last_reported":1778884945,"current_range_meters":8000,"station_id":"ce4bgkh2rcd13ifvqbl0","pricing_plan_id":"cebpf4jnsgd1na2vs0mg"},{"bike_id":"0c3bb168-eca3-4c35-bab0-33bc58fdc504","system_id":"levelo_inurba_marseille","lat":43.2893,"lon":5.36643,"is_reserved":false,"is_disabled":false,"rental_uris":{"android":"levelo://app?vid=0c3bb168-eca3-4c35-bab0-33bc58fdc504","ios":"levelo://app?vid=0c3bb168-eca3-4c35-bab0-33bc58fdc504"},"vehicle_type_id":"4","last_reported":1778884945,"current_range_meters":8000,"station_id":"ce4bhap2rcd13ifvqek0","pricing_plan_id":"cebpf4jnsgd1na2vs0mg"},{"bike_id":"879d922b-3910-4625-b8fb-95362e84f985","system_id":"levelo_inurba_marseille","lat":43.27891,"lon":5.37405,"is_reserved":false,"is_disabled":false,"rental_uris":{"android":"levelo://app?vid=879d922b-3910-4625-b8fb-95362e84f985","ios":"levelo://app?vid=879d922b-3910-4625-b8fb-95362e84f985"},"vehicle_type_id":"4","last_reported":1778884945,"current_range_meters":8000,"station_id":"","pricing_plan_id":"cebpf4jnsgd1na2vs0mg"},{"bike_id":"da25d015-d7dd-4fbf-997f-9acf97aa246b","system_id":"levelo_inurba_marseille","lat":43.28605,"lon":5.35089,"is_reserved":false,"is_disabled":false,"rental_uris":{"android":"levelo://app?vid=da25d015-d7dd-4fbf-997f-9acf97aa246b","ios":"levelo://app?vid=da25d015-d7dd-4fbf-997f-9acf97aa246b"},"vehicle_type_id":"4","last_reported":1778884945,"current_range_meters":8000,"station_id":"ce4bhch2rcd13ifvqeug","pricing_plan_id":"cebpf4jnsgd1na2vs0mg"},{"bike_id":"1f27b9c7-f593-4ee3-b394-7ce199ed2756","system_id":"levelo_inurba_marseille","lat":43.309018,"lon":5.37188,"is_reserved":false,"is_disabled":false,"rental_uris":{"android":"levelo://app?vid=1f27b9c7-f593-4ee3-b394-7ce199ed2756","ios":"levelo://app?vid=1f27b9c7-f593-4ee3-b394-7ce199ed2756"},"vehicle_type_id":"4","last_reported":1778884945,"current_range_meters":8000,"station_id":"","pricing_plan_id":"cebpf4jnsgd1na2vs0mg"},{"bike_id":"1b908700-68ee-430a-a6af-4946641f1b80","system_id":"levelo_inurba_marseille","lat":43.29537,"lon":5.38539,"is_reserved":false,"is_disabled":false,"rental_uris":{"android":"levelo://app?vid=1b908700-68ee-430a-a6af-4946641f1b80","ios":"levelo://app?vid=1b908700-68ee-430a-a6af-4946641f1b80"},"vehicle_type_id":"4","last_reported":1778884945,"current_range_meters":8000,"station_id":"ce4bgih2rcd13ifvqba0","pricing_plan_id":"cebpf4jnsgd1na2vs0mg"},{"bike_id":"432944d6-33e6-4bed-af1c-ead24600ae1a","system_id":"levelo_inurba_marseille","lat":43.32101,"lon":5.36813,"is_reserved":false,"is_disabled":false,"rental_uris":{"android":"levelo://app?vid=432944d6-33e6-4bed-af1c-ead24600ae1a","ios":"levelo://app?vid=432944d6-33e6-4bed-af1c-ead24600ae1a"},"vehicle_type_id":"4","last_reported":1778884945,"current_range_meters":8000,"station_id":"ce4bhrh2rcd13ifvqhug","pricing_plan_id":"cebpf4jnsgd1na2vs0mg"},{"bike_id":"c522deca-789e-49b3-982f-1f0402a24572","system_id":"levelo_inurba_marseille","lat":43.2464,"lon":5.3888,"is_reserved":false,"is_disabled":false,"rental_uris":{"android":"levelo://app?vid=c522deca-789e-49b3-982f-1f0402a24572","ios":"levelo://app?vid=c522deca-789e-49b3-982f-1f0402a24572"},"vehicle_type_id":"4","last_reported":1778884945,"current_range_meters":8000,"station_id":"ce4bhg12rcd13ifvqf60","pricing_plan_id":"cebpf4jnsgd1na2vs0mg"},{"bike_id":"d70c1dd5-80f9-4e5d-9594-5b78d9fad5a1","system_id":"levelo_inurba_marseille","lat":43.28575,"lon":5.39483,"is_reserved":false,"is_disabled":false,"rental_uris":{"android":"levelo://app?vid=d70c1dd5-80f9-4e5d-9594-5b78d9fad5a1","ios":"levelo://app?vid=d70c1dd5-80f9-4e5d-9594-5b78d9fad5a1"},"vehicle_type_id":"4","last_reported":1778884945,"current_range_meters":8000,"station_id":"ce4bh292rcd13ifvqdg0","pricing_plan_id":"cebpf4jnsgd1na2vs0mg"},{"bike_id":"84496ff4-7ca0-4094-8a0f-b50184415265","system_id":"levelo_inurba_marseille","lat":43.26538,"lon":5.37271,"is_reserved":false,"is_disabled":false,"rental_uris":{"android":"levelo://app?vid=84496ff4-7ca0-4094-8a0f-b50184415265","ios":"levelo://app?vid=84496ff4-7ca0-4094-8a0f-b50184415265"},"vehicle_type_id":"4","last_reported":1778884945,"current_range_meters":8000,"station_id":"ce4bhg12rcd13ifvqf70","pricing_plan_id":"cebpf4jnsgd1na2vs0mg"},{"bike_id":"dc437964-578c-4f7a-be1e-9a5b7abec9f5","system_id":"levelo_inurba_marseille","lat":43.24494,"lon":5.37672,"is_reserved":false,"is_disabled":false,"rental_uris":{"android":"levelo://app?vid=dc437964-578c-4f7a-be1e-9a5b7abec9f5","ios":"levelo://app?vid=dc437964-578c-4f7a-be1e-9a5b7abec9f5"},"vehicle_type_id":"4","last_reported":1778884945,"current_range_meters":8000,"station_id":"","pricing_plan_id":"cebpf4jnsgd1na2vs0mg"},{"bike_id":"ad7c93ea-10e3-4b72-9d1e-d58ff8ce2046","system_id":"levelo_inurba_marseille","lat":43.29542,"lon":5.38533,"is_reserved":false,"is_disabled":false,"rental_uris":{"android":"levelo://app?vid=ad7c93ea-10e3-4b72-9d1e-d58ff8ce2046","ios":"levelo://app?vid=ad7c93ea-10e3-4b72-9d1e-d58ff8ce2046"},"vehicle_type_id":"4","last_reported":1778884945,"current_range_meters":8000,"station_id":"ce4bgih2rcd13ifvqba0","pricing_plan_id":"cebpf4jnsgd1na2vs0mg"},{"bike_id":"1c155cb8-50aa-4ad8-95d4-a32cca5f7a07","system_id":"levelo_inurba_marseille","lat":43.24453,"lon":5.42551,"is_reserved":false,"is_disabled":false,"rental_uris":{"android":"levelo://app?vid=1c155cb8-50aa-4ad8-95d4-a32cca5f7a07","ios":"levelo://app?vid=1c155cb8-50aa-4ad8-95d4-a32cca5f7a07"},"vehicle_type_id":"4","last_reported":1778884945,"current_range_meters":8000,"station_id":"st_d4a3vfp97mjs738cd8kg","pricing_plan_id":"cebpf4jnsgd1na2vs0mg"},{"bike_id":"2e9752dd-56d6-4ed8-aeb7-442842038533","system_id":"levelo_inurba_marseille","lat":43.28536,"lon":5.44094,"is_reserved":false,"is_disabled":false,"rental_uris":{"android":"levelo://app?vid=2e9752dd-56d6-4ed8-aeb7-442842038533","ios":"levelo://app?vid=2e9752dd-56d6-4ed8-aeb7-442842038533"},"vehicle_type_id":"4","last_reported":1778884945,"current_range_meters":8000,"station_id":"st_d3j3df2ikq2c7380ej80","pricing_plan_id":"cebpf4jnsgd1na2vs0mg"},{"bike_id":"bf4140c2-b60d-49c9-a4a2-8e589e154982","system_id":"levelo_inurba_marseille","lat":43.33567,"lon":5.37451,"is_reserved":false,"is_disabled":false,"rental_uris":{"android":"levelo://app?vid=bf4140c2-b60d-49c9-a4a2-8e589e154982","ios":"levelo://app?vid=bf4140c2-b60d-49c9-a4a2-8e589e154982"},"vehicle_type_id":"4","last_reported":1778884945,"current_range_meters":8000,"station_id":"st_d46tts09ee8s73dlu43g","pricing_plan_id":"cebpf4jnsgd1na2vs0mg"},{"bike_id":"34509028-2810-49d0-9775-9d6595e09e88","system_id":"levelo_inurba_marseille","lat":43.23969,"lon":5.36615,"is_reserved":false,"is_disabled":false,"rental_uris":{"android":"levelo://app?vid=34509028-2810-49d0-9775-9d6595e09e88","ios":"levelo://app?vid=34509028-2810-49d0-9775-9d6595e09e88"},"vehicle_type_id":"4","last_reported":1778884945,"current_range_meters":8000,"station_id":"ce4bhi12rcd13ifvqfp0","pricing_plan_id":"cebpf4jnsgd1na2vs0mg"},{"bike_id":"2745dbb9-2626-45ea-af3c-b058df440194","system_id":"levelo_inurba_marseille","lat":43.31657,"lon":5.40477,"is_reserved":false,"is_disabled":false,"rental_uris":{"android":"levelo://app?vid=2745dbb9-2626-45ea-af3c-b058df440194","ios":"levelo://app?vid=2745dbb9-2626-45ea-af3c-b058df440194"},"vehicle_type_id":"4","last_reported":1778884945,"current_range_meters":8000,"station_id":"ce4bh012rcd13ifvqd00","pricing_plan_id":"cebpf4jnsgd1na2vs0mg"},{"bike_id":"8e56e6c7-cc30-4c66-9225-8a6a1c77d95d","system_id":"levelo_inurba_marseille","lat":43.25586,"lon":5.38224,"is_reserved":false,"is_disabled":false,"rental_uris":{"android":"levelo://app?vid=8e56e6c7-cc30-4c66-9225-8a6a1c77d95d","ios":"levelo://app?vid=8e56e6c7-cc30-4c66-9225-8a6a1c77d95d"},"vehicle_type_id":"4","last_reported":1778884945,"current_range_meters":8000,"station_id":"ce4bhih2rcd13ifvqfs0","pricing_plan_id":"cebpf4jnsgd1na2vs0mg"},{"bike_id":"9e90ecb9-eb42-4b6f-b217-a489aed4d6ac","system_id":"levelo_inurba_marseille","lat":43.32485,"lon":5.38281,"is_reserved":false,"is_disabled":false,"rental_uris":{"android":"levelo://app?vid=9e90ecb9-eb42-4b6f-b217-a489aed4d6ac","ios":"levelo://app?vid=9e90ecb9-eb42-4b6f-b217-a489aed4d6ac"},"vehicle_type_id":"4","last_reported":1778884945,"current_range_meters":8000,"station_id":"st_d4asgbiv49dc73anf9m0","pricing_plan_id":"cebpf4jnsgd1na2vs0mg"},{"bike_id":"bc1ceef2-7ab6-4b29-97cf-e699caf1898f","system_id":"levelo_inurba_marseille","lat":43.2465,"lon":5.38899,"is_reserved":false,"is_disabled":false,"rental_uris":{"android":"levelo://app?vid=bc1ceef2-7ab6-4b29-97cf-e699caf1898f","ios":"levelo://app?vid=bc1ceef2-7ab6-4b29-97cf-e699caf1898f"},"vehicle_type_id":"4","last_reported":1778884945,"current_range_meters":8000,"station_id":"ce4bhg12rcd13ifvqf60","pricing_plan_id":"cebpf4jnsgd1na2vs0mg"},{"bike_id":"d90e1575-ec76-461f-9701-a245bb59404f","system_id":"levelo_inurba_marseille","lat":43.24381,"lon":5.37037,"is_reserved":false,"is_disabled":false,"rental_uris":{"android":"levelo://app?vid=d90e1575-ec76-461f-9701-a245bb59404f","ios":"levelo://app?vid=d90e1575-ec76-461f-9701-a245bb59404f"},"vehicle_type_id":"4","last_reported":1778884945,"current_range_meters":8000,"station_id":"ce4bhhh2rcd13ifvqfk0","pricing_plan_id":"cebpf4jnsgd1na2vs0mg"},{"bike_id":"ecb43cf3-4571-441f-b7de-470cf95dfc38","system_id":"levelo_inurba_marseille","lat":43.21751,"lon":5.34604,"is_reserved":false,"is_disabled":true,"rental_uris":{"android":"levelo://app?vid=ecb43cf3-4571-441f-b7de-470cf95dfc38","ios":"levelo://app?vid=ecb43cf3-4571-441f-b7de-470cf95dfc38"},"vehicle_type_id":"4","last_reported":1778884945,"current_range_meters":8000,"station_id":"st_cvj6r9ubvosntc0bgbag","pricing_plan_id":"cebpf4jnsgd1na2vs0mg"},{"bike_id":"25d874e2-4fb0-465d-875a-02b69a82441a","system_id":"levelo_inurba_marseille","lat":43.24805,"lon":5.3747,"is_reserved":false,"is_disabled":false,"rental_uris":{"android":"levelo://app?vid=25d874e2-4fb0-465d-875a-02b69a82441a","ios":"levelo://app?vid=25d874e2-4fb0-465d-875a-02b69a82441a"},"vehicle_type_id":"4","last_reported":1778884945,"current_range_meters":8000,"station_id":"ce4bhgh2rcd13ifvqfb0","pricing_plan_id":"cebpf4jnsgd1na2vs0mg"},{"bike_id":"c92eee69-21ac-4706-88a8-527d3a7dfc5c","system_id":"levelo_inurba_marseille","lat":43.28703,"lon":5.37413,"is_reserved":false,"is_disabled":true,"rental_uris":{"android":"levelo://app?vid=c92eee69-21ac-4706-88a8-527d3a7dfc5c","ios":"levelo://app?vid=c92eee69-21ac-4706-88a8-527d3a7dfc5c"},"vehicle_type_id":"4","last_reported":1778884945,"current_range_meters":8000,"station_id":"ce4bh3p2rcd13ifvqdq0","pricing_plan_id":"cebpf4jnsgd1na2vs0mg"},{"bike_id":"b48aa10c-bd41-47b2-81ea-431d3ed55830","system_id":"levelo_inurba_marseille","lat":43.29603,"lon":5.38097,"is_reserved":false,"is_disabled":false,"rental_uris":{"android":"levelo://app?vid=b48aa10c-bd41-47b2-81ea-431d3ed55830","ios":"levelo://app?vid=b48aa10c-bd41-47b2-81ea-431d3ed55830"},"vehicle_type_id":"4","last_reported":1778884945,"current_range_meters":8400,"station_id":"ce4bgl12rcd13ifvqbo0","pricing_plan_id":"cebpf4jnsgd1na2vs0mg"},{"bike_id":"4b27839d-9a04-406f-9540-246382bf47cf","system_id":"levelo_inurba_marseille","lat":43.26577,"lon":5.39647,"is_reserved":false,"is_disabled":false,"rental_uris":{"android":"levelo://app?vid=4b27839d-9a04-406f-9540-246382bf47cf","ios":"levelo://app?vid=4b27839d-9a04-406f-9540-246382bf47cf"},"vehicle_type_id":"4","last_reported":1778884945,"current_range_meters":8400,"station_id":"","pricing_plan_id":"cebpf4jnsgd1na2vs0mg"},{"bike_id":"2c4e2c80-7a7f-49e7-8a11-230c3e37ee87","system_id":"levelo_inurba_marseille","lat":43.22565,"lon":5.41615,"is_reserved":false,"is_disabled":false,"rental_uris":{"android":"levelo://app?vid=2c4e2c80-7a7f-49e7-8a11-230c3e37ee87","ios":"levelo://app?vid=2c4e2c80-7a7f-49e7-8a11-230c3e37ee87"},"vehicle_type_id":"4","last_reported":1778884945,"current_range_meters":8400,"station_id":"st_d2o4gvlbi1j2169b742g","pricing_plan_id":"cebpf4jnsgd1na2vs0mg"},{"bike_id":"14b4d5ff-5bff-497e-8206-75d2399ff363","system_id":"levelo_inurba_marseille","lat":43.31059,"lon":5.37183,"is_reserved":false,"is_disabled":false,"rental_uris":{"android":"levelo://app?vid=14b4d5ff-5bff-497e-8206-75d2399ff363","ios":"levelo://app?vid=14b4d5ff-5bff-497e-8206-75d2399ff363"},"vehicle_type_id":"4","last_reported":1778884945,"current_range_meters":8400,"station_id":"st_d4kl2rp97mjs73e7tdfg","pricing_plan_id":"cebpf4jnsgd1na2vs0mg"},{"bike_id":"a56a8a0c-3ab9-465a-bdae-f5897ec1f98a","system_id":"levelo_inurba_marseille","lat":43.24157,"lon":5.36402,"is_reserved":false,"is_disabled":false,"rental_uris":{"android":"levelo://app?vid=a56a8a0c-3ab9-465a-bdae-f5897ec1f98a","ios":"levelo://app?vid=a56a8a0c-3ab9-465a-bdae-f5897ec1f98a"},"vehicle_type_id":"4","last_reported":1778884945,"current_range_meters":8400,"station_id":"cpo36qri1sfpv3e86is0","pricing_plan_id":"cebpf4jnsgd1na2vs0mg"},{"bike_id":"d603376b-37cb-4769-b2bf-07fc154e42df","system_id":"levelo_inurba_marseille","lat":43.26198,"lon":5.37936,"is_reserved":false,"is_disabled":false,"rental_uris":{"android":"levelo://app?vid=d603376b-37cb-4769-b2bf-07fc154e42df","ios":"levelo://app?vid=d603376b-37cb-4769-b2bf-07fc154e42df"},"vehicle_type_id":"4","last_reported":1778884945,"current_range_meters":8400,"station_id":"ce4bhjp2rcd13ifvqg90","pricing_plan_id":"cebpf4jnsgd1na2vs0mg"},{"bike_id":"b9fc383d-7675-4ac1-96a8-b14863e064c9","system_id":"levelo_inurba_marseille","lat":43.31317,"lon":5.37257,"is_reserved":false,"is_disabled":false,"rental_uris":{"android":"levelo://app?vid=b9fc383d-7675-4ac1-96a8-b14863e064c9","ios":"levelo://app?vid=b9fc383d-7675-4ac1-96a8-b14863e064c9"},"vehicle_type_id":"4","last_reported":1778884945,"current_range_meters":8400,"station_id":"","pricing_plan_id":"cebpf4jnsgd1na2vs0mg"},{"bike_id":"eb1530c2-05ee-47e4-9578-08c4c36eedd7","system_id":"levelo_inurba_marseille","lat":43.30106,"lon":5.39068,"is_reserved":false,"is_disabled":true,"rental_uris":{"android":"levelo://app?vid=eb1530c2-05ee-47e4-9578-08c4c36eedd7","ios":"levelo://app?vid=eb1530c2-05ee-47e4-9578-08c4c36eedd7"},"vehicle_type_id":"4","last_reported":1778884945,"current_range_meters":8400,"station_id":"ce4bh192rcd13ifvqdb0","pricing_plan_id":"cebpf4jnsgd1na2vs0mg"},{"bike_id":"c840fdcf-1e65-4005-a5a6-debdb0deb9d7","system_id":"levelo_inurba_marseille","lat":43.31119,"lon":5.37769,"is_reserved":false,"is_disabled":false,"rental_uris":{"android":"levelo://app?vid=c840fdcf-1e65-4005-a5a6-debdb0deb9d7","ios":"levelo://app?vid=c840fdcf-1e65-4005-a5a6-debdb0deb9d7"},"vehicle_type_id":"4","last_reported":1778884945,"current_range_meters":8400,"station_id":"ce4bgt92rcd13ifvqcg0","pricing_plan_id":"cebpf4jnsgd1na2vs0mg"},{"bike_id":"6ed28fa0-f20b-450d-a789-f0b565e64f1b","system_id":"levelo_inurba_marseille","lat":43.29835,"lon":5.38269,"is_reserved":false,"is_disabled":false,"rental_uris":{"android":"levelo://app?vid=6ed28fa0-f20b-450d-a789-f0b565e64f1b","ios":"levelo://app?vid=6ed28fa0-f20b-450d-a789-f0b565e64f1b"},"vehicle_type_id":"4","last_reported":1778884945,"current_range_meters":8400,"station_id":"","pricing_plan_id":"cebpf4jnsgd1na2vs0mg"},{"bike_id":"055a60b0-3aaa-43d9-a34f-b28b189e58ea","system_id":"levelo_inurba_marseille","lat":43.29186,"lon":5.37131,"is_reserved":false,"is_disabled":true,"rental_uris":{"android":"levelo://app?vid=055a60b0-3aaa-43d9-a34f-b28b189e58ea","ios":"levelo://app?vid=055a60b0-3aaa-43d9-a34f-b28b189e58ea"},"vehicle_type_id":"4","last_reported":1778884945,"current_range_meters":8400,"station_id":"ce4bha92rcd13ifvqeh0","pricing_plan_id":"cebpf4jnsgd1na2vs0mg"},{"bike_id":"55b6bec5-bd68-4133-89c2-d6b2b27da679","system_id":"levelo_inurba_marseille","lat":43.31554,"lon":5.38011,"is_reserved":false,"is_disabled":false,"rental_uris":{"android":"levelo://app?vid=55b6bec5-bd68-4133-89c2-d6b2b27da679","ios":"levelo://app?vid=55b6bec5-bd68-4133-89c2-d6b2b27da679"},"vehicle_type_id":"4","last_reported":1778884945,"current_range_meters":8400,"station_id":"ce4bhsp2rcd13ifvqi50","pricing_plan_id":"cebpf4jnsgd1na2vs0mg"},{"bike_id":"a7ba7573-670f-4857-85e5-48f3adfa2449","system_id":"levelo_inurba_marseille","lat":43.2836,"lon":5.38623,"is_reserved":false,"is_disabled":false,"rental_uris":{"android":"levelo://app?vid=a7ba7573-670f-4857-85e5-48f3adfa2449","ios":"levelo://app?vid=a7ba7573-670f-4857-85e5-48f3adfa2449"},"vehicle_type_id":"4","last_reported":1778884945,"current_range_meters":8400,"station_id":"ce4bh492rcd13ifvqdvg","pricing_plan_id":"cebpf4jnsgd1na2vs0mg"},{"bike_id":"0d48b951-38d8-424d-8b0c-f0f99f0143ab","system_id":"levelo_inurba_marseille","lat":43.28931,"lon":5.38398,"is_reserved":false,"is_disabled":false,"rental_uris":{"android":"levelo://app?vid=0d48b951-38d8-424d-8b0c-f0f99f0143ab","ios":"levelo://app?vid=0d48b951-38d8-424d-8b0c-f0f99f0143ab"},"vehicle_type_id":"4","last_reported":1778884945,"current_range_meters":8400,"station_id":"ce4bh612rcd13ifvqe6g","pricing_plan_id":"cebpf4jnsgd1na2vs0mg"},{"bike_id":"b99f3fcb-1bd8-490c-9327-4f96d9f8fa4c","system_id":"levelo_inurba_marseille","lat":43.279808,"lon":5.387431,"is_reserved":false,"is_disabled":false,"rental_uris":{"android":"levelo://app?vid=b99f3fcb-1bd8-490c-9327-4f96d9f8fa4c","ios":"levelo://app?vid=b99f3fcb-1bd8-490c-9327-4f96d9f8fa4c"},"vehicle_type_id":"4","last_reported":1778884945,"current_range_meters":8400,"station_id":"ce4bhg12rcd13ifvqf80","pricing_plan_id":"cebpf4jnsgd1na2vs0mg"},{"bike_id":"e36e9ae6-760f-4d6b-b27b-2683e1da6b8e","system_id":"levelo_inurba_marseille","lat":43.31748,"lon":5.39024,"is_reserved":false,"is_disabled":false,"rental_uris":{"android":"levelo://app?vid=e36e9ae6-760f-4d6b-b27b-2683e1da6b8e","ios":"levelo://app?vid=e36e9ae6-760f-4d6b-b27b-2683e1da6b8e"},"vehicle_type_id":"4","last_reported":1778884945,"current_range_meters":8400,"station_id":"ce4bhqp2rcd13ifvqhng","pricing_plan_id":"cebpf4jnsgd1na2vs0mg"},{"bike_id":"7c68fe7d-7889-48f1-8ea0-6b0b19454675","system_id":"levelo_inurba_marseille","lat":43.29254,"lon":5.38443,"is_reserved":false,"is_disabled":false,"rental_uris":{"android":"levelo://app?vid=7c68fe7d-7889-48f1-8ea0-6b0b19454675","ios":"levelo://app?vid=7c68fe7d-7889-48f1-8ea0-6b0b19454675"},"vehicle_type_id":"4","last_reported":1778884945,"current_range_meters":8400,"station_id":"ce4bh692rcd13ifvqea0","pricing_plan_id":"cebpf4jnsgd1na2vs0mg"},{"bike_id":"bc8c2695-d41e-43a5-a503-073f39b3a18d","system_id":"levelo_inurba_marseille","lat":43.27616,"lon":5.36096,"is_reserved":false,"is_disabled":false,"rental_uris":{"android":"levelo://app?vid=bc8c2695-d41e-43a5-a503-073f39b3a18d","ios":"levelo://app?vid=bc8c2695-d41e-43a5-a503-073f39b3a18d"},"vehicle_type_id":"4","last_reported":1778884945,"current_range_meters":8400,"station_id":"ce4bgj92rcd13ifvqbe0","pricing_plan_id":"cebpf4jnsgd1na2vs0mg"},{"bike_id":"559d1e2a-3378-464a-bb49-bac80a61d607","system_id":"levelo_inurba_marseille","lat":43.24458,"lon":5.42483,"is_reserved":false,"is_disabled":false,"rental_uris":{"android":"levelo://app?vid=559d1e2a-3378-464a-bb49-bac80a61d607","ios":"levelo://app?vid=559d1e2a-3378-464a-bb49-bac80a61d607"},"vehicle_type_id":"4","last_reported":1778884945,"current_range_meters":8400,"station_id":"st_d4a3vfp97mjs738cd8kg","pricing_plan_id":"cebpf4jnsgd1na2vs0mg"},{"bike_id":"489a1706-c3ea-4b0e-8e98-c2ee70717ba8","system_id":"levelo_inurba_marseille","lat":43.22552,"lon":5.41611,"is_reserved":false,"is_disabled":false,"rental_uris":{"android":"levelo://app?vid=489a1706-c3ea-4b0e-8e98-c2ee70717ba8","ios":"levelo://app?vid=489a1706-c3ea-4b0e-8e98-c2ee70717ba8"},"vehicle_type_id":"4","last_reported":1778884945,"current_range_meters":8400,"station_id":"st_d2o4gvlbi1j2169b742g","pricing_plan_id":"cebpf4jnsgd1na2vs0mg"},{"bike_id":"4ec959dd-1de1-448f-b442-aa2685dcb0b4","system_id":"levelo_inurba_marseille","lat":43.31193,"lon":5.3686,"is_reserved":false,"is_disabled":false,"rental_uris":{"android":"levelo://app?vid=4ec959dd-1de1-448f-b442-aa2685dcb0b4","ios":"levelo://app?vid=4ec959dd-1de1-448f-b442-aa2685dcb0b4"},"vehicle_type_id":"4","last_reported":1778884945,"current_range_meters":8400,"station_id":"ce4bgl92rcd13ifvqbq0","pricing_plan_id":"cebpf4jnsgd1na2vs0mg"},{"bike_id":"a7c68890-a173-43aa-8f53-5e8d56e89b57","system_id":"levelo_inurba_marseille","lat":43.307291,"lon":5.40954,"is_reserved":false,"is_disabled":false,"rental_uris":{"android":"levelo://app?vid=a7c68890-a173-43aa-8f53-5e8d56e89b57","ios":"levelo://app?vid=a7c68890-a173-43aa-8f53-5e8d56e89b57"},"vehicle_type_id":"4","last_reported":1778884945,"current_range_meters":8400,"station_id":"","pricing_plan_id":"cebpf4jnsgd1na2vs0mg"},{"bike_id":"973a4ea5-5e87-41fb-add3-8e550dc9c1c3","system_id":"levelo_inurba_marseille","lat":43.30529,"lon":5.36537,"is_reserved":false,"is_disabled":true,"rental_uris":{"android":"levelo://app?vid=973a4ea5-5e87-41fb-add3-8e550dc9c1c3","ios":"levelo://app?vid=973a4ea5-5e87-41fb-add3-8e550dc9c1c3"},"vehicle_type_id":"4","last_reported":1778884945,"current_range_meters":8400,"station_id":"ce4bgs12rcd13ifvqcag","pricing_plan_id":"cebpf4jnsgd1na2vs0mg"},{"bike_id":"255a8db9-6ac5-445d-8da2-584280160595","system_id":"levelo_inurba_marseille","lat":43.29968,"lon":5.36757,"is_reserved":false,"is_disabled":false,"rental_uris":{"android":"levelo://app?vid=255a8db9-6ac5-445d-8da2-584280160595","ios":"levelo://app?vid=255a8db9-6ac5-445d-8da2-584280160595"},"vehicle_type_id":"4","last_reported":1778884945,"current_range_meters":8400,"station_id":"","pricing_plan_id":"cebpf4jnsgd1na2vs0mg"},{"bike_id":"d6fdf162-9bdd-45b2-8c7a-6ca35b0cd5fa","system_id":"levelo_inurba_marseille","lat":43.27016,"lon":5.36451,"is_reserved":false,"is_disabled":false,"rental_uris":{"android":"levelo://app?vid=d6fdf162-9bdd-45b2-8c7a-6ca35b0cd5fa","ios":"levelo://app?vid=d6fdf162-9bdd-45b2-8c7a-6ca35b0cd5fa"},"vehicle_type_id":"4","last_reported":1778884945,"current_range_meters":8400,"station_id":"","pricing_plan_id":"cebpf4jnsgd1na2vs0mg"},{"bike_id":"4d57d6c4-5e55-41e3-998d-da530d029a79","system_id":"levelo_inurba_marseille","lat":43.27558,"lon":5.38424,"is_reserved":false,"is_disabled":false,"rental_uris":{"android":"levelo://app?vid=4d57d6c4-5e55-41e3-998d-da530d029a79","ios":"levelo://app?vid=4d57d6c4-5e55-41e3-998d-da530d029a79"},"vehicle_type_id":"4","last_reported":1778884945,"current_range_meters":8400,"station_id":"ce4bhh92rcd13ifvqfi0","pricing_plan_id":"cebpf4jnsgd1na2vs0mg"},{"bike_id":"57107c48-e7f6-4c16-892f-b4f26fa59a9e","system_id":"levelo_inurba_marseille","lat":43.258628,"lon":5.399031,"is_reserved":false,"is_disabled":false,"rental_uris":{"android":"levelo://app?vid=57107c48-e7f6-4c16-892f-b4f26fa59a9e","ios":"levelo://app?vid=57107c48-e7f6-4c16-892f-b4f26fa59a9e"},"vehicle_type_id":"4","last_reported":1778884945,"current_range_meters":8400,"station_id":"ce4bhl92rcd13ifvqghg","pricing_plan_id":"cebpf4jnsgd1na2vs0mg"},{"bike_id":"a4daa27a-ef2c-44dd-9374-6a461d1eeb5c","system_id":"levelo_inurba_marseille","lat":43.30247,"lon":5.40063,"is_reserved":false,"is_disabled":true,"rental_uris":{"android":"levelo://app?vid=a4daa27a-ef2c-44dd-9374-6a461d1eeb5c","ios":"levelo://app?vid=a4daa27a-ef2c-44dd-9374-6a461d1eeb5c"},"vehicle_type_id":"4","last_reported":1778884945,"current_range_meters":8400,"station_id":"ce4bgvh2rcd13ifvqcs0","pricing_plan_id":"cebpf4jnsgd1na2vs0mg"},{"bike_id":"7e765ce0-335c-407b-8543-539c04080230","system_id":"levelo_inurba_marseille","lat":43.290288,"lon":5.386469,"is_reserved":false,"is_disabled":false,"rental_uris":{"android":"levelo://app?vid=7e765ce0-335c-407b-8543-539c04080230","ios":"levelo://app?vid=7e765ce0-335c-407b-8543-539c04080230"},"vehicle_type_id":"4","last_reported":1778884945,"current_range_meters":8400,"station_id":"ce4bh4p2rcd13ifvqe0g","pricing_plan_id":"cebpf4jnsgd1na2vs0mg"},{"bike_id":"c0afe38e-1b1f-4737-9474-5d6681e1c046","system_id":"levelo_inurba_marseille","lat":43.29899,"lon":5.42075,"is_reserved":false,"is_disabled":false,"rental_uris":{"android":"levelo://app?vid=c0afe38e-1b1f-4737-9474-5d6681e1c046","ios":"levelo://app?vid=c0afe38e-1b1f-4737-9474-5d6681e1c046"},"vehicle_type_id":"4","last_reported":1778884945,"current_range_meters":8800,"station_id":"st_d6tc004otcvc738tfe70","pricing_plan_id":"cebpf4jnsgd1na2vs0mg"},{"bike_id":"1d8a5ed8-2ceb-4088-abcf-034836fac05d","system_id":"levelo_inurba_marseille","lat":43.30229,"lon":5.39956,"is_reserved":false,"is_disabled":false,"rental_uris":{"android":"levelo://app?vid=1d8a5ed8-2ceb-4088-abcf-034836fac05d","ios":"levelo://app?vid=1d8a5ed8-2ceb-4088-abcf-034836fac05d"},"vehicle_type_id":"4","last_reported":1778884945,"current_range_meters":8800,"station_id":"","pricing_plan_id":"cebpf4jnsgd1na2vs0mg"},{"bike_id":"30bdff29-9aa2-4944-9e9e-fbb89a71a011","system_id":"levelo_inurba_marseille","lat":43.29528,"lon":5.39395,"is_reserved":false,"is_disabled":true,"rental_uris":{"android":"levelo://app?vid=30bdff29-9aa2-4944-9e9e-fbb89a71a011","ios":"levelo://app?vid=30bdff29-9aa2-4944-9e9e-fbb89a71a011"},