{"last_updated":1751972963,"ttl":60,"version":"2.2","data":{"bikes":[{"bike_id":"3da29fb8-fc97-44c6-b9ac-31dd456b2fd4","system_id":"levelo_inurba_marseille","lat":43.33771,"lon":5.37424,"is_reserved":false,"is_disabled":true,"rental_uris":{"android":"levelo://app?vid=3da29fb8-fc97-44c6-b9ac-31dd456b2fd4","ios":"levelo://app?vid=3da29fb8-fc97-44c6-b9ac-31dd456b2fd4"},"vehicle_type_id":"4","last_reported":1751972963,"current_range_meters":0,"station_id":"","pricing_plan_id":"cebpf4jnsgd1na2vs0mg"},{"bike_id":"01861ad8-a8d7-4be6-816e-651927c87584","system_id":"levelo_inurba_marseille","lat":43.33751,"lon":5.37456,"is_reserved":false,"is_disabled":true,"rental_uris":{"android":"levelo://app?vid=01861ad8-a8d7-4be6-816e-651927c87584","ios":"levelo://app?vid=01861ad8-a8d7-4be6-816e-651927c87584"},"vehicle_type_id":"4","last_reported":1751972963,"current_range_meters":0,"station_id":"","pricing_plan_id":"cebpf4jnsgd1na2vs0mg"},{"bike_id":"3d508917-55ee-42b6-894b-89c2a444dc06","system_id":"levelo_inurba_marseille","lat":43.22802,"lon":5.3498,"is_reserved":false,"is_disabled":true,"rental_uris":{"android":"levelo://app?vid=3d508917-55ee-42b6-894b-89c2a444dc06","ios":"levelo://app?vid=3d508917-55ee-42b6-894b-89c2a444dc06"},"vehicle_type_id":"4","last_reported":1751972963,"current_range_meters":0,"station_id":"","pricing_plan_id":"cebpf4jnsgd1na2vs0mg"},{"bike_id":"8ea79a97-9f90-43d1-a6ab-a35552960d6c","system_id":"levelo_inurba_marseille","lat":43.33757,"lon":5.37519,"is_reserved":false,"is_disabled":true,"rental_uris":{"android":"levelo://app?vid=8ea79a97-9f90-43d1-a6ab-a35552960d6c","ios":"levelo://app?vid=8ea79a97-9f90-43d1-a6ab-a35552960d6c"},"vehicle_type_id":"4","last_reported":1751972963,"current_range_meters":0,"station_id":"","pricing_plan_id":"cebpf4jnsgd1na2vs0mg"},{"bike_id":"94d96232-0231-4594-9459-124aa9b6acd7","system_id":"levelo_inurba_marseille","lat":43.296021,"lon":5.37714,"is_reserved":false,"is_disabled":true,"rental_uris":{"android":"levelo://app?vid=94d96232-0231-4594-9459-124aa9b6acd7","ios":"levelo://app?vid=94d96232-0231-4594-9459-124aa9b6acd7"},"vehicle_type_id":"4","last_reported":1751972963,"current_range_meters":0,"station_id":"ce4bgi92rcd13ifvqb90","pricing_plan_id":"cebpf4jnsgd1na2vs0mg"},{"bike_id":"4d2426fd-ed83-4b3b-9946-e5d612afc6f9","system_id":"levelo_inurba_marseille","lat":43.30652,"lon":5.40096,"is_reserved":false,"is_disabled":true,"rental_uris":{"android":"levelo://app?vid=4d2426fd-ed83-4b3b-9946-e5d612afc6f9","ios":"levelo://app?vid=4d2426fd-ed83-4b3b-9946-e5d612afc6f9"},"vehicle_type_id":"4","last_reported":1751972963,"current_range_meters":0,"station_id":"ce4bh112rcd13ifvqda0","pricing_plan_id":"cebpf4jnsgd1na2vs0mg"},{"bike_id":"c08ce9fb-8ad3-4c57-aaf3-284c39052aaf","system_id":"levelo_inurba_marseille","lat":43.29262,"lon":5.38449,"is_reserved":false,"is_disabled":true,"rental_uris":{"android":"levelo://app?vid=c08ce9fb-8ad3-4c57-aaf3-284c39052aaf","ios":"levelo://app?vid=c08ce9fb-8ad3-4c57-aaf3-284c39052aaf"},"vehicle_type_id":"4","last_reported":1751972963,"current_range_meters":0,"station_id":"ce4bh692rcd13ifvqea0","pricing_plan_id":"cebpf4jnsgd1na2vs0mg"},{"bike_id":"95bf321f-84cb-4296-b12d-b973b1fd05bd","system_id":"levelo_inurba_marseille","lat":43.24403,"lon":5.37031,"is_reserved":false,"is_disabled":true,"rental_uris":{"android":"levelo://app?vid=95bf321f-84cb-4296-b12d-b973b1fd05bd","ios":"levelo://app?vid=95bf321f-84cb-4296-b12d-b973b1fd05bd"},"vehicle_type_id":"4","last_reported":1751972963,"current_range_meters":0,"station_id":"ce4bhhh2rcd13ifvqfk0","pricing_plan_id":"cebpf4jnsgd1na2vs0mg"},{"bike_id":"2db1b37c-342a-4b93-bec6-bf92617633be","system_id":"levelo_inurba_marseille","lat":43.2767,"lon":5.38893,"is_reserved":false,"is_disabled":true,"rental_uris":{"android":"levelo://app?vid=2db1b37c-342a-4b93-bec6-bf92617633be","ios":"levelo://app?vid=2db1b37c-342a-4b93-bec6-bf92617633be"},"vehicle_type_id":"4","last_reported":1751972963,"current_range_meters":0,"station_id":"ce4bhi12rcd13ifvqfo0","pricing_plan_id":"cebpf4jnsgd1na2vs0mg"},{"bike_id":"3fa60b66-7123-4290-8ce2-567d218498c6","system_id":"levelo_inurba_marseille","lat":43.25733,"lon":5.41098,"is_reserved":false,"is_disabled":true,"rental_uris":{"android":"levelo://app?vid=3fa60b66-7123-4290-8ce2-567d218498c6","ios":"levelo://app?vid=3fa60b66-7123-4290-8ce2-567d218498c6"},"vehicle_type_id":"4","last_reported":1751972963,"current_range_meters":0,"station_id":"ce4bhkp2rcd13ifvqgd0","pricing_plan_id":"cebpf4jnsgd1na2vs0mg"},{"bike_id":"d5677444-d26f-45f5-84d9-a37e6d9b2f41","system_id":"levelo_inurba_marseille","lat":43.25947,"lon":5.40907,"is_reserved":false,"is_disabled":true,"rental_uris":{"android":"levelo://app?vid=d5677444-d26f-45f5-84d9-a37e6d9b2f41","ios":"levelo://app?vid=d5677444-d26f-45f5-84d9-a37e6d9b2f41"},"vehicle_type_id":"4","last_reported":1751972963,"current_range_meters":0,"station_id":"ce4bhm92rcd13ifvqglg","pricing_plan_id":"cebpf4jnsgd1na2vs0mg"},{"bike_id":"d2866ccd-e3dd-415c-9c91-4093a42f7191","system_id":"levelo_inurba_marseille","lat":43.323608,"lon":5.367654,"is_reserved":false,"is_disabled":true,"rental_uris":{"android":"levelo://app?vid=d2866ccd-e3dd-415c-9c91-4093a42f7191","ios":"levelo://app?vid=d2866ccd-e3dd-415c-9c91-4093a42f7191"},"vehicle_type_id":"4","last_reported":1751972963,"current_range_meters":0,"station_id":"ce4bhsh2rcd13ifvqi2g","pricing_plan_id":"cebpf4jnsgd1na2vs0mg"},{"bike_id":"e28d9fca-8654-4158-8626-b0295be2db4e","system_id":"levelo_inurba_marseille","lat":43.26677,"lon":5.38249,"is_reserved":false,"is_disabled":true,"rental_uris":{"android":"levelo://app?vid=e28d9fca-8654-4158-8626-b0295be2db4e","ios":"levelo://app?vid=e28d9fca-8654-4158-8626-b0295be2db4e"},"vehicle_type_id":"4","last_reported":1751972963,"current_range_meters":400,"station_id":"ce4bhg92rcd13ifvqf90","pricing_plan_id":"cebpf4jnsgd1na2vs0mg"},{"bike_id":"b3613048-d304-4e70-a92e-3d769fe736f0","system_id":"levelo_inurba_marseille","lat":43.32355,"lon":5.36759,"is_reserved":false,"is_disabled":true,"rental_uris":{"android":"levelo://app?vid=b3613048-d304-4e70-a92e-3d769fe736f0","ios":"levelo://app?vid=b3613048-d304-4e70-a92e-3d769fe736f0"},"vehicle_type_id":"4","last_reported":1751972963,"current_range_meters":1200,"station_id":"ce4bhsh2rcd13ifvqi2g","pricing_plan_id":"cebpf4jnsgd1na2vs0mg"},{"bike_id":"a5994280-b5f2-40ce-9603-ef6d581f26c8","system_id":"levelo_inurba_marseille","lat":43.32129,"lon":5.36864,"is_reserved":false,"is_disabled":true,"rental_uris":{"android":"levelo://app?vid=a5994280-b5f2-40ce-9603-ef6d581f26c8","ios":"levelo://app?vid=a5994280-b5f2-40ce-9603-ef6d581f26c8"},"vehicle_type_id":"4","last_reported":1751972963,"current_range_meters":1600,"station_id":"","pricing_plan_id":"cebpf4jnsgd1na2vs0mg"},{"bike_id":"4a732f80-49b4-4c3f-92ce-0b06523d1e56","system_id":"levelo_inurba_marseille","lat":43.30138,"lon":5.3879,"is_reserved":false,"is_disabled":true,"rental_uris":{"android":"levelo://app?vid=4a732f80-49b4-4c3f-92ce-0b06523d1e56","ios":"levelo://app?vid=4a732f80-49b4-4c3f-92ce-0b06523d1e56"},"vehicle_type_id":"4","last_reported":1751972963,"current_range_meters":1600,"station_id":"ce4bghh2rcd13ifvqb60","pricing_plan_id":"cebpf4jnsgd1na2vs0mg"},{"bike_id":"a47abdce-eaec-4479-b5ea-e7319260d3b2","system_id":"levelo_inurba_marseille","lat":43.29977,"lon":5.38505,"is_reserved":false,"is_disabled":true,"rental_uris":{"android":"levelo://app?vid=a47abdce-eaec-4479-b5ea-e7319260d3b2","ios":"levelo://app?vid=a47abdce-eaec-4479-b5ea-e7319260d3b2"},"vehicle_type_id":"4","last_reported":1751972963,"current_range_meters":1600,"station_id":"ce4bgj92rcd13ifvqbd0","pricing_plan_id":"cebpf4jnsgd1na2vs0mg"},{"bike_id":"64d26a0b-af38-420e-b086-e95436b234f1","system_id":"levelo_inurba_marseille","lat":43.29265,"lon":5.38441,"is_reserved":false,"is_disabled":true,"rental_uris":{"android":"levelo://app?vid=64d26a0b-af38-420e-b086-e95436b234f1","ios":"levelo://app?vid=64d26a0b-af38-420e-b086-e95436b234f1"},"vehicle_type_id":"4","last_reported":1751972963,"current_range_meters":1600,"station_id":"ce4bh692rcd13ifvqea0","pricing_plan_id":"cebpf4jnsgd1na2vs0mg"},{"bike_id":"ed290504-6948-4f69-8584-2e2b0286febf","system_id":"levelo_inurba_marseille","lat":43.21179,"lon":5.35104,"is_reserved":false,"is_disabled":true,"rental_uris":{"android":"levelo://app?vid=ed290504-6948-4f69-8584-2e2b0286febf","ios":"levelo://app?vid=ed290504-6948-4f69-8584-2e2b0286febf"},"vehicle_type_id":"4","last_reported":1751972963,"current_range_meters":2000,"station_id":"st_cvj6sg6p6f1abm77japg","pricing_plan_id":"cebpf4jnsgd1na2vs0mg"},{"bike_id":"66d90e65-3f71-4dce-a706-4dcecf5bb39a","system_id":"levelo_inurba_marseille","lat":43.29566,"lon":5.37524,"is_reserved":false,"is_disabled":false,"rental_uris":{"android":"levelo://app?vid=66d90e65-3f71-4dce-a706-4dcecf5bb39a","ios":"levelo://app?vid=66d90e65-3f71-4dce-a706-4dcecf5bb39a"},"vehicle_type_id":"4","last_reported":1751972963,"current_range_meters":2800,"station_id":"ce4bgh92rcd13ifvqb50","pricing_plan_id":"cebpf4jnsgd1na2vs0mg"},{"bike_id":"67a89f61-e2ea-4c87-a6d6-9cd90ab95f9e","system_id":"levelo_inurba_marseille","lat":43.29082,"lon":5.37188,"is_reserved":false,"is_disabled":false,"rental_uris":{"android":"levelo://app?vid=67a89f61-e2ea-4c87-a6d6-9cd90ab95f9e","ios":"levelo://app?vid=67a89f61-e2ea-4c87-a6d6-9cd90ab95f9e"},"vehicle_type_id":"4","last_reported":1751972963,"current_range_meters":2800,"station_id":"ce4bh5p2rcd13ifvqe4g","pricing_plan_id":"cebpf4jnsgd1na2vs0mg"},{"bike_id":"8d1f2db5-6f2a-4427-9928-c8663920cbad","system_id":"levelo_inurba_marseille","lat":43.32477,"lon":5.36579,"is_reserved":false,"is_disabled":false,"rental_uris":{"android":"levelo://app?vid=8d1f2db5-6f2a-4427-9928-c8663920cbad","ios":"levelo://app?vid=8d1f2db5-6f2a-4427-9928-c8663920cbad"},"vehicle_type_id":"4","last_reported":1751972963,"current_range_meters":2800,"station_id":"ce4bhs12rcd13ifvqhvg","pricing_plan_id":"cebpf4jnsgd1na2vs0mg"},{"bike_id":"3b638e02-6a55-403d-b500-cc62d0041fbc","system_id":"levelo_inurba_marseille","lat":43.265764,"lon":5.39006,"is_reserved":false,"is_disabled":false,"rental_uris":{"android":"levelo://app?vid=3b638e02-6a55-403d-b500-cc62d0041fbc","ios":"levelo://app?vid=3b638e02-6a55-403d-b500-cc62d0041fbc"},"vehicle_type_id":"4","last_reported":1751972963,"current_range_meters":3200,"station_id":"","pricing_plan_id":"cebpf4jnsgd1na2vs0mg"},{"bike_id":"616336cc-0c91-47ba-88e7-9d04794daa36","system_id":"levelo_inurba_marseille","lat":43.257243,"lon":5.411057,"is_reserved":false,"is_disabled":false,"rental_uris":{"android":"levelo://app?vid=616336cc-0c91-47ba-88e7-9d04794daa36","ios":"levelo://app?vid=616336cc-0c91-47ba-88e7-9d04794daa36"},"vehicle_type_id":"4","last_reported":1751972963,"current_range_meters":3200,"station_id":"ce4bhkp2rcd13ifvqgd0","pricing_plan_id":"cebpf4jnsgd1na2vs0mg"},{"bike_id":"47cc12e9-1f9d-4b29-b948-db655857089a","system_id":"levelo_inurba_marseille","lat":43.22507,"lon":5.34782,"is_reserved":false,"is_disabled":false,"rental_uris":{"android":"levelo://app?vid=47cc12e9-1f9d-4b29-b948-db655857089a","ios":"levelo://app?vid=47cc12e9-1f9d-4b29-b948-db655857089a"},"vehicle_type_id":"4","last_reported":1751972963,"current_range_meters":3200,"station_id":"st_cvj5dfep6f1abm77gieg","pricing_plan_id":"cebpf4jnsgd1na2vs0mg"},{"bike_id":"de3c7479-ad03-448f-a78e-88898eddd51a","system_id":"levelo_inurba_marseille","lat":43.32975,"lon":5.39719,"is_reserved":false,"is_disabled":false,"rental_uris":{"android":"levelo://app?vid=de3c7479-ad03-448f-a78e-88898eddd51a","ios":"levelo://app?vid=de3c7479-ad03-448f-a78e-88898eddd51a"},"vehicle_type_id":"4","last_reported":1751972963,"current_range_meters":3600,"station_id":"","pricing_plan_id":"cebpf4jnsgd1na2vs0mg"},{"bike_id":"71e58a67-8342-4dd2-84ab-8b7866263f42","system_id":"levelo_inurba_marseille","lat":43.30698,"lon":5.40171,"is_reserved":false,"is_disabled":false,"rental_uris":{"android":"levelo://app?vid=71e58a67-8342-4dd2-84ab-8b7866263f42","ios":"levelo://app?vid=71e58a67-8342-4dd2-84ab-8b7866263f42"},"vehicle_type_id":"4","last_reported":1751972963,"current_range_meters":3600,"station_id":"","pricing_plan_id":"cebpf4jnsgd1na2vs0mg"},{"bike_id":"9def0ec1-138e-43cf-8384-2b31b614d8bb","system_id":"levelo_inurba_marseille","lat":43.25002,"lon":5.38929,"is_reserved":false,"is_disabled":false,"rental_uris":{"android":"levelo://app?vid=9def0ec1-138e-43cf-8384-2b31b614d8bb","ios":"levelo://app?vid=9def0ec1-138e-43cf-8384-2b31b614d8bb"},"vehicle_type_id":"4","last_reported":1751972963,"current_range_meters":3600,"station_id":"ce4bhgp2rcd13ifvqfd0","pricing_plan_id":"cebpf4jnsgd1na2vs0mg"},{"bike_id":"744884f6-5a9f-4d58-9401-4e825729e979","system_id":"levelo_inurba_marseille","lat":43.32054,"lon":5.41537,"is_reserved":false,"is_disabled":false,"rental_uris":{"android":"levelo://app?vid=744884f6-5a9f-4d58-9401-4e825729e979","ios":"levelo://app?vid=744884f6-5a9f-4d58-9401-4e825729e979"},"vehicle_type_id":"4","last_reported":1751972963,"current_range_meters":3600,"station_id":"ce4bhq92rcd13ifvqhkg","pricing_plan_id":"cebpf4jnsgd1na2vs0mg"},{"bike_id":"ae1c09a4-18ca-4bb2-bade-c4d4c7092cd3","system_id":"levelo_inurba_marseille","lat":43.28038,"lon":5.36945,"is_reserved":false,"is_disabled":false,"rental_uris":{"android":"levelo://app?vid=ae1c09a4-18ca-4bb2-bade-c4d4c7092cd3","ios":"levelo://app?vid=ae1c09a4-18ca-4bb2-bade-c4d4c7092cd3"},"vehicle_type_id":"4","last_reported":1751972963,"current_range_meters":4000,"station_id":"ce4bha12rcd13ifvqef0","pricing_plan_id":"cebpf4jnsgd1na2vs0mg"},{"bike_id":"cb3b4dbb-8716-4b0f-a3be-fe3f3dbbd7a9","system_id":"levelo_inurba_marseille","lat":43.26563,"lon":5.37285,"is_reserved":false,"is_disabled":false,"rental_uris":{"android":"levelo://app?vid=cb3b4dbb-8716-4b0f-a3be-fe3f3dbbd7a9","ios":"levelo://app?vid=cb3b4dbb-8716-4b0f-a3be-fe3f3dbbd7a9"},"vehicle_type_id":"4","last_reported":1751972963,"current_range_meters":4000,"station_id":"ce4bhg12rcd13ifvqf70","pricing_plan_id":"cebpf4jnsgd1na2vs0mg"},{"bike_id":"cd1c2c33-c89e-4ae5-a87d-579107e40785","system_id":"levelo_inurba_marseille","lat":43.243777,"lon":5.370582,"is_reserved":false,"is_disabled":false,"rental_uris":{"android":"levelo://app?vid=cd1c2c33-c89e-4ae5-a87d-579107e40785","ios":"levelo://app?vid=cd1c2c33-c89e-4ae5-a87d-579107e40785"},"vehicle_type_id":"4","last_reported":1751972963,"current_range_meters":4000,"station_id":"ce4bhhh2rcd13ifvqfk0","pricing_plan_id":"cebpf4jnsgd1na2vs0mg"},{"bike_id":"ff6969fc-5512-4edf-a61d-6936ccb9a278","system_id":"levelo_inurba_marseille","lat":43.330142,"lon":5.36378,"is_reserved":false,"is_disabled":false,"rental_uris":{"android":"levelo://app?vid=ff6969fc-5512-4edf-a61d-6936ccb9a278","ios":"levelo://app?vid=ff6969fc-5512-4edf-a61d-6936ccb9a278"},"vehicle_type_id":"4","last_reported":1751972963,"current_range_meters":4400,"station_id":"","pricing_plan_id":"cebpf4jnsgd1na2vs0mg"},{"bike_id":"2e639198-0d0c-4b99-94ae-f1b97817786a","system_id":"levelo_inurba_marseille","lat":43.29615,"lon":5.37724,"is_reserved":false,"is_disabled":false,"rental_uris":{"android":"levelo://app?vid=2e639198-0d0c-4b99-94ae-f1b97817786a","ios":"levelo://app?vid=2e639198-0d0c-4b99-94ae-f1b97817786a"},"vehicle_type_id":"4","last_reported":1751972963,"current_range_meters":4800,"station_id":"ce4bgi92rcd13ifvqb90","pricing_plan_id":"cebpf4jnsgd1na2vs0mg"},{"bike_id":"257441ac-f4bd-41ff-8084-5e0c973a2560","system_id":"levelo_inurba_marseille","lat":43.29538,"lon":5.38547,"is_reserved":false,"is_disabled":false,"rental_uris":{"android":"levelo://app?vid=257441ac-f4bd-41ff-8084-5e0c973a2560","ios":"levelo://app?vid=257441ac-f4bd-41ff-8084-5e0c973a2560"},"vehicle_type_id":"4","last_reported":1751972963,"current_range_meters":5600,"station_id":"ce4bgih2rcd13ifvqba0","pricing_plan_id":"cebpf4jnsgd1na2vs0mg"},{"bike_id":"d6c1002f-1144-4697-b88c-aaa2ecceba09","system_id":"levelo_inurba_marseille","lat":43.3079,"lon":5.37648,"is_reserved":false,"is_disabled":false,"rental_uris":{"android":"levelo://app?vid=d6c1002f-1144-4697-b88c-aaa2ecceba09","ios":"levelo://app?vid=d6c1002f-1144-4697-b88c-aaa2ecceba09"},"vehicle_type_id":"4","last_reported":1751972963,"current_range_meters":5600,"station_id":"ce4bgv92rcd13ifvqcq0","pricing_plan_id":"cebpf4jnsgd1na2vs0mg"},{"bike_id":"abbd7030-6213-424f-916a-bcb0234d6197","system_id":"levelo_inurba_marseille","lat":43.26941,"lon":5.40242,"is_reserved":false,"is_disabled":false,"rental_uris":{"android":"levelo://app?vid=abbd7030-6213-424f-916a-bcb0234d6197","ios":"levelo://app?vid=abbd7030-6213-424f-916a-bcb0234d6197"},"vehicle_type_id":"4","last_reported":1751972963,"current_range_meters":5600,"station_id":"cjm6bp8fraef2m0cb0m0","pricing_plan_id":"cebpf4jnsgd1na2vs0mg"},{"bike_id":"bd1874bf-e30a-482e-a165-63d599b3ee06","system_id":"levelo_inurba_marseille","lat":43.31539,"lon":5.39772,"is_reserved":false,"is_disabled":false,"rental_uris":{"android":"levelo://app?vid=bd1874bf-e30a-482e-a165-63d599b3ee06","ios":"levelo://app?vid=bd1874bf-e30a-482e-a165-63d599b3ee06"},"vehicle_type_id":"4","last_reported":1751972963,"current_range_meters":6000,"station_id":"","pricing_plan_id":"cebpf4jnsgd1na2vs0mg"},{"bike_id":"bce622dd-ab68-450a-9fd4-18dcd2b0bc46","system_id":"levelo_inurba_marseille","lat":43.29015,"lon":5.38138,"is_reserved":false,"is_disabled":false,"rental_uris":{"android":"levelo://app?vid=bce622dd-ab68-450a-9fd4-18dcd2b0bc46","ios":"levelo://app?vid=bce622dd-ab68-450a-9fd4-18dcd2b0bc46"},"vehicle_type_id":"4","last_reported":1751972963,"current_range_meters":6000,"station_id":"ce4bh4p2rcd13ifvqe1g","pricing_plan_id":"cebpf4jnsgd1na2vs0mg"},{"bike_id":"e7dadae9-40c0-4f53-b848-22efb234888c","system_id":"levelo_inurba_marseille","lat":43.30541,"lon":5.36704,"is_reserved":false,"is_disabled":false,"rental_uris":{"android":"levelo://app?vid=e7dadae9-40c0-4f53-b848-22efb234888c","ios":"levelo://app?vid=e7dadae9-40c0-4f53-b848-22efb234888c"},"vehicle_type_id":"4","last_reported":1751972963,"current_range_meters":6400,"station_id":"ce4bgrp2rcd13ifvqc9g","pricing_plan_id":"cebpf4jnsgd1na2vs0mg"},{"bike_id":"6a988a41-95a0-4f86-8d2f-efbc2a4cded6","system_id":"levelo_inurba_marseille","lat":43.29785,"lon":5.39341,"is_reserved":false,"is_disabled":false,"rental_uris":{"android":"levelo://app?vid=6a988a41-95a0-4f86-8d2f-efbc2a4cded6","ios":"levelo://app?vid=6a988a41-95a0-4f86-8d2f-efbc2a4cded6"},"vehicle_type_id":"4","last_reported":1751972963,"current_range_meters":6400,"station_id":"chh1huq6cuj3fo74tm60","pricing_plan_id":"cebpf4jnsgd1na2vs0mg"},{"bike_id":"7b527f00-f6ea-4963-b59d-8da04a2feedb","system_id":"levelo_inurba_marseille","lat":43.32087,"lon":5.401197,"is_reserved":false,"is_disabled":false,"rental_uris":{"android":"levelo://app?vid=7b527f00-f6ea-4963-b59d-8da04a2feedb","ios":"levelo://app?vid=7b527f00-f6ea-4963-b59d-8da04a2feedb"},"vehicle_type_id":"4","last_reported":1751972963,"current_range_meters":6800,"station_id":"","pricing_plan_id":"cebpf4jnsgd1na2vs0mg"},{"bike_id":"618d3148-3661-4efd-8a63-690b3686b8af","system_id":"levelo_inurba_marseille","lat":43.2794,"lon":5.41053,"is_reserved":false,"is_disabled":false,"rental_uris":{"android":"levelo://app?vid=618d3148-3661-4efd-8a63-690b3686b8af","ios":"levelo://app?vid=618d3148-3661-4efd-8a63-690b3686b8af"},"vehicle_type_id":"4","last_reported":1751972963,"current_range_meters":6800,"station_id":"ce4bhnp2rcd13ifvqh0g","pricing_plan_id":"cebpf4jnsgd1na2vs0mg"},{"bike_id":"3b22f952-d0bc-4c00-8fd3-7e27b88aea23","system_id":"levelo_inurba_marseille","lat":43.29659,"lon":5.36245,"is_reserved":false,"is_disabled":false,"rental_uris":{"android":"levelo://app?vid=3b22f952-d0bc-4c00-8fd3-7e27b88aea23","ios":"levelo://app?vid=3b22f952-d0bc-4c00-8fd3-7e27b88aea23"},"vehicle_type_id":"4","last_reported":1751972963,"current_range_meters":7200,"station_id":"","pricing_plan_id":"cebpf4jnsgd1na2vs0mg"},{"bike_id":"e97ee5c0-87e5-403c-92ed-929b14d6ff8f","system_id":"levelo_inurba_marseille","lat":43.28343,"lon":5.38544,"is_reserved":false,"is_disabled":false,"rental_uris":{"android":"levelo://app?vid=e97ee5c0-87e5-403c-92ed-929b14d6ff8f","ios":"levelo://app?vid=e97ee5c0-87e5-403c-92ed-929b14d6ff8f"},"vehicle_type_id":"4","last_reported":1751972963,"current_range_meters":7200,"station_id":"","pricing_plan_id":"cebpf4jnsgd1na2vs0mg"},{"bike_id":"88ea42cb-cf0f-4e4a-8442-732645bc4ba5","system_id":"levelo_inurba_marseille","lat":43.31098,"lon":5.36692,"is_reserved":false,"is_disabled":false,"rental_uris":{"android":"levelo://app?vid=88ea42cb-cf0f-4e4a-8442-732645bc4ba5","ios":"levelo://app?vid=88ea42cb-cf0f-4e4a-8442-732645bc4ba5"},"vehicle_type_id":"4","last_reported":1751972963,"current_range_meters":7200,"station_id":"","pricing_plan_id":"cebpf4jnsgd1na2vs0mg"},{"bike_id":"bab60fe4-cb15-40c1-b83a-d966490c6abf","system_id":"levelo_inurba_marseille","lat":43.26805,"lon":5.40265,"is_reserved":false,"is_disabled":false,"rental_uris":{"android":"levelo://app?vid=bab60fe4-cb15-40c1-b83a-d966490c6abf","ios":"levelo://app?vid=bab60fe4-cb15-40c1-b83a-d966490c6abf"},"vehicle_type_id":"4","last_reported":1751972963,"current_range_meters":7200,"station_id":"ce501612rcd8frsf0b60","pricing_plan_id":"cebpf4jnsgd1na2vs0mg"},{"bike_id":"d1bf3342-549c-4e1f-b0a0-272f0a12647b","system_id":"levelo_inurba_marseille","lat":43.301331,"lon":5.387789,"is_reserved":false,"is_disabled":false,"rental_uris":{"android":"levelo://app?vid=d1bf3342-549c-4e1f-b0a0-272f0a12647b","ios":"levelo://app?vid=d1bf3342-549c-4e1f-b0a0-272f0a12647b"},"vehicle_type_id":"4","last_reported":1751972963,"current_range_meters":8000,"station_id":"ce4bghh2rcd13ifvqb60","pricing_plan_id":"cebpf4jnsgd1na2vs0mg"},{"bike_id":"f75a49da-5b75-41c6-8e34-ac454014db40","system_id":"levelo_inurba_marseille","lat":43.32456,"lon":5.36609,"is_reserved":false,"is_disabled":false,"rental_uris":{"android":"levelo://app?vid=f75a49da-5b75-41c6-8e34-ac454014db40","ios":"levelo://app?vid=f75a49da-5b75-41c6-8e34-ac454014db40"},"vehicle_type_id":"4","last_reported":1751972963,"current_range_meters":8000,"station_id":"ce4bhs12rcd13ifvqhvg","pricing_plan_id":"cebpf4jnsgd1na2vs0mg"},{"bike_id":"37f2becd-23f9-4f13-a711-38b8024eeec7","system_id":"levelo_inurba_marseille","lat":43.33768,"lon":5.37516,"is_reserved":false,"is_disabled":false,"rental_uris":{"android":"levelo://app?vid=37f2becd-23f9-4f13-a711-38b8024eeec7","ios":"levelo://app?vid=37f2becd-23f9-4f13-a711-38b8024eeec7"},"vehicle_type_id":"4","last_reported":1751972963,"current_range_meters":8400,"station_id":"","pricing_plan_id":"cebpf4jnsgd1na2vs0mg"},{"bike_id":"a177d90b-566f-413a-91bb-13fbc5ecf461","system_id":"levelo_inurba_marseille","lat":43.26198,"lon":5.37933,"is_reserved":false,"is_disabled":false,"rental_uris":{"android":"levelo://app?vid=a177d90b-566f-413a-91bb-13fbc5ecf461","ios":"levelo://app?vid=a177d90b-566f-413a-91bb-13fbc5ecf461"},"vehicle_type_id":"4","last_reported":1751972963,"current_range_meters":8400,"station_id":"ce4bhjp2rcd13ifvqg90","pricing_plan_id":"cebpf4jnsgd1na2vs0mg"},{"bike_id":"25697b07-2a64-4b43-9ac3-766aacd9abf7","system_id":"levelo_inurba_marseille","lat":43.29632,"lon":5.37734,"is_reserved":false,"is_disabled":false,"rental_uris":{"android":"levelo://app?vid=25697b07-2a64-4b43-9ac3-766aacd9abf7","ios":"levelo://app?vid=25697b07-2a64-4b43-9ac3-766aacd9abf7"},"vehicle_type_id":"4","last_reported":1751972963,"current_range_meters":8800,"station_id":"ce4bgi92rcd13ifvqb90","pricing_plan_id":"cebpf4jnsgd1na2vs0mg"},{"bike_id":"8bacfb03-eb9f-4b74-877c-b3c57300424f","system_id":"levelo_inurba_marseille","lat":43.2396,"lon":5.36638,"is_reserved":false,"is_disabled":false,"rental_uris":{"android":"levelo://app?vid=8bacfb03-eb9f-4b74-877c-b3c57300424f","ios":"levelo://app?vid=8bacfb03-eb9f-4b74-877c-b3c57300424f"},"vehicle_type_id":"4","last_reported":1751972963,"current_range_meters":8800,"station_id":"ce4bhi12rcd13ifvqfp0","pricing_plan_id":"cebpf4jnsgd1na2vs0mg"},{"bike_id":"2c423baa-ecca-420a-87d7-ad0b7e0b9ebb","system_id":"levelo_inurba_marseille","lat":43.280382,"lon":5.353564,"is_reserved":false,"is_disabled":false,"rental_uris":{"android":"levelo://app?vid=2c423baa-ecca-420a-87d7-ad0b7e0b9ebb","ios":"levelo://app?vid=2c423baa-ecca-420a-87d7-ad0b7e0b9ebb"},"vehicle_type_id":"4","last_reported":1751972963,"current_range_meters":9200,"station_id":"","pricing_plan_id":"cebpf4jnsgd1na2vs0mg"},{"bike_id":"1deeed15-ff0a-4641-8c5f-cbdcddfb51c3","system_id":"levelo_inurba_marseille","lat":43.29528,"lon":5.37508,"is_reserved":false,"is_disabled":false,"rental_uris":{"android":"levelo://app?vid=1deeed15-ff0a-4641-8c5f-cbdcddfb51c3","ios":"levelo://app?vid=1deeed15-ff0a-4641-8c5f-cbdcddfb51c3"},"vehicle_type_id":"4","last_reported":1751972963,"current_range_meters":9200,"station_id":"ce4bgkp2rcd13ifvqbmg","pricing_plan_id":"cebpf4jnsgd1na2vs0mg"},{"bike_id":"39fdf1c3-e1a4-4685-bf55-1aec55e42a10","system_id":"levelo_inurba_marseille","lat":43.28846,"lon":5.39313,"is_reserved":false,"is_disabled":false,"rental_uris":{"android":"levelo://app?vid=39fdf1c3-e1a4-4685-bf55-1aec55e42a10","ios":"levelo://app?vid=39fdf1c3-e1a4-4685-bf55-1aec55e42a10"},"vehicle_type_id":"4","last_reported":1751972963,"current_range_meters":9200,"station_id":"ce4bh2p2rcd13ifvqdi0","pricing_plan_id":"cebpf4jnsgd1na2vs0mg"},{"bike_id":"0f5c099e-09f8-45f1-ad97-78cccc7616bb","system_id":"levelo_inurba_marseille","lat":43.23966,"lon":5.36628,"is_reserved":false,"is_disabled":false,"rental_uris":{"android":"levelo://app?vid=0f5c099e-09f8-45f1-ad97-78cccc7616bb","ios":"levelo://app?vid=0f5c099e-09f8-45f1-ad97-78cccc7616bb"},"vehicle_type_id":"4","last_reported":1751972963,"current_range_meters":9200,"station_id":"ce4bhi12rcd13ifvqfp0","pricing_plan_id":"cebpf4jnsgd1na2vs0mg"},{"bike_id":"608bac89-0c16-45d5-9fbe-13e016f70edc","system_id":"levelo_inurba_marseille","lat":43.32122,"lon":5.36756,"is_reserved":false,"is_disabled":false,"rental_uris":{"android":"levelo://app?vid=608bac89-0c16-45d5-9fbe-13e016f70edc","ios":"levelo://app?vid=608bac89-0c16-45d5-9fbe-13e016f70edc"},"vehicle_type_id":"4","last_reported":1751972963,"current_range_meters":9200,"station_id":"ce4bhrh2rcd13ifvqhug","pricing_plan_id":"cebpf4jnsgd1na2vs0mg"},{"bike_id":"a70cfab5-f447-4d61-b80a-343a49825360","system_id":"levelo_inurba_marseille","lat":43.3174,"lon":5.37801,"is_reserved":false,"is_disabled":false,"rental_uris":{"android":"levelo://app?vid=a70cfab5-f447-4d61-b80a-343a49825360","ios":"levelo://app?vid=a70cfab5-f447-4d61-b80a-343a49825360"},"vehicle_type_id":"4","last_reported":1751972963,"current_range_meters":9600,"station_id":"","pricing_plan_id":"cebpf4jnsgd1na2vs0mg"},{"bike_id":"a31d7b1d-f875-4f27-b8f6-640a4ac62493","system_id":"levelo_inurba_marseille","lat":43.337316,"lon":5.391907,"is_reserved":false,"is_disabled":false,"rental_uris":{"android":"levelo://app?vid=a31d7b1d-f875-4f27-b8f6-640a4ac62493","ios":"levelo://app?vid=a31d7b1d-f875-4f27-b8f6-640a4ac62493"},"vehicle_type_id":"4","last_reported":1751972963,"current_range_meters":9600,"station_id":"ce4bhr92rcd13ifvqhsg","pricing_plan_id":"cebpf4jnsgd1na2vs0mg"},{"bike_id":"072aef18-8c4c-41ca-9032-1b5fba7539b3","system_id":"levelo_inurba_marseille","lat":43.31992,"lon":5.36752,"is_reserved":false,"is_disabled":false,"rental_uris":{"android":"levelo://app?vid=072aef18-8c4c-41ca-9032-1b5fba7539b3","ios":"levelo://app?vid=072aef18-8c4c-41ca-9032-1b5fba7539b3"},"vehicle_type_id":"4","last_reported":1751972963,"current_range_meters":10000,"station_id":"ce4bhrh2rcd13ifvqhug","pricing_plan_id":"cebpf4jnsgd1na2vs0mg"},{"bike_id":"18e2cad1-26f9-46d6-a89f-63408c082aca","system_id":"levelo_inurba_marseille","lat":43.32489,"lon":5.36606,"is_reserved":false,"is_disabled":false,"rental_uris":{"android":"levelo://app?vid=18e2cad1-26f9-46d6-a89f-63408c082aca","ios":"levelo://app?vid=18e2cad1-26f9-46d6-a89f-63408c082aca"},"vehicle_type_id":"4","last_reported":1751972963,"current_range_meters":10000,"station_id":"ce4bhs12rcd13ifvqhvg","pricing_plan_id":"cebpf4jnsgd1na2vs0mg"},{"bike_id":"3940df16-67e4-48d2-ba98-0b9c909004b3","system_id":"levelo_inurba_marseille","lat":43.314845,"lon":5.39766,"is_reserved":false,"is_disabled":false,"rental_uris":{"android":"levelo://app?vid=3940df16-67e4-48d2-ba98-0b9c909004b3","ios":"levelo://app?vid=3940df16-67e4-48d2-ba98-0b9c909004b3"},"vehicle_type_id":"4","last_reported":1751972963,"current_range_meters":10800,"station_id":"","pricing_plan_id":"cebpf4jnsgd1na2vs0mg"},{"bike_id":"401afd0e-ec70-40b4-9206-9c6200518965","system_id":"levelo_inurba_marseille","lat":43.29365,"lon":5.3783,"is_reserved":false,"is_disabled":false,"rental_uris":{"android":"levelo://app?vid=401afd0e-ec70-40b4-9206-9c6200518965","ios":"levelo://app?vid=401afd0e-ec70-40b4-9206-9c6200518965"},"vehicle_type_id":"4","last_reported":1751972963,"current_range_meters":10800,"station_id":"ce4bgjh2rcd13ifvqbf0","pricing_plan_id":"cebpf4jnsgd1na2vs0mg"},{"bike_id":"352bb9c0-4943-4c85-945f-e1b816e279eb","system_id":"levelo_inurba_marseille","lat":43.30599,"lon":5.37223,"is_reserved":false,"is_disabled":false,"rental_uris":{"android":"levelo://app?vid=352bb9c0-4943-4c85-945f-e1b816e279eb","ios":"levelo://app?vid=352bb9c0-4943-4c85-945f-e1b816e279eb"},"vehicle_type_id":"4","last_reported":1751972963,"current_range_meters":10800,"station_id":"ce4bgqh2rcd13ifvqc4g","pricing_plan_id":"cebpf4jnsgd1na2vs0mg"},{"bike_id":"044e77fa-4679-4fa3-8c05-af8b0e584d50","system_id":"levelo_inurba_marseille","lat":43.31349,"lon":5.36741,"is_reserved":false,"is_disabled":false,"rental_uris":{"android":"levelo://app?vid=044e77fa-4679-4fa3-8c05-af8b0e584d50","ios":"levelo://app?vid=044e77fa-4679-4fa3-8c05-af8b0e584d50"},"vehicle_type_id":"4","last_reported":1751972963,"current_range_meters":10800,"station_id":"ce4bgr92rcd13ifvqc6g","pricing_plan_id":"cebpf4jnsgd1na2vs0mg"},{"bike_id":"eb518bb0-5dd5-4762-bf58-5c5db5fd85f4","system_id":"levelo_inurba_marseille","lat":43.31504,"lon":5.37287,"is_reserved":false,"is_disabled":false,"rental_uris":{"android":"levelo://app?vid=eb518bb0-5dd5-4762-bf58-5c5db5fd85f4","ios":"levelo://app?vid=eb518bb0-5dd5-4762-bf58-5c5db5fd85f4"},"vehicle_type_id":"4","last_reported":1751972963,"current_range_meters":10800,"station_id":"ce4bgt12rcd13ifvqcd0","pricing_plan_id":"cebpf4jnsgd1na2vs0mg"},{"bike_id":"118894d5-5c6a-4af2-b76d-ddad50b0875b","system_id":"levelo_inurba_marseille","lat":43.30428,"lon":5.39757,"is_reserved":false,"is_disabled":false,"rental_uris":{"android":"levelo://app?vid=118894d5-5c6a-4af2-b76d-ddad50b0875b","ios":"levelo://app?vid=118894d5-5c6a-4af2-b76d-ddad50b0875b"},"vehicle_type_id":"4","last_reported":1751972963,"current_range_meters":10800,"station_id":"ce4bh092rcd13ifvqd20","pricing_plan_id":"cebpf4jnsgd1na2vs0mg"},{"bike_id":"8b78bfdd-8f3f-425f-9066-2b4f0120cac1","system_id":"levelo_inurba_marseille","lat":43.27044,"lon":5.40287,"is_reserved":false,"is_disabled":false,"rental_uris":{"android":"levelo://app?vid=8b78bfdd-8f3f-425f-9066-2b4f0120cac1","ios":"levelo://app?vid=8b78bfdd-8f3f-425f-9066-2b4f0120cac1"},"vehicle_type_id":"4","last_reported":1751972963,"current_range_meters":10800,"station_id":"ce4bhk92rcd13ifvqgc0","pricing_plan_id":"cebpf4jnsgd1na2vs0mg"},{"bike_id":"e79346c8-86fc-4daa-86ef-e1e68b65043e","system_id":"levelo_inurba_marseille","lat":43.24095,"lon":5.37786,"is_reserved":false,"is_disabled":false,"rental_uris":{"android":"levelo://app?vid=e79346c8-86fc-4daa-86ef-e1e68b65043e","ios":"levelo://app?vid=e79346c8-86fc-4daa-86ef-e1e68b65043e"},"vehicle_type_id":"4","last_reported":1751972963,"current_range_meters":10800,"station_id":"ce4bhnp2rcd13ifvqgvg","pricing_plan_id":"cebpf4jnsgd1na2vs0mg"},{"bike_id":"d6470fac-5c93-4185-849f-f9a22bd2e762","system_id":"levelo_inurba_marseille","lat":43.27619,"lon":5.36111,"is_reserved":false,"is_disabled":false,"rental_uris":{"android":"levelo://app?vid=d6470fac-5c93-4185-849f-f9a22bd2e762","ios":"levelo://app?vid=d6470fac-5c93-4185-849f-f9a22bd2e762"},"vehicle_type_id":"4","last_reported":1751972963,"current_range_meters":11200,"station_id":"ce4bgj92rcd13ifvqbe0","pricing_plan_id":"cebpf4jnsgd1na2vs0mg"},{"bike_id":"23a5d465-23e8-43ad-bea3-539fbe730c8f","system_id":"levelo_inurba_marseille","lat":43.28419,"lon":5.35005,"is_reserved":false,"is_disabled":false,"rental_uris":{"android":"levelo://app?vid=23a5d465-23e8-43ad-bea3-539fbe730c8f","ios":"levelo://app?vid=23a5d465-23e8-43ad-bea3-539fbe730c8f"},"vehicle_type_id":"4","last_reported":1751972963,"current_range_meters":11200,"station_id":"ce4bhbh2rcd13ifvqepg","pricing_plan_id":"cebpf4jnsgd1na2vs0mg"},{"bike_id":"20952e8b-eef8-450e-8906-dbfd1d96ecab","system_id":"levelo_inurba_marseille","lat":43.27949,"lon":5.41043,"is_reserved":false,"is_disabled":false,"rental_uris":{"android":"levelo://app?vid=20952e8b-eef8-450e-8906-dbfd1d96ecab","ios":"levelo://app?vid=20952e8b-eef8-450e-8906-dbfd1d96ecab"},"vehicle_type_id":"4","last_reported":1751972963,"current_range_meters":11200,"station_id":"ce4bhnp2rcd13ifvqh0g","pricing_plan_id":"cebpf4jnsgd1na2vs0mg"},{"bike_id":"373f7154-05e4-4923-8d21-eb4b99691656","system_id":"levelo_inurba_marseille","lat":43.31538,"lon":5.38655,"is_reserved":false,"is_disabled":false,"rental_uris":{"android":"levelo://app?vid=373f7154-05e4-4923-8d21-eb4b99691656","ios":"levelo://app?vid=373f7154-05e4-4923-8d21-eb4b99691656"},"vehicle_type_id":"4","last_reported":1751972963,"current_range_meters":11600,"station_id":"","pricing_plan_id":"cebpf4jnsgd1na2vs0mg"},{"bike_id":"c2ee7d66-374b-44cd-b9d7-9ad64301293b","system_id":"levelo_inurba_marseille","lat":43.22854,"lon":5.34983,"is_reserved":false,"is_disabled":false,"rental_uris":{"android":"levelo://app?vid=c2ee7d66-374b-44cd-b9d7-9ad64301293b","ios":"levelo://app?vid=c2ee7d66-374b-44cd-b9d7-9ad64301293b"},"vehicle_type_id":"4","last_reported":1751972963,"current_range_meters":11600,"station_id":"","pricing_plan_id":"cebpf4jnsgd1na2vs0mg"},{"bike_id":"3dbd1760-20e6-44bd-a384-30f19a861f72","system_id":"levelo_inurba_marseille","lat":43.29524,"lon":5.385335,"is_reserved":false,"is_disabled":false,"rental_uris":{"android":"levelo://app?vid=3dbd1760-20e6-44bd-a384-30f19a861f72","ios":"levelo://app?vid=3dbd1760-20e6-44bd-a384-30f19a861f72"},"vehicle_type_id":"4","last_reported":1751972963,"current_range_meters":11600,"station_id":"ce4bgih2rcd13ifvqba0","pricing_plan_id":"cebpf4jnsgd1na2vs0mg"},{"bike_id":"51729ad6-58fe-4dd5-ba02-40d4afe081d1","system_id":"levelo_inurba_marseille","lat":43.29627,"lon":5.37141,"is_reserved":false,"is_disabled":false,"rental_uris":{"android":"levelo://app?vid=51729ad6-58fe-4dd5-ba02-40d4afe081d1","ios":"levelo://app?vid=51729ad6-58fe-4dd5-ba02-40d4afe081d1"},"vehicle_type_id":"4","last_reported":1751972963,"current_range_meters":11600,"station_id":"ce4bgnh2rcd13ifvqc0g","pricing_plan_id":"cebpf4jnsgd1na2vs0mg"},{"bike_id":"84b8f5cc-2165-41eb-9389-bad102724035","system_id":"levelo_inurba_marseille","lat":43.30531,"lon":5.36558,"is_reserved":false,"is_disabled":false,"rental_uris":{"android":"levelo://app?vid=84b8f5cc-2165-41eb-9389-bad102724035","ios":"levelo://app?vid=84b8f5cc-2165-41eb-9389-bad102724035"},"vehicle_type_id":"4","last_reported":1751972963,"current_range_meters":11600,"station_id":"ce4bgs12rcd13ifvqcag","pricing_plan_id":"cebpf4jnsgd1na2vs0mg"},{"bike_id":"4c4d4b94-5832-431b-a6a4-1addce77dff7","system_id":"levelo_inurba_marseille","lat":43.243936,"lon":5.37049,"is_reserved":false,"is_disabled":false,"rental_uris":{"android":"levelo://app?vid=4c4d4b94-5832-431b-a6a4-1addce77dff7","ios":"levelo://app?vid=4c4d4b94-5832-431b-a6a4-1addce77dff7"},"vehicle_type_id":"4","last_reported":1751972963,"current_range_meters":11600,"station_id":"ce4bhhh2rcd13ifvqfk0","pricing_plan_id":"cebpf4jnsgd1na2vs0mg"},{"bike_id":"ab4fb749-089b-4ab2-8ddd-989d51b22477","system_id":"levelo_inurba_marseille","lat":43.23968,"lon":5.36636,"is_reserved":false,"is_disabled":false,"rental_uris":{"android":"levelo://app?vid=ab4fb749-089b-4ab2-8ddd-989d51b22477","ios":"levelo://app?vid=ab4fb749-089b-4ab2-8ddd-989d51b22477"},"vehicle_type_id":"4","last_reported":1751972963,"current_range_meters":11600,"station_id":"ce4bhi12rcd13ifvqfp0","pricing_plan_id":"cebpf4jnsgd1na2vs0mg"},{"bike_id":"5b6fbc15-c088-4319-a37d-e643d3f5a7ca","system_id":"levelo_inurba_marseille","lat":43.276001,"lon":5.402307,"is_reserved":false,"is_disabled":false,"rental_uris":{"android":"levelo://app?vid=5b6fbc15-c088-4319-a37d-e643d3f5a7ca","ios":"levelo://app?vid=5b6fbc15-c088-4319-a37d-e643d3f5a7ca"},"vehicle_type_id":"4","last_reported":1751972963,"current_range_meters":11600,"station_id":"ce4bhnh2rcd13ifvqgtg","pricing_plan_id":"cebpf4jnsgd1na2vs0mg"},{"bike_id":"2090512e-543d-4a55-b888-2423e2f84234","system_id":"levelo_inurba_marseille","lat":43.2408,"lon":5.377338,"is_reserved":false,"is_disabled":false,"rental_uris":{"android":"levelo://app?vid=2090512e-543d-4a55-b888-2423e2f84234","ios":"levelo://app?vid=2090512e-543d-4a55-b888-2423e2f84234"},"vehicle_type_id":"4","last_reported":1751972963,"current_range_meters":11600,"station_id":"ce4bhnp2rcd13ifvqgvg","pricing_plan_id":"cebpf4jnsgd1na2vs0mg"},{"bike_id":"ceefb4df-f38a-4c0f-a943-fed521cb543f","system_id":"levelo_inurba_marseille","lat":43.32496,"lon":5.36596,"is_reserved":false,"is_disabled":false,"rental_uris":{"android":"levelo://app?vid=ceefb4df-f38a-4c0f-a943-fed521cb543f","ios":"levelo://app?vid=ceefb4df-f38a-4c0f-a943-fed521cb543f"},"vehicle_type_id":"4","last_reported":1751972963,"current_range_meters":11600,"station_id":"ce4bhs12rcd13ifvqhvg","pricing_plan_id":"cebpf4jnsgd1na2vs0mg"},{"bike_id":"98f46642-8fdc-43be-8379-a5bf33d8441b","system_id":"levelo_inurba_marseille","lat":43.21198,"lon":5.35077,"is_reserved":false,"is_disabled":false,"rental_uris":{"android":"levelo://app?vid=98f46642-8fdc-43be-8379-a5bf33d8441b","ios":"levelo://app?vid=98f46642-8fdc-43be-8379-a5bf33d8441b"},"vehicle_type_id":"4","last_reported":1751972963,"current_range_meters":11600,"station_id":"st_cvj6sg6p6f1abm77japg","pricing_plan_id":"cebpf4jnsgd1na2vs0mg"},{"bike_id":"36299ba7-0586-49c3-8cc0-90c8eddb9f7c","system_id":"levelo_inurba_marseille","lat":43.29558,"lon":5.37524,"is_reserved":false,"is_disabled":false,"rental_uris":{"android":"levelo://app?vid=36299ba7-0586-49c3-8cc0-90c8eddb9f7c","ios":"levelo://app?vid=36299ba7-0586-49c3-8cc0-90c8eddb9f7c"},"vehicle_type_id":"4","last_reported":1751972963,"current_range_meters":12000,"station_id":"ce4bgh92rcd13ifvqb50","pricing_plan_id":"cebpf4jnsgd1na2vs0mg"},{"bike_id":"ad417e1c-dcfe-440a-a6bb-dba875a43057","system_id":"levelo_inurba_marseille","lat":43.29031,"lon":5.3865,"is_reserved":false,"is_disabled":false,"rental_uris":{"android":"levelo://app?vid=ad417e1c-dcfe-440a-a6bb-dba875a43057","ios":"levelo://app?vid=ad417e1c-dcfe-440a-a6bb-dba875a43057"},"vehicle_type_id":"4","last_reported":1751972963,"current_range_meters":12000,"station_id":"ce4bh4p2rcd13ifvqe0g","pricing_plan_id":"cebpf4jnsgd1na2vs0mg"},{"bike_id":"38bdade9-a9ea-4e51-a66c-f2a650f87ea2","system_id":"levelo_inurba_marseille","lat":43.25118,"lon":5.40317,"is_reserved":false,"is_disabled":false,"rental_uris":{"android":"levelo://app?vid=38bdade9-a9ea-4e51-a66c-f2a650f87ea2","ios":"levelo://app?vid=38bdade9-a9ea-4e51-a66c-f2a650f87ea2"},"vehicle_type_id":"4","last_reported":1751972963,"current_range_meters":12000,"station_id":"ce4bhlh2rcd13ifvqgig","pricing_plan_id":"cebpf4jnsgd1na2vs0mg"},{"bike_id":"361c5398-2978-4873-882e-a3172612449b","system_id":"levelo_inurba_marseille","lat":43.262213,"lon":5.404445,"is_reserved":false,"is_disabled":false,"rental_uris":{"android":"levelo://app?vid=361c5398-2978-4873-882e-a3172612449b","ios":"levelo://app?vid=361c5398-2978-4873-882e-a3172612449b"},"vehicle_type_id":"4","last_reported":1751972963,"current_range_meters":12000,"station_id":"ce4bhmh2rcd13ifvqgmg","pricing_plan_id":"cebpf4jnsgd1na2vs0mg"},{"bike_id":"bac13eb2-75b6-43a2-8750-65111fd6394f","system_id":"levelo_inurba_marseille","lat":43.32116,"lon":5.36811,"is_reserved":false,"is_disabled":false,"rental_uris":{"android":"levelo://app?vid=bac13eb2-75b6-43a2-8750-65111fd6394f","ios":"levelo://app?vid=bac13eb2-75b6-43a2-8750-65111fd6394f"},"vehicle_type_id":"4","last_reported":1751972963,"current_range_meters":12000,"station_id":"ce4bhrh2rcd13ifvqhug","pricing_plan_id":"cebpf4jnsgd1na2vs0mg"},{"bike_id":"e54a69bc-634c-4579-91a1-2ea1e7521c68","system_id":"levelo_inurba_marseille","lat":43.30199,"lon":5.37223,"is_reserved":false,"is_disabled":false,"rental_uris":{"android":"levelo://app?vid=e54a69bc-634c-4579-91a1-2ea1e7521c68","ios":"levelo://app?vid=e54a69bc-634c-4579-91a1-2ea1e7521c68"},"vehicle_type_id":"4","last_reported":1751972963,"current_range_meters":12400,"station_id":"","pricing_plan_id":"cebpf4jnsgd1na2vs0mg"},{"bike_id":"d0c5d792-0761-4141-a0b1-6f288f3c6fc1","system_id":"levelo_inurba_marseille","lat":43.27187,"lon":5.39228,"is_reserved":false,"is_disabled":false,"rental_uris":{"android":"levelo://app?vid=d0c5d792-0761-4141-a0b1-6f288f3c6fc1","ios":"levelo://app?vid=d0c5d792-0761-4141-a0b1-6f288f3c6fc1"},"vehicle_type_id":"4","last_reported":1751972963,"current_range_meters":12400,"station_id":"","pricing_plan_id":"cebpf4jnsgd1na2vs0mg"},{"bike_id":"c15f9ab5-608c-4976-821d-def24e8552ab","system_id":"levelo_inurba_marseille","lat":43.30889,"lon":5.37194,"is_reserved":false,"is_disabled":false,"rental_uris":{"android":"levelo://app?vid=c15f9ab5-608c-4976-821d-def24e8552ab","ios":"levelo://app?vid=c15f9ab5-608c-4976-821d-def24e8552ab"},"vehicle_type_id":"4","last_reported":1751972963,"current_range_meters":12400,"station_id":"ce4bguh2rcd13ifvqckg","pricing_plan_id":"cebpf4jnsgd1na2vs0mg"},{"bike_id":"ef37d4e2-0ac0-46be-951e-4995a78ba684","system_id":"levelo_inurba_marseille","lat":43.255004,"lon":5.376305,"is_reserved":false,"is_disabled":false,"rental_uris":{"android":"levelo://app?vid=ef37d4e2-0ac0-46be-951e-4995a78ba684","ios":"levelo://app?vid=ef37d4e2-0ac0-46be-951e-4995a78ba684"},"vehicle_type_id":"4","last_reported":1751972963,"current_range_meters":12400,"station_id":"ce4bhh12rcd13ifvqff0","pricing_plan_id":"cebpf4jnsgd1na2vs0mg"},{"bike_id":"910e7672-d724-4195-a4e9-ffc3ceef0d80","system_id":"levelo_inurba_marseille","lat":43.30805,"lon":5.43538,"is_reserved":false,"is_disabled":false,"rental_uris":{"android":"levelo://app?vid=910e7672-d724-4195-a4e9-ffc3ceef0d80","ios":"levelo://app?vid=910e7672-d724-4195-a4e9-ffc3ceef0d80"},"vehicle_type_id":"4","last_reported":1751972963,"current_range_meters":12400,"station_id":"ce4bhph2rcd13ifvqheg","pricing_plan_id":"cebpf4jnsgd1na2vs0mg"},{"bike_id":"558c27cf-0296-44ad-81a4-527b14fd9bdb","system_id":"levelo_inurba_marseille","lat":43.31332,"lon":5.36617,"is_reserved":false,"is_disabled":false,"rental_uris":{"android":"levelo://app?vid=558c27cf-0296-44ad-81a4-527b14fd9bdb","ios":"levelo://app?vid=558c27cf-0296-44ad-81a4-527b14fd9bdb"},"vehicle_type_id":"4","last_reported":1751972963,"current_range_meters":12800,"station_id":"","pricing_plan_id":"cebpf4jnsgd1na2vs0mg"},{"bike_id":"6ffc31bf-be63-440b-8353-4ff83386083b","system_id":"levelo_inurba_marseille","lat":43.2981,"lon":5.36435,"is_reserved":false,"is_disabled":false,"rental_uris":{"android":"levelo://app?vid=6ffc31bf-be63-440b-8353-4ff83386083b","ios":"levelo://app?vid=6ffc31bf-be63-440b-8353-4ff83386083b"},"vehicle_type_id":"4","last_reported":1751972963,"current_range_meters":12800,"station_id":"","pricing_plan_id":"cebpf4jnsgd1na2vs0mg"},{"bike_id":"5324ad32-f0ec-4b1e-beb3-b3093814218d","system_id":"levelo_inurba_marseille","lat":43.301385,"lon":5.387757,"is_reserved":false,"is_disabled":false,"rental_uris":{"android":"levelo://app?vid=5324ad32-f0ec-4b1e-beb3-b3093814218d","ios":"levelo://app?vid=5324ad32-f0ec-4b1e-beb3-b3093814218d"},"vehicle_type_id":"4","last_reported":1751972963,"current_range_meters":12800,"station_id":"ce4bghh2rcd13ifvqb60","pricing_plan_id":"cebpf4jnsgd1na2vs0mg"},{"bike_id":"666172aa-4179-463f-b876-8a5dee707806","system_id":"levelo_inurba_marseille","lat":43.30931,"lon":5.40151,"is_reserved":false,"is_disabled":false,"rental_uris":{"android":"levelo://app?vid=666172aa-4179-463f-b876-8a5dee707806","ios":"levelo://app?vid=666172aa-4179-463f-b876-8a5dee707806"},"vehicle_type_id":"4","last_reported":1751972963,"current_range_meters":12800,"station_id":"ce4bgvp2rcd13ifvqct0","pricing_plan_id":"cebpf4jnsgd1na2vs0mg"},{"bike_id":"a3653a29-bef8-4d42-8540-9b2bbd5cd893","system_id":"levelo_inurba_marseille","lat":43.32481,"lon":5.36578,"is_reserved":false,"is_disabled":false,"rental_uris":{"android":"levelo://app?vid=a3653a29-bef8-4d42-8540-9b2bbd5cd893","ios":"levelo://app?vid=a3653a29-bef8-4d42-8540-9b2bbd5cd893"},"vehicle_type_id":"4","last_reported":1751972963,"current_range_meters":12800,"station_id":"ce4bhs12rcd13ifvqhvg","pricing_plan_id":"cebpf4jnsgd1na2vs0mg"},{"bike_id":"888522e3-39b6-4ff3-ad74-ff6c6f771157","system_id":"levelo_inurba_marseille","lat":43.29497,"lon":5.40263,"is_reserved":false,"is_disabled":false,"rental_uris":{"android":"levelo://app?vid=888522e3-39b6-4ff3-ad74-ff6c6f771157","ios":"levelo://app?vid=888522e3-39b6-4ff3-ad74-ff6c6f771157"},"vehicle_type_id":"4","last_reported":1751972963,"current_range_meters":13600,"station_id":"","pricing_plan_id":"cebpf4jnsgd1na2vs0mg"},{"bike_id":"82f40aca-214c-480a-99d7-4df294448107","system_id":"levelo_inurba_marseille","lat":43.25491,"lon":5.37649,"is_reserved":false,"is_disabled":false,"rental_uris":{"android":"levelo://app?vid=82f40aca-214c-480a-99d7-4df294448107","ios":"levelo://app?vid=82f40aca-214c-480a-99d7-4df294448107"},"vehicle_type_id":"4","last_reported":1751972963,"current_range_meters":13600,"station_id":"ce4bhh12rcd13ifvqff0","pricing_plan_id":"cebpf4jnsgd1na2vs0mg"},{"bike_id":"bcbe3056-9c38-4ff8-b15c-86a1f9a52cd9","system_id":"levelo_inurba_marseille","lat":43.31157,"lon":5.40204,"is_reserved":false,"is_disabled":false,"rental_uris":{"android":"levelo://app?vid=bcbe3056-9c38-4ff8-b15c-86a1f9a52cd9","ios":"levelo://app?vid=bcbe3056-9c38-4ff8-b15c-86a1f9a52cd9"},"vehicle_type_id":"4","last_reported":1751972963,"current_range_meters":14000,"station_id":"","pricing_plan_id":"cebpf4jnsgd1na2vs0mg"},{"bike_id":"6f97f7b1-a0f0-43c6-9af0-992314ee07fb","system_id":"levelo_inurba_marseille","lat":43.29254,"lon":5.37624,"is_reserved":false,"is_disabled":false,"rental_uris":{"android":"levelo://app?vid=6f97f7b1-a0f0-43c6-9af0-992314ee07fb","ios":"levelo://app?vid=6f97f7b1-a0f0-43c6-9af0-992314ee07fb"},"vehicle_type_id":"4","last_reported":1751972963,"current_range_meters":14000,"station_id":"ce4bgi12rcd13ifvqb80","pricing_plan_id":"cebpf4jnsgd1na2vs0mg"},{"bike_id":"0838b744-1f20-46ea-9723-00856c7bef52","system_id":"levelo_inurba_marseille","lat":43.29532,"lon":5.39021,"is_reserved":false,"is_disabled":false,"rental_uris":{"android":"levelo://app?vid=0838b744-1f20-46ea-9723-00856c7bef52","ios":"levelo://app?vid=0838b744-1f20-46ea-9723-00856c7bef52"},"vehicle_type_id":"4","last_reported":1751972963,"current_range_meters":14000,"station_id":"ce4bh3p2rcd13ifvqdp0","pricing_plan_id":"cebpf4jnsgd1na2vs0mg"},{"bike_id":"2145bf3d-ecbb-4e3a-84a1-b495f030c818","system_id":"levelo_inurba_marseille","lat":43.284855,"lon":5.384371,"is_reserved":false,"is_disabled":false,"rental_uris":{"android":"levelo://app?vid=2145bf3d-ecbb-4e3a-84a1-b495f030c818","ios":"levelo://app?vid=2145bf3d-ecbb-4e3a-84a1-b495f030c818"},"vehicle_type_id":"4","last_reported":1751972963,"current_range_meters":14000,"station_id":"ce4bh512rcd13ifvqe3g","pricing_plan_id":"cebpf4jnsgd1na2vs0mg"},{"bike_id":"80e31d43-201e-411a-9661-27b0d44019eb","system_id":"levelo_inurba_marseille","lat":43.28669,"lon":5.36353,"is_reserved":false,"is_disabled":false,"rental_uris":{"android":"levelo://app?vid=80e31d43-201e-411a-9661-27b0d44019eb","ios":"levelo://app?vid=80e31d43-201e-411a-9661-27b0d44019eb"},"vehicle_type_id":"4","last_reported":1751972963,"current_range_meters":14000,"station_id":"ce4bhah2rcd13ifvqej0","pricing_plan_id":"cebpf4jnsgd1na2vs0mg"},{"bike_id":"b287377f-3d0b-47ac-86fe-9e0dfc1563de","system_id":"levelo_inurba_marseille","lat":43.22504,"lon":5.3478,"is_reserved":false,"is_disabled":false,"rental_uris":{"android":"levelo://app?vid=b287377f-3d0b-47ac-86fe-9e0dfc1563de","ios":"levelo://app?vid=b287377f-3d0b-47ac-86fe-9e0dfc1563de"},"vehicle_type_id":"4","last_reported":1751972963,"current_range_meters":14000,"station_id":"st_cvj5dfep6f1abm77gieg","pricing_plan_id":"cebpf4jnsgd1na2vs0mg"},{"bike_id":"d5ef770d-9759-47e3-b3a5-7d2785ef76db","system_id":"levelo_inurba_marseille","lat":43.32929,"lon":5.39031,"is_reserved":false,"is_disabled":false,"rental_uris":{"android":"levelo://app?vid=d5ef770d-9759-47e3-b3a5-7d2785ef76db","ios":"levelo://app?vid=d5ef770d-9759-47e3-b3a5-7d2785ef76db"},"vehicle_type_id":"4","last_reported":1751972963,"current_range_meters":14400,"station_id":"","pricing_plan_id":"cebpf4jnsgd1na2vs0mg"},{"bike_id":"81f921c6-25c5-486b-bfec-53dea9da512b","system_id":"levelo_inurba_marseille","lat":43.29854,"lon":5.36262,"is_reserved":false,"is_disabled":false,"rental_uris":{"android":"levelo://app?vid=81f921c6-25c5-486b-bfec-53dea9da512b","ios":"levelo://app?vid=81f921c6-25c5-486b-bfec-53dea9da512b"},"vehicle_type_id":"4","last_reported":1751972963,"current_range_meters":14400,"station_id":"ce4bgpp2rcd13ifvqc3g","pricing_plan_id":"cebpf4jnsgd1na2vs0mg"},{"bike_id":"3dd42689-ec1f-47ef-aece-1ca8d3442682","system_id":"levelo_inurba_marseille","lat":43.23185,"lon":5.39994,"is_reserved":false,"is_disabled":false,"rental_uris":{"android":"levelo://app?vid=3dd42689-ec1f-47ef-aece-1ca8d3442682","ios":"levelo://app?vid=3dd42689-ec1f-47ef-aece-1ca8d3442682"},"vehicle_type_id":"4","last_reported":1751972963,"current_range_meters":14400,"station_id":"ce4bhn12rcd13ifvqgqg","pricing_plan_id":"cebpf4jnsgd1na2vs0mg"},{"bike_id":"77c63ecf-8ec4-46ab-b695-3fed0ff0fb70","system_id":"levelo_inurba_marseille","lat":43.29891,"lon":5.4368,"is_reserved":false,"is_disabled":false,"rental_uris":{"android":"levelo://app?vid=77c63ecf-8ec4-46ab-b695-3fed0ff0fb70","ios":"levelo://app?vid=77c63ecf-8ec4-46ab-b695-3fed0ff0fb70"},"vehicle_type_id":"4","last_reported":1751972963,"current_range_meters":14400,"station_id":"ce4bhpp2rcd13ifvqhfg","pricing_plan_id":"cebpf4jnsgd1na2vs0mg"},{"bike_id":"34420465-ef1c-453f-9f3d-5edec9e76b2f","system_id":"levelo_inurba_marseille","lat":43.21198,"lon":5.35064,"is_reserved":false,"is_disabled":false,"rental_uris":{"android":"levelo://app?vid=34420465-ef1c-453f-9f3d-5edec9e76b2f","ios":"levelo://app?vid=34420465-ef1c-453f-9f3d-5edec9e76b2f"},"vehicle_type_id":"4","last_reported":1751972963,"current_range_meters":14400,"station_id":"st_cvj6sg6p6f1abm77japg","pricing_plan_id":"cebpf4jnsgd1na2vs0mg"},{"bike_id":"afd2c671-b274-4716-95f7-9abfdfc6dc55","system_id":"levelo_inurba_marseille","lat":43.31409,"lon":5.37666,"is_reserved":false,"is_disabled":false,"rental_uris":{"android":"levelo://app?vid=afd2c671-b274-4716-95f7-9abfdfc6dc55","ios":"levelo://app?vid=afd2c671-b274-4716-95f7-9abfdfc6dc55"},"vehicle_type_id":"4","last_reported":1751972963,"current_range_meters":14800,"station_id":"","pricing_plan_id":"cebpf4jnsgd1na2vs0mg"},{"bike_id":"f55e4238-4a40-432c-9ed1-3a649d4698bf","system_id":"levelo_inurba_marseille","lat":43.31398,"lon":5.36689,"is_reserved":false,"is_disabled":false,"rental_uris":{"android":"levelo://app?vid=f55e4238-4a40-432c-9ed1-3a649d4698bf","ios":"levelo://app?vid=f55e4238-4a40-432c-9ed1-3a649d4698bf"},"vehicle_type_id":"4","last_reported":1751972963,"current_range_meters":14800,"station_id":"ce4bgr92rcd13ifvqc6g","pricing_plan_id":"cebpf4jnsgd1na2vs0mg"},{"bike_id":"cc233e37-29e8-4861-89b7-694fc9eea2af","system_id":"levelo_inurba_marseille","lat":43.30552,"lon":5.36547,"is_reserved":false,"is_disabled":false,"rental_uris":{"android":"levelo://app?vid=cc233e37-29e8-4861-89b7-694fc9eea2af","ios":"levelo://app?vid=cc233e37-29e8-4861-89b7-694fc9eea2af"},"vehicle_type_id":"4","last_reported":1751972963,"current_range_meters":14800,"station_id":"ce4bgs12rcd13ifvqcag","pricing_plan_id":"cebpf4jnsgd1na2vs0mg"},{"bike_id":"6256e228-cb90-40ab-b455-e5e4ef06cb6f","system_id":"levelo_inurba_marseille","lat":43.29257,"lon":5.40921,"is_reserved":false,"is_disabled":false,"rental_uris":{"android":"levelo://app?vid=6256e228-cb90-40ab-b455-e5e4ef06cb6f","ios":"levelo://app?vid=6256e228-cb90-40ab-b455-e5e4ef06cb6f"},"vehicle_type_id":"4","last_reported":1751972963,"current_range_meters":14800,"station_id":"ce4bh192rcd13ifvqdc0","pricing_plan_id":"cebpf4jnsgd1na2vs0mg"},{"bike_id":"25e39f18-42fa-4373-a4b7-a729c4916113","system_id":"levelo_inurba_marseille","lat":43.28468,"lon":5.3855,"is_reserved":false,"is_disabled":false,"rental_uris":{"android":"levelo://app?vid=25e39f18-42fa-4373-a4b7-a729c4916113","ios":"levelo://app?vid=25e39f18-42fa-4373-a4b7-a729c4916113"},"vehicle_type_id":"4","last_reported":1751972963,"current_range_meters":14800,"station_id":"ce4bh8p2rcd13ifvqeb0","pricing_plan_id":"cebpf4jnsgd1na2vs0mg"},{"bike_id":"f5c5d48c-b7cf-48a8-84f0-a80044871d04","system_id":"levelo_inurba_marseille","lat":43.264907,"lon":5.395394,"is_reserved":false,"is_disabled":false,"rental_uris":{"android":"levelo://app?vid=f5c5d48c-b7cf-48a8-84f0-a80044871d04","ios":"levelo://app?vid=f5c5d48c-b7cf-48a8-84f0-a80044871d04"},"vehicle_type_id":"4","last_reported":1751972963,"current_range_meters":15200,"station_id":"","pricing_plan_id":"cebpf4jnsgd1na2vs0mg"},{"bike_id":"87c2d236-4978-4760-be77-27d7f5a212e4","system_id":"levelo_inurba_marseille","lat":43.29644,"lon":5.36205,"is_reserved":false,"is_disabled":false,"rental_uris":{"android":"levelo://app?vid=87c2d236-4978-4760-be77-27d7f5a212e4","ios":"levelo://app?vid=87c2d236-4978-4760-be77-27d7f5a212e4"},"vehicle_type_id":"4","last_reported":1751972963,"current_range_meters":15200,"station_id":"","pricing_plan_id":"cebpf4jnsgd1na2vs0mg"},{"bike_id":"1da263b4-3493-4902-bc96-1904fe35a309","system_id":"levelo_inurba_marseille","lat":43.29248,"lon":5.37649,"is_reserved":false,"is_disabled":false,"rental_uris":{"android":"levelo://app?vid=1da263b4-3493-4902-bc96-1904fe35a309","ios":"levelo://app?vid=1da263b4-3493-4902-bc96-1904fe35a309"},"vehicle_type_id":"4","last_reported":1751972963,"current_range_meters":15200,"station_id":"ce4bgi12rcd13ifvqb80","pricing_plan_id":"cebpf4jnsgd1na2vs0mg"},{"bike_id":"13c84df3-55fc-4465-b582-17389625d267","system_id":"levelo_inurba_marseille","lat":43.2605,"lon":5.41753,"is_reserved":false,"is_disabled":false,"rental_uris":{"android":"levelo://app?vid=13c84df3-55fc-4465-b582-17389625d267","ios":"levelo://app?vid=13c84df3-55fc-4465-b582-17389625d267"},"vehicle_type_id":"4","last_reported":1751972963,"current_range_meters":16000,"station_id":"","pricing_plan_id":"cebpf4jnsgd1na2vs0mg"},{"bike_id":"9b78b258-0b37-4b47-b89e-63a23af64a74","system_id":"levelo_inurba_marseille","lat":43.2936,"lon":5.37854,"is_reserved":false,"is_disabled":false,"rental_uris":{"android":"levelo://app?vid=9b78b258-0b37-4b47-b89e-63a23af64a74","ios":"levelo://app?vid=9b78b258-0b37-4b47-b89e-63a23af64a74"},"vehicle_type_id":"4","last_reported":1751972963,"current_range_meters":16000,"station_id":"ce4bgjh2rcd13ifvqbf0","pricing_plan_id":"cebpf4jnsgd1na2vs0mg"},{"bike_id":"49485f1e-ff2e-4316-83b3-e682cf87be56","system_id":"levelo_inurba_marseille","lat":43.2848,"lon":5.38413,"is_reserved":false,"is_disabled":false,"rental_uris":{"android":"levelo://app?vid=49485f1e-ff2e-4316-83b3-e682cf87be56","ios":"levelo://app?vid=49485f1e-ff2e-4316-83b3-e682cf87be56"},"vehicle_type_id":"4","last_reported":1751972963,"current_range_meters":16000,"station_id":"ce4bh512rcd13ifvqe3g","pricing_plan_id":"cebpf4jnsgd1na2vs0mg"},{"bike_id":"0c505ed0-6f21-404c-a3d1-264c9a7d40d5","system_id":"levelo_inurba_marseille","lat":43.28266,"lon":5.35065,"is_reserved":false,"is_disabled":false,"rental_uris":{"android":"levelo://app?vid=0c505ed0-6f21-404c-a3d1-264c9a7d40d5","ios":"levelo://app?vid=0c505ed0-6f21-404c-a3d1-264c9a7d40d5"},"vehicle_type_id":"4","last_reported":1751972963,"current_range_meters":16000,"station_id":"ce4bhbp2rcd13ifvqerg","pricing_plan_id":"cebpf4jnsgd1na2vs0mg"},{"bike_id":"f44d72d3-54a0-4ac5-8391-4e5632430f2d","system_id":"levelo_inurba_marseille","lat":43.26207,"lon":5.37935,"is_reserved":false,"is_disabled":false,"rental_uris":{"android":"levelo://app?vid=f44d72d3-54a0-4ac5-8391-4e5632430f2d","ios":"levelo://app?vid=f44d72d3-54a0-4ac5-8391-4e5632430f2d"},"vehicle_type_id":"4","last_reported":1751972963,"current_range_meters":16000,"station_id":"ce4bhjp2rcd13ifvqg90","pricing_plan_id":"cebpf4jnsgd1na2vs0mg"},{"bike_id":"940f04f4-5dec-4ff8-8d1b-fd8eb1722f45","system_id":"levelo_inurba_marseille","lat":43.27498,"lon":5.42455,"is_reserved":false,"is_disabled":false,"rental_uris":{"android":"levelo://app?vid=940f04f4-5dec-4ff8-8d1b-fd8eb1722f45","ios":"levelo://app?vid=940f04f4-5dec-4ff8-8d1b-fd8eb1722f45"},"vehicle_type_id":"4","last_reported":1751972963,"current_range_meters":16000,"station_id":"ce4bhn92rcd13ifvqgrg","pricing_plan_id":"cebpf4jnsgd1na2vs0mg"},{"bike_id":"2c768828-b642-4f7a-8457-01e3a2eb1498","system_id":"levelo_inurba_marseille","lat":43.29792,"lon":5.37093,"is_reserved":false,"is_disabled":false,"rental_uris":{"android":"levelo://app?vid=2c768828-b642-4f7a-8457-01e3a2eb1498","ios":"levelo://app?vid=2c768828-b642-4f7a-8457-01e3a2eb1498"},"vehicle_type_id":"4","last_reported":1751972963,"current_range_meters":16400,"station_id":"ce4bgop2rcd13ifvqc1g","pricing_plan_id":"cebpf4jnsgd1na2vs0mg"},{"bike_id":"865797cd-3648-4678-90af-fdb3236e61f3","system_id":"levelo_inurba_marseille","lat":43.3055,"lon":5.36718,"is_reserved":false,"is_disabled":false,"rental_uris":{"android":"levelo://app?vid=865797cd-3648-4678-90af-fdb3236e61f3","ios":"levelo://app?vid=865797cd-3648-4678-90af-fdb3236e61f3"},"vehicle_type_id":"4","last_reported":1751972963,"current_range_meters":16400,"station_id":"ce4bgrp2rcd13ifvqc9g","pricing_plan_id":"cebpf4jnsgd1na2vs0mg"},{"bike_id":"afacd2f3-bba3-45ee-8532-93293891c799","system_id":"levelo_inurba_marseille","lat":43.30147,"lon":5.39858,"is_reserved":false,"is_disabled":false,"rental_uris":{"android":"levelo://app?vid=afacd2f3-bba3-45ee-8532-93293891c799","ios":"levelo://app?vid=afacd2f3-bba3-45ee-8532-93293891c799"},"vehicle_type_id":"4","last_reported":1751972963,"current_range_meters":16400,"station_id":"ce4bh0h2rcd13ifvqd40","pricing_plan_id":"cebpf4jnsgd1na2vs0mg"},{"bike_id":"e5446d35-eae2-4f1a-94f3-8608bbe8f22e","system_id":"levelo_inurba_marseille","lat":43.28467,"lon":5.38418,"is_reserved":false,"is_disabled":false,"rental_uris":{"android":"levelo://app?vid=e5446d35-eae2-4f1a-94f3-8608bbe8f22e","ios":"levelo://app?vid=e5446d35-eae2-4f1a-94f3-8608bbe8f22e"},"vehicle_type_id":"4","last_reported":1751972963,"current_range_meters":16400,"station_id":"ce4bh512rcd13ifvqe3g","pricing_plan_id":"cebpf4jnsgd1na2vs0mg"},{"bike_id":"3a921cbb-4a2b-4a20-99db-7585fd9dff10","system_id":"levelo_inurba_marseille","lat":43.30376,"lon":5.42484,"is_reserved":false,"is_disabled":false,"rental_uris":{"android":"levelo://app?vid=3a921cbb-4a2b-4a20-99db-7585fd9dff10","ios":"levelo://app?vid=3a921cbb-4a2b-4a20-99db-7585fd9dff10"},"vehicle_type_id":"4","last_reported":1751972963,"current_range_meters":16400,"station_id":"ce4bhoh2rcd13ifvqh6g","pricing_plan_id":"cebpf4jnsgd1na2vs0mg"},{"bike_id":"ed9c862a-910f-4c0c-a2ed-2488c701ab44","system_id":"levelo_inurba_marseille","lat":43.31734,"lon":5.408877,"is_reserved":false,"is_disabled":false,"rental_uris":{"android":"levelo://app?vid=ed9c862a-910f-4c0c-a2ed-2488c701ab44","ios":"levelo://app?vid=ed9c862a-910f-4c0c-a2ed-2488c701ab44"},"vehicle_type_id":"4","last_reported":1751972963,"current_range_meters":16400,"station_id":"ce4bhq92rcd13ifvqhkg","pricing_plan_id":"cebpf4jnsgd1na2vs0mg"},{"bike_id":"5d9902ba-8980-4933-a40e-f57376044a16","system_id":"levelo_inurba_marseille","lat":43.29983,"lon":5.37175,"is_reserved":false,"is_disabled":false,"rental_uris":{"android":"levelo://app?vid=5d9902ba-8980-4933-a40e-f57376044a16","ios":"levelo://app?vid=5d9902ba-8980-4933-a40e-f57376044a16"},"vehicle_type_id":"4","last_reported":1751972963,"current_range_meters":16800,"station_id":"ce4bgr92rcd13ifvqc7g","pricing_plan_id":"cebpf4jnsgd1na2vs0mg"},{"bike_id":"da9e0cc6-b739-410b-895b-cad8f90bf164","system_id":"levelo_inurba_marseille","lat":43.26192,"lon":5.37945,"is_reserved":false,"is_disabled":false,"rental_uris":{"android":"levelo://app?vid=da9e0cc6-b739-410b-895b-cad8f90bf164","ios":"levelo://app?vid=da9e0cc6-b739-410b-895b-cad8f90bf164"},"vehicle_type_id":"4","last_reported":1751972963,"current_range_meters":16800,"station_id":"ce4bhjp2rcd13ifvqg90","pricing_plan_id":"cebpf4jnsgd1na2vs0mg"},{"bike_id":"a0967684-aa48-48c0-a325-5bbf21808b32","system_id":"levelo_inurba_marseille","lat":43.32482,"lon":5.36577,"is_reserved":false,"is_disabled":false,"rental_uris":{"android":"levelo://app?vid=a0967684-aa48-48c0-a325-5bbf21808b32","ios":"levelo://app?vid=a0967684-aa48-48c0-a325-5bbf21808b32"},"vehicle_type_id":"4","last_reported":1751972963,"current_range_meters":16800,"station_id":"ce4bhs12rcd13ifvqhvg","pricing_plan_id":"cebpf4jnsgd1na2vs0mg"},{"bike_id":"ea7df389-5dc0-4c58-88fe-80a5af035925","system_id":"levelo_inurba_marseille","lat":43.298426,"lon":5.364299,"is_reserved":false,"is_disabled":false,"rental_uris":{"android":"levelo://app?vid=ea7df389-5dc0-4c58-88fe-80a5af035925","ios":"levelo://app?vid=ea7df389-5dc0-4c58-88fe-80a5af035925"},"vehicle_type_id":"4","last_reported":1751972963,"current_range_meters":17200,"station_id":"","pricing_plan_id":"cebpf4jnsgd1na2vs0mg"},{"bike_id":"e87023d3-0d05-4dd8-bed8-2c809ec33b56","system_id":"levelo_inurba_marseille","lat":43.30146,"lon":5.38068,"is_reserved":false,"is_disabled":false,"rental_uris":{"android":"levelo://app?vid=e87023d3-0d05-4dd8-bed8-2c809ec33b56","ios":"levelo://app?vid=e87023d3-0d05-4dd8-bed8-2c809ec33b56"},"vehicle_type_id":"4","last_reported":1751972963,"current_range_meters":17200,"station_id":"ce4bgjp2rcd13ifvqbh0","pricing_plan_id":"cebpf4jnsgd1na2vs0mg"},{"bike_id":"66540e04-318c-431d-b686-c1943a0ae406","system_id":"levelo_inurba_marseille","lat":43.29914,"lon":5.36524,"is_reserved":false,"is_disabled":false,"rental_uris":{"android":"levelo://app?vid=66540e04-318c-431d-b686-c1943a0ae406","ios":"levelo://app?vid=66540e04-318c-431d-b686-c1943a0ae406"},"vehicle_type_id":"4","last_reported":1751972963,"current_range_meters":17200,"station_id":"ce4bgm92rcd13ifvqbr0","pricing_plan_id":"cebpf4jnsgd1na2vs0mg"},{"bike_id":"94e835ab-51bf-4e08-aac8-3196f327f440","system_id":"levelo_inurba_marseille","lat":43.25519,"lon":5.37658,"is_reserved":false,"is_disabled":false,"rental_uris":{"android":"levelo://app?vid=94e835ab-51bf-4e08-aac8-3196f327f440","ios":"levelo://app?vid=94e835ab-51bf-4e08-aac8-3196f327f440"},"vehicle_type_id":"4","last_reported":1751972963,"current_range_meters":17200,"station_id":"ce4bhh12rcd13ifvqff0","pricing_plan_id":"cebpf4jnsgd1na2vs0mg"},{"bike_id":"dc6aa8ed-171a-411d-8ce9-8847acb1ad2b","system_id":"levelo_inurba_marseille","lat":43.298451,"lon":5.362757,"is_reserved":false,"is_disabled":false,"rental_uris":{"android":"levelo://app?vid=dc6aa8ed-171a-411d-8ce9-8847acb1ad2b","ios":"levelo://app?vid=dc6aa8ed-171a-411d-8ce9-8847acb1ad2b"},"vehicle_type_id":"4","last_reported":1751972963,"current_range_meters":17600,"station_id":"ce4bgpp2rcd13ifvqc3g","pricing_plan_id":"cebpf4jnsgd1na2vs0mg"},{"bike_id":"dc430341-1af2-4581-b50c-e791871fa656","system_id":"levelo_inurba_marseille","lat":43.28847,"lon":5.39316,"is_reserved":false,"is_disabled":false,"rental_uris":{"android":"levelo://app?vid=dc430341-1af2-4581-b50c-e791871fa656","ios":"levelo://app?vid=dc430341-1af2-4581-b50c-e791871fa656"},"vehicle_type_id":"4","last_reported":1751972963,"current_range_meters":17600,"station_id":"ce4bh2p2rcd13ifvqdi0","pricing_plan_id":"cebpf4jnsgd1na2vs0mg"},{"bike_id":"75d870d8-43c2-4d98-a19c-4e358a7b5905","system_id":"levelo_inurba_marseille","lat":43.292842,"lon":5.374484,"is_reserved":false,"is_disabled":false,"rental_uris":{"android":"levelo://app?vid=75d870d8-43c2-4d98-a19c-4e358a7b5905","ios":"levelo://app?vid=75d870d8-43c2-4d98-a19c-4e358a7b5905"},"vehicle_type_id":"4","last_reported":1751972963,"current_range_meters":18000,"station_id":"","pricing_plan_id":"cebpf4jnsgd1na2vs0mg"},{"bike_id":"e2e87e5e-377f-464e-9a30-d46be8a9da2f","system_id":"levelo_inurba_marseille","lat":43.30149,"lon":5.38097,"is_reserved":false,"is_disabled":false,"rental_uris":{"android":"levelo://app?vid=e2e87e5e-377f-464e-9a30-d46be8a9da2f","ios":"levelo://app?vid=e2e87e5e-377f-464e-9a30-d46be8a9da2f"},"vehicle_type_id":"4","last_reported":1751972963,"current_range_meters":18000,"station_id":"ce4bgjp2rcd13ifvqbh0","pricing_plan_id":"cebpf4jnsgd1na2vs0mg"},{"bike_id":"f5993312-df83-434b-8105-91efbfa1e2bc","system_id":"levelo_inurba_marseille","lat":43.30552,"lon":5.36536,"is_reserved":false,"is_disabled":false,"rental_uris":{"android":"levelo://app?vid=f5993312-df83-434b-8105-91efbfa1e2bc","ios":"levelo://app?vid=f5993312-df83-434b-8105-91efbfa1e2bc"},"vehicle_type_id":"4","last_reported":1751972963,"current_range_meters":18000,"station_id":"ce4bgs12rcd13ifvqcag","pricing_plan_id":"cebpf4jnsgd1na2vs0mg"},{"bike_id":"097020ee-cc54-4188-acc8-686cbaa19d63","system_id":"levelo_inurba_marseille","lat":43.28846,"lon":5.35847,"is_reserved":false,"is_disabled":false,"rental_uris":{"android":"levelo://app?vid=097020ee-cc54-4188-acc8-686cbaa19d63","ios":"levelo://app?vid=097020ee-cc54-4188-acc8-686cbaa19d63"},"vehicle_type_id":"4","last_reported":1751972963,"current_range_meters":18000,"station_id":"ce4bhb12rcd13ifvqem0","pricing_plan_id":"cebpf4jnsgd1na2vs0mg"},{"bike_id":"9959d7fa-4898-43a5-a1ec-b9fed544cad3","system_id":"levelo_inurba_marseille","lat":43.28416,"lon":5.34985,"is_reserved":false,"is_disabled":false,"rental_uris":{"android":"levelo://app?vid=9959d7fa-4898-43a5-a1ec-b9fed544cad3","ios":"levelo://app?vid=9959d7fa-4898-43a5-a1ec-b9fed544cad3"},"vehicle_type_id":"4","last_reported":1751972963,"current_range_meters":18000,"station_id":"ce4bhbh2rcd13ifvqepg","pricing_plan_id":"cebpf4jnsgd1na2vs0mg"},{"bike_id":"a7b204a4-6cab-4ecc-b9c1-0b73bad7c61d","system_id":"levelo_inurba_marseille","lat":43.26224,"lon":5.3741,"is_reserved":false,"is_disabled":false,"rental_uris":{"android":"levelo://app?vid=a7b204a4-6cab-4ecc-b9c1-0b73bad7c61d","ios":"levelo://app?vid=a7b204a4-6cab-4ecc-b9c1-0b73bad7c61d"},"vehicle_type_id":"4","last_reported":1751972963,"current_range_meters":18000,"station_id":"ce4bhgp2rcd13ifvqfc0","pricing_plan_id":"cebpf4jnsgd1na2vs0mg"},{"bike_id":"537ae664-491b-4af7-9081-62566cf8f1c2","system_id":"levelo_inurba_marseille","lat":43.25928,"lon":5.40896,"is_reserved":false,"is_disabled":false,"rental_uris":{"android":"levelo://app?vid=537ae664-491b-4af7-9081-62566cf8f1c2","ios":"levelo://app?vid=537ae664-491b-4af7-9081-62566cf8f1c2"},"vehicle_type_id":"4","last_reported":1751972963,"current_range_meters":18000,"station_id":"ce4bhm92rcd13ifvqglg","pricing_plan_id":"cebpf4jnsgd1na2vs0mg"},{"bike_id":"e4793d5e-b4cd-4c12-b9d4-446cb97752b9","system_id":"levelo_inurba_marseille","lat":43.29267,"lon":5.39065,"is_reserved":false,"is_disabled":false,"rental_uris":{"android":"levelo://app?vid=e4793d5e-b4cd-4c12-b9d4-446cb97752b9","ios":"levelo://app?vid=e4793d5e-b4cd-4c12-b9d4-446cb97752b9"},"vehicle_type_id":"4","last_reported":1751972963,"current_range_meters":18800,"station_id":"","pricing_plan_id":"cebpf4jnsgd1na2vs0mg"},{"bike_id":"8c52ed50-7ccd-42e9-aee3-29afebaf4b1a","system_id":"levelo_inurba_marseille","lat":43.29685,"lon":5.372912,"is_reserved":false,"is_disabled":false,"rental_uris":{"android":"levelo://app?vid=8c52ed50-7ccd-42e9-aee3-29afebaf4b1a","ios":"levelo://app?vid=8c52ed50-7ccd-42e9-aee3-29afebaf4b1a"},"vehicle_type_id":"4","last_reported":1751972963,"current_range_meters":18800,"station_id":"ce4bgk12rcd13ifvqbj0","pricing_plan_id":"cebpf4jnsgd1na2vs0mg"},{"bike_id":"1e112a52-32ff-42af-8077-893c4a6d3611","system_id":"levelo_inurba_marseille","lat":43.2841,"lon":5.34941,"is_reserved":false,"is_disabled":false,"rental_uris":{"android":"levelo://app?vid=1e112a52-32ff-42af-8077-893c4a6d3611","ios":"levelo://app?vid=1e112a52-32ff-42af-8077-893c4a6d3611"},"vehicle_type_id":"4","last_reported":1751972963,"current_range_meters":18800,"station_id":"ce4bhbh2rcd13ifvqepg","pricing_plan_id":"cebpf4jnsgd1na2vs0mg"},{"bike_id":"1e91cee9-7d4a-458c-9805-68ef6c30eb40","system_id":"levelo_inurba_marseille","lat":43.21757,"lon":5.3459,"is_reserved":false,"is_disabled":false,"rental_uris":{"android":"levelo://app?vid=1e91cee9-7d4a-458c-9805-68ef6c30eb40","ios":"levelo://app?vid=1e91cee9-7d4a-458c-9805-68ef6c30eb40"},"vehicle_type_id":"4","last_reported":1751972963,"current_range_meters":18800,"station_id":"st_cvj6r9ubvosntc0bgbag","pricing_plan_id":"cebpf4jnsgd1na2vs0mg"},{"bike_id":"d0f90c24-dd03-411b-9731-55305f76b7c8","system_id":"levelo_inurba_marseille","lat":43.21189,"lon":5.35086,"is_reserved":false,"is_disabled":false,"rental_uris":{"android":"levelo://app?vid=d0f90c24-dd03-411b-9731-55305f76b7c8","ios":"levelo://app?vid=d0f90c24-dd03-411b-9731-55305f76b7c8"},"vehicle_type_id":"4","last_reported":1751972963,"current_range_meters":18800,"station_id":"st_cvj6sg6p6f1abm77japg","pricing_plan_id":"cebpf4jnsgd1na2vs0mg"},{"bike_id":"6ec82d38-4366-438e-b08d-00e49a3e6efc","system_id":"levelo_inurba_marseille","lat":43.30645,"lon":5.38025,"is_reserved":false,"is_disabled":false,"rental_uris":{"android":"levelo://app?vid=6ec82d38-4366-438e-b08d-00e49a3e6efc","ios":"levelo://app?vid=6ec82d38-4366-438e-b08d-00e49a3e6efc"},"vehicle_type_id":"4","last_reported":1751972963,"current_range_meters":19200,"station_id":"","pricing_plan_id":"cebpf4jnsgd1na2vs0mg"},{"bike_id":"5e4b110f-4f34-4a9e-a5f5-7ace7520bbd5","system_id":"levelo_inurba_marseille","lat":43.29676,"lon":5.37424,"is_reserved":false,"is_disabled":false,"rental_uris":{"android":"levelo://app?vid=5e4b110f-4f34-4a9e-a5f5-7ace7520bbd5","ios":"levelo://app?vid=5e4b110f-4f34-4a9e-a5f5-7ace7520bbd5"},"vehicle_type_id":"4","last_reported":1751972963,"current_range_meters":19200,"station_id":"","pricing_plan_id":"cebpf4jnsgd1na2vs0mg"},{"bike_id":"f5c16f07-bc6f-4121-91a7-5ad90eec4f34","system_id":"levelo_inurba_marseille","lat":43.312081,"lon":5.373161,"is_reserved":false,"is_disabled":false,"rental_uris":{"android":"levelo://app?vid=f5c16f07-bc6f-4121-91a7-5ad90eec4f34","ios":"levelo://app?vid=f5c16f07-bc6f-4121-91a7-5ad90eec4f34"},"vehicle_type_id":"4","last_reported":1751972963,"current_range_meters":19200,"station_id":"","pricing_plan_id":"cebpf4jnsgd1na2vs0mg"},{"bike_id":"c2bc40a6-a2f7-42b7-a4ac-d9b509b2467d","system_id":"levelo_inurba_marseille","lat":43.29309,"lon":5.37174,"is_reserved":false,"is_disabled":false,"rental_uris":{"android":"levelo://app?vid=c2bc40a6-a2f7-42b7-a4ac-d9b509b2467d","ios":"levelo://app?vid=c2bc40a6-a2f7-42b7-a4ac-d9b509b2467d"},"vehicle_type_id":"4","last_reported":1751972963,"current_range_meters":19200,"station_id":"ce4bgh92rcd13ifvqb40","pricing_plan_id":"cebpf4jnsgd1na2vs0mg"},{"bike_id":"2bf4c5cc-a10a-47d8-8128-0cf796cf3253","system_id":"levelo_inurba_marseille","lat":43.29626,"lon":5.37158,"is_reserved":false,"is_disabled":false,"rental_uris":{"android":"levelo://app?vid=2bf4c5cc-a10a-47d8-8128-0cf796cf3253","ios":"levelo://app?vid=2bf4c5cc-a10a-47d8-8128-0cf796cf3253"},"vehicle_type_id":"4","last_reported":1751972963,"current_range_meters":19200,"station_id":"ce4bgnh2rcd13ifvqc0g","pricing_plan_id":"cebpf4jnsgd1na2vs0mg"},{"bike_id":"1f65ea09-d0b8-4de2-8c89-55ce8e88592f","system_id":"levelo_inurba_marseille","lat":43.29845,"lon":5.36268,"is_reserved":false,"is_disabled":false,"rental_uris":{"android":"levelo://app?vid=1f65ea09-d0b8-4de2-8c89-55ce8e88592f","ios":"levelo://app?vid=1f65ea09-d0b8-4de2-8c89-55ce8e88592f"},"vehicle_type_id":"4","last_reported":1751972963,"current_range_meters":19200,"station_id":"ce4bgpp2rcd13ifvqc3g","pricing_plan_id":"cebpf4jnsgd1na2vs0mg"},{"bike_id":"c2b72fe0-bae6-4c7b-ad48-9e771b203dc8","system_id":"levelo_inurba_marseille","lat":43.31358,"lon":5.384608,"is_reserved":false,"is_disabled":false,"rental_uris":{"android":"levelo://app?vid=c2b72fe0-bae6-4c7b-ad48-9e771b203dc8","ios":"levelo://app?vid=c2b72fe0-bae6-4c7b-ad48-9e771b203dc8"},"vehicle_type_id":"4","last_reported":1751972963,"current_range_meters":19200,"station_id":"ce4bgt92rcd13ifvqcf0","pricing_plan_id":"cebpf4jnsgd1na2vs0mg"},{"bike_id":"717840ea-9313-4064-9e34-da78d8b0d67d","system_id":"levelo_inurba_marseille","lat":43.30094,"lon":5.39831,"is_reserved":false,"is_disabled":false,"rental_uris":{"android":"levelo://app?vid=717840ea-9313-4064-9e34-da78d8b0d67d","ios":"levelo://app?vid=717840ea-9313-4064-9e34-da78d8b0d67d"},"vehicle_type_id":"4","last_reported":1751972963,"current_range_meters":19200,"station_id":"ce4bh0h2rcd13ifvqd40","pricing_plan_id":"cebpf4jnsgd1na2vs0mg"},{"bike_id":"a467a650-ef57-4acd-aff1-7850bdf0f2f9","system_id":"levelo_inurba_marseille","lat":43.323703,"lon":5.388873,"is_reserved":false,"is_disabled":false,"rental_uris":{"android":"levelo://app?vid=a467a650-ef57-4acd-aff1-7850bdf0f2f9","ios":"levelo://app?vid=a467a650-ef57-4acd-aff1-7850bdf0f2f9"},"vehicle_type_id":"4","last_reported":1751972963,"current_range_meters":19200,"station_id":"ce4bhqp2rcd13ifvqhog","pricing_plan_id":"cebpf4jnsgd1na2vs0mg"},{"bike_id":"7f0c405c-cebd-402f-b8ba-98e46b99f50b","system_id":"levelo_inurba_marseille","lat":43.21209,"lon":5.35074,"is_reserved":false,"is_disabled":false,"rental_uris":{"android":"levelo://app?vid=7f0c405c-cebd-402f-b8ba-98e46b99f50b","ios":"levelo://app?vid=7f0c405c-cebd-402f-b8ba-98e46b99f50b"},"vehicle_type_id":"4","last_reported":1751972963,"current_range_meters":19200,"station_id":"st_cvj6sg6p6f1abm77japg","pricing_plan_id":"cebpf4jnsgd1na2vs0mg"},{"bike_id":"093c6075-fb95-4ea5-ae3c-9ebd2aedeaa8","system_id":"levelo_inurba_marseille","lat":43.3137,"lon":5.36699,"is_reserved":false,"is_disabled":false,"rental_uris":{"android":"levelo://app?vid=093c6075-fb95-4ea5-ae3c-9ebd2aedeaa8","ios":"levelo://app?vid=093c6075-fb95-4ea5-ae3c-9ebd2aedeaa8"},"vehicle_type_id":"4","last_reported":1751972963,"current_range_meters":19600,"station_id":"ce4bgr92rcd13ifvqc6g","pricing_plan_id":"cebpf4jnsgd1na2vs0mg"},{"bike_id":"4649e0ec-2bad-4fef-af63-ff7fbb80408d","system_id":"levelo_inurba_marseille","lat":43.27568,"lon":5.38416,"is_reserved":false,"is_disabled":false,"rental_uris":{"android":"levelo://app?vid=4649e0ec-2bad-4fef-af63-ff7fbb80408d","ios":"levelo://app?vid=4649e0ec-2bad-4fef-af63-ff7fbb80408d"},"vehicle_type_id":"4","last_reported":1751972963,"current_range_meters":19600,"station_id":"ce4bhh92rcd13ifvqfi0","pricing_plan_id":"cebpf4jnsgd1na2vs0mg"},{"bike_id":"1407b068-62bd-4caa-8d78-74927953f90c","system_id":"levelo_inurba_marseille","lat":43.23128,"lon":5.4373,"is_reserved":false,"is_disabled":false,"rental_uris":{"android":"levelo://app?vid=1407b068-62bd-4caa-8d78-74927953f90c","ios":"levelo://app?vid=1407b068-62bd-4caa-8d78-74927953f90c"},"vehicle_type_id":"4","last_reported":1751972963,"current_range_meters":19600,"station_id":"ce4bhmp2rcd13ifvqgog","pricing_plan_id":"cebpf4jnsgd1na2vs0mg"},{"bike_id":"fb4122cd-0277-4297-8cd5-1b777b465e3e","system_id":"levelo_inurba_marseille","lat":43.24084,"lon":5.37759,"is_reserved":false,"is_disabled":false,"rental_uris":{"android":"levelo://app?vid=fb4122cd-0277-4297-8cd5-1b777b465e3e","ios":"levelo://app?vid=fb4122cd-0277-4297-8cd5-1b777b465e3e"},"vehicle_type_id":"4","last_reported":1751972963,"current_range_meters":19600,"station_id":"ce4bhnp2rcd13ifvqgvg","pricing_plan_id":"cebpf4jnsgd1na2vs0mg"},{"bike_id":"56eb3fdf-ea87-4fcf-85df-3680fa66363e","system_id":"levelo_inurba_marseille","lat":43.22509,"lon":5.34758,"is_reserved":false,"is_disabled":false,"rental_uris":{"android":"levelo://app?vid=56eb3fdf-ea87-4fcf-85df-3680fa66363e","ios":"levelo://app?vid=56eb3fdf-ea87-4fcf-85df-3680fa66363e"},"vehicle_type_id":"4","last_reported":1751972963,"current_range_meters":19600,"station_id":"st_cvj5dfep6f1abm77gieg","pricing_plan_id":"cebpf4jnsgd1na2vs0mg"},{"bike_id":"b757ffbb-2b71-4330-9f60-5f8a9d46d16e","system_id":"levelo_inurba_marseille","lat":43.29659,"lon":5.371,"is_reserved":false,"is_disabled":false,"rental_uris":{"android":"levelo://app?vid=b757ffbb-2b71-4330-9f60-5f8a9d46d16e","ios":"levelo://app?vid=b757ffbb-2b71-4330-9f60-5f8a9d46d16e"},"vehicle_type_id":"4","last_reported":1751972963,"current_range_meters":20000,"station_id":"","pricing_plan_id":"cebpf4jnsgd1na2vs0mg"},{"bike_id":"e7a0ee1a-b144-449e-a71f-4ad7b2b23104","system_id":"levelo_inurba_marseille","lat":43.29507,"lon":5.375,"is_reserved":false,"is_disabled":false,"rental_uris":{"android":"levelo://app?vid=e7a0ee1a-b144-449e-a71f-4ad7b2b23104","ios":"levelo://app?vid=e7a0ee1a-b144-449e-a71f-4ad7b2b23104"},"vehicle_type_id":"4","last_reported":1751972963,"current_range_meters":20000,"station_id":"ce4bgkp2rcd13ifvqbmg","pricing_plan_id":"cebpf4jnsgd1na2vs0mg"},{"bike_id":"4acaf512-a7d4-403d-9669-da010a61428f","system_id":"levelo_inurba_marseille","lat":43.30537,"lon":5.36549,"is_reserved":false,"is_disabled":false,"rental_uris":{"android":"levelo://app?vid=4acaf512-a7d4-403d-9669-da010a61428f","ios":"levelo://app?vid=4acaf512-a7d4-403d-9669-da010a61428f"},"vehicle_type_id":"4","last_reported":1751972963,"current_range_meters":20000,"station_id":"ce4bgs12rcd13ifvqcag","pricing_plan_id":"cebpf4jnsgd1na2vs0mg"},{"bike_id":"b42f7362-d40c-41ff-97af-6128d805c41c","system_id":"levelo_inurba_marseille","lat":43.26209,"lon":5.37449,"is_reserved":false,"is_disabled":false,"rental_uris":{"android":"levelo://app?vid=b42f7362-d40c-41ff-97af-6128d805c41c","ios":"levelo://app?vid=b42f7362-d40c-41ff-97af-6128d805c41c"},"vehicle_type_id":"4","last_reported":1751972963,"current_range_meters":20000,"station_id":"ce4bhgp2rcd13ifvqfc0","pricing_plan_id":"cebpf4jnsgd1na2vs0mg"},{"bike_id":"888681e3-3375-439f-a7aa-cdecc5f3e6d8","system_id":"levelo_inurba_marseille","lat":43.26931,"lon":5.38932,"is_reserved":false,"is_disabled":false,"rental_uris":{"android":"levelo://app?vid=888681e3-3375-439f-a7aa-cdecc5f3e6d8","ios":"levelo://app?vid=888681e3-3375-439f-a7aa-cdecc5f3e6d8"},"vehicle_type_id":"4","last_reported":1751972963,"current_range_meters":20000,"station_id":"ce4bhhh2rcd13ifvqfl0","pricing_plan_id":"cebpf4jnsgd1na2vs0mg"},{"bike_id":"fe45c59c-bd93-452a-aa26-1fe955c3303c","system_id":"levelo_inurba_marseille","lat":43.24667,"lon":5.38126,"is_reserved":false,"is_disabled":false,"rental_uris":{"android":"levelo://app?vid=fe45c59c-bd93-452a-aa26-1fe955c3303c","ios":"levelo://app?vid=fe45c59c-bd93-452a-aa26-1fe955c3303c"},"vehicle_type_id":"4","last_reported":1751972963,"current_range_meters":20000,"station_id":"ce4bhih2rcd13ifvqfr0","pricing_plan_id":"cebpf4jnsgd1na2vs0mg"},{"bike_id":"acc0b915-c2fb-4870-a4ce-e706fb5ed0be","system_id":"levelo_inurba_marseille","lat":43.231539,"lon":5.43711,"is_reserved":false,"is_disabled":false,"rental_uris":{"android":"levelo://app?vid=acc0b915-c2fb-4870-a4ce-e706fb5ed0be","ios":"levelo://app?vid=acc0b915-c2fb-4870-a4ce-e706fb5ed0be"},"vehicle_type_id":"4","last_reported":1751972963,"current_range_meters":20000,"station_id":"ce4bhmp2rcd13ifvqgog","pricing_plan_id":"cebpf4jnsgd1na2vs0mg"},{"bike_id":"b6d9b946-f66a-4c6f-96e5-5d23e176360c","system_id":"levelo_inurba_marseille","lat":43.31315,"lon":5.38172,"is_reserved":false,"is_disabled":false,"rental_uris":{"android":"levelo://app?vid=b6d9b946-f66a-4c6f-96e5-5d23e176360c","ios":"levelo://app?vid=b6d9b946-f66a-4c6f-96e5-5d23e176360c"},"vehicle_type_id":"4","last_reported":1751972963,"current_range_meters":20400,"station_id":"","pricing_plan_id":"cebpf4jnsgd1na2vs0mg"},{"bike_id":"b2caa530-bb19-4cc6-a6bd-61e3e1d7432e","system_id":"levelo_inurba_marseille","lat":43.33763,"lon":5.37461,"is_reserved":false,"is_disabled":false,"rental_uris":{"android":"levelo://app?vid=b2caa530-bb19-4cc6-a6bd-61e3e1d7432e","ios":"levelo://app?vid=b2caa530-bb19-4cc6-a6bd-61e3e1d7432e"},"vehicle_type_id":"4","last_reported":1751972963,"current_range_meters":20400,"station_id":"","pricing_plan_id":"cebpf4jnsgd1na2vs0mg"},{"bike_id":"534e28c1-5f51-4cc7-8f0d-06ac5c8be051","system_id":"levelo_inurba_marseille","lat":43.31267,"lon":5.36885,"is_reserved":false,"is_disabled":false,"rental_uris":{"android":"levelo://app?vid=534e28c1-5f51-4cc7-8f0d-06ac5c8be051","ios":"levelo://app?vid=534e28c1-5f51-4cc7-8f0d-06ac5c8be051"},"vehicle_type_id":"4","last_reported":1751972963,"current_range_meters":20400,"station_id":"ce4bgl92rcd13ifvqbq0","pricing_plan_id":"cebpf4jnsgd1na2vs0mg"},{"bike_id":"91caa7cf-da48-4b77-92af-de77619dbcc7","system_id":"levelo_inurba_marseille","lat":43.30524,"lon":5.36702,"is_reserved":false,"is_disabled":false,"rental_uris":{"android":"levelo://app?vid=91caa7cf-da48-4b77-92af-de77619dbcc7","ios":"levelo://app?vid=91caa7cf-da48-4b77-92af-de77619dbcc7"},"vehicle_type_id":"4","last_reported":1751972963,"current_range_meters":20400,"station_id":"ce4bgrp2rcd13ifvqc9g","pricing_plan_id":"cebpf4jnsgd1na2vs0mg"},{"bike_id":"8d32bee2-aedf-4906-9459-6dc5d2153911","system_id":"levelo_inurba_marseille","lat":43.301457,"lon":5.374231,"is_reserved":false,"is_disabled":false,"rental_uris":{"android":"levelo://app?vid=8d32bee2-aedf-4906-9459-6dc5d2153911","ios":"levelo://app?vid=8d32bee2-aedf-4906-9459-6dc5d2153911"},"vehicle_type_id":"4","last_reported":1751972963,"current_range_meters":20400,"station_id":"ce4bguh2rcd13ifvqcj0","pricing_plan_id":"cebpf4jnsgd1na2vs0mg"},{"bike_id":"1d93481e-a9ea-4227-9027-3e01aaa6276c","system_id":"levelo_inurba_marseille","lat":43.28946,"lon":5.3964,"is_reserved":false,"is_disabled":false,"rental_uris":{"android":"levelo://app?vid=1d93481e-a9ea-4227-9027-3e01aaa6276c","ios":"levelo://app?vid=1d93481e-a9ea-4227-9027-3e01aaa6276c"},"vehicle_type_id":"4","last_reported":1751972963,"current_range_meters":20400,"station_id":"ce4bh3h2rcd13ifvqdn0","pricing_plan_id":"cebpf4jnsgd1na2vs0mg"},{"bike_id":"4ca179ee-eb3e-4c5d-a32e-a6e1fea5dc13","system_id":"levelo_inurba_marseille","lat":43.28074,"lon":5.39655,"is_reserved":false,"is_disabled":false,"rental_uris":{"android":"levelo://app?vid=4ca179ee-eb3e-4c5d-a32e-a6e1fea5dc13","ios":"levelo://app?vid=4ca179ee-eb3e-4c5d-a32e-a6e1fea5dc13"},"vehicle_type_id":"4","last_reported":1751972963,"current_range_meters":20400,"station_id":"ce4bho12rcd13ifvqh2g","pricing_plan_id":"cebpf4jnsgd1na2vs0mg"},{"bike_id":"b28aa0a0-791c-4a08-9a16-c7bf6ea0ed5a","system_id":"levelo_inurba_marseille","lat":43.22512,"lon":5.34806,"is_reserved":false,"is_disabled":false,"rental_uris":{"android":"levelo://app?vid=b28aa0a0-791c-4a08-9a16-c7bf6ea0ed5a","ios":"levelo://app?vid=b28aa0a0-791c-4a08-9a16-c7bf6ea0ed5a"},"vehicle_type_id":"4","last_reported":1751972963,"current_range_meters":20400,"station_id":"st_cvj5dfep6f1abm77gieg","pricing_plan_id":"cebpf4jnsgd1na2vs0mg"},{"bike_id":"697d5fc4-b988-4a4e-8323-c1ce5ed61a61","system_id":"levelo_inurba_marseille","lat":43.21199,"lon":5.350574,"is_reserved":false,"is_disabled":false,"rental_uris":{"android":"levelo://app?vid=697d5fc4-b988-4a4e-8323-c1ce5ed61a61","ios":"levelo://app?vid=697d5fc4-b988-4a4e-8323-c1ce5ed61a61"},"vehicle_type_id":"4","last_reported":1751972963,"current_range_meters":20400,"station_id":"st_cvj6sg6p6f1abm77japg","pricing_plan_id":"cebpf4jnsgd1na2vs0mg"},{"bike_id":"15286feb-5dfb-498c-a584-add36819e4ef","system_id":"levelo_inurba_marseille","lat":43.21193,"lon":5.3508,"is_reserved":false,"is_disabled":false,"rental_uris":{"android":"levelo://app?vid=15286feb-5dfb-498c-a584-add36819e4ef","ios":"levelo://app?vid=15286feb-5dfb-498c-a584-add36819e4ef"},"vehicle_type_id":"4","last_reported":1751972963,"current_range_meters":20400,"station_id":"st_cvj6sg6p6f1abm77japg","pricing_plan_id":"cebpf4jnsgd1na2vs0mg"},{"bike_id":"320f2a33-deaa-4e0a-a3d5-c39ce8ad680a","system_id":"levelo_inurba_marseille","lat":43.31546,"lon":5.37464,"is_reserved":false,"is_disabled":false,"rental_uris":{"android":"levelo://app?vid=320f2a33-deaa-4e0a-a3d5-c39ce8ad680a","ios":"levelo://app?vid=320f2a33-deaa-4e0a-a3d5-c39ce8ad680a"},"vehicle_type_id":"4","last_reported":1751972963,"current_range_meters":20800,"station_id":"","pricing_plan_id":"cebpf4jnsgd1na2vs0mg"},{"bike_id":"ea8e10d1-8306-4561-89c3-eb72ddfe6112","system_id":"levelo_inurba_marseille","lat":43.299011,"lon":5.381522,"is_reserved":false,"is_disabled":false,"rental_uris":{"android":"levelo://app?vid=ea8e10d1-8306-4561-89c3-eb72ddfe6112","ios":"levelo://app?vid=ea8e10d1-8306-4561-89c3-eb72ddfe6112"},"vehicle_type_id":"4","last_reported":1751972963,"current_range_meters":20800,"station_id":"ce4bgj12rcd13ifvqbc0","pricing_plan_id":"cebpf4jnsgd1na2vs0mg"},{"bike_id":"559ec005-c3ec-45b6-9ae0-ceee93b041d6","system_id":"levelo_inurba_marseille","lat":43.27052,"lon":5.40281,"is_reserved":false,"is_disabled":false,"rental_uris":{"android":"levelo://app?vid=559ec005-c3ec-45b6-9ae0-ceee93b041d6","ios":"levelo://app?vid=559ec005-c3ec-45b6-9ae0-ceee93b041d6"},"vehicle_type_id":"4","last_reported":1751972963,"current_range_meters":20800,"station_id":"ce4bhk92rcd13ifvqgc0","pricing_plan_id":"cebpf4jnsgd1na2vs0mg"},{"bike_id":"7ed38ed9-cc92-4938-9ea8-2968b65d99c6","system_id":"levelo_inurba_marseille","lat":43.27054,"lon":5.40265,"is_reserved":false,"is_disabled":false,"rental_uris":{"android":"levelo://app?vid=7ed38ed9-cc92-4938-9ea8-2968b65d99c6","ios":"levelo://app?vid=7ed38ed9-cc92-4938-9ea8-2968b65d99c6"},"vehicle_type_id":"4","last_reported":1751972963,"current_range_meters":20800,"station_id":"ce4bhk92rcd13ifvqgc0","pricing_plan_id":"cebpf4jnsgd1na2vs0mg"},{"bike_id":"1be39311-cfa5-4cbb-b93d-fb0870d6e611","system_id":"levelo_inurba_marseille","lat":43.21188,"lon":5.35088,"is_reserved":false,"is_disabled":false,"rental_uris":{"android":"levelo://app?vid=1be39311-cfa5-4cbb-b93d-fb0870d6e611","ios":"levelo://app?vid=1be39311-cfa5-4cbb-b93d-fb0870d6e611"},"vehicle_type_id":"4","last_reported":1751972963,"current_range_meters":20800,"station_id":"st_cvj6sg6p6f1abm77japg","pricing_plan_id":"cebpf4jnsgd1na2vs0mg"},{"bike_id":"5a5872c6-a97c-4e06-96d5-1828b33141df","system_id":"levelo_inurba_marseille","lat":43.31314,"lon":5.36865,"is_reserved":false,"is_disabled":false,"rental_uris":{"android":"levelo://app?vid=5a5872c6-a97c-4e06-96d5-1828b33141df","ios":"levelo://app?vid=5a5872c6-a97c-4e06-96d5-1828b33141df"},"vehicle_type_id":"4","last_reported":1751972963,"current_range_meters":21600,"station_id":"","pricing_plan_id":"cebpf4jnsgd1na2vs0mg"},{"bike_id":"c99bf7b6-1af0-4a7c-8d48-e2d536f5e5f2","system_id":"levelo_inurba_marseille","lat":43.29968,"lon":5.37167,"is_reserved":false,"is_disabled":false,"rental_uris":{"android":"levelo://app?vid=c99bf7b6-1af0-4a7c-8d48-e2d536f5e5f2","ios":"levelo://app?vid=c99bf7b6-1af0-4a7c-8d48-e2d536f5e5f2"},"vehicle_type_id":"4","last_reported":1751972963,"current_range_meters":21600,"station_id":"ce4bgr92rcd13ifvqc7g","pricing_plan_id":"cebpf4jnsgd1na2vs0mg"},{"bike_id":"6440dbf7-b508-4bfc-a421-3c2e56f91e67","system_id":"levelo_inurba_marseille","lat":43.30439,"lon":5.36679,"is_reserved":false,"is_disabled":false,"rental_uris":{"android":"levelo://app?vid=6440dbf7-b508-4bfc-a421-3c2e56f91e67","ios":"levelo://app?vid=6440dbf7-b508-4bfc-a421-3c2e56f91e67"},"vehicle_type_id":"4","last_reported":1751972963,"current_range_meters":21600,"station_id":"ce4bgs12rcd13ifvqcag","pricing_plan_id":"cebpf4jnsgd1na2vs0mg"},{"bike_id":"ab04b546-2504-413f-96d8-08d15739aeed","system_id":"levelo_inurba_marseille","lat":43.25936,"lon":5.40883,"is_reserved":false,"is_disabled":false,"rental_uris":{"android":"levelo://app?vid=ab04b546-2504-413f-96d8-08d15739aeed","ios":"levelo://app?vid=ab04b546-2504-413f-96d8-08d15739aeed"},"vehicle_type_id":"4","last_reported":1751972963,"current_range_meters":21600,"station_id":"ce4bhm92rcd13ifvqglg","pricing_plan_id":"cebpf4jnsgd1na2vs0mg"},{"bike_id":"c966e9db-2924-4db0-aef7-da343ca4614a","system_id":"levelo_inurba_marseille","lat":43.29406,"lon":5.38635,"is_reserved":false,"is_disabled":false,"rental_uris":{"android":"levelo://app?vid=c966e9db-2924-4db0-aef7-da343ca4614a","ios":"levelo://app?vid=c966e9db-2924-4db0-aef7-da343ca4614a"},"vehicle_type_id":"4","last_reported":1751972963,"current_range_meters":22000,"station_id":"","pricing_plan_id":"cebpf4jnsgd1na2vs0mg"},{"bike_id":"b0b14fd8-78fe-4c71-8173-5876ab3071ba","system_id":"levelo_inurba_marseille","lat":43.26777,"lon":5.420523,"is_reserved":false,"is_disabled":false,"rental_uris":{"android":"levelo://app?vid=b0b14fd8-78fe-4c71-8173-5876ab3071ba","ios":"levelo://app?vid=b0b14fd8-78fe-4c71-8173-5876ab3071ba"},"vehicle_type_id":"4","last_reported":1751972963,"current_range_meters":22000,"station_id":"","pricing_plan_id":"cebpf4jnsgd1na2vs0mg"},{"bike_id":"fd2095ad-cce6-410f-b9a7-c1db2c6b3d52","system_id":"levelo_inurba_marseille","lat":43.27658,"lon":5.36564,"is_reserved":false,"is_disabled":false,"rental_uris":{"android":"levelo://app?vid=fd2095ad-cce6-410f-b9a7-c1db2c6b3d52","ios":"levelo://app?vid=fd2095ad-cce6-410f-b9a7-c1db2c6b3d52"},"vehicle_type_id":"4","last_reported":1751972963,"current_range_meters":22000,"station_id":"","pricing_plan_id":"cebpf4jnsgd1na2vs0mg"},{"bike_id":"24e6a998-c0ce-4663-a8f0-26705af34ead","system_id":"levelo_inurba_marseille","lat":43.23121,"lon":5.36312,"is_reserved":false,"is_disabled":false,"rental_uris":{"android":"levelo://app?vid=24e6a998-c0ce-4663-a8f0-26705af34ead","ios":"levelo://app?vid=24e6a998-c0ce-4663-a8f0-26705af34ead"},"vehicle_type_id":"4","last_reported":1751972963,"current_range_meters":22000,"station_id":"","pricing_plan_id":"cebpf4jnsgd1na2vs0mg"},{"bike_id":"b0233b24-ca97-4fbb-9b71-0adf46c811fc","system_id":"levelo_inurba_marseille","lat":43.30549,"lon":5.3654,"is_reserved":false,"is_disabled":false,"rental_uris":{"android":"levelo://app?vid=b0233b24-ca97-4fbb-9b71-0adf46c811fc","ios":"levelo://app?vid=b0233b24-ca97-4fbb-9b71-0adf46c811fc"},"vehicle_type_id":"4","last_reported":1751972963,"current_range_meters":22000,"station_id":"ce4bgs12rcd13ifvqcag","pricing_plan_id":"cebpf4jnsgd1na2vs0mg"},{"bike_id":"c1449cc4-77ba-4453-8253-b5435a6c18bb","system_id":"levelo_inurba_marseille","lat":43.3112,"lon":5.3778,"is_reserved":false,"is_disabled":false,"rental_uris":{"android":"levelo://app?vid=c1449cc4-77ba-4453-8253-b5435a6c18bb","ios":"levelo://app?vid=c1449cc4-77ba-4453-8253-b5435a6c18bb"},"vehicle_type_id":"4","last_reported":1751972963,"current_range_meters":22000,"station_id":"ce4bgt92rcd13ifvqcg0","pricing_plan_id":"cebpf4jnsgd1na2vs0mg"},{"bike_id":"566c960b-b4e2-4e75-bb64-574e983ed8a2","system_id":"levelo_inurba_marseille","lat":43.280768,"lon":5.378274,"is_reserved":false,"is_disabled":false,"rental_uris":{"android":"levelo://app?vid=566c960b-b4e2-4e75-bb64-574e983ed8a2","ios":"levelo://app?vid=566c960b-b4e2-4e75-bb64-574e983ed8a2"},"vehicle_type_id":"4","last_reported":1751972963,"current_range_meters":22000,"station_id":"ce4bha12rcd13ifvqee0","pricing_plan_id":"cebpf4jnsgd1na2vs0mg"},{"bike_id":"01479f61-6094-444b-b19c-a744ce6e54bd","system_id":"levelo_inurba_marseille","lat":43.28938,"lon":5.36412,"is_reserved":false,"is_disabled":false,"rental_uris":{"android":"levelo://app?vid=01479f61-6094-444b-b19c-a744ce6e54bd","ios":"levelo://app?vid=01479f61-6094-444b-b19c-a744ce6e54bd"},"vehicle_type_id":"4","last_reported":1751972963,"current_range_meters":22000,"station_id":"ce4bhc92rcd13ifvqetg","pricing_plan_id":"cebpf4jnsgd1na2vs0mg"},{"bike_id":"5a49460b-6b93-4427-b785-d79e0933510b","system_id":"levelo_inurba_marseille","lat":43.25716,"lon":5.4112,"is_reserved":false,"is_disabled":false,"rental_uris":{"android":"levelo://app?vid=5a49460b-6b93-4427-b785-d79e0933510b","ios":"levelo://app?vid=5a49460b-6b93-4427-b785-d79e0933510b"},"vehicle_type_id":"4","last_reported":1751972963,"current_range_meters":22000,"station_id":"ce4bhkp2rcd13ifvqgd0","pricing_plan_id":"cebpf4jnsgd1na2vs0mg"},{"bike_id":"c5a80564-e160-404c-9735-0451fb0ff256","system_id":"levelo_inurba_marseille","lat":43.28728,"lon":5.36098,"is_reserved":false,"is_disabled":false,"rental_uris":{"android":"levelo://app?vid=c5a80564-e160-404c-9735-0451fb0ff256","ios":"levelo://app?vid=c5a80564-e160-404c-9735-0451fb0ff256"},"vehicle_type_id":"4","last_reported":1751972963,"current_range_meters":22000,"station_id":"cki0cbj6b192h4jlfktg","pricing_plan_id":"cebpf4jnsgd1na2vs0mg"},{"bike_id":"999f2a33-af15-4ca0-853a-d2550f2d6574","system_id":"levelo_inurba_marseille","lat":43.234464,"lon":5.359227,"is_reserved":false,"is_disabled":false,"rental_uris":{"android":"levelo://app?vid=999f2a33-af15-4ca0-853a-d2550f2d6574","ios":"levelo://app?vid=999f2a33-af15-4ca0-853a-d2550f2d6574"},"vehicle_type_id":"4","last_reported":1751972963,"current_range_meters":22400,"station_id":"","pricing_plan_id":"cebpf4jnsgd1na2vs0mg"},{"bike_id":"4c39f19b-bc8c-4f48-a68a-783b9001bb61","system_id":"levelo_inurba_marseille","lat":43.30319,"lon":5.36905,"is_reserved":false,"is_disabled":false,"rental_uris":{"android":"levelo://app?vid=4c39f19b-bc8c-4f48-a68a-783b9001bb61","ios":"levelo://app?vid=4c39f19b-bc8c-4f48-a68a-783b9001bb61"},"vehicle_type_id":"4","last_reported":1751972963,"current_range_meters":22400,"station_id":"ce4bgqh2rcd13ifvqc5g","pricing_plan_id":"cebpf4jnsgd1na2vs0mg"},{"bike_id":"bcacd097-beda-4582-ad51-3aea3634b870","system_id":"levelo_inurba_marseille","lat":43.30883,"lon":5.372,"is_reserved":false,"is_disabled":false,"rental_uris":{"android":"levelo://app?vid=bcacd097-beda-4582-ad51-3aea3634b870","ios":"levelo://app?vid=bcacd097-beda-4582-ad51-3aea3634b870"},"vehicle_type_id":"4","last_reported":1751972963,"current_range_meters":22400,"station_id":"ce4bguh2rcd13ifvqckg","pricing_plan_id":"cebpf4jnsgd1na2vs0mg"},{"bike_id":"c4842ce1-40cf-4c0a-acee-2f8a40e529f3","system_id":"levelo_inurba_marseille","lat":43.29877,"lon":5.39735,"is_reserved":false,"is_disabled":false,"rental_uris":{"android":"levelo://app?vid=c4842ce1-40cf-4c0a-acee-2f8a40e529f3","ios":"levelo://app?vid=c4842ce1-40cf-4c0a-acee-2f8a40e529f3"},"vehicle_type_id":"4","last_reported":1751972963,"current_range_meters":22400,"station_id":"ce4bh0h2rcd13ifvqd50","pricing_plan_id":"cebpf4jnsgd1na2vs0mg"},{"bike_id":"089d9a73-97e4-4c6a-a621-08274d4dc2a3","system_id":"levelo_inurba_marseille","lat":43.27177,"lon":5.40997,"is_reserved":false,"is_disabled":false,"rental_uris":{"android":"levelo://app?vid=089d9a73-97e4-4c6a-a621-08274d4dc2a3","ios":"levelo://app?vid=089d9a73-97e4-4c6a-a621-08274d4dc2a3"},"vehicle_type_id":"4","last_reported":1751972963,"current_range_meters":22400,"station_id":"ce4bhl12rcd13ifvqgf0","pricing_plan_id":"cebpf4jnsgd1na2vs0mg"},{"bike_id":"e68b7b3b-2f4d-475b-b02c-32e29cb5c98d","system_id":"levelo_inurba_marseille","lat":43.33031,"lon":5.39047,"is_reserved":false,"is_disabled":false,"rental_uris":{"android":"levelo://app?vid=e68b7b3b-2f4d-475b-b02c-32e29cb5c98d","ios":"levelo://app?vid=e68b7b3b-2f4d-475b-b02c-32e29cb5c98d"},"vehicle_type_id":"4","last_reported":1751972963,"current_range_meters":22400,"station_id":"ce4bhr92rcd13ifvqhrg","pricing_plan_id":"cebpf4jnsgd1na2vs0mg"},{"bike_id":"cfe4010c-2112-4442-8740-784a76333861","system_id":"levelo_inurba_marseille","lat":43.21766,"lon":5.34621,"is_reserved":false,"is_disabled":false,"rental_uris":{"android":"levelo://app?vid=cfe4010c-2112-4442-8740-784a76333861","ios":"levelo://app?vid=cfe4010c-2112-4442-8740-784a76333861"},"vehicle_type_id":"4","last_reported":1751972963,"current_range_meters":22400,"station_id":"st_cvj6r9ubvosntc0bgbag","pricing_plan_id":"cebpf4jnsgd1na2vs0mg"},{"bike_id":"40fa92fc-f934-431e-b290-17833f63b829","system_id":"levelo_inurba_marseille","lat":43.23236,"lon":5.35581,"is_reserved":false,"is_disabled":false,"rental_uris":{"android":"levelo://app?vid=40fa92fc-f934-431e-b290-17833f63b829","ios":"levelo://app?vid=40fa92fc-f934-431e-b290-17833f63b829"},"vehicle_type_id":"4","last_reported":1751972963,"current_range_meters":22800,"station_id":"","pricing_plan_id":"cebpf4jnsgd1na2vs0mg"},{"bike_id":"1bf16519-06b6-47f1-93e5-55007474e02d","system_id":"levelo_inurba_marseille","lat":43.30921,"lon":5.40167,"is_reserved":false,"is_disabled":false,"rental_uris":{"android":"levelo://app?vid=1bf16519-06b6-47f1-93e5-55007474e02d","ios":"levelo://app?vid=1bf16519-06b6-47f1-93e5-55007474e02d"},"vehicle_type_id":"4","last_reported":1751972963,"current_range_meters":22800,"station_id":"ce4bgvp2rcd13ifvqct0","pricing_plan_id":"cebpf4jnsgd1na2vs0mg"},{"bike_id":"8b1558aa-606e-4044-8b91-c294e471962e","system_id":"levelo_inurba_marseille","lat":43.27921,"lon":5.39583,"is_reserved":false,"is_disabled":false,"rental_uris":{"android":"levelo://app?vid=8b1558aa-606e-4044-8b91-c294e471962e","ios":"levelo://app?vid=8b1558aa-606e-4044-8b91-c294e471962e"},"vehicle_type_id":"4","last_reported":1751972963,"current_range_meters":22800,"station_id":"ce4bhf92rcd13ifvqf40","pricing_plan_id":"cebpf4jnsgd1na2vs0mg"},{"bike_id":"49a22e26-d6fd-4a89-a381-bd8989524516","system_id":"levelo_inurba_marseille","lat":43.25721,"lon":5.41116,"is_reserved":false,"is_disabled":false,"rental_uris":{"android":"levelo://app?vid=49a22e26-d6fd-4a89-a381-bd8989524516","ios":"levelo://app?vid=49a22e26-d6fd-4a89-a381-bd8989524516"},"vehicle_type_id":"4","last_reported":1751972963,"current_range_meters":22800,"station_id":"ce4bhkp2rcd13ifvqgd0","pricing_plan_id":"cebpf4jnsgd1na2vs0mg"},{"bike_id":"5b8b7ba9-e197-4bb8-98d6-dfd164565c3c","system_id":"levelo_inurba_marseille","lat":43.25084,"lon":5.39506,"is_reserved":false,"is_disabled":false,"rental_uris":{"android":"levelo://app?vid=5b8b7ba9-e197-4bb8-98d6-dfd164565c3c","ios":"levelo://app?vid=5b8b7ba9-e197-4bb8-98d6-dfd164565c3c"},"vehicle_type_id":"4","last_reported":1751972963,"current_range_meters":22800,"station_id":"ce4bhm12rcd13ifvqgkg","pricing_plan_id":"cebpf4jnsgd1na2vs0mg"},{"bike_id":"f9c4b4ee-a171-4e8d-857d-60ea4d0e6a13","system_id":"levelo_inurba_marseille","lat":43.32364,"lon":5.40603,"is_reserved":false,"is_disabled":false,"rental_uris":{"android":"levelo://app?vid=f9c4b4ee-a171-4e8d-857d-60ea4d0e6a13","ios":"levelo://app?vid=f9c4b4ee-a171-4e8d-857d-60ea4d0e6a13"},"vehicle_type_id":"4","last_reported":1751972963,"current_range_meters":22800,"station_id":"ce4bhq92rcd13ifvqhjg","pricing_plan_id":"cebpf4jnsgd1na2vs0mg"},{"bike_id":"779e1734-651e-4c56-840c-6d2319b7cadb","system_id":"levelo_inurba_marseille","lat":43.323647,"lon":5.367499,"is_reserved":false,"is_disabled":false,"rental_uris":{"android":"levelo://app?vid=779e1734-651e-4c56-840c-6d2319b7cadb","ios":"levelo://app?vid=779e1734-651e-4c56-840c-6d2319b7cadb"},"vehicle_type_id":"4","last_reported":1751972963,"current_range_meters":22800,"station_id":"ce4bhsh2rcd13ifvqi2g","pricing_plan_id":"cebpf4jnsgd1na2vs0mg"},{"bike_id":"3030cb07-c041-4d87-a253-8c849c24aa85","system_id":"levelo_inurba_marseille","lat":43.32722,"lon":5.36436,"is_reserved":false,"is_disabled":false,"rental_uris":{"android":"levelo://app?vid=3030cb07-c041-4d87-a253-8c849c24aa85","ios":"levelo://app?vid=3030cb07-c041-4d87-a253-8c849c24aa85"},"vehicle_type_id":"4","last_reported":1751972963,"current_range_meters":23200,"station_id":"","pricing_plan_id":"cebpf4jnsgd1na2vs0mg"},{"bike_id":"306ce1a6-757b-4897-8796-d879ee9a33eb","system_id":"levelo_inurba_marseille","lat":43.29144,"lon":5.40866,"is_reserved":false,"is_disabled":false,"rental_uris":{"android":"levelo://app?vid=306ce1a6-757b-4897-8796-d879ee9a33eb","ios":"levelo://app?vid=306ce1a6-757b-4897-8796-d879ee9a33eb"},"vehicle_type_id":"4","last_reported":1751972963,"current_range_meters":23200,"station_id":"","pricing_plan_id":"cebpf4jnsgd1na2vs0mg"},{"bike_id":"aa2c103f-0c96-4030-a9e2-09d1c15c1940","system_id":"levelo_inurba_marseille","lat":43.31227,"lon":5.36849,"is_reserved":false,"is_disabled":false,"rental_uris":{"android":"levelo://app?vid=aa2c103f-0c96-4030-a9e2-09d1c15c1940","ios":"levelo://app?vid=aa2c103f-0c96-4030-a9e2-09d1c15c1940"},