{"last_updated":1701079693,"ttl":30,"version":"2.2","data":{"bikes":[{"bike_id":"1e80ff6f-214d-452e-a1df-88c480549762","system_id":"levelo_inurba_marseille","lat":43.313391,"lon":5.36706,"is_reserved":false,"is_disabled":false,"rental_uris":{"android":"levelo://app?vid=1e80ff6f-214d-452e-a1df-88c480549762","ios":"levelo://app?vid=1e80ff6f-214d-452e-a1df-88c480549762"},"vehicle_type_id":"4","last_reported":1701079693,"current_range_meters":31600,"station_id":"ce4bgr92rcd13ifvqc6g","pricing_plan_id":"free"},{"bike_id":"dbd22c5b-f318-460a-95cd-c007a476a760","system_id":"levelo_inurba_marseille","lat":43.31341,"lon":5.367098,"is_reserved":false,"is_disabled":false,"rental_uris":{"android":"levelo://app?vid=dbd22c5b-f318-460a-95cd-c007a476a760","ios":"levelo://app?vid=dbd22c5b-f318-460a-95cd-c007a476a760"},"vehicle_type_id":"4","last_reported":1701079693,"current_range_meters":28000,"station_id":"ce4bgr92rcd13ifvqc6g","pricing_plan_id":"free"},{"bike_id":"31957fb2-72e6-4c8e-8e26-9be3ddd27507","system_id":"levelo_inurba_marseille","lat":43.31341,"lon":5.367098,"is_reserved":false,"is_disabled":false,"rental_uris":{"android":"levelo://app?vid=31957fb2-72e6-4c8e-8e26-9be3ddd27507","ios":"levelo://app?vid=31957fb2-72e6-4c8e-8e26-9be3ddd27507"},"vehicle_type_id":"4","last_reported":1701079693,"current_range_meters":18000,"station_id":"ce4bgr92rcd13ifvqc6g","pricing_plan_id":"free"},{"bike_id":"6d6fe16b-8fcd-4dda-95b2-f6e72b00fabb","system_id":"levelo_inurba_marseille","lat":43.313391,"lon":5.36706,"is_reserved":false,"is_disabled":false,"rental_uris":{"android":"levelo://app?vid=6d6fe16b-8fcd-4dda-95b2-f6e72b00fabb","ios":"levelo://app?vid=6d6fe16b-8fcd-4dda-95b2-f6e72b00fabb"},"vehicle_type_id":"4","last_reported":1701079693,"current_range_meters":27200,"station_id":"ce4bgr92rcd13ifvqc6g","pricing_plan_id":"free"},{"bike_id":"0e07f4dc-f05c-4a47-a7fc-9cf5a2bc7aff","system_id":"levelo_inurba_marseille","lat":43.31341,"lon":5.367098,"is_reserved":false,"is_disabled":false,"rental_uris":{"android":"levelo://app?vid=0e07f4dc-f05c-4a47-a7fc-9cf5a2bc7aff","ios":"levelo://app?vid=0e07f4dc-f05c-4a47-a7fc-9cf5a2bc7aff"},"vehicle_type_id":"4","last_reported":1701079693,"current_range_meters":31600,"station_id":"ce4bgr92rcd13ifvqc6g","pricing_plan_id":"free"},{"bike_id":"7e426172-5489-45eb-b667-9fa774e25806","system_id":"levelo_inurba_marseille","lat":43.313391,"lon":5.36706,"is_reserved":false,"is_disabled":false,"rental_uris":{"android":"levelo://app?vid=7e426172-5489-45eb-b667-9fa774e25806","ios":"levelo://app?vid=7e426172-5489-45eb-b667-9fa774e25806"},"vehicle_type_id":"4","last_reported":1701079693,"current_range_meters":18400,"station_id":"ce4bgr92rcd13ifvqc6g","pricing_plan_id":"free"},{"bike_id":"3214e857-702f-4f77-a7ed-15c1738fb98d","system_id":"levelo_inurba_marseille","lat":43.313391,"lon":5.36706,"is_reserved":false,"is_disabled":false,"rental_uris":{"android":"levelo://app?vid=3214e857-702f-4f77-a7ed-15c1738fb98d","ios":"levelo://app?vid=3214e857-702f-4f77-a7ed-15c1738fb98d"},"vehicle_type_id":"4","last_reported":1701079693,"current_range_meters":17200,"station_id":"ce4bgr92rcd13ifvqc6g","pricing_plan_id":"free"},{"bike_id":"8d7fd8e2-e915-4a9b-ac22-a9a9c8c23e6d","system_id":"levelo_inurba_marseille","lat":43.31341,"lon":5.367098,"is_reserved":false,"is_disabled":false,"rental_uris":{"android":"levelo://app?vid=8d7fd8e2-e915-4a9b-ac22-a9a9c8c23e6d","ios":"levelo://app?vid=8d7fd8e2-e915-4a9b-ac22-a9a9c8c23e6d"},"vehicle_type_id":"4","last_reported":1701079693,"current_range_meters":27200,"station_id":"ce4bgr92rcd13ifvqc6g","pricing_plan_id":"free"},{"bike_id":"0181b0ac-1d1e-43e1-bcf7-6197a5307a14","system_id":"levelo_inurba_marseille","lat":43.313391,"lon":5.36706,"is_reserved":false,"is_disabled":false,"rental_uris":{"android":"levelo://app?vid=0181b0ac-1d1e-43e1-bcf7-6197a5307a14","ios":"levelo://app?vid=0181b0ac-1d1e-43e1-bcf7-6197a5307a14"},"vehicle_type_id":"4","last_reported":1701079693,"current_range_meters":31200,"station_id":"ce4bgr92rcd13ifvqc6g","pricing_plan_id":"free"},{"bike_id":"f79e56b7-07fc-4cbb-8c5f-1219abdbaaa0","system_id":"levelo_inurba_marseille","lat":43.31341,"lon":5.367098,"is_reserved":false,"is_disabled":false,"rental_uris":{"android":"levelo://app?vid=f79e56b7-07fc-4cbb-8c5f-1219abdbaaa0","ios":"levelo://app?vid=f79e56b7-07fc-4cbb-8c5f-1219abdbaaa0"},"vehicle_type_id":"4","last_reported":1701079693,"current_range_meters":14400,"station_id":"ce4bgr92rcd13ifvqc6g","pricing_plan_id":"free"},{"bike_id":"196ffaf2-63f9-4e0e-beee-cd70322d6dc7","system_id":"levelo_inurba_marseille","lat":43.31341,"lon":5.367098,"is_reserved":false,"is_disabled":false,"rental_uris":{"android":"levelo://app?vid=196ffaf2-63f9-4e0e-beee-cd70322d6dc7","ios":"levelo://app?vid=196ffaf2-63f9-4e0e-beee-cd70322d6dc7"},"vehicle_type_id":"4","last_reported":1701079693,"current_range_meters":9600,"station_id":"ce4bgr92rcd13ifvqc6g","pricing_plan_id":"free"},{"bike_id":"d91cb1a5-9e69-484c-aa49-7e1232aa7a8e","system_id":"levelo_inurba_marseille","lat":43.31341,"lon":5.367098,"is_reserved":false,"is_disabled":false,"rental_uris":{"android":"levelo://app?vid=d91cb1a5-9e69-484c-aa49-7e1232aa7a8e","ios":"levelo://app?vid=d91cb1a5-9e69-484c-aa49-7e1232aa7a8e"},"vehicle_type_id":"4","last_reported":1701079693,"current_range_meters":4000,"station_id":"ce4bgr92rcd13ifvqc6g","pricing_plan_id":"free"},{"bike_id":"7a49c674-02e5-4194-aa5f-be20151e8ae9","system_id":"levelo_inurba_marseille","lat":43.313391,"lon":5.36706,"is_reserved":false,"is_disabled":false,"rental_uris":{"android":"levelo://app?vid=7a49c674-02e5-4194-aa5f-be20151e8ae9","ios":"levelo://app?vid=7a49c674-02e5-4194-aa5f-be20151e8ae9"},"vehicle_type_id":"4","last_reported":1701079693,"current_range_meters":19200,"station_id":"ce4bgr92rcd13ifvqc6g","pricing_plan_id":"free"},{"bike_id":"e627dfde-acbe-4c06-9bf7-27e07c1460dc","system_id":"levelo_inurba_marseille","lat":43.312239,"lon":5.368562,"is_reserved":false,"is_disabled":false,"rental_uris":{"android":"levelo://app?vid=e627dfde-acbe-4c06-9bf7-27e07c1460dc","ios":"levelo://app?vid=e627dfde-acbe-4c06-9bf7-27e07c1460dc"},"vehicle_type_id":"4","last_reported":1701079693,"current_range_meters":13200,"station_id":"ce4bgl92rcd13ifvqbq0","pricing_plan_id":"free"},{"bike_id":"df7f1710-213d-4be5-86a8-93f4a5b41e94","system_id":"levelo_inurba_marseille","lat":43.312239,"lon":5.368562,"is_reserved":false,"is_disabled":false,"rental_uris":{"android":"levelo://app?vid=df7f1710-213d-4be5-86a8-93f4a5b41e94","ios":"levelo://app?vid=df7f1710-213d-4be5-86a8-93f4a5b41e94"},"vehicle_type_id":"4","last_reported":1701079693,"current_range_meters":30000,"station_id":"ce4bgl92rcd13ifvqbq0","pricing_plan_id":"free"},{"bike_id":"e9acd7ca-88eb-444c-b136-4a3cc05351db","system_id":"levelo_inurba_marseille","lat":43.312396,"lon":5.368667,"is_reserved":false,"is_disabled":false,"rental_uris":{"android":"levelo://app?vid=e9acd7ca-88eb-444c-b136-4a3cc05351db","ios":"levelo://app?vid=e9acd7ca-88eb-444c-b136-4a3cc05351db"},"vehicle_type_id":"4","last_reported":1701079693,"current_range_meters":24000,"station_id":"ce4bgl92rcd13ifvqbq0","pricing_plan_id":"free"},{"bike_id":"54a3edee-7dd6-450a-95cb-5e8e3887766b","system_id":"levelo_inurba_marseille","lat":43.312239,"lon":5.368562,"is_reserved":false,"is_disabled":false,"rental_uris":{"android":"levelo://app?vid=54a3edee-7dd6-450a-95cb-5e8e3887766b","ios":"levelo://app?vid=54a3edee-7dd6-450a-95cb-5e8e3887766b"},"vehicle_type_id":"4","last_reported":1701079693,"current_range_meters":28800,"station_id":"ce4bgl92rcd13ifvqbq0","pricing_plan_id":"free"},{"bike_id":"12ba8f6d-2b00-46a4-b742-3c11d58ec4b2","system_id":"levelo_inurba_marseille","lat":43.312239,"lon":5.368562,"is_reserved":false,"is_disabled":false,"rental_uris":{"android":"levelo://app?vid=12ba8f6d-2b00-46a4-b742-3c11d58ec4b2","ios":"levelo://app?vid=12ba8f6d-2b00-46a4-b742-3c11d58ec4b2"},"vehicle_type_id":"4","last_reported":1701079693,"current_range_meters":21200,"station_id":"ce4bgl92rcd13ifvqbq0","pricing_plan_id":"free"},{"bike_id":"592bf423-8cd0-4d0b-97bd-bc6ceb739d49","system_id":"levelo_inurba_marseille","lat":43.309076,"lon":5.368465,"is_reserved":false,"is_disabled":false,"rental_uris":{"android":"levelo://app?vid=592bf423-8cd0-4d0b-97bd-bc6ceb739d49","ios":"levelo://app?vid=592bf423-8cd0-4d0b-97bd-bc6ceb739d49"},"vehicle_type_id":"4","last_reported":1701079693,"current_range_meters":31200,"station_id":"ce4bgn92rcd13ifvqbvg","pricing_plan_id":"free"},{"bike_id":"83ebfac8-dbe6-444d-b597-d89673b1bcc5","system_id":"levelo_inurba_marseille","lat":43.309076,"lon":5.368465,"is_reserved":false,"is_disabled":false,"rental_uris":{"android":"levelo://app?vid=83ebfac8-dbe6-444d-b597-d89673b1bcc5","ios":"levelo://app?vid=83ebfac8-dbe6-444d-b597-d89673b1bcc5"},"vehicle_type_id":"4","last_reported":1701079693,"current_range_meters":30400,"station_id":"ce4bgn92rcd13ifvqbvg","pricing_plan_id":"free"},{"bike_id":"c0bb7f49-ff87-427d-b841-623849910a14","system_id":"levelo_inurba_marseille","lat":43.309076,"lon":5.368465,"is_reserved":false,"is_disabled":false,"rental_uris":{"android":"levelo://app?vid=c0bb7f49-ff87-427d-b841-623849910a14","ios":"levelo://app?vid=c0bb7f49-ff87-427d-b841-623849910a14"},"vehicle_type_id":"4","last_reported":1701079693,"current_range_meters":25600,"station_id":"ce4bgn92rcd13ifvqbvg","pricing_plan_id":"free"},{"bike_id":"1a4569e2-f9a1-40c3-9474-5ecbcdd8e5ad","system_id":"levelo_inurba_marseille","lat":43.309076,"lon":5.368465,"is_reserved":false,"is_disabled":false,"rental_uris":{"android":"levelo://app?vid=1a4569e2-f9a1-40c3-9474-5ecbcdd8e5ad","ios":"levelo://app?vid=1a4569e2-f9a1-40c3-9474-5ecbcdd8e5ad"},"vehicle_type_id":"4","last_reported":1701079693,"current_range_meters":24800,"station_id":"ce4bgn92rcd13ifvqbvg","pricing_plan_id":"free"},{"bike_id":"8678b2b8-c06c-49e1-9031-4e114abe705f","system_id":"levelo_inurba_marseille","lat":43.309076,"lon":5.368465,"is_reserved":false,"is_disabled":false,"rental_uris":{"android":"levelo://app?vid=8678b2b8-c06c-49e1-9031-4e114abe705f","ios":"levelo://app?vid=8678b2b8-c06c-49e1-9031-4e114abe705f"},"vehicle_type_id":"4","last_reported":1701079693,"current_range_meters":31600,"station_id":"ce4bgn92rcd13ifvqbvg","pricing_plan_id":"free"},{"bike_id":"cfa47124-069d-4f93-a30b-8ce1195b2bbf","system_id":"levelo_inurba_marseille","lat":43.314811,"lon":5.373103,"is_reserved":false,"is_disabled":false,"rental_uris":{"android":"levelo://app?vid=cfa47124-069d-4f93-a30b-8ce1195b2bbf","ios":"levelo://app?vid=cfa47124-069d-4f93-a30b-8ce1195b2bbf"},"vehicle_type_id":"4","last_reported":1701079693,"current_range_meters":28000,"station_id":"ce4bgt12rcd13ifvqcd0","pricing_plan_id":"free"},{"bike_id":"8c744303-e4fa-4bd9-b136-aabcbe448fd1","system_id":"levelo_inurba_marseille","lat":43.314811,"lon":5.373104,"is_reserved":false,"is_disabled":false,"rental_uris":{"android":"levelo://app?vid=8c744303-e4fa-4bd9-b136-aabcbe448fd1","ios":"levelo://app?vid=8c744303-e4fa-4bd9-b136-aabcbe448fd1"},"vehicle_type_id":"4","last_reported":1701079693,"current_range_meters":20400,"station_id":"ce4bgt12rcd13ifvqcd0","pricing_plan_id":"free"},{"bike_id":"3db6e48f-354b-4019-ac87-a201f9b89acd","system_id":"levelo_inurba_marseille","lat":43.314811,"lon":5.373104,"is_reserved":false,"is_disabled":false,"rental_uris":{"android":"levelo://app?vid=3db6e48f-354b-4019-ac87-a201f9b89acd","ios":"levelo://app?vid=3db6e48f-354b-4019-ac87-a201f9b89acd"},"vehicle_type_id":"4","last_reported":1701079693,"current_range_meters":27600,"station_id":"ce4bgt12rcd13ifvqcd0","pricing_plan_id":"free"},{"bike_id":"fa4c08a8-f79b-4419-8791-02374ece74c7","system_id":"levelo_inurba_marseille","lat":43.316925,"lon":5.37265,"is_reserved":false,"is_disabled":false,"rental_uris":{"android":"levelo://app?vid=fa4c08a8-f79b-4419-8791-02374ece74c7","ios":"levelo://app?vid=fa4c08a8-f79b-4419-8791-02374ece74c7"},"vehicle_type_id":"4","last_reported":1701079693,"current_range_meters":6400,"station_id":"","pricing_plan_id":"free"},{"bike_id":"ce53f1ef-316e-47d0-a83f-6234c0c23a46","system_id":"levelo_inurba_marseille","lat":43.305712,"lon":5.365641,"is_reserved":false,"is_disabled":false,"rental_uris":{"android":"levelo://app?vid=ce53f1ef-316e-47d0-a83f-6234c0c23a46","ios":"levelo://app?vid=ce53f1ef-316e-47d0-a83f-6234c0c23a46"},"vehicle_type_id":"4","last_reported":1701079693,"current_range_meters":22800,"station_id":"ce4bgs12rcd13ifvqcag","pricing_plan_id":"free"},{"bike_id":"07dd9e58-e5cc-4d6a-b664-833180db3f6b","system_id":"levelo_inurba_marseille","lat":43.305368,"lon":5.367343,"is_reserved":false,"is_disabled":false,"rental_uris":{"android":"levelo://app?vid=07dd9e58-e5cc-4d6a-b664-833180db3f6b","ios":"levelo://app?vid=07dd9e58-e5cc-4d6a-b664-833180db3f6b"},"vehicle_type_id":"4","last_reported":1701079693,"current_range_meters":24000,"station_id":"ce4bgrp2rcd13ifvqc9g","pricing_plan_id":"free"},{"bike_id":"d7ba5940-f446-4600-92e5-efceffee6cf7","system_id":"levelo_inurba_marseille","lat":43.305368,"lon":5.367343,"is_reserved":false,"is_disabled":false,"rental_uris":{"android":"levelo://app?vid=d7ba5940-f446-4600-92e5-efceffee6cf7","ios":"levelo://app?vid=d7ba5940-f446-4600-92e5-efceffee6cf7"},"vehicle_type_id":"4","last_reported":1701079693,"current_range_meters":28400,"station_id":"ce4bgrp2rcd13ifvqc9g","pricing_plan_id":"free"},{"bike_id":"d783f12e-d0e4-46f2-9f03-268448d77314","system_id":"levelo_inurba_marseille","lat":43.30539,"lon":5.367253,"is_reserved":false,"is_disabled":false,"rental_uris":{"android":"levelo://app?vid=d783f12e-d0e4-46f2-9f03-268448d77314","ios":"levelo://app?vid=d783f12e-d0e4-46f2-9f03-268448d77314"},"vehicle_type_id":"4","last_reported":1701079693,"current_range_meters":17200,"station_id":"ce4bgrp2rcd13ifvqc9g","pricing_plan_id":"free"},{"bike_id":"1b937c6a-ed40-4e57-befc-e3eb34e430a4","system_id":"levelo_inurba_marseille","lat":43.305714,"lon":5.365633,"is_reserved":false,"is_disabled":false,"rental_uris":{"android":"levelo://app?vid=1b937c6a-ed40-4e57-befc-e3eb34e430a4","ios":"levelo://app?vid=1b937c6a-ed40-4e57-befc-e3eb34e430a4"},"vehicle_type_id":"4","last_reported":1701079693,"current_range_meters":4400,"station_id":"ce4bgs12rcd13ifvqcag","pricing_plan_id":"free"},{"bike_id":"f6811842-2f1e-46ac-a3b0-f0446229545b","system_id":"levelo_inurba_marseille","lat":43.305368,"lon":5.367343,"is_reserved":false,"is_disabled":false,"rental_uris":{"android":"levelo://app?vid=f6811842-2f1e-46ac-a3b0-f0446229545b","ios":"levelo://app?vid=f6811842-2f1e-46ac-a3b0-f0446229545b"},"vehicle_type_id":"4","last_reported":1701079693,"current_range_meters":28000,"station_id":"ce4bgrp2rcd13ifvqc9g","pricing_plan_id":"free"},{"bike_id":"b1cb7dd5-7e1e-4b8f-a0e9-4c4fdc0f6c22","system_id":"levelo_inurba_marseille","lat":43.305714,"lon":5.365633,"is_reserved":false,"is_disabled":false,"rental_uris":{"android":"levelo://app?vid=b1cb7dd5-7e1e-4b8f-a0e9-4c4fdc0f6c22","ios":"levelo://app?vid=b1cb7dd5-7e1e-4b8f-a0e9-4c4fdc0f6c22"},"vehicle_type_id":"4","last_reported":1701079693,"current_range_meters":28800,"station_id":"ce4bgs12rcd13ifvqcag","pricing_plan_id":"free"},{"bike_id":"1c8b667d-3f74-4307-ad41-8e61e63a63f7","system_id":"levelo_inurba_marseille","lat":43.30536,"lon":5.36715,"is_reserved":false,"is_disabled":false,"rental_uris":{"android":"levelo://app?vid=1c8b667d-3f74-4307-ad41-8e61e63a63f7","ios":"levelo://app?vid=1c8b667d-3f74-4307-ad41-8e61e63a63f7"},"vehicle_type_id":"4","last_reported":1701079693,"current_range_meters":22000,"station_id":"ce4bgrp2rcd13ifvqc9g","pricing_plan_id":"free"},{"bike_id":"9161c445-e810-419e-81cf-7ccecee3ce08","system_id":"levelo_inurba_marseille","lat":43.305714,"lon":5.365633,"is_reserved":false,"is_disabled":false,"rental_uris":{"android":"levelo://app?vid=9161c445-e810-419e-81cf-7ccecee3ce08","ios":"levelo://app?vid=9161c445-e810-419e-81cf-7ccecee3ce08"},"vehicle_type_id":"4","last_reported":1701079693,"current_range_meters":15600,"station_id":"ce4bgs12rcd13ifvqcag","pricing_plan_id":"free"},{"bike_id":"a7e7b01c-cece-48de-97be-e5c04ce16e86","system_id":"levelo_inurba_marseille","lat":43.305714,"lon":5.365633,"is_reserved":false,"is_disabled":false,"rental_uris":{"android":"levelo://app?vid=a7e7b01c-cece-48de-97be-e5c04ce16e86","ios":"levelo://app?vid=a7e7b01c-cece-48de-97be-e5c04ce16e86"},"vehicle_type_id":"4","last_reported":1701079693,"current_range_meters":22000,"station_id":"ce4bgs12rcd13ifvqcag","pricing_plan_id":"free"},{"bike_id":"2268a2f4-fb49-46e5-bac7-c552d506e322","system_id":"levelo_inurba_marseille","lat":43.305714,"lon":5.365633,"is_reserved":false,"is_disabled":false,"rental_uris":{"android":"levelo://app?vid=2268a2f4-fb49-46e5-bac7-c552d506e322","ios":"levelo://app?vid=2268a2f4-fb49-46e5-bac7-c552d506e322"},"vehicle_type_id":"4","last_reported":1701079693,"current_range_meters":18000,"station_id":"ce4bgs12rcd13ifvqcag","pricing_plan_id":"free"},{"bike_id":"f76f91fc-a8e2-4cd3-980d-1622fb650a47","system_id":"levelo_inurba_marseille","lat":43.305706,"lon":5.365654,"is_reserved":false,"is_disabled":false,"rental_uris":{"android":"levelo://app?vid=f76f91fc-a8e2-4cd3-980d-1622fb650a47","ios":"levelo://app?vid=f76f91fc-a8e2-4cd3-980d-1622fb650a47"},"vehicle_type_id":"4","last_reported":1701079693,"current_range_meters":25200,"station_id":"ce4bgs12rcd13ifvqcag","pricing_plan_id":"free"},{"bike_id":"f8e46a7e-6953-452a-80e1-dd49ee8b550c","system_id":"levelo_inurba_marseille","lat":43.305335,"lon":5.367095,"is_reserved":false,"is_disabled":false,"rental_uris":{"android":"levelo://app?vid=f8e46a7e-6953-452a-80e1-dd49ee8b550c","ios":"levelo://app?vid=f8e46a7e-6953-452a-80e1-dd49ee8b550c"},"vehicle_type_id":"4","last_reported":1701079693,"current_range_meters":28000,"station_id":"ce4bgrp2rcd13ifvqc9g","pricing_plan_id":"free"},{"bike_id":"e986844b-901f-45bc-ad75-e081ca31eb3c","system_id":"levelo_inurba_marseille","lat":43.305714,"lon":5.365633,"is_reserved":false,"is_disabled":false,"rental_uris":{"android":"levelo://app?vid=e986844b-901f-45bc-ad75-e081ca31eb3c","ios":"levelo://app?vid=e986844b-901f-45bc-ad75-e081ca31eb3c"},"vehicle_type_id":"4","last_reported":1701079693,"current_range_meters":31600,"station_id":"ce4bgs12rcd13ifvqcag","pricing_plan_id":"free"},{"bike_id":"9798151f-f90c-4ba8-8293-cbf829f759b7","system_id":"levelo_inurba_marseille","lat":43.305714,"lon":5.365633,"is_reserved":false,"is_disabled":false,"rental_uris":{"android":"levelo://app?vid=9798151f-f90c-4ba8-8293-cbf829f759b7","ios":"levelo://app?vid=9798151f-f90c-4ba8-8293-cbf829f759b7"},"vehicle_type_id":"4","last_reported":1701079693,"current_range_meters":16800,"station_id":"ce4bgs12rcd13ifvqcag","pricing_plan_id":"free"},{"bike_id":"9fe00c74-8b57-4511-aea7-8ad72fa7a323","system_id":"levelo_inurba_marseille","lat":43.305706,"lon":5.365654,"is_reserved":false,"is_disabled":false,"rental_uris":{"android":"levelo://app?vid=9fe00c74-8b57-4511-aea7-8ad72fa7a323","ios":"levelo://app?vid=9fe00c74-8b57-4511-aea7-8ad72fa7a323"},"vehicle_type_id":"4","last_reported":1701079693,"current_range_meters":18400,"station_id":"ce4bgs12rcd13ifvqcag","pricing_plan_id":"free"},{"bike_id":"9befadc5-b3b0-41aa-9980-7c9b7889cec4","system_id":"levelo_inurba_marseille","lat":43.30529,"lon":5.367187,"is_reserved":false,"is_disabled":false,"rental_uris":{"android":"levelo://app?vid=9befadc5-b3b0-41aa-9980-7c9b7889cec4","ios":"levelo://app?vid=9befadc5-b3b0-41aa-9980-7c9b7889cec4"},"vehicle_type_id":"4","last_reported":1701079693,"current_range_meters":16400,"station_id":"ce4bgrp2rcd13ifvqc9g","pricing_plan_id":"free"},{"bike_id":"9d01288a-b778-4e24-9b58-220029914c9c","system_id":"levelo_inurba_marseille","lat":43.305706,"lon":5.365654,"is_reserved":false,"is_disabled":false,"rental_uris":{"android":"levelo://app?vid=9d01288a-b778-4e24-9b58-220029914c9c","ios":"levelo://app?vid=9d01288a-b778-4e24-9b58-220029914c9c"},"vehicle_type_id":"4","last_reported":1701079693,"current_range_meters":31200,"station_id":"ce4bgs12rcd13ifvqcag","pricing_plan_id":"free"},{"bike_id":"197b67a4-a9ac-42b1-91a9-2afbb865edce","system_id":"levelo_inurba_marseille","lat":43.305706,"lon":5.365654,"is_reserved":false,"is_disabled":false,"rental_uris":{"android":"levelo://app?vid=197b67a4-a9ac-42b1-91a9-2afbb865edce","ios":"levelo://app?vid=197b67a4-a9ac-42b1-91a9-2afbb865edce"},"vehicle_type_id":"4","last_reported":1701079693,"current_range_meters":14400,"station_id":"ce4bgs12rcd13ifvqcag","pricing_plan_id":"free"},{"bike_id":"1e704650-e46b-4c96-8a2f-660240057434","system_id":"levelo_inurba_marseille","lat":43.305706,"lon":5.365654,"is_reserved":false,"is_disabled":false,"rental_uris":{"android":"levelo://app?vid=1e704650-e46b-4c96-8a2f-660240057434","ios":"levelo://app?vid=1e704650-e46b-4c96-8a2f-660240057434"},"vehicle_type_id":"4","last_reported":1701079693,"current_range_meters":31600,"station_id":"ce4bgs12rcd13ifvqcag","pricing_plan_id":"free"},{"bike_id":"a178d0dc-f1a4-44e9-a3a5-7b90431c6dd4","system_id":"levelo_inurba_marseille","lat":43.306023,"lon":5.37222,"is_reserved":false,"is_disabled":false,"rental_uris":{"android":"levelo://app?vid=a178d0dc-f1a4-44e9-a3a5-7b90431c6dd4","ios":"levelo://app?vid=a178d0dc-f1a4-44e9-a3a5-7b90431c6dd4"},"vehicle_type_id":"4","last_reported":1701079693,"current_range_meters":0,"station_id":"ce4bgqh2rcd13ifvqc4g","pricing_plan_id":"free"},{"bike_id":"f427a2c3-6e4a-446b-ae2f-9be8aa7f4122","system_id":"levelo_inurba_marseille","lat":43.31719,"lon":5.376813,"is_reserved":false,"is_disabled":false,"rental_uris":{"android":"levelo://app?vid=f427a2c3-6e4a-446b-ae2f-9be8aa7f4122","ios":"levelo://app?vid=f427a2c3-6e4a-446b-ae2f-9be8aa7f4122"},"vehicle_type_id":"4","last_reported":1701079693,"current_range_meters":17600,"station_id":"ce4bgth2rcd13ifvqch0","pricing_plan_id":"free"},{"bike_id":"e913f328-1e31-4c22-bd87-f809ea246de4","system_id":"levelo_inurba_marseille","lat":43.317168,"lon":5.376883,"is_reserved":false,"is_disabled":false,"rental_uris":{"android":"levelo://app?vid=e913f328-1e31-4c22-bd87-f809ea246de4","ios":"levelo://app?vid=e913f328-1e31-4c22-bd87-f809ea246de4"},"vehicle_type_id":"4","last_reported":1701079693,"current_range_meters":20000,"station_id":"ce4bgth2rcd13ifvqch0","pricing_plan_id":"free"},{"bike_id":"4960cd84-5f51-4fcb-bf4f-043f77c0faa0","system_id":"levelo_inurba_marseille","lat":43.311539,"lon":5.37859,"is_reserved":false,"is_disabled":false,"rental_uris":{"android":"levelo://app?vid=4960cd84-5f51-4fcb-bf4f-043f77c0faa0","ios":"levelo://app?vid=4960cd84-5f51-4fcb-bf4f-043f77c0faa0"},"vehicle_type_id":"4","last_reported":1701079693,"current_range_meters":14000,"station_id":"","pricing_plan_id":"free"},{"bike_id":"d169dd41-5f17-415d-92c8-d82e2176279b","system_id":"levelo_inurba_marseille","lat":43.307945,"lon":5.376487,"is_reserved":false,"is_disabled":false,"rental_uris":{"android":"levelo://app?vid=d169dd41-5f17-415d-92c8-d82e2176279b","ios":"levelo://app?vid=d169dd41-5f17-415d-92c8-d82e2176279b"},"vehicle_type_id":"4","last_reported":1701079693,"current_range_meters":27200,"station_id":"ce4bgv92rcd13ifvqcq0","pricing_plan_id":"free"},{"bike_id":"bfa44d10-2349-4e3f-b242-25cbd14230cc","system_id":"levelo_inurba_marseille","lat":43.31706,"lon":5.377453,"is_reserved":false,"is_disabled":false,"rental_uris":{"android":"levelo://app?vid=bfa44d10-2349-4e3f-b242-25cbd14230cc","ios":"levelo://app?vid=bfa44d10-2349-4e3f-b242-25cbd14230cc"},"vehicle_type_id":"4","last_reported":1701079693,"current_range_meters":12800,"station_id":"ce4bgth2rcd13ifvqch0","pricing_plan_id":"free"},{"bike_id":"a80f348a-adbe-415b-8175-efc5cebf9a3a","system_id":"levelo_inurba_marseille","lat":43.317133,"lon":5.377589,"is_reserved":false,"is_disabled":false,"rental_uris":{"android":"levelo://app?vid=a80f348a-adbe-415b-8175-efc5cebf9a3a","ios":"levelo://app?vid=a80f348a-adbe-415b-8175-efc5cebf9a3a"},"vehicle_type_id":"4","last_reported":1701079693,"current_range_meters":31200,"station_id":"ce4bgth2rcd13ifvqch0","pricing_plan_id":"free"},{"bike_id":"b2631c2d-aefa-43ad-9f85-b96d4b842324","system_id":"levelo_inurba_marseille","lat":43.301939,"lon":5.366286,"is_reserved":false,"is_disabled":false,"rental_uris":{"android":"levelo://app?vid=b2631c2d-aefa-43ad-9f85-b96d4b842324","ios":"levelo://app?vid=b2631c2d-aefa-43ad-9f85-b96d4b842324"},"vehicle_type_id":"4","last_reported":1701079693,"current_range_meters":25600,"station_id":"ce4bgrh2rcd13ifvqc8g","pricing_plan_id":"free"},{"bike_id":"debb2be8-0d0d-4cce-b651-aae7e04843a8","system_id":"levelo_inurba_marseille","lat":43.301939,"lon":5.366286,"is_reserved":false,"is_disabled":false,"rental_uris":{"android":"levelo://app?vid=debb2be8-0d0d-4cce-b651-aae7e04843a8","ios":"levelo://app?vid=debb2be8-0d0d-4cce-b651-aae7e04843a8"},"vehicle_type_id":"4","last_reported":1701079693,"current_range_meters":19600,"station_id":"ce4bgrh2rcd13ifvqc8g","pricing_plan_id":"free"},{"bike_id":"5a656d01-8fe4-4b54-8702-6ef3109fd3b9","system_id":"levelo_inurba_marseille","lat":43.308012,"lon":5.381511,"is_reserved":false,"is_disabled":false,"rental_uris":{"android":"levelo://app?vid=5a656d01-8fe4-4b54-8702-6ef3109fd3b9","ios":"levelo://app?vid=5a656d01-8fe4-4b54-8702-6ef3109fd3b9"},"vehicle_type_id":"4","last_reported":1701079693,"current_range_meters":13200,"station_id":"ce4bgt12rcd13ifvqce0","pricing_plan_id":"free"},{"bike_id":"cca0b9fe-c5e0-4368-8873-c657446bffc2","system_id":"levelo_inurba_marseille","lat":43.324873,"lon":5.365663,"is_reserved":false,"is_disabled":false,"rental_uris":{"android":"levelo://app?vid=cca0b9fe-c5e0-4368-8873-c657446bffc2","ios":"levelo://app?vid=cca0b9fe-c5e0-4368-8873-c657446bffc2"},"vehicle_type_id":"4","last_reported":1701079693,"current_range_meters":8800,"station_id":"ce4bhs12rcd13ifvqhvg","pricing_plan_id":"free"},{"bike_id":"83c01ea3-1a20-4a6f-944b-833be987b804","system_id":"levelo_inurba_marseille","lat":43.305456,"lon":5.380848,"is_reserved":false,"is_disabled":false,"rental_uris":{"android":"levelo://app?vid=83c01ea3-1a20-4a6f-944b-833be987b804","ios":"levelo://app?vid=83c01ea3-1a20-4a6f-944b-833be987b804"},"vehicle_type_id":"4","last_reported":1701079693,"current_range_meters":0,"station_id":"","pricing_plan_id":"free"},{"bike_id":"82443ffc-296d-47d2-aaaf-7e3ca64e9424","system_id":"levelo_inurba_marseille","lat":43.313571,"lon":5.384829,"is_reserved":false,"is_disabled":false,"rental_uris":{"android":"levelo://app?vid=82443ffc-296d-47d2-aaaf-7e3ca64e9424","ios":"levelo://app?vid=82443ffc-296d-47d2-aaaf-7e3ca64e9424"},"vehicle_type_id":"4","last_reported":1701079693,"current_range_meters":31600,"station_id":"ce4bgt92rcd13ifvqcf0","pricing_plan_id":"free"},{"bike_id":"a112bfba-75af-4dd3-972d-2142a3fb1be9","system_id":"levelo_inurba_marseille","lat":43.313571,"lon":5.384829,"is_reserved":false,"is_disabled":false,"rental_uris":{"android":"levelo://app?vid=a112bfba-75af-4dd3-972d-2142a3fb1be9","ios":"levelo://app?vid=a112bfba-75af-4dd3-972d-2142a3fb1be9"},"vehicle_type_id":"4","last_reported":1701079693,"current_range_meters":26000,"station_id":"ce4bgt92rcd13ifvqcf0","pricing_plan_id":"free"},{"bike_id":"203f5ba8-0e89-4784-aa27-b78132f1046a","system_id":"levelo_inurba_marseille","lat":43.298433,"lon":5.362774,"is_reserved":false,"is_disabled":false,"rental_uris":{"android":"levelo://app?vid=203f5ba8-0e89-4784-aa27-b78132f1046a","ios":"levelo://app?vid=203f5ba8-0e89-4784-aa27-b78132f1046a"},"vehicle_type_id":"4","last_reported":1701079693,"current_range_meters":28000,"station_id":"ce4bgpp2rcd13ifvqc3g","pricing_plan_id":"free"},{"bike_id":"07757741-7832-4823-a2d1-ac41495e3f29","system_id":"levelo_inurba_marseille","lat":43.298433,"lon":5.362774,"is_reserved":false,"is_disabled":false,"rental_uris":{"android":"levelo://app?vid=07757741-7832-4823-a2d1-ac41495e3f29","ios":"levelo://app?vid=07757741-7832-4823-a2d1-ac41495e3f29"},"vehicle_type_id":"4","last_reported":1701079693,"current_range_meters":20800,"station_id":"ce4bgpp2rcd13ifvqc3g","pricing_plan_id":"free"},{"bike_id":"f5a04daa-ddbf-40c5-9ac8-c8febd7e3518","system_id":"levelo_inurba_marseille","lat":43.298433,"lon":5.362774,"is_reserved":false,"is_disabled":false,"rental_uris":{"android":"levelo://app?vid=f5a04daa-ddbf-40c5-9ac8-c8febd7e3518","ios":"levelo://app?vid=f5a04daa-ddbf-40c5-9ac8-c8febd7e3518"},"vehicle_type_id":"4","last_reported":1701079693,"current_range_meters":21200,"station_id":"ce4bgpp2rcd13ifvqc3g","pricing_plan_id":"free"},{"bike_id":"984489f8-4f60-44ae-bd10-3b0ce30541c9","system_id":"levelo_inurba_marseille","lat":43.298433,"lon":5.362774,"is_reserved":false,"is_disabled":false,"rental_uris":{"android":"levelo://app?vid=984489f8-4f60-44ae-bd10-3b0ce30541c9","ios":"levelo://app?vid=984489f8-4f60-44ae-bd10-3b0ce30541c9"},"vehicle_type_id":"4","last_reported":1701079693,"current_range_meters":400,"station_id":"ce4bgpp2rcd13ifvqc3g","pricing_plan_id":"free"},{"bike_id":"41a7652b-304f-4f96-ac71-06689b9c904a","system_id":"levelo_inurba_marseille","lat":43.298433,"lon":5.362774,"is_reserved":false,"is_disabled":false,"rental_uris":{"android":"levelo://app?vid=41a7652b-304f-4f96-ac71-06689b9c904a","ios":"levelo://app?vid=41a7652b-304f-4f96-ac71-06689b9c904a"},"vehicle_type_id":"4","last_reported":1701079693,"current_range_meters":2400,"station_id":"ce4bgpp2rcd13ifvqc3g","pricing_plan_id":"free"},{"bike_id":"981224f2-722a-45e4-bb38-22ae7ba6910b","system_id":"levelo_inurba_marseille","lat":43.298433,"lon":5.362774,"is_reserved":false,"is_disabled":false,"rental_uris":{"android":"levelo://app?vid=981224f2-722a-45e4-bb38-22ae7ba6910b","ios":"levelo://app?vid=981224f2-722a-45e4-bb38-22ae7ba6910b"},"vehicle_type_id":"4","last_reported":1701079693,"current_range_meters":28000,"station_id":"ce4bgpp2rcd13ifvqc3g","pricing_plan_id":"free"},{"bike_id":"4dfe0b50-1a07-4147-9402-7c7abf3df656","system_id":"levelo_inurba_marseille","lat":43.298433,"lon":5.362774,"is_reserved":false,"is_disabled":false,"rental_uris":{"android":"levelo://app?vid=4dfe0b50-1a07-4147-9402-7c7abf3df656","ios":"levelo://app?vid=4dfe0b50-1a07-4147-9402-7c7abf3df656"},"vehicle_type_id":"4","last_reported":1701079693,"current_range_meters":24000,"station_id":"ce4bgpp2rcd13ifvqc3g","pricing_plan_id":"free"},{"bike_id":"a7fe4f51-10ec-45d6-82aa-98fc9fcfffbc","system_id":"levelo_inurba_marseille","lat":43.298433,"lon":5.362774,"is_reserved":false,"is_disabled":false,"rental_uris":{"android":"levelo://app?vid=a7fe4f51-10ec-45d6-82aa-98fc9fcfffbc","ios":"levelo://app?vid=a7fe4f51-10ec-45d6-82aa-98fc9fcfffbc"},"vehicle_type_id":"4","last_reported":1701079693,"current_range_meters":14800,"station_id":"ce4bgpp2rcd13ifvqc3g","pricing_plan_id":"free"},{"bike_id":"4c2c6467-937e-47cd-bd6e-b29f3e26e3a6","system_id":"levelo_inurba_marseille","lat":43.298433,"lon":5.362774,"is_reserved":false,"is_disabled":false,"rental_uris":{"android":"levelo://app?vid=4c2c6467-937e-47cd-bd6e-b29f3e26e3a6","ios":"levelo://app?vid=4c2c6467-937e-47cd-bd6e-b29f3e26e3a6"},"vehicle_type_id":"4","last_reported":1701079693,"current_range_meters":19200,"station_id":"ce4bgpp2rcd13ifvqc3g","pricing_plan_id":"free"},{"bike_id":"124eb19c-329f-43c7-993d-200197b8e23a","system_id":"levelo_inurba_marseille","lat":43.298433,"lon":5.362774,"is_reserved":false,"is_disabled":false,"rental_uris":{"android":"levelo://app?vid=124eb19c-329f-43c7-993d-200197b8e23a","ios":"levelo://app?vid=124eb19c-329f-43c7-993d-200197b8e23a"},"vehicle_type_id":"4","last_reported":1701079693,"current_range_meters":22800,"station_id":"ce4bgpp2rcd13ifvqc3g","pricing_plan_id":"free"},{"bike_id":"56815df7-a60d-48ec-9c7d-8227e1e6cf88","system_id":"levelo_inurba_marseille","lat":43.29842,"lon":5.36269,"is_reserved":false,"is_disabled":false,"rental_uris":{"android":"levelo://app?vid=56815df7-a60d-48ec-9c7d-8227e1e6cf88","ios":"levelo://app?vid=56815df7-a60d-48ec-9c7d-8227e1e6cf88"},"vehicle_type_id":"4","last_reported":1701079693,"current_range_meters":0,"station_id":"ce4bgpp2rcd13ifvqc3g","pricing_plan_id":"free"},{"bike_id":"8f297e3a-5766-4bf5-bdbc-91269feddd1e","system_id":"levelo_inurba_marseille","lat":43.299243,"lon":5.374807,"is_reserved":false,"is_disabled":false,"rental_uris":{"android":"levelo://app?vid=8f297e3a-5766-4bf5-bdbc-91269feddd1e","ios":"levelo://app?vid=8f297e3a-5766-4bf5-bdbc-91269feddd1e"},"vehicle_type_id":"4","last_reported":1701079693,"current_range_meters":17600,"station_id":"ce4bgjh2rcd13ifvqbg0","pricing_plan_id":"free"},{"bike_id":"2085833b-c40c-4449-a14e-bb7d31d8e988","system_id":"levelo_inurba_marseille","lat":43.311815,"lon":5.387175,"is_reserved":false,"is_disabled":false,"rental_uris":{"android":"levelo://app?vid=2085833b-c40c-4449-a14e-bb7d31d8e988","ios":"levelo://app?vid=2085833b-c40c-4449-a14e-bb7d31d8e988"},"vehicle_type_id":"4","last_reported":1701079693,"current_range_meters":28800,"station_id":"ce4bgv12rcd13ifvqcp0","pricing_plan_id":"free"},{"bike_id":"bdb40f97-9b99-4500-98db-d1f60b7f43aa","system_id":"levelo_inurba_marseille","lat":43.311722,"lon":5.387247,"is_reserved":false,"is_disabled":false,"rental_uris":{"android":"levelo://app?vid=bdb40f97-9b99-4500-98db-d1f60b7f43aa","ios":"levelo://app?vid=bdb40f97-9b99-4500-98db-d1f60b7f43aa"},"vehicle_type_id":"4","last_reported":1701079693,"current_range_meters":28400,"station_id":"ce4bgv12rcd13ifvqcp0","pricing_plan_id":"free"},{"bike_id":"631141d1-1166-4b17-8edf-936d77c112c2","system_id":"levelo_inurba_marseille","lat":43.297794,"lon":5.370888,"is_reserved":false,"is_disabled":false,"rental_uris":{"android":"levelo://app?vid=631141d1-1166-4b17-8edf-936d77c112c2","ios":"levelo://app?vid=631141d1-1166-4b17-8edf-936d77c112c2"},"vehicle_type_id":"4","last_reported":1701079693,"current_range_meters":16800,"station_id":"ce4bgop2rcd13ifvqc1g","pricing_plan_id":"free"},{"bike_id":"bd83ded9-c928-4ad4-ac72-655987236cc4","system_id":"levelo_inurba_marseille","lat":43.297163,"lon":5.365866,"is_reserved":false,"is_disabled":false,"rental_uris":{"android":"levelo://app?vid=bd83ded9-c928-4ad4-ac72-655987236cc4","ios":"levelo://app?vid=bd83ded9-c928-4ad4-ac72-655987236cc4"},"vehicle_type_id":"4","last_reported":1701079693,"current_range_meters":14400,"station_id":"ce4bgn12rcd13ifvqbt0","pricing_plan_id":"free"},{"bike_id":"9f185ae0-fa90-49d0-9048-ad22764e9346","system_id":"levelo_inurba_marseille","lat":43.297163,"lon":5.365866,"is_reserved":false,"is_disabled":false,"rental_uris":{"android":"levelo://app?vid=9f185ae0-fa90-49d0-9048-ad22764e9346","ios":"levelo://app?vid=9f185ae0-fa90-49d0-9048-ad22764e9346"},"vehicle_type_id":"4","last_reported":1701079693,"current_range_meters":24000,"station_id":"ce4bgn12rcd13ifvqbt0","pricing_plan_id":"free"},{"bike_id":"bfb7c4f1-1e6d-452d-9569-90448b755826","system_id":"levelo_inurba_marseille","lat":43.297163,"lon":5.365866,"is_reserved":false,"is_disabled":false,"rental_uris":{"android":"levelo://app?vid=bfb7c4f1-1e6d-452d-9569-90448b755826","ios":"levelo://app?vid=bfb7c4f1-1e6d-452d-9569-90448b755826"},"vehicle_type_id":"4","last_reported":1701079693,"current_range_meters":15600,"station_id":"ce4bgn12rcd13ifvqbt0","pricing_plan_id":"free"},{"bike_id":"7ab5f7ed-0017-4fc9-a467-fe2d0c256128","system_id":"levelo_inurba_marseille","lat":43.3152,"lon":5.38922,"is_reserved":false,"is_disabled":false,"rental_uris":{"android":"levelo://app?vid=7ab5f7ed-0017-4fc9-a467-fe2d0c256128","ios":"levelo://app?vid=7ab5f7ed-0017-4fc9-a467-fe2d0c256128"},"vehicle_type_id":"4","last_reported":1701079693,"current_range_meters":28800,"station_id":"","pricing_plan_id":"free"},{"bike_id":"bd8e3978-9b5b-4461-9eab-9d80fc814246","system_id":"levelo_inurba_marseille","lat":43.29573,"lon":5.367355,"is_reserved":false,"is_disabled":false,"rental_uris":{"android":"levelo://app?vid=bd8e3978-9b5b-4461-9eab-9d80fc814246","ios":"levelo://app?vid=bd8e3978-9b5b-4461-9eab-9d80fc814246"},"vehicle_type_id":"4","last_reported":1701079693,"current_range_meters":31600,"station_id":"ce4bgph2rcd13ifvqc2g","pricing_plan_id":"free"},{"bike_id":"8eb99f99-b944-4964-96f2-e263cd7c52fc","system_id":"levelo_inurba_marseille","lat":43.29573,"lon":5.367355,"is_reserved":false,"is_disabled":false,"rental_uris":{"android":"levelo://app?vid=8eb99f99-b944-4964-96f2-e263cd7c52fc","ios":"levelo://app?vid=8eb99f99-b944-4964-96f2-e263cd7c52fc"},"vehicle_type_id":"4","last_reported":1701079693,"current_range_meters":24400,"station_id":"ce4bgph2rcd13ifvqc2g","pricing_plan_id":"free"},{"bike_id":"849e23ad-fc40-43f8-ab94-0a9d99c6390d","system_id":"levelo_inurba_marseille","lat":43.309589,"lon":5.390258,"is_reserved":false,"is_disabled":false,"rental_uris":{"android":"levelo://app?vid=849e23ad-fc40-43f8-ab94-0a9d99c6390d","ios":"levelo://app?vid=849e23ad-fc40-43f8-ab94-0a9d99c6390d"},"vehicle_type_id":"4","last_reported":1701079693,"current_range_meters":13600,"station_id":"ce4bgup2rcd13ifvqco0","pricing_plan_id":"free"},{"bike_id":"79718cca-6ae9-48a7-87dc-b6da0f767c58","system_id":"levelo_inurba_marseille","lat":43.309589,"lon":5.390258,"is_reserved":false,"is_disabled":false,"rental_uris":{"android":"levelo://app?vid=79718cca-6ae9-48a7-87dc-b6da0f767c58","ios":"levelo://app?vid=79718cca-6ae9-48a7-87dc-b6da0f767c58"},"vehicle_type_id":"4","last_reported":1701079693,"current_range_meters":24000,"station_id":"ce4bgup2rcd13ifvqco0","pricing_plan_id":"free"},{"bike_id":"80a77279-f69a-43db-8851-58406e479e24","system_id":"levelo_inurba_marseille","lat":43.317557,"lon":5.390173,"is_reserved":false,"is_disabled":false,"rental_uris":{"android":"levelo://app?vid=80a77279-f69a-43db-8851-58406e479e24","ios":"levelo://app?vid=80a77279-f69a-43db-8851-58406e479e24"},"vehicle_type_id":"4","last_reported":1701079693,"current_range_meters":26800,"station_id":"ce4bhqp2rcd13ifvqhng","pricing_plan_id":"free"},{"bike_id":"f9782c71-005e-401f-957d-11033cdf34fc","system_id":"levelo_inurba_marseille","lat":43.31758,"lon":5.39024,"is_reserved":false,"is_disabled":false,"rental_uris":{"android":"levelo://app?vid=f9782c71-005e-401f-957d-11033cdf34fc","ios":"levelo://app?vid=f9782c71-005e-401f-957d-11033cdf34fc"},"vehicle_type_id":"4","last_reported":1701079693,"current_range_meters":30400,"station_id":"ce4bhqp2rcd13ifvqhng","pricing_plan_id":"free"},{"bike_id":"16f9b1ee-2c48-4a32-997d-832e6b084303","system_id":"levelo_inurba_marseille","lat":43.304278,"lon":5.388868,"is_reserved":false,"is_disabled":false,"rental_uris":{"android":"levelo://app?vid=16f9b1ee-2c48-4a32-997d-832e6b084303","ios":"levelo://app?vid=16f9b1ee-2c48-4a32-997d-832e6b084303"},"vehicle_type_id":"4","last_reported":1701079693,"current_range_meters":2400,"station_id":"ce4bgk12rcd13ifvqbi0","pricing_plan_id":"free"},{"bike_id":"2805c004-c733-4d8d-aa0a-02f5b39df8bf","system_id":"levelo_inurba_marseille","lat":43.29617,"lon":5.37713,"is_reserved":false,"is_disabled":false,"rental_uris":{"android":"levelo://app?vid=2805c004-c733-4d8d-aa0a-02f5b39df8bf","ios":"levelo://app?vid=2805c004-c733-4d8d-aa0a-02f5b39df8bf"},"vehicle_type_id":"4","last_reported":1701079693,"current_range_meters":24800,"station_id":"ce4bgi92rcd13ifvqb90","pricing_plan_id":"free"},{"bike_id":"3d254d9f-3078-4fd4-9e8b-6f6b24c05963","system_id":"levelo_inurba_marseille","lat":43.299707,"lon":5.384859,"is_reserved":false,"is_disabled":false,"rental_uris":{"android":"levelo://app?vid=3d254d9f-3078-4fd4-9e8b-6f6b24c05963","ios":"levelo://app?vid=3d254d9f-3078-4fd4-9e8b-6f6b24c05963"},"vehicle_type_id":"4","last_reported":1701079693,"current_range_meters":22400,"station_id":"ce4bgj92rcd13ifvqbd0","pricing_plan_id":"free"},{"bike_id":"e8e1028c-69f7-49ec-b2fb-b16903f13611","system_id":"levelo_inurba_marseille","lat":43.295279,"lon":5.375048,"is_reserved":false,"is_disabled":false,"rental_uris":{"android":"levelo://app?vid=e8e1028c-69f7-49ec-b2fb-b16903f13611","ios":"levelo://app?vid=e8e1028c-69f7-49ec-b2fb-b16903f13611"},"vehicle_type_id":"4","last_reported":1701079693,"current_range_meters":21600,"station_id":"ce4bgkp2rcd13ifvqbmg","pricing_plan_id":"free"},{"bike_id":"6b621983-5e9e-42f7-990d-ad5a093820d2","system_id":"levelo_inurba_marseille","lat":43.293801,"lon":5.363066,"is_reserved":false,"is_disabled":false,"rental_uris":{"android":"levelo://app?vid=6b621983-5e9e-42f7-990d-ad5a093820d2","ios":"levelo://app?vid=6b621983-5e9e-42f7-990d-ad5a093820d2"},"vehicle_type_id":"4","last_reported":1701079693,"current_range_meters":0,"station_id":"","pricing_plan_id":"free"},{"bike_id":"ddd61bce-03d4-4f1e-8020-8ef45188a057","system_id":"levelo_inurba_marseille","lat":43.299892,"lon":5.387955,"is_reserved":false,"is_disabled":false,"rental_uris":{"android":"levelo://app?vid=ddd61bce-03d4-4f1e-8020-8ef45188a057","ios":"levelo://app?vid=ddd61bce-03d4-4f1e-8020-8ef45188a057"},"vehicle_type_id":"4","last_reported":1701079693,"current_range_meters":16400,"station_id":"","pricing_plan_id":"free"},{"bike_id":"885f4856-cfb3-4b80-9e78-b9f51c943887","system_id":"levelo_inurba_marseille","lat":43.293052,"lon":5.37183,"is_reserved":false,"is_disabled":false,"rental_uris":{"android":"levelo://app?vid=885f4856-cfb3-4b80-9e78-b9f51c943887","ios":"levelo://app?vid=885f4856-cfb3-4b80-9e78-b9f51c943887"},"vehicle_type_id":"4","last_reported":1701079693,"current_range_meters":18000,"station_id":"ce4bgh92rcd13ifvqb40","pricing_plan_id":"free"},{"bike_id":"1bf0ce32-a129-4f19-b1df-78b483661d8a","system_id":"levelo_inurba_marseille","lat":43.300852,"lon":5.390859,"is_reserved":false,"is_disabled":false,"rental_uris":{"android":"levelo://app?vid=1bf0ce32-a129-4f19-b1df-78b483661d8a","ios":"levelo://app?vid=1bf0ce32-a129-4f19-b1df-78b483661d8a"},"vehicle_type_id":"4","last_reported":1701079693,"current_range_meters":20800,"station_id":"ce4bh192rcd13ifvqdb0","pricing_plan_id":"free"},{"bike_id":"79bb36da-1a3f-4f26-bb8f-2df9c67b386c","system_id":"levelo_inurba_marseille","lat":43.2922,"lon":5.36047,"is_reserved":false,"is_disabled":false,"rental_uris":{"android":"levelo://app?vid=79bb36da-1a3f-4f26-bb8f-2df9c67b386c","ios":"levelo://app?vid=79bb36da-1a3f-4f26-bb8f-2df9c67b386c"},"vehicle_type_id":"4","last_reported":1701079693,"current_range_meters":26800,"station_id":"ce4bhbh2rcd13ifvqeqg","pricing_plan_id":"free"},{"bike_id":"95ec3e5b-e8b6-429d-8f4d-a50c756ab62c","system_id":"levelo_inurba_marseille","lat":43.292311,"lon":5.360731,"is_reserved":false,"is_disabled":false,"rental_uris":{"android":"levelo://app?vid=95ec3e5b-e8b6-429d-8f4d-a50c756ab62c","ios":"levelo://app?vid=95ec3e5b-e8b6-429d-8f4d-a50c756ab62c"},"vehicle_type_id":"4","last_reported":1701079693,"current_range_meters":24400,"station_id":"ce4bhbh2rcd13ifvqeqg","pricing_plan_id":"free"},{"bike_id":"8afb3d66-c1dd-468e-b076-dfb3bee04955","system_id":"levelo_inurba_marseille","lat":43.29265,"lon":5.37626,"is_reserved":false,"is_disabled":false,"rental_uris":{"android":"levelo://app?vid=8afb3d66-c1dd-468e-b076-dfb3bee04955","ios":"levelo://app?vid=8afb3d66-c1dd-468e-b076-dfb3bee04955"},"vehicle_type_id":"4","last_reported":1701079693,"current_range_meters":25600,"station_id":"ce4bgi12rcd13ifvqb80","pricing_plan_id":"free"},{"bike_id":"2b79db7b-4966-4dfe-8f7a-8e5f899632a6","system_id":"levelo_inurba_marseille","lat":43.292627,"lon":5.376167,"is_reserved":false,"is_disabled":false,"rental_uris":{"android":"levelo://app?vid=2b79db7b-4966-4dfe-8f7a-8e5f899632a6","ios":"levelo://app?vid=2b79db7b-4966-4dfe-8f7a-8e5f899632a6"},"vehicle_type_id":"4","last_reported":1701079693,"current_range_meters":21200,"station_id":"ce4bgi12rcd13ifvqb80","pricing_plan_id":"free"},{"bike_id":"2929da7f-6135-4937-8d8a-121ca40fc88f","system_id":"levelo_inurba_marseille","lat":43.298764,"lon":5.388973,"is_reserved":false,"is_disabled":false,"rental_uris":{"android":"levelo://app?vid=2929da7f-6135-4937-8d8a-121ca40fc88f","ios":"levelo://app?vid=2929da7f-6135-4937-8d8a-121ca40fc88f"},"vehicle_type_id":"4","last_reported":1701079693,"current_range_meters":18400,"station_id":"ce4bh392rcd13ifvqdl0","pricing_plan_id":"free"},{"bike_id":"6001053d-2edb-4fc9-972d-c9241770c899","system_id":"levelo_inurba_marseille","lat":43.29258,"lon":5.37623,"is_reserved":false,"is_disabled":false,"rental_uris":{"android":"levelo://app?vid=6001053d-2edb-4fc9-972d-c9241770c899","ios":"levelo://app?vid=6001053d-2edb-4fc9-972d-c9241770c899"},"vehicle_type_id":"4","last_reported":1701079693,"current_range_meters":16800,"station_id":"ce4bgi12rcd13ifvqb80","pricing_plan_id":"free"},{"bike_id":"9aadc3c3-010d-4fad-8156-3651d19e3cd9","system_id":"levelo_inurba_marseille","lat":43.292663,"lon":5.376389,"is_reserved":false,"is_disabled":false,"rental_uris":{"android":"levelo://app?vid=9aadc3c3-010d-4fad-8156-3651d19e3cd9","ios":"levelo://app?vid=9aadc3c3-010d-4fad-8156-3651d19e3cd9"},"vehicle_type_id":"4","last_reported":1701079693,"current_range_meters":30800,"station_id":"ce4bgi12rcd13ifvqb80","pricing_plan_id":"free"},{"bike_id":"9daa876d-1989-4f05-ab4b-af42ac22410f","system_id":"levelo_inurba_marseille","lat":43.291671,"lon":5.371575,"is_reserved":false,"is_disabled":false,"rental_uris":{"android":"levelo://app?vid=9daa876d-1989-4f05-ab4b-af42ac22410f","ios":"levelo://app?vid=9daa876d-1989-4f05-ab4b-af42ac22410f"},"vehicle_type_id":"4","last_reported":1701079693,"current_range_meters":10000,"station_id":"ce4bha92rcd13ifvqeh0","pricing_plan_id":"free"},{"bike_id":"c21a8bbc-43ac-46a9-914e-0b35fe90d166","system_id":"levelo_inurba_marseille","lat":43.31231,"lon":5.39674,"is_reserved":false,"is_disabled":false,"rental_uris":{"android":"levelo://app?vid=c21a8bbc-43ac-46a9-914e-0b35fe90d166","ios":"levelo://app?vid=c21a8bbc-43ac-46a9-914e-0b35fe90d166"},"vehicle_type_id":"4","last_reported":1701079693,"current_range_meters":29200,"station_id":"","pricing_plan_id":"free"},{"bike_id":"16503674-aaf7-4c40-b903-25bd055f6a5b","system_id":"levelo_inurba_marseille","lat":43.31329,"lon":5.39687,"is_reserved":false,"is_disabled":false,"rental_uris":{"android":"levelo://app?vid=16503674-aaf7-4c40-b903-25bd055f6a5b","ios":"levelo://app?vid=16503674-aaf7-4c40-b903-25bd055f6a5b"},"vehicle_type_id":"4","last_reported":1701079693,"current_range_meters":15200,"station_id":"ce4bgvp2rcd13ifvqcu0","pricing_plan_id":"free"},{"bike_id":"6b4f41e9-02ae-4ce2-b78c-09decff7d4ba","system_id":"levelo_inurba_marseille","lat":43.313291,"lon":5.396838,"is_reserved":false,"is_disabled":false,"rental_uris":{"android":"levelo://app?vid=6b4f41e9-02ae-4ce2-b78c-09decff7d4ba","ios":"levelo://app?vid=6b4f41e9-02ae-4ce2-b78c-09decff7d4ba"},"vehicle_type_id":"4","last_reported":1701079693,"current_range_meters":30000,"station_id":"ce4bgvp2rcd13ifvqcu0","pricing_plan_id":"free"},{"bike_id":"6670ce21-531e-4c5a-849a-a529bd02f1c9","system_id":"levelo_inurba_marseille","lat":43.30877,"lon":5.39642,"is_reserved":false,"is_disabled":false,"rental_uris":{"android":"levelo://app?vid=6670ce21-531e-4c5a-849a-a529bd02f1c9","ios":"levelo://app?vid=6670ce21-531e-4c5a-849a-a529bd02f1c9"},"vehicle_type_id":"4","last_reported":1701079693,"current_range_meters":22800,"station_id":"ce4bh012rcd13ifvqcv0","pricing_plan_id":"free"},{"bike_id":"de199e16-449e-4ff8-8a51-952a0e560ba8","system_id":"levelo_inurba_marseille","lat":43.313291,"lon":5.396838,"is_reserved":false,"is_disabled":false,"rental_uris":{"android":"levelo://app?vid=de199e16-449e-4ff8-8a51-952a0e560ba8","ios":"levelo://app?vid=de199e16-449e-4ff8-8a51-952a0e560ba8"},"vehicle_type_id":"4","last_reported":1701079693,"current_range_meters":24000,"station_id":"ce4bgvp2rcd13ifvqcu0","pricing_plan_id":"free"},{"bike_id":"fcb88794-d241-418a-bcf5-ad83a8f68995","system_id":"levelo_inurba_marseille","lat":43.309038,"lon":5.396546,"is_reserved":false,"is_disabled":false,"rental_uris":{"android":"levelo://app?vid=fcb88794-d241-418a-bcf5-ad83a8f68995","ios":"levelo://app?vid=fcb88794-d241-418a-bcf5-ad83a8f68995"},"vehicle_type_id":"4","last_reported":1701079693,"current_range_meters":14800,"station_id":"ce4bh012rcd13ifvqcv0","pricing_plan_id":"free"},{"bike_id":"0d49decd-6e68-41df-a429-659af98de254","system_id":"levelo_inurba_marseille","lat":43.309047,"lon":5.396551,"is_reserved":false,"is_disabled":false,"rental_uris":{"android":"levelo://app?vid=0d49decd-6e68-41df-a429-659af98de254","ios":"levelo://app?vid=0d49decd-6e68-41df-a429-659af98de254"},"vehicle_type_id":"4","last_reported":1701079693,"current_range_meters":23200,"station_id":"ce4bh012rcd13ifvqcv0","pricing_plan_id":"free"},{"bike_id":"af593931-cc6c-43c2-97c7-5b216682e72e","system_id":"levelo_inurba_marseille","lat":43.313265,"lon":5.396962,"is_reserved":false,"is_disabled":false,"rental_uris":{"android":"levelo://app?vid=af593931-cc6c-43c2-97c7-5b216682e72e","ios":"levelo://app?vid=af593931-cc6c-43c2-97c7-5b216682e72e"},"vehicle_type_id":"4","last_reported":1701079693,"current_range_meters":24800,"station_id":"ce4bgvp2rcd13ifvqcu0","pricing_plan_id":"free"},{"bike_id":"17013e43-e7c9-4366-9e48-cb9bfb08209d","system_id":"levelo_inurba_marseille","lat":43.309047,"lon":5.396551,"is_reserved":false,"is_disabled":false,"rental_uris":{"android":"levelo://app?vid=17013e43-e7c9-4366-9e48-cb9bfb08209d","ios":"levelo://app?vid=17013e43-e7c9-4366-9e48-cb9bfb08209d"},"vehicle_type_id":"4","last_reported":1701079693,"current_range_meters":20000,"station_id":"ce4bh012rcd13ifvqcv0","pricing_plan_id":"free"},{"bike_id":"03f357a9-2e77-4a01-8698-f9148fd5a657","system_id":"levelo_inurba_marseille","lat":43.309047,"lon":5.396551,"is_reserved":false,"is_disabled":false,"rental_uris":{"android":"levelo://app?vid=03f357a9-2e77-4a01-8698-f9148fd5a657","ios":"levelo://app?vid=03f357a9-2e77-4a01-8698-f9148fd5a657"},"vehicle_type_id":"4","last_reported":1701079693,"current_range_meters":28400,"station_id":"ce4bh012rcd13ifvqcv0","pricing_plan_id":"free"},{"bike_id":"a16b22fb-52c6-4479-8a93-a8fa930de3f3","system_id":"levelo_inurba_marseille","lat":43.30882,"lon":5.39657,"is_reserved":false,"is_disabled":false,"rental_uris":{"android":"levelo://app?vid=a16b22fb-52c6-4479-8a93-a8fa930de3f3","ios":"levelo://app?vid=a16b22fb-52c6-4479-8a93-a8fa930de3f3"},"vehicle_type_id":"4","last_reported":1701079693,"current_range_meters":24400,"station_id":"ce4bh012rcd13ifvqcv0","pricing_plan_id":"free"},{"bike_id":"1bbbc5fe-26f2-448a-8b88-d2c29bd374b8","system_id":"levelo_inurba_marseille","lat":43.309038,"lon":5.396546,"is_reserved":false,"is_disabled":false,"rental_uris":{"android":"levelo://app?vid=1bbbc5fe-26f2-448a-8b88-d2c29bd374b8","ios":"levelo://app?vid=1bbbc5fe-26f2-448a-8b88-d2c29bd374b8"},"vehicle_type_id":"4","last_reported":1701079693,"current_range_meters":31600,"station_id":"ce4bh012rcd13ifvqcv0","pricing_plan_id":"free"},{"bike_id":"df42269d-e15c-4e3c-837c-f499d57dfdfd","system_id":"levelo_inurba_marseille","lat":43.290327,"lon":5.375711,"is_reserved":false,"is_disabled":false,"rental_uris":{"android":"levelo://app?vid=df42269d-e15c-4e3c-837c-f499d57dfdfd","ios":"levelo://app?vid=df42269d-e15c-4e3c-837c-f499d57dfdfd"},"vehicle_type_id":"4","last_reported":1701079693,"current_range_meters":24000,"station_id":"ce4bh692rcd13ifvqe90","pricing_plan_id":"free"},{"bike_id":"08976845-aeed-4fbc-82ef-5e511f40adc7","system_id":"levelo_inurba_marseille","lat":43.290327,"lon":5.375711,"is_reserved":false,"is_disabled":false,"rental_uris":{"android":"levelo://app?vid=08976845-aeed-4fbc-82ef-5e511f40adc7","ios":"levelo://app?vid=08976845-aeed-4fbc-82ef-5e511f40adc7"},"vehicle_type_id":"4","last_reported":1701079693,"current_range_meters":11600,"station_id":"ce4bh692rcd13ifvqe90","pricing_plan_id":"free"},{"bike_id":"9e79f928-ff90-4687-a8e9-151ab62fbad3","system_id":"levelo_inurba_marseille","lat":43.290327,"lon":5.375711,"is_reserved":false,"is_disabled":false,"rental_uris":{"android":"levelo://app?vid=9e79f928-ff90-4687-a8e9-151ab62fbad3","ios":"levelo://app?vid=9e79f928-ff90-4687-a8e9-151ab62fbad3"},"vehicle_type_id":"4","last_reported":1701079693,"current_range_meters":14000,"station_id":"ce4bh692rcd13ifvqe90","pricing_plan_id":"free"},{"bike_id":"53fe4322-37e8-4538-a6b4-72b9c3182dfe","system_id":"levelo_inurba_marseille","lat":43.292642,"lon":5.384254,"is_reserved":false,"is_disabled":false,"rental_uris":{"android":"levelo://app?vid=53fe4322-37e8-4538-a6b4-72b9c3182dfe","ios":"levelo://app?vid=53fe4322-37e8-4538-a6b4-72b9c3182dfe"},"vehicle_type_id":"4","last_reported":1701079693,"current_range_meters":15200,"station_id":"ce4bh692rcd13ifvqea0","pricing_plan_id":"free"},{"bike_id":"d9c69e2c-cb9c-4629-9343-593d6e3b1009","system_id":"levelo_inurba_marseille","lat":43.290995,"lon":5.381361,"is_reserved":false,"is_disabled":false,"rental_uris":{"android":"levelo://app?vid=d9c69e2c-cb9c-4629-9343-593d6e3b1009","ios":"levelo://app?vid=d9c69e2c-cb9c-4629-9343-593d6e3b1009"},"vehicle_type_id":"4","last_reported":1701079693,"current_range_meters":29200,"station_id":"ce4bh512rcd13ifvqe2g","pricing_plan_id":"free"},{"bike_id":"b92812a1-820d-45a5-89c2-77c0a716a54f","system_id":"levelo_inurba_marseille","lat":43.290995,"lon":5.381361,"is_reserved":false,"is_disabled":false,"rental_uris":{"android":"levelo://app?vid=b92812a1-820d-45a5-89c2-77c0a716a54f","ios":"levelo://app?vid=b92812a1-820d-45a5-89c2-77c0a716a54f"},"vehicle_type_id":"4","last_reported":1701079693,"current_range_meters":13200,"station_id":"ce4bh512rcd13ifvqe2g","pricing_plan_id":"free"},{"bike_id":"3194cfcf-9ff5-4f10-a39e-223aaa70c297","system_id":"levelo_inurba_marseille","lat":43.290104,"lon":5.356111,"is_reserved":false,"is_disabled":false,"rental_uris":{"android":"levelo://app?vid=3194cfcf-9ff5-4f10-a39e-223aaa70c297","ios":"levelo://app?vid=3194cfcf-9ff5-4f10-a39e-223aaa70c297"},"vehicle_type_id":"4","last_reported":1701079693,"current_range_meters":20000,"station_id":"ce4bhb92rcd13ifvqen0","pricing_plan_id":"free"},{"bike_id":"737c5394-88c8-4e04-890f-ad3b977098d0","system_id":"levelo_inurba_marseille","lat":43.298681,"lon":5.397225,"is_reserved":false,"is_disabled":false,"rental_uris":{"android":"levelo://app?vid=737c5394-88c8-4e04-890f-ad3b977098d0","ios":"levelo://app?vid=737c5394-88c8-4e04-890f-ad3b977098d0"},"vehicle_type_id":"4","last_reported":1701079693,"current_range_meters":20400,"station_id":"ce4bh0h2rcd13ifvqd50","pricing_plan_id":"free"},{"bike_id":"ed994430-9391-4677-9c3d-12dbfddb3a4a","system_id":"levelo_inurba_marseille","lat":43.298681,"lon":5.397225,"is_reserved":false,"is_disabled":false,"rental_uris":{"android":"levelo://app?vid=ed994430-9391-4677-9c3d-12dbfddb3a4a","ios":"levelo://app?vid=ed994430-9391-4677-9c3d-12dbfddb3a4a"},"vehicle_type_id":"4","last_reported":1701079693,"current_range_meters":25600,"station_id":"ce4bh0h2rcd13ifvqd50","pricing_plan_id":"free"},{"bike_id":"d719c5d5-72a0-42a8-b1d9-eb3f2e0a85a4","system_id":"levelo_inurba_marseille","lat":43.295187,"lon":5.394057,"is_reserved":false,"is_disabled":false,"rental_uris":{"android":"levelo://app?vid=d719c5d5-72a0-42a8-b1d9-eb3f2e0a85a4","ios":"levelo://app?vid=d719c5d5-72a0-42a8-b1d9-eb3f2e0a85a4"},"vehicle_type_id":"4","last_reported":1701079693,"current_range_meters":0,"station_id":"ce4bh292rcd13ifvqdf0","pricing_plan_id":"free"},{"bike_id":"97644b29-f625-4f77-ad53-3adb48e076e5","system_id":"levelo_inurba_marseille","lat":43.29039,"lon":5.3865,"is_reserved":false,"is_disabled":false,"rental_uris":{"android":"levelo://app?vid=97644b29-f625-4f77-ad53-3adb48e076e5","ios":"levelo://app?vid=97644b29-f625-4f77-ad53-3adb48e076e5"},"vehicle_type_id":"4","last_reported":1701079693,"current_range_meters":4800,"station_id":"","pricing_plan_id":"free"},{"bike_id":"10b64580-0583-4238-82ae-1c2ea65fc990","system_id":"levelo_inurba_marseille","lat":43.302759,"lon":5.400793,"is_reserved":false,"is_disabled":false,"rental_uris":{"android":"levelo://app?vid=10b64580-0583-4238-82ae-1c2ea65fc990","ios":"levelo://app?vid=10b64580-0583-4238-82ae-1c2ea65fc990"},"vehicle_type_id":"4","last_reported":1701079693,"current_range_meters":17600,"station_id":"ce4bgvh2rcd13ifvqcs0","pricing_plan_id":"free"},{"bike_id":"99dab14b-4c1b-452e-8ffb-ba8ac7438d5b","system_id":"levelo_inurba_marseille","lat":43.302759,"lon":5.400793,"is_reserved":false,"is_disabled":false,"rental_uris":{"android":"levelo://app?vid=99dab14b-4c1b-452e-8ffb-ba8ac7438d5b","ios":"levelo://app?vid=99dab14b-4c1b-452e-8ffb-ba8ac7438d5b"},"vehicle_type_id":"4","last_reported":1701079693,"current_range_meters":20800,"station_id":"ce4bgvh2rcd13ifvqcs0","pricing_plan_id":"free"},{"bike_id":"42089b03-6411-4d4e-af8b-0bf22e5ae6ee","system_id":"levelo_inurba_marseille","lat":43.28601,"lon":5.37063,"is_reserved":false,"is_disabled":false,"rental_uris":{"android":"levelo://app?vid=42089b03-6411-4d4e-af8b-0bf22e5ae6ee","ios":"levelo://app?vid=42089b03-6411-4d4e-af8b-0bf22e5ae6ee"},"vehicle_type_id":"4","last_reported":1701079693,"current_range_meters":21200,"station_id":"ce4bht12rcd13ifvqi60","pricing_plan_id":"free"},{"bike_id":"d8b05ea9-50d4-49e0-9f00-e23a4a6b7344","system_id":"levelo_inurba_marseille","lat":43.2872,"lon":5.37934,"is_reserved":false,"is_disabled":false,"rental_uris":{"android":"levelo://app?vid=d8b05ea9-50d4-49e0-9f00-e23a4a6b7344","ios":"levelo://app?vid=d8b05ea9-50d4-49e0-9f00-e23a4a6b7344"},"vehicle_type_id":"4","last_reported":1701079693,"current_range_meters":17200,"station_id":"ce4bh9p2rcd13ifvqec0","pricing_plan_id":"free"},{"bike_id":"125378e4-688e-4ac0-9d09-afdcdb362b15","system_id":"levelo_inurba_marseille","lat":43.294314,"lon":5.397498,"is_reserved":false,"is_disabled":false,"rental_uris":{"android":"levelo://app?vid=125378e4-688e-4ac0-9d09-afdcdb362b15","ios":"levelo://app?vid=125378e4-688e-4ac0-9d09-afdcdb362b15"},"vehicle_type_id":"4","last_reported":1701079693,"current_range_meters":23600,"station_id":"ce4bh3h2rcd13ifvqdo0","pricing_plan_id":"free"},{"bike_id":"04c468c4-ad76-49ff-b875-3a84bf410798","system_id":"levelo_inurba_marseille","lat":43.29574,"lon":5.39987,"is_reserved":false,"is_disabled":false,"rental_uris":{"android":"levelo://app?vid=04c468c4-ad76-49ff-b875-3a84bf410798","ios":"levelo://app?vid=04c468c4-ad76-49ff-b875-3a84bf410798"},"vehicle_type_id":"4","last_reported":1701079693,"current_range_meters":22800,"station_id":"ce4bh312rcd13ifvqdj0","pricing_plan_id":"free"},{"bike_id":"89c8f8be-be21-4861-8197-e2305482c3a7","system_id":"levelo_inurba_marseille","lat":43.286595,"lon":5.386795,"is_reserved":false,"is_disabled":false,"rental_uris":{"android":"levelo://app?vid=89c8f8be-be21-4861-8197-e2305482c3a7","ios":"levelo://app?vid=89c8f8be-be21-4861-8197-e2305482c3a7"},"vehicle_type_id":"4","last_reported":1701079693,"current_range_meters":26800,"station_id":"ce4bh492rcd13ifvqdug","pricing_plan_id":"free"},{"bike_id":"f8525205-8ce3-43a0-9569-604ffc1910a2","system_id":"levelo_inurba_marseille","lat":43.286595,"lon":5.386795,"is_reserved":false,"is_disabled":false,"rental_uris":{"android":"levelo://app?vid=f8525205-8ce3-43a0-9569-604ffc1910a2","ios":"levelo://app?vid=f8525205-8ce3-43a0-9569-604ffc1910a2"},"vehicle_type_id":"4","last_reported":1701079693,"current_range_meters":13600,"station_id":"ce4bh492rcd13ifvqdug","pricing_plan_id":"free"},{"bike_id":"bc1d83ec-de7f-4b48-b17d-6bf552251331","system_id":"levelo_inurba_marseille","lat":43.2867,"lon":5.38659,"is_reserved":false,"is_disabled":false,"rental_uris":{"android":"levelo://app?vid=bc1d83ec-de7f-4b48-b17d-6bf552251331","ios":"levelo://app?vid=bc1d83ec-de7f-4b48-b17d-6bf552251331"},"vehicle_type_id":"4","last_reported":1701079693,"current_range_meters":8400,"station_id":"ce4bh492rcd13ifvqdug","pricing_plan_id":"free"},{"bike_id":"d1ccbb10-f601-48b7-9fd7-a2496f88ae7f","system_id":"levelo_inurba_marseille","lat":43.29353,"lon":5.3986,"is_reserved":false,"is_disabled":false,"rental_uris":{"android":"levelo://app?vid=d1ccbb10-f601-48b7-9fd7-a2496f88ae7f","ios":"levelo://app?vid=d1ccbb10-f601-48b7-9fd7-a2496f88ae7f"},"vehicle_type_id":"4","last_reported":1701079693,"current_range_meters":6400,"station_id":"","pricing_plan_id":"free"},{"bike_id":"dc4777af-b0d2-49ac-b2e4-69297adada6e","system_id":"levelo_inurba_marseille","lat":43.284793,"lon":5.384113,"is_reserved":false,"is_disabled":false,"rental_uris":{"android":"levelo://app?vid=dc4777af-b0d2-49ac-b2e4-69297adada6e","ios":"levelo://app?vid=dc4777af-b0d2-49ac-b2e4-69297adada6e"},"vehicle_type_id":"4","last_reported":1701079693,"current_range_meters":24400,"station_id":"ce4bh512rcd13ifvqe3g","pricing_plan_id":"free"},{"bike_id":"acffe3ea-06c1-4bb2-ab8a-3652d47cf62e","system_id":"levelo_inurba_marseille","lat":43.288501,"lon":5.393087,"is_reserved":false,"is_disabled":false,"rental_uris":{"android":"levelo://app?vid=acffe3ea-06c1-4bb2-ab8a-3652d47cf62e","ios":"levelo://app?vid=acffe3ea-06c1-4bb2-ab8a-3652d47cf62e"},"vehicle_type_id":"4","last_reported":1701079693,"current_range_meters":31600,"station_id":"ce4bh2p2rcd13ifvqdi0","pricing_plan_id":"free"},{"bike_id":"3b070e92-8fbb-41c1-846f-989ae0f81a2b","system_id":"levelo_inurba_marseille","lat":43.283494,"lon":5.380945,"is_reserved":false,"is_disabled":false,"rental_uris":{"android":"levelo://app?vid=3b070e92-8fbb-41c1-846f-989ae0f81a2b","ios":"levelo://app?vid=3b070e92-8fbb-41c1-846f-989ae0f81a2b"},"vehicle_type_id":"4","last_reported":1701079693,"current_range_meters":400,"station_id":"ce4bh412rcd13ifvqdr0","pricing_plan_id":"free"},{"bike_id":"e2284003-4e46-4e0a-93e7-73d05c3666d9","system_id":"levelo_inurba_marseille","lat":43.33508,"lon":5.397755,"is_reserved":false,"is_disabled":false,"rental_uris":{"android":"levelo://app?vid=e2284003-4e46-4e0a-93e7-73d05c3666d9","ios":"levelo://app?vid=e2284003-4e46-4e0a-93e7-73d05c3666d9"},"vehicle_type_id":"4","last_reported":1701079693,"current_range_meters":15200,"station_id":"","pricing_plan_id":"free"},{"bike_id":"c4b5d99a-c2e6-4adc-8d33-12986664ac08","system_id":"levelo_inurba_marseille","lat":43.292724,"lon":5.401131,"is_reserved":false,"is_disabled":false,"rental_uris":{"android":"levelo://app?vid=c4b5d99a-c2e6-4adc-8d33-12986664ac08","ios":"levelo://app?vid=c4b5d99a-c2e6-4adc-8d33-12986664ac08"},"vehicle_type_id":"4","last_reported":1701079693,"current_range_meters":22000,"station_id":"ce4bh312rcd13ifvqdk0","pricing_plan_id":"free"},{"bike_id":"1f8f65be-2912-4f80-8417-fe1ca4ef7697","system_id":"levelo_inurba_marseille","lat":43.29271,"lon":5.40118,"is_reserved":false,"is_disabled":false,"rental_uris":{"android":"levelo://app?vid=1f8f65be-2912-4f80-8417-fe1ca4ef7697","ios":"levelo://app?vid=1f8f65be-2912-4f80-8417-fe1ca4ef7697"},"vehicle_type_id":"4","last_reported":1701079693,"current_range_meters":18000,"station_id":"ce4bh312rcd13ifvqdk0","pricing_plan_id":"free"},{"bike_id":"16a97055-dbd6-44c0-9a19-9feee5927bfe","system_id":"levelo_inurba_marseille","lat":43.282736,"lon":5.35069,"is_reserved":false,"is_disabled":false,"rental_uris":{"android":"levelo://app?vid=16a97055-dbd6-44c0-9a19-9feee5927bfe","ios":"levelo://app?vid=16a97055-dbd6-44c0-9a19-9feee5927bfe"},"vehicle_type_id":"4","last_reported":1701079693,"current_range_meters":20000,"station_id":"ce4bhbp2rcd13ifvqerg","pricing_plan_id":"free"},{"bike_id":"f7e47dd0-9175-4459-bf6c-3fc376e3be8f","system_id":"levelo_inurba_marseille","lat":43.282754,"lon":5.350519,"is_reserved":false,"is_disabled":false,"rental_uris":{"android":"levelo://app?vid=f7e47dd0-9175-4459-bf6c-3fc376e3be8f","ios":"levelo://app?vid=f7e47dd0-9175-4459-bf6c-3fc376e3be8f"},"vehicle_type_id":"4","last_reported":1701079693,"current_range_meters":21200,"station_id":"ce4bhbp2rcd13ifvqerg","pricing_plan_id":"free"},{"bike_id":"fa39ef0a-59d2-4081-9406-8e9614ab606d","system_id":"levelo_inurba_marseille","lat":43.283502,"lon":5.386471,"is_reserved":false,"is_disabled":false,"rental_uris":{"android":"levelo://app?vid=fa39ef0a-59d2-4081-9406-8e9614ab606d","ios":"levelo://app?vid=fa39ef0a-59d2-4081-9406-8e9614ab606d"},"vehicle_type_id":"4","last_reported":1701079693,"current_range_meters":1600,"station_id":"ce4bh492rcd13ifvqdvg","pricing_plan_id":"free"},{"bike_id":"7374f708-52c8-4dce-9e0f-09c2e77583ab","system_id":"levelo_inurba_marseille","lat":43.283502,"lon":5.386471,"is_reserved":false,"is_disabled":false,"rental_uris":{"android":"levelo://app?vid=7374f708-52c8-4dce-9e0f-09c2e77583ab","ios":"levelo://app?vid=7374f708-52c8-4dce-9e0f-09c2e77583ab"},"vehicle_type_id":"4","last_reported":1701079693,"current_range_meters":30400,"station_id":"ce4bh492rcd13ifvqdvg","pricing_plan_id":"free"},{"bike_id":"b3f5de32-7144-465c-a23d-20d488dc562d","system_id":"levelo_inurba_marseille","lat":43.282744,"lon":5.350533,"is_reserved":false,"is_disabled":false,"rental_uris":{"android":"levelo://app?vid=b3f5de32-7144-465c-a23d-20d488dc562d","ios":"levelo://app?vid=b3f5de32-7144-465c-a23d-20d488dc562d"},"vehicle_type_id":"4","last_reported":1701079693,"current_range_meters":24400,"station_id":"ce4bhbp2rcd13ifvqerg","pricing_plan_id":"free"},{"bike_id":"af636417-beb7-4375-b4a3-388b5fecdce1","system_id":"levelo_inurba_marseille","lat":43.282754,"lon":5.350519,"is_reserved":false,"is_disabled":false,"rental_uris":{"android":"levelo://app?vid=af636417-beb7-4375-b4a3-388b5fecdce1","ios":"levelo://app?vid=af636417-beb7-4375-b4a3-388b5fecdce1"},"vehicle_type_id":"4","last_reported":1701079693,"current_range_meters":16400,"station_id":"ce4bhbp2rcd13ifvqerg","pricing_plan_id":"free"},{"bike_id":"87cfdc82-71fe-4a2b-a965-dd7cb419b6e5","system_id":"levelo_inurba_marseille","lat":43.282754,"lon":5.350519,"is_reserved":false,"is_disabled":false,"rental_uris":{"android":"levelo://app?vid=87cfdc82-71fe-4a2b-a965-dd7cb419b6e5","ios":"levelo://app?vid=87cfdc82-71fe-4a2b-a965-dd7cb419b6e5"},"vehicle_type_id":"4","last_reported":1701079693,"current_range_meters":22800,"station_id":"ce4bhbp2rcd13ifvqerg","pricing_plan_id":"free"},{"bike_id":"afaa3978-337d-42bd-ac29-778f821e7594","system_id":"levelo_inurba_marseille","lat":43.29037,"lon":5.399755,"is_reserved":false,"is_disabled":false,"rental_uris":{"android":"levelo://app?vid=afaa3978-337d-42bd-ac29-778f821e7594","ios":"levelo://app?vid=afaa3978-337d-42bd-ac29-778f821e7594"},"vehicle_type_id":"4","last_reported":1701079693,"current_range_meters":0,"station_id":"ce4bh392rcd13ifvqdm0","pricing_plan_id":"free"},{"bike_id":"a11d11ca-8b69-437a-aaba-454e2a359522","system_id":"levelo_inurba_marseille","lat":43.296263,"lon":5.40601,"is_reserved":false,"is_disabled":false,"rental_uris":{"android":"levelo://app?vid=a11d11ca-8b69-437a-aaba-454e2a359522","ios":"levelo://app?vid=a11d11ca-8b69-437a-aaba-454e2a359522"},"vehicle_type_id":"4","last_reported":1701079693,"current_range_meters":24800,"station_id":"ce4bh0h2rcd13ifvqd60","pricing_plan_id":"free"},{"bike_id":"10f38121-5f89-456f-ac8d-2c8b5ff18f52","system_id":"levelo_inurba_marseille","lat":43.284462,"lon":5.392121,"is_reserved":false,"is_disabled":false,"rental_uris":{"android":"levelo://app?vid=10f38121-5f89-456f-ac8d-2c8b5ff18f52","ios":"levelo://app?vid=10f38121-5f89-456f-ac8d-2c8b5ff18f52"},"vehicle_type_id":"4","last_reported":1701079693,"current_range_meters":27600,"station_id":"ce4bhoh2rcd13ifvqh5g","pricing_plan_id":"free"},{"bike_id":"df169e59-c09d-4981-8522-35707fad0d45","system_id":"levelo_inurba_marseille","lat":43.284462,"lon":5.392121,"is_reserved":false,"is_disabled":false,"rental_uris":{"android":"levelo://app?vid=df169e59-c09d-4981-8522-35707fad0d45","ios":"levelo://app?vid=df169e59-c09d-4981-8522-35707fad0d45"},"vehicle_type_id":"4","last_reported":1701079693,"current_range_meters":10400,"station_id":"ce4bhoh2rcd13ifvqh5g","pricing_plan_id":"free"},{"bike_id":"84cd78bf-989f-4eb9-aeec-5f45244ee2bc","system_id":"levelo_inurba_marseille","lat":43.287154,"lon":5.399979,"is_reserved":false,"is_disabled":false,"rental_uris":{"android":"levelo://app?vid=84cd78bf-989f-4eb9-aeec-5f45244ee2bc","ios":"levelo://app?vid=84cd78bf-989f-4eb9-aeec-5f45244ee2bc"},"vehicle_type_id":"4","last_reported":1701079693,"current_range_meters":23600,"station_id":"ce4bho92rcd13ifvqh3g","pricing_plan_id":"free"},{"bike_id":"a0831dfa-7767-4554-95f8-56d5d3183c31","system_id":"levelo_inurba_marseille","lat":43.326605,"lon":5.409903,"is_reserved":false,"is_disabled":false,"rental_uris":{"android":"levelo://app?vid=a0831dfa-7767-4554-95f8-56d5d3183c31","ios":"levelo://app?vid=a0831dfa-7767-4554-95f8-56d5d3183c31"},"vehicle_type_id":"4","last_reported":1701079693,"current_range_meters":23600,"station_id":"ce4bhpp2rcd13ifvqhgg","pricing_plan_id":"free"},{"bike_id":"c103b530-9c6d-4ac7-adf6-4ae019cb5aa9","system_id":"levelo_inurba_marseille","lat":43.29958,"lon":5.41317,"is_reserved":false,"is_disabled":false,"rental_uris":{"android":"levelo://app?vid=c103b530-9c6d-4ac7-adf6-4ae019cb5aa9","ios":"levelo://app?vid=c103b530-9c6d-4ac7-adf6-4ae019cb5aa9"},"vehicle_type_id":"4","last_reported":1701079693,"current_range_meters":30000,"station_id":"ce4bhp12rcd13ifvqh9g","pricing_plan_id":"free"},{"bike_id":"51b31095-3087-4fe2-9ed1-e11fc9a7e24a","system_id":"levelo_inurba_marseille","lat":43.320045,"lon":5.415046,"is_reserved":false,"is_disabled":false,"rental_uris":{"android":"levelo://app?vid=51b31095-3087-4fe2-9ed1-e11fc9a7e24a","ios":"levelo://app?vid=51b31095-3087-4fe2-9ed1-e11fc9a7e24a"},"vehicle_type_id":"4","last_reported":1701079693,"current_range_meters":30000,"station_id":"ce4bhq92rcd13ifvqhkg","pricing_plan_id":"free"},{"bike_id":"07494236-0f36-4a8a-990c-6daf42d3b07e","system_id":"levelo_inurba_marseille","lat":43.320045,"lon":5.415048,"is_reserved":false,"is_disabled":false,"rental_uris":{"android":"levelo://app?vid=07494236-0f36-4a8a-990c-6daf42d3b07e","ios":"levelo://app?vid=07494236-0f36-4a8a-990c-6daf42d3b07e"},"vehicle_type_id":"4","last_reported":1701079693,"current_range_meters":30000,"station_id":"ce4bhq92rcd13ifvqhkg","pricing_plan_id":"free"},{"bike_id":"6526cad1-2f4b-4db1-8d6b-ce04bc407b31","system_id":"levelo_inurba_marseille","lat":43.34883,"lon":5.37501,"is_reserved":false,"is_disabled":false,"rental_uris":{"android":"levelo://app?vid=6526cad1-2f4b-4db1-8d6b-ce04bc407b31","ios":"levelo://app?vid=6526cad1-2f4b-4db1-8d6b-ce04bc407b31"},"vehicle_type_id":"4","last_reported":1701079693,"current_range_meters":0,"station_id":"","pricing_plan_id":"free"},{"bike_id":"bf4eb13f-cbea-42d7-8dc7-4fac53914e76","system_id":"levelo_inurba_marseille","lat":43.325233,"lon":5.414318,"is_reserved":false,"is_disabled":false,"rental_uris":{"android":"levelo://app?vid=bf4eb13f-cbea-42d7-8dc7-4fac53914e76","ios":"levelo://app?vid=bf4eb13f-cbea-42d7-8dc7-4fac53914e76"},"vehicle_type_id":"4","last_reported":1701079693,"current_range_meters":15200,"station_id":"ce4bhq12rcd13ifvqhhg","pricing_plan_id":"free"},{"bike_id":"e24fe7b9-0366-468c-bdf9-1a743ba45670","system_id":"levelo_inurba_marseille","lat":43.325233,"lon":5.414318,"is_reserved":false,"is_disabled":false,"rental_uris":{"android":"levelo://app?vid=e24fe7b9-0366-468c-bdf9-1a743ba45670","ios":"levelo://app?vid=e24fe7b9-0366-468c-bdf9-1a743ba45670"},"vehicle_type_id":"4","last_reported":1701079693,"current_range_meters":20400,"station_id":"ce4bhq12rcd13ifvqhhg","pricing_plan_id":"free"},{"bike_id":"bbdb5489-40fe-4cfd-a58b-8a8da0ade43b","system_id":"levelo_inurba_marseille","lat":43.325233,"lon":5.414318,"is_reserved":false,"is_disabled":false,"rental_uris":{"android":"levelo://app?vid=bbdb5489-40fe-4cfd-a58b-8a8da0ade43b","ios":"levelo://app?vid=bbdb5489-40fe-4cfd-a58b-8a8da0ade43b"},"vehicle_type_id":"4","last_reported":1701079693,"current_range_meters":800,"station_id":"ce4bhq12rcd13ifvqhhg","pricing_plan_id":"free"},{"bike_id":"7e2d48f2-e932-4325-8443-338bec787538","system_id":"levelo_inurba_marseille","lat":43.325233,"lon":5.414318,"is_reserved":false,"is_disabled":false,"rental_uris":{"android":"levelo://app?vid=7e2d48f2-e932-4325-8443-338bec787538","ios":"levelo://app?vid=7e2d48f2-e932-4325-8443-338bec787538"},"vehicle_type_id":"4","last_reported":1701079693,"current_range_meters":30800,"station_id":"ce4bhq12rcd13ifvqhhg","pricing_plan_id":"free"},{"bike_id":"a8f3332e-5c17-4bd2-bd8a-87b34d9784e9","system_id":"levelo_inurba_marseille","lat":43.325233,"lon":5.414318,"is_reserved":false,"is_disabled":false,"rental_uris":{"android":"levelo://app?vid=a8f3332e-5c17-4bd2-bd8a-87b34d9784e9","ios":"levelo://app?vid=a8f3332e-5c17-4bd2-bd8a-87b34d9784e9"},"vehicle_type_id":"4","last_reported":1701079693,"current_range_meters":26800,"station_id":"ce4bhq12rcd13ifvqhhg","pricing_plan_id":"free"},{"bike_id":"365bb097-7fb7-460a-8b29-58b51680ab59","system_id":"levelo_inurba_marseille","lat":43.303837,"lon":5.418724,"is_reserved":false,"is_disabled":false,"rental_uris":{"android":"levelo://app?vid=365bb097-7fb7-460a-8b29-58b51680ab59","ios":"levelo://app?vid=365bb097-7fb7-460a-8b29-58b51680ab59"},"vehicle_type_id":"4","last_reported":1701079693,"current_range_meters":18000,"station_id":"ce4bhop2rcd13ifvqh7g","pricing_plan_id":"free"},{"bike_id":"ffca25e5-51e0-486a-824d-ae5341197bac","system_id":"levelo_inurba_marseille","lat":43.278401,"lon":5.392152,"is_reserved":false,"is_disabled":false,"rental_uris":{"android":"levelo://app?vid=ffca25e5-51e0-486a-824d-ae5341197bac","ios":"levelo://app?vid=ffca25e5-51e0-486a-824d-ae5341197bac"},"vehicle_type_id":"4","last_reported":1701079693,"current_range_meters":26400,"station_id":"ce4bhjp2rcd13ifvqga0","pricing_plan_id":"free"},{"bike_id":"959a9a8d-b7e8-461b-aef4-eeff803564a4","system_id":"levelo_inurba_marseille","lat":43.33612,"lon":5.410321,"is_reserved":false,"is_disabled":false,"rental_uris":{"android":"levelo://app?vid=959a9a8d-b7e8-461b-aef4-eeff803564a4","ios":"levelo://app?vid=959a9a8d-b7e8-461b-aef4-eeff803564a4"},"vehicle_type_id":"4","last_reported":1701079693,"current_range_meters":2400,"station_id":"ce4bhqh2rcd13ifvqhmg","pricing_plan_id":"free"},{"bike_id":"529e1873-c67a-49df-a3f5-37d727adbcee","system_id":"levelo_inurba_marseille","lat":43.273613,"lon":5.362705,"is_reserved":false,"is_disabled":false,"rental_uris":{"android":"levelo://app?vid=529e1873-c67a-49df-a3f5-37d727adbcee","ios":"levelo://app?vid=529e1873-c67a-49df-a3f5-37d727adbcee"},"vehicle_type_id":"4","last_reported":1701079693,"current_range_meters":9200,"station_id":"ce4bhbh2rcd13ifvqeo0","pricing_plan_id":"free"},{"bike_id":"43a0b753-fb47-4881-91d9-d29a0815f06e","system_id":"levelo_inurba_marseille","lat":43.273609,"lon":5.362708,"is_reserved":false,"is_disabled":false,"rental_uris":{"android":"levelo://app?vid=43a0b753-fb47-4881-91d9-d29a0815f06e","ios":"levelo://app?vid=43a0b753-fb47-4881-91d9-d29a0815f06e"},"vehicle_type_id":"4","last_reported":1701079693,"current_range_meters":30000,"station_id":"ce4bhbh2rcd13ifvqeo0","pricing_plan_id":"free"},{"bike_id":"10ef5e8d-e710-433e-8260-44191e4a0a89","system_id":"levelo_inurba_marseille","lat":43.27372,"lon":5.3626,"is_reserved":false,"is_disabled":false,"rental_uris":{"android":"levelo://app?vid=10ef5e8d-e710-433e-8260-44191e4a0a89","ios":"levelo://app?vid=10ef5e8d-e710-433e-8260-44191e4a0a89"},"vehicle_type_id":"4","last_reported":1701079693,"current_range_meters":22000,"station_id":"ce4bhbh2rcd13ifvqeo0","pricing_plan_id":"free"},{"bike_id":"762a2d7a-e8cf-423b-a632-8002c3ad8f77","system_id":"levelo_inurba_marseille","lat":43.33612,"lon":5.410321,"is_reserved":false,"is_disabled":false,"rental_uris":{"android":"levelo://app?vid=762a2d7a-e8cf-423b-a632-8002c3ad8f77","ios":"levelo://app?vid=762a2d7a-e8cf-423b-a632-8002c3ad8f77"},"vehicle_type_id":"4","last_reported":1701079693,"current_range_meters":20800,"station_id":"ce4bhqh2rcd13ifvqhmg","pricing_plan_id":"free"},{"bike_id":"4f77d8aa-8cd2-4738-8736-452d5e520a45","system_id":"levelo_inurba_marseille","lat":43.33612,"lon":5.410321,"is_reserved":false,"is_disabled":false,"rental_uris":{"android":"levelo://app?vid=4f77d8aa-8cd2-4738-8736-452d5e520a45","ios":"levelo://app?vid=4f77d8aa-8cd2-4738-8736-452d5e520a45"},"vehicle_type_id":"4","last_reported":1701079693,"current_range_meters":31600,"station_id":"ce4bhqh2rcd13ifvqhmg","pricing_plan_id":"free"},{"bike_id":"b38ffad7-134a-40fa-bc8b-31f1166191a4","system_id":"levelo_inurba_marseille","lat":43.336134,"lon":5.410341,"is_reserved":false,"is_disabled":false,"rental_uris":{"android":"levelo://app?vid=b38ffad7-134a-40fa-bc8b-31f1166191a4","ios":"levelo://app?vid=b38ffad7-134a-40fa-bc8b-31f1166191a4"},"vehicle_type_id":"4","last_reported":1701079693,"current_range_meters":21200,"station_id":"ce4bhqh2rcd13ifvqhmg","pricing_plan_id":"free"},{"bike_id":"0eeae51c-7855-4686-ba49-5a63463d5444","system_id":"levelo_inurba_marseille","lat":43.33612,"lon":5.410321,"is_reserved":false,"is_disabled":false,"rental_uris":{"android":"levelo://app?vid=0eeae51c-7855-4686-ba49-5a63463d5444","ios":"levelo://app?vid=0eeae51c-7855-4686-ba49-5a63463d5444"},"vehicle_type_id":"4","last_reported":1701079693,"current_range_meters":29200,"station_id":"ce4bhqh2rcd13ifvqhmg","pricing_plan_id":"free"},{"bike_id":"1cc17d5d-d38e-40c2-902a-0cd45a8ed295","system_id":"levelo_inurba_marseille","lat":43.276771,"lon":5.388799,"is_reserved":false,"is_disabled":false,"rental_uris":{"android":"levelo://app?vid=1cc17d5d-d38e-40c2-902a-0cd45a8ed295","ios":"levelo://app?vid=1cc17d5d-d38e-40c2-902a-0cd45a8ed295"},"vehicle_type_id":"4","last_reported":1701079693,"current_range_meters":26800,"station_id":"ce4bhi12rcd13ifvqfo0","pricing_plan_id":"free"},{"bike_id":"1d7091d5-ee9e-4f48-9745-5c69a077227a","system_id":"levelo_inurba_marseille","lat":43.336134,"lon":5.410341,"is_reserved":false,"is_disabled":false,"rental_uris":{"android":"levelo://app?vid=1d7091d5-ee9e-4f48-9745-5c69a077227a","ios":"levelo://app?vid=1d7091d5-ee9e-4f48-9745-5c69a077227a"},"vehicle_type_id":"4","last_reported":1701079693,"current_range_meters":20000,"station_id":"ce4bhqh2rcd13ifvqhmg","pricing_plan_id":"free"},{"bike_id":"bfa1e049-5f4d-48af-9a2f-d56a70573085","system_id":"levelo_inurba_marseille","lat":43.28,"lon":5.40007,"is_reserved":false,"is_disabled":false,"rental_uris":{"android":"levelo://app?vid=bfa1e049-5f4d-48af-9a2f-d56a70573085","ios":"levelo://app?vid=bfa1e049-5f4d-48af-9a2f-d56a70573085"},"vehicle_type_id":"4","last_reported":1701079693,"current_range_meters":28400,"station_id":"ce4bho92rcd13ifvqh4g","pricing_plan_id":"free"},{"bike_id":"01146bbd-59df-4458-a651-778531e9a4cf","system_id":"levelo_inurba_marseille","lat":43.310785,"lon":5.424305,"is_reserved":false,"is_disabled":false,"rental_uris":{"android":"levelo://app?vid=01146bbd-59df-4458-a651-778531e9a4cf","ios":"levelo://app?vid=01146bbd-59df-4458-a651-778531e9a4cf"},"vehicle_type_id":"4","last_reported":1701079693,"current_range_meters":29600,"station_id":"ce4bhp92rcd13ifvqhag","pricing_plan_id":"free"},{"bike_id":"b2e383cc-c560-4935-8458-56a2adcb531f","system_id":"levelo_inurba_marseille","lat":43.310785,"lon":5.424305,"is_reserved":false,"is_disabled":false,"rental_uris":{"android":"levelo://app?vid=b2e383cc-c560-4935-8458-56a2adcb531f","ios":"levelo://app?vid=b2e383cc-c560-4935-8458-56a2adcb531f"},"vehicle_type_id":"4","last_reported":1701079693,"current_range_meters":25600,"station_id":"ce4bhp92rcd13ifvqhag","pricing_plan_id":"free"},{"bike_id":"82b5bb96-6569-4927-a4d2-f1faee99f1b8","system_id":"levelo_inurba_marseille","lat":43.340804,"lon":5.410219,"is_reserved":false,"is_disabled":false,"rental_uris":{"android":"levelo://app?vid=82b5bb96-6569-4927-a4d2-f1faee99f1b8","ios":"levelo://app?vid=82b5bb96-6569-4927-a4d2-f1faee99f1b8"},"vehicle_type_id":"4","last_reported":1701079693,"current_range_meters":28400,"station_id":"ce4bhqh2rcd13ifvqhlg","pricing_plan_id":"free"},{"bike_id":"04466e27-f8e7-40ac-b95a-24ce514da9cd","system_id":"levelo_inurba_marseille","lat":43.27316,"lon":5.39083,"is_reserved":false,"is_disabled":false,"rental_uris":{"android":"levelo://app?vid=04466e27-f8e7-40ac-b95a-24ce514da9cd","ios":"levelo://app?vid=04466e27-f8e7-40ac-b95a-24ce514da9cd"},"vehicle_type_id":"4","last_reported":1701079693,"current_range_meters":25200,"station_id":"ce4bhgp2rcd13ifvqfe0","pricing_plan_id":"free"},{"bike_id":"8e3f86f1-1a89-4963-8ab3-649d6d1a4e3e","system_id":"levelo_inurba_marseille","lat":43.274103,"lon":5.394016,"is_reserved":false,"is_disabled":false,"rental_uris":{"android":"levelo://app?vid=8e3f86f1-1a89-4963-8ab3-649d6d1a4e3e","ios":"levelo://app?vid=8e3f86f1-1a89-4963-8ab3-649d6d1a4e3e"},"vehicle_type_id":"4","last_reported":1701079693,"current_range_meters":28800,"station_id":"ce4bhdp2rcd13ifvqf20","pricing_plan_id":"free"},{"bike_id":"ea3c6ea1-e819-420b-b5dc-5dcaf1e4b19b","system_id":"levelo_inurba_marseille","lat":43.274099,"lon":5.394019,"is_reserved":false,"is_disabled":false,"rental_uris":{"android":"levelo://app?vid=ea3c6ea1-e819-420b-b5dc-5dcaf1e4b19b","ios":"levelo://app?vid=ea3c6ea1-e819-420b-b5dc-5dcaf1e4b19b"},"vehicle_type_id":"4","last_reported":1701079693,"current_range_meters":15200,"station_id":"ce4bhdp2rcd13ifvqf20","pricing_plan_id":"free"},{"bike_id":"34fa8372-88bb-4e81-8d04-87953e2f0e84","system_id":"levelo_inurba_marseille","lat":43.273129,"lon":5.390725,"is_reserved":false,"is_disabled":false,"rental_uris":{"android":"levelo://app?vid=34fa8372-88bb-4e81-8d04-87953e2f0e84","ios":"levelo://app?vid=34fa8372-88bb-4e81-8d04-87953e2f0e84"},"vehicle_type_id":"4","last_reported":1701079693,"current_range_meters":2800,"station_id":"ce4bhgp2rcd13ifvqfe0","pricing_plan_id":"free"},{"bike_id":"487e8935-2222-4e65-8507-6d483307a42a","system_id":"levelo_inurba_marseille","lat":43.295511,"lon":5.422926,"is_reserved":false,"is_disabled":false,"rental_uris":{"android":"levelo://app?vid=487e8935-2222-4e65-8507-6d483307a42a","ios":"levelo://app?vid=487e8935-2222-4e65-8507-6d483307a42a"},"vehicle_type_id":"4","last_reported":1701079693,"current_range_meters":31200,"station_id":"ce4bhph2rcd13ifvqhdg","pricing_plan_id":"free"},{"bike_id":"3029bb9c-a722-4a0b-80d7-eaec226f56af","system_id":"levelo_inurba_marseille","lat":43.295511,"lon":5.422926,"is_reserved":false,"is_disabled":false,"rental_uris":{"android":"levelo://app?vid=3029bb9c-a722-4a0b-80d7-eaec226f56af","ios":"levelo://app?vid=3029bb9c-a722-4a0b-80d7-eaec226f56af"},"vehicle_type_id":"4","last_reported":1701079693,"current_range_meters":22400,"station_id":"ce4bhph2rcd13ifvqhdg","pricing_plan_id":"free"},{"bike_id":"9efe761d-4b17-4e3f-a49f-4e76c8ea96ba","system_id":"levelo_inurba_marseille","lat":43.272116,"lon":5.391763,"is_reserved":false,"is_disabled":false,"rental_uris":{"android":"levelo://app?vid=9efe761d-4b17-4e3f-a49f-4e76c8ea96ba","ios":"levelo://app?vid=9efe761d-4b17-4e3f-a49f-4e76c8ea96ba"},"vehicle_type_id":"4","last_reported":1701079693,"current_range_meters":16800,"station_id":"ce4bhhp2rcd13ifvqfm0","pricing_plan_id":"free"},{"bike_id":"09eae8cb-51e8-4677-9c28-bfff4dce6bf5","system_id":"levelo_inurba_marseille","lat":43.272116,"lon":5.391747,"is_reserved":false,"is_disabled":false,"rental_uris":{"android":"levelo://app?vid=09eae8cb-51e8-4677-9c28-bfff4dce6bf5","ios":"levelo://app?vid=09eae8cb-51e8-4677-9c28-bfff4dce6bf5"},"vehicle_type_id":"4","last_reported":1701079693,"current_range_meters":24800,"station_id":"ce4bhhp2rcd13ifvqfm0","pricing_plan_id":"free"},{"bike_id":"b6f25c3e-3cdf-4860-9d67-f36a89266aab","system_id":"levelo_inurba_marseille","lat":43.272118,"lon":5.391758,"is_reserved":false,"is_disabled":false,"rental_uris":{"android":"levelo://app?vid=b6f25c3e-3cdf-4860-9d67-f36a89266aab","ios":"levelo://app?vid=b6f25c3e-3cdf-4860-9d67-f36a89266aab"},"vehicle_type_id":"4","last_reported":1701079693,"current_range_meters":19600,"station_id":"ce4bhhp2rcd13ifvqfm0","pricing_plan_id":"free"},{"bike_id":"a954f08d-224a-4607-a76f-31b1123e4894","system_id":"levelo_inurba_marseille","lat":43.269467,"lon":5.386439,"is_reserved":false,"is_disabled":false,"rental_uris":{"android":"levelo://app?vid=a954f08d-224a-4607-a76f-31b1123e4894","ios":"levelo://app?vid=a954f08d-224a-4607-a76f-31b1123e4894"},"vehicle_type_id":"4","last_reported":1701079693,"current_range_meters":26400,"station_id":"ce4bhh92rcd13ifvqfh0","pricing_plan_id":"free"},{"bike_id":"b330d490-7868-4baa-b55a-3602b380ec61","system_id":"levelo_inurba_marseille","lat":43.269467,"lon":5.386439,"is_reserved":false,"is_disabled":false,"rental_uris":{"android":"levelo://app?vid=b330d490-7868-4baa-b55a-3602b380ec61","ios":"levelo://app?vid=b330d490-7868-4baa-b55a-3602b380ec61"},"vehicle_type_id":"4","last_reported":1701079693,"current_range_meters":30800,"station_id":"ce4bhh92rcd13ifvqfh0","pricing_plan_id":"free"},{"bike_id":"66ba5ddc-e3ab-4fac-8696-0c262ce2a3ed","system_id":"levelo_inurba_marseille","lat":43.269467,"lon":5.386439,"is_reserved":false,"is_disabled":false,"rental_uris":{"android":"levelo://app?vid=66ba5ddc-e3ab-4fac-8696-0c262ce2a3ed","ios":"levelo://app?vid=66ba5ddc-e3ab-4fac-8696-0c262ce2a3ed"},"vehicle_type_id":"4","last_reported":1701079693,"current_range_meters":31200,"station_id":"ce4bhh92rcd13ifvqfh0","pricing_plan_id":"free"},{"bike_id":"a6f0e1d9-5ab9-40bd-8a5d-6142a454a3f8","system_id":"levelo_inurba_marseille","lat":43.269467,"lon":5.386439,"is_reserved":false,"is_disabled":false,"rental_uris":{"android":"levelo://app?vid=a6f0e1d9-5ab9-40bd-8a5d-6142a454a3f8","ios":"levelo://app?vid=a6f0e1d9-5ab9-40bd-8a5d-6142a454a3f8"},"vehicle_type_id":"4","last_reported":1701079693,"current_range_meters":30000,"station_id":"ce4bhh92rcd13ifvqfh0","pricing_plan_id":"free"},{"bike_id":"11c530ef-3a1e-4341-9786-f43509d01bc1","system_id":"levelo_inurba_marseille","lat":43.29803,"lon":5.42655,"is_reserved":false,"is_disabled":false,"rental_uris":{"android":"levelo://app?vid=11c530ef-3a1e-4341-9786-f43509d01bc1","ios":"levelo://app?vid=11c530ef-3a1e-4341-9786-f43509d01bc1"},"vehicle_type_id":"4","last_reported":1701079693,"current_range_meters":0,"station_id":"","pricing_plan_id":"free"},{"bike_id":"3a549760-e2d2-42ab-a932-0580d331ba47","system_id":"levelo_inurba_marseille","lat":43.279465,"lon":5.410561,"is_reserved":false,"is_disabled":false,"rental_uris":{"android":"levelo://app?vid=3a549760-e2d2-42ab-a932-0580d331ba47","ios":"levelo://app?vid=3a549760-e2d2-42ab-a932-0580d331ba47"},"vehicle_type_id":"4","last_reported":1701079693,"current_range_meters":3200,"station_id":"ce4bhnp2rcd13ifvqh0g","pricing_plan_id":"free"},{"bike_id":"e9e92a22-b6bb-41d2-a28b-34c5d63656b8","system_id":"levelo_inurba_marseille","lat":43.269319,"lon":5.389397,"is_reserved":false,"is_disabled":false,"rental_uris":{"android":"levelo://app?vid=e9e92a22-b6bb-41d2-a28b-34c5d63656b8","ios":"levelo://app?vid=e9e92a22-b6bb-41d2-a28b-34c5d63656b8"},"vehicle_type_id":"4","last_reported":1701079693,"current_range_meters":25200,"station_id":"ce4bhhh2rcd13ifvqfl0","pricing_plan_id":"free"},{"bike_id":"e4b68f4a-2ca1-49c2-936e-c6a93135be9a","system_id":"levelo_inurba_marseille","lat":43.26681,"lon":5.382694,"is_reserved":false,"is_disabled":false,"rental_uris":{"android":"levelo://app?vid=e4b68f4a-2ca1-49c2-936e-c6a93135be9a","ios":"levelo://app?vid=e4b68f4a-2ca1-49c2-936e-c6a93135be9a"},"vehicle_type_id":"4","last_reported":1701079693,"current_range_meters":31600,"station_id":"ce4bhg92rcd13ifvqf90","pricing_plan_id":"free"},{"bike_id":"5844cac5-d8cf-4995-bae7-16b150717a41","system_id":"levelo_inurba_marseille","lat":43.26681,"lon":5.382694,"is_reserved":false,"is_disabled":false,"rental_uris":{"android":"levelo://app?vid=5844cac5-d8cf-4995-bae7-16b150717a41","ios":"levelo://app?vid=5844cac5-d8cf-4995-bae7-16b150717a41"},"vehicle_type_id":"4","last_reported":1701079693,"current_range_meters":14800,"station_id":"ce4bhg92rcd13ifvqf90","pricing_plan_id":"free"},{"bike_id":"b13a942b-5b83-431b-96ed-c53ee14198c7","system_id":"levelo_inurba_marseille","lat":43.26681,"lon":5.382694,"is_reserved":false,"is_disabled":false,"rental_uris":{"android":"levelo://app?vid=b13a942b-5b83-431b-96ed-c53ee14198c7","ios":"levelo://app?vid=b13a942b-5b83-431b-96ed-c53ee14198c7"},"vehicle_type_id":"4","last_reported":1701079693,"current_range_meters":27600,"station_id":"ce4bhg92rcd13ifvqf90","pricing_plan_id":"free"},{"bike_id":"3f118269-40dc-4f43-80d2-9f0573bdf414","system_id":"levelo_inurba_marseille","lat":43.26681,"lon":5.382694,"is_reserved":false,"is_disabled":false,"rental_uris":{"android":"levelo://app?vid=3f118269-40dc-4f43-80d2-9f0573bdf414","ios":"levelo://app?vid=3f118269-40dc-4f43-80d2-9f0573bdf414"},"vehicle_type_id":"4","last_reported":1701079693,"current_range_meters":26400,"station_id":"ce4bhg92rcd13ifvqf90","pricing_plan_id":"free"},{"bike_id":"85e14555-81ae-4c2b-bb64-c7d65db3d5a9","system_id":"levelo_inurba_marseille","lat":43.26681,"lon":5.382694,"is_reserved":false,"is_disabled":false,"rental_uris":{"android":"levelo://app?vid=85e14555-81ae-4c2b-bb64-c7d65db3d5a9","ios":"levelo://app?vid=85e14555-81ae-4c2b-bb64-c7d65db3d5a9"},"vehicle_type_id":"4","last_reported":1701079693,"current_range_meters":28000,"station_id":"ce4bhg92rcd13ifvqf90","pricing_plan_id":"free"},{"bike_id":"7778668d-d420-499a-a45f-1b5180949567","system_id":"levelo_inurba_marseille","lat":43.26681,"lon":5.382694,"is_reserved":false,"is_disabled":false,"rental_uris":{"android":"levelo://app?vid=7778668d-d420-499a-a45f-1b5180949567","ios":"levelo://app?vid=7778668d-d420-499a-a45f-1b5180949567"},"vehicle_type_id":"4","last_reported":1701079693,"current_range_meters":15200,"station_id":"ce4bhg92rcd13ifvqf90","pricing_plan_id":"free"},{"bike_id":"4e935c36-90c4-402d-8a48-9c806e8c7f2f","system_id":"levelo_inurba_marseille","lat":43.26681,"lon":5.382694,"is_reserved":false,"is_disabled":false,"rental_uris":{"android":"levelo://app?vid=4e935c36-90c4-402d-8a48-9c806e8c7f2f","ios":"levelo://app?vid=4e935c36-90c4-402d-8a48-9c806e8c7f2f"},"vehicle_type_id":"4","last_reported":1701079693,"current_range_meters":31600,"station_id":"ce4bhg92rcd13ifvqf90","pricing_plan_id":"free"},{"bike_id":"4725fd96-49b6-4ab9-93ac-fefefc7f80e0","system_id":"levelo_inurba_marseille","lat":43.26681,"lon":5.382694,"is_reserved":false,"is_disabled":false,"rental_uris":{"android":"levelo://app?vid=4725fd96-49b6-4ab9-93ac-fefefc7f80e0","ios":"levelo://app?vid=4725fd96-49b6-4ab9-93ac-fefefc7f80e0"},"vehicle_type_id":"4","last_reported":1701079693,"current_range_meters":1600,"station_id":"ce4bhg92rcd13ifvqf90","pricing_plan_id":"free"},{"bike_id":"045c779a-0de3-4f1a-9ff9-44572f00cc3e","system_id":"levelo_inurba_marseille","lat":43.26681,"lon":5.382694,"is_reserved":false,"is_disabled":false,"rental_uris":{"android":"levelo://app?vid=045c779a-0de3-4f1a-9ff9-44572f00cc3e","ios":"levelo://app?vid=045c779a-0de3-4f1a-9ff9-44572f00cc3e"},"vehicle_type_id":"4","last_reported":1701079693,"current_range_meters":31600,"station_id":"ce4bhg92rcd13ifvqf90","pricing_plan_id":"free"},{"bike_id":"72dbca0f-23b3-44ed-8277-c5031ec7553b","system_id":"levelo_inurba_marseille","lat":43.26681,"lon":5.382694,"is_reserved":false,"is_disabled":false,"rental_uris":{"android":"levelo://app?vid=72dbca0f-23b3-44ed-8277-c5031ec7553b","ios":"levelo://app?vid=72dbca0f-23b3-44ed-8277-c5031ec7553b"},"vehicle_type_id":"4","last_reported":1701079693,"current_range_meters":28400,"station_id":"ce4bhg92rcd13ifvqf90","pricing_plan_id":"free"},{"bike_id":"ea07f886-25ab-4762-bffe-79ccd5af5f43","system_id":"levelo_inurba_marseille","lat":43.26681,"lon":5.382694,"is_reserved":false,"is_disabled":false,"rental_uris":{"android":"levelo://app?vid=ea07f886-25ab-4762-bffe-79ccd5af5f43","ios":"levelo://app?vid=ea07f886-25ab-4762-bffe-79ccd5af5f43"},"vehicle_type_id":"4","last_reported":1701079693,"current_range_meters":17600,"station_id":"ce4bhg92rcd13ifvqf90","pricing_plan_id":"free"},{"bike_id":"f23d8119-b478-4639-98c5-6883279f9f84","system_id":"levelo_inurba_marseille","lat":43.32592,"lon":5.43067,"is_reserved":false,"is_disabled":false,"rental_uris":{"android":"levelo://app?vid=f23d8119-b478-4639-98c5-6883279f9f84","ios":"levelo://app?vid=f23d8119-b478-4639-98c5-6883279f9f84"},"vehicle_type_id":"4","last_reported":1701079693,"current_range_meters":19600,"station_id":"","pricing_plan_id":"free"},{"bike_id":"ed30d6a1-b23a-49e5-9c83-5546be72a734","system_id":"levelo_inurba_marseille","lat":43.3259,"lon":5.43075,"is_reserved":false,"is_disabled":false,"rental_uris":{"android":"levelo://app?vid=ed30d6a1-b23a-49e5-9c83-5546be72a734","ios":"levelo://app?vid=ed30d6a1-b23a-49e5-9c83-5546be72a734"},"vehicle_type_id":"4","last_reported":1701079693,"current_range_meters":14400,"station_id":"","pricing_plan_id":"free"},{"bike_id":"d67469ee-5362-4610-a163-fe05ae3cf4f7","system_id":"levelo_inurba_marseille","lat":43.32604,"lon":5.430817,"is_reserved":false,"is_disabled":false,"rental_uris":{"android":"levelo://app?vid=d67469ee-5362-4610-a163-fe05ae3cf4f7","ios":"levelo://app?vid=d67469ee-5362-4610-a163-fe05ae3cf4f7"},"vehicle_type_id":"4","last_reported":1701079693,"current_range_meters":2800,"station_id":"","pricing_plan_id":"free"},{"bike_id":"5986dab0-7b77-4674-8135-17288066df9b","system_id":"levelo_inurba_marseille","lat":43.27533,"lon":5.40941,"is_reserved":false,"is_disabled":false,"rental_uris":{"android":"levelo://app?vid=5986dab0-7b77-4674-8135-17288066df9b","ios":"levelo://app?vid=5986dab0-7b77-4674-8135-17288066df9b"},"vehicle_type_id":"4","last_reported":1701079693,"current_range_meters":18800,"station_id":"","pricing_plan_id":"free"},{"bike_id":"1782395a-dfb7-45ee-9295-2ba3829f456a","system_id":"levelo_inurba_marseille","lat":43.26779,"lon":5.3942,"is_reserved":false,"is_disabled":false,"rental_uris":{"android":"levelo://app?vid=1782395a-dfb7-45ee-9295-2ba3829f456a","ios":"levelo://app?vid=1782395a-dfb7-45ee-9295-2ba3829f456a"},"vehicle_type_id":"4","last_reported":1701079693,"current_range_meters":12000,"station_id":"ce4bhh12rcd13ifvqfg0","pricing_plan_id":"free"},{"bike_id":"d5ac67b9-1972-43c1-b369-a7251a39ebe4","system_id":"levelo_inurba_marseille","lat":43.265569,"lon":5.390047,"is_reserved":false,"is_disabled":false,"rental_uris":{"android":"levelo://app?vid=d5ac67b9-1972-43c1-b369-a7251a39ebe4","ios":"levelo://app?vid=d5ac67b9-1972-43c1-b369-a7251a39ebe4"},"vehicle_type_id":"4","last_reported":1701079693,"current_range_meters":23200,"station_id":"ce4bhe12rcd13ifvqf30","pricing_plan_id":"free"},{"bike_id":"65bf2aea-804e-456a-8c97-a6f87b07aa44","system_id":"levelo_inurba_marseille","lat":43.26564,"lon":5.3901,"is_reserved":false,"is_disabled":false,"rental_uris":{"android":"levelo://app?vid=65bf2aea-804e-456a-8c97-a6f87b07aa44","ios":"levelo://app?vid=65bf2aea-804e-456a-8c97-a6f87b07aa44"},"vehicle_type_id":"4","last_reported":1701079693,"current_range_meters":26000,"station_id":"ce4bhe12rcd13ifvqf30","pricing_plan_id":"free"},{"bike_id":"0702b027-d92c-4ecd-97a5-310236d5c197","system_id":"levelo_inurba_marseille","lat":43.283494,"lon":5.380945,"is_reserved":false,"is_disabled":false,"rental_uris":{"android":"levelo://app?vid=0702b027-d92c-4ecd-97a5-310236d5c197","ios":"levelo://app?vid=0702b027-d92c-4ecd-97a5-310236d5c197"},"vehicle_type_id":"4","last_reported":1701079693,"current_range_meters":22800,"station_id":"ce4bh412rcd13ifvqdr0","pricing_plan_id":"free"},{"bike_id":"17883b8f-d05b-4cd6-ba05-f5dbc1d4e9db","system_id":"levelo_inurba_marseille","lat":43.26941,"lon":5.40253,"is_reserved":false,"is_disabled":false,"rental_uris":{"android":"levelo://app?vid=17883b8f-d05b-4cd6-ba05-f5dbc1d4e9db","ios":"levelo://app?vid=17883b8f-d05b-4cd6-ba05-f5dbc1d4e9db"},"vehicle_type_id":"4","last_reported":1701079693,"current_range_meters":27200,"station_id":"cjm6bp8fraef2m0cb0m0","pricing_plan_id":"free"},{"bike_id":"6e70db11-14c5-4146-bb25-0a8c48c10ec2","system_id":"levelo_inurba_marseille","lat":43.26949,"lon":5.40262,"is_reserved":false,"is_disabled":false,"rental_uris":{"android":"levelo://app?vid=6e70db11-14c5-4146-bb25-0a8c48c10ec2","ios":"levelo://app?vid=6e70db11-14c5-4146-bb25-0a8c48c10ec2"},"vehicle_type_id":"4","last_reported":1701079693,"current_range_meters":20000,"station_id":"cjm6bp8fraef2m0cb0m0","pricing_plan_id":"free"},{"bike_id":"791b00c5-2e5a-477f-860f-ce8be00c8748","system_id":"levelo_inurba_marseille","lat":43.269348,"lon":5.402553,"is_reserved":false,"is_disabled":false,"rental_uris":{"android":"levelo://app?vid=791b00c5-2e5a-477f-860f-ce8be00c8748","ios":"levelo://app?vid=791b00c5-2e5a-477f-860f-ce8be00c8748"},"vehicle_type_id":"4","last_reported":1701079693,"current_range_meters":4800,"station_id":"cjm6bp8fraef2m0cb0m0","pricing_plan_id":"free"},{"bike_id":"394d0168-ba86-454b-99ee-ca2e297b6813","system_id":"levelo_inurba_marseille","lat":43.267959,"lon":5.402687,"is_reserved":false,"is_disabled":false,"rental_uris":{"android":"levelo://app?vid=394d0168-ba86-454b-99ee-ca2e297b6813","ios":"levelo://app?vid=394d0168-ba86-454b-99ee-ca2e297b6813"},"vehicle_type_id":"4","last_reported":1701079693,"current_range_meters":13200,"station_id":"ce501612rcd8frsf0b60","pricing_plan_id":"free"},{"bike_id":"7c5a83ac-336c-4b91-a5ea-82b3c6d6127d","system_id":"levelo_inurba_marseille","lat":43.298768,"lon":5.43643,"is_reserved":false,"is_disabled":false,"rental_uris":{"android":"levelo://app?vid=7c5a83ac-336c-4b91-a5ea-82b3c6d6127d","ios":"levelo://app?vid=7c5a83ac-336c-4b91-a5ea-82b3c6d6127d"},"vehicle_type_id":"4","last_reported":1701079693,"current_range_meters":31200,"station_id":"ce4bhpp2rcd13ifvqhfg","pricing_plan_id":"free"},{"bike_id":"f4f2e1d5-dafa-412d-9b3a-3611814786ce","system_id":"levelo_inurba_marseille","lat":43.298768,"lon":5.43643,"is_reserved":false,"is_disabled":false,"rental_uris":{"android":"levelo://app?vid=f4f2e1d5-dafa-412d-9b3a-3611814786ce","ios":"levelo://app?vid=f4f2e1d5-dafa-412d-9b3a-3611814786ce"},"vehicle_type_id":"4","last_reported":1701079693,"current_range_meters":31600,"station_id":"ce4bhpp2rcd13ifvqhfg","pricing_plan_id":"free"},{"bike_id":"4dc37559-76c0-4253-84ce-601cdc53a29f","system_id":"levelo_inurba_marseille","lat":43.28151,"lon":5.426407,"is_reserved":false,"is_disabled":false,"rental_uris":{"android":"levelo://app?vid=4dc37559-76c0-4253-84ce-601cdc53a29f","ios":"levelo://app?vid=4dc37559-76c0-4253-84ce-601cdc53a29f"},"vehicle_type_id":"4","last_reported":1701079693,"current_range_meters":20000,"station_id":"ce4bhnh2rcd13ifvqgug","pricing_plan_id":"free"},{"bike_id":"5f35bd39-e262-47bd-9e19-83bbf6afce13","system_id":"levelo_inurba_marseille","lat":43.275028,"lon":5.424534,"is_reserved":false,"is_disabled":false,"rental_uris":{"android":"levelo://app?vid=5f35bd39-e262-47bd-9e19-83bbf6afce13","ios":"levelo://app?vid=5f35bd39-e262-47bd-9e19-83bbf6afce13"},"vehicle_type_id":"4","last_reported":1701079693,"current_range_meters":20000,"station_id":"ce4bhn92rcd13ifvqgrg","pricing_plan_id":"free"},{"bike_id":"155eb1f4-e4ff-4151-870f-9f53e6430e9c","system_id":"levelo_inurba_marseille","lat":43.275028,"lon":5.424534,"is_reserved":false,"is_disabled":false,"rental_uris":{"android":"levelo://app?vid=155eb1f4-e4ff-4151-870f-9f53e6430e9c","ios":"levelo://app?vid=155eb1f4-e4ff-4151-870f-9f53e6430e9c"},"vehicle_type_id":"4","last_reported":1701079693,"current_range_meters":31600,"station_id":"ce4bhn92rcd13ifvqgrg","pricing_plan_id":"free"},{"bike_id":"af2159a7-533c-44b2-9f91-55ad689fd878","system_id":"levelo_inurba_marseille","lat":43.275028,"lon":5.424534,"is_reserved":false,"is_disabled":false,"rental_uris":{"android":"levelo://app?vid=af2159a7-533c-44b2-9f91-55ad689fd878","ios":"levelo://app?vid=af2159a7-533c-44b2-9f91-55ad689fd878"},"vehicle_type_id":"4","last_reported":1701079693,"current_range_meters":26000,"station_id":"ce4bhn92rcd13ifvqgrg","pricing_plan_id":"free"},{"bike_id":"5f1402a9-aa14-42ff-b5ca-56a72619fba5","system_id":"levelo_inurba_marseille","lat":43.275028,"lon":5.424534,"is_reserved":false,"is_disabled":false,"rental_uris":{"android":"levelo://app?vid=5f1402a9-aa14-42ff-b5ca-56a72619fba5","ios":"levelo://app?vid=5f1402a9-aa14-42ff-b5ca-56a72619fba5"},"vehicle_type_id":"4","last_reported":1701079693,"current_range_meters":24800,"station_id":"ce4bhn92rcd13ifvqgrg","pricing_plan_id":"free"},{"bike_id":"a546cec7-c461-4563-8f9d-9c8f6cf81155","system_id":"levelo_inurba_marseille","lat":43.275028,"lon":5.424534,"is_reserved":false,"is_disabled":false,"rental_uris":{"android":"levelo://app?vid=a546cec7-c461-4563-8f9d-9c8f6cf81155","ios":"levelo://app?vid=a546cec7-c461-4563-8f9d-9c8f6cf81155"},"vehicle_type_id":"4","last_reported":1701079693,"current_range_meters":21600,"station_id":"ce4bhn92rcd13ifvqgrg","pricing_plan_id":"free"},{"bike_id":"249369c0-115d-460e-82a7-75ecc4cf9b52","system_id":"levelo_inurba_marseille","lat":43.275028,"lon":5.424534,"is_reserved":false,"is_disabled":false,"rental_uris":{"android":"levelo://app?vid=249369c0-115d-460e-82a7-75ecc4cf9b52","ios":"levelo://app?vid=249369c0-115d-460e-82a7-75ecc4cf9b52"},