{"last_updated":1752937791,"ttl":60,"version":"2.2","data":{"bikes":[{"bike_id":"53b742a7-31ae-4272-9bba-7740339e2a2f","system_id":"levelo_inurba_marseille","lat":43.33747,"lon":5.37463,"is_reserved":false,"is_disabled":false,"rental_uris":{"android":"levelo://app?vid=53b742a7-31ae-4272-9bba-7740339e2a2f","ios":"levelo://app?vid=53b742a7-31ae-4272-9bba-7740339e2a2f"},"vehicle_type_id":"1","last_reported":1752937791,"current_range_meters":14800,"station_id":"","pricing_plan_id":"cebpf4jnsgd1na2vs0mg"},{"bike_id":"f48322bf-d5e8-4498-bd18-0e520bb189b8","system_id":"levelo_inurba_marseille","lat":43.217478,"lon":5.346057,"is_reserved":false,"is_disabled":false,"rental_uris":{"android":"levelo://app?vid=f48322bf-d5e8-4498-bd18-0e520bb189b8","ios":"levelo://app?vid=f48322bf-d5e8-4498-bd18-0e520bb189b8"},"vehicle_type_id":"4","last_reported":1752937791,"current_range_meters":2800,"station_id":"st_cvj6r9ubvosntc0bgbag","pricing_plan_id":"cebpf4jnsgd1na2vs0mg"},{"bike_id":"4298709f-d90a-45df-8a57-9ba59538e3fc","system_id":"levelo_inurba_marseille","lat":43.28164,"lon":5.4074,"is_reserved":false,"is_disabled":false,"rental_uris":{"android":"levelo://app?vid=4298709f-d90a-45df-8a57-9ba59538e3fc","ios":"levelo://app?vid=4298709f-d90a-45df-8a57-9ba59538e3fc"},"vehicle_type_id":"4","last_reported":1752937791,"current_range_meters":3200,"station_id":"","pricing_plan_id":"cebpf4jnsgd1na2vs0mg"},{"bike_id":"3444bdc6-514a-4ba6-9650-f9073305e33d","system_id":"levelo_inurba_marseille","lat":43.29682,"lon":5.3698,"is_reserved":false,"is_disabled":false,"rental_uris":{"android":"levelo://app?vid=3444bdc6-514a-4ba6-9650-f9073305e33d","ios":"levelo://app?vid=3444bdc6-514a-4ba6-9650-f9073305e33d"},"vehicle_type_id":"4","last_reported":1752937791,"current_range_meters":3600,"station_id":"","pricing_plan_id":"cebpf4jnsgd1na2vs0mg"},{"bike_id":"f742cc04-27ea-4b6f-a400-019f51085178","system_id":"levelo_inurba_marseille","lat":43.31076,"lon":5.38342,"is_reserved":false,"is_disabled":false,"rental_uris":{"android":"levelo://app?vid=f742cc04-27ea-4b6f-a400-019f51085178","ios":"levelo://app?vid=f742cc04-27ea-4b6f-a400-019f51085178"},"vehicle_type_id":"4","last_reported":1752937791,"current_range_meters":3600,"station_id":"ce4bgv92rcd13ifvqcr0","pricing_plan_id":"cebpf4jnsgd1na2vs0mg"},{"bike_id":"b3c20171-789b-4f2e-a78c-f182493a896f","system_id":"levelo_inurba_marseille","lat":43.281588,"lon":5.42639,"is_reserved":false,"is_disabled":true,"rental_uris":{"android":"levelo://app?vid=b3c20171-789b-4f2e-a78c-f182493a896f","ios":"levelo://app?vid=b3c20171-789b-4f2e-a78c-f182493a896f"},"vehicle_type_id":"4","last_reported":1752937791,"current_range_meters":3600,"station_id":"ce4bhnh2rcd13ifvqgug","pricing_plan_id":"cebpf4jnsgd1na2vs0mg"},{"bike_id":"5a6b0f11-ecf2-4b89-a7a1-0aaf5f01d848","system_id":"levelo_inurba_marseille","lat":43.24813,"lon":5.37461,"is_reserved":false,"is_disabled":true,"rental_uris":{"android":"levelo://app?vid=5a6b0f11-ecf2-4b89-a7a1-0aaf5f01d848","ios":"levelo://app?vid=5a6b0f11-ecf2-4b89-a7a1-0aaf5f01d848"},"vehicle_type_id":"4","last_reported":1752937791,"current_range_meters":3600,"station_id":"ce4bhgh2rcd13ifvqfb0","pricing_plan_id":"cebpf4jnsgd1na2vs0mg"},{"bike_id":"e739fbd7-833a-4ee0-bd51-8e17de2c4cbe","system_id":"levelo_inurba_marseille","lat":43.28424,"lon":5.34978,"is_reserved":false,"is_disabled":false,"rental_uris":{"android":"levelo://app?vid=e739fbd7-833a-4ee0-bd51-8e17de2c4cbe","ios":"levelo://app?vid=e739fbd7-833a-4ee0-bd51-8e17de2c4cbe"},"vehicle_type_id":"4","last_reported":1752937791,"current_range_meters":4000,"station_id":"ce4bhbh2rcd13ifvqepg","pricing_plan_id":"cebpf4jnsgd1na2vs0mg"},{"bike_id":"fb5ba56a-83e6-4dc0-8916-c3a89811b829","system_id":"levelo_inurba_marseille","lat":43.25002,"lon":5.38945,"is_reserved":false,"is_disabled":false,"rental_uris":{"android":"levelo://app?vid=fb5ba56a-83e6-4dc0-8916-c3a89811b829","ios":"levelo://app?vid=fb5ba56a-83e6-4dc0-8916-c3a89811b829"},"vehicle_type_id":"4","last_reported":1752937791,"current_range_meters":4000,"station_id":"ce4bhgp2rcd13ifvqfd0","pricing_plan_id":"cebpf4jnsgd1na2vs0mg"},{"bike_id":"d2513c4a-10fc-4c4b-bd0e-5a98c4275a25","system_id":"levelo_inurba_marseille","lat":43.32332,"lon":5.40627,"is_reserved":false,"is_disabled":false,"rental_uris":{"android":"levelo://app?vid=d2513c4a-10fc-4c4b-bd0e-5a98c4275a25","ios":"levelo://app?vid=d2513c4a-10fc-4c4b-bd0e-5a98c4275a25"},"vehicle_type_id":"4","last_reported":1752937791,"current_range_meters":4000,"station_id":"ce4bhq92rcd13ifvqhjg","pricing_plan_id":"cebpf4jnsgd1na2vs0mg"},{"bike_id":"cb2e018e-24b3-4823-8c65-ab1c1d51aef0","system_id":"levelo_inurba_marseille","lat":43.27372,"lon":5.36251,"is_reserved":false,"is_disabled":false,"rental_uris":{"android":"levelo://app?vid=cb2e018e-24b3-4823-8c65-ab1c1d51aef0","ios":"levelo://app?vid=cb2e018e-24b3-4823-8c65-ab1c1d51aef0"},"vehicle_type_id":"4","last_reported":1752937791,"current_range_meters":6000,"station_id":"ce4bhbh2rcd13ifvqeo0","pricing_plan_id":"cebpf4jnsgd1na2vs0mg"},{"bike_id":"9bdcfb5e-ac16-41d0-a4c2-388bc36976bb","system_id":"levelo_inurba_marseille","lat":43.295564,"lon":5.422856,"is_reserved":false,"is_disabled":false,"rental_uris":{"android":"levelo://app?vid=9bdcfb5e-ac16-41d0-a4c2-388bc36976bb","ios":"levelo://app?vid=9bdcfb5e-ac16-41d0-a4c2-388bc36976bb"},"vehicle_type_id":"4","last_reported":1752937791,"current_range_meters":6400,"station_id":"ce4bhph2rcd13ifvqhdg","pricing_plan_id":"cebpf4jnsgd1na2vs0mg"},{"bike_id":"b4135b25-90bd-4fe1-a8f0-3f0c22d3570a","system_id":"levelo_inurba_marseille","lat":43.29958,"lon":5.41317,"is_reserved":false,"is_disabled":false,"rental_uris":{"android":"levelo://app?vid=b4135b25-90bd-4fe1-a8f0-3f0c22d3570a","ios":"levelo://app?vid=b4135b25-90bd-4fe1-a8f0-3f0c22d3570a"},"vehicle_type_id":"4","last_reported":1752937791,"current_range_meters":6400,"station_id":"ce4bhp12rcd13ifvqh9g","pricing_plan_id":"cebpf4jnsgd1na2vs0mg"},{"bike_id":"da891840-0cec-4ccc-961c-48903736c6fa","system_id":"levelo_inurba_marseille","lat":43.31139,"lon":5.37692,"is_reserved":false,"is_disabled":false,"rental_uris":{"android":"levelo://app?vid=da891840-0cec-4ccc-961c-48903736c6fa","ios":"levelo://app?vid=da891840-0cec-4ccc-961c-48903736c6fa"},"vehicle_type_id":"4","last_reported":1752937791,"current_range_meters":6400,"station_id":"","pricing_plan_id":"cebpf4jnsgd1na2vs0mg"},{"bike_id":"e555b545-304c-4dce-8496-1643c0f2600e","system_id":"levelo_inurba_marseille","lat":43.337444,"lon":5.374475,"is_reserved":false,"is_disabled":false,"rental_uris":{"android":"levelo://app?vid=e555b545-304c-4dce-8496-1643c0f2600e","ios":"levelo://app?vid=e555b545-304c-4dce-8496-1643c0f2600e"},"vehicle_type_id":"4","last_reported":1752937791,"current_range_meters":6400,"station_id":"","pricing_plan_id":"cebpf4jnsgd1na2vs0mg"},{"bike_id":"92d9d5e7-65c4-4759-91ef-d1e3854ae267","system_id":"levelo_inurba_marseille","lat":43.31995,"lon":5.38165,"is_reserved":false,"is_disabled":false,"rental_uris":{"android":"levelo://app?vid=92d9d5e7-65c4-4759-91ef-d1e3854ae267","ios":"levelo://app?vid=92d9d5e7-65c4-4759-91ef-d1e3854ae267"},"vehicle_type_id":"4","last_reported":1752937791,"current_range_meters":6800,"station_id":"ce4bhr12rcd13ifvqhpg","pricing_plan_id":"cebpf4jnsgd1na2vs0mg"},{"bike_id":"b39eb8b8-dca0-421a-9ffc-fc753c7ef029","system_id":"levelo_inurba_marseille","lat":43.21192,"lon":5.35073,"is_reserved":false,"is_disabled":false,"rental_uris":{"android":"levelo://app?vid=b39eb8b8-dca0-421a-9ffc-fc753c7ef029","ios":"levelo://app?vid=b39eb8b8-dca0-421a-9ffc-fc753c7ef029"},"vehicle_type_id":"4","last_reported":1752937791,"current_range_meters":7200,"station_id":"st_cvj6sg6p6f1abm77japg","pricing_plan_id":"cebpf4jnsgd1na2vs0mg"},{"bike_id":"2d95b47d-d06f-40a4-bb6e-c13e954e3c8f","system_id":"levelo_inurba_marseille","lat":43.277176,"lon":5.414278,"is_reserved":false,"is_disabled":false,"rental_uris":{"android":"levelo://app?vid=2d95b47d-d06f-40a4-bb6e-c13e954e3c8f","ios":"levelo://app?vid=2d95b47d-d06f-40a4-bb6e-c13e954e3c8f"},"vehicle_type_id":"4","last_reported":1752937791,"current_range_meters":7200,"station_id":"","pricing_plan_id":"cebpf4jnsgd1na2vs0mg"},{"bike_id":"69194f6d-025f-49f2-b025-dab09d0a24de","system_id":"levelo_inurba_marseille","lat":43.28374,"lon":5.38628,"is_reserved":false,"is_disabled":false,"rental_uris":{"android":"levelo://app?vid=69194f6d-025f-49f2-b025-dab09d0a24de","ios":"levelo://app?vid=69194f6d-025f-49f2-b025-dab09d0a24de"},"vehicle_type_id":"4","last_reported":1752937791,"current_range_meters":7200,"station_id":"ce4bh492rcd13ifvqdvg","pricing_plan_id":"cebpf4jnsgd1na2vs0mg"},{"bike_id":"1195589c-e8fe-436f-88b7-f88d5f72aea0","system_id":"levelo_inurba_marseille","lat":43.28414,"lon":5.34986,"is_reserved":false,"is_disabled":false,"rental_uris":{"android":"levelo://app?vid=1195589c-e8fe-436f-88b7-f88d5f72aea0","ios":"levelo://app?vid=1195589c-e8fe-436f-88b7-f88d5f72aea0"},"vehicle_type_id":"4","last_reported":1752937791,"current_range_meters":7200,"station_id":"ce4bhbh2rcd13ifvqepg","pricing_plan_id":"cebpf4jnsgd1na2vs0mg"},{"bike_id":"9223d84d-7333-403f-888b-00d9d7c35bbc","system_id":"levelo_inurba_marseille","lat":43.28419,"lon":5.34978,"is_reserved":false,"is_disabled":false,"rental_uris":{"android":"levelo://app?vid=9223d84d-7333-403f-888b-00d9d7c35bbc","ios":"levelo://app?vid=9223d84d-7333-403f-888b-00d9d7c35bbc"},"vehicle_type_id":"4","last_reported":1752937791,"current_range_meters":7200,"station_id":"ce4bhbh2rcd13ifvqepg","pricing_plan_id":"cebpf4jnsgd1na2vs0mg"},{"bike_id":"42181684-7678-41b2-9d9f-be9acbaa1ce7","system_id":"levelo_inurba_marseille","lat":43.29778,"lon":5.3711,"is_reserved":false,"is_disabled":false,"rental_uris":{"android":"levelo://app?vid=42181684-7678-41b2-9d9f-be9acbaa1ce7","ios":"levelo://app?vid=42181684-7678-41b2-9d9f-be9acbaa1ce7"},"vehicle_type_id":"4","last_reported":1752937791,"current_range_meters":8800,"station_id":"ce4bgop2rcd13ifvqc1g","pricing_plan_id":"cebpf4jnsgd1na2vs0mg"},{"bike_id":"a168d389-ea1d-4756-ad9b-cf73a31ab442","system_id":"levelo_inurba_marseille","lat":43.28615,"lon":5.38455,"is_reserved":false,"is_disabled":true,"rental_uris":{"android":"levelo://app?vid=a168d389-ea1d-4756-ad9b-cf73a31ab442","ios":"levelo://app?vid=a168d389-ea1d-4756-ad9b-cf73a31ab442"},"vehicle_type_id":"4","last_reported":1752937791,"current_range_meters":8000,"station_id":"","pricing_plan_id":"cebpf4jnsgd1na2vs0mg"},{"bike_id":"72acce2b-2249-45a2-be91-c8268f8a11e8","system_id":"levelo_inurba_marseille","lat":43.225067,"lon":5.347838,"is_reserved":false,"is_disabled":false,"rental_uris":{"android":"levelo://app?vid=72acce2b-2249-45a2-be91-c8268f8a11e8","ios":"levelo://app?vid=72acce2b-2249-45a2-be91-c8268f8a11e8"},"vehicle_type_id":"4","last_reported":1752937791,"current_range_meters":8400,"station_id":"st_cvj5dfep6f1abm77gieg","pricing_plan_id":"cebpf4jnsgd1na2vs0mg"},{"bike_id":"fdb2fa3e-da6d-4598-87a3-86656035c600","system_id":"levelo_inurba_marseille","lat":43.2842,"lon":5.3499,"is_reserved":false,"is_disabled":false,"rental_uris":{"android":"levelo://app?vid=fdb2fa3e-da6d-4598-87a3-86656035c600","ios":"levelo://app?vid=fdb2fa3e-da6d-4598-87a3-86656035c600"},"vehicle_type_id":"4","last_reported":1752937791,"current_range_meters":8400,"station_id":"ce4bhbh2rcd13ifvqepg","pricing_plan_id":"cebpf4jnsgd1na2vs0mg"},{"bike_id":"7ba80774-b11e-4526-b36d-edd358abb392","system_id":"levelo_inurba_marseille","lat":43.22528,"lon":5.34772,"is_reserved":false,"is_disabled":false,"rental_uris":{"android":"levelo://app?vid=7ba80774-b11e-4526-b36d-edd358abb392","ios":"levelo://app?vid=7ba80774-b11e-4526-b36d-edd358abb392"},"vehicle_type_id":"4","last_reported":1752937791,"current_range_meters":8400,"station_id":"st_cvj5dfep6f1abm77gieg","pricing_plan_id":"cebpf4jnsgd1na2vs0mg"},{"bike_id":"9b091902-dbdc-4b1f-86ba-ea268ae11128","system_id":"levelo_inurba_marseille","lat":43.26058,"lon":5.394,"is_reserved":false,"is_disabled":false,"rental_uris":{"android":"levelo://app?vid=9b091902-dbdc-4b1f-86ba-ea268ae11128","ios":"levelo://app?vid=9b091902-dbdc-4b1f-86ba-ea268ae11128"},"vehicle_type_id":"4","last_reported":1752937791,"current_range_meters":8400,"station_id":"ce4bhh92rcd13ifvqfj0","pricing_plan_id":"cebpf4jnsgd1na2vs0mg"},{"bike_id":"ce7bd25b-5213-4881-a28b-f582e6a1d712","system_id":"levelo_inurba_marseille","lat":43.31342,"lon":5.36792,"is_reserved":false,"is_disabled":true,"rental_uris":{"android":"levelo://app?vid=ce7bd25b-5213-4881-a28b-f582e6a1d712","ios":"levelo://app?vid=ce7bd25b-5213-4881-a28b-f582e6a1d712"},"vehicle_type_id":"4","last_reported":1752937791,"current_range_meters":8400,"station_id":"ce4bgr92rcd13ifvqc6g","pricing_plan_id":"cebpf4jnsgd1na2vs0mg"},{"bike_id":"4e822c2b-77ff-49cb-b9ee-42cd715bd966","system_id":"levelo_inurba_marseille","lat":43.300936,"lon":5.39102,"is_reserved":false,"is_disabled":false,"rental_uris":{"android":"levelo://app?vid=4e822c2b-77ff-49cb-b9ee-42cd715bd966","ios":"levelo://app?vid=4e822c2b-77ff-49cb-b9ee-42cd715bd966"},"vehicle_type_id":"4","last_reported":1752937791,"current_range_meters":8400,"station_id":"ce4bh192rcd13ifvqdb0","pricing_plan_id":"cebpf4jnsgd1na2vs0mg"},{"bike_id":"c96b3041-5464-4ed2-85cb-14d1c4473f8a","system_id":"levelo_inurba_marseille","lat":43.27373,"lon":5.36255,"is_reserved":false,"is_disabled":false,"rental_uris":{"android":"levelo://app?vid=c96b3041-5464-4ed2-85cb-14d1c4473f8a","ios":"levelo://app?vid=c96b3041-5464-4ed2-85cb-14d1c4473f8a"},"vehicle_type_id":"4","last_reported":1752937791,"current_range_meters":8400,"station_id":"ce4bhbh2rcd13ifvqeo0","pricing_plan_id":"cebpf4jnsgd1na2vs0mg"},{"bike_id":"c6db0f6a-96fe-4e1d-8ded-c2ef38c9bab4","system_id":"levelo_inurba_marseille","lat":43.305688,"lon":5.418387,"is_reserved":false,"is_disabled":true,"rental_uris":{"android":"levelo://app?vid=c6db0f6a-96fe-4e1d-8ded-c2ef38c9bab4","ios":"levelo://app?vid=c6db0f6a-96fe-4e1d-8ded-c2ef38c9bab4"},"vehicle_type_id":"4","last_reported":1752937791,"current_range_meters":8800,"station_id":"ce4bht12rcd13ifvqi60","pricing_plan_id":"cebpf4jnsgd1na2vs0mg"},{"bike_id":"0e42a7ec-0d0d-4b91-a100-e1bcd751f991","system_id":"levelo_inurba_marseille","lat":43.29906,"lon":5.43691,"is_reserved":false,"is_disabled":false,"rental_uris":{"android":"levelo://app?vid=0e42a7ec-0d0d-4b91-a100-e1bcd751f991","ios":"levelo://app?vid=0e42a7ec-0d0d-4b91-a100-e1bcd751f991"},"vehicle_type_id":"4","last_reported":1752937791,"current_range_meters":8800,"station_id":"ce4bhpp2rcd13ifvqhfg","pricing_plan_id":"cebpf4jnsgd1na2vs0mg"},{"bike_id":"c29644fe-0f66-476f-9a8d-d917fe105232","system_id":"levelo_inurba_marseille","lat":43.24548,"lon":5.39527,"is_reserved":false,"is_disabled":false,"rental_uris":{"android":"levelo://app?vid=c29644fe-0f66-476f-9a8d-d917fe105232","ios":"levelo://app?vid=c29644fe-0f66-476f-9a8d-d917fe105232"},"vehicle_type_id":"4","last_reported":1752937791,"current_range_meters":9200,"station_id":"ce4bhlp2rcd13ifvqgjg","pricing_plan_id":"cebpf4jnsgd1na2vs0mg"},{"bike_id":"07aeb5da-15b1-4b73-9d17-70e8acd75061","system_id":"levelo_inurba_marseille","lat":43.22513,"lon":5.34776,"is_reserved":false,"is_disabled":false,"rental_uris":{"android":"levelo://app?vid=07aeb5da-15b1-4b73-9d17-70e8acd75061","ios":"levelo://app?vid=07aeb5da-15b1-4b73-9d17-70e8acd75061"},"vehicle_type_id":"4","last_reported":1752937791,"current_range_meters":9200,"station_id":"st_cvj5dfep6f1abm77gieg","pricing_plan_id":"cebpf4jnsgd1na2vs0mg"},{"bike_id":"b5c52e60-c28e-43be-9c81-605e18b4fe3c","system_id":"levelo_inurba_marseille","lat":43.32104,"lon":5.41586,"is_reserved":false,"is_disabled":false,"rental_uris":{"android":"levelo://app?vid=b5c52e60-c28e-43be-9c81-605e18b4fe3c","ios":"levelo://app?vid=b5c52e60-c28e-43be-9c81-605e18b4fe3c"},"vehicle_type_id":"4","last_reported":1752937791,"current_range_meters":9600,"station_id":"","pricing_plan_id":"cebpf4jnsgd1na2vs0mg"},{"bike_id":"95caf3fb-8561-4f40-931a-00c2955cadf3","system_id":"levelo_inurba_marseille","lat":43.29216,"lon":5.360693,"is_reserved":false,"is_disabled":false,"rental_uris":{"android":"levelo://app?vid=95caf3fb-8561-4f40-931a-00c2955cadf3","ios":"levelo://app?vid=95caf3fb-8561-4f40-931a-00c2955cadf3"},"vehicle_type_id":"4","last_reported":1752937791,"current_range_meters":9600,"station_id":"ce4bhbh2rcd13ifvqeqg","pricing_plan_id":"cebpf4jnsgd1na2vs0mg"},{"bike_id":"eb48536d-08c8-48ac-8df5-4c7131bb1eeb","system_id":"levelo_inurba_marseille","lat":43.31281,"lon":5.4017,"is_reserved":false,"is_disabled":false,"rental_uris":{"android":"levelo://app?vid=eb48536d-08c8-48ac-8df5-4c7131bb1eeb","ios":"levelo://app?vid=eb48536d-08c8-48ac-8df5-4c7131bb1eeb"},"vehicle_type_id":"4","last_reported":1752937791,"current_range_meters":9600,"station_id":"ce4bh092rcd13ifvqd30","pricing_plan_id":"cebpf4jnsgd1na2vs0mg"},{"bike_id":"87cd54d8-ed89-48be-a427-a39d646f1efe","system_id":"levelo_inurba_marseille","lat":43.26936,"lon":5.40268,"is_reserved":false,"is_disabled":false,"rental_uris":{"android":"levelo://app?vid=87cd54d8-ed89-48be-a427-a39d646f1efe","ios":"levelo://app?vid=87cd54d8-ed89-48be-a427-a39d646f1efe"},"vehicle_type_id":"4","last_reported":1752937791,"current_range_meters":9600,"station_id":"cjm6bp8fraef2m0cb0m0","pricing_plan_id":"cebpf4jnsgd1na2vs0mg"},{"bike_id":"e279ac10-cb87-42fd-81a1-a71a062db51a","system_id":"levelo_inurba_marseille","lat":43.28857,"lon":5.35854,"is_reserved":false,"is_disabled":false,"rental_uris":{"android":"levelo://app?vid=e279ac10-cb87-42fd-81a1-a71a062db51a","ios":"levelo://app?vid=e279ac10-cb87-42fd-81a1-a71a062db51a"},"vehicle_type_id":"4","last_reported":1752937791,"current_range_meters":10000,"station_id":"ce4bhb12rcd13ifvqem0","pricing_plan_id":"cebpf4jnsgd1na2vs0mg"},{"bike_id":"57a30f0b-84eb-4b98-8989-8d3c02b43bf0","system_id":"levelo_inurba_marseille","lat":43.28627,"lon":5.37004,"is_reserved":false,"is_disabled":false,"rental_uris":{"android":"levelo://app?vid=57a30f0b-84eb-4b98-8989-8d3c02b43bf0","ios":"levelo://app?vid=57a30f0b-84eb-4b98-8989-8d3c02b43bf0"},"vehicle_type_id":"4","last_reported":1752937791,"current_range_meters":10000,"station_id":"","pricing_plan_id":"cebpf4jnsgd1na2vs0mg"},{"bike_id":"cfb52d04-9134-4c86-8269-771716b20f27","system_id":"levelo_inurba_marseille","lat":43.21188,"lon":5.35067,"is_reserved":false,"is_disabled":false,"rental_uris":{"android":"levelo://app?vid=cfb52d04-9134-4c86-8269-771716b20f27","ios":"levelo://app?vid=cfb52d04-9134-4c86-8269-771716b20f27"},"vehicle_type_id":"4","last_reported":1752937791,"current_range_meters":10000,"station_id":"st_cvj6sg6p6f1abm77japg","pricing_plan_id":"cebpf4jnsgd1na2vs0mg"},{"bike_id":"6f18ab1b-0c74-47b1-bed8-837677176207","system_id":"levelo_inurba_marseille","lat":43.32051,"lon":5.40922,"is_reserved":false,"is_disabled":false,"rental_uris":{"android":"levelo://app?vid=6f18ab1b-0c74-47b1-bed8-837677176207","ios":"levelo://app?vid=6f18ab1b-0c74-47b1-bed8-837677176207"},"vehicle_type_id":"4","last_reported":1752937791,"current_range_meters":10000,"station_id":"","pricing_plan_id":"cebpf4jnsgd1na2vs0mg"},{"bike_id":"3dbe5912-b178-4d6a-b0a5-780c833ee7fa","system_id":"levelo_inurba_marseille","lat":43.290564,"lon":5.355851,"is_reserved":false,"is_disabled":false,"rental_uris":{"android":"levelo://app?vid=3dbe5912-b178-4d6a-b0a5-780c833ee7fa","ios":"levelo://app?vid=3dbe5912-b178-4d6a-b0a5-780c833ee7fa"},"vehicle_type_id":"4","last_reported":1752937791,"current_range_meters":10800,"station_id":"","pricing_plan_id":"cebpf4jnsgd1na2vs0mg"},{"bike_id":"06d9b849-150a-4a44-bff1-9515ad0f4426","system_id":"levelo_inurba_marseille","lat":43.298962,"lon":5.436726,"is_reserved":false,"is_disabled":false,"rental_uris":{"android":"levelo://app?vid=06d9b849-150a-4a44-bff1-9515ad0f4426","ios":"levelo://app?vid=06d9b849-150a-4a44-bff1-9515ad0f4426"},"vehicle_type_id":"4","last_reported":1752937791,"current_range_meters":10800,"station_id":"ce4bhpp2rcd13ifvqhfg","pricing_plan_id":"cebpf4jnsgd1na2vs0mg"},{"bike_id":"19d72019-7681-4570-94c8-383fe1c15910","system_id":"levelo_inurba_marseille","lat":43.31679,"lon":5.40484,"is_reserved":false,"is_disabled":false,"rental_uris":{"android":"levelo://app?vid=19d72019-7681-4570-94c8-383fe1c15910","ios":"levelo://app?vid=19d72019-7681-4570-94c8-383fe1c15910"},"vehicle_type_id":"4","last_reported":1752937791,"current_range_meters":10800,"station_id":"ce4bh012rcd13ifvqd00","pricing_plan_id":"cebpf4jnsgd1na2vs0mg"},{"bike_id":"57cd38f8-1011-4107-b9c0-c45efed18e62","system_id":"levelo_inurba_marseille","lat":43.30882,"lon":5.39656,"is_reserved":false,"is_disabled":false,"rental_uris":{"android":"levelo://app?vid=57cd38f8-1011-4107-b9c0-c45efed18e62","ios":"levelo://app?vid=57cd38f8-1011-4107-b9c0-c45efed18e62"},"vehicle_type_id":"4","last_reported":1752937791,"current_range_meters":10800,"station_id":"ce4bh012rcd13ifvqcv0","pricing_plan_id":"cebpf4jnsgd1na2vs0mg"},{"bike_id":"93f32558-d0c8-48ab-ba27-e1a1ccba7659","system_id":"levelo_inurba_marseille","lat":43.286186,"lon":5.351007,"is_reserved":false,"is_disabled":false,"rental_uris":{"android":"levelo://app?vid=93f32558-d0c8-48ab-ba27-e1a1ccba7659","ios":"levelo://app?vid=93f32558-d0c8-48ab-ba27-e1a1ccba7659"},"vehicle_type_id":"4","last_reported":1752937791,"current_range_meters":10800,"station_id":"ce4bhch2rcd13ifvqeug","pricing_plan_id":"cebpf4jnsgd1na2vs0mg"},{"bike_id":"f0dbba60-7fa2-4835-8cf4-423440f8b95a","system_id":"levelo_inurba_marseille","lat":43.21758,"lon":5.346019,"is_reserved":false,"is_disabled":false,"rental_uris":{"android":"levelo://app?vid=f0dbba60-7fa2-4835-8cf4-423440f8b95a","ios":"levelo://app?vid=f0dbba60-7fa2-4835-8cf4-423440f8b95a"},"vehicle_type_id":"4","last_reported":1752937791,"current_range_meters":10800,"station_id":"","pricing_plan_id":"cebpf4jnsgd1na2vs0mg"},{"bike_id":"71f92c53-d49e-44a0-b4c3-61029b495f3a","system_id":"levelo_inurba_marseille","lat":43.27064,"lon":5.40256,"is_reserved":false,"is_disabled":false,"rental_uris":{"android":"levelo://app?vid=71f92c53-d49e-44a0-b4c3-61029b495f3a","ios":"levelo://app?vid=71f92c53-d49e-44a0-b4c3-61029b495f3a"},"vehicle_type_id":"4","last_reported":1752937791,"current_range_meters":10800,"station_id":"ce4bhk92rcd13ifvqgc0","pricing_plan_id":"cebpf4jnsgd1na2vs0mg"},{"bike_id":"119ed186-566e-4ae9-84db-ad23e77fe912","system_id":"levelo_inurba_marseille","lat":43.28263,"lon":5.35077,"is_reserved":false,"is_disabled":false,"rental_uris":{"android":"levelo://app?vid=119ed186-566e-4ae9-84db-ad23e77fe912","ios":"levelo://app?vid=119ed186-566e-4ae9-84db-ad23e77fe912"},"vehicle_type_id":"4","last_reported":1752937791,"current_range_meters":10800,"station_id":"ce4bhbp2rcd13ifvqerg","pricing_plan_id":"cebpf4jnsgd1na2vs0mg"},{"bike_id":"50a36931-63e6-4819-9058-f86f9fcd0ab3","system_id":"levelo_inurba_marseille","lat":43.32542,"lon":5.41507,"is_reserved":false,"is_disabled":false,"rental_uris":{"android":"levelo://app?vid=50a36931-63e6-4819-9058-f86f9fcd0ab3","ios":"levelo://app?vid=50a36931-63e6-4819-9058-f86f9fcd0ab3"},"vehicle_type_id":"4","last_reported":1752937791,"current_range_meters":11200,"station_id":"","pricing_plan_id":"cebpf4jnsgd1na2vs0mg"},{"bike_id":"b4c40497-6aa4-4874-87c3-cf544cbffa36","system_id":"levelo_inurba_marseille","lat":43.28274,"lon":5.35036,"is_reserved":false,"is_disabled":false,"rental_uris":{"android":"levelo://app?vid=b4c40497-6aa4-4874-87c3-cf544cbffa36","ios":"levelo://app?vid=b4c40497-6aa4-4874-87c3-cf544cbffa36"},"vehicle_type_id":"4","last_reported":1752937791,"current_range_meters":11200,"station_id":"ce4bhbp2rcd13ifvqerg","pricing_plan_id":"cebpf4jnsgd1na2vs0mg"},{"bike_id":"7bce4995-29f7-472b-9a2b-22fcd26a1a6a","system_id":"levelo_inurba_marseille","lat":43.31703,"lon":5.40474,"is_reserved":false,"is_disabled":false,"rental_uris":{"android":"levelo://app?vid=7bce4995-29f7-472b-9a2b-22fcd26a1a6a","ios":"levelo://app?vid=7bce4995-29f7-472b-9a2b-22fcd26a1a6a"},"vehicle_type_id":"4","last_reported":1752937791,"current_range_meters":11200,"station_id":"ce4bh012rcd13ifvqd00","pricing_plan_id":"cebpf4jnsgd1na2vs0mg"},{"bike_id":"bda545b3-3a34-419d-b94b-4ada027279c0","system_id":"levelo_inurba_marseille","lat":43.31688,"lon":5.40473,"is_reserved":false,"is_disabled":false,"rental_uris":{"android":"levelo://app?vid=bda545b3-3a34-419d-b94b-4ada027279c0","ios":"levelo://app?vid=bda545b3-3a34-419d-b94b-4ada027279c0"},"vehicle_type_id":"4","last_reported":1752937791,"current_range_meters":11200,"station_id":"ce4bh012rcd13ifvqd00","pricing_plan_id":"cebpf4jnsgd1na2vs0mg"},{"bike_id":"8c194039-3f83-4474-bb07-0cafff885cc3","system_id":"levelo_inurba_marseille","lat":43.33786,"lon":5.37426,"is_reserved":false,"is_disabled":false,"rental_uris":{"android":"levelo://app?vid=8c194039-3f83-4474-bb07-0cafff885cc3","ios":"levelo://app?vid=8c194039-3f83-4474-bb07-0cafff885cc3"},"vehicle_type_id":"4","last_reported":1752937791,"current_range_meters":11200,"station_id":"","pricing_plan_id":"cebpf4jnsgd1na2vs0mg"},{"bike_id":"47fbfc67-548e-42f7-a726-047ff8fa6751","system_id":"levelo_inurba_marseille","lat":43.239724,"lon":5.366204,"is_reserved":false,"is_disabled":false,"rental_uris":{"android":"levelo://app?vid=47fbfc67-548e-42f7-a726-047ff8fa6751","ios":"levelo://app?vid=47fbfc67-548e-42f7-a726-047ff8fa6751"},"vehicle_type_id":"4","last_reported":1752937791,"current_range_meters":11200,"station_id":"ce4bhi12rcd13ifvqfp0","pricing_plan_id":"cebpf4jnsgd1na2vs0mg"},{"bike_id":"8ef91a6c-3f69-4b79-ab84-ce08361be2a5","system_id":"levelo_inurba_marseille","lat":43.27384,"lon":5.36243,"is_reserved":false,"is_disabled":false,"rental_uris":{"android":"levelo://app?vid=8ef91a6c-3f69-4b79-ab84-ce08361be2a5","ios":"levelo://app?vid=8ef91a6c-3f69-4b79-ab84-ce08361be2a5"},"vehicle_type_id":"4","last_reported":1752937791,"current_range_meters":11600,"station_id":"ce4bhbh2rcd13ifvqeo0","pricing_plan_id":"cebpf4jnsgd1na2vs0mg"},{"bike_id":"2fd3d782-24a7-42a3-b248-8e69e5a88f8a","system_id":"levelo_inurba_marseille","lat":43.316959,"lon":5.404726,"is_reserved":false,"is_disabled":false,"rental_uris":{"android":"levelo://app?vid=2fd3d782-24a7-42a3-b248-8e69e5a88f8a","ios":"levelo://app?vid=2fd3d782-24a7-42a3-b248-8e69e5a88f8a"},"vehicle_type_id":"4","last_reported":1752937791,"current_range_meters":11600,"station_id":"ce4bh012rcd13ifvqd00","pricing_plan_id":"cebpf4jnsgd1na2vs0mg"},{"bike_id":"ec24e56d-5a6e-4267-b1f2-c196aaddc297","system_id":"levelo_inurba_marseille","lat":43.26199,"lon":5.37446,"is_reserved":false,"is_disabled":false,"rental_uris":{"android":"levelo://app?vid=ec24e56d-5a6e-4267-b1f2-c196aaddc297","ios":"levelo://app?vid=ec24e56d-5a6e-4267-b1f2-c196aaddc297"},"vehicle_type_id":"4","last_reported":1752937791,"current_range_meters":11600,"station_id":"ce4bhgp2rcd13ifvqfc0","pricing_plan_id":"cebpf4jnsgd1na2vs0mg"},{"bike_id":"0e33dda2-d47d-4261-9e87-d963691659fc","system_id":"levelo_inurba_marseille","lat":43.28844,"lon":5.35843,"is_reserved":false,"is_disabled":true,"rental_uris":{"android":"levelo://app?vid=0e33dda2-d47d-4261-9e87-d963691659fc","ios":"levelo://app?vid=0e33dda2-d47d-4261-9e87-d963691659fc"},"vehicle_type_id":"4","last_reported":1752937791,"current_range_meters":11600,"station_id":"ce4bhb12rcd13ifvqem0","pricing_plan_id":"cebpf4jnsgd1na2vs0mg"},{"bike_id":"dd5c27a5-05d8-40e8-9509-edf2d3299e4a","system_id":"levelo_inurba_marseille","lat":43.240742,"lon":5.377536,"is_reserved":false,"is_disabled":true,"rental_uris":{"android":"levelo://app?vid=dd5c27a5-05d8-40e8-9509-edf2d3299e4a","ios":"levelo://app?vid=dd5c27a5-05d8-40e8-9509-edf2d3299e4a"},"vehicle_type_id":"4","last_reported":1752937791,"current_range_meters":12000,"station_id":"ce4bhnp2rcd13ifvqgvg","pricing_plan_id":"cebpf4jnsgd1na2vs0mg"},{"bike_id":"9d77ed5f-b25c-4724-8218-25d9010942f2","system_id":"levelo_inurba_marseille","lat":43.28401,"lon":5.35006,"is_reserved":false,"is_disabled":false,"rental_uris":{"android":"levelo://app?vid=9d77ed5f-b25c-4724-8218-25d9010942f2","ios":"levelo://app?vid=9d77ed5f-b25c-4724-8218-25d9010942f2"},"vehicle_type_id":"4","last_reported":1752937791,"current_range_meters":12000,"station_id":"ce4bhbh2rcd13ifvqepg","pricing_plan_id":"cebpf4jnsgd1na2vs0mg"},{"bike_id":"875e79b8-828f-41e0-8e09-6cdd5634f137","system_id":"levelo_inurba_marseille","lat":43.28418,"lon":5.34996,"is_reserved":false,"is_disabled":false,"rental_uris":{"android":"levelo://app?vid=875e79b8-828f-41e0-8e09-6cdd5634f137","ios":"levelo://app?vid=875e79b8-828f-41e0-8e09-6cdd5634f137"},"vehicle_type_id":"4","last_reported":1752937791,"current_range_meters":12000,"station_id":"ce4bhbh2rcd13ifvqepg","pricing_plan_id":"cebpf4jnsgd1na2vs0mg"},{"bike_id":"741165a8-ceac-4cb3-88d0-43c890e836ee","system_id":"levelo_inurba_marseille","lat":43.30249,"lon":5.40058,"is_reserved":false,"is_disabled":false,"rental_uris":{"android":"levelo://app?vid=741165a8-ceac-4cb3-88d0-43c890e836ee","ios":"levelo://app?vid=741165a8-ceac-4cb3-88d0-43c890e836ee"},"vehicle_type_id":"4","last_reported":1752937791,"current_range_meters":12000,"station_id":"ce4bgvh2rcd13ifvqcs0","pricing_plan_id":"cebpf4jnsgd1na2vs0mg"},{"bike_id":"09a99cc9-81c2-4c00-890e-b8a9af05bd19","system_id":"levelo_inurba_marseille","lat":43.24186,"lon":5.36419,"is_reserved":false,"is_disabled":false,"rental_uris":{"android":"levelo://app?vid=09a99cc9-81c2-4c00-890e-b8a9af05bd19","ios":"levelo://app?vid=09a99cc9-81c2-4c00-890e-b8a9af05bd19"},"vehicle_type_id":"4","last_reported":1752937791,"current_range_meters":12000,"station_id":"cpo36qri1sfpv3e86is0","pricing_plan_id":"cebpf4jnsgd1na2vs0mg"},{"bike_id":"0916292f-c60f-4ec2-a3c5-bb862cec8507","system_id":"levelo_inurba_marseille","lat":43.23189,"lon":5.35587,"is_reserved":false,"is_disabled":false,"rental_uris":{"android":"levelo://app?vid=0916292f-c60f-4ec2-a3c5-bb862cec8507","ios":"levelo://app?vid=0916292f-c60f-4ec2-a3c5-bb862cec8507"},"vehicle_type_id":"4","last_reported":1752937791,"current_range_meters":12000,"station_id":"ce4bhu92rcd13ifvqi70","pricing_plan_id":"cebpf4jnsgd1na2vs0mg"},{"bike_id":"e908cf8e-0b5a-4ad4-919e-49d394c9fda9","system_id":"levelo_inurba_marseille","lat":43.276184,"lon":5.36111,"is_reserved":false,"is_disabled":false,"rental_uris":{"android":"levelo://app?vid=e908cf8e-0b5a-4ad4-919e-49d394c9fda9","ios":"levelo://app?vid=e908cf8e-0b5a-4ad4-919e-49d394c9fda9"},"vehicle_type_id":"4","last_reported":1752937791,"current_range_meters":12400,"station_id":"ce4bgj92rcd13ifvqbe0","pricing_plan_id":"cebpf4jnsgd1na2vs0mg"},{"bike_id":"96579d04-b9e9-484c-9b9a-af500e5e8552","system_id":"levelo_inurba_marseille","lat":43.3268,"lon":5.36387,"is_reserved":false,"is_disabled":false,"rental_uris":{"android":"levelo://app?vid=96579d04-b9e9-484c-9b9a-af500e5e8552","ios":"levelo://app?vid=96579d04-b9e9-484c-9b9a-af500e5e8552"},"vehicle_type_id":"4","last_reported":1752937791,"current_range_meters":12400,"station_id":"","pricing_plan_id":"cebpf4jnsgd1na2vs0mg"},{"bike_id":"3605d35d-f5f1-4b8c-9045-b89ed08529ba","system_id":"levelo_inurba_marseille","lat":43.28274,"lon":5.35075,"is_reserved":false,"is_disabled":false,"rental_uris":{"android":"levelo://app?vid=3605d35d-f5f1-4b8c-9045-b89ed08529ba","ios":"levelo://app?vid=3605d35d-f5f1-4b8c-9045-b89ed08529ba"},"vehicle_type_id":"4","last_reported":1752937791,"current_range_meters":12400,"station_id":"ce4bhbp2rcd13ifvqerg","pricing_plan_id":"cebpf4jnsgd1na2vs0mg"},{"bike_id":"d9749d8f-7121-4a45-ac25-8f48b28876d4","system_id":"levelo_inurba_marseille","lat":43.28088,"lon":5.35205,"is_reserved":false,"is_disabled":false,"rental_uris":{"android":"levelo://app?vid=d9749d8f-7121-4a45-ac25-8f48b28876d4","ios":"levelo://app?vid=d9749d8f-7121-4a45-ac25-8f48b28876d4"},"vehicle_type_id":"4","last_reported":1752937791,"current_range_meters":12800,"station_id":"","pricing_plan_id":"cebpf4jnsgd1na2vs0mg"},{"bike_id":"9b23bb4d-56e9-4edf-8942-b183d6d94fcb","system_id":"levelo_inurba_marseille","lat":43.27372,"lon":5.36249,"is_reserved":false,"is_disabled":false,"rental_uris":{"android":"levelo://app?vid=9b23bb4d-56e9-4edf-8942-b183d6d94fcb","ios":"levelo://app?vid=9b23bb4d-56e9-4edf-8942-b183d6d94fcb"},"vehicle_type_id":"4","last_reported":1752937791,"current_range_meters":12800,"station_id":"ce4bhbh2rcd13ifvqeo0","pricing_plan_id":"cebpf4jnsgd1na2vs0mg"},{"bike_id":"ee482485-2e6c-4493-b2b2-48f1a514e37c","system_id":"levelo_inurba_marseille","lat":43.2791,"lon":5.39593,"is_reserved":false,"is_disabled":false,"rental_uris":{"android":"levelo://app?vid=ee482485-2e6c-4493-b2b2-48f1a514e37c","ios":"levelo://app?vid=ee482485-2e6c-4493-b2b2-48f1a514e37c"},"vehicle_type_id":"4","last_reported":1752937791,"current_range_meters":12800,"station_id":"ce4bhf92rcd13ifvqf40","pricing_plan_id":"cebpf4jnsgd1na2vs0mg"},{"bike_id":"5cdecdf5-c02a-4a31-a82c-eaf7b07bc2ca","system_id":"levelo_inurba_marseille","lat":43.27374,"lon":5.36256,"is_reserved":false,"is_disabled":false,"rental_uris":{"android":"levelo://app?vid=5cdecdf5-c02a-4a31-a82c-eaf7b07bc2ca","ios":"levelo://app?vid=5cdecdf5-c02a-4a31-a82c-eaf7b07bc2ca"},"vehicle_type_id":"4","last_reported":1752937791,"current_range_meters":12800,"station_id":"ce4bhbh2rcd13ifvqeo0","pricing_plan_id":"cebpf4jnsgd1na2vs0mg"},{"bike_id":"94c07cb2-0943-4d24-99f2-97bdab47aa3f","system_id":"levelo_inurba_marseille","lat":43.337444,"lon":5.374475,"is_reserved":false,"is_disabled":false,"rental_uris":{"android":"levelo://app?vid=94c07cb2-0943-4d24-99f2-97bdab47aa3f","ios":"levelo://app?vid=94c07cb2-0943-4d24-99f2-97bdab47aa3f"},"vehicle_type_id":"4","last_reported":1752937791,"current_range_meters":12800,"station_id":"","pricing_plan_id":"cebpf4jnsgd1na2vs0mg"},{"bike_id":"d1675cc2-8800-46b3-8968-2965f8e11594","system_id":"levelo_inurba_marseille","lat":43.22937,"lon":5.35369,"is_reserved":false,"is_disabled":false,"rental_uris":{"android":"levelo://app?vid=d1675cc2-8800-46b3-8968-2965f8e11594","ios":"levelo://app?vid=d1675cc2-8800-46b3-8968-2965f8e11594"},"vehicle_type_id":"4","last_reported":1752937791,"current_range_meters":13600,"station_id":"cpo3532slgdg3j2ikp40","pricing_plan_id":"cebpf4jnsgd1na2vs0mg"},{"bike_id":"e21f6b26-b9ed-4907-b5bd-deb161985d22","system_id":"levelo_inurba_marseille","lat":43.273125,"lon":5.390745,"is_reserved":false,"is_disabled":false,"rental_uris":{"android":"levelo://app?vid=e21f6b26-b9ed-4907-b5bd-deb161985d22","ios":"levelo://app?vid=e21f6b26-b9ed-4907-b5bd-deb161985d22"},"vehicle_type_id":"4","last_reported":1752937791,"current_range_meters":13600,"station_id":"ce4bhgp2rcd13ifvqfe0","pricing_plan_id":"cebpf4jnsgd1na2vs0mg"},{"bike_id":"8350003f-2999-433d-9ad9-923cf70c187e","system_id":"levelo_inurba_marseille","lat":43.29868,"lon":5.39734,"is_reserved":false,"is_disabled":false,"rental_uris":{"android":"levelo://app?vid=8350003f-2999-433d-9ad9-923cf70c187e","ios":"levelo://app?vid=8350003f-2999-433d-9ad9-923cf70c187e"},"vehicle_type_id":"4","last_reported":1752937791,"current_range_meters":13600,"station_id":"","pricing_plan_id":"cebpf4jnsgd1na2vs0mg"},{"bike_id":"210acc93-6e87-43de-9818-6f7b50757897","system_id":"levelo_inurba_marseille","lat":43.30876,"lon":5.39644,"is_reserved":false,"is_disabled":false,"rental_uris":{"android":"levelo://app?vid=210acc93-6e87-43de-9818-6f7b50757897","ios":"levelo://app?vid=210acc93-6e87-43de-9818-6f7b50757897"},"vehicle_type_id":"4","last_reported":1752937791,"current_range_meters":13600,"station_id":"ce4bh012rcd13ifvqcv0","pricing_plan_id":"cebpf4jnsgd1na2vs0mg"},{"bike_id":"7360b2c1-827d-4a45-ba07-948ef7d2fc35","system_id":"levelo_inurba_marseille","lat":43.229295,"lon":5.353761,"is_reserved":false,"is_disabled":false,"rental_uris":{"android":"levelo://app?vid=7360b2c1-827d-4a45-ba07-948ef7d2fc35","ios":"levelo://app?vid=7360b2c1-827d-4a45-ba07-948ef7d2fc35"},"vehicle_type_id":"4","last_reported":1752937791,"current_range_meters":13600,"station_id":"","pricing_plan_id":"cebpf4jnsgd1na2vs0mg"},{"bike_id":"9eee562f-c74b-4c1a-8fa0-1792764207de","system_id":"levelo_inurba_marseille","lat":43.25502,"lon":5.37638,"is_reserved":false,"is_disabled":false,"rental_uris":{"android":"levelo://app?vid=9eee562f-c74b-4c1a-8fa0-1792764207de","ios":"levelo://app?vid=9eee562f-c74b-4c1a-8fa0-1792764207de"},"vehicle_type_id":"4","last_reported":1752937791,"current_range_meters":14000,"station_id":"ce4bhh12rcd13ifvqff0","pricing_plan_id":"cebpf4jnsgd1na2vs0mg"},{"bike_id":"977026fc-c1b4-4def-be0a-4e99c39bea4f","system_id":"levelo_inurba_marseille","lat":43.2826,"lon":5.35082,"is_reserved":false,"is_disabled":false,"rental_uris":{"android":"levelo://app?vid=977026fc-c1b4-4def-be0a-4e99c39bea4f","ios":"levelo://app?vid=977026fc-c1b4-4def-be0a-4e99c39bea4f"},"vehicle_type_id":"4","last_reported":1752937791,"current_range_meters":14000,"station_id":"ce4bhbp2rcd13ifvqerg","pricing_plan_id":"cebpf4jnsgd1na2vs0mg"},{"bike_id":"592def21-eda3-4d7e-8eb6-45873e83e8ed","system_id":"levelo_inurba_marseille","lat":43.27831,"lon":5.3922,"is_reserved":false,"is_disabled":false,"rental_uris":{"android":"levelo://app?vid=592def21-eda3-4d7e-8eb6-45873e83e8ed","ios":"levelo://app?vid=592def21-eda3-4d7e-8eb6-45873e83e8ed"},"vehicle_type_id":"4","last_reported":1752937791,"current_range_meters":14000,"station_id":"ce4bhjp2rcd13ifvqga0","pricing_plan_id":"cebpf4jnsgd1na2vs0mg"},{"bike_id":"a1e9f7a3-c441-4017-a919-dc964e782d9c","system_id":"levelo_inurba_marseille","lat":43.299784,"lon":5.384871,"is_reserved":false,"is_disabled":false,"rental_uris":{"android":"levelo://app?vid=a1e9f7a3-c441-4017-a919-dc964e782d9c","ios":"levelo://app?vid=a1e9f7a3-c441-4017-a919-dc964e782d9c"},"vehicle_type_id":"4","last_reported":1752937791,"current_range_meters":14000,"station_id":"ce4bgj92rcd13ifvqbd0","pricing_plan_id":"cebpf4jnsgd1na2vs0mg"},{"bike_id":"b970126c-c1c3-439a-8880-44ad88bd90cf","system_id":"levelo_inurba_marseille","lat":43.32128,"lon":5.36763,"is_reserved":false,"is_disabled":false,"rental_uris":{"android":"levelo://app?vid=b970126c-c1c3-439a-8880-44ad88bd90cf","ios":"levelo://app?vid=b970126c-c1c3-439a-8880-44ad88bd90cf"},"vehicle_type_id":"4","last_reported":1752937791,"current_range_meters":14000,"station_id":"ce4bhrh2rcd13ifvqhug","pricing_plan_id":"cebpf4jnsgd1na2vs0mg"},{"bike_id":"2e8938d1-601b-4e62-b0d3-51b5bc374b90","system_id":"levelo_inurba_marseille","lat":43.281568,"lon":5.426472,"is_reserved":false,"is_disabled":false,"rental_uris":{"android":"levelo://app?vid=2e8938d1-601b-4e62-b0d3-51b5bc374b90","ios":"levelo://app?vid=2e8938d1-601b-4e62-b0d3-51b5bc374b90"},"vehicle_type_id":"4","last_reported":1752937791,"current_range_meters":22800,"station_id":"ce4bhnh2rcd13ifvqgug","pricing_plan_id":"cebpf4jnsgd1na2vs0mg"},{"bike_id":"1b854a4b-240d-4845-bddd-d442bbfa0897","system_id":"levelo_inurba_marseille","lat":43.23196,"lon":5.3556,"is_reserved":false,"is_disabled":false,"rental_uris":{"android":"levelo://app?vid=1b854a4b-240d-4845-bddd-d442bbfa0897","ios":"levelo://app?vid=1b854a4b-240d-4845-bddd-d442bbfa0897"},"vehicle_type_id":"4","last_reported":1752937791,"current_range_meters":14400,"station_id":"ce4bhu92rcd13ifvqi70","pricing_plan_id":"cebpf4jnsgd1na2vs0mg"},{"bike_id":"b32d1a93-0beb-427d-955f-7686e06dec9b","system_id":"levelo_inurba_marseille","lat":43.23189,"lon":5.35564,"is_reserved":false,"is_disabled":false,"rental_uris":{"android":"levelo://app?vid=b32d1a93-0beb-427d-955f-7686e06dec9b","ios":"levelo://app?vid=b32d1a93-0beb-427d-955f-7686e06dec9b"},"vehicle_type_id":"4","last_reported":1752937791,"current_range_meters":14400,"station_id":"ce4bhu92rcd13ifvqi70","pricing_plan_id":"cebpf4jnsgd1na2vs0mg"},{"bike_id":"f330f9df-2f2e-49d7-8d48-f85f7822218d","system_id":"levelo_inurba_marseille","lat":43.28267,"lon":5.35085,"is_reserved":false,"is_disabled":false,"rental_uris":{"android":"levelo://app?vid=f330f9df-2f2e-49d7-8d48-f85f7822218d","ios":"levelo://app?vid=f330f9df-2f2e-49d7-8d48-f85f7822218d"},"vehicle_type_id":"4","last_reported":1752937791,"current_range_meters":14400,"station_id":"ce4bhbp2rcd13ifvqerg","pricing_plan_id":"cebpf4jnsgd1na2vs0mg"},{"bike_id":"6e527752-025e-4200-912b-a8e2bdc87aa7","system_id":"levelo_inurba_marseille","lat":43.28936,"lon":5.39634,"is_reserved":false,"is_disabled":false,"rental_uris":{"android":"levelo://app?vid=6e527752-025e-4200-912b-a8e2bdc87aa7","ios":"levelo://app?vid=6e527752-025e-4200-912b-a8e2bdc87aa7"},"vehicle_type_id":"4","last_reported":1752937791,"current_range_meters":14400,"station_id":"ce4bh3h2rcd13ifvqdn0","pricing_plan_id":"cebpf4jnsgd1na2vs0mg"},{"bike_id":"e3f8f23c-d761-4a68-94d1-d96c312ee3e7","system_id":"levelo_inurba_marseille","lat":43.24081,"lon":5.37748,"is_reserved":false,"is_disabled":false,"rental_uris":{"android":"levelo://app?vid=e3f8f23c-d761-4a68-94d1-d96c312ee3e7","ios":"levelo://app?vid=e3f8f23c-d761-4a68-94d1-d96c312ee3e7"},"vehicle_type_id":"4","last_reported":1752937791,"current_range_meters":14400,"station_id":"ce4bhnp2rcd13ifvqgvg","pricing_plan_id":"cebpf4jnsgd1na2vs0mg"},{"bike_id":"d1e9c72e-7489-4052-b944-813b64bc55b4","system_id":"levelo_inurba_marseille","lat":43.31579,"lon":5.38942,"is_reserved":false,"is_disabled":false,"rental_uris":{"android":"levelo://app?vid=d1e9c72e-7489-4052-b944-813b64bc55b4","ios":"levelo://app?vid=d1e9c72e-7489-4052-b944-813b64bc55b4"},"vehicle_type_id":"4","last_reported":1752937791,"current_range_meters":14400,"station_id":"","pricing_plan_id":"cebpf4jnsgd1na2vs0mg"},{"bike_id":"d6068c88-da08-48eb-a02a-67a2e5b70016","system_id":"levelo_inurba_marseille","lat":43.29279,"lon":5.40114,"is_reserved":false,"is_disabled":false,"rental_uris":{"android":"levelo://app?vid=d6068c88-da08-48eb-a02a-67a2e5b70016","ios":"levelo://app?vid=d6068c88-da08-48eb-a02a-67a2e5b70016"},"vehicle_type_id":"4","last_reported":1752937791,"current_range_meters":14800,"station_id":"ce4bh312rcd13ifvqdk0","pricing_plan_id":"cebpf4jnsgd1na2vs0mg"},{"bike_id":"fdbeb289-adb3-4e25-b0dd-c635efbe92b2","system_id":"levelo_inurba_marseille","lat":43.31692,"lon":5.40503,"is_reserved":false,"is_disabled":false,"rental_uris":{"android":"levelo://app?vid=fdbeb289-adb3-4e25-b0dd-c635efbe92b2","ios":"levelo://app?vid=fdbeb289-adb3-4e25-b0dd-c635efbe92b2"},"vehicle_type_id":"4","last_reported":1752937791,"current_range_meters":14800,"station_id":"ce4bh012rcd13ifvqd00","pricing_plan_id":"cebpf4jnsgd1na2vs0mg"},{"bike_id":"f760b6b4-2428-41f7-926c-eff8b1e3d871","system_id":"levelo_inurba_marseille","lat":43.28625,"lon":5.35098,"is_reserved":false,"is_disabled":false,"rental_uris":{"android":"levelo://app?vid=f760b6b4-2428-41f7-926c-eff8b1e3d871","ios":"levelo://app?vid=f760b6b4-2428-41f7-926c-eff8b1e3d871"},"vehicle_type_id":"4","last_reported":1752937791,"current_range_meters":14800,"station_id":"ce4bhch2rcd13ifvqeug","pricing_plan_id":"cebpf4jnsgd1na2vs0mg"},{"bike_id":"f1809c6d-a698-4f48-95f7-3baa320675f9","system_id":"levelo_inurba_marseille","lat":43.28613,"lon":5.35108,"is_reserved":false,"is_disabled":false,"rental_uris":{"android":"levelo://app?vid=f1809c6d-a698-4f48-95f7-3baa320675f9","ios":"levelo://app?vid=f1809c6d-a698-4f48-95f7-3baa320675f9"},"vehicle_type_id":"4","last_reported":1752937791,"current_range_meters":15200,"station_id":"ce4bhch2rcd13ifvqeug","pricing_plan_id":"cebpf4jnsgd1na2vs0mg"},{"bike_id":"a54008a8-d6df-4141-9c71-b657434298fc","system_id":"levelo_inurba_marseille","lat":43.31725,"lon":5.40456,"is_reserved":false,"is_disabled":false,"rental_uris":{"android":"levelo://app?vid=a54008a8-d6df-4141-9c71-b657434298fc","ios":"levelo://app?vid=a54008a8-d6df-4141-9c71-b657434298fc"},"vehicle_type_id":"4","last_reported":1752937791,"current_range_meters":15200,"station_id":"ce4bh012rcd13ifvqd00","pricing_plan_id":"cebpf4jnsgd1na2vs0mg"},{"bike_id":"948cc778-4b52-43d4-bd05-9525cc0c3471","system_id":"levelo_inurba_marseille","lat":43.28097,"lon":5.39304,"is_reserved":false,"is_disabled":false,"rental_uris":{"android":"levelo://app?vid=948cc778-4b52-43d4-bd05-9525cc0c3471","ios":"levelo://app?vid=948cc778-4b52-43d4-bd05-9525cc0c3471"},"vehicle_type_id":"4","last_reported":1752937791,"current_range_meters":15200,"station_id":"","pricing_plan_id":"cebpf4jnsgd1na2vs0mg"},{"bike_id":"e25c88de-03de-4f45-95c3-993f9bcd3951","system_id":"levelo_inurba_marseille","lat":43.30545,"lon":5.38421,"is_reserved":false,"is_disabled":false,"rental_uris":{"android":"levelo://app?vid=e25c88de-03de-4f45-95c3-993f9bcd3951","ios":"levelo://app?vid=e25c88de-03de-4f45-95c3-993f9bcd3951"},"vehicle_type_id":"4","last_reported":1752937791,"current_range_meters":13600,"station_id":"ce4bgg92rcd13ifvqb30","pricing_plan_id":"cebpf4jnsgd1na2vs0mg"},{"bike_id":"8dfc84a0-ffd1-4fb1-a2ae-d043ee293622","system_id":"levelo_inurba_marseille","lat":43.29779,"lon":5.37107,"is_reserved":false,"is_disabled":false,"rental_uris":{"android":"levelo://app?vid=8dfc84a0-ffd1-4fb1-a2ae-d043ee293622","ios":"levelo://app?vid=8dfc84a0-ffd1-4fb1-a2ae-d043ee293622"},"vehicle_type_id":"4","last_reported":1752937791,"current_range_meters":15200,"station_id":"ce4bgop2rcd13ifvqc1g","pricing_plan_id":"cebpf4jnsgd1na2vs0mg"},{"bike_id":"c9ffd04b-c3a5-49bc-9896-054acbb108c7","system_id":"levelo_inurba_marseille","lat":43.22502,"lon":5.34789,"is_reserved":false,"is_disabled":false,"rental_uris":{"android":"levelo://app?vid=c9ffd04b-c3a5-49bc-9896-054acbb108c7","ios":"levelo://app?vid=c9ffd04b-c3a5-49bc-9896-054acbb108c7"},"vehicle_type_id":"4","last_reported":1752937791,"current_range_meters":15200,"station_id":"st_cvj5dfep6f1abm77gieg","pricing_plan_id":"cebpf4jnsgd1na2vs0mg"},{"bike_id":"c04f4d0e-09c8-4656-9c87-195fcc2f8942","system_id":"levelo_inurba_marseille","lat":43.28414,"lon":5.35002,"is_reserved":false,"is_disabled":false,"rental_uris":{"android":"levelo://app?vid=c04f4d0e-09c8-4656-9c87-195fcc2f8942","ios":"levelo://app?vid=c04f4d0e-09c8-4656-9c87-195fcc2f8942"},"vehicle_type_id":"4","last_reported":1752937791,"current_range_meters":16400,"station_id":"ce4bhbh2rcd13ifvqepg","pricing_plan_id":"cebpf4jnsgd1na2vs0mg"},{"bike_id":"6bf6b87d-18d2-4dee-bb8b-deb7f32f6fe7","system_id":"levelo_inurba_marseille","lat":43.21748,"lon":5.3461,"is_reserved":false,"is_disabled":false,"rental_uris":{"android":"levelo://app?vid=6bf6b87d-18d2-4dee-bb8b-deb7f32f6fe7","ios":"levelo://app?vid=6bf6b87d-18d2-4dee-bb8b-deb7f32f6fe7"},"vehicle_type_id":"4","last_reported":1752937791,"current_range_meters":16000,"station_id":"st_cvj6r9ubvosntc0bgbag","pricing_plan_id":"cebpf4jnsgd1na2vs0mg"},{"bike_id":"d421927e-7ddd-40a0-904f-5b4ff0266a72","system_id":"levelo_inurba_marseille","lat":43.31902,"lon":5.40155,"is_reserved":false,"is_disabled":false,"rental_uris":{"android":"levelo://app?vid=d421927e-7ddd-40a0-904f-5b4ff0266a72","ios":"levelo://app?vid=d421927e-7ddd-40a0-904f-5b4ff0266a72"},"vehicle_type_id":"4","last_reported":1752937791,"current_range_meters":16000,"station_id":"","pricing_plan_id":"cebpf4jnsgd1na2vs0mg"},{"bike_id":"0fd02cf6-67fb-4589-807f-241dd50b7e1a","system_id":"levelo_inurba_marseille","lat":43.29893,"lon":5.43662,"is_reserved":false,"is_disabled":true,"rental_uris":{"android":"levelo://app?vid=0fd02cf6-67fb-4589-807f-241dd50b7e1a","ios":"levelo://app?vid=0fd02cf6-67fb-4589-807f-241dd50b7e1a"},"vehicle_type_id":"4","last_reported":1752937791,"current_range_meters":16000,"station_id":"ce4bhpp2rcd13ifvqhfg","pricing_plan_id":"cebpf4jnsgd1na2vs0mg"},{"bike_id":"a6de290b-5c15-427b-bc37-8301607e1735","system_id":"levelo_inurba_marseille","lat":43.337444,"lon":5.374475,"is_reserved":false,"is_disabled":false,"rental_uris":{"android":"levelo://app?vid=a6de290b-5c15-427b-bc37-8301607e1735","ios":"levelo://app?vid=a6de290b-5c15-427b-bc37-8301607e1735"},"vehicle_type_id":"4","last_reported":1752937791,"current_range_meters":16000,"station_id":"","pricing_plan_id":"cebpf4jnsgd1na2vs0mg"},{"bike_id":"8c5450f6-22cb-45b4-a93f-a5b5848cb46c","system_id":"levelo_inurba_marseille","lat":43.310759,"lon":5.383553,"is_reserved":false,"is_disabled":false,"rental_uris":{"android":"levelo://app?vid=8c5450f6-22cb-45b4-a93f-a5b5848cb46c","ios":"levelo://app?vid=8c5450f6-22cb-45b4-a93f-a5b5848cb46c"},"vehicle_type_id":"4","last_reported":1752937791,"current_range_meters":16000,"station_id":"ce4bgv92rcd13ifvqcr0","pricing_plan_id":"cebpf4jnsgd1na2vs0mg"},{"bike_id":"e122d88a-9b60-4e16-a29e-60ef32a8dad5","system_id":"levelo_inurba_marseille","lat":43.21205,"lon":5.3508,"is_reserved":false,"is_disabled":false,"rental_uris":{"android":"levelo://app?vid=e122d88a-9b60-4e16-a29e-60ef32a8dad5","ios":"levelo://app?vid=e122d88a-9b60-4e16-a29e-60ef32a8dad5"},"vehicle_type_id":"4","last_reported":1752937791,"current_range_meters":16000,"station_id":"st_cvj6sg6p6f1abm77japg","pricing_plan_id":"cebpf4jnsgd1na2vs0mg"},{"bike_id":"072d9626-be18-4556-a3f5-056b23bb503d","system_id":"levelo_inurba_marseille","lat":43.28653,"lon":5.36355,"is_reserved":false,"is_disabled":false,"rental_uris":{"android":"levelo://app?vid=072d9626-be18-4556-a3f5-056b23bb503d","ios":"levelo://app?vid=072d9626-be18-4556-a3f5-056b23bb503d"},"vehicle_type_id":"4","last_reported":1752937791,"current_range_meters":16000,"station_id":"ce4bhah2rcd13ifvqej0","pricing_plan_id":"cebpf4jnsgd1na2vs0mg"},{"bike_id":"ceb67ffd-ebec-4638-9f19-b50131ec6658","system_id":"levelo_inurba_marseille","lat":43.23964,"lon":5.36633,"is_reserved":false,"is_disabled":false,"rental_uris":{"android":"levelo://app?vid=ceb67ffd-ebec-4638-9f19-b50131ec6658","ios":"levelo://app?vid=ceb67ffd-ebec-4638-9f19-b50131ec6658"},"vehicle_type_id":"4","last_reported":1752937791,"current_range_meters":16000,"station_id":"ce4bhi12rcd13ifvqfp0","pricing_plan_id":"cebpf4jnsgd1na2vs0mg"},{"bike_id":"6a193f41-f336-48d3-a5d0-a6fca3bf067e","system_id":"levelo_inurba_marseille","lat":43.24703,"lon":5.38196,"is_reserved":false,"is_disabled":false,"rental_uris":{"android":"levelo://app?vid=6a193f41-f336-48d3-a5d0-a6fca3bf067e","ios":"levelo://app?vid=6a193f41-f336-48d3-a5d0-a6fca3bf067e"},"vehicle_type_id":"4","last_reported":1752937791,"current_range_meters":16000,"station_id":"ce4bhih2rcd13ifvqfr0","pricing_plan_id":"cebpf4jnsgd1na2vs0mg"},{"bike_id":"6ad925de-db9d-4392-a422-f46606a50c8b","system_id":"levelo_inurba_marseille","lat":43.296425,"lon":5.405835,"is_reserved":false,"is_disabled":false,"rental_uris":{"android":"levelo://app?vid=6ad925de-db9d-4392-a422-f46606a50c8b","ios":"levelo://app?vid=6ad925de-db9d-4392-a422-f46606a50c8b"},"vehicle_type_id":"4","last_reported":1752937791,"current_range_meters":15200,"station_id":"ce4bh0h2rcd13ifvqd60","pricing_plan_id":"cebpf4jnsgd1na2vs0mg"},{"bike_id":"44e89ad7-16a2-4910-805f-061f2aee5ab7","system_id":"levelo_inurba_marseille","lat":43.23228,"lon":5.3556,"is_reserved":false,"is_disabled":false,"rental_uris":{"android":"levelo://app?vid=44e89ad7-16a2-4910-805f-061f2aee5ab7","ios":"levelo://app?vid=44e89ad7-16a2-4910-805f-061f2aee5ab7"},"vehicle_type_id":"4","last_reported":1752937791,"current_range_meters":16000,"station_id":"ce4bhu92rcd13ifvqi70","pricing_plan_id":"cebpf4jnsgd1na2vs0mg"},{"bike_id":"c563397a-8e95-43de-9482-c447bf9c775e","system_id":"levelo_inurba_marseille","lat":43.29346,"lon":5.41168,"is_reserved":false,"is_disabled":false,"rental_uris":{"android":"levelo://app?vid=c563397a-8e95-43de-9482-c447bf9c775e","ios":"levelo://app?vid=c563397a-8e95-43de-9482-c447bf9c775e"},"vehicle_type_id":"4","last_reported":1752937791,"current_range_meters":16000,"station_id":"","pricing_plan_id":"cebpf4jnsgd1na2vs0mg"},{"bike_id":"edbb41ca-7fd2-416c-85f4-2dd0fe0aa8d8","system_id":"levelo_inurba_marseille","lat":43.2737,"lon":5.36259,"is_reserved":false,"is_disabled":false,"rental_uris":{"android":"levelo://app?vid=edbb41ca-7fd2-416c-85f4-2dd0fe0aa8d8","ios":"levelo://app?vid=edbb41ca-7fd2-416c-85f4-2dd0fe0aa8d8"},"vehicle_type_id":"4","last_reported":1752937791,"current_range_meters":16000,"station_id":"ce4bhbh2rcd13ifvqeo0","pricing_plan_id":"cebpf4jnsgd1na2vs0mg"},{"bike_id":"603820f9-76b2-471d-a1fc-f566022def88","system_id":"levelo_inurba_marseille","lat":43.28275,"lon":5.35071,"is_reserved":false,"is_disabled":false,"rental_uris":{"android":"levelo://app?vid=603820f9-76b2-471d-a1fc-f566022def88","ios":"levelo://app?vid=603820f9-76b2-471d-a1fc-f566022def88"},"vehicle_type_id":"4","last_reported":1752937791,"current_range_meters":16000,"station_id":"ce4bhbp2rcd13ifvqerg","pricing_plan_id":"cebpf4jnsgd1na2vs0mg"},{"bike_id":"1c522f02-0b79-4f13-8656-a28cc4186541","system_id":"levelo_inurba_marseille","lat":43.21753,"lon":5.34609,"is_reserved":false,"is_disabled":false,"rental_uris":{"android":"levelo://app?vid=1c522f02-0b79-4f13-8656-a28cc4186541","ios":"levelo://app?vid=1c522f02-0b79-4f13-8656-a28cc4186541"},"vehicle_type_id":"4","last_reported":1752937791,"current_range_meters":16000,"station_id":"","pricing_plan_id":"cebpf4jnsgd1na2vs0mg"},{"bike_id":"aa36f004-b5d3-4813-a701-2dda3dc28dfe","system_id":"levelo_inurba_marseille","lat":43.2826,"lon":5.3509,"is_reserved":false,"is_disabled":false,"rental_uris":{"android":"levelo://app?vid=aa36f004-b5d3-4813-a701-2dda3dc28dfe","ios":"levelo://app?vid=aa36f004-b5d3-4813-a701-2dda3dc28dfe"},"vehicle_type_id":"4","last_reported":1752937791,"current_range_meters":16400,"station_id":"ce4bhbp2rcd13ifvqerg","pricing_plan_id":"cebpf4jnsgd1na2vs0mg"},{"bike_id":"f64d4495-c6c3-4047-b421-2e9c29951567","system_id":"levelo_inurba_marseille","lat":43.22532,"lon":5.34773,"is_reserved":false,"is_disabled":false,"rental_uris":{"android":"levelo://app?vid=f64d4495-c6c3-4047-b421-2e9c29951567","ios":"levelo://app?vid=f64d4495-c6c3-4047-b421-2e9c29951567"},"vehicle_type_id":"4","last_reported":1752937791,"current_range_meters":16400,"station_id":"st_cvj5dfep6f1abm77gieg","pricing_plan_id":"cebpf4jnsgd1na2vs0mg"},{"bike_id":"9c88e2f8-1f5d-4c11-af7b-4be5121520ef","system_id":"levelo_inurba_marseille","lat":43.2826,"lon":5.35076,"is_reserved":false,"is_disabled":false,"rental_uris":{"android":"levelo://app?vid=9c88e2f8-1f5d-4c11-af7b-4be5121520ef","ios":"levelo://app?vid=9c88e2f8-1f5d-4c11-af7b-4be5121520ef"},"vehicle_type_id":"4","last_reported":1752937791,"current_range_meters":16400,"station_id":"ce4bhbp2rcd13ifvqerg","pricing_plan_id":"cebpf4jnsgd1na2vs0mg"},{"bike_id":"45dea0eb-918d-49f1-8341-001e35c226f0","system_id":"levelo_inurba_marseille","lat":43.211884,"lon":5.350766,"is_reserved":false,"is_disabled":false,"rental_uris":{"android":"levelo://app?vid=45dea0eb-918d-49f1-8341-001e35c226f0","ios":"levelo://app?vid=45dea0eb-918d-49f1-8341-001e35c226f0"},"vehicle_type_id":"4","last_reported":1752937791,"current_range_meters":16400,"station_id":"st_cvj6sg6p6f1abm77japg","pricing_plan_id":"cebpf4jnsgd1na2vs0mg"},{"bike_id":"cf9f7b6f-b252-45aa-bd41-e7b8a5947e88","system_id":"levelo_inurba_marseille","lat":43.26958,"lon":5.40296,"is_reserved":false,"is_disabled":true,"rental_uris":{"android":"levelo://app?vid=cf9f7b6f-b252-45aa-bd41-e7b8a5947e88","ios":"levelo://app?vid=cf9f7b6f-b252-45aa-bd41-e7b8a5947e88"},"vehicle_type_id":"4","last_reported":1752937791,"current_range_meters":16400,"station_id":"cjm6bp8fraef2m0cb0m0","pricing_plan_id":"cebpf4jnsgd1na2vs0mg"},{"bike_id":"4a2af6fb-f040-4dff-9ff5-d70c4f952e83","system_id":"levelo_inurba_marseille","lat":43.315175,"lon":5.373112,"is_reserved":false,"is_disabled":false,"rental_uris":{"android":"levelo://app?vid=4a2af6fb-f040-4dff-9ff5-d70c4f952e83","ios":"levelo://app?vid=4a2af6fb-f040-4dff-9ff5-d70c4f952e83"},"vehicle_type_id":"4","last_reported":1752937791,"current_range_meters":16400,"station_id":"ce4bgt12rcd13ifvqcd0","pricing_plan_id":"cebpf4jnsgd1na2vs0mg"},{"bike_id":"5cfba425-9675-4f12-b163-bb22dbf81ac4","system_id":"levelo_inurba_marseille","lat":43.217468,"lon":5.346025,"is_reserved":false,"is_disabled":false,"rental_uris":{"android":"levelo://app?vid=5cfba425-9675-4f12-b163-bb22dbf81ac4","ios":"levelo://app?vid=5cfba425-9675-4f12-b163-bb22dbf81ac4"},"vehicle_type_id":"4","last_reported":1752937791,"current_range_meters":16400,"station_id":"st_cvj6r9ubvosntc0bgbag","pricing_plan_id":"cebpf4jnsgd1na2vs0mg"},{"bike_id":"6f120e02-0867-4040-a62a-34c38406fbd8","system_id":"levelo_inurba_marseille","lat":43.2175,"lon":5.34604,"is_reserved":false,"is_disabled":false,"rental_uris":{"android":"levelo://app?vid=6f120e02-0867-4040-a62a-34c38406fbd8","ios":"levelo://app?vid=6f120e02-0867-4040-a62a-34c38406fbd8"},"vehicle_type_id":"4","last_reported":1752937791,"current_range_meters":16400,"station_id":"st_cvj6r9ubvosntc0bgbag","pricing_plan_id":"cebpf4jnsgd1na2vs0mg"},{"bike_id":"9d845db7-226e-4c41-9783-85638847a76f","system_id":"levelo_inurba_marseille","lat":43.30316,"lon":5.36907,"is_reserved":false,"is_disabled":false,"rental_uris":{"android":"levelo://app?vid=9d845db7-226e-4c41-9783-85638847a76f","ios":"levelo://app?vid=9d845db7-226e-4c41-9783-85638847a76f"},"vehicle_type_id":"4","last_reported":1752937791,"current_range_meters":16400,"station_id":"ce4bgqh2rcd13ifvqc5g","pricing_plan_id":"cebpf4jnsgd1na2vs0mg"},{"bike_id":"69f70f89-186c-47ae-ad06-15853c1452a1","system_id":"levelo_inurba_marseille","lat":43.30529,"lon":5.36549,"is_reserved":false,"is_disabled":false,"rental_uris":{"android":"levelo://app?vid=69f70f89-186c-47ae-ad06-15853c1452a1","ios":"levelo://app?vid=69f70f89-186c-47ae-ad06-15853c1452a1"},"vehicle_type_id":"4","last_reported":1752937791,"current_range_meters":16400,"station_id":"ce4bgs12rcd13ifvqcag","pricing_plan_id":"cebpf4jnsgd1na2vs0mg"},{"bike_id":"74e93ff0-0fe3-46c1-8291-4ed06dfeed28","system_id":"levelo_inurba_marseille","lat":43.28621,"lon":5.35111,"is_reserved":false,"is_disabled":false,"rental_uris":{"android":"levelo://app?vid=74e93ff0-0fe3-46c1-8291-4ed06dfeed28","ios":"levelo://app?vid=74e93ff0-0fe3-46c1-8291-4ed06dfeed28"},"vehicle_type_id":"4","last_reported":1752937791,"current_range_meters":16400,"station_id":"ce4bhch2rcd13ifvqeug","pricing_plan_id":"cebpf4jnsgd1na2vs0mg"},{"bike_id":"aa1b4cd0-7d11-438f-b4f0-11e59f944232","system_id":"levelo_inurba_marseille","lat":43.21747,"lon":5.34609,"is_reserved":false,"is_disabled":false,"rental_uris":{"android":"levelo://app?vid=aa1b4cd0-7d11-438f-b4f0-11e59f944232","ios":"levelo://app?vid=aa1b4cd0-7d11-438f-b4f0-11e59f944232"},"vehicle_type_id":"4","last_reported":1752937791,"current_range_meters":16400,"station_id":"st_cvj6r9ubvosntc0bgbag","pricing_plan_id":"cebpf4jnsgd1na2vs0mg"},{"bike_id":"83036b03-adb1-418f-ad9f-83b2e4ca32f2","system_id":"levelo_inurba_marseille","lat":43.24158,"lon":5.36408,"is_reserved":false,"is_disabled":false,"rental_uris":{"android":"levelo://app?vid=83036b03-adb1-418f-ad9f-83b2e4ca32f2","ios":"levelo://app?vid=83036b03-adb1-418f-ad9f-83b2e4ca32f2"},"vehicle_type_id":"4","last_reported":1752937791,"current_range_meters":16400,"station_id":"cpo36qri1sfpv3e86is0","pricing_plan_id":"cebpf4jnsgd1na2vs0mg"},{"bike_id":"f4a58f62-b828-4cda-b4f9-1493df6c9b02","system_id":"levelo_inurba_marseille","lat":43.21204,"lon":5.35098,"is_reserved":false,"is_disabled":false,"rental_uris":{"android":"levelo://app?vid=f4a58f62-b828-4cda-b4f9-1493df6c9b02","ios":"levelo://app?vid=f4a58f62-b828-4cda-b4f9-1493df6c9b02"},"vehicle_type_id":"4","last_reported":1752937791,"current_range_meters":16400,"station_id":"st_cvj6sg6p6f1abm77japg","pricing_plan_id":"cebpf4jnsgd1na2vs0mg"},{"bike_id":"23d1e1ca-e960-4a56-b589-2c6b92c824bb","system_id":"levelo_inurba_marseille","lat":43.33119,"lon":5.39229,"is_reserved":false,"is_disabled":false,"rental_uris":{"android":"levelo://app?vid=23d1e1ca-e960-4a56-b589-2c6b92c824bb","ios":"levelo://app?vid=23d1e1ca-e960-4a56-b589-2c6b92c824bb"},"vehicle_type_id":"4","last_reported":1752937791,"current_range_meters":16400,"station_id":"","pricing_plan_id":"cebpf4jnsgd1na2vs0mg"},{"bike_id":"5a570911-22d0-41b1-a776-0fe138c4bdc4","system_id":"levelo_inurba_marseille","lat":43.21193,"lon":5.35067,"is_reserved":false,"is_disabled":false,"rental_uris":{"android":"levelo://app?vid=5a570911-22d0-41b1-a776-0fe138c4bdc4","ios":"levelo://app?vid=5a570911-22d0-41b1-a776-0fe138c4bdc4"},"vehicle_type_id":"4","last_reported":1752937791,"current_range_meters":16400,"station_id":"st_cvj6sg6p6f1abm77japg","pricing_plan_id":"cebpf4jnsgd1na2vs0mg"},{"bike_id":"7592d3b0-727d-4107-ba81-a2966cdc2b34","system_id":"levelo_inurba_marseille","lat":43.26179,"lon":5.40457,"is_reserved":false,"is_disabled":false,"rental_uris":{"android":"levelo://app?vid=7592d3b0-727d-4107-ba81-a2966cdc2b34","ios":"levelo://app?vid=7592d3b0-727d-4107-ba81-a2966cdc2b34"},"vehicle_type_id":"4","last_reported":1752937791,"current_range_meters":16400,"station_id":"ce4bhmh2rcd13ifvqgmg","pricing_plan_id":"cebpf4jnsgd1na2vs0mg"},{"bike_id":"7d91d34c-95ba-419a-8d0b-21d2aeaa83ad","system_id":"levelo_inurba_marseille","lat":43.25514,"lon":5.37645,"is_reserved":false,"is_disabled":true,"rental_uris":{"android":"levelo://app?vid=7d91d34c-95ba-419a-8d0b-21d2aeaa83ad","ios":"levelo://app?vid=7d91d34c-95ba-419a-8d0b-21d2aeaa83ad"},"vehicle_type_id":"4","last_reported":1752937791,"current_range_meters":16400,"station_id":"ce4bhh12rcd13ifvqff0","pricing_plan_id":"cebpf4jnsgd1na2vs0mg"},{"bike_id":"37914269-1ad7-46c0-9f88-6e27e2bd4d47","system_id":"levelo_inurba_marseille","lat":43.23052,"lon":5.35501,"is_reserved":false,"is_disabled":false,"rental_uris":{"android":"levelo://app?vid=37914269-1ad7-46c0-9f88-6e27e2bd4d47","ios":"levelo://app?vid=37914269-1ad7-46c0-9f88-6e27e2bd4d47"},"vehicle_type_id":"4","last_reported":1752937791,"current_range_meters":16800,"station_id":"cpo3342slgdg3j2ifvpg","pricing_plan_id":"cebpf4jnsgd1na2vs0mg"},{"bike_id":"7150d82d-0aae-4240-81f3-e459b8173dde","system_id":"levelo_inurba_marseille","lat":43.284149,"lon":5.349733,"is_reserved":false,"is_disabled":false,"rental_uris":{"android":"levelo://app?vid=7150d82d-0aae-4240-81f3-e459b8173dde","ios":"levelo://app?vid=7150d82d-0aae-4240-81f3-e459b8173dde"},"vehicle_type_id":"4","last_reported":1752937791,"current_range_meters":16800,"station_id":"ce4bhbh2rcd13ifvqepg","pricing_plan_id":"cebpf4jnsgd1na2vs0mg"},{"bike_id":"2d3e5adb-6ba8-4df7-be40-e52a630e3667","system_id":"levelo_inurba_marseille","lat":43.24083,"lon":5.37746,"is_reserved":false,"is_disabled":false,"rental_uris":{"android":"levelo://app?vid=2d3e5adb-6ba8-4df7-be40-e52a630e3667","ios":"levelo://app?vid=2d3e5adb-6ba8-4df7-be40-e52a630e3667"},"vehicle_type_id":"4","last_reported":1752937791,"current_range_meters":16800,"station_id":"ce4bhnp2rcd13ifvqgvg","pricing_plan_id":"cebpf4jnsgd1na2vs0mg"},{"bike_id":"0ac9b427-819d-4139-8162-77866abdf07d","system_id":"levelo_inurba_marseille","lat":43.24656,"lon":5.38903,"is_reserved":false,"is_disabled":false,"rental_uris":{"android":"levelo://app?vid=0ac9b427-819d-4139-8162-77866abdf07d","ios":"levelo://app?vid=0ac9b427-819d-4139-8162-77866abdf07d"},"vehicle_type_id":"4","last_reported":1752937791,"current_range_meters":16800,"station_id":"ce4bhg12rcd13ifvqf60","pricing_plan_id":"cebpf4jnsgd1na2vs0mg"},{"bike_id":"2060869b-d87e-4c30-8864-6b1d75522919","system_id":"levelo_inurba_marseille","lat":43.29897,"lon":5.43657,"is_reserved":false,"is_disabled":false,"rental_uris":{"android":"levelo://app?vid=2060869b-d87e-4c30-8864-6b1d75522919","ios":"levelo://app?vid=2060869b-d87e-4c30-8864-6b1d75522919"},"vehicle_type_id":"4","last_reported":1752937791,"current_range_meters":16800,"station_id":"ce4bhpp2rcd13ifvqhfg","pricing_plan_id":"cebpf4jnsgd1na2vs0mg"},{"bike_id":"77e5d396-9f38-43c2-ae33-ac1f85df337d","system_id":"levelo_inurba_marseille","lat":43.295542,"lon":5.422852,"is_reserved":false,"is_disabled":false,"rental_uris":{"android":"levelo://app?vid=77e5d396-9f38-43c2-ae33-ac1f85df337d","ios":"levelo://app?vid=77e5d396-9f38-43c2-ae33-ac1f85df337d"},"vehicle_type_id":"4","last_reported":1752937791,"current_range_meters":16800,"station_id":"ce4bhph2rcd13ifvqhdg","pricing_plan_id":"cebpf4jnsgd1na2vs0mg"},{"bike_id":"b2d9a1fb-c6f4-4066-b1dd-2f79d7e46619","system_id":"levelo_inurba_marseille","lat":43.28618,"lon":5.35108,"is_reserved":false,"is_disabled":false,"rental_uris":{"android":"levelo://app?vid=b2d9a1fb-c6f4-4066-b1dd-2f79d7e46619","ios":"levelo://app?vid=b2d9a1fb-c6f4-4066-b1dd-2f79d7e46619"},"vehicle_type_id":"4","last_reported":1752937791,"current_range_meters":16800,"station_id":"ce4bhch2rcd13ifvqeug","pricing_plan_id":"cebpf4jnsgd1na2vs0mg"},{"bike_id":"de0b06c3-8e85-4512-b185-76fcc7983c32","system_id":"levelo_inurba_marseille","lat":43.301467,"lon":5.380865,"is_reserved":false,"is_disabled":false,"rental_uris":{"android":"levelo://app?vid=de0b06c3-8e85-4512-b185-76fcc7983c32","ios":"levelo://app?vid=de0b06c3-8e85-4512-b185-76fcc7983c32"},"vehicle_type_id":"4","last_reported":1752937791,"current_range_meters":16400,"station_id":"ce4bgjp2rcd13ifvqbh0","pricing_plan_id":"cebpf4jnsgd1na2vs0mg"},{"bike_id":"3e7903b9-d5e7-4421-b9f1-ddd7b941ce1b","system_id":"levelo_inurba_marseille","lat":43.28447,"lon":5.39201,"is_reserved":false,"is_disabled":false,"rental_uris":{"android":"levelo://app?vid=3e7903b9-d5e7-4421-b9f1-ddd7b941ce1b","ios":"levelo://app?vid=3e7903b9-d5e7-4421-b9f1-ddd7b941ce1b"},"vehicle_type_id":"4","last_reported":1752937791,"current_range_meters":16800,"station_id":"ce4bhoh2rcd13ifvqh5g","pricing_plan_id":"cebpf4jnsgd1na2vs0mg"},{"bike_id":"f29809a9-219c-46e1-9f35-693c8d3ebf2b","system_id":"levelo_inurba_marseille","lat":43.27058,"lon":5.4025,"is_reserved":false,"is_disabled":false,"rental_uris":{"android":"levelo://app?vid=f29809a9-219c-46e1-9f35-693c8d3ebf2b","ios":"levelo://app?vid=f29809a9-219c-46e1-9f35-693c8d3ebf2b"},"vehicle_type_id":"4","last_reported":1752937791,"current_range_meters":17200,"station_id":"ce4bhk92rcd13ifvqgc0","pricing_plan_id":"cebpf4jnsgd1na2vs0mg"},{"bike_id":"be2fb6b8-f9f1-4e24-8d7a-ce43be2126d1","system_id":"levelo_inurba_marseille","lat":43.21765,"lon":5.34611,"is_reserved":false,"is_disabled":false,"rental_uris":{"android":"levelo://app?vid=be2fb6b8-f9f1-4e24-8d7a-ce43be2126d1","ios":"levelo://app?vid=be2fb6b8-f9f1-4e24-8d7a-ce43be2126d1"},"vehicle_type_id":"4","last_reported":1752937791,"current_range_meters":17200,"station_id":"st_cvj6r9ubvosntc0bgbag","pricing_plan_id":"cebpf4jnsgd1na2vs0mg"},{"bike_id":"928cf5ac-aee5-47cf-9990-d315d6fabe6c","system_id":"levelo_inurba_marseille","lat":43.30272,"lon":5.37715,"is_reserved":false,"is_disabled":false,"rental_uris":{"android":"levelo://app?vid=928cf5ac-aee5-47cf-9990-d315d6fabe6c","ios":"levelo://app?vid=928cf5ac-aee5-47cf-9990-d315d6fabe6c"},"vehicle_type_id":"4","last_reported":1752937791,"current_range_meters":17200,"station_id":"ce4bguh2rcd13ifvqcj0","pricing_plan_id":"cebpf4jnsgd1na2vs0mg"},{"bike_id":"d01966a7-5e23-40f7-8323-4d6534e79969","system_id":"levelo_inurba_marseille","lat":43.22947,"lon":5.35375,"is_reserved":false,"is_disabled":false,"rental_uris":{"android":"levelo://app?vid=d01966a7-5e23-40f7-8323-4d6534e79969","ios":"levelo://app?vid=d01966a7-5e23-40f7-8323-4d6534e79969"},"vehicle_type_id":"4","last_reported":1752937791,"current_range_meters":17200,"station_id":"cpo3532slgdg3j2ikp40","pricing_plan_id":"cebpf4jnsgd1na2vs0mg"},{"bike_id":"f734d1ab-e95f-49df-a640-db407264fdd1","system_id":"levelo_inurba_marseille","lat":43.29595,"lon":5.37466,"is_reserved":false,"is_disabled":false,"rental_uris":{"android":"levelo://app?vid=f734d1ab-e95f-49df-a640-db407264fdd1","ios":"levelo://app?vid=f734d1ab-e95f-49df-a640-db407264fdd1"},"vehicle_type_id":"4","last_reported":1752937791,"current_range_meters":17200,"station_id":"","pricing_plan_id":"cebpf4jnsgd1na2vs0mg"},{"bike_id":"64caf522-1921-404b-a9eb-ac9f82993ae0","system_id":"levelo_inurba_marseille","lat":43.21733,"lon":5.34637,"is_reserved":false,"is_disabled":false,"rental_uris":{"android":"levelo://app?vid=64caf522-1921-404b-a9eb-ac9f82993ae0","ios":"levelo://app?vid=64caf522-1921-404b-a9eb-ac9f82993ae0"},"vehicle_type_id":"4","last_reported":1752937791,"current_range_meters":17200,"station_id":"st_cvj6r9ubvosntc0bgbag","pricing_plan_id":"cebpf4jnsgd1na2vs0mg"},{"bike_id":"50817c71-c433-41db-8588-f3f5b56e9306","system_id":"levelo_inurba_marseille","lat":43.225037,"lon":5.347825,"is_reserved":false,"is_disabled":false,"rental_uris":{"android":"levelo://app?vid=50817c71-c433-41db-8588-f3f5b56e9306","ios":"levelo://app?vid=50817c71-c433-41db-8588-f3f5b56e9306"},"vehicle_type_id":"4","last_reported":1752937791,"current_range_meters":17200,"station_id":"st_cvj5dfep6f1abm77gieg","pricing_plan_id":"cebpf4jnsgd1na2vs0mg"},{"bike_id":"e9ea02bf-861d-425c-991a-a30306b70a4f","system_id":"levelo_inurba_marseille","lat":43.28278,"lon":5.35087,"is_reserved":false,"is_disabled":false,"rental_uris":{"android":"levelo://app?vid=e9ea02bf-861d-425c-991a-a30306b70a4f","ios":"levelo://app?vid=e9ea02bf-861d-425c-991a-a30306b70a4f"},"vehicle_type_id":"4","last_reported":1752937791,"current_range_meters":17200,"station_id":"ce4bhbp2rcd13ifvqerg","pricing_plan_id":"cebpf4jnsgd1na2vs0mg"},{"bike_id":"8302fa71-3f95-41f6-8fa0-d442abbea6bc","system_id":"levelo_inurba_marseille","lat":43.25493,"lon":5.37646,"is_reserved":false,"is_disabled":false,"rental_uris":{"android":"levelo://app?vid=8302fa71-3f95-41f6-8fa0-d442abbea6bc","ios":"levelo://app?vid=8302fa71-3f95-41f6-8fa0-d442abbea6bc"},"vehicle_type_id":"4","last_reported":1752937791,"current_range_meters":17200,"station_id":"ce4bhh12rcd13ifvqff0","pricing_plan_id":"cebpf4jnsgd1na2vs0mg"},{"bike_id":"4756c3e0-fc87-4647-b159-7725acd8ef8b","system_id":"levelo_inurba_marseille","lat":43.21748,"lon":5.34606,"is_reserved":false,"is_disabled":false,"rental_uris":{"android":"levelo://app?vid=4756c3e0-fc87-4647-b159-7725acd8ef8b","ios":"levelo://app?vid=4756c3e0-fc87-4647-b159-7725acd8ef8b"},"vehicle_type_id":"4","last_reported":1752937791,"current_range_meters":17600,"station_id":"st_cvj6r9ubvosntc0bgbag","pricing_plan_id":"cebpf4jnsgd1na2vs0mg"},{"bike_id":"6fb131dd-8bae-4bc0-b0c0-17992306572f","system_id":"levelo_inurba_marseille","lat":43.29565,"lon":5.42282,"is_reserved":false,"is_disabled":false,"rental_uris":{"android":"levelo://app?vid=6fb131dd-8bae-4bc0-b0c0-17992306572f","ios":"levelo://app?vid=6fb131dd-8bae-4bc0-b0c0-17992306572f"},"vehicle_type_id":"4","last_reported":1752937791,"current_range_meters":17600,"station_id":"ce4bhph2rcd13ifvqhdg","pricing_plan_id":"cebpf4jnsgd1na2vs0mg"},{"bike_id":"ca671420-7636-45e9-91b8-cdcc791d1995","system_id":"levelo_inurba_marseille","lat":43.2842,"lon":5.34986,"is_reserved":false,"is_disabled":false,"rental_uris":{"android":"levelo://app?vid=ca671420-7636-45e9-91b8-cdcc791d1995","ios":"levelo://app?vid=ca671420-7636-45e9-91b8-cdcc791d1995"},"vehicle_type_id":"4","last_reported":1752937791,"current_range_meters":17600,"station_id":"ce4bhbh2rcd13ifvqepg","pricing_plan_id":"cebpf4jnsgd1na2vs0mg"},{"bike_id":"c9e13ae8-81d2-45a5-adef-f1b61a66153b","system_id":"levelo_inurba_marseille","lat":43.239619,"lon":5.366205,"is_reserved":false,"is_disabled":false,"rental_uris":{"android":"levelo://app?vid=c9e13ae8-81d2-45a5-adef-f1b61a66153b","ios":"levelo://app?vid=c9e13ae8-81d2-45a5-adef-f1b61a66153b"},"vehicle_type_id":"4","last_reported":1752937791,"current_range_meters":17600,"station_id":"ce4bhi12rcd13ifvqfp0","pricing_plan_id":"cebpf4jnsgd1na2vs0mg"},{"bike_id":"0623aaf7-c769-45d3-abbf-bae39b725fbc","system_id":"levelo_inurba_marseille","lat":43.25579,"lon":5.3823,"is_reserved":false,"is_disabled":false,"rental_uris":{"android":"levelo://app?vid=0623aaf7-c769-45d3-abbf-bae39b725fbc","ios":"levelo://app?vid=0623aaf7-c769-45d3-abbf-bae39b725fbc"},"vehicle_type_id":"4","last_reported":1752937791,"current_range_meters":17600,"station_id":"ce4bhih2rcd13ifvqfs0","pricing_plan_id":"cebpf4jnsgd1na2vs0mg"},{"bike_id":"12c0af7f-d992-4f6f-be1c-802d340c13c5","system_id":"levelo_inurba_marseille","lat":43.29594,"lon":5.37522,"is_reserved":false,"is_disabled":true,"rental_uris":{"android":"levelo://app?vid=12c0af7f-d992-4f6f-be1c-802d340c13c5","ios":"levelo://app?vid=12c0af7f-d992-4f6f-be1c-802d340c13c5"},"vehicle_type_id":"4","last_reported":1752937791,"current_range_meters":17600,"station_id":"ce4bgh92rcd13ifvqb50","pricing_plan_id":"cebpf4jnsgd1na2vs0mg"},{"bike_id":"a4849453-fc76-4eef-856a-587b0feaf6dc","system_id":"levelo_inurba_marseille","lat":43.284294,"lon":5.349944,"is_reserved":false,"is_disabled":false,"rental_uris":{"android":"levelo://app?vid=a4849453-fc76-4eef-856a-587b0feaf6dc","ios":"levelo://app?vid=a4849453-fc76-4eef-856a-587b0feaf6dc"},"vehicle_type_id":"4","last_reported":1752937791,"current_range_meters":17600,"station_id":"ce4bhbh2rcd13ifvqepg","pricing_plan_id":"cebpf4jnsgd1na2vs0mg"},{"bike_id":"6632090a-055c-44f8-9e14-911bdfcc46ad","system_id":"levelo_inurba_marseille","lat":43.26482,"lon":5.39552,"is_reserved":false,"is_disabled":false,"rental_uris":{"android":"levelo://app?vid=6632090a-055c-44f8-9e14-911bdfcc46ad","ios":"levelo://app?vid=6632090a-055c-44f8-9e14-911bdfcc46ad"},"vehicle_type_id":"4","last_reported":1752937791,"current_range_meters":17600,"station_id":"ce4bhi12rcd13ifvqfq0","pricing_plan_id":"cebpf4jnsgd1na2vs0mg"},{"bike_id":"95b5bcfa-54af-48c0-bd18-8f73f959ce2b","system_id":"levelo_inurba_marseille","lat":43.31935,"lon":5.37313,"is_reserved":false,"is_disabled":false,"rental_uris":{"android":"levelo://app?vid=95b5bcfa-54af-48c0-bd18-8f73f959ce2b","ios":"levelo://app?vid=95b5bcfa-54af-48c0-bd18-8f73f959ce2b"},"vehicle_type_id":"4","last_reported":1752937791,"current_range_meters":17600,"station_id":"","pricing_plan_id":"cebpf4jnsgd1na2vs0mg"},{"bike_id":"eca2d9a6-9946-4ff6-a3f3-9bce5243c578","system_id":"levelo_inurba_marseille","lat":43.24161,"lon":5.364068,"is_reserved":false,"is_disabled":false,"rental_uris":{"android":"levelo://app?vid=eca2d9a6-9946-4ff6-a3f3-9bce5243c578","ios":"levelo://app?vid=eca2d9a6-9946-4ff6-a3f3-9bce5243c578"},"vehicle_type_id":"4","last_reported":1752937791,"current_range_meters":18000,"station_id":"cpo36qri1sfpv3e86is0","pricing_plan_id":"cebpf4jnsgd1na2vs0mg"},{"bike_id":"f9b63c98-1217-4ed4-b52e-8a490ffc692d","system_id":"levelo_inurba_marseille","lat":43.26572,"lon":5.39002,"is_reserved":false,"is_disabled":false,"rental_uris":{"android":"levelo://app?vid=f9b63c98-1217-4ed4-b52e-8a490ffc692d","ios":"levelo://app?vid=f9b63c98-1217-4ed4-b52e-8a490ffc692d"},"vehicle_type_id":"4","last_reported":1752937791,"current_range_meters":18000,"station_id":"ce4bhe12rcd13ifvqf30","pricing_plan_id":"cebpf4jnsgd1na2vs0mg"},{"bike_id":"f99ff1e4-4111-475a-aa3e-cb902d081040","system_id":"levelo_inurba_marseille","lat":43.24813,"lon":5.37446,"is_reserved":false,"is_disabled":false,"rental_uris":{"android":"levelo://app?vid=f99ff1e4-4111-475a-aa3e-cb902d081040","ios":"levelo://app?vid=f99ff1e4-4111-475a-aa3e-cb902d081040"},"vehicle_type_id":"4","last_reported":1752937791,"current_range_meters":18000,"station_id":"ce4bhgh2rcd13ifvqfb0","pricing_plan_id":"cebpf4jnsgd1na2vs0mg"},{"bike_id":"e4e6db7f-6842-4f2c-9bda-e73f51413a84","system_id":"levelo_inurba_marseille","lat":43.28611,"lon":5.35116,"is_reserved":false,"is_disabled":false,"rental_uris":{"android":"levelo://app?vid=e4e6db7f-6842-4f2c-9bda-e73f51413a84","ios":"levelo://app?vid=e4e6db7f-6842-4f2c-9bda-e73f51413a84"},"vehicle_type_id":"4","last_reported":1752937791,"current_range_meters":18000,"station_id":"ce4bhch2rcd13ifvqeug","pricing_plan_id":"cebpf4jnsgd1na2vs0mg"},{"bike_id":"cb32d093-ee3c-4e55-b5d8-f421974c5321","system_id":"levelo_inurba_marseille","lat":43.2396,"lon":5.36629,"is_reserved":false,"is_disabled":false,"rental_uris":{"android":"levelo://app?vid=cb32d093-ee3c-4e55-b5d8-f421974c5321","ios":"levelo://app?vid=cb32d093-ee3c-4e55-b5d8-f421974c5321"},"vehicle_type_id":"4","last_reported":1752937791,"current_range_meters":18000,"station_id":"ce4bhi12rcd13ifvqfp0","pricing_plan_id":"cebpf4jnsgd1na2vs0mg"},{"bike_id":"057022ab-27cd-469c-8c8d-c822eac466d5","system_id":"levelo_inurba_marseille","lat":43.28611,"lon":5.35108,"is_reserved":false,"is_disabled":false,"rental_uris":{"android":"levelo://app?vid=057022ab-27cd-469c-8c8d-c822eac466d5","ios":"levelo://app?vid=057022ab-27cd-469c-8c8d-c822eac466d5"},"vehicle_type_id":"4","last_reported":1752937791,"current_range_meters":18000,"station_id":"ce4bhch2rcd13ifvqeug","pricing_plan_id":"cebpf4jnsgd1na2vs0mg"},{"bike_id":"2ba13de8-2053-45a6-bcbf-51b7a4e83469","system_id":"levelo_inurba_marseille","lat":43.23777,"lon":5.36179,"is_reserved":false,"is_disabled":false,"rental_uris":{"android":"levelo://app?vid=2ba13de8-2053-45a6-bcbf-51b7a4e83469","ios":"levelo://app?vid=2ba13de8-2053-45a6-bcbf-51b7a4e83469"},"vehicle_type_id":"4","last_reported":1752937791,"current_range_meters":18000,"station_id":"","pricing_plan_id":"cebpf4jnsgd1na2vs0mg"},{"bike_id":"01e4a67a-eaeb-41d2-9672-e29a7634b230","system_id":"levelo_inurba_marseille","lat":43.28637,"lon":5.35107,"is_reserved":false,"is_disabled":false,"rental_uris":{"android":"levelo://app?vid=01e4a67a-eaeb-41d2-9672-e29a7634b230","ios":"levelo://app?vid=01e4a67a-eaeb-41d2-9672-e29a7634b230"},"vehicle_type_id":"4","last_reported":1752937791,"current_range_meters":18000,"station_id":"ce4bhch2rcd13ifvqeug","pricing_plan_id":"cebpf4jnsgd1na2vs0mg"},{"bike_id":"1e6b4bb8-11c1-4647-8f99-3dbca91b4438","system_id":"levelo_inurba_marseille","lat":43.28632,"lon":5.35105,"is_reserved":false,"is_disabled":false,"rental_uris":{"android":"levelo://app?vid=1e6b4bb8-11c1-4647-8f99-3dbca91b4438","ios":"levelo://app?vid=1e6b4bb8-11c1-4647-8f99-3dbca91b4438"},"vehicle_type_id":"4","last_reported":1752937791,"current_range_meters":18000,"station_id":"ce4bhch2rcd13ifvqeug","pricing_plan_id":"cebpf4jnsgd1na2vs0mg"},{"bike_id":"39abf049-3891-4481-9c25-7fb7a413c85a","system_id":"levelo_inurba_marseille","lat":43.25496,"lon":5.37654,"is_reserved":false,"is_disabled":false,"rental_uris":{"android":"levelo://app?vid=39abf049-3891-4481-9c25-7fb7a413c85a","ios":"levelo://app?vid=39abf049-3891-4481-9c25-7fb7a413c85a"},"vehicle_type_id":"4","last_reported":1752937791,"current_range_meters":18000,"station_id":"ce4bhh12rcd13ifvqff0","pricing_plan_id":"cebpf4jnsgd1na2vs0mg"},{"bike_id":"b1202e96-de66-4009-bc32-0ea923c01ad7","system_id":"levelo_inurba_marseille","lat":43.27204,"lon":5.39204,"is_reserved":false,"is_disabled":false,"rental_uris":{"android":"levelo://app?vid=b1202e96-de66-4009-bc32-0ea923c01ad7","ios":"levelo://app?vid=b1202e96-de66-4009-bc32-0ea923c01ad7"},"vehicle_type_id":"4","last_reported":1752937791,"current_range_meters":18000,"station_id":"ce4bhhp2rcd13ifvqfm0","pricing_plan_id":"cebpf4jnsgd1na2vs0mg"},{"bike_id":"a3b0a385-7fb1-45ae-b68d-f836ccbc9859","system_id":"levelo_inurba_marseille","lat":43.243905,"lon":5.370585,"is_reserved":false,"is_disabled":false,"rental_uris":{"android":"levelo://app?vid=a3b0a385-7fb1-45ae-b68d-f836ccbc9859","ios":"levelo://app?vid=a3b0a385-7fb1-45ae-b68d-f836ccbc9859"},"vehicle_type_id":"4","last_reported":1752937791,"current_range_meters":18800,"station_id":"ce4bhhh2rcd13ifvqfk0","pricing_plan_id":"cebpf4jnsgd1na2vs0mg"},{"bike_id":"fcb7bdd7-619c-4993-a787-07848bf64783","system_id":"levelo_inurba_marseille","lat":43.29225,"lon":5.36063,"is_reserved":false,"is_disabled":false,"rental_uris":{"android":"levelo://app?vid=fcb7bdd7-619c-4993-a787-07848bf64783","ios":"levelo://app?vid=fcb7bdd7-619c-4993-a787-07848bf64783"},"vehicle_type_id":"4","last_reported":1752937791,"current_range_meters":18800,"station_id":"ce4bhbh2rcd13ifvqeqg","pricing_plan_id":"cebpf4jnsgd1na2vs0mg"},{"bike_id":"5b6d3bea-8bea-4607-ab42-92fa6ee3a351","system_id":"levelo_inurba_marseille","lat":43.27616,"lon":5.361026,"is_reserved":false,"is_disabled":false,"rental_uris":{"android":"levelo://app?vid=5b6d3bea-8bea-4607-ab42-92fa6ee3a351","ios":"levelo://app?vid=5b6d3bea-8bea-4607-ab42-92fa6ee3a351"},"vehicle_type_id":"4","last_reported":1752937791,"current_range_meters":18800,"station_id":"ce4bgj92rcd13ifvqbe0","pricing_plan_id":"cebpf4jnsgd1na2vs0mg"},{"bike_id":"6ef7bf14-b1e9-44cb-bb59-0c16477d6fc9","system_id":"levelo_inurba_marseille","lat":43.2827,"lon":5.35105,"is_reserved":false,"is_disabled":false,"rental_uris":{"android":"levelo://app?vid=6ef7bf14-b1e9-44cb-bb59-0c16477d6fc9","ios":"levelo://app?vid=6ef7bf14-b1e9-44cb-bb59-0c16477d6fc9"},"vehicle_type_id":"4","last_reported":1752937791,"current_range_meters":18800,"station_id":"ce4bhbp2rcd13ifvqerg","pricing_plan_id":"cebpf4jnsgd1na2vs0mg"},{"bike_id":"2867d928-2233-4512-8479-1a73c3d15907","system_id":"levelo_inurba_marseille","lat":43.29865,"lon":5.39738,"is_reserved":false,"is_disabled":false,"rental_uris":{"android":"levelo://app?vid=2867d928-2233-4512-8479-1a73c3d15907","ios":"levelo://app?vid=2867d928-2233-4512-8479-1a73c3d15907"},"vehicle_type_id":"4","last_reported":1752937791,"current_range_meters":18800,"station_id":"ce4bh0h2rcd13ifvqd50","pricing_plan_id":"cebpf4jnsgd1na2vs0mg"},{"bike_id":"87e6a2f2-e7ef-4dba-aeba-5588e1270124","system_id":"levelo_inurba_marseille","lat":43.22934,"lon":5.35407,"is_reserved":false,"is_disabled":false,"rental_uris":{"android":"levelo://app?vid=87e6a2f2-e7ef-4dba-aeba-5588e1270124","ios":"levelo://app?vid=87e6a2f2-e7ef-4dba-aeba-5588e1270124"},"vehicle_type_id":"4","last_reported":1752937791,"current_range_meters":18800,"station_id":"cpo3532slgdg3j2ikp40","pricing_plan_id":"cebpf4jnsgd1na2vs0mg"},{"bike_id":"939d220c-6cee-41db-927f-698212462b3e","system_id":"levelo_inurba_marseille","lat":43.282645,"lon":5.350824,"is_reserved":false,"is_disabled":false,"rental_uris":{"android":"levelo://app?vid=939d220c-6cee-41db-927f-698212462b3e","ios":"levelo://app?vid=939d220c-6cee-41db-927f-698212462b3e"},"vehicle_type_id":"4","last_reported":1752937791,"current_range_meters":18800,"station_id":"ce4bhbp2rcd13ifvqerg","pricing_plan_id":"cebpf4jnsgd1na2vs0mg"},{"bike_id":"4381bde2-8054-4743-beeb-716501f2fff2","system_id":"levelo_inurba_marseille","lat":43.27073,"lon":5.4027,"is_reserved":false,"is_disabled":false,"rental_uris":{"android":"levelo://app?vid=4381bde2-8054-4743-beeb-716501f2fff2","ios":"levelo://app?vid=4381bde2-8054-4743-beeb-716501f2fff2"},"vehicle_type_id":"4","last_reported":1752937791,"current_range_meters":18800,"station_id":"ce4bhk92rcd13ifvqgc0","pricing_plan_id":"cebpf4jnsgd1na2vs0mg"},{"bike_id":"707af16a-3189-4d92-b010-ef53c9012e98","system_id":"levelo_inurba_marseille","lat":43.21744,"lon":5.34606,"is_reserved":false,"is_disabled":false,"rental_uris":{"android":"levelo://app?vid=707af16a-3189-4d92-b010-ef53c9012e98","ios":"levelo://app?vid=707af16a-3189-4d92-b010-ef53c9012e98"},"vehicle_type_id":"4","last_reported":1752937791,"current_range_meters":18800,"station_id":"","pricing_plan_id":"cebpf4jnsgd1na2vs0mg"},{"bike_id":"d3aca52a-4e64-461a-8fd1-e9a035bafbdf","system_id":"levelo_inurba_marseille","lat":43.257213,"lon":5.411019,"is_reserved":false,"is_disabled":false,"rental_uris":{"android":"levelo://app?vid=d3aca52a-4e64-461a-8fd1-e9a035bafbdf","ios":"levelo://app?vid=d3aca52a-4e64-461a-8fd1-e9a035bafbdf"},"vehicle_type_id":"4","last_reported":1752937791,"current_range_meters":18800,"station_id":"","pricing_plan_id":"cebpf4jnsgd1na2vs0mg"},{"bike_id":"ebe822d6-926c-493e-876e-50227250e76c","system_id":"levelo_inurba_marseille","lat":43.30556,"lon":5.36551,"is_reserved":false,"is_disabled":false,"rental_uris":{"android":"levelo://app?vid=ebe822d6-926c-493e-876e-50227250e76c","ios":"levelo://app?vid=ebe822d6-926c-493e-876e-50227250e76c"},"vehicle_type_id":"4","last_reported":1752937791,"current_range_meters":18800,"station_id":"ce4bgs12rcd13ifvqcag","pricing_plan_id":"cebpf4jnsgd1na2vs0mg"},{"bike_id":"fd0ef827-9b7d-4701-a4a9-3b3651717bd9","system_id":"levelo_inurba_marseille","lat":43.24068,"lon":5.37754,"is_reserved":false,"is_disabled":false,"rental_uris":{"android":"levelo://app?vid=fd0ef827-9b7d-4701-a4a9-3b3651717bd9","ios":"levelo://app?vid=fd0ef827-9b7d-4701-a4a9-3b3651717bd9"},"vehicle_type_id":"4","last_reported":1752937791,"current_range_meters":18800,"station_id":"ce4bhnp2rcd13ifvqgvg","pricing_plan_id":"cebpf4jnsgd1na2vs0mg"},{"bike_id":"26b8cc06-1e63-495f-b599-843d277731ee","system_id":"levelo_inurba_marseille","lat":43.24095,"lon":5.37778,"is_reserved":false,"is_disabled":false,"rental_uris":{"android":"levelo://app?vid=26b8cc06-1e63-495f-b599-843d277731ee","ios":"levelo://app?vid=26b8cc06-1e63-495f-b599-843d277731ee"},"vehicle_type_id":"4","last_reported":1752937791,"current_range_meters":18800,"station_id":"ce4bhnp2rcd13ifvqgvg","pricing_plan_id":"cebpf4jnsgd1na2vs0mg"},{"bike_id":"31a3e0d3-9340-4ba1-bee1-7596c0335d90","system_id":"levelo_inurba_marseille","lat":43.296563,"lon":5.379437,"is_reserved":false,"is_disabled":false,"rental_uris":{"android":"levelo://app?vid=31a3e0d3-9340-4ba1-bee1-7596c0335d90","ios":"levelo://app?vid=31a3e0d3-9340-4ba1-bee1-7596c0335d90"},"vehicle_type_id":"4","last_reported":1752937791,"current_range_meters":18800,"station_id":"","pricing_plan_id":"cebpf4jnsgd1na2vs0mg"},{"bike_id":"aaa60820-80fd-4afd-9d4a-de02de98b358","system_id":"levelo_inurba_marseille","lat":43.21182,"lon":5.35081,"is_reserved":false,"is_disabled":false,"rental_uris":{"android":"levelo://app?vid=aaa60820-80fd-4afd-9d4a-de02de98b358","ios":"levelo://app?vid=aaa60820-80fd-4afd-9d4a-de02de98b358"},"vehicle_type_id":"4","last_reported":1752937791,"current_range_meters":18800,"station_id":"","pricing_plan_id":"cebpf4jnsgd1na2vs0mg"},{"bike_id":"157990d3-b9c3-4f5c-8a17-d78382994a2f","system_id":"levelo_inurba_marseille","lat":43.2621,"lon":5.37925,"is_reserved":false,"is_disabled":false,"rental_uris":{"android":"levelo://app?vid=157990d3-b9c3-4f5c-8a17-d78382994a2f","ios":"levelo://app?vid=157990d3-b9c3-4f5c-8a17-d78382994a2f"},"vehicle_type_id":"4","last_reported":1752937791,"current_range_meters":18800,"station_id":"ce4bhjp2rcd13ifvqg90","pricing_plan_id":"cebpf4jnsgd1na2vs0mg"},{"bike_id":"e85a5b9b-e671-47fc-9a86-594d5f2d6058","system_id":"levelo_inurba_marseille","lat":43.23189,"lon":5.3556,"is_reserved":false,"is_disabled":false,"rental_uris":{"android":"levelo://app?vid=e85a5b9b-e671-47fc-9a86-594d5f2d6058","ios":"levelo://app?vid=e85a5b9b-e671-47fc-9a86-594d5f2d6058"},"vehicle_type_id":"4","last_reported":1752937791,"current_range_meters":19200,"station_id":"ce4bhu92rcd13ifvqi70","pricing_plan_id":"cebpf4jnsgd1na2vs0mg"},{"bike_id":"7db8f066-ab1d-4c41-8265-165c87e7372b","system_id":"levelo_inurba_marseille","lat":43.31689,"lon":5.40475,"is_reserved":false,"is_disabled":false,"rental_uris":{"android":"levelo://app?vid=7db8f066-ab1d-4c41-8265-165c87e7372b","ios":"levelo://app?vid=7db8f066-ab1d-4c41-8265-165c87e7372b"},"vehicle_type_id":"4","last_reported":1752937791,"current_range_meters":19200,"station_id":"ce4bh012rcd13ifvqd00","pricing_plan_id":"cebpf4jnsgd1na2vs0mg"},{"bike_id":"96793585-b370-4499-97b5-55297e845c8f","system_id":"levelo_inurba_marseille","lat":43.21744,"lon":5.346085,"is_reserved":false,"is_disabled":false,"rental_uris":{"android":"levelo://app?vid=96793585-b370-4499-97b5-55297e845c8f","ios":"levelo://app?vid=96793585-b370-4499-97b5-55297e845c8f"},"vehicle_type_id":"4","last_reported":1752937791,"current_range_meters":19600,"station_id":"st_cvj6r9ubvosntc0bgbag","pricing_plan_id":"cebpf4jnsgd1na2vs0mg"},{"bike_id":"7cb87117-19f1-4d48-84b2-bec6ac38464c","system_id":"levelo_inurba_marseille","lat":43.29555,"lon":5.42266,"is_reserved":false,"is_disabled":false,"rental_uris":{"android":"levelo://app?vid=7cb87117-19f1-4d48-84b2-bec6ac38464c","ios":"levelo://app?vid=7cb87117-19f1-4d48-84b2-bec6ac38464c"},"vehicle_type_id":"4","last_reported":1752937791,"current_range_meters":19200,"station_id":"ce4bhph2rcd13ifvqhdg","pricing_plan_id":"cebpf4jnsgd1na2vs0mg"},{"bike_id":"8cd0d573-40aa-467a-8504-5e15d7c16214","system_id":"levelo_inurba_marseille","lat":43.28643,"lon":5.35088,"is_reserved":false,"is_disabled":false,"rental_uris":{"android":"levelo://app?vid=8cd0d573-40aa-467a-8504-5e15d7c16214","ios":"levelo://app?vid=8cd0d573-40aa-467a-8504-5e15d7c16214"},"vehicle_type_id":"4","last_reported":1752937791,"current_range_meters":19200,"station_id":"ce4bhch2rcd13ifvqeug","pricing_plan_id":"cebpf4jnsgd1na2vs0mg"},{"bike_id":"42937e6c-ed5c-4ebf-95b2-f8a75a78b730","system_id":"levelo_inurba_marseille","lat":43.3053,"lon":5.36543,"is_reserved":false,"is_disabled":false,"rental_uris":{"android":"levelo://app?vid=42937e6c-ed5c-4ebf-95b2-f8a75a78b730","ios":"levelo://app?vid=42937e6c-ed5c-4ebf-95b2-f8a75a78b730"},"vehicle_type_id":"4","last_reported":1752937791,"current_range_meters":19200,"station_id":"ce4bgs12rcd13ifvqcag","pricing_plan_id":"cebpf4jnsgd1na2vs0mg"},{"bike_id":"da0dcab8-919c-473b-a5aa-03813cadf3f0","system_id":"levelo_inurba_marseille","lat":43.28267,"lon":5.3507,"is_reserved":false,"is_disabled":false,"rental_uris":{"android":"levelo://app?vid=da0dcab8-919c-473b-a5aa-03813cadf3f0","ios":"levelo://app?vid=da0dcab8-919c-473b-a5aa-03813cadf3f0"},"vehicle_type_id":"4","last_reported":1752937791,"current_range_meters":19200,"station_id":"ce4bhbp2rcd13ifvqerg","pricing_plan_id":"cebpf4jnsgd1na2vs0mg"},{"bike_id":"d848df45-329f-467d-a3cd-eaa7df8f394f","system_id":"levelo_inurba_marseille","lat":43.296223,"lon":5.371518,"is_reserved":false,"is_disabled":false,"rental_uris":{"android":"levelo://app?vid=d848df45-329f-467d-a3cd-eaa7df8f394f","ios":"levelo://app?vid=d848df45-329f-467d-a3cd-eaa7df8f394f"},"vehicle_type_id":"4","last_reported":1752937791,"current_range_meters":18800,"station_id":"ce4bgnh2rcd13ifvqc0g","pricing_plan_id":"cebpf4jnsgd1na2vs0mg"},{"bike_id":"6f530211-2d31-4918-b78d-6fbc7b6302a4","system_id":"levelo_inurba_marseille","lat":43.23578,"lon":5.36136,"is_reserved":false,"is_disabled":false,"rental_uris":{"android":"levelo://app?vid=6f530211-2d31-4918-b78d-6fbc7b6302a4","ios":"levelo://app?vid=6f530211-2d31-4918-b78d-6fbc7b6302a4"},"vehicle_type_id":"4","last_reported":1752937791,"current_range_meters":19600,"station_id":"","pricing_plan_id":"cebpf4jnsgd1na2vs0mg"},{"bike_id":"56ce24ca-de95-4835-a48b-2aba9102d9f4","system_id":"levelo_inurba_marseille","lat":43.29584,"lon":5.36745,"is_reserved":false,"is_disabled":false,"rental_uris":{"android":"levelo://app?vid=56ce24ca-de95-4835-a48b-2aba9102d9f4","ios":"levelo://app?vid=56ce24ca-de95-4835-a48b-2aba9102d9f4"},"vehicle_type_id":"4","last_reported":1752937791,"current_range_meters":19600,"station_id":"ce4bgph2rcd13ifvqc2g","pricing_plan_id":"cebpf4jnsgd1na2vs0mg"},{"bike_id":"03c06480-1eaf-4ccf-96ff-18423cbc8b58","system_id":"levelo_inurba_marseille","lat":43.22534,"lon":5.34759,"is_reserved":false,"is_disabled":false,"rental_uris":{"android":"levelo://app?vid=03c06480-1eaf-4ccf-96ff-18423cbc8b58","ios":"levelo://app?vid=03c06480-1eaf-4ccf-96ff-18423cbc8b58"},"vehicle_type_id":"4","last_reported":1752937791,"current_range_meters":19600,"station_id":"st_cvj5dfep6f1abm77gieg","pricing_plan_id":"cebpf4jnsgd1na2vs0mg"},{"bike_id":"ca427fd6-b16e-43cc-9f37-58925b0ecefa","system_id":"levelo_inurba_marseille","lat":43.337444,"lon":5.374475,"is_reserved":false,"is_disabled":false,"rental_uris":{"android":"levelo://app?vid=ca427fd6-b16e-43cc-9f37-58925b0ecefa","ios":"levelo://app?vid=ca427fd6-b16e-43cc-9f37-58925b0ecefa"},"vehicle_type_id":"4","last_reported":1752937791,"current_range_meters":19600,"station_id":"","pricing_plan_id":"cebpf4jnsgd1na2vs0mg"},{"bike_id":"ed6e46ed-e147-446b-bce0-f37d71ced7ef","system_id":"levelo_inurba_marseille","lat":43.27828,"lon":5.4068,"is_reserved":false,"is_disabled":false,"rental_uris":{"android":"levelo://app?vid=ed6e46ed-e147-446b-bce0-f37d71ced7ef","ios":"levelo://app?vid=ed6e46ed-e147-446b-bce0-f37d71ced7ef"},"vehicle_type_id":"4","last_reported":1752937791,"current_range_meters":19600,"station_id":"ce4bhnh2rcd13ifvqgtg","pricing_plan_id":"cebpf4jnsgd1na2vs0mg"},{"bike_id":"959f7db2-bbe5-42b7-8d3c-1d78765f2b28","system_id":"levelo_inurba_marseille","lat":43.2119,"lon":5.35077,"is_reserved":false,"is_disabled":false,"rental_uris":{"android":"levelo://app?vid=959f7db2-bbe5-42b7-8d3c-1d78765f2b28","ios":"levelo://app?vid=959f7db2-bbe5-42b7-8d3c-1d78765f2b28"},"vehicle_type_id":"4","last_reported":1752937791,"current_range_meters":19600,"station_id":"st_cvj6sg6p6f1abm77japg","pricing_plan_id":"cebpf4jnsgd1na2vs0mg"},{"bike_id":"0e36f665-9b78-4057-b3eb-3ce49fd45395","system_id":"levelo_inurba_marseille","lat":43.23962,"lon":5.36648,"is_reserved":false,"is_disabled":false,"rental_uris":{"android":"levelo://app?vid=0e36f665-9b78-4057-b3eb-3ce49fd45395","ios":"levelo://app?vid=0e36f665-9b78-4057-b3eb-3ce49fd45395"},"vehicle_type_id":"4","last_reported":1752937791,"current_range_meters":19600,"station_id":"ce4bhi12rcd13ifvqfp0","pricing_plan_id":"cebpf4jnsgd1na2vs0mg"},{"bike_id":"6c482fc3-5435-4dee-a5a7-8f95b34a0ac4","system_id":"levelo_inurba_marseille","lat":43.28614,"lon":5.37063,"is_reserved":false,"is_disabled":false,"rental_uris":{"android":"levelo://app?vid=6c482fc3-5435-4dee-a5a7-8f95b34a0ac4","ios":"levelo://app?vid=6c482fc3-5435-4dee-a5a7-8f95b34a0ac4"},"vehicle_type_id":"4","last_reported":1752937791,"current_range_meters":19600,"station_id":"ce4bht12rcd13ifvqi60","pricing_plan_id":"cebpf4jnsgd1na2vs0mg"},{"bike_id":"3b276991-f5a1-4202-b989-9bb80cee295a","system_id":"levelo_inurba_marseille","lat":43.28262,"lon":5.35091,"is_reserved":false,"is_disabled":false,"rental_uris":{"android":"levelo://app?vid=3b276991-f5a1-4202-b989-9bb80cee295a","ios":"levelo://app?vid=3b276991-f5a1-4202-b989-9bb80cee295a"},"vehicle_type_id":"4","last_reported":1752937791,"current_range_meters":19600,"station_id":"ce4bhbp2rcd13ifvqerg","pricing_plan_id":"cebpf4jnsgd1na2vs0mg"},{"bike_id":"1a4b4661-e577-4172-8689-42fd8c8c8a19","system_id":"levelo_inurba_marseille","lat":43.29008,"lon":5.35613,"is_reserved":false,"is_disabled":false,"rental_uris":{"android":"levelo://app?vid=1a4b4661-e577-4172-8689-42fd8c8c8a19","ios":"levelo://app?vid=1a4b4661-e577-4172-8689-42fd8c8c8a19"},"vehicle_type_id":"4","last_reported":1752937791,"current_range_meters":20000,"station_id":"ce4bhb92rcd13ifvqen0","pricing_plan_id":"cebpf4jnsgd1na2vs0mg"},{"bike_id":"72b2915f-104b-4593-ab50-bf58e95b0c27","system_id":"levelo_inurba_marseille","lat":43.229219,"lon":5.353865,"is_reserved":false,"is_disabled":false,"rental_uris":{"android":"levelo://app?vid=72b2915f-104b-4593-ab50-bf58e95b0c27","ios":"levelo://app?vid=72b2915f-104b-4593-ab50-bf58e95b0c27"},"vehicle_type_id":"4","last_reported":1752937791,"current_range_meters":20000,"station_id":"cpo3532slgdg3j2ikp40","pricing_plan_id":"cebpf4jnsgd1na2vs0mg"},{"bike_id":"bc444916-7121-43cd-b15d-420185e782b9","system_id":"levelo_inurba_marseille","lat":43.27379,"lon":5.36254,"is_reserved":false,"is_disabled":false,"rental_uris":{"android":"levelo://app?vid=bc444916-7121-43cd-b15d-420185e782b9","ios":"levelo://app?vid=bc444916-7121-43cd-b15d-420185e782b9"},"vehicle_type_id":"4","last_reported":1752937791,"current_range_meters":20000,"station_id":"ce4bhbh2rcd13ifvqeo0","pricing_plan_id":"cebpf4jnsgd1na2vs0mg"},{"bike_id":"5194d893-182c-4c1a-a168-181829eeb8fe","system_id":"levelo_inurba_marseille","lat":43.27611,"lon":5.36112,"is_reserved":false,"is_disabled":false,"rental_uris":{"android":"levelo://app?vid=5194d893-182c-4c1a-a168-181829eeb8fe","ios":"levelo://app?vid=5194d893-182c-4c1a-a168-181829eeb8fe"},"vehicle_type_id":"4","last_reported":1752937791,"current_range_meters":20000,"station_id":"ce4bgj92rcd13ifvqbe0","pricing_plan_id":"cebpf4jnsgd1na2vs0mg"},{"bike_id":"ac141403-2eff-454e-8bd1-3d400d40ed2b","system_id":"levelo_inurba_marseille","lat":43.33027,"lon":5.39037,"is_reserved":false,"is_disabled":false,"rental_uris":{"android":"levelo://app?vid=ac141403-2eff-454e-8bd1-3d400d40ed2b","ios":"levelo://app?vid=ac141403-2eff-454e-8bd1-3d400d40ed2b"},"vehicle_type_id":"4","last_reported":1752937791,"current_range_meters":20000,"station_id":"ce4bhr92rcd13ifvqhrg","pricing_plan_id":"cebpf4jnsgd1na2vs0mg"},{"bike_id":"808829b3-a743-4bf4-8c0c-f630e7901816","system_id":"levelo_inurba_marseille","lat":43.26791,"lon":5.39408,"is_reserved":false,"is_disabled":false,"rental_uris":{"android":"levelo://app?vid=808829b3-a743-4bf4-8c0c-f630e7901816","ios":"levelo://app?vid=808829b3-a743-4bf4-8c0c-f630e7901816"},"vehicle_type_id":"4","last_reported":1752937791,"current_range_meters":20000,"station_id":"ce4bhh12rcd13ifvqfg0","pricing_plan_id":"cebpf4jnsgd1na2vs0mg"},{"bike_id":"7f98c65c-6593-4352-858e-be8fe24c31fc","system_id":"levelo_inurba_marseille","lat":43.22475,"lon":5.34738,"is_reserved":false,"is_disabled":false,"rental_uris":{"android":"levelo://app?vid=7f98c65c-6593-4352-858e-be8fe24c31fc","ios":"levelo://app?vid=7f98c65c-6593-4352-858e-be8fe24c31fc"},"vehicle_type_id":"4","last_reported":1752937791,"current_range_meters":20000,"station_id":"st_cvj5dfep6f1abm77gieg","pricing_plan_id":"cebpf4jnsgd1na2vs0mg"},{"bike_id":"ab9108cd-b260-4b43-89cb-2a7bb01dcd57","system_id":"levelo_inurba_marseille","lat":43.28646,"lon":5.35081,"is_reserved":false,"is_disabled":false,"rental_uris":{"android":"levelo://app?vid=ab9108cd-b260-4b43-89cb-2a7bb01dcd57","ios":"levelo://app?vid=ab9108cd-b260-4b43-89cb-2a7bb01dcd57"},"vehicle_type_id":"4","last_reported":1752937791,"current_range_meters":20000,"station_id":"ce4bhch2rcd13ifvqeug","pricing_plan_id":"cebpf4jnsgd1na2vs0mg"},{"bike_id":"db5434b7-f2f1-4564-88c5-e40df9f97665","system_id":"levelo_inurba_marseille","lat":43.26229,"lon":5.37441,"is_reserved":false,"is_disabled":false,"rental_uris":{"android":"levelo://app?vid=db5434b7-f2f1-4564-88c5-e40df9f97665","ios":"levelo://app?vid=db5434b7-f2f1-4564-88c5-e40df9f97665"},"vehicle_type_id":"4","last_reported":1752937791,"current_range_meters":20000,"station_id":"","pricing_plan_id":"cebpf4jnsgd1na2vs0mg"},{"bike_id":"e9a5807c-992f-49b9-99b9-275187ec4fd1","system_id":"levelo_inurba_marseille","lat":43.31068,"lon":5.38369,"is_reserved":false,"is_disabled":false,"rental_uris":{"android":"levelo://app?vid=e9a5807c-992f-49b9-99b9-275187ec4fd1","ios":"levelo://app?vid=e9a5807c-992f-49b9-99b9-275187ec4fd1"},"vehicle_type_id":"4","last_reported":1752937791,"current_range_meters":20000,"station_id":"ce4bgv92rcd13ifvqcr0","pricing_plan_id":"cebpf4jnsgd1na2vs0mg"},{"bike_id":"fe20d327-e1bb-419b-bf5d-c3bfd157f569","system_id":"levelo_inurba_marseille","lat":43.28415,"lon":5.34982,"is_reserved":false,"is_disabled":false,"rental_uris":{"android":"levelo://app?vid=fe20d327-e1bb-419b-bf5d-c3bfd157f569","ios":"levelo://app?vid=fe20d327-e1bb-419b-bf5d-c3bfd157f569"},"vehicle_type_id":"4","last_reported":1752937791,"current_range_meters":20000,"station_id":"ce4bhbh2rcd13ifvqepg","pricing_plan_id":"cebpf4jnsgd1na2vs0mg"},{"bike_id":"444fd8c6-08a0-4371-b458-c6ecf7e55ec4","system_id":"levelo_inurba_marseille","lat":43.2841,"lon":5.34979,"is_reserved":false,"is_disabled":false,"rental_uris":{"android":"levelo://app?vid=444fd8c6-08a0-4371-b458-c6ecf7e55ec4","ios":"levelo://app?vid=444fd8c6-08a0-4371-b458-c6ecf7e55ec4"},"vehicle_type_id":"4","last_reported":1752937791,"current_range_meters":20000,"station_id":"","pricing_plan_id":"cebpf4jnsgd1na2vs0mg"},{"bike_id":"6f0aee91-6a71-428e-90c3-1991d8459835","system_id":"levelo_inurba_marseille","lat":43.29583,"lon":5.36737,"is_reserved":false,"is_disabled":false,"rental_uris":{"android":"levelo://app?vid=6f0aee91-6a71-428e-90c3-1991d8459835","ios":"levelo://app?vid=6f0aee91-6a71-428e-90c3-1991d8459835"},"vehicle_type_id":"4","last_reported":1752937791,"current_range_meters":20000,"station_id":"ce4bgph2rcd13ifvqc2g","pricing_plan_id":"cebpf4jnsgd1na2vs0mg"},{"bike_id":"76fbe66e-8304-4e15-a3c1-ef4601c38bff","system_id":"levelo_inurba_marseille","lat":43.27057,"lon":5.40252,"is_reserved":false,"is_disabled":false,"rental_uris":{"android":"levelo://app?vid=76fbe66e-8304-4e15-a3c1-ef4601c38bff","ios":"levelo://app?vid=76fbe66e-8304-4e15-a3c1-ef4601c38bff"},"vehicle_type_id":"4","last_reported":1752937791,"current_range_meters":20000,"station_id":"ce4bhk92rcd13ifvqgc0","pricing_plan_id":"cebpf4jnsgd1na2vs0mg"},{"bike_id":"3ea2efd9-0bec-4fcf-b5c1-055befc11ab8","system_id":"levelo_inurba_marseille","lat":43.29783,"lon":5.37112,"is_reserved":false,"is_disabled":false,"rental_uris":{"android":"levelo://app?vid=3ea2efd9-0bec-4fcf-b5c1-055befc11ab8","ios":"levelo://app?vid=3ea2efd9-0bec-4fcf-b5c1-055befc11ab8"},"vehicle_type_id":"4","last_reported":1752937791,"current_range_meters":20000,"station_id":"ce4bgop2rcd13ifvqc1g","pricing_plan_id":"cebpf4jnsgd1na2vs0mg"},