{"last_updated":1722532056,"ttl":30,"version":"2.2","data":{"bikes":[{"bike_id":"3ed35c1d-c5e9-4fe2-a46f-a406005f2c8e","system_id":"levelo_inurba_marseille","lat":43.312239,"lon":5.368562,"is_reserved":false,"is_disabled":false,"rental_uris":{"android":"levelo://app?vid=3ed35c1d-c5e9-4fe2-a46f-a406005f2c8e","ios":"levelo://app?vid=3ed35c1d-c5e9-4fe2-a46f-a406005f2c8e"},"vehicle_type_id":"4","last_reported":1722532057,"current_range_meters":0,"station_id":"ce4bgl92rcd13ifvqbq0","pricing_plan_id":"cebpf4jnsgd1na2vs0mg"},{"bike_id":"f9f198e9-0b2c-44e9-8325-59b94beb66ef","system_id":"levelo_inurba_marseille","lat":43.305706,"lon":5.365654,"is_reserved":false,"is_disabled":false,"rental_uris":{"android":"levelo://app?vid=f9f198e9-0b2c-44e9-8325-59b94beb66ef","ios":"levelo://app?vid=f9f198e9-0b2c-44e9-8325-59b94beb66ef"},"vehicle_type_id":"4","last_reported":1722532057,"current_range_meters":0,"station_id":"ce4bgs12rcd13ifvqcag","pricing_plan_id":"cebpf4jnsgd1na2vs0mg"},{"bike_id":"0c4651a2-4eaa-477b-b1aa-686c9e5483de","system_id":"levelo_inurba_marseille","lat":43.320376,"lon":5.37195,"is_reserved":false,"is_disabled":false,"rental_uris":{"android":"levelo://app?vid=0c4651a2-4eaa-477b-b1aa-686c9e5483de","ios":"levelo://app?vid=0c4651a2-4eaa-477b-b1aa-686c9e5483de"},"vehicle_type_id":"4","last_reported":1722532057,"current_range_meters":18400,"station_id":"","pricing_plan_id":"cebpf4jnsgd1na2vs0mg"},{"bike_id":"36162d56-1959-42bf-870a-a1f8502230ae","system_id":"levelo_inurba_marseille","lat":43.317075,"lon":5.377367,"is_reserved":false,"is_disabled":false,"rental_uris":{"android":"levelo://app?vid=36162d56-1959-42bf-870a-a1f8502230ae","ios":"levelo://app?vid=36162d56-1959-42bf-870a-a1f8502230ae"},"vehicle_type_id":"4","last_reported":1722532057,"current_range_meters":1600,"station_id":"ce4bgth2rcd13ifvqch0","pricing_plan_id":"cebpf4jnsgd1na2vs0mg"},{"bike_id":"9ee09bed-8f25-41c5-98fa-1c2a22ccff1e","system_id":"levelo_inurba_marseille","lat":43.317073,"lon":5.377443,"is_reserved":false,"is_disabled":false,"rental_uris":{"android":"levelo://app?vid=9ee09bed-8f25-41c5-98fa-1c2a22ccff1e","ios":"levelo://app?vid=9ee09bed-8f25-41c5-98fa-1c2a22ccff1e"},"vehicle_type_id":"4","last_reported":1722532057,"current_range_meters":0,"station_id":"ce4bgth2rcd13ifvqch0","pricing_plan_id":"cebpf4jnsgd1na2vs0mg"},{"bike_id":"e589a8df-2272-4444-a94c-bbfa6bb57419","system_id":"levelo_inurba_marseille","lat":43.317054,"lon":5.378276,"is_reserved":false,"is_disabled":false,"rental_uris":{"android":"levelo://app?vid=e589a8df-2272-4444-a94c-bbfa6bb57419","ios":"levelo://app?vid=e589a8df-2272-4444-a94c-bbfa6bb57419"},"vehicle_type_id":"4","last_reported":1722532057,"current_range_meters":8400,"station_id":"","pricing_plan_id":"cebpf4jnsgd1na2vs0mg"},{"bike_id":"3c561794-f3f1-4ecc-996f-aee294fe330b","system_id":"levelo_inurba_marseille","lat":43.31533,"lon":5.38032,"is_reserved":false,"is_disabled":false,"rental_uris":{"android":"levelo://app?vid=3c561794-f3f1-4ecc-996f-aee294fe330b","ios":"levelo://app?vid=3c561794-f3f1-4ecc-996f-aee294fe330b"},"vehicle_type_id":"4","last_reported":1722532057,"current_range_meters":0,"station_id":"ce4bhsp2rcd13ifvqi50","pricing_plan_id":"cebpf4jnsgd1na2vs0mg"},{"bike_id":"eaf061e4-344d-41b2-9b25-c5714ddb436e","system_id":"levelo_inurba_marseille","lat":43.31533,"lon":5.38034,"is_reserved":false,"is_disabled":false,"rental_uris":{"android":"levelo://app?vid=eaf061e4-344d-41b2-9b25-c5714ddb436e","ios":"levelo://app?vid=eaf061e4-344d-41b2-9b25-c5714ddb436e"},"vehicle_type_id":"4","last_reported":1722532057,"current_range_meters":5200,"station_id":"ce4bhsp2rcd13ifvqi50","pricing_plan_id":"cebpf4jnsgd1na2vs0mg"},{"bike_id":"67f55819-dcca-4d35-83c5-25a479117333","system_id":"levelo_inurba_marseille","lat":43.315343,"lon":5.380357,"is_reserved":false,"is_disabled":false,"rental_uris":{"android":"levelo://app?vid=67f55819-dcca-4d35-83c5-25a479117333","ios":"levelo://app?vid=67f55819-dcca-4d35-83c5-25a479117333"},"vehicle_type_id":"4","last_reported":1722532057,"current_range_meters":4800,"station_id":"ce4bhsp2rcd13ifvqi50","pricing_plan_id":"cebpf4jnsgd1na2vs0mg"},{"bike_id":"d8034b8d-8e5c-4cb8-ab45-04313ca6a81f","system_id":"levelo_inurba_marseille","lat":43.31534,"lon":5.380367,"is_reserved":false,"is_disabled":false,"rental_uris":{"android":"levelo://app?vid=d8034b8d-8e5c-4cb8-ab45-04313ca6a81f","ios":"levelo://app?vid=d8034b8d-8e5c-4cb8-ab45-04313ca6a81f"},"vehicle_type_id":"4","last_reported":1722532057,"current_range_meters":11600,"station_id":"ce4bhsp2rcd13ifvqi50","pricing_plan_id":"cebpf4jnsgd1na2vs0mg"},{"bike_id":"d39886cd-9939-40b4-ba42-4df4fd072bf2","system_id":"levelo_inurba_marseille","lat":43.315289,"lon":5.380349,"is_reserved":false,"is_disabled":false,"rental_uris":{"android":"levelo://app?vid=d39886cd-9939-40b4-ba42-4df4fd072bf2","ios":"levelo://app?vid=d39886cd-9939-40b4-ba42-4df4fd072bf2"},"vehicle_type_id":"4","last_reported":1722532057,"current_range_meters":11600,"station_id":"ce4bhsp2rcd13ifvqi50","pricing_plan_id":"cebpf4jnsgd1na2vs0mg"},{"bike_id":"f221faa7-c3bb-4462-8c68-af677a1443e9","system_id":"levelo_inurba_marseille","lat":43.31527,"lon":5.38042,"is_reserved":false,"is_disabled":false,"rental_uris":{"android":"levelo://app?vid=f221faa7-c3bb-4462-8c68-af677a1443e9","ios":"levelo://app?vid=f221faa7-c3bb-4462-8c68-af677a1443e9"},"vehicle_type_id":"4","last_reported":1722532057,"current_range_meters":3200,"station_id":"ce4bhsp2rcd13ifvqi50","pricing_plan_id":"cebpf4jnsgd1na2vs0mg"},{"bike_id":"2f39c49e-f320-468b-88f7-1f2e7cefede2","system_id":"levelo_inurba_marseille","lat":43.315477,"lon":5.380543,"is_reserved":false,"is_disabled":false,"rental_uris":{"android":"levelo://app?vid=2f39c49e-f320-468b-88f7-1f2e7cefede2","ios":"levelo://app?vid=2f39c49e-f320-468b-88f7-1f2e7cefede2"},"vehicle_type_id":"4","last_reported":1722532057,"current_range_meters":6000,"station_id":"ce4bhsp2rcd13ifvqi50","pricing_plan_id":"cebpf4jnsgd1na2vs0mg"},{"bike_id":"e4328b20-dfad-49fa-8d9f-cb3de6f7955f","system_id":"levelo_inurba_marseille","lat":43.308012,"lon":5.381511,"is_reserved":false,"is_disabled":false,"rental_uris":{"android":"levelo://app?vid=e4328b20-dfad-49fa-8d9f-cb3de6f7955f","ios":"levelo://app?vid=e4328b20-dfad-49fa-8d9f-cb3de6f7955f"},"vehicle_type_id":"4","last_reported":1722532057,"current_range_meters":11600,"station_id":"ce4bgt12rcd13ifvqce0","pricing_plan_id":"cebpf4jnsgd1na2vs0mg"},{"bike_id":"180aa3e5-6bfe-402b-ad5e-a880edefeca2","system_id":"levelo_inurba_marseille","lat":43.324771,"lon":5.36557,"is_reserved":false,"is_disabled":false,"rental_uris":{"android":"levelo://app?vid=180aa3e5-6bfe-402b-ad5e-a880edefeca2","ios":"levelo://app?vid=180aa3e5-6bfe-402b-ad5e-a880edefeca2"},"vehicle_type_id":"4","last_reported":1722532057,"current_range_meters":7200,"station_id":"ce4bhs12rcd13ifvqhvg","pricing_plan_id":"cebpf4jnsgd1na2vs0mg"},{"bike_id":"6081998e-1125-493b-939c-54880bd02346","system_id":"levelo_inurba_marseille","lat":43.32479,"lon":5.36568,"is_reserved":false,"is_disabled":false,"rental_uris":{"android":"levelo://app?vid=6081998e-1125-493b-939c-54880bd02346","ios":"levelo://app?vid=6081998e-1125-493b-939c-54880bd02346"},"vehicle_type_id":"4","last_reported":1722532057,"current_range_meters":31200,"station_id":"ce4bhs12rcd13ifvqhvg","pricing_plan_id":"cebpf4jnsgd1na2vs0mg"},{"bike_id":"fefa8c85-a143-45d7-b3d1-15bf6b235f88","system_id":"levelo_inurba_marseille","lat":43.324771,"lon":5.36557,"is_reserved":false,"is_disabled":false,"rental_uris":{"android":"levelo://app?vid=fefa8c85-a143-45d7-b3d1-15bf6b235f88","ios":"levelo://app?vid=fefa8c85-a143-45d7-b3d1-15bf6b235f88"},"vehicle_type_id":"4","last_reported":1722532057,"current_range_meters":4800,"station_id":"ce4bhs12rcd13ifvqhvg","pricing_plan_id":"cebpf4jnsgd1na2vs0mg"},{"bike_id":"02dc15b6-fe06-495d-bb74-6cc205025bc6","system_id":"levelo_inurba_marseille","lat":43.310804,"lon":5.38359,"is_reserved":false,"is_disabled":false,"rental_uris":{"android":"levelo://app?vid=02dc15b6-fe06-495d-bb74-6cc205025bc6","ios":"levelo://app?vid=02dc15b6-fe06-495d-bb74-6cc205025bc6"},"vehicle_type_id":"4","last_reported":1722532057,"current_range_meters":3200,"station_id":"ce4bgv92rcd13ifvqcr0","pricing_plan_id":"cebpf4jnsgd1na2vs0mg"},{"bike_id":"94477832-449d-4ffd-9cb9-012b040a3969","system_id":"levelo_inurba_marseille","lat":43.32484,"lon":5.3657,"is_reserved":false,"is_disabled":false,"rental_uris":{"android":"levelo://app?vid=94477832-449d-4ffd-9cb9-012b040a3969","ios":"levelo://app?vid=94477832-449d-4ffd-9cb9-012b040a3969"},"vehicle_type_id":"4","last_reported":1722532057,"current_range_meters":7600,"station_id":"ce4bhs12rcd13ifvqhvg","pricing_plan_id":"cebpf4jnsgd1na2vs0mg"},{"bike_id":"ddb72aed-cab4-43b5-974a-7e43ec2820f9","system_id":"levelo_inurba_marseille","lat":43.32484,"lon":5.36559,"is_reserved":false,"is_disabled":false,"rental_uris":{"android":"levelo://app?vid=ddb72aed-cab4-43b5-974a-7e43ec2820f9","ios":"levelo://app?vid=ddb72aed-cab4-43b5-974a-7e43ec2820f9"},"vehicle_type_id":"4","last_reported":1722532057,"current_range_meters":3200,"station_id":"ce4bhs12rcd13ifvqhvg","pricing_plan_id":"cebpf4jnsgd1na2vs0mg"},{"bike_id":"f496ed14-94d7-49ed-890f-9df707c41830","system_id":"levelo_inurba_marseille","lat":43.30143,"lon":5.37413,"is_reserved":false,"is_disabled":false,"rental_uris":{"android":"levelo://app?vid=f496ed14-94d7-49ed-890f-9df707c41830","ios":"levelo://app?vid=f496ed14-94d7-49ed-890f-9df707c41830"},"vehicle_type_id":"4","last_reported":1722532057,"current_range_meters":31200,"station_id":"ce4bgs92rcd13ifvqcc0","pricing_plan_id":"cebpf4jnsgd1na2vs0mg"},{"bike_id":"5ccdfc26-42cc-4d09-9f2b-0ba72a3af171","system_id":"levelo_inurba_marseille","lat":43.319935,"lon":5.381699,"is_reserved":false,"is_disabled":false,"rental_uris":{"android":"levelo://app?vid=5ccdfc26-42cc-4d09-9f2b-0ba72a3af171","ios":"levelo://app?vid=5ccdfc26-42cc-4d09-9f2b-0ba72a3af171"},"vehicle_type_id":"4","last_reported":1722532057,"current_range_meters":0,"station_id":"ce4bhr12rcd13ifvqhpg","pricing_plan_id":"cebpf4jnsgd1na2vs0mg"},{"bike_id":"f2bb69ce-14b7-4f80-8e15-e0d3a59b6ede","system_id":"levelo_inurba_marseille","lat":43.319935,"lon":5.381699,"is_reserved":false,"is_disabled":false,"rental_uris":{"android":"levelo://app?vid=f2bb69ce-14b7-4f80-8e15-e0d3a59b6ede","ios":"levelo://app?vid=f2bb69ce-14b7-4f80-8e15-e0d3a59b6ede"},"vehicle_type_id":"4","last_reported":1722532057,"current_range_meters":8000,"station_id":"ce4bhr12rcd13ifvqhpg","pricing_plan_id":"cebpf4jnsgd1na2vs0mg"},{"bike_id":"79047d65-269d-43fd-ba1a-e22a45174406","system_id":"levelo_inurba_marseille","lat":43.319935,"lon":5.381699,"is_reserved":false,"is_disabled":false,"rental_uris":{"android":"levelo://app?vid=79047d65-269d-43fd-ba1a-e22a45174406","ios":"levelo://app?vid=79047d65-269d-43fd-ba1a-e22a45174406"},"vehicle_type_id":"4","last_reported":1722532057,"current_range_meters":12000,"station_id":"ce4bhr12rcd13ifvqhpg","pricing_plan_id":"cebpf4jnsgd1na2vs0mg"},{"bike_id":"c13518c0-b897-4832-8532-272f8cb41e91","system_id":"levelo_inurba_marseille","lat":43.30493,"lon":5.38234,"is_reserved":false,"is_disabled":false,"rental_uris":{"android":"levelo://app?vid=c13518c0-b897-4832-8532-272f8cb41e91","ios":"levelo://app?vid=c13518c0-b897-4832-8532-272f8cb41e91"},"vehicle_type_id":"4","last_reported":1722532057,"current_range_meters":21200,"station_id":"","pricing_plan_id":"cebpf4jnsgd1na2vs0mg"},{"bike_id":"3fb5c79a-9dc7-4467-a7a2-baf7fe55590a","system_id":"levelo_inurba_marseille","lat":43.30165,"lon":5.37821,"is_reserved":false,"is_disabled":false,"rental_uris":{"android":"levelo://app?vid=3fb5c79a-9dc7-4467-a7a2-baf7fe55590a","ios":"levelo://app?vid=3fb5c79a-9dc7-4467-a7a2-baf7fe55590a"},"vehicle_type_id":"4","last_reported":1722532057,"current_range_meters":26800,"station_id":"","pricing_plan_id":"cebpf4jnsgd1na2vs0mg"},{"bike_id":"749576d7-ac1c-4fdc-b071-bdc937fb475d","system_id":"levelo_inurba_marseille","lat":43.325907,"lon":5.374957,"is_reserved":false,"is_disabled":false,"rental_uris":{"android":"levelo://app?vid=749576d7-ac1c-4fdc-b071-bdc937fb475d","ios":"levelo://app?vid=749576d7-ac1c-4fdc-b071-bdc937fb475d"},"vehicle_type_id":"4","last_reported":1722532057,"current_range_meters":20000,"station_id":"","pricing_plan_id":"cebpf4jnsgd1na2vs0mg"},{"bike_id":"2b76f578-6b7a-4e14-80da-7bb609b6e9a0","system_id":"levelo_inurba_marseille","lat":43.298433,"lon":5.362774,"is_reserved":false,"is_disabled":false,"rental_uris":{"android":"levelo://app?vid=2b76f578-6b7a-4e14-80da-7bb609b6e9a0","ios":"levelo://app?vid=2b76f578-6b7a-4e14-80da-7bb609b6e9a0"},"vehicle_type_id":"4","last_reported":1722532057,"current_range_meters":32000,"station_id":"ce4bgpp2rcd13ifvqc3g","pricing_plan_id":"cebpf4jnsgd1na2vs0mg"},{"bike_id":"98e6ae89-8e00-4bc7-8291-bc58edc6ff07","system_id":"levelo_inurba_marseille","lat":43.298433,"lon":5.362774,"is_reserved":false,"is_disabled":false,"rental_uris":{"android":"levelo://app?vid=98e6ae89-8e00-4bc7-8291-bc58edc6ff07","ios":"levelo://app?vid=98e6ae89-8e00-4bc7-8291-bc58edc6ff07"},"vehicle_type_id":"4","last_reported":1722532057,"current_range_meters":10000,"station_id":"ce4bgpp2rcd13ifvqc3g","pricing_plan_id":"cebpf4jnsgd1na2vs0mg"},{"bike_id":"fdf8829b-4cb9-4f05-953f-f0f060dd7d96","system_id":"levelo_inurba_marseille","lat":43.298433,"lon":5.362774,"is_reserved":false,"is_disabled":false,"rental_uris":{"android":"levelo://app?vid=fdf8829b-4cb9-4f05-953f-f0f060dd7d96","ios":"levelo://app?vid=fdf8829b-4cb9-4f05-953f-f0f060dd7d96"},"vehicle_type_id":"4","last_reported":1722532057,"current_range_meters":2800,"station_id":"ce4bgpp2rcd13ifvqc3g","pricing_plan_id":"cebpf4jnsgd1na2vs0mg"},{"bike_id":"0d0ecbda-a169-4945-aaf3-15f306b781a6","system_id":"levelo_inurba_marseille","lat":43.298433,"lon":5.362774,"is_reserved":false,"is_disabled":false,"rental_uris":{"android":"levelo://app?vid=0d0ecbda-a169-4945-aaf3-15f306b781a6","ios":"levelo://app?vid=0d0ecbda-a169-4945-aaf3-15f306b781a6"},"vehicle_type_id":"4","last_reported":1722532057,"current_range_meters":2000,"station_id":"ce4bgpp2rcd13ifvqc3g","pricing_plan_id":"cebpf4jnsgd1na2vs0mg"},{"bike_id":"e306eab9-fea8-4ba1-bff7-0c96d4ecae38","system_id":"levelo_inurba_marseille","lat":43.298433,"lon":5.362774,"is_reserved":false,"is_disabled":false,"rental_uris":{"android":"levelo://app?vid=e306eab9-fea8-4ba1-bff7-0c96d4ecae38","ios":"levelo://app?vid=e306eab9-fea8-4ba1-bff7-0c96d4ecae38"},"vehicle_type_id":"4","last_reported":1722532057,"current_range_meters":800,"station_id":"ce4bgpp2rcd13ifvqc3g","pricing_plan_id":"cebpf4jnsgd1na2vs0mg"},{"bike_id":"11eeb4e9-14ad-46eb-9bd3-6cbfa3eac259","system_id":"levelo_inurba_marseille","lat":43.301922,"lon":5.380652,"is_reserved":false,"is_disabled":false,"rental_uris":{"android":"levelo://app?vid=11eeb4e9-14ad-46eb-9bd3-6cbfa3eac259","ios":"levelo://app?vid=11eeb4e9-14ad-46eb-9bd3-6cbfa3eac259"},"vehicle_type_id":"4","last_reported":1722532057,"current_range_meters":4800,"station_id":"","pricing_plan_id":"cebpf4jnsgd1na2vs0mg"},{"bike_id":"4c4a39d6-d2ec-46bd-aa50-52a62dff1a79","system_id":"levelo_inurba_marseille","lat":43.299243,"lon":5.37481,"is_reserved":false,"is_disabled":false,"rental_uris":{"android":"levelo://app?vid=4c4a39d6-d2ec-46bd-aa50-52a62dff1a79","ios":"levelo://app?vid=4c4a39d6-d2ec-46bd-aa50-52a62dff1a79"},"vehicle_type_id":"4","last_reported":1722532057,"current_range_meters":22400,"station_id":"ce4bgjh2rcd13ifvqbg0","pricing_plan_id":"cebpf4jnsgd1na2vs0mg"},{"bike_id":"1c962463-9510-49eb-8019-7a03ed5f67de","system_id":"levelo_inurba_marseille","lat":43.297794,"lon":5.370888,"is_reserved":false,"is_disabled":false,"rental_uris":{"android":"levelo://app?vid=1c962463-9510-49eb-8019-7a03ed5f67de","ios":"levelo://app?vid=1c962463-9510-49eb-8019-7a03ed5f67de"},"vehicle_type_id":"4","last_reported":1722532057,"current_range_meters":13600,"station_id":"ce4bgop2rcd13ifvqc1g","pricing_plan_id":"cebpf4jnsgd1na2vs0mg"},{"bike_id":"f428c7bf-0f92-4203-9b9f-b94f5ab3fe14","system_id":"levelo_inurba_marseille","lat":43.296129,"lon":5.370777,"is_reserved":false,"is_disabled":false,"rental_uris":{"android":"levelo://app?vid=f428c7bf-0f92-4203-9b9f-b94f5ab3fe14","ios":"levelo://app?vid=f428c7bf-0f92-4203-9b9f-b94f5ab3fe14"},"vehicle_type_id":"4","last_reported":1722532057,"current_range_meters":28800,"station_id":"ce4bgnh2rcd13ifvqc0g","pricing_plan_id":"cebpf4jnsgd1na2vs0mg"},{"bike_id":"6ae36cc8-dcc7-43af-8110-094a2c754cf5","system_id":"levelo_inurba_marseille","lat":43.29573,"lon":5.367355,"is_reserved":false,"is_disabled":false,"rental_uris":{"android":"levelo://app?vid=6ae36cc8-dcc7-43af-8110-094a2c754cf5","ios":"levelo://app?vid=6ae36cc8-dcc7-43af-8110-094a2c754cf5"},"vehicle_type_id":"4","last_reported":1722532057,"current_range_meters":3200,"station_id":"ce4bgph2rcd13ifvqc2g","pricing_plan_id":"cebpf4jnsgd1na2vs0mg"},{"bike_id":"7288af22-e003-4927-9d95-d0ecb0376f07","system_id":"levelo_inurba_marseille","lat":43.29573,"lon":5.367355,"is_reserved":false,"is_disabled":false,"rental_uris":{"android":"levelo://app?vid=7288af22-e003-4927-9d95-d0ecb0376f07","ios":"levelo://app?vid=7288af22-e003-4927-9d95-d0ecb0376f07"},"vehicle_type_id":"4","last_reported":1722532057,"current_range_meters":0,"station_id":"ce4bgph2rcd13ifvqc2g","pricing_plan_id":"cebpf4jnsgd1na2vs0mg"},{"bike_id":"0bce9843-4a98-46fa-a13d-f71bf0af823e","system_id":"levelo_inurba_marseille","lat":43.296921,"lon":5.376579,"is_reserved":false,"is_disabled":false,"rental_uris":{"android":"levelo://app?vid=0bce9843-4a98-46fa-a13d-f71bf0af823e","ios":"levelo://app?vid=0bce9843-4a98-46fa-a13d-f71bf0af823e"},"vehicle_type_id":"4","last_reported":1722532057,"current_range_meters":20000,"station_id":"ce4bgkh2rcd13ifvqbl0","pricing_plan_id":"cebpf4jnsgd1na2vs0mg"},{"bike_id":"c23c2958-2414-4e68-a364-0ab5a120ed74","system_id":"levelo_inurba_marseille","lat":43.29577,"lon":5.37504,"is_reserved":false,"is_disabled":false,"rental_uris":{"android":"levelo://app?vid=c23c2958-2414-4e68-a364-0ab5a120ed74","ios":"levelo://app?vid=c23c2958-2414-4e68-a364-0ab5a120ed74"},"vehicle_type_id":"4","last_reported":1722532057,"current_range_meters":0,"station_id":"ce4bgh92rcd13ifvqb50","pricing_plan_id":"cebpf4jnsgd1na2vs0mg"},{"bike_id":"7a2ad72a-7719-4d43-b0c7-d9301911f35c","system_id":"levelo_inurba_marseille","lat":43.29565,"lon":5.37515,"is_reserved":false,"is_disabled":false,"rental_uris":{"android":"levelo://app?vid=7a2ad72a-7719-4d43-b0c7-d9301911f35c","ios":"levelo://app?vid=7a2ad72a-7719-4d43-b0c7-d9301911f35c"},"vehicle_type_id":"4","last_reported":1722532057,"current_range_meters":0,"station_id":"ce4bgh92rcd13ifvqb50","pricing_plan_id":"cebpf4jnsgd1na2vs0mg"},{"bike_id":"43c51b83-fd0b-44ed-b113-193e03b064bd","system_id":"levelo_inurba_marseille","lat":43.296263,"lon":5.377094,"is_reserved":false,"is_disabled":false,"rental_uris":{"android":"levelo://app?vid=43c51b83-fd0b-44ed-b113-193e03b064bd","ios":"levelo://app?vid=43c51b83-fd0b-44ed-b113-193e03b064bd"},"vehicle_type_id":"4","last_reported":1722532057,"current_range_meters":25600,"station_id":"ce4bgi92rcd13ifvqb90","pricing_plan_id":"cebpf4jnsgd1na2vs0mg"},{"bike_id":"9e88d908-be3b-4efc-bfcd-39c50675e2dc","system_id":"levelo_inurba_marseille","lat":43.29622,"lon":5.37733,"is_reserved":false,"is_disabled":false,"rental_uris":{"android":"levelo://app?vid=9e88d908-be3b-4efc-bfcd-39c50675e2dc","ios":"levelo://app?vid=9e88d908-be3b-4efc-bfcd-39c50675e2dc"},"vehicle_type_id":"4","last_reported":1722532057,"current_range_meters":0,"station_id":"ce4bgi92rcd13ifvqb90","pricing_plan_id":"cebpf4jnsgd1na2vs0mg"},{"bike_id":"57cdafc3-8719-44a0-be9e-9d5262443f94","system_id":"levelo_inurba_marseille","lat":43.29595,"lon":5.37715,"is_reserved":false,"is_disabled":false,"rental_uris":{"android":"levelo://app?vid=57cdafc3-8719-44a0-be9e-9d5262443f94","ios":"levelo://app?vid=57cdafc3-8719-44a0-be9e-9d5262443f94"},"vehicle_type_id":"4","last_reported":1722532057,"current_range_meters":0,"station_id":"ce4bgi92rcd13ifvqb90","pricing_plan_id":"cebpf4jnsgd1na2vs0mg"},{"bike_id":"edfe4772-8236-46dd-9052-241aeb5b3d39","system_id":"levelo_inurba_marseille","lat":43.301396,"lon":5.387812,"is_reserved":false,"is_disabled":false,"rental_uris":{"android":"levelo://app?vid=edfe4772-8236-46dd-9052-241aeb5b3d39","ios":"levelo://app?vid=edfe4772-8236-46dd-9052-241aeb5b3d39"},"vehicle_type_id":"4","last_reported":1722532057,"current_range_meters":21600,"station_id":"ce4bghh2rcd13ifvqb60","pricing_plan_id":"cebpf4jnsgd1na2vs0mg"},{"bike_id":"700c71e0-523b-4a6a-9d53-bd1891f334f5","system_id":"levelo_inurba_marseille","lat":43.29594,"lon":5.38003,"is_reserved":false,"is_disabled":false,"rental_uris":{"android":"levelo://app?vid=700c71e0-523b-4a6a-9d53-bd1891f334f5","ios":"levelo://app?vid=700c71e0-523b-4a6a-9d53-bd1891f334f5"},"vehicle_type_id":"4","last_reported":1722532057,"current_range_meters":1200,"station_id":"","pricing_plan_id":"cebpf4jnsgd1na2vs0mg"},{"bike_id":"520057b2-8bba-4ac0-9efd-4f25bae9ab66","system_id":"levelo_inurba_marseille","lat":43.29602,"lon":5.381084,"is_reserved":false,"is_disabled":false,"rental_uris":{"android":"levelo://app?vid=520057b2-8bba-4ac0-9efd-4f25bae9ab66","ios":"levelo://app?vid=520057b2-8bba-4ac0-9efd-4f25bae9ab66"},"vehicle_type_id":"4","last_reported":1722532057,"current_range_meters":0,"station_id":"ce4bgl12rcd13ifvqbo0","pricing_plan_id":"cebpf4jnsgd1na2vs0mg"},{"bike_id":"896f6211-5740-4c4d-bc92-7f2d2bcf6a93","system_id":"levelo_inurba_marseille","lat":43.293259,"lon":5.371586,"is_reserved":false,"is_disabled":false,"rental_uris":{"android":"levelo://app?vid=896f6211-5740-4c4d-bc92-7f2d2bcf6a93","ios":"levelo://app?vid=896f6211-5740-4c4d-bc92-7f2d2bcf6a93"},"vehicle_type_id":"4","last_reported":1722532057,"current_range_meters":5600,"station_id":"ce4bgh92rcd13ifvqb40","pricing_plan_id":"cebpf4jnsgd1na2vs0mg"},{"bike_id":"056e4a26-a0c7-4d07-b102-b932e0e39566","system_id":"levelo_inurba_marseille","lat":43.293249,"lon":5.371578,"is_reserved":false,"is_disabled":false,"rental_uris":{"android":"levelo://app?vid=056e4a26-a0c7-4d07-b102-b932e0e39566","ios":"levelo://app?vid=056e4a26-a0c7-4d07-b102-b932e0e39566"},"vehicle_type_id":"4","last_reported":1722532057,"current_range_meters":0,"station_id":"ce4bgh92rcd13ifvqb40","pricing_plan_id":"cebpf4jnsgd1na2vs0mg"},{"bike_id":"d0713568-8184-4218-9211-a8d2d5002cca","system_id":"levelo_inurba_marseille","lat":43.292749,"lon":5.368402,"is_reserved":false,"is_disabled":false,"rental_uris":{"android":"levelo://app?vid=d0713568-8184-4218-9211-a8d2d5002cca","ios":"levelo://app?vid=d0713568-8184-4218-9211-a8d2d5002cca"},"vehicle_type_id":"4","last_reported":1722532057,"current_range_meters":0,"station_id":"ce4bhbp2rcd13ifvqesg","pricing_plan_id":"cebpf4jnsgd1na2vs0mg"},{"bike_id":"63a27808-33d2-4316-b280-d2f61cfce107","system_id":"levelo_inurba_marseille","lat":43.305994,"lon":5.393687,"is_reserved":false,"is_disabled":false,"rental_uris":{"android":"levelo://app?vid=63a27808-33d2-4316-b280-d2f61cfce107","ios":"levelo://app?vid=63a27808-33d2-4316-b280-d2f61cfce107"},"vehicle_type_id":"4","last_reported":1722532057,"current_range_meters":6800,"station_id":"ce4bh0p2rcd13ifvqd80","pricing_plan_id":"cebpf4jnsgd1na2vs0mg"},{"bike_id":"e9bc0e0b-d192-4a5e-9dec-e075e4949e5a","system_id":"levelo_inurba_marseille","lat":43.293009,"lon":5.374584,"is_reserved":false,"is_disabled":false,"rental_uris":{"android":"levelo://app?vid=e9bc0e0b-d192-4a5e-9dec-e075e4949e5a","ios":"levelo://app?vid=e9bc0e0b-d192-4a5e-9dec-e075e4949e5a"},"vehicle_type_id":"4","last_reported":1722532057,"current_range_meters":11600,"station_id":"ce4bgi12rcd13ifvqb70","pricing_plan_id":"cebpf4jnsgd1na2vs0mg"},{"bike_id":"e0cf1719-8a5e-405a-9548-d9274572f9bd","system_id":"levelo_inurba_marseille","lat":43.305994,"lon":5.393687,"is_reserved":false,"is_disabled":false,"rental_uris":{"android":"levelo://app?vid=e0cf1719-8a5e-405a-9548-d9274572f9bd","ios":"levelo://app?vid=e0cf1719-8a5e-405a-9548-d9274572f9bd"},"vehicle_type_id":"4","last_reported":1722532057,"current_range_meters":8400,"station_id":"ce4bh0p2rcd13ifvqd80","pricing_plan_id":"cebpf4jnsgd1na2vs0mg"},{"bike_id":"2c79e2dc-915e-47c9-b5d7-65892e27150c","system_id":"levelo_inurba_marseille","lat":43.29529,"lon":5.385581,"is_reserved":false,"is_disabled":false,"rental_uris":{"android":"levelo://app?vid=2c79e2dc-915e-47c9-b5d7-65892e27150c","ios":"levelo://app?vid=2c79e2dc-915e-47c9-b5d7-65892e27150c"},"vehicle_type_id":"4","last_reported":1722532057,"current_range_meters":2800,"station_id":"ce4bgih2rcd13ifvqba0","pricing_plan_id":"cebpf4jnsgd1na2vs0mg"},{"bike_id":"34a919c6-7cbc-443d-88ac-f7a525f79aea","system_id":"levelo_inurba_marseille","lat":43.303002,"lon":5.392142,"is_reserved":false,"is_disabled":false,"rental_uris":{"android":"levelo://app?vid=34a919c6-7cbc-443d-88ac-f7a525f79aea","ios":"levelo://app?vid=34a919c6-7cbc-443d-88ac-f7a525f79aea"},"vehicle_type_id":"4","last_reported":1722532057,"current_range_meters":0,"station_id":"ce4bgkh2rcd13ifvqbk0","pricing_plan_id":"cebpf4jnsgd1na2vs0mg"},{"bike_id":"438a8264-953a-466a-a239-72a4012fd37a","system_id":"levelo_inurba_marseille","lat":43.2936,"lon":5.37835,"is_reserved":false,"is_disabled":false,"rental_uris":{"android":"levelo://app?vid=438a8264-953a-466a-a239-72a4012fd37a","ios":"levelo://app?vid=438a8264-953a-466a-a239-72a4012fd37a"},"vehicle_type_id":"4","last_reported":1722532057,"current_range_meters":1200,"station_id":"ce4bgjh2rcd13ifvqbf0","pricing_plan_id":"cebpf4jnsgd1na2vs0mg"},{"bike_id":"aa85f08e-d43d-4613-a009-83bdd0f80368","system_id":"levelo_inurba_marseille","lat":43.2936,"lon":5.37835,"is_reserved":false,"is_disabled":false,"rental_uris":{"android":"levelo://app?vid=aa85f08e-d43d-4613-a009-83bdd0f80368","ios":"levelo://app?vid=aa85f08e-d43d-4613-a009-83bdd0f80368"},"vehicle_type_id":"4","last_reported":1722532057,"current_range_meters":26400,"station_id":"ce4bgjh2rcd13ifvqbf0","pricing_plan_id":"cebpf4jnsgd1na2vs0mg"},{"bike_id":"2659b0a9-f53e-431e-84be-f0d09a4ad5b1","system_id":"levelo_inurba_marseille","lat":43.29227,"lon":5.3605,"is_reserved":false,"is_disabled":false,"rental_uris":{"android":"levelo://app?vid=2659b0a9-f53e-431e-84be-f0d09a4ad5b1","ios":"levelo://app?vid=2659b0a9-f53e-431e-84be-f0d09a4ad5b1"},"vehicle_type_id":"4","last_reported":1722532057,"current_range_meters":1600,"station_id":"ce4bhbh2rcd13ifvqeqg","pricing_plan_id":"cebpf4jnsgd1na2vs0mg"},{"bike_id":"dd527eec-56de-4996-b21e-64ce8296fa80","system_id":"levelo_inurba_marseille","lat":43.292311,"lon":5.360731,"is_reserved":false,"is_disabled":false,"rental_uris":{"android":"levelo://app?vid=dd527eec-56de-4996-b21e-64ce8296fa80","ios":"levelo://app?vid=dd527eec-56de-4996-b21e-64ce8296fa80"},"vehicle_type_id":"4","last_reported":1722532057,"current_range_meters":800,"station_id":"ce4bhbh2rcd13ifvqeqg","pricing_plan_id":"cebpf4jnsgd1na2vs0mg"},{"bike_id":"63fb40a4-293c-4ea8-9f78-9867b1ef3eb8","system_id":"levelo_inurba_marseille","lat":43.292311,"lon":5.360731,"is_reserved":false,"is_disabled":false,"rental_uris":{"android":"levelo://app?vid=63fb40a4-293c-4ea8-9f78-9867b1ef3eb8","ios":"levelo://app?vid=63fb40a4-293c-4ea8-9f78-9867b1ef3eb8"},"vehicle_type_id":"4","last_reported":1722532057,"current_range_meters":31200,"station_id":"ce4bhbh2rcd13ifvqeqg","pricing_plan_id":"cebpf4jnsgd1na2vs0mg"},{"bike_id":"84ae0438-1f4f-44e1-9e10-436a76ff009a","system_id":"levelo_inurba_marseille","lat":43.292311,"lon":5.360731,"is_reserved":false,"is_disabled":false,"rental_uris":{"android":"levelo://app?vid=84ae0438-1f4f-44e1-9e10-436a76ff009a","ios":"levelo://app?vid=84ae0438-1f4f-44e1-9e10-436a76ff009a"},"vehicle_type_id":"4","last_reported":1722532057,"current_range_meters":1600,"station_id":"ce4bhbh2rcd13ifvqeqg","pricing_plan_id":"cebpf4jnsgd1na2vs0mg"},{"bike_id":"2dc85ee6-a4fc-4eb4-88de-06dc3dcba37b","system_id":"levelo_inurba_marseille","lat":43.292311,"lon":5.360731,"is_reserved":false,"is_disabled":false,"rental_uris":{"android":"levelo://app?vid=2dc85ee6-a4fc-4eb4-88de-06dc3dcba37b","ios":"levelo://app?vid=2dc85ee6-a4fc-4eb4-88de-06dc3dcba37b"},"vehicle_type_id":"4","last_reported":1722532057,"current_range_meters":19200,"station_id":"ce4bhbh2rcd13ifvqeqg","pricing_plan_id":"cebpf4jnsgd1na2vs0mg"},{"bike_id":"dba0728c-f5a8-423e-a707-3b0b50360647","system_id":"levelo_inurba_marseille","lat":43.292311,"lon":5.360731,"is_reserved":false,"is_disabled":false,"rental_uris":{"android":"levelo://app?vid=dba0728c-f5a8-423e-a707-3b0b50360647","ios":"levelo://app?vid=dba0728c-f5a8-423e-a707-3b0b50360647"},"vehicle_type_id":"4","last_reported":1722532057,"current_range_meters":24400,"station_id":"ce4bhbh2rcd13ifvqeqg","pricing_plan_id":"cebpf4jnsgd1na2vs0mg"},{"bike_id":"bf5561d1-3131-48c7-950a-4e007c5bebe4","system_id":"levelo_inurba_marseille","lat":43.292311,"lon":5.360731,"is_reserved":false,"is_disabled":false,"rental_uris":{"android":"levelo://app?vid=bf5561d1-3131-48c7-950a-4e007c5bebe4","ios":"levelo://app?vid=bf5561d1-3131-48c7-950a-4e007c5bebe4"},"vehicle_type_id":"4","last_reported":1722532057,"current_range_meters":0,"station_id":"ce4bhbh2rcd13ifvqeqg","pricing_plan_id":"cebpf4jnsgd1na2vs0mg"},{"bike_id":"d1212614-1752-45e4-b846-4f9ee35e9314","system_id":"levelo_inurba_marseille","lat":43.29262,"lon":5.37595,"is_reserved":false,"is_disabled":false,"rental_uris":{"android":"levelo://app?vid=d1212614-1752-45e4-b846-4f9ee35e9314","ios":"levelo://app?vid=d1212614-1752-45e4-b846-4f9ee35e9314"},"vehicle_type_id":"4","last_reported":1722532057,"current_range_meters":0,"station_id":"ce4bgi12rcd13ifvqb80","pricing_plan_id":"cebpf4jnsgd1na2vs0mg"},{"bike_id":"97eba9a0-f692-461b-b549-d32647b6643d","system_id":"levelo_inurba_marseille","lat":43.293009,"lon":5.374584,"is_reserved":false,"is_disabled":false,"rental_uris":{"android":"levelo://app?vid=97eba9a0-f692-461b-b549-d32647b6643d","ios":"levelo://app?vid=97eba9a0-f692-461b-b549-d32647b6643d"},"vehicle_type_id":"4","last_reported":1722532057,"current_range_meters":0,"station_id":"ce4bgi12rcd13ifvqb70","pricing_plan_id":"cebpf4jnsgd1na2vs0mg"},{"bike_id":"7d94ccbc-9d58-4b89-86af-08b941447115","system_id":"levelo_inurba_marseille","lat":43.291671,"lon":5.371575,"is_reserved":false,"is_disabled":false,"rental_uris":{"android":"levelo://app?vid=7d94ccbc-9d58-4b89-86af-08b941447115","ios":"levelo://app?vid=7d94ccbc-9d58-4b89-86af-08b941447115"},"vehicle_type_id":"4","last_reported":1722532057,"current_range_meters":25200,"station_id":"ce4bha92rcd13ifvqeh0","pricing_plan_id":"cebpf4jnsgd1na2vs0mg"},{"bike_id":"0b6aeadb-58ea-48fe-9992-6a844909d07b","system_id":"levelo_inurba_marseille","lat":43.29252,"lon":5.37616,"is_reserved":false,"is_disabled":false,"rental_uris":{"android":"levelo://app?vid=0b6aeadb-58ea-48fe-9992-6a844909d07b","ios":"levelo://app?vid=0b6aeadb-58ea-48fe-9992-6a844909d07b"},"vehicle_type_id":"4","last_reported":1722532057,"current_range_meters":24000,"station_id":"ce4bgi12rcd13ifvqb80","pricing_plan_id":"cebpf4jnsgd1na2vs0mg"},{"bike_id":"f6029b1e-629f-46b8-87dd-8f145e03753a","system_id":"levelo_inurba_marseille","lat":43.29878,"lon":5.38911,"is_reserved":false,"is_disabled":false,"rental_uris":{"android":"levelo://app?vid=f6029b1e-629f-46b8-87dd-8f145e03753a","ios":"levelo://app?vid=f6029b1e-629f-46b8-87dd-8f145e03753a"},"vehicle_type_id":"4","last_reported":1722532057,"current_range_meters":0,"station_id":"ce4bh392rcd13ifvqdl0","pricing_plan_id":"cebpf4jnsgd1na2vs0mg"},{"bike_id":"22e1a15b-7a57-45f0-89cf-d543dc6b1eb7","system_id":"levelo_inurba_marseille","lat":43.291994,"lon":5.357886,"is_reserved":false,"is_disabled":false,"rental_uris":{"android":"levelo://app?vid=22e1a15b-7a57-45f0-89cf-d543dc6b1eb7","ios":"levelo://app?vid=22e1a15b-7a57-45f0-89cf-d543dc6b1eb7"},"vehicle_type_id":"4","last_reported":1722532057,"current_range_meters":0,"station_id":"ce4bhb12rcd13ifvqel0","pricing_plan_id":"cebpf4jnsgd1na2vs0mg"},{"bike_id":"91900984-ed68-4f55-8408-793d44d5bb89","system_id":"levelo_inurba_marseille","lat":43.291994,"lon":5.357886,"is_reserved":false,"is_disabled":false,"rental_uris":{"android":"levelo://app?vid=91900984-ed68-4f55-8408-793d44d5bb89","ios":"levelo://app?vid=91900984-ed68-4f55-8408-793d44d5bb89"},"vehicle_type_id":"4","last_reported":1722532057,"current_range_meters":11600,"station_id":"ce4bhb12rcd13ifvqel0","pricing_plan_id":"cebpf4jnsgd1na2vs0mg"},{"bike_id":"a54a9805-b06b-4ee4-b7a6-5f64bd0d9492","system_id":"levelo_inurba_marseille","lat":43.291994,"lon":5.357886,"is_reserved":false,"is_disabled":false,"rental_uris":{"android":"levelo://app?vid=a54a9805-b06b-4ee4-b7a6-5f64bd0d9492","ios":"levelo://app?vid=a54a9805-b06b-4ee4-b7a6-5f64bd0d9492"},"vehicle_type_id":"4","last_reported":1722532057,"current_range_meters":7600,"station_id":"ce4bhb12rcd13ifvqel0","pricing_plan_id":"cebpf4jnsgd1na2vs0mg"},{"bike_id":"7654e6c2-f1e3-4283-b477-b720dea7f3f8","system_id":"levelo_inurba_marseille","lat":43.309038,"lon":5.396546,"is_reserved":false,"is_disabled":false,"rental_uris":{"android":"levelo://app?vid=7654e6c2-f1e3-4283-b477-b720dea7f3f8","ios":"levelo://app?vid=7654e6c2-f1e3-4283-b477-b720dea7f3f8"},"vehicle_type_id":"4","last_reported":1722532057,"current_range_meters":16800,"station_id":"ce4bh012rcd13ifvqcv0","pricing_plan_id":"cebpf4jnsgd1na2vs0mg"},{"bike_id":"cd2f6a69-102d-470b-83b0-b535ea8b8969","system_id":"levelo_inurba_marseille","lat":43.291994,"lon":5.357886,"is_reserved":false,"is_disabled":false,"rental_uris":{"android":"levelo://app?vid=cd2f6a69-102d-470b-83b0-b535ea8b8969","ios":"levelo://app?vid=cd2f6a69-102d-470b-83b0-b535ea8b8969"},"vehicle_type_id":"4","last_reported":1722532057,"current_range_meters":1600,"station_id":"ce4bhb12rcd13ifvqel0","pricing_plan_id":"cebpf4jnsgd1na2vs0mg"},{"bike_id":"b8bff16c-719c-4c9d-b727-e3120dbaa40c","system_id":"levelo_inurba_marseille","lat":43.292005,"lon":5.357875,"is_reserved":false,"is_disabled":false,"rental_uris":{"android":"levelo://app?vid=b8bff16c-719c-4c9d-b727-e3120dbaa40c","ios":"levelo://app?vid=b8bff16c-719c-4c9d-b727-e3120dbaa40c"},"vehicle_type_id":"4","last_reported":1722532057,"current_range_meters":4800,"station_id":"ce4bhb12rcd13ifvqel0","pricing_plan_id":"cebpf4jnsgd1na2vs0mg"},{"bike_id":"e5ca689d-ea33-4ffe-a9e3-7db18c47f5cd","system_id":"levelo_inurba_marseille","lat":43.309038,"lon":5.396546,"is_reserved":false,"is_disabled":false,"rental_uris":{"android":"levelo://app?vid=e5ca689d-ea33-4ffe-a9e3-7db18c47f5cd","ios":"levelo://app?vid=e5ca689d-ea33-4ffe-a9e3-7db18c47f5cd"},"vehicle_type_id":"4","last_reported":1722532057,"current_range_meters":29200,"station_id":"ce4bh012rcd13ifvqcv0","pricing_plan_id":"cebpf4jnsgd1na2vs0mg"},{"bike_id":"2ebd9b4a-9372-40ff-85f8-99d345b718bf","system_id":"levelo_inurba_marseille","lat":43.29529,"lon":5.385581,"is_reserved":false,"is_disabled":false,"rental_uris":{"android":"levelo://app?vid=2ebd9b4a-9372-40ff-85f8-99d345b718bf","ios":"levelo://app?vid=2ebd9b4a-9372-40ff-85f8-99d345b718bf"},"vehicle_type_id":"4","last_reported":1722532057,"current_range_meters":7200,"station_id":"ce4bgih2rcd13ifvqba0","pricing_plan_id":"cebpf4jnsgd1na2vs0mg"},{"bike_id":"c8009449-1bd2-49ab-98dc-499ee47bf36c","system_id":"levelo_inurba_marseille","lat":43.29529,"lon":5.385581,"is_reserved":false,"is_disabled":false,"rental_uris":{"android":"levelo://app?vid=c8009449-1bd2-49ab-98dc-499ee47bf36c","ios":"levelo://app?vid=c8009449-1bd2-49ab-98dc-499ee47bf36c"},"vehicle_type_id":"4","last_reported":1722532057,"current_range_meters":19600,"station_id":"ce4bgih2rcd13ifvqba0","pricing_plan_id":"cebpf4jnsgd1na2vs0mg"},{"bike_id":"343980df-b78c-407b-a6d4-0b87eb3bf1bb","system_id":"levelo_inurba_marseille","lat":43.290779,"lon":5.371482,"is_reserved":false,"is_disabled":false,"rental_uris":{"android":"levelo://app?vid=343980df-b78c-407b-a6d4-0b87eb3bf1bb","ios":"levelo://app?vid=343980df-b78c-407b-a6d4-0b87eb3bf1bb"},"vehicle_type_id":"4","last_reported":1722532057,"current_range_meters":14400,"station_id":"ce4bh5p2rcd13ifvqe4g","pricing_plan_id":"cebpf4jnsgd1na2vs0mg"},{"bike_id":"40b2dee4-fe03-4a4e-8f44-704b4b0aebff","system_id":"levelo_inurba_marseille","lat":43.302008,"lon":5.394694,"is_reserved":false,"is_disabled":false,"rental_uris":{"android":"levelo://app?vid=40b2dee4-fe03-4a4e-8f44-704b4b0aebff","ios":"levelo://app?vid=40b2dee4-fe03-4a4e-8f44-704b4b0aebff"},"vehicle_type_id":"4","last_reported":1722532057,"current_range_meters":400,"station_id":"ce4bh0p2rcd13ifvqd70","pricing_plan_id":"cebpf4jnsgd1na2vs0mg"},{"bike_id":"ffe0e15c-b362-477d-9202-a15dd47a1914","system_id":"levelo_inurba_marseille","lat":43.290631,"lon":5.359244,"is_reserved":false,"is_disabled":false,"rental_uris":{"android":"levelo://app?vid=ffe0e15c-b362-477d-9202-a15dd47a1914","ios":"levelo://app?vid=ffe0e15c-b362-477d-9202-a15dd47a1914"},"vehicle_type_id":"4","last_reported":1722532057,"current_range_meters":0,"station_id":"ce4bha92rcd13ifvqeg0","pricing_plan_id":"cebpf4jnsgd1na2vs0mg"},{"bike_id":"fc3828ed-8c68-486b-9403-08c33596279a","system_id":"levelo_inurba_marseille","lat":43.289184,"lon":5.366408,"is_reserved":false,"is_disabled":false,"rental_uris":{"android":"levelo://app?vid=fc3828ed-8c68-486b-9403-08c33596279a","ios":"levelo://app?vid=fc3828ed-8c68-486b-9403-08c33596279a"},"vehicle_type_id":"4","last_reported":1722532057,"current_range_meters":8000,"station_id":"ce4bhap2rcd13ifvqek0","pricing_plan_id":"cebpf4jnsgd1na2vs0mg"},{"bike_id":"cd42c101-e8e5-43e3-8ce6-4f9b3be09506","system_id":"levelo_inurba_marseille","lat":43.289184,"lon":5.366408,"is_reserved":false,"is_disabled":false,"rental_uris":{"android":"levelo://app?vid=cd42c101-e8e5-43e3-8ce6-4f9b3be09506","ios":"levelo://app?vid=cd42c101-e8e5-43e3-8ce6-4f9b3be09506"},"vehicle_type_id":"4","last_reported":1722532057,"current_range_meters":16000,"station_id":"ce4bhap2rcd13ifvqek0","pricing_plan_id":"cebpf4jnsgd1na2vs0mg"},{"bike_id":"1f6f3193-de78-48c8-b3d4-a1127311ff5f","system_id":"levelo_inurba_marseille","lat":43.302759,"lon":5.400793,"is_reserved":false,"is_disabled":false,"rental_uris":{"android":"levelo://app?vid=1f6f3193-de78-48c8-b3d4-a1127311ff5f","ios":"levelo://app?vid=1f6f3193-de78-48c8-b3d4-a1127311ff5f"},"vehicle_type_id":"4","last_reported":1722532057,"current_range_meters":10000,"station_id":"ce4bgvh2rcd13ifvqcs0","pricing_plan_id":"cebpf4jnsgd1na2vs0mg"},{"bike_id":"8d66fcd0-9679-4024-907c-cd7a2207213f","system_id":"levelo_inurba_marseille","lat":43.289468,"lon":5.363719,"is_reserved":false,"is_disabled":false,"rental_uris":{"android":"levelo://app?vid=8d66fcd0-9679-4024-907c-cd7a2207213f","ios":"levelo://app?vid=8d66fcd0-9679-4024-907c-cd7a2207213f"},"vehicle_type_id":"4","last_reported":1722532057,"current_range_meters":10800,"station_id":"ce4bhc92rcd13ifvqetg","pricing_plan_id":"cebpf4jnsgd1na2vs0mg"},{"bike_id":"6f4d5a7f-2cf6-414d-aeaf-df2d2928a391","system_id":"levelo_inurba_marseille","lat":43.289468,"lon":5.363719,"is_reserved":false,"is_disabled":false,"rental_uris":{"android":"levelo://app?vid=6f4d5a7f-2cf6-414d-aeaf-df2d2928a391","ios":"levelo://app?vid=6f4d5a7f-2cf6-414d-aeaf-df2d2928a391"},"vehicle_type_id":"4","last_reported":1722532057,"current_range_meters":15200,"station_id":"ce4bhc92rcd13ifvqetg","pricing_plan_id":"cebpf4jnsgd1na2vs0mg"},{"bike_id":"25af431d-dd08-47c2-943f-2d43f6af622a","system_id":"levelo_inurba_marseille","lat":43.29266,"lon":5.38458,"is_reserved":false,"is_disabled":false,"rental_uris":{"android":"levelo://app?vid=25af431d-dd08-47c2-943f-2d43f6af622a","ios":"levelo://app?vid=25af431d-dd08-47c2-943f-2d43f6af622a"},"vehicle_type_id":"4","last_reported":1722532057,"current_range_meters":0,"station_id":"ce4bh692rcd13ifvqea0","pricing_plan_id":"cebpf4jnsgd1na2vs0mg"},{"bike_id":"ac6865d2-7c3e-4474-ad9a-2d3a58a40259","system_id":"levelo_inurba_marseille","lat":43.30412,"lon":5.3975,"is_reserved":false,"is_disabled":false,"rental_uris":{"android":"levelo://app?vid=ac6865d2-7c3e-4474-ad9a-2d3a58a40259","ios":"levelo://app?vid=ac6865d2-7c3e-4474-ad9a-2d3a58a40259"},"vehicle_type_id":"4","last_reported":1722532057,"current_range_meters":31200,"station_id":"ce4bh092rcd13ifvqd20","pricing_plan_id":"cebpf4jnsgd1na2vs0mg"},{"bike_id":"83b60b3e-a388-4a1a-b146-d22ffffe7f6a","system_id":"levelo_inurba_marseille","lat":43.29004,"lon":5.35618,"is_reserved":false,"is_disabled":false,"rental_uris":{"android":"levelo://app?vid=83b60b3e-a388-4a1a-b146-d22ffffe7f6a","ios":"levelo://app?vid=83b60b3e-a388-4a1a-b146-d22ffffe7f6a"},"vehicle_type_id":"4","last_reported":1722532057,"current_range_meters":0,"station_id":"ce4bhb92rcd13ifvqen0","pricing_plan_id":"cebpf4jnsgd1na2vs0mg"},{"bike_id":"8ca7116b-3c12-427e-bd76-82ba23e11a6c","system_id":"levelo_inurba_marseille","lat":43.290104,"lon":5.356111,"is_reserved":false,"is_disabled":false,"rental_uris":{"android":"levelo://app?vid=8ca7116b-3c12-427e-bd76-82ba23e11a6c","ios":"levelo://app?vid=8ca7116b-3c12-427e-bd76-82ba23e11a6c"},"vehicle_type_id":"4","last_reported":1722532057,"current_range_meters":400,"station_id":"ce4bhb92rcd13ifvqen0","pricing_plan_id":"cebpf4jnsgd1na2vs0mg"},{"bike_id":"1b1e9b1e-c832-4add-ac06-dff7a77b36f1","system_id":"levelo_inurba_marseille","lat":43.29005,"lon":5.35609,"is_reserved":false,"is_disabled":false,"rental_uris":{"android":"levelo://app?vid=1b1e9b1e-c832-4add-ac06-dff7a77b36f1","ios":"levelo://app?vid=1b1e9b1e-c832-4add-ac06-dff7a77b36f1"},"vehicle_type_id":"4","last_reported":1722532057,"current_range_meters":0,"station_id":"ce4bhb92rcd13ifvqen0","pricing_plan_id":"cebpf4jnsgd1na2vs0mg"},{"bike_id":"8e6e3b40-ec66-44ae-b054-2436799868de","system_id":"levelo_inurba_marseille","lat":43.290022,"lon":5.356181,"is_reserved":false,"is_disabled":false,"rental_uris":{"android":"levelo://app?vid=8e6e3b40-ec66-44ae-b054-2436799868de","ios":"levelo://app?vid=8e6e3b40-ec66-44ae-b054-2436799868de"},"vehicle_type_id":"4","last_reported":1722532057,"current_range_meters":31200,"station_id":"ce4bhb92rcd13ifvqen0","pricing_plan_id":"cebpf4jnsgd1na2vs0mg"},{"bike_id":"bc1152e7-0be8-4ef0-a036-8de74eea3b2b","system_id":"levelo_inurba_marseille","lat":43.290104,"lon":5.356111,"is_reserved":false,"is_disabled":false,"rental_uris":{"android":"levelo://app?vid=bc1152e7-0be8-4ef0-a036-8de74eea3b2b","ios":"levelo://app?vid=bc1152e7-0be8-4ef0-a036-8de74eea3b2b"},"vehicle_type_id":"4","last_reported":1722532057,"current_range_meters":20800,"station_id":"ce4bhb92rcd13ifvqen0","pricing_plan_id":"cebpf4jnsgd1na2vs0mg"},{"bike_id":"dd32c758-f508-41c1-a6ca-425cd4ad76f8","system_id":"levelo_inurba_marseille","lat":43.295169,"lon":5.390426,"is_reserved":false,"is_disabled":false,"rental_uris":{"android":"levelo://app?vid=dd32c758-f508-41c1-a6ca-425cd4ad76f8","ios":"levelo://app?vid=dd32c758-f508-41c1-a6ca-425cd4ad76f8"},"vehicle_type_id":"4","last_reported":1722532057,"current_range_meters":17600,"station_id":"ce4bh3p2rcd13ifvqdp0","pricing_plan_id":"cebpf4jnsgd1na2vs0mg"},{"bike_id":"d2ac5003-4959-48e3-9e5a-4542f79fc59e","system_id":"levelo_inurba_marseille","lat":43.289743,"lon":5.378304,"is_reserved":false,"is_disabled":false,"rental_uris":{"android":"levelo://app?vid=d2ac5003-4959-48e3-9e5a-4542f79fc59e","ios":"levelo://app?vid=d2ac5003-4959-48e3-9e5a-4542f79fc59e"},"vehicle_type_id":"4","last_reported":1722532057,"current_range_meters":4800,"station_id":"ce4bh9p2rcd13ifvqed0","pricing_plan_id":"cebpf4jnsgd1na2vs0mg"},{"bike_id":"af341a03-574a-4b0a-a814-fb1607786220","system_id":"levelo_inurba_marseille","lat":43.289743,"lon":5.378304,"is_reserved":false,"is_disabled":false,"rental_uris":{"android":"levelo://app?vid=af341a03-574a-4b0a-a814-fb1607786220","ios":"levelo://app?vid=af341a03-574a-4b0a-a814-fb1607786220"},"vehicle_type_id":"4","last_reported":1722532057,"current_range_meters":0,"station_id":"ce4bh9p2rcd13ifvqed0","pricing_plan_id":"cebpf4jnsgd1na2vs0mg"},{"bike_id":"7b561c5f-4b23-4e7e-b05d-971bd4a509cd","system_id":"levelo_inurba_marseille","lat":43.28856,"lon":5.358371,"is_reserved":false,"is_disabled":false,"rental_uris":{"android":"levelo://app?vid=7b561c5f-4b23-4e7e-b05d-971bd4a509cd","ios":"levelo://app?vid=7b561c5f-4b23-4e7e-b05d-971bd4a509cd"},"vehicle_type_id":"4","last_reported":1722532057,"current_range_meters":0,"station_id":"ce4bhb12rcd13ifvqem0","pricing_plan_id":"cebpf4jnsgd1na2vs0mg"},{"bike_id":"b1680933-cbe8-42a9-bd73-340c243e4cf0","system_id":"levelo_inurba_marseille","lat":43.2901,"lon":5.381269,"is_reserved":false,"is_disabled":false,"rental_uris":{"android":"levelo://app?vid=b1680933-cbe8-42a9-bd73-340c243e4cf0","ios":"levelo://app?vid=b1680933-cbe8-42a9-bd73-340c243e4cf0"},"vehicle_type_id":"4","last_reported":1722532057,"current_range_meters":0,"station_id":"ce4bh4p2rcd13ifvqe1g","pricing_plan_id":"cebpf4jnsgd1na2vs0mg"},{"bike_id":"f4cdf6f8-59cc-4926-bbd3-bf830cd7e7b6","system_id":"levelo_inurba_marseille","lat":43.2901,"lon":5.381269,"is_reserved":false,"is_disabled":false,"rental_uris":{"android":"levelo://app?vid=f4cdf6f8-59cc-4926-bbd3-bf830cd7e7b6","ios":"levelo://app?vid=f4cdf6f8-59cc-4926-bbd3-bf830cd7e7b6"},"vehicle_type_id":"4","last_reported":1722532057,"current_range_meters":29600,"station_id":"ce4bh4p2rcd13ifvqe1g","pricing_plan_id":"cebpf4jnsgd1na2vs0mg"},{"bike_id":"63eb8339-c2a1-4fa5-8389-3b8b2cbaf2bb","system_id":"levelo_inurba_marseille","lat":43.2901,"lon":5.381269,"is_reserved":false,"is_disabled":false,"rental_uris":{"android":"levelo://app?vid=63eb8339-c2a1-4fa5-8389-3b8b2cbaf2bb","ios":"levelo://app?vid=63eb8339-c2a1-4fa5-8389-3b8b2cbaf2bb"},"vehicle_type_id":"4","last_reported":1722532057,"current_range_meters":4800,"station_id":"ce4bh4p2rcd13ifvqe1g","pricing_plan_id":"cebpf4jnsgd1na2vs0mg"},{"bike_id":"07a8e10e-405f-434b-a5e0-ea92aee8d888","system_id":"levelo_inurba_marseille","lat":43.290094,"lon":5.381264,"is_reserved":false,"is_disabled":false,"rental_uris":{"android":"levelo://app?vid=07a8e10e-405f-434b-a5e0-ea92aee8d888","ios":"levelo://app?vid=07a8e10e-405f-434b-a5e0-ea92aee8d888"},"vehicle_type_id":"4","last_reported":1722532057,"current_range_meters":0,"station_id":"ce4bh4p2rcd13ifvqe1g","pricing_plan_id":"cebpf4jnsgd1na2vs0mg"},{"bike_id":"12fd5c02-cfde-4437-98d4-e8a10ac88200","system_id":"levelo_inurba_marseille","lat":43.28856,"lon":5.358371,"is_reserved":false,"is_disabled":false,"rental_uris":{"android":"levelo://app?vid=12fd5c02-cfde-4437-98d4-e8a10ac88200","ios":"levelo://app?vid=12fd5c02-cfde-4437-98d4-e8a10ac88200"},"vehicle_type_id":"4","last_reported":1722532057,"current_range_meters":4400,"station_id":"ce4bhb12rcd13ifvqem0","pricing_plan_id":"cebpf4jnsgd1na2vs0mg"},{"bike_id":"7ac7452c-16b4-4d54-8f8d-fd2331cc1437","system_id":"levelo_inurba_marseille","lat":43.28856,"lon":5.358371,"is_reserved":false,"is_disabled":false,"rental_uris":{"android":"levelo://app?vid=7ac7452c-16b4-4d54-8f8d-fd2331cc1437","ios":"levelo://app?vid=7ac7452c-16b4-4d54-8f8d-fd2331cc1437"},"vehicle_type_id":"4","last_reported":1722532057,"current_range_meters":0,"station_id":"ce4bhb12rcd13ifvqem0","pricing_plan_id":"cebpf4jnsgd1na2vs0mg"},{"bike_id":"c4950943-6a5b-4b29-9d4c-4d2b740abcfd","system_id":"levelo_inurba_marseille","lat":43.28853,"lon":5.35862,"is_reserved":false,"is_disabled":false,"rental_uris":{"android":"levelo://app?vid=c4950943-6a5b-4b29-9d4c-4d2b740abcfd","ios":"levelo://app?vid=c4950943-6a5b-4b29-9d4c-4d2b740abcfd"},"vehicle_type_id":"4","last_reported":1722532057,"current_range_meters":0,"station_id":"ce4bhb12rcd13ifvqem0","pricing_plan_id":"cebpf4jnsgd1na2vs0mg"},{"bike_id":"c66525f4-43fd-4353-a86b-b26818fca7da","system_id":"levelo_inurba_marseille","lat":43.28856,"lon":5.358371,"is_reserved":false,"is_disabled":false,"rental_uris":{"android":"levelo://app?vid=c66525f4-43fd-4353-a86b-b26818fca7da","ios":"levelo://app?vid=c66525f4-43fd-4353-a86b-b26818fca7da"},"vehicle_type_id":"4","last_reported":1722532057,"current_range_meters":6000,"station_id":"ce4bhb12rcd13ifvqem0","pricing_plan_id":"cebpf4jnsgd1na2vs0mg"},{"bike_id":"b8cc5b81-690e-4a52-8449-1d028869a54f","system_id":"levelo_inurba_marseille","lat":43.28856,"lon":5.358371,"is_reserved":false,"is_disabled":false,"rental_uris":{"android":"levelo://app?vid=b8cc5b81-690e-4a52-8449-1d028869a54f","ios":"levelo://app?vid=b8cc5b81-690e-4a52-8449-1d028869a54f"},"vehicle_type_id":"4","last_reported":1722532057,"current_range_meters":9200,"station_id":"ce4bhb12rcd13ifvqem0","pricing_plan_id":"cebpf4jnsgd1na2vs0mg"},{"bike_id":"eb9c8731-31c3-4c40-b07c-3c6b6822434e","system_id":"levelo_inurba_marseille","lat":43.28856,"lon":5.358371,"is_reserved":false,"is_disabled":false,"rental_uris":{"android":"levelo://app?vid=eb9c8731-31c3-4c40-b07c-3c6b6822434e","ios":"levelo://app?vid=eb9c8731-31c3-4c40-b07c-3c6b6822434e"},"vehicle_type_id":"4","last_reported":1722532057,"current_range_meters":12000,"station_id":"ce4bhb12rcd13ifvqem0","pricing_plan_id":"cebpf4jnsgd1na2vs0mg"},{"bike_id":"e879102e-88bf-4f6c-997b-280a15dbfe60","system_id":"levelo_inurba_marseille","lat":43.31059,"lon":5.40131,"is_reserved":false,"is_disabled":false,"rental_uris":{"android":"levelo://app?vid=e879102e-88bf-4f6c-997b-280a15dbfe60","ios":"levelo://app?vid=e879102e-88bf-4f6c-997b-280a15dbfe60"},"vehicle_type_id":"4","last_reported":1722532057,"current_range_meters":27200,"station_id":"","pricing_plan_id":"cebpf4jnsgd1na2vs0mg"},{"bike_id":"0d9d4d84-5ee2-4273-ac23-c55763eb42d8","system_id":"levelo_inurba_marseille","lat":43.312609,"lon":5.401662,"is_reserved":false,"is_disabled":false,"rental_uris":{"android":"levelo://app?vid=0d9d4d84-5ee2-4273-ac23-c55763eb42d8","ios":"levelo://app?vid=0d9d4d84-5ee2-4273-ac23-c55763eb42d8"},"vehicle_type_id":"4","last_reported":1722532057,"current_range_meters":8400,"station_id":"ce4bh092rcd13ifvqd30","pricing_plan_id":"cebpf4jnsgd1na2vs0mg"},{"bike_id":"6f044633-3688-4e83-af67-cf3db97c1cc7","system_id":"levelo_inurba_marseille","lat":43.337444,"lon":5.374475,"is_reserved":false,"is_disabled":false,"rental_uris":{"android":"levelo://app?vid=6f044633-3688-4e83-af67-cf3db97c1cc7","ios":"levelo://app?vid=6f044633-3688-4e83-af67-cf3db97c1cc7"},"vehicle_type_id":"3","last_reported":1722532057,"current_range_meters":24800,"station_id":"","pricing_plan_id":"cebpf4jnsgd1na2vs0mg"},{"bike_id":"80c16f47-29e3-42e4-aa4e-f181f3afe823","system_id":"levelo_inurba_marseille","lat":43.309371,"lon":5.401449,"is_reserved":false,"is_disabled":false,"rental_uris":{"android":"levelo://app?vid=80c16f47-29e3-42e4-aa4e-f181f3afe823","ios":"levelo://app?vid=80c16f47-29e3-42e4-aa4e-f181f3afe823"},"vehicle_type_id":"4","last_reported":1722532057,"current_range_meters":31200,"station_id":"ce4bgvp2rcd13ifvqct0","pricing_plan_id":"cebpf4jnsgd1na2vs0mg"},{"bike_id":"eb08c884-1146-40fd-a9cb-e8498f7cd7be","system_id":"levelo_inurba_marseille","lat":43.337541,"lon":5.374495,"is_reserved":false,"is_disabled":false,"rental_uris":{"android":"levelo://app?vid=eb08c884-1146-40fd-a9cb-e8498f7cd7be","ios":"levelo://app?vid=eb08c884-1146-40fd-a9cb-e8498f7cd7be"},"vehicle_type_id":"4","last_reported":1722532057,"current_range_meters":25200,"station_id":"","pricing_plan_id":"cebpf4jnsgd1na2vs0mg"},{"bike_id":"307a0a4b-d435-41c7-8f11-31f001a1fd19","system_id":"levelo_inurba_marseille","lat":43.33762,"lon":5.37441,"is_reserved":false,"is_disabled":false,"rental_uris":{"android":"levelo://app?vid=307a0a4b-d435-41c7-8f11-31f001a1fd19","ios":"levelo://app?vid=307a0a4b-d435-41c7-8f11-31f001a1fd19"},"vehicle_type_id":"4","last_reported":1722532057,"current_range_meters":4800,"station_id":"","pricing_plan_id":"cebpf4jnsgd1na2vs0mg"},{"bike_id":"93620a6c-9bf9-495b-b411-b07a61911993","system_id":"levelo_inurba_marseille","lat":43.30642,"lon":5.401031,"is_reserved":false,"is_disabled":false,"rental_uris":{"android":"levelo://app?vid=93620a6c-9bf9-495b-b411-b07a61911993","ios":"levelo://app?vid=93620a6c-9bf9-495b-b411-b07a61911993"},"vehicle_type_id":"4","last_reported":1722532057,"current_range_meters":0,"station_id":"ce4bh112rcd13ifvqda0","pricing_plan_id":"cebpf4jnsgd1na2vs0mg"},{"bike_id":"a4ff4e35-d6d9-4855-82ba-f16a7daf4176","system_id":"levelo_inurba_marseille","lat":43.30137,"lon":5.39864,"is_reserved":false,"is_disabled":false,"rental_uris":{"android":"levelo://app?vid=a4ff4e35-d6d9-4855-82ba-f16a7daf4176","ios":"levelo://app?vid=a4ff4e35-d6d9-4855-82ba-f16a7daf4176"},"vehicle_type_id":"4","last_reported":1722532057,"current_range_meters":31200,"station_id":"ce4bh0h2rcd13ifvqd40","pricing_plan_id":"cebpf4jnsgd1na2vs0mg"},{"bike_id":"55df4c13-05c5-4054-b14f-cd650123a3e5","system_id":"levelo_inurba_marseille","lat":43.28727,"lon":5.36078,"is_reserved":false,"is_disabled":false,"rental_uris":{"android":"levelo://app?vid=55df4c13-05c5-4054-b14f-cd650123a3e5","ios":"levelo://app?vid=55df4c13-05c5-4054-b14f-cd650123a3e5"},"vehicle_type_id":"4","last_reported":1722532057,"current_range_meters":4000,"station_id":"cki0cbj6b192h4jlfktg","pricing_plan_id":"cebpf4jnsgd1na2vs0mg"},{"bike_id":"93857b8d-99d9-4b9b-8a15-5030a498e365","system_id":"levelo_inurba_marseille","lat":43.298681,"lon":5.397225,"is_reserved":false,"is_disabled":false,"rental_uris":{"android":"levelo://app?vid=93857b8d-99d9-4b9b-8a15-5030a498e365","ios":"levelo://app?vid=93857b8d-99d9-4b9b-8a15-5030a498e365"},"vehicle_type_id":"4","last_reported":1722532057,"current_range_meters":0,"station_id":"ce4bh0h2rcd13ifvqd50","pricing_plan_id":"cebpf4jnsgd1na2vs0mg"},{"bike_id":"f534d67d-2db2-406c-b15b-a775b0477d0f","system_id":"levelo_inurba_marseille","lat":43.298681,"lon":5.397225,"is_reserved":false,"is_disabled":false,"rental_uris":{"android":"levelo://app?vid=f534d67d-2db2-406c-b15b-a775b0477d0f","ios":"levelo://app?vid=f534d67d-2db2-406c-b15b-a775b0477d0f"},"vehicle_type_id":"4","last_reported":1722532057,"current_range_meters":9600,"station_id":"ce4bh0h2rcd13ifvqd50","pricing_plan_id":"cebpf4jnsgd1na2vs0mg"},{"bike_id":"3fdafa5a-c0d1-45c6-a793-69bffc2c7a71","system_id":"levelo_inurba_marseille","lat":43.286961,"lon":5.373785,"is_reserved":false,"is_disabled":false,"rental_uris":{"android":"levelo://app?vid=3fdafa5a-c0d1-45c6-a793-69bffc2c7a71","ios":"levelo://app?vid=3fdafa5a-c0d1-45c6-a793-69bffc2c7a71"},"vehicle_type_id":"4","last_reported":1722532057,"current_range_meters":20800,"station_id":"ce4bh3p2rcd13ifvqdq0","pricing_plan_id":"cebpf4jnsgd1na2vs0mg"},{"bike_id":"c7a09e97-516b-4068-81ce-81b5ee0d964b","system_id":"levelo_inurba_marseille","lat":43.28704,"lon":5.37394,"is_reserved":false,"is_disabled":false,"rental_uris":{"android":"levelo://app?vid=c7a09e97-516b-4068-81ce-81b5ee0d964b","ios":"levelo://app?vid=c7a09e97-516b-4068-81ce-81b5ee0d964b"},"vehicle_type_id":"4","last_reported":1722532057,"current_range_meters":0,"station_id":"ce4bh3p2rcd13ifvqdq0","pricing_plan_id":"cebpf4jnsgd1na2vs0mg"},{"bike_id":"6a72395b-ec22-4a78-8db4-0106c79563af","system_id":"levelo_inurba_marseille","lat":43.286591,"lon":5.363346,"is_reserved":false,"is_disabled":false,"rental_uris":{"android":"levelo://app?vid=6a72395b-ec22-4a78-8db4-0106c79563af","ios":"levelo://app?vid=6a72395b-ec22-4a78-8db4-0106c79563af"},"vehicle_type_id":"4","last_reported":1722532057,"current_range_meters":4800,"station_id":"ce4bhah2rcd13ifvqej0","pricing_plan_id":"cebpf4jnsgd1na2vs0mg"},{"bike_id":"91dadb2e-d03a-42d4-9071-1078536f2fa2","system_id":"levelo_inurba_marseille","lat":43.286593,"lon":5.363346,"is_reserved":false,"is_disabled":false,"rental_uris":{"android":"levelo://app?vid=91dadb2e-d03a-42d4-9071-1078536f2fa2","ios":"levelo://app?vid=91dadb2e-d03a-42d4-9071-1078536f2fa2"},"vehicle_type_id":"4","last_reported":1722532057,"current_range_meters":15200,"station_id":"ce4bhah2rcd13ifvqej0","pricing_plan_id":"cebpf4jnsgd1na2vs0mg"},{"bike_id":"528b5389-6348-42a0-9743-19ae31817784","system_id":"levelo_inurba_marseille","lat":43.286961,"lon":5.373785,"is_reserved":false,"is_disabled":false,"rental_uris":{"android":"levelo://app?vid=528b5389-6348-42a0-9743-19ae31817784","ios":"levelo://app?vid=528b5389-6348-42a0-9743-19ae31817784"},"vehicle_type_id":"4","last_reported":1722532057,"current_range_meters":6800,"station_id":"ce4bh3p2rcd13ifvqdq0","pricing_plan_id":"cebpf4jnsgd1na2vs0mg"},{"bike_id":"6926c19b-2858-46d6-b602-72944b6c6f2c","system_id":"levelo_inurba_marseille","lat":43.30243,"lon":5.40052,"is_reserved":false,"is_disabled":false,"rental_uris":{"android":"levelo://app?vid=6926c19b-2858-46d6-b602-72944b6c6f2c","ios":"levelo://app?vid=6926c19b-2858-46d6-b602-72944b6c6f2c"},"vehicle_type_id":"4","last_reported":1722532057,"current_range_meters":0,"station_id":"ce4bgvh2rcd13ifvqcs0","pricing_plan_id":"cebpf4jnsgd1na2vs0mg"},{"bike_id":"27ebd1ac-bcb7-48a8-a0f8-ece6d46d0830","system_id":"levelo_inurba_marseille","lat":43.29024,"lon":5.38631,"is_reserved":false,"is_disabled":false,"rental_uris":{"android":"levelo://app?vid=27ebd1ac-bcb7-48a8-a0f8-ece6d46d0830","ios":"levelo://app?vid=27ebd1ac-bcb7-48a8-a0f8-ece6d46d0830"},"vehicle_type_id":"4","last_reported":1722532057,"current_range_meters":0,"station_id":"ce4bh4p2rcd13ifvqe0g","pricing_plan_id":"cebpf4jnsgd1na2vs0mg"},{"bike_id":"1a91a567-c0ab-4516-b639-88192e360457","system_id":"levelo_inurba_marseille","lat":43.289307,"lon":5.38406,"is_reserved":false,"is_disabled":false,"rental_uris":{"android":"levelo://app?vid=1a91a567-c0ab-4516-b639-88192e360457","ios":"levelo://app?vid=1a91a567-c0ab-4516-b639-88192e360457"},"vehicle_type_id":"4","last_reported":1722532057,"current_range_meters":32000,"station_id":"ce4bh612rcd13ifvqe6g","pricing_plan_id":"cebpf4jnsgd1na2vs0mg"},{"bike_id":"e9e013ac-31e5-4b3a-912c-32e1fa5cb2b7","system_id":"levelo_inurba_marseille","lat":43.302759,"lon":5.400793,"is_reserved":false,"is_disabled":false,"rental_uris":{"android":"levelo://app?vid=e9e013ac-31e5-4b3a-912c-32e1fa5cb2b7","ios":"levelo://app?vid=e9e013ac-31e5-4b3a-912c-32e1fa5cb2b7"},"vehicle_type_id":"4","last_reported":1722532057,"current_range_meters":8400,"station_id":"ce4bgvh2rcd13ifvqcs0","pricing_plan_id":"cebpf4jnsgd1na2vs0mg"},{"bike_id":"39049198-111e-45c5-9879-f7690c27cbe5","system_id":"levelo_inurba_marseille","lat":43.302759,"lon":5.400793,"is_reserved":false,"is_disabled":false,"rental_uris":{"android":"levelo://app?vid=39049198-111e-45c5-9879-f7690c27cbe5","ios":"levelo://app?vid=39049198-111e-45c5-9879-f7690c27cbe5"},"vehicle_type_id":"4","last_reported":1722532057,"current_range_meters":31200,"station_id":"ce4bgvh2rcd13ifvqcs0","pricing_plan_id":"cebpf4jnsgd1na2vs0mg"},{"bike_id":"b1139c8e-a955-4836-8632-4bcb78380fc8","system_id":"levelo_inurba_marseille","lat":43.302759,"lon":5.400793,"is_reserved":false,"is_disabled":false,"rental_uris":{"android":"levelo://app?vid=b1139c8e-a955-4836-8632-4bcb78380fc8","ios":"levelo://app?vid=b1139c8e-a955-4836-8632-4bcb78380fc8"},"vehicle_type_id":"4","last_reported":1722532057,"current_range_meters":31200,"station_id":"ce4bgvh2rcd13ifvqcs0","pricing_plan_id":"cebpf4jnsgd1na2vs0mg"},{"bike_id":"a2ab994b-ed61-4af7-bc65-5e1c9ef56cc1","system_id":"levelo_inurba_marseille","lat":43.30263,"lon":5.40085,"is_reserved":false,"is_disabled":false,"rental_uris":{"android":"levelo://app?vid=a2ab994b-ed61-4af7-bc65-5e1c9ef56cc1","ios":"levelo://app?vid=a2ab994b-ed61-4af7-bc65-5e1c9ef56cc1"},"vehicle_type_id":"4","last_reported":1722532057,"current_range_meters":15200,"station_id":"","pricing_plan_id":"cebpf4jnsgd1na2vs0mg"},{"bike_id":"361f33fb-cf6e-4060-a43c-de50702de383","system_id":"levelo_inurba_marseille","lat":43.30257,"lon":5.40082,"is_reserved":false,"is_disabled":false,"rental_uris":{"android":"levelo://app?vid=361f33fb-cf6e-4060-a43c-de50702de383","ios":"levelo://app?vid=361f33fb-cf6e-4060-a43c-de50702de383"},"vehicle_type_id":"4","last_reported":1722532057,"current_range_meters":0,"station_id":"ce4bgvh2rcd13ifvqcs0","pricing_plan_id":"cebpf4jnsgd1na2vs0mg"},{"bike_id":"49c78e9d-1a83-4b74-a36d-fc9244210c66","system_id":"levelo_inurba_marseille","lat":43.291994,"lon":5.392907,"is_reserved":false,"is_disabled":false,"rental_uris":{"android":"levelo://app?vid=49c78e9d-1a83-4b74-a36d-fc9244210c66","ios":"levelo://app?vid=49c78e9d-1a83-4b74-a36d-fc9244210c66"},"vehicle_type_id":"4","last_reported":1722532057,"current_range_meters":400,"station_id":"ce4bh192rcd13ifvqdd0","pricing_plan_id":"cebpf4jnsgd1na2vs0mg"},{"bike_id":"ed13c4d6-9134-4777-869f-c7e46a415be5","system_id":"levelo_inurba_marseille","lat":43.291994,"lon":5.392907,"is_reserved":false,"is_disabled":false,"rental_uris":{"android":"levelo://app?vid=ed13c4d6-9134-4777-869f-c7e46a415be5","ios":"levelo://app?vid=ed13c4d6-9134-4777-869f-c7e46a415be5"},"vehicle_type_id":"4","last_reported":1722532057,"current_range_meters":1200,"station_id":"ce4bh192rcd13ifvqdd0","pricing_plan_id":"cebpf4jnsgd1na2vs0mg"},{"bike_id":"cbfa4b2f-9483-4aa2-9c2c-b2eff20d67b7","system_id":"levelo_inurba_marseille","lat":43.291994,"lon":5.392907,"is_reserved":false,"is_disabled":false,"rental_uris":{"android":"levelo://app?vid=cbfa4b2f-9483-4aa2-9c2c-b2eff20d67b7","ios":"levelo://app?vid=cbfa4b2f-9483-4aa2-9c2c-b2eff20d67b7"},"vehicle_type_id":"4","last_reported":1722532057,"current_range_meters":12000,"station_id":"ce4bh192rcd13ifvqdd0","pricing_plan_id":"cebpf4jnsgd1na2vs0mg"},{"bike_id":"51a91165-969b-44f2-a089-540efb00798f","system_id":"levelo_inurba_marseille","lat":43.291994,"lon":5.392907,"is_reserved":false,"is_disabled":false,"rental_uris":{"android":"levelo://app?vid=51a91165-969b-44f2-a089-540efb00798f","ios":"levelo://app?vid=51a91165-969b-44f2-a089-540efb00798f"},"vehicle_type_id":"4","last_reported":1722532057,"current_range_meters":0,"station_id":"ce4bh192rcd13ifvqdd0","pricing_plan_id":"cebpf4jnsgd1na2vs0mg"},{"bike_id":"9a73c37e-baef-4480-a4c7-5dd3f51417e4","system_id":"levelo_inurba_marseille","lat":43.28461,"lon":5.35882,"is_reserved":false,"is_disabled":false,"rental_uris":{"android":"levelo://app?vid=9a73c37e-baef-4480-a4c7-5dd3f51417e4","ios":"levelo://app?vid=9a73c37e-baef-4480-a4c7-5dd3f51417e4"},"vehicle_type_id":"4","last_reported":1722532057,"current_range_meters":2800,"station_id":"ce4bhah2rcd13ifvqei0","pricing_plan_id":"cebpf4jnsgd1na2vs0mg"},{"bike_id":"cbf6f349-5b7d-41d7-99fe-325778d86dcc","system_id":"levelo_inurba_marseille","lat":43.294314,"lon":5.397498,"is_reserved":false,"is_disabled":false,"rental_uris":{"android":"levelo://app?vid=cbf6f349-5b7d-41d7-99fe-325778d86dcc","ios":"levelo://app?vid=cbf6f349-5b7d-41d7-99fe-325778d86dcc"},"vehicle_type_id":"4","last_reported":1722532057,"current_range_meters":11600,"station_id":"ce4bh3h2rcd13ifvqdo0","pricing_plan_id":"cebpf4jnsgd1na2vs0mg"},{"bike_id":"2ee55129-89d1-41de-82dd-a760b9931c8e","system_id":"levelo_inurba_marseille","lat":43.28619,"lon":5.3511,"is_reserved":false,"is_disabled":false,"rental_uris":{"android":"levelo://app?vid=2ee55129-89d1-41de-82dd-a760b9931c8e","ios":"levelo://app?vid=2ee55129-89d1-41de-82dd-a760b9931c8e"},"vehicle_type_id":"4","last_reported":1722532057,"current_range_meters":28400,"station_id":"ce4bhch2rcd13ifvqeug","pricing_plan_id":"cebpf4jnsgd1na2vs0mg"},{"bike_id":"f324492e-bf32-41b1-885a-f5ef34259fe9","system_id":"levelo_inurba_marseille","lat":43.28618,"lon":5.35112,"is_reserved":false,"is_disabled":false,"rental_uris":{"android":"levelo://app?vid=f324492e-bf32-41b1-885a-f5ef34259fe9","ios":"levelo://app?vid=f324492e-bf32-41b1-885a-f5ef34259fe9"},"vehicle_type_id":"4","last_reported":1722532057,"current_range_meters":6400,"station_id":"ce4bhch2rcd13ifvqeug","pricing_plan_id":"cebpf4jnsgd1na2vs0mg"},{"bike_id":"b9ec66c7-95e3-421b-9e0d-4d864ae7b9f0","system_id":"levelo_inurba_marseille","lat":43.28617,"lon":5.35114,"is_reserved":false,"is_disabled":false,"rental_uris":{"android":"levelo://app?vid=b9ec66c7-95e3-421b-9e0d-4d864ae7b9f0","ios":"levelo://app?vid=b9ec66c7-95e3-421b-9e0d-4d864ae7b9f0"},"vehicle_type_id":"4","last_reported":1722532057,"current_range_meters":23600,"station_id":"ce4bhch2rcd13ifvqeug","pricing_plan_id":"cebpf4jnsgd1na2vs0mg"},{"bike_id":"32cd912b-4a1e-4f5e-b831-5fad4abcceeb","system_id":"levelo_inurba_marseille","lat":43.286177,"lon":5.351057,"is_reserved":false,"is_disabled":false,"rental_uris":{"android":"levelo://app?vid=32cd912b-4a1e-4f5e-b831-5fad4abcceeb","ios":"levelo://app?vid=32cd912b-4a1e-4f5e-b831-5fad4abcceeb"},"vehicle_type_id":"4","last_reported":1722532057,"current_range_meters":17200,"station_id":"ce4bhch2rcd13ifvqeug","pricing_plan_id":"cebpf4jnsgd1na2vs0mg"},{"bike_id":"c6b2d038-de18-4978-a78c-da9e32f72638","system_id":"levelo_inurba_marseille","lat":43.28617,"lon":5.35107,"is_reserved":false,"is_disabled":false,"rental_uris":{"android":"levelo://app?vid=c6b2d038-de18-4978-a78c-da9e32f72638","ios":"levelo://app?vid=c6b2d038-de18-4978-a78c-da9e32f72638"},"vehicle_type_id":"4","last_reported":1722532057,"current_range_meters":6000,"station_id":"ce4bhch2rcd13ifvqeug","pricing_plan_id":"cebpf4jnsgd1na2vs0mg"},{"bike_id":"e86607cf-5ac8-465e-90f0-90ec1caae0db","system_id":"levelo_inurba_marseille","lat":43.28616,"lon":5.35108,"is_reserved":false,"is_disabled":false,"rental_uris":{"android":"levelo://app?vid=e86607cf-5ac8-465e-90f0-90ec1caae0db","ios":"levelo://app?vid=e86607cf-5ac8-465e-90f0-90ec1caae0db"},"vehicle_type_id":"4","last_reported":1722532057,"current_range_meters":7600,"station_id":"ce4bhch2rcd13ifvqeug","pricing_plan_id":"cebpf4jnsgd1na2vs0mg"},{"bike_id":"b83fdec3-19c1-4e42-9efd-5ce2924140f8","system_id":"levelo_inurba_marseille","lat":43.285848,"lon":5.350787,"is_reserved":false,"is_disabled":false,"rental_uris":{"android":"levelo://app?vid=b83fdec3-19c1-4e42-9efd-5ce2924140f8","ios":"levelo://app?vid=b83fdec3-19c1-4e42-9efd-5ce2924140f8"},"vehicle_type_id":"4","last_reported":1722532057,"current_range_meters":0,"station_id":"ce4bhch2rcd13ifvqeug","pricing_plan_id":"cebpf4jnsgd1na2vs0mg"},{"bike_id":"94bd5b70-856a-44ca-a748-6cb371597de7","system_id":"levelo_inurba_marseille","lat":43.28617,"lon":5.35101,"is_reserved":false,"is_disabled":false,"rental_uris":{"android":"levelo://app?vid=94bd5b70-856a-44ca-a748-6cb371597de7","ios":"levelo://app?vid=94bd5b70-856a-44ca-a748-6cb371597de7"},"vehicle_type_id":"4","last_reported":1722532057,"current_range_meters":3200,"station_id":"ce4bhch2rcd13ifvqeug","pricing_plan_id":"cebpf4jnsgd1na2vs0mg"},{"bike_id":"bbc7c539-96f7-4aed-b34b-0d99f4dc3258","system_id":"levelo_inurba_marseille","lat":43.28615,"lon":5.35103,"is_reserved":false,"is_disabled":false,"rental_uris":{"android":"levelo://app?vid=bbc7c539-96f7-4aed-b34b-0d99f4dc3258","ios":"levelo://app?vid=bbc7c539-96f7-4aed-b34b-0d99f4dc3258"},"vehicle_type_id":"4","last_reported":1722532057,"current_range_meters":0,"station_id":"ce4bhch2rcd13ifvqeug","pricing_plan_id":"cebpf4jnsgd1na2vs0mg"},{"bike_id":"209278a6-1a89-4429-91c8-98f5bf3b9b18","system_id":"levelo_inurba_marseille","lat":43.28614,"lon":5.35106,"is_reserved":false,"is_disabled":false,"rental_uris":{"android":"levelo://app?vid=209278a6-1a89-4429-91c8-98f5bf3b9b18","ios":"levelo://app?vid=209278a6-1a89-4429-91c8-98f5bf3b9b18"},"vehicle_type_id":"4","last_reported":1722532057,"current_range_meters":4800,"station_id":"ce4bhch2rcd13ifvqeug","pricing_plan_id":"cebpf4jnsgd1na2vs0mg"},{"bike_id":"7dd75f19-3f0b-4496-a27e-1fca585d1dd0","system_id":"levelo_inurba_marseille","lat":43.28614,"lon":5.35104,"is_reserved":false,"is_disabled":false,"rental_uris":{"android":"levelo://app?vid=7dd75f19-3f0b-4496-a27e-1fca585d1dd0","ios":"levelo://app?vid=7dd75f19-3f0b-4496-a27e-1fca585d1dd0"},"vehicle_type_id":"4","last_reported":1722532057,"current_range_meters":2000,"station_id":"ce4bhch2rcd13ifvqeug","pricing_plan_id":"cebpf4jnsgd1na2vs0mg"},{"bike_id":"07ad3019-3eb4-42d4-8f71-a6e7e06a3e26","system_id":"levelo_inurba_marseille","lat":43.28612,"lon":5.35107,"is_reserved":false,"is_disabled":false,"rental_uris":{"android":"levelo://app?vid=07ad3019-3eb4-42d4-8f71-a6e7e06a3e26","ios":"levelo://app?vid=07ad3019-3eb4-42d4-8f71-a6e7e06a3e26"},"vehicle_type_id":"4","last_reported":1722532057,"current_range_meters":4000,"station_id":"ce4bhch2rcd13ifvqeug","pricing_plan_id":"cebpf4jnsgd1na2vs0mg"},{"bike_id":"871deb38-1b7c-4b7c-a546-190d97e2485a","system_id":"levelo_inurba_marseille","lat":43.28612,"lon":5.35106,"is_reserved":false,"is_disabled":false,"rental_uris":{"android":"levelo://app?vid=871deb38-1b7c-4b7c-a546-190d97e2485a","ios":"levelo://app?vid=871deb38-1b7c-4b7c-a546-190d97e2485a"},"vehicle_type_id":"4","last_reported":1722532057,"current_range_meters":0,"station_id":"ce4bhch2rcd13ifvqeug","pricing_plan_id":"cebpf4jnsgd1na2vs0mg"},{"bike_id":"a3a4cf50-b210-4e54-abb2-96b76932e601","system_id":"levelo_inurba_marseille","lat":43.28614,"lon":5.35098,"is_reserved":false,"is_disabled":false,"rental_uris":{"android":"levelo://app?vid=a3a4cf50-b210-4e54-abb2-96b76932e601","ios":"levelo://app?vid=a3a4cf50-b210-4e54-abb2-96b76932e601"},"vehicle_type_id":"4","last_reported":1722532057,"current_range_meters":31200,"station_id":"ce4bhch2rcd13ifvqeug","pricing_plan_id":"cebpf4jnsgd1na2vs0mg"},{"bike_id":"ab956fcd-9de7-406e-b549-cb4df0bf3265","system_id":"levelo_inurba_marseille","lat":43.28614,"lon":5.35098,"is_reserved":false,"is_disabled":false,"rental_uris":{"android":"levelo://app?vid=ab956fcd-9de7-406e-b549-cb4df0bf3265","ios":"levelo://app?vid=ab956fcd-9de7-406e-b549-cb4df0bf3265"},"vehicle_type_id":"4","last_reported":1722532057,"current_range_meters":25200,"station_id":"ce4bhch2rcd13ifvqeug","pricing_plan_id":"cebpf4jnsgd1na2vs0mg"},{"bike_id":"297332c3-965e-4d68-851a-bcdfe2bec642","system_id":"levelo_inurba_marseille","lat":43.28613,"lon":5.35101,"is_reserved":false,"is_disabled":false,"rental_uris":{"android":"levelo://app?vid=297332c3-965e-4d68-851a-bcdfe2bec642","ios":"levelo://app?vid=297332c3-965e-4d68-851a-bcdfe2bec642"},"vehicle_type_id":"4","last_reported":1722532057,"current_range_meters":17600,"station_id":"ce4bhch2rcd13ifvqeug","pricing_plan_id":"cebpf4jnsgd1na2vs0mg"},{"bike_id":"29c90666-f3ee-4c74-92ae-c918f578c1f3","system_id":"levelo_inurba_marseille","lat":43.28611,"lon":5.35107,"is_reserved":false,"is_disabled":false,"rental_uris":{"android":"levelo://app?vid=29c90666-f3ee-4c74-92ae-c918f578c1f3","ios":"levelo://app?vid=29c90666-f3ee-4c74-92ae-c918f578c1f3"},"vehicle_type_id":"4","last_reported":1722532057,"current_range_meters":6400,"station_id":"ce4bhch2rcd13ifvqeug","pricing_plan_id":"cebpf4jnsgd1na2vs0mg"},{"bike_id":"61762571-adb4-4870-9c70-9c48f99c95fb","system_id":"levelo_inurba_marseille","lat":43.28612,"lon":5.35099,"is_reserved":false,"is_disabled":false,"rental_uris":{"android":"levelo://app?vid=61762571-adb4-4870-9c70-9c48f99c95fb","ios":"levelo://app?vid=61762571-adb4-4870-9c70-9c48f99c95fb"},"vehicle_type_id":"4","last_reported":1722532057,"current_range_meters":30800,"station_id":"ce4bhch2rcd13ifvqeug","pricing_plan_id":"cebpf4jnsgd1na2vs0mg"},{"bike_id":"05ad9fb7-ca7f-44db-bf6b-26f25732ff19","system_id":"levelo_inurba_marseille","lat":43.2861,"lon":5.35105,"is_reserved":false,"is_disabled":false,"rental_uris":{"android":"levelo://app?vid=05ad9fb7-ca7f-44db-bf6b-26f25732ff19","ios":"levelo://app?vid=05ad9fb7-ca7f-44db-bf6b-26f25732ff19"},"vehicle_type_id":"4","last_reported":1722532057,"current_range_meters":23600,"station_id":"ce4bhch2rcd13ifvqeug","pricing_plan_id":"cebpf4jnsgd1na2vs0mg"},{"bike_id":"09fd7836-4dd9-4f19-9d8c-88cf0b6459ff","system_id":"levelo_inurba_marseille","lat":43.28605,"lon":5.35106,"is_reserved":false,"is_disabled":false,"rental_uris":{"android":"levelo://app?vid=09fd7836-4dd9-4f19-9d8c-88cf0b6459ff","ios":"levelo://app?vid=09fd7836-4dd9-4f19-9d8c-88cf0b6459ff"},"vehicle_type_id":"4","last_reported":1722532057,"current_range_meters":25200,"station_id":"ce4bhch2rcd13ifvqeug","pricing_plan_id":"cebpf4jnsgd1na2vs0mg"},{"bike_id":"895997e7-5d92-4335-a839-dec4ce1c525c","system_id":"levelo_inurba_marseille","lat":43.28607,"lon":5.35099,"is_reserved":false,"is_disabled":false,"rental_uris":{"android":"levelo://app?vid=895997e7-5d92-4335-a839-dec4ce1c525c","ios":"levelo://app?vid=895997e7-5d92-4335-a839-dec4ce1c525c"},"vehicle_type_id":"4","last_reported":1722532057,"current_range_meters":25600,"station_id":"ce4bhch2rcd13ifvqeug","pricing_plan_id":"cebpf4jnsgd1na2vs0mg"},{"bike_id":"d7ec6327-d508-4540-aa95-b958a5325144","system_id":"levelo_inurba_marseille","lat":43.319179,"lon":5.407725,"is_reserved":false,"is_disabled":false,"rental_uris":{"android":"levelo://app?vid=d7ec6327-d508-4540-aa95-b958a5325144","ios":"levelo://app?vid=d7ec6327-d508-4540-aa95-b958a5325144"},"vehicle_type_id":"4","last_reported":1722532057,"current_range_meters":10400,"station_id":"ce4bhq12rcd13ifvqhig","pricing_plan_id":"cebpf4jnsgd1na2vs0mg"},{"bike_id":"b755aa72-dbe1-4c7f-9c05-5686a886847a","system_id":"levelo_inurba_marseille","lat":43.28418,"lon":5.37517,"is_reserved":false,"is_disabled":false,"rental_uris":{"android":"levelo://app?vid=b755aa72-dbe1-4c7f-9c05-5686a886847a","ios":"levelo://app?vid=b755aa72-dbe1-4c7f-9c05-5686a886847a"},"vehicle_type_id":"4","last_reported":1722532057,"current_range_meters":0,"station_id":"ce4bh412rcd13ifvqds0","pricing_plan_id":"cebpf4jnsgd1na2vs0mg"},{"bike_id":"abe3495a-63fb-4e44-8cda-af41a53ead56","system_id":"levelo_inurba_marseille","lat":43.283998,"lon":5.375062,"is_reserved":false,"is_disabled":false,"rental_uris":{"android":"levelo://app?vid=abe3495a-63fb-4e44-8cda-af41a53ead56","ios":"levelo://app?vid=abe3495a-63fb-4e44-8cda-af41a53ead56"},"vehicle_type_id":"4","last_reported":1722532057,"current_range_meters":22800,"station_id":"ce4bh412rcd13ifvqds0","pricing_plan_id":"cebpf4jnsgd1na2vs0mg"},{"bike_id":"d962f549-5346-4486-b4c4-874ae72bb6b4","system_id":"levelo_inurba_marseille","lat":43.29567,"lon":5.39965,"is_reserved":false,"is_disabled":false,"rental_uris":{"android":"levelo://app?vid=d962f549-5346-4486-b4c4-874ae72bb6b4","ios":"levelo://app?vid=d962f549-5346-4486-b4c4-874ae72bb6b4"},"vehicle_type_id":"4","last_reported":1722532057,"current_range_meters":0,"station_id":"ce4bh312rcd13ifvqdj0","pricing_plan_id":"cebpf4jnsgd1na2vs0mg"},{"bike_id":"684bf3a3-983c-4cf2-8ffa-e182d365aed7","system_id":"levelo_inurba_marseille","lat":43.295713,"lon":5.399639,"is_reserved":false,"is_disabled":false,"rental_uris":{"android":"levelo://app?vid=684bf3a3-983c-4cf2-8ffa-e182d365aed7","ios":"levelo://app?vid=684bf3a3-983c-4cf2-8ffa-e182d365aed7"},"vehicle_type_id":"4","last_reported":1722532057,"current_range_meters":2000,"station_id":"ce4bh312rcd13ifvqdj0","pricing_plan_id":"cebpf4jnsgd1na2vs0mg"},{"bike_id":"a980e35f-6773-4cdb-bb7a-e112d378a5e3","system_id":"levelo_inurba_marseille","lat":43.295713,"lon":5.399639,"is_reserved":false,"is_disabled":false,"rental_uris":{"android":"levelo://app?vid=a980e35f-6773-4cdb-bb7a-e112d378a5e3","ios":"levelo://app?vid=a980e35f-6773-4cdb-bb7a-e112d378a5e3"},"vehicle_type_id":"4","last_reported":1722532057,"current_range_meters":3600,"station_id":"ce4bh312rcd13ifvqdj0","pricing_plan_id":"cebpf4jnsgd1na2vs0mg"},{"bike_id":"f644e25c-d735-48b2-86a3-7bc885ac4cb4","system_id":"levelo_inurba_marseille","lat":43.286595,"lon":5.386795,"is_reserved":false,"is_disabled":false,"rental_uris":{"android":"levelo://app?vid=f644e25c-d735-48b2-86a3-7bc885ac4cb4","ios":"levelo://app?vid=f644e25c-d735-48b2-86a3-7bc885ac4cb4"},"vehicle_type_id":"4","last_reported":1722532057,"current_range_meters":400,"station_id":"ce4bh492rcd13ifvqdug","pricing_plan_id":"cebpf4jnsgd1na2vs0mg"},{"bike_id":"21374a6a-05c2-4898-95cf-cb2a94de311e","system_id":"levelo_inurba_marseille","lat":43.33723,"lon":5.39183,"is_reserved":false,"is_disabled":false,"rental_uris":{"android":"levelo://app?vid=21374a6a-05c2-4898-95cf-cb2a94de311e","ios":"levelo://app?vid=21374a6a-05c2-4898-95cf-cb2a94de311e"},"vehicle_type_id":"4","last_reported":1722532057,"current_range_meters":1600,"station_id":"ce4bhr92rcd13ifvqhsg","pricing_plan_id":"cebpf4jnsgd1na2vs0mg"},{"bike_id":"d15ea8fd-992f-4e7b-bc42-d8f242cac250","system_id":"levelo_inurba_marseille","lat":43.288497,"lon":5.393089,"is_reserved":false,"is_disabled":false,"rental_uris":{"android":"levelo://app?vid=d15ea8fd-992f-4e7b-bc42-d8f242cac250","ios":"levelo://app?vid=d15ea8fd-992f-4e7b-bc42-d8f242cac250"},"vehicle_type_id":"4","last_reported":1722532057,"current_range_meters":0,"station_id":"ce4bh2p2rcd13ifvqdi0","pricing_plan_id":"cebpf4jnsgd1na2vs0mg"},{"bike_id":"09d6c85a-3911-4af4-bf42-cd3c27413621","system_id":"levelo_inurba_marseille","lat":43.33717,"lon":5.391857,"is_reserved":false,"is_disabled":false,"rental_uris":{"android":"levelo://app?vid=09d6c85a-3911-4af4-bf42-cd3c27413621","ios":"levelo://app?vid=09d6c85a-3911-4af4-bf42-cd3c27413621"},"vehicle_type_id":"4","last_reported":1722532057,"current_range_meters":22400,"station_id":"ce4bhr92rcd13ifvqhsg","pricing_plan_id":"cebpf4jnsgd1na2vs0mg"},{"bike_id":"202a3658-ef24-44de-9acf-5e76798c16d4","system_id":"levelo_inurba_marseille","lat":43.28469,"lon":5.3841,"is_reserved":false,"is_disabled":false,"rental_uris":{"android":"levelo://app?vid=202a3658-ef24-44de-9acf-5e76798c16d4","ios":"levelo://app?vid=202a3658-ef24-44de-9acf-5e76798c16d4"},"vehicle_type_id":"4","last_reported":1722532057,"current_range_meters":0,"station_id":"ce4bh512rcd13ifvqe3g","pricing_plan_id":"cebpf4jnsgd1na2vs0mg"},{"bike_id":"9d8bc3ba-52ac-4e57-9f4e-223b7d962212","system_id":"levelo_inurba_marseille","lat":43.288497,"lon":5.393089,"is_reserved":false,"is_disabled":false,"rental_uris":{"android":"levelo://app?vid=9d8bc3ba-52ac-4e57-9f4e-223b7d962212","ios":"levelo://app?vid=9d8bc3ba-52ac-4e57-9f4e-223b7d962212"},"vehicle_type_id":"4","last_reported":1722532057,"current_range_meters":0,"station_id":"ce4bh2p2rcd13ifvqdi0","pricing_plan_id":"cebpf4jnsgd1na2vs0mg"},{"bike_id":"b628b437-3610-4d03-a875-e19c492d41f7","system_id":"levelo_inurba_marseille","lat":43.284672,"lon":5.384287,"is_reserved":false,"is_disabled":false,"rental_uris":{"android":"levelo://app?vid=b628b437-3610-4d03-a875-e19c492d41f7","ios":"levelo://app?vid=b628b437-3610-4d03-a875-e19c492d41f7"},"vehicle_type_id":"4","last_reported":1722532057,"current_range_meters":0,"station_id":"","pricing_plan_id":"cebpf4jnsgd1na2vs0mg"},{"bike_id":"e0df5e52-4585-42e5-861c-348abce8dbdc","system_id":"levelo_inurba_marseille","lat":43.29795,"lon":5.404086,"is_reserved":false,"is_disabled":false,"rental_uris":{"android":"levelo://app?vid=e0df5e52-4585-42e5-861c-348abce8dbdc","ios":"levelo://app?vid=e0df5e52-4585-42e5-861c-348abce8dbdc"},"vehicle_type_id":"4","last_reported":1722532057,"current_range_meters":23600,"station_id":"ce4bh112rcd13ifvqd90","pricing_plan_id":"cebpf4jnsgd1na2vs0mg"},{"bike_id":"c1d463ba-62dd-42ff-a363-0dabebc80f7e","system_id":"levelo_inurba_marseille","lat":43.29795,"lon":5.404086,"is_reserved":false,"is_disabled":false,"rental_uris":{"android":"levelo://app?vid=c1d463ba-62dd-42ff-a363-0dabebc80f7e","ios":"levelo://app?vid=c1d463ba-62dd-42ff-a363-0dabebc80f7e"},"vehicle_type_id":"4","last_reported":1722532057,"current_range_meters":23600,"station_id":"ce4bh112rcd13ifvqd90","pricing_plan_id":"cebpf4jnsgd1na2vs0mg"},{"bike_id":"2c4d1c2d-218e-4bfd-9a8b-0c806ddcda88","system_id":"levelo_inurba_marseille","lat":43.288501,"lon":5.393087,"is_reserved":false,"is_disabled":false,"rental_uris":{"android":"levelo://app?vid=2c4d1c2d-218e-4bfd-9a8b-0c806ddcda88","ios":"levelo://app?vid=2c4d1c2d-218e-4bfd-9a8b-0c806ddcda88"},"vehicle_type_id":"4","last_reported":1722532057,"current_range_meters":0,"station_id":"ce4bh2p2rcd13ifvqdi0","pricing_plan_id":"cebpf4jnsgd1na2vs0mg"},{"bike_id":"1ca84fce-bbd8-4e72-8f12-fbedddc7fc6a","system_id":"levelo_inurba_marseille","lat":43.283494,"lon":5.380945,"is_reserved":false,"is_disabled":false,"rental_uris":{"android":"levelo://app?vid=1ca84fce-bbd8-4e72-8f12-fbedddc7fc6a","ios":"levelo://app?vid=1ca84fce-bbd8-4e72-8f12-fbedddc7fc6a"},"vehicle_type_id":"4","last_reported":1722532057,"current_range_meters":20400,"station_id":"ce4bh412rcd13ifvqdr0","pricing_plan_id":"cebpf4jnsgd1na2vs0mg"},{"bike_id":"8a096056-fd1b-4d80-84dc-391ab145cc8d","system_id":"levelo_inurba_marseille","lat":43.283494,"lon":5.380945,"is_reserved":false,"is_disabled":false,"rental_uris":{"android":"levelo://app?vid=8a096056-fd1b-4d80-84dc-391ab145cc8d","ios":"levelo://app?vid=8a096056-fd1b-4d80-84dc-391ab145cc8d"},"vehicle_type_id":"4","last_reported":1722532057,"current_range_meters":3200,"station_id":"ce4bh412rcd13ifvqdr0","pricing_plan_id":"cebpf4jnsgd1na2vs0mg"},{"bike_id":"b5d97a82-8a26-4d9a-aaf9-7132e334fdc6","system_id":"levelo_inurba_marseille","lat":43.283498,"lon":5.380948,"is_reserved":false,"is_disabled":false,"rental_uris":{"android":"levelo://app?vid=b5d97a82-8a26-4d9a-aaf9-7132e334fdc6","ios":"levelo://app?vid=b5d97a82-8a26-4d9a-aaf9-7132e334fdc6"},"vehicle_type_id":"4","last_reported":1722532057,"current_range_meters":0,"station_id":"ce4bh412rcd13ifvqdr0","pricing_plan_id":"cebpf4jnsgd1na2vs0mg"},{"bike_id":"8d45b135-d4e9-45ff-97d6-ea01066bbf32","system_id":"levelo_inurba_marseille","lat":43.284776,"lon":5.385603,"is_reserved":false,"is_disabled":false,"rental_uris":{"android":"levelo://app?vid=8d45b135-d4e9-45ff-97d6-ea01066bbf32","ios":"levelo://app?vid=8d45b135-d4e9-45ff-97d6-ea01066bbf32"},"vehicle_type_id":"4","last_reported":1722532057,"current_range_meters":0,"station_id":"ce4bh8p2rcd13ifvqeb0","pricing_plan_id":"cebpf4jnsgd1na2vs0mg"},{"bike_id":"f32eee9d-f37b-4486-b0b1-3099401a5c03","system_id":"levelo_inurba_marseille","lat":43.283494,"lon":5.380945,"is_reserved":false,"is_disabled":false,"rental_uris":{"android":"levelo://app?vid=f32eee9d-f37b-4486-b0b1-3099401a5c03","ios":"levelo://app?vid=f32eee9d-f37b-4486-b0b1-3099401a5c03"},"vehicle_type_id":"4","last_reported":1722532057,"current_range_meters":21200,"station_id":"ce4bh412rcd13ifvqdr0","pricing_plan_id":"cebpf4jnsgd1na2vs0mg"},{"bike_id":"802e373b-b478-4f00-9796-754fbe226a61","system_id":"levelo_inurba_marseille","lat":43.284295,"lon":5.349865,"is_reserved":false,"is_disabled":false,"rental_uris":{"android":"levelo://app?vid=802e373b-b478-4f00-9796-754fbe226a61","ios":"levelo://app?vid=802e373b-b478-4f00-9796-754fbe226a61"},"vehicle_type_id":"4","last_reported":1722532057,"current_range_meters":8000,"station_id":"ce4bhbh2rcd13ifvqepg","pricing_plan_id":"cebpf4jnsgd1na2vs0mg"},{"bike_id":"3bbf5746-04af-4527-bbcd-70659faa1237","system_id":"levelo_inurba_marseille","lat":43.284219,"lon":5.3497,"is_reserved":false,"is_disabled":false,"rental_uris":{"android":"levelo://app?vid=3bbf5746-04af-4527-bbcd-70659faa1237","ios":"levelo://app?vid=3bbf5746-04af-4527-bbcd-70659faa1237"},"vehicle_type_id":"4","last_reported":1722532057,"current_range_meters":22000,"station_id":"ce4bhbh2rcd13ifvqepg","pricing_plan_id":"cebpf4jnsgd1na2vs0mg"},{"bike_id":"25b858f6-3090-4d69-a22b-16dac2d162ae","system_id":"levelo_inurba_marseille","lat":43.284236,"lon":5.349948,"is_reserved":false,"is_disabled":false,"rental_uris":{"android":"levelo://app?vid=25b858f6-3090-4d69-a22b-16dac2d162ae","ios":"levelo://app?vid=25b858f6-3090-4d69-a22b-16dac2d162ae"},"vehicle_type_id":"4","last_reported":1722532057,"current_range_meters":31200,"station_id":"ce4bhbh2rcd13ifvqepg","pricing_plan_id":"cebpf4jnsgd1na2vs0mg"},{"bike_id":"3e00ed6d-7be5-42bf-a0ef-c7a7c3bc118a","system_id":"levelo_inurba_marseille","lat":43.28427,"lon":5.34984,"is_reserved":false,"is_disabled":false,"rental_uris":{"android":"levelo://app?vid=3e00ed6d-7be5-42bf-a0ef-c7a7c3bc118a","ios":"levelo://app?vid=3e00ed6d-7be5-42bf-a0ef-c7a7c3bc118a"},"vehicle_type_id":"4","last_reported":1722532057,"current_range_meters":30800,"station_id":"ce4bhbh2rcd13ifvqepg","pricing_plan_id":"cebpf4jnsgd1na2vs0mg"},{"bike_id":"452a3d69-9637-4cc1-b4eb-787246e027df","system_id":"levelo_inurba_marseille","lat":43.284219,"lon":5.3497,"is_reserved":false,"is_disabled":false,"rental_uris":{"android":"levelo://app?vid=452a3d69-9637-4cc1-b4eb-787246e027df","ios":"levelo://app?vid=452a3d69-9637-4cc1-b4eb-787246e027df"},"vehicle_type_id":"4","last_reported":1722532057,"current_range_meters":30000,"station_id":"ce4bhbh2rcd13ifvqepg","pricing_plan_id":"cebpf4jnsgd1na2vs0mg"},{"bike_id":"4a8cd877-3ccf-4900-95cc-839c641497ce","system_id":"levelo_inurba_marseille","lat":43.284219,"lon":5.3497,"is_reserved":false,"is_disabled":false,"rental_uris":{"android":"levelo://app?vid=4a8cd877-3ccf-4900-95cc-839c641497ce","ios":"levelo://app?vid=4a8cd877-3ccf-4900-95cc-839c641497ce"},"vehicle_type_id":"4","last_reported":1722532057,"current_range_meters":27600,"station_id":"ce4bhbh2rcd13ifvqepg","pricing_plan_id":"cebpf4jnsgd1na2vs0mg"},{"bike_id":"f51f9ec0-5512-4e74-be10-1925f4a07c6c","system_id":"levelo_inurba_marseille","lat":43.284776,"lon":5.385603,"is_reserved":false,"is_disabled":false,"rental_uris":{"android":"levelo://app?vid=f51f9ec0-5512-4e74-be10-1925f4a07c6c","ios":"levelo://app?vid=f51f9ec0-5512-4e74-be10-1925f4a07c6c"},"vehicle_type_id":"4","last_reported":1722532057,"current_range_meters":0,"station_id":"ce4bh8p2rcd13ifvqeb0","pricing_plan_id":"cebpf4jnsgd1na2vs0mg"},{"bike_id":"c25f2e3a-f059-4cf4-b127-5a827c42b635","system_id":"levelo_inurba_marseille","lat":43.28421,"lon":5.34996,"is_reserved":false,"is_disabled":false,"rental_uris":{"android":"levelo://app?vid=c25f2e3a-f059-4cf4-b127-5a827c42b635","ios":"levelo://app?vid=c25f2e3a-f059-4cf4-b127-5a827c42b635"},"vehicle_type_id":"4","last_reported":1722532057,"current_range_meters":10400,"station_id":"ce4bhbh2rcd13ifvqepg","pricing_plan_id":"cebpf4jnsgd1na2vs0mg"},{"bike_id":"4302d223-9d65-41db-86dc-a84821fb92ad","system_id":"levelo_inurba_marseille","lat":43.28422,"lon":5.34992,"is_reserved":false,"is_disabled":false,"rental_uris":{"android":"levelo://app?vid=4302d223-9d65-41db-86dc-a84821fb92ad","ios":"levelo://app?vid=4302d223-9d65-41db-86dc-a84821fb92ad"},"vehicle_type_id":"4","last_reported":1722532057,"current_range_meters":22800,"station_id":"ce4bhbh2rcd13ifvqepg","pricing_plan_id":"cebpf4jnsgd1na2vs0mg"},{"bike_id":"bc418325-f8dc-491f-8d2e-4df8784f563c","system_id":"levelo_inurba_marseille","lat":43.28422,"lon":5.34991,"is_reserved":false,"is_disabled":false,"rental_uris":{"android":"levelo://app?vid=bc418325-f8dc-491f-8d2e-4df8784f563c","ios":"levelo://app?vid=bc418325-f8dc-491f-8d2e-4df8784f563c"},"vehicle_type_id":"4","last_reported":1722532057,"current_range_meters":28800,"station_id":"ce4bhbh2rcd13ifvqepg","pricing_plan_id":"cebpf4jnsgd1na2vs0mg"},{"bike_id":"3afbe470-5177-4dc7-a0c6-6f4b1d2f647f","system_id":"levelo_inurba_marseille","lat":43.284219,"lon":5.3497,"is_reserved":false,"is_disabled":false,"rental_uris":{"android":"levelo://app?vid=3afbe470-5177-4dc7-a0c6-6f4b1d2f647f","ios":"levelo://app?vid=3afbe470-5177-4dc7-a0c6-6f4b1d2f647f"},"vehicle_type_id":"4","last_reported":1722532057,"current_range_meters":32000,"station_id":"ce4bhbh2rcd13ifvqepg","pricing_plan_id":"cebpf4jnsgd1na2vs0mg"},{"bike_id":"1aeeff59-da84-4ae1-9899-fe30bd46000d","system_id":"levelo_inurba_marseille","lat":43.28421,"lon":5.34991,"is_reserved":false,"is_disabled":false,"rental_uris":{"android":"levelo://app?vid=1aeeff59-da84-4ae1-9899-fe30bd46000d","ios":"levelo://app?vid=1aeeff59-da84-4ae1-9899-fe30bd46000d"},"vehicle_type_id":"4","last_reported":1722532057,"current_range_meters":0,"station_id":"ce4bhbh2rcd13ifvqepg","pricing_plan_id":"cebpf4jnsgd1na2vs0mg"},{"bike_id":"d9de5f63-2681-4e31-81ff-95ac3a14c323","system_id":"levelo_inurba_marseille","lat":43.284219,"lon":5.3497,"is_reserved":false,"is_disabled":false,"rental_uris":{"android":"levelo://app?vid=d9de5f63-2681-4e31-81ff-95ac3a14c323","ios":"levelo://app?vid=d9de5f63-2681-4e31-81ff-95ac3a14c323"},"vehicle_type_id":"4","last_reported":1722532057,"current_range_meters":22800,"station_id":"ce4bhbh2rcd13ifvqepg","pricing_plan_id":"cebpf4jnsgd1na2vs0mg"},{"bike_id":"004d7049-385d-41ad-8ad6-c16894db0c41","system_id":"levelo_inurba_marseille","lat":43.284219,"lon":5.3497,"is_reserved":false,"is_disabled":false,"rental_uris":{"android":"levelo://app?vid=004d7049-385d-41ad-8ad6-c16894db0c41","ios":"levelo://app?vid=004d7049-385d-41ad-8ad6-c16894db0c41"},"vehicle_type_id":"4","last_reported":1722532057,"current_range_meters":30000,"station_id":"ce4bhbh2rcd13ifvqepg","pricing_plan_id":"cebpf4jnsgd1na2vs0mg"},{"bike_id":"0923d6e1-f63b-411f-9a07-47f7c420beec","system_id":"levelo_inurba_marseille","lat":43.284219,"lon":5.3497,"is_reserved":false,"is_disabled":false,"rental_uris":{"android":"levelo://app?vid=0923d6e1-f63b-411f-9a07-47f7c420beec","ios":"levelo://app?vid=0923d6e1-f63b-411f-9a07-47f7c420beec"},"vehicle_type_id":"4","last_reported":1722532057,"current_range_meters":17600,"station_id":"ce4bhbh2rcd13ifvqepg","pricing_plan_id":"cebpf4jnsgd1na2vs0mg"},{"bike_id":"20bd845d-459d-46f4-ba89-e5346d3dfee4","system_id":"levelo_inurba_marseille","lat":43.28421,"lon":5.34985,"is_reserved":false,"is_disabled":false,"rental_uris":{"android":"levelo://app?vid=20bd845d-459d-46f4-ba89-e5346d3dfee4","ios":"levelo://app?vid=20bd845d-459d-46f4-ba89-e5346d3dfee4"},"vehicle_type_id":"4","last_reported":1722532057,"current_range_meters":23200,"station_id":"ce4bhbh2rcd13ifvqepg","pricing_plan_id":"cebpf4jnsgd1na2vs0mg"},{"bike_id":"4ef0e1c9-7c80-4aa5-87f7-64faf27db2e6","system_id":"levelo_inurba_marseille","lat":43.28424,"lon":5.34975,"is_reserved":false,"is_disabled":false,"rental_uris":{"android":"levelo://app?vid=4ef0e1c9-7c80-4aa5-87f7-64faf27db2e6","ios":"levelo://app?vid=4ef0e1c9-7c80-4aa5-87f7-64faf27db2e6"},"vehicle_type_id":"4","last_reported":1722532057,"current_range_meters":1600,"station_id":"ce4bhbh2rcd13ifvqepg","pricing_plan_id":"cebpf4jnsgd1na2vs0mg"},{"bike_id":"85b15a54-24f0-46bd-8c62-9362ae406c29","system_id":"levelo_inurba_marseille","lat":43.284219,"lon":5.3497,"is_reserved":false,"is_disabled":false,"rental_uris":{"android":"levelo://app?vid=85b15a54-24f0-46bd-8c62-9362ae406c29","ios":"levelo://app?vid=85b15a54-24f0-46bd-8c62-9362ae406c29"},"vehicle_type_id":"4","last_reported":1722532057,"current_range_meters":24800,"station_id":"ce4bhbh2rcd13ifvqepg","pricing_plan_id":"cebpf4jnsgd1na2vs0mg"},{"bike_id":"14996675-10df-448f-ba49-222685e28758","system_id":"levelo_inurba_marseille","lat":43.28418,"lon":5.349913,"is_reserved":false,"is_disabled":false,"rental_uris":{"android":"levelo://app?vid=14996675-10df-448f-ba49-222685e28758","ios":"levelo://app?vid=14996675-10df-448f-ba49-222685e28758"},"vehicle_type_id":"4","last_reported":1722532057,"current_range_meters":0,"station_id":"ce4bhbh2rcd13ifvqepg","pricing_plan_id":"cebpf4jnsgd1na2vs0mg"},{"bike_id":"68e07c9c-c042-4266-8b6d-2046b4c8e958","system_id":"levelo_inurba_marseille","lat":43.28415,"lon":5.35,"is_reserved":false,"is_disabled":false,"rental_uris":{"android":"levelo://app?vid=68e07c9c-c042-4266-8b6d-2046b4c8e958","ios":"levelo://app?vid=68e07c9c-c042-4266-8b6d-2046b4c8e958"},"vehicle_type_id":"4","last_reported":1722532057,"current_range_meters":13600,"station_id":"ce4bhbh2rcd13ifvqepg","pricing_plan_id":"cebpf4jnsgd1na2vs0mg"},{"bike_id":"a81340af-ccb4-4d69-a6ae-6be4c72c0cc9","system_id":"levelo_inurba_marseille","lat":43.28419,"lon":5.349841,"is_reserved":false,"is_disabled":false,"rental_uris":{"android":"levelo://app?vid=a81340af-ccb4-4d69-a6ae-6be4c72c0cc9","ios":"levelo://app?vid=a81340af-ccb4-4d69-a6ae-6be4c72c0cc9"},"vehicle_type_id":"4","last_reported":1722532057,"current_range_meters":12800,"station_id":"ce4bhbh2rcd13ifvqepg","pricing_plan_id":"cebpf4jnsgd1na2vs0mg"},{"bike_id":"a1c69f7e-0dce-4be5-87bd-9769fdd1d5e2","system_id":"levelo_inurba_marseille","lat":43.284217,"lon":5.349697,"is_reserved":false,"is_disabled":false,"rental_uris":{"android":"levelo://app?vid=a1c69f7e-0dce-4be5-87bd-9769fdd1d5e2","ios":"levelo://app?vid=a1c69f7e-0dce-4be5-87bd-9769fdd1d5e2"},"vehicle_type_id":"4","last_reported":1722532057,"current_range_meters":12000,"station_id":"ce4bhbh2rcd13ifvqepg","pricing_plan_id":"cebpf4jnsgd1na2vs0mg"},{"bike_id":"acaa0f66-65e1-4e47-94cf-1fe53ebf58dc","system_id":"levelo_inurba_marseille","lat":43.28415,"lon":5.34992,"is_reserved":false,"is_disabled":false,"rental_uris":{"android":"levelo://app?vid=acaa0f66-65e1-4e47-94cf-1fe53ebf58dc","ios":"levelo://app?vid=acaa0f66-65e1-4e47-94cf-1fe53ebf58dc"},"vehicle_type_id":"4","last_reported":1722532057,"current_range_meters":16000,"station_id":"ce4bhbh2rcd13ifvqepg","pricing_plan_id":"cebpf4jnsgd1na2vs0mg"},{"bike_id":"d4459111-1da7-4016-8a1d-d117cb566bca","system_id":"levelo_inurba_marseille","lat":43.28414,"lon":5.34994,"is_reserved":false,"is_disabled":false,"rental_uris":{"android":"levelo://app?vid=d4459111-1da7-4016-8a1d-d117cb566bca","ios":"levelo://app?vid=d4459111-1da7-4016-8a1d-d117cb566bca"},"vehicle_type_id":"4","last_reported":1722532057,"current_range_meters":24800,"station_id":"ce4bhbh2rcd13ifvqepg","pricing_plan_id":"cebpf4jnsgd1na2vs0mg"},{"bike_id":"30a1ce5b-cd4b-4a21-b104-4ffae8f568d4","system_id":"levelo_inurba_marseille","lat":43.28413,"lon":5.34996,"is_reserved":false,"is_disabled":false,"rental_uris":{"android":"levelo://app?vid=30a1ce5b-cd4b-4a21-b104-4ffae8f568d4","ios":"levelo://app?vid=30a1ce5b-cd4b-4a21-b104-4ffae8f568d4"},"vehicle_type_id":"4","last_reported":1722532057,"current_range_meters":26000,"station_id":"ce4bhbh2rcd13ifvqepg","pricing_plan_id":"cebpf4jnsgd1na2vs0mg"},{"bike_id":"6adaa006-f519-4e7b-a441-e07e21ad8aa3","system_id":"levelo_inurba_marseille","lat":43.284219,"lon":5.3497,"is_reserved":false,"is_disabled":false,"rental_uris":{"android":"levelo://app?vid=6adaa006-f519-4e7b-a441-e07e21ad8aa3","ios":"levelo://app?vid=6adaa006-f519-4e7b-a441-e07e21ad8aa3"},"vehicle_type_id":"4","last_reported":1722532057,"current_range_meters":16000,"station_id":"ce4bhbh2rcd13ifvqepg","pricing_plan_id":"cebpf4jnsgd1na2vs0mg"},{"bike_id":"d73fe8e6-4238-4120-80c9-cf89f85011b3","system_id":"levelo_inurba_marseille","lat":43.284219,"lon":5.3497,"is_reserved":false,"is_disabled":false,"rental_uris":{"android":"levelo://app?vid=d73fe8e6-4238-4120-80c9-cf89f85011b3","ios":"levelo://app?vid=d73fe8e6-4238-4120-80c9-cf89f85011b3"},"vehicle_type_id":"4","last_reported":1722532057,"current_range_meters":23200,"station_id":"ce4bhbh2rcd13ifvqepg","pricing_plan_id":"cebpf4jnsgd1na2vs0mg"},{"bike_id":"45d3189d-32fe-498e-9e63-a8304b60622f","system_id":"levelo_inurba_marseille","lat":43.284219,"lon":5.3497,"is_reserved":false,"is_disabled":false,"rental_uris":{"android":"levelo://app?vid=45d3189d-32fe-498e-9e63-a8304b60622f","ios":"levelo://app?vid=45d3189d-32fe-498e-9e63-a8304b60622f"},"vehicle_type_id":"4","last_reported":1722532057,"current_range_meters":19200,"station_id":"ce4bhbh2rcd13ifvqepg","pricing_plan_id":"cebpf4jnsgd1na2vs0mg"},{"bike_id":"b693cdd7-b85d-4760-801e-f2d39dd28aca","system_id":"levelo_inurba_marseille","lat":43.284219,"lon":5.3497,"is_reserved":false,"is_disabled":false,"rental_uris":{"android":"levelo://app?vid=b693cdd7-b85d-4760-801e-f2d39dd28aca","ios":"levelo://app?vid=b693cdd7-b85d-4760-801e-f2d39dd28aca"},"vehicle_type_id":"4","last_reported":1722532057,"current_range_meters":21600,"station_id":"ce4bhbh2rcd13ifvqepg","pricing_plan_id":"cebpf4jnsgd1na2vs0mg"},{"bike_id":"0f32dc83-a85e-4fbb-9397-dfd7e78db649","system_id":"levelo_inurba_marseille","lat":43.284217,"lon":5.349697,"is_reserved":false,"is_disabled":false,"rental_uris":{"android":"levelo://app?vid=0f32dc83-a85e-4fbb-9397-dfd7e78db649","ios":"levelo://app?vid=0f32dc83-a85e-4fbb-9397-dfd7e78db649"},"vehicle_type_id":"4","last_reported":1722532057,"current_range_meters":3600,"station_id":"ce4bhbh2rcd13ifvqepg","pricing_plan_id":"cebpf4jnsgd1na2vs0mg"},{"bike_id":"952349aa-4b58-44c2-be0b-7db74aa4a9ba","system_id":"levelo_inurba_marseille","lat":43.284217,"lon":5.349697,"is_reserved":false,"is_disabled":false,"rental_uris":{"android":"levelo://app?vid=952349aa-4b58-44c2-be0b-7db74aa4a9ba","ios":"levelo://app?vid=952349aa-4b58-44c2-be0b-7db74aa4a9ba"},"vehicle_type_id":"4","last_reported":1722532057,"current_range_meters":14400,"station_id":"ce4bhbh2rcd13ifvqepg","pricing_plan_id":"cebpf4jnsgd1na2vs0mg"},{"bike_id":"8cf75ee8-0b09-4248-a42a-b17fa1cd08ad","system_id":"levelo_inurba_marseille","lat":43.28411,"lon":5.34997,"is_reserved":false,"is_disabled":false,"rental_uris":{"android":"levelo://app?vid=8cf75ee8-0b09-4248-a42a-b17fa1cd08ad","ios":"levelo://app?vid=8cf75ee8-0b09-4248-a42a-b17fa1cd08ad"},"vehicle_type_id":"4","last_reported":1722532057,"current_range_meters":15600,"station_id":"ce4bhbh2rcd13ifvqepg","pricing_plan_id":"cebpf4jnsgd1na2vs0mg"},{"bike_id":"7acf218d-2b8c-4f26-b1f8-4a73f0ca1887","system_id":"levelo_inurba_marseille","lat":43.284219,"lon":5.3497,"is_reserved":false,"is_disabled":false,"rental_uris":{"android":"levelo://app?vid=7acf218d-2b8c-4f26-b1f8-4a73f0ca1887","ios":"levelo://app?vid=7acf218d-2b8c-4f26-b1f8-4a73f0ca1887"},"vehicle_type_id":"4","last_reported":1722532057,"current_range_meters":0,"station_id":"ce4bhbh2rcd13ifvqepg","pricing_plan_id":"cebpf4jnsgd1na2vs0mg"},{"bike_id":"c17373e1-279c-4075-9645-e9169c94bb41","system_id":"levelo_inurba_marseille","lat":43.284217,"lon":5.349697,"is_reserved":false,"is_disabled":false,"rental_uris":{"android":"levelo://app?vid=c17373e1-279c-4075-9645-e9169c94bb41","ios":"levelo://app?vid=c17373e1-279c-4075-9645-e9169c94bb41"},"vehicle_type_id":"4","last_reported":1722532057,"current_range_meters":12400,"station_id":"ce4bhbh2rcd13ifvqepg","pricing_plan_id":"cebpf4jnsgd1na2vs0mg"},{"bike_id":"ebd06811-ecbf-4734-a8be-7464df3f2bbd","system_id":"levelo_inurba_marseille","lat":43.28413,"lon":5.34986,"is_reserved":false,"is_disabled":false,"rental_uris":{"android":"levelo://app?vid=ebd06811-ecbf-4734-a8be-7464df3f2bbd","ios":"levelo://app?vid=ebd06811-ecbf-4734-a8be-7464df3f2bbd"},"vehicle_type_id":"4","last_reported":1722532057,"current_range_meters":18800,"station_id":"ce4bhbh2rcd13ifvqepg","pricing_plan_id":"cebpf4jnsgd1na2vs0mg"},{"bike_id":"ac682351-1799-451e-945c-f1999410f99f","system_id":"levelo_inurba_marseille","lat":43.2841,"lon":5.34991,"is_reserved":false,"is_disabled":false,"rental_uris":{"android":"levelo://app?vid=ac682351-1799-451e-945c-f1999410f99f","ios":"levelo://app?vid=ac682351-1799-451e-945c-f1999410f99f"},"vehicle_type_id":"4","last_reported":1722532057,"current_range_meters":28400,"station_id":"ce4bhbh2rcd13ifvqepg","pricing_plan_id":"cebpf4jnsgd1na2vs0mg"},{"bike_id":"5b9d3333-e497-4156-b9db-86eb325bc86b","system_id":"levelo_inurba_marseille","lat":43.28413,"lon":5.3498,"is_reserved":false,"is_disabled":false,"rental_uris":{"android":"levelo://app?vid=5b9d3333-e497-4156-b9db-86eb325bc86b","ios":"levelo://app?vid=5b9d3333-e497-4156-b9db-86eb325bc86b"},"vehicle_type_id":"4","last_reported":1722532057,"current_range_meters":29200,"station_id":"ce4bhbh2rcd13ifvqepg","pricing_plan_id":"cebpf4jnsgd1na2vs0mg"},{"bike_id":"308d8330-18cb-4467-b0c9-38f2a5cece32","system_id":"levelo_inurba_marseille","lat":43.28409,"lon":5.34991,"is_reserved":false,"is_disabled":false,"rental_uris":{"android":"levelo://app?vid=308d8330-18cb-4467-b0c9-38f2a5cece32","ios":"levelo://app?vid=308d8330-18cb-4467-b0c9-38f2a5cece32"},"vehicle_type_id":"4","last_reported":1722532057,"current_range_meters":18800,"station_id":"ce4bhbh2rcd13ifvqepg","pricing_plan_id":"cebpf4jnsgd1na2vs0mg"},{"bike_id":"7dd9fa5e-9685-41b6-b981-9290722a733b","system_id":"levelo_inurba_marseille","lat":43.28412,"lon":5.3498,"is_reserved":false,"is_disabled":false,"rental_uris":{"android":"levelo://app?vid=7dd9fa5e-9685-41b6-b981-9290722a733b","ios":"levelo://app?vid=7dd9fa5e-9685-41b6-b981-9290722a733b"},"vehicle_type_id":"4","last_reported":1722532057,"current_range_meters":30800,"station_id":"ce4bhbh2rcd13ifvqepg","pricing_plan_id":"cebpf4jnsgd1na2vs0mg"},{"bike_id":"72227a51-9c11-4c6f-a276-0b6e82527858","system_id":"levelo_inurba_marseille","lat":43.2841,"lon":5.34986,"is_reserved":false,"is_disabled":false,"rental_uris":{"android":"levelo://app?vid=72227a51-9c11-4c6f-a276-0b6e82527858","ios":"levelo://app?vid=72227a51-9c11-4c6f-a276-0b6e82527858"},"vehicle_type_id":"4","last_reported":1722532057,"current_range_meters":9200,"station_id":"ce4bhbh2rcd13ifvqepg","pricing_plan_id":"cebpf4jnsgd1na2vs0mg"},