{"last_updated":1691852730,"ttl":30,"version":"2.2","data":{"bikes":[{"bike_id":"ef0697ec-06d4-43d8-94e3-77dcb21b2e89","system_id":"levelo_inurba_marseille","lat":43.312239,"lon":5.368562,"is_reserved":false,"is_disabled":false,"rental_uris":{"android":"levelo://app?vid=ef0697ec-06d4-43d8-94e3-77dcb21b2e89","ios":"levelo://app?vid=ef0697ec-06d4-43d8-94e3-77dcb21b2e89"},"vehicle_type_id":"4","last_reported":1691852731,"current_range_meters":30400,"station_id":"ce4bgl92rcd13ifvqbq0","pricing_plan_id":"free"},{"bike_id":"bf0103a3-b558-41e5-ab8a-609b3ea34739","system_id":"levelo_inurba_marseille","lat":43.312239,"lon":5.368562,"is_reserved":false,"is_disabled":false,"rental_uris":{"android":"levelo://app?vid=bf0103a3-b558-41e5-ab8a-609b3ea34739","ios":"levelo://app?vid=bf0103a3-b558-41e5-ab8a-609b3ea34739"},"vehicle_type_id":"4","last_reported":1691852731,"current_range_meters":16000,"station_id":"ce4bgl92rcd13ifvqbq0","pricing_plan_id":"free"},{"bike_id":"2efb581d-09e9-4c06-99e7-56b890c1d66f","system_id":"levelo_inurba_marseille","lat":43.314811,"lon":5.373104,"is_reserved":false,"is_disabled":false,"rental_uris":{"android":"levelo://app?vid=2efb581d-09e9-4c06-99e7-56b890c1d66f","ios":"levelo://app?vid=2efb581d-09e9-4c06-99e7-56b890c1d66f"},"vehicle_type_id":"4","last_reported":1691852731,"current_range_meters":28800,"station_id":"ce4bgt12rcd13ifvqcd0","pricing_plan_id":"free"},{"bike_id":"356a7430-74dd-40f3-ae91-cf93e828c5d6","system_id":"levelo_inurba_marseille","lat":43.30537,"lon":5.367345,"is_reserved":false,"is_disabled":false,"rental_uris":{"android":"levelo://app?vid=356a7430-74dd-40f3-ae91-cf93e828c5d6","ios":"levelo://app?vid=356a7430-74dd-40f3-ae91-cf93e828c5d6"},"vehicle_type_id":"4","last_reported":1691852731,"current_range_meters":400,"station_id":"ce4bgrp2rcd13ifvqc9g","pricing_plan_id":"free"},{"bike_id":"69e5a5b1-6252-478e-b51d-8eb1f2200fdd","system_id":"levelo_inurba_marseille","lat":43.305714,"lon":5.365633,"is_reserved":false,"is_disabled":false,"rental_uris":{"android":"levelo://app?vid=69e5a5b1-6252-478e-b51d-8eb1f2200fdd","ios":"levelo://app?vid=69e5a5b1-6252-478e-b51d-8eb1f2200fdd"},"vehicle_type_id":"4","last_reported":1691852731,"current_range_meters":18400,"station_id":"ce4bgs12rcd13ifvqcag","pricing_plan_id":"free"},{"bike_id":"ff605b3d-96b4-4b69-abbc-11704e980145","system_id":"levelo_inurba_marseille","lat":43.305714,"lon":5.365633,"is_reserved":false,"is_disabled":false,"rental_uris":{"android":"levelo://app?vid=ff605b3d-96b4-4b69-abbc-11704e980145","ios":"levelo://app?vid=ff605b3d-96b4-4b69-abbc-11704e980145"},"vehicle_type_id":"4","last_reported":1691852731,"current_range_meters":15600,"station_id":"ce4bgs12rcd13ifvqcag","pricing_plan_id":"free"},{"bike_id":"a9de4e20-fd7c-4bb1-bb43-82a0bc135b4d","system_id":"levelo_inurba_marseille","lat":43.311131,"lon":5.377651,"is_reserved":false,"is_disabled":false,"rental_uris":{"android":"levelo://app?vid=a9de4e20-fd7c-4bb1-bb43-82a0bc135b4d","ios":"levelo://app?vid=a9de4e20-fd7c-4bb1-bb43-82a0bc135b4d"},"vehicle_type_id":"4","last_reported":1691852731,"current_range_meters":3600,"station_id":"ce4bgt92rcd13ifvqcg0","pricing_plan_id":"free"},{"bike_id":"6c5a54cc-4493-46bf-a0e0-eac21692e26d","system_id":"levelo_inurba_marseille","lat":43.307945,"lon":5.376487,"is_reserved":false,"is_disabled":false,"rental_uris":{"android":"levelo://app?vid=6c5a54cc-4493-46bf-a0e0-eac21692e26d","ios":"levelo://app?vid=6c5a54cc-4493-46bf-a0e0-eac21692e26d"},"vehicle_type_id":"4","last_reported":1691852731,"current_range_meters":15600,"station_id":"ce4bgv92rcd13ifvqcq0","pricing_plan_id":"free"},{"bike_id":"462961a6-89d3-4983-b875-70d5727c86eb","system_id":"levelo_inurba_marseille","lat":43.317075,"lon":5.377367,"is_reserved":false,"is_disabled":false,"rental_uris":{"android":"levelo://app?vid=462961a6-89d3-4983-b875-70d5727c86eb","ios":"levelo://app?vid=462961a6-89d3-4983-b875-70d5727c86eb"},"vehicle_type_id":"4","last_reported":1691852731,"current_range_meters":28000,"station_id":"ce4bgth2rcd13ifvqch0","pricing_plan_id":"free"},{"bike_id":"d5cba295-73f4-48b8-8c0b-b0b5a0f3ac87","system_id":"levelo_inurba_marseille","lat":43.31532,"lon":5.38034,"is_reserved":false,"is_disabled":false,"rental_uris":{"android":"levelo://app?vid=d5cba295-73f4-48b8-8c0b-b0b5a0f3ac87","ios":"levelo://app?vid=d5cba295-73f4-48b8-8c0b-b0b5a0f3ac87"},"vehicle_type_id":"4","last_reported":1691852731,"current_range_meters":25200,"station_id":"ce4bhsp2rcd13ifvqi50","pricing_plan_id":"free"},{"bike_id":"e8d9c612-9cf6-4461-87b5-3d23335e0187","system_id":"levelo_inurba_marseille","lat":43.301892,"lon":5.36626,"is_reserved":false,"is_disabled":false,"rental_uris":{"android":"levelo://app?vid=e8d9c612-9cf6-4461-87b5-3d23335e0187","ios":"levelo://app?vid=e8d9c612-9cf6-4461-87b5-3d23335e0187"},"vehicle_type_id":"4","last_reported":1691852731,"current_range_meters":26400,"station_id":"ce4bgrh2rcd13ifvqc8g","pricing_plan_id":"free"},{"bike_id":"6b1e6f4a-d1fe-453f-ae3c-8b27f1a75abb","system_id":"levelo_inurba_marseille","lat":43.30797,"lon":5.38169,"is_reserved":false,"is_disabled":false,"rental_uris":{"android":"levelo://app?vid=6b1e6f4a-d1fe-453f-ae3c-8b27f1a75abb","ios":"levelo://app?vid=6b1e6f4a-d1fe-453f-ae3c-8b27f1a75abb"},"vehicle_type_id":"4","last_reported":1691852731,"current_range_meters":22000,"station_id":"ce4bgt12rcd13ifvqce0","pricing_plan_id":"free"},{"bike_id":"4ffda5dc-5c1f-4d76-a019-d0ad35dc32b8","system_id":"levelo_inurba_marseille","lat":43.29943,"lon":5.36558,"is_reserved":false,"is_disabled":false,"rental_uris":{"android":"levelo://app?vid=4ffda5dc-5c1f-4d76-a019-d0ad35dc32b8","ios":"levelo://app?vid=4ffda5dc-5c1f-4d76-a019-d0ad35dc32b8"},"vehicle_type_id":"4","last_reported":1691852731,"current_range_meters":18000,"station_id":"ce4bgm92rcd13ifvqbr0","pricing_plan_id":"free"},{"bike_id":"642dd719-026e-4638-9c24-399b622f7d5b","system_id":"levelo_inurba_marseille","lat":43.299855,"lon":5.371772,"is_reserved":false,"is_disabled":false,"rental_uris":{"android":"levelo://app?vid=642dd719-026e-4638-9c24-399b622f7d5b","ios":"levelo://app?vid=642dd719-026e-4638-9c24-399b622f7d5b"},"vehicle_type_id":"4","last_reported":1691852731,"current_range_meters":14800,"station_id":"","pricing_plan_id":"free"},{"bike_id":"0f81fc88-48f0-416d-90ee-7ed524e4dcff","system_id":"levelo_inurba_marseille","lat":43.299724,"lon":5.371829,"is_reserved":false,"is_disabled":false,"rental_uris":{"android":"levelo://app?vid=0f81fc88-48f0-416d-90ee-7ed524e4dcff","ios":"levelo://app?vid=0f81fc88-48f0-416d-90ee-7ed524e4dcff"},"vehicle_type_id":"4","last_reported":1691852731,"current_range_meters":18800,"station_id":"ce4bgr92rcd13ifvqc7g","pricing_plan_id":"free"},{"bike_id":"ef2ba257-3557-442f-b1ef-1697595631a9","system_id":"levelo_inurba_marseille","lat":43.299222,"lon":5.365554,"is_reserved":false,"is_disabled":false,"rental_uris":{"android":"levelo://app?vid=ef2ba257-3557-442f-b1ef-1697595631a9","ios":"levelo://app?vid=ef2ba257-3557-442f-b1ef-1697595631a9"},"vehicle_type_id":"4","last_reported":1691852731,"current_range_meters":5200,"station_id":"ce4bgm92rcd13ifvqbr0","pricing_plan_id":"free"},{"bike_id":"32a5240e-62a7-4044-b25c-6f65f0d2816c","system_id":"levelo_inurba_marseille","lat":43.299724,"lon":5.371829,"is_reserved":false,"is_disabled":false,"rental_uris":{"android":"levelo://app?vid=32a5240e-62a7-4044-b25c-6f65f0d2816c","ios":"levelo://app?vid=32a5240e-62a7-4044-b25c-6f65f0d2816c"},"vehicle_type_id":"4","last_reported":1691852731,"current_range_meters":12400,"station_id":"ce4bgr92rcd13ifvqc7g","pricing_plan_id":"free"},{"bike_id":"b1ea3f89-aa83-437e-be96-c29a4c442b20","system_id":"levelo_inurba_marseille","lat":43.31054,"lon":5.38632,"is_reserved":false,"is_disabled":false,"rental_uris":{"android":"levelo://app?vid=b1ea3f89-aa83-437e-be96-c29a4c442b20","ios":"levelo://app?vid=b1ea3f89-aa83-437e-be96-c29a4c442b20"},"vehicle_type_id":"4","last_reported":1691852731,"current_range_meters":4400,"station_id":"","pricing_plan_id":"free"},{"bike_id":"67a65efe-e1d8-4652-a794-c2a567eff3a0","system_id":"levelo_inurba_marseille","lat":43.2993,"lon":5.3746,"is_reserved":false,"is_disabled":false,"rental_uris":{"android":"levelo://app?vid=67a65efe-e1d8-4652-a794-c2a567eff3a0","ios":"levelo://app?vid=67a65efe-e1d8-4652-a794-c2a567eff3a0"},"vehicle_type_id":"4","last_reported":1691852731,"current_range_meters":18400,"station_id":"ce4bgjh2rcd13ifvqbg0","pricing_plan_id":"free"},{"bike_id":"57158075-eba2-4468-b803-61e67dc4bd22","system_id":"levelo_inurba_marseille","lat":43.298433,"lon":5.362774,"is_reserved":false,"is_disabled":false,"rental_uris":{"android":"levelo://app?vid=57158075-eba2-4468-b803-61e67dc4bd22","ios":"levelo://app?vid=57158075-eba2-4468-b803-61e67dc4bd22"},"vehicle_type_id":"4","last_reported":1691852731,"current_range_meters":17600,"station_id":"ce4bgpp2rcd13ifvqc3g","pricing_plan_id":"free"},{"bike_id":"cacff031-6c7a-4ede-865b-af29882bdb85","system_id":"levelo_inurba_marseille","lat":43.298433,"lon":5.362774,"is_reserved":false,"is_disabled":false,"rental_uris":{"android":"levelo://app?vid=cacff031-6c7a-4ede-865b-af29882bdb85","ios":"levelo://app?vid=cacff031-6c7a-4ede-865b-af29882bdb85"},"vehicle_type_id":"4","last_reported":1691852731,"current_range_meters":0,"station_id":"ce4bgpp2rcd13ifvqc3g","pricing_plan_id":"free"},{"bike_id":"60c5fe17-aedd-4023-83a3-2748b79a2e6c","system_id":"levelo_inurba_marseille","lat":43.31175,"lon":5.38708,"is_reserved":false,"is_disabled":false,"rental_uris":{"android":"levelo://app?vid=60c5fe17-aedd-4023-83a3-2748b79a2e6c","ios":"levelo://app?vid=60c5fe17-aedd-4023-83a3-2748b79a2e6c"},"vehicle_type_id":"4","last_reported":1691852731,"current_range_meters":26800,"station_id":"ce4bgv12rcd13ifvqcp0","pricing_plan_id":"free"},{"bike_id":"026ee3db-f828-4ad6-9e78-43e60a812318","system_id":"levelo_inurba_marseille","lat":43.32285,"lon":5.38262,"is_reserved":false,"is_disabled":false,"rental_uris":{"android":"levelo://app?vid=026ee3db-f828-4ad6-9e78-43e60a812318","ios":"levelo://app?vid=026ee3db-f828-4ad6-9e78-43e60a812318"},"vehicle_type_id":"4","last_reported":1691852731,"current_range_meters":20000,"station_id":"ce4bhr12rcd13ifvqhqg","pricing_plan_id":"free"},{"bike_id":"2a877c10-47b3-4336-884b-4186f2d4f096","system_id":"levelo_inurba_marseille","lat":43.32293,"lon":5.38264,"is_reserved":false,"is_disabled":false,"rental_uris":{"android":"levelo://app?vid=2a877c10-47b3-4336-884b-4186f2d4f096","ios":"levelo://app?vid=2a877c10-47b3-4336-884b-4186f2d4f096"},"vehicle_type_id":"4","last_reported":1691852731,"current_range_meters":14400,"station_id":"ce4bhr12rcd13ifvqhqg","pricing_plan_id":"free"},{"bike_id":"3d75ec31-9bc5-447c-81ba-d21539df621f","system_id":"levelo_inurba_marseille","lat":43.32294,"lon":5.38263,"is_reserved":false,"is_disabled":false,"rental_uris":{"android":"levelo://app?vid=3d75ec31-9bc5-447c-81ba-d21539df621f","ios":"levelo://app?vid=3d75ec31-9bc5-447c-81ba-d21539df621f"},"vehicle_type_id":"4","last_reported":1691852731,"current_range_meters":10000,"station_id":"ce4bhr12rcd13ifvqhqg","pricing_plan_id":"free"},{"bike_id":"2e341b8a-19ca-467a-9062-4e524deac17d","system_id":"levelo_inurba_marseille","lat":43.32292,"lon":5.38266,"is_reserved":false,"is_disabled":false,"rental_uris":{"android":"levelo://app?vid=2e341b8a-19ca-467a-9062-4e524deac17d","ios":"levelo://app?vid=2e341b8a-19ca-467a-9062-4e524deac17d"},"vehicle_type_id":"4","last_reported":1691852731,"current_range_meters":28000,"station_id":"ce4bhr12rcd13ifvqhqg","pricing_plan_id":"free"},{"bike_id":"daf1c66e-67e4-446b-ab69-51ad2a5f2181","system_id":"levelo_inurba_marseille","lat":43.322872,"lon":5.382756,"is_reserved":false,"is_disabled":false,"rental_uris":{"android":"levelo://app?vid=daf1c66e-67e4-446b-ab69-51ad2a5f2181","ios":"levelo://app?vid=daf1c66e-67e4-446b-ab69-51ad2a5f2181"},"vehicle_type_id":"4","last_reported":1691852731,"current_range_meters":26000,"station_id":"ce4bhr12rcd13ifvqhqg","pricing_plan_id":"free"},{"bike_id":"63b63e6c-c5a9-49f5-8d21-3106e36d3542","system_id":"levelo_inurba_marseille","lat":43.32288,"lon":5.38272,"is_reserved":false,"is_disabled":false,"rental_uris":{"android":"levelo://app?vid=63b63e6c-c5a9-49f5-8d21-3106e36d3542","ios":"levelo://app?vid=63b63e6c-c5a9-49f5-8d21-3106e36d3542"},"vehicle_type_id":"4","last_reported":1691852731,"current_range_meters":25200,"station_id":"ce4bhr12rcd13ifvqhqg","pricing_plan_id":"free"},{"bike_id":"5cef4262-f054-4974-9121-fc3d341ebbb0","system_id":"levelo_inurba_marseille","lat":43.32292,"lon":5.38268,"is_reserved":false,"is_disabled":false,"rental_uris":{"android":"levelo://app?vid=5cef4262-f054-4974-9121-fc3d341ebbb0","ios":"levelo://app?vid=5cef4262-f054-4974-9121-fc3d341ebbb0"},"vehicle_type_id":"4","last_reported":1691852731,"current_range_meters":13200,"station_id":"ce4bhr12rcd13ifvqhqg","pricing_plan_id":"free"},{"bike_id":"ccde4fab-a619-4b85-80d1-631ae22c1186","system_id":"levelo_inurba_marseille","lat":43.32284,"lon":5.38279,"is_reserved":false,"is_disabled":false,"rental_uris":{"android":"levelo://app?vid=ccde4fab-a619-4b85-80d1-631ae22c1186","ios":"levelo://app?vid=ccde4fab-a619-4b85-80d1-631ae22c1186"},"vehicle_type_id":"4","last_reported":1691852731,"current_range_meters":18800,"station_id":"ce4bhr12rcd13ifvqhqg","pricing_plan_id":"free"},{"bike_id":"34544adb-53d3-44b1-86f1-bb8bc7dbf546","system_id":"levelo_inurba_marseille","lat":43.32289,"lon":5.38275,"is_reserved":false,"is_disabled":false,"rental_uris":{"android":"levelo://app?vid=34544adb-53d3-44b1-86f1-bb8bc7dbf546","ios":"levelo://app?vid=34544adb-53d3-44b1-86f1-bb8bc7dbf546"},"vehicle_type_id":"4","last_reported":1691852731,"current_range_meters":24800,"station_id":"ce4bhr12rcd13ifvqhqg","pricing_plan_id":"free"},{"bike_id":"1b203c54-0be7-49b8-a54f-17ca79a8f7f4","system_id":"levelo_inurba_marseille","lat":43.32291,"lon":5.38273,"is_reserved":false,"is_disabled":false,"rental_uris":{"android":"levelo://app?vid=1b203c54-0be7-49b8-a54f-17ca79a8f7f4","ios":"levelo://app?vid=1b203c54-0be7-49b8-a54f-17ca79a8f7f4"},"vehicle_type_id":"4","last_reported":1691852731,"current_range_meters":20800,"station_id":"ce4bhr12rcd13ifvqhqg","pricing_plan_id":"free"},{"bike_id":"cbdb1e2e-23aa-4305-8e8f-f1f9efca0a4f","system_id":"levelo_inurba_marseille","lat":43.32286,"lon":5.3828,"is_reserved":false,"is_disabled":false,"rental_uris":{"android":"levelo://app?vid=cbdb1e2e-23aa-4305-8e8f-f1f9efca0a4f","ios":"levelo://app?vid=cbdb1e2e-23aa-4305-8e8f-f1f9efca0a4f"},"vehicle_type_id":"4","last_reported":1691852731,"current_range_meters":22800,"station_id":"ce4bhr12rcd13ifvqhqg","pricing_plan_id":"free"},{"bike_id":"454e4186-321d-4414-91ad-51d1deee69be","system_id":"levelo_inurba_marseille","lat":43.3229,"lon":5.38284,"is_reserved":false,"is_disabled":false,"rental_uris":{"android":"levelo://app?vid=454e4186-321d-4414-91ad-51d1deee69be","ios":"levelo://app?vid=454e4186-321d-4414-91ad-51d1deee69be"},"vehicle_type_id":"4","last_reported":1691852731,"current_range_meters":29200,"station_id":"ce4bhr12rcd13ifvqhqg","pricing_plan_id":"free"},{"bike_id":"4c0051b2-93b8-4cc5-a80a-2595421ac1f5","system_id":"levelo_inurba_marseille","lat":43.32292,"lon":5.38282,"is_reserved":false,"is_disabled":false,"rental_uris":{"android":"levelo://app?vid=4c0051b2-93b8-4cc5-a80a-2595421ac1f5","ios":"levelo://app?vid=4c0051b2-93b8-4cc5-a80a-2595421ac1f5"},"vehicle_type_id":"4","last_reported":1691852731,"current_range_meters":25200,"station_id":"ce4bhr12rcd13ifvqhqg","pricing_plan_id":"free"},{"bike_id":"193c3d0f-7ede-4206-9ba9-7579686bfe42","system_id":"levelo_inurba_marseille","lat":43.328328,"lon":5.36683,"is_reserved":false,"is_disabled":false,"rental_uris":{"android":"levelo://app?vid=193c3d0f-7ede-4206-9ba9-7579686bfe42","ios":"levelo://app?vid=193c3d0f-7ede-4206-9ba9-7579686bfe42"},"vehicle_type_id":"4","last_reported":1691852731,"current_range_meters":17200,"station_id":"ce4bhs92rcd13ifvqi0g","pricing_plan_id":"free"},{"bike_id":"dd789220-e7b5-42c1-b9dc-dc4243148021","system_id":"levelo_inurba_marseille","lat":43.297163,"lon":5.365866,"is_reserved":false,"is_disabled":false,"rental_uris":{"android":"levelo://app?vid=dd789220-e7b5-42c1-b9dc-dc4243148021","ios":"levelo://app?vid=dd789220-e7b5-42c1-b9dc-dc4243148021"},"vehicle_type_id":"4","last_reported":1691852731,"current_range_meters":31200,"station_id":"ce4bgn12rcd13ifvqbt0","pricing_plan_id":"free"},{"bike_id":"e63dbc11-2b0b-4f1a-a4ad-0711cf06fafe","system_id":"levelo_inurba_marseille","lat":43.297163,"lon":5.365866,"is_reserved":false,"is_disabled":false,"rental_uris":{"android":"levelo://app?vid=e63dbc11-2b0b-4f1a-a4ad-0711cf06fafe","ios":"levelo://app?vid=e63dbc11-2b0b-4f1a-a4ad-0711cf06fafe"},"vehicle_type_id":"4","last_reported":1691852731,"current_range_meters":5200,"station_id":"ce4bgn12rcd13ifvqbt0","pricing_plan_id":"free"},{"bike_id":"b428ddc8-83c6-453c-b5dd-cb14751b674f","system_id":"levelo_inurba_marseille","lat":43.29694,"lon":5.36954,"is_reserved":false,"is_disabled":false,"rental_uris":{"android":"levelo://app?vid=b428ddc8-83c6-453c-b5dd-cb14751b674f","ios":"levelo://app?vid=b428ddc8-83c6-453c-b5dd-cb14751b674f"},"vehicle_type_id":"4","last_reported":1691852731,"current_range_meters":400,"station_id":"","pricing_plan_id":"free"},{"bike_id":"4546f8c1-0a9e-45be-b4bd-18c11f686c5c","system_id":"levelo_inurba_marseille","lat":43.29668,"lon":5.36562,"is_reserved":false,"is_disabled":false,"rental_uris":{"android":"levelo://app?vid=4546f8c1-0a9e-45be-b4bd-18c11f686c5c","ios":"levelo://app?vid=4546f8c1-0a9e-45be-b4bd-18c11f686c5c"},"vehicle_type_id":"4","last_reported":1691852731,"current_range_meters":2800,"station_id":"","pricing_plan_id":"free"},{"bike_id":"a3870066-e057-4c43-96f0-0adbc156e821","system_id":"levelo_inurba_marseille","lat":43.2968,"lon":5.37291,"is_reserved":false,"is_disabled":false,"rental_uris":{"android":"levelo://app?vid=a3870066-e057-4c43-96f0-0adbc156e821","ios":"levelo://app?vid=a3870066-e057-4c43-96f0-0adbc156e821"},"vehicle_type_id":"4","last_reported":1691852731,"current_range_meters":7200,"station_id":"ce4bgk12rcd13ifvqbj0","pricing_plan_id":"free"},{"bike_id":"99f15cc2-85d8-431d-b8f9-580b951d2494","system_id":"levelo_inurba_marseille","lat":43.296921,"lon":5.376579,"is_reserved":false,"is_disabled":false,"rental_uris":{"android":"levelo://app?vid=99f15cc2-85d8-431d-b8f9-580b951d2494","ios":"levelo://app?vid=99f15cc2-85d8-431d-b8f9-580b951d2494"},"vehicle_type_id":"4","last_reported":1691852731,"current_range_meters":15600,"station_id":"ce4bgkh2rcd13ifvqbl0","pricing_plan_id":"free"},{"bike_id":"69822f6c-803f-4b06-b861-0df3407f6868","system_id":"levelo_inurba_marseille","lat":43.29652,"lon":5.37491,"is_reserved":false,"is_disabled":false,"rental_uris":{"android":"levelo://app?vid=69822f6c-803f-4b06-b861-0df3407f6868","ios":"levelo://app?vid=69822f6c-803f-4b06-b861-0df3407f6868"},"vehicle_type_id":"4","last_reported":1691852731,"current_range_meters":400,"station_id":"","pricing_plan_id":"free"},{"bike_id":"4862ff5c-dd54-4882-a2eb-0b999def8199","system_id":"levelo_inurba_marseille","lat":43.309589,"lon":5.390258,"is_reserved":false,"is_disabled":false,"rental_uris":{"android":"levelo://app?vid=4862ff5c-dd54-4882-a2eb-0b999def8199","ios":"levelo://app?vid=4862ff5c-dd54-4882-a2eb-0b999def8199"},"vehicle_type_id":"4","last_reported":1691852731,"current_range_meters":31600,"station_id":"ce4bgup2rcd13ifvqco0","pricing_plan_id":"free"},{"bike_id":"76ff3b14-d346-4134-b772-5805eda4f7f2","system_id":"levelo_inurba_marseille","lat":43.31741,"lon":5.39033,"is_reserved":false,"is_disabled":false,"rental_uris":{"android":"levelo://app?vid=76ff3b14-d346-4134-b772-5805eda4f7f2","ios":"levelo://app?vid=76ff3b14-d346-4134-b772-5805eda4f7f2"},"vehicle_type_id":"4","last_reported":1691852731,"current_range_meters":28000,"station_id":"ce4bhqp2rcd13ifvqhng","pricing_plan_id":"free"},{"bike_id":"1162deaf-135f-473e-8fc9-120a73ed423e","system_id":"levelo_inurba_marseille","lat":43.284538,"lon":5.358657,"is_reserved":false,"is_disabled":false,"rental_uris":{"android":"levelo://app?vid=1162deaf-135f-473e-8fc9-120a73ed423e","ios":"levelo://app?vid=1162deaf-135f-473e-8fc9-120a73ed423e"},"vehicle_type_id":"4","last_reported":1691852731,"current_range_meters":800,"station_id":"ce4bhah2rcd13ifvqei0","pricing_plan_id":"free"},{"bike_id":"350824b2-e2bf-4778-a618-7ba4ab75c1a4","system_id":"levelo_inurba_marseille","lat":43.295748,"lon":5.37522,"is_reserved":false,"is_disabled":false,"rental_uris":{"android":"levelo://app?vid=350824b2-e2bf-4778-a618-7ba4ab75c1a4","ios":"levelo://app?vid=350824b2-e2bf-4778-a618-7ba4ab75c1a4"},"vehicle_type_id":"4","last_reported":1691852731,"current_range_meters":8800,"station_id":"ce4bgh92rcd13ifvqb50","pricing_plan_id":"free"},{"bike_id":"a4df99ce-0488-49dd-a888-94686f562e88","system_id":"levelo_inurba_marseille","lat":43.295748,"lon":5.37522,"is_reserved":false,"is_disabled":false,"rental_uris":{"android":"levelo://app?vid=a4df99ce-0488-49dd-a888-94686f562e88","ios":"levelo://app?vid=a4df99ce-0488-49dd-a888-94686f562e88"},"vehicle_type_id":"4","last_reported":1691852731,"current_range_meters":29600,"station_id":"ce4bgh92rcd13ifvqb50","pricing_plan_id":"free"},{"bike_id":"844f7f48-3a19-4311-af9e-8968eb20a96e","system_id":"levelo_inurba_marseille","lat":43.296263,"lon":5.377094,"is_reserved":false,"is_disabled":false,"rental_uris":{"android":"levelo://app?vid=844f7f48-3a19-4311-af9e-8968eb20a96e","ios":"levelo://app?vid=844f7f48-3a19-4311-af9e-8968eb20a96e"},"vehicle_type_id":"4","last_reported":1691852731,"current_range_meters":16000,"station_id":"ce4bgi92rcd13ifvqb90","pricing_plan_id":"free"},{"bike_id":"eb4c5bf1-946c-4e81-86a6-dee5ca644429","system_id":"levelo_inurba_marseille","lat":43.295279,"lon":5.375048,"is_reserved":false,"is_disabled":false,"rental_uris":{"android":"levelo://app?vid=eb4c5bf1-946c-4e81-86a6-dee5ca644429","ios":"levelo://app?vid=eb4c5bf1-946c-4e81-86a6-dee5ca644429"},"vehicle_type_id":"4","last_reported":1691852731,"current_range_meters":26800,"station_id":"ce4bgkp2rcd13ifvqbmg","pricing_plan_id":"free"},{"bike_id":"4f08bacf-187f-451c-8457-1e7f1de6cc0b","system_id":"levelo_inurba_marseille","lat":43.295279,"lon":5.375048,"is_reserved":false,"is_disabled":false,"rental_uris":{"android":"levelo://app?vid=4f08bacf-187f-451c-8457-1e7f1de6cc0b","ios":"levelo://app?vid=4f08bacf-187f-451c-8457-1e7f1de6cc0b"},"vehicle_type_id":"4","last_reported":1691852731,"current_range_meters":21600,"station_id":"ce4bgkp2rcd13ifvqbmg","pricing_plan_id":"free"},{"bike_id":"508c57a9-6bf6-4dda-94ba-4e5176d8c303","system_id":"levelo_inurba_marseille","lat":43.295279,"lon":5.375048,"is_reserved":false,"is_disabled":false,"rental_uris":{"android":"levelo://app?vid=508c57a9-6bf6-4dda-94ba-4e5176d8c303","ios":"levelo://app?vid=508c57a9-6bf6-4dda-94ba-4e5176d8c303"},"vehicle_type_id":"4","last_reported":1691852731,"current_range_meters":18800,"station_id":"ce4bgkp2rcd13ifvqbmg","pricing_plan_id":"free"},{"bike_id":"0aa4abac-dd3c-446a-b986-ff96ec672a99","system_id":"levelo_inurba_marseille","lat":43.3237,"lon":5.38874,"is_reserved":false,"is_disabled":false,"rental_uris":{"android":"levelo://app?vid=0aa4abac-dd3c-446a-b986-ff96ec672a99","ios":"levelo://app?vid=0aa4abac-dd3c-446a-b986-ff96ec672a99"},"vehicle_type_id":"4","last_reported":1691852731,"current_range_meters":28400,"station_id":"ce4bhqp2rcd13ifvqhog","pricing_plan_id":"free"},{"bike_id":"fbe51afe-e58e-4401-bce8-142438eb5f97","system_id":"levelo_inurba_marseille","lat":43.32368,"lon":5.38878,"is_reserved":false,"is_disabled":false,"rental_uris":{"android":"levelo://app?vid=fbe51afe-e58e-4401-bce8-142438eb5f97","ios":"levelo://app?vid=fbe51afe-e58e-4401-bce8-142438eb5f97"},"vehicle_type_id":"4","last_reported":1691852731,"current_range_meters":30000,"station_id":"ce4bhqp2rcd13ifvqhog","pricing_plan_id":"free"},{"bike_id":"7a5ccebc-5cd7-411d-b3c4-f349eba70b98","system_id":"levelo_inurba_marseille","lat":43.32365,"lon":5.38881,"is_reserved":false,"is_disabled":false,"rental_uris":{"android":"levelo://app?vid=7a5ccebc-5cd7-411d-b3c4-f349eba70b98","ios":"levelo://app?vid=7a5ccebc-5cd7-411d-b3c4-f349eba70b98"},"vehicle_type_id":"4","last_reported":1691852731,"current_range_meters":14800,"station_id":"ce4bhqp2rcd13ifvqhog","pricing_plan_id":"free"},{"bike_id":"0337c164-8b0b-4f0b-b7b3-6790b2e9f25d","system_id":"levelo_inurba_marseille","lat":43.32364,"lon":5.38883,"is_reserved":false,"is_disabled":false,"rental_uris":{"android":"levelo://app?vid=0337c164-8b0b-4f0b-b7b3-6790b2e9f25d","ios":"levelo://app?vid=0337c164-8b0b-4f0b-b7b3-6790b2e9f25d"},"vehicle_type_id":"4","last_reported":1691852731,"current_range_meters":22000,"station_id":"ce4bhqp2rcd13ifvqhog","pricing_plan_id":"free"},{"bike_id":"fa3e1a4d-0e5c-4961-9e15-8aa80494eedb","system_id":"levelo_inurba_marseille","lat":43.32368,"lon":5.38884,"is_reserved":false,"is_disabled":false,"rental_uris":{"android":"levelo://app?vid=fa3e1a4d-0e5c-4961-9e15-8aa80494eedb","ios":"levelo://app?vid=fa3e1a4d-0e5c-4961-9e15-8aa80494eedb"},"vehicle_type_id":"4","last_reported":1691852731,"current_range_meters":8000,"station_id":"ce4bhqp2rcd13ifvqhog","pricing_plan_id":"free"},{"bike_id":"a7758e93-92f2-4ba1-8882-417901e6037c","system_id":"levelo_inurba_marseille","lat":43.32366,"lon":5.38886,"is_reserved":false,"is_disabled":false,"rental_uris":{"android":"levelo://app?vid=a7758e93-92f2-4ba1-8882-417901e6037c","ios":"levelo://app?vid=a7758e93-92f2-4ba1-8882-417901e6037c"},"vehicle_type_id":"4","last_reported":1691852731,"current_range_meters":9200,"station_id":"ce4bhqp2rcd13ifvqhog","pricing_plan_id":"free"},{"bike_id":"b8cfcb5c-1fe2-48ab-b86a-5cc900079f22","system_id":"levelo_inurba_marseille","lat":43.32368,"lon":5.38894,"is_reserved":false,"is_disabled":false,"rental_uris":{"android":"levelo://app?vid=b8cfcb5c-1fe2-48ab-b86a-5cc900079f22","ios":"levelo://app?vid=b8cfcb5c-1fe2-48ab-b86a-5cc900079f22"},"vehicle_type_id":"4","last_reported":1691852731,"current_range_meters":14000,"station_id":"ce4bhqp2rcd13ifvqhog","pricing_plan_id":"free"},{"bike_id":"856f6ccf-d2e0-4b4f-a11e-9e88a8b86da5","system_id":"levelo_inurba_marseille","lat":43.292749,"lon":5.368398,"is_reserved":false,"is_disabled":false,"rental_uris":{"android":"levelo://app?vid=856f6ccf-d2e0-4b4f-a11e-9e88a8b86da5","ios":"levelo://app?vid=856f6ccf-d2e0-4b4f-a11e-9e88a8b86da5"},"vehicle_type_id":"4","last_reported":1691852731,"current_range_meters":8800,"station_id":"ce4bhbp2rcd13ifvqesg","pricing_plan_id":"free"},{"bike_id":"d8c97a46-9340-49d4-aed6-1e6264e31158","system_id":"levelo_inurba_marseille","lat":43.292749,"lon":5.368398,"is_reserved":false,"is_disabled":false,"rental_uris":{"android":"levelo://app?vid=d8c97a46-9340-49d4-aed6-1e6264e31158","ios":"levelo://app?vid=d8c97a46-9340-49d4-aed6-1e6264e31158"},"vehicle_type_id":"4","last_reported":1691852731,"current_range_meters":15200,"station_id":"ce4bhbp2rcd13ifvqesg","pricing_plan_id":"free"},{"bike_id":"566df989-a8d7-4d0a-9331-e6cde6862145","system_id":"levelo_inurba_marseille","lat":43.292749,"lon":5.368402,"is_reserved":false,"is_disabled":false,"rental_uris":{"android":"levelo://app?vid=566df989-a8d7-4d0a-9331-e6cde6862145","ios":"levelo://app?vid=566df989-a8d7-4d0a-9331-e6cde6862145"},"vehicle_type_id":"4","last_reported":1691852731,"current_range_meters":15600,"station_id":"ce4bhbp2rcd13ifvqesg","pricing_plan_id":"free"},{"bike_id":"dbe406a0-e31d-4174-932b-0d8d584d17c2","system_id":"levelo_inurba_marseille","lat":43.292749,"lon":5.368398,"is_reserved":false,"is_disabled":false,"rental_uris":{"android":"levelo://app?vid=dbe406a0-e31d-4174-932b-0d8d584d17c2","ios":"levelo://app?vid=dbe406a0-e31d-4174-932b-0d8d584d17c2"},"vehicle_type_id":"4","last_reported":1691852731,"current_range_meters":31200,"station_id":"ce4bhbp2rcd13ifvqesg","pricing_plan_id":"free"},{"bike_id":"98f5ea03-76cf-45a6-84d1-2eab66dce0bf","system_id":"levelo_inurba_marseille","lat":43.303002,"lon":5.392142,"is_reserved":false,"is_disabled":false,"rental_uris":{"android":"levelo://app?vid=98f5ea03-76cf-45a6-84d1-2eab66dce0bf","ios":"levelo://app?vid=98f5ea03-76cf-45a6-84d1-2eab66dce0bf"},"vehicle_type_id":"4","last_reported":1691852731,"current_range_meters":2400,"station_id":"ce4bgkh2rcd13ifvqbk0","pricing_plan_id":"free"},{"bike_id":"2c9f9109-f127-4da5-904c-510d449f1210","system_id":"levelo_inurba_marseille","lat":43.292663,"lon":5.376389,"is_reserved":false,"is_disabled":false,"rental_uris":{"android":"levelo://app?vid=2c9f9109-f127-4da5-904c-510d449f1210","ios":"levelo://app?vid=2c9f9109-f127-4da5-904c-510d449f1210"},"vehicle_type_id":"4","last_reported":1691852731,"current_range_meters":16000,"station_id":"ce4bgi12rcd13ifvqb80","pricing_plan_id":"free"},{"bike_id":"a1967862-9c92-4984-8147-bf6180f83728","system_id":"levelo_inurba_marseille","lat":43.292663,"lon":5.376389,"is_reserved":false,"is_disabled":false,"rental_uris":{"android":"levelo://app?vid=a1967862-9c92-4984-8147-bf6180f83728","ios":"levelo://app?vid=a1967862-9c92-4984-8147-bf6180f83728"},"vehicle_type_id":"4","last_reported":1691852731,"current_range_meters":26400,"station_id":"ce4bgi12rcd13ifvqb80","pricing_plan_id":"free"},{"bike_id":"80545f82-81d1-415a-8d05-1d345a07f1c7","system_id":"levelo_inurba_marseille","lat":43.313291,"lon":5.396838,"is_reserved":false,"is_disabled":false,"rental_uris":{"android":"levelo://app?vid=80545f82-81d1-415a-8d05-1d345a07f1c7","ios":"levelo://app?vid=80545f82-81d1-415a-8d05-1d345a07f1c7"},"vehicle_type_id":"4","last_reported":1691852731,"current_range_meters":5600,"station_id":"ce4bgvp2rcd13ifvqcu0","pricing_plan_id":"free"},{"bike_id":"fd3f21fb-3d39-4bed-a728-db09615da6fd","system_id":"levelo_inurba_marseille","lat":43.31327,"lon":5.39692,"is_reserved":false,"is_disabled":false,"rental_uris":{"android":"levelo://app?vid=fd3f21fb-3d39-4bed-a728-db09615da6fd","ios":"levelo://app?vid=fd3f21fb-3d39-4bed-a728-db09615da6fd"},"vehicle_type_id":"4","last_reported":1691852731,"current_range_meters":26400,"station_id":"ce4bgvp2rcd13ifvqcu0","pricing_plan_id":"free"},{"bike_id":"8d91a056-c437-479e-8dc7-6de63f93cff4","system_id":"levelo_inurba_marseille","lat":43.31326,"lon":5.39697,"is_reserved":false,"is_disabled":false,"rental_uris":{"android":"levelo://app?vid=8d91a056-c437-479e-8dc7-6de63f93cff4","ios":"levelo://app?vid=8d91a056-c437-479e-8dc7-6de63f93cff4"},"vehicle_type_id":"4","last_reported":1691852731,"current_range_meters":11600,"station_id":"ce4bgvp2rcd13ifvqcu0","pricing_plan_id":"free"},{"bike_id":"22200051-d223-4bfd-875a-71743d05ae79","system_id":"levelo_inurba_marseille","lat":43.290779,"lon":5.371482,"is_reserved":false,"is_disabled":false,"rental_uris":{"android":"levelo://app?vid=22200051-d223-4bfd-875a-71743d05ae79","ios":"levelo://app?vid=22200051-d223-4bfd-875a-71743d05ae79"},"vehicle_type_id":"4","last_reported":1691852731,"current_range_meters":7600,"station_id":"ce4bh5p2rcd13ifvqe4g","pricing_plan_id":"free"},{"bike_id":"b13bb082-4a7f-446f-bbed-c0156ad4b618","system_id":"levelo_inurba_marseille","lat":43.28945,"lon":5.36636,"is_reserved":false,"is_disabled":false,"rental_uris":{"android":"levelo://app?vid=b13bb082-4a7f-446f-bbed-c0156ad4b618","ios":"levelo://app?vid=b13bb082-4a7f-446f-bbed-c0156ad4b618"},"vehicle_type_id":"4","last_reported":1691852731,"current_range_meters":1200,"station_id":"ce4bhap2rcd13ifvqek0","pricing_plan_id":"free"},{"bike_id":"204351f8-768a-4102-b039-b2c552d99ba7","system_id":"levelo_inurba_marseille","lat":43.289184,"lon":5.366408,"is_reserved":false,"is_disabled":false,"rental_uris":{"android":"levelo://app?vid=204351f8-768a-4102-b039-b2c552d99ba7","ios":"levelo://app?vid=204351f8-768a-4102-b039-b2c552d99ba7"},"vehicle_type_id":"4","last_reported":1691852731,"current_range_meters":1600,"station_id":"ce4bhap2rcd13ifvqek0","pricing_plan_id":"free"},{"bike_id":"6248442a-baa5-4320-b74a-9d867d595221","system_id":"levelo_inurba_marseille","lat":43.289468,"lon":5.363719,"is_reserved":false,"is_disabled":false,"rental_uris":{"android":"levelo://app?vid=6248442a-baa5-4320-b74a-9d867d595221","ios":"levelo://app?vid=6248442a-baa5-4320-b74a-9d867d595221"},"vehicle_type_id":"4","last_reported":1691852731,"current_range_meters":11200,"station_id":"ce4bhc92rcd13ifvqetg","pricing_plan_id":"free"},{"bike_id":"69c23820-b8c4-4b33-a6c2-28beb4ed1d2a","system_id":"levelo_inurba_marseille","lat":43.330357,"lon":5.38912,"is_reserved":false,"is_disabled":false,"rental_uris":{"android":"levelo://app?vid=69c23820-b8c4-4b33-a6c2-28beb4ed1d2a","ios":"levelo://app?vid=69c23820-b8c4-4b33-a6c2-28beb4ed1d2a"},"vehicle_type_id":"4","last_reported":1691852731,"current_range_meters":13200,"station_id":"","pricing_plan_id":"free"},{"bike_id":"4e5253b6-68b9-405a-b770-8e676a129862","system_id":"levelo_inurba_marseille","lat":43.30466,"lon":5.39787,"is_reserved":false,"is_disabled":false,"rental_uris":{"android":"levelo://app?vid=4e5253b6-68b9-405a-b770-8e676a129862","ios":"levelo://app?vid=4e5253b6-68b9-405a-b770-8e676a129862"},"vehicle_type_id":"4","last_reported":1691852731,"current_range_meters":24400,"station_id":"","pricing_plan_id":"free"},{"bike_id":"8fede235-a3fa-4085-b5fb-515c17a98fa1","system_id":"levelo_inurba_marseille","lat":43.33042,"lon":5.38909,"is_reserved":false,"is_disabled":false,"rental_uris":{"android":"levelo://app?vid=8fede235-a3fa-4085-b5fb-515c17a98fa1","ios":"levelo://app?vid=8fede235-a3fa-4085-b5fb-515c17a98fa1"},"vehicle_type_id":"4","last_reported":1691852731,"current_range_meters":17600,"station_id":"ce4bhr92rcd13ifvqhrg","pricing_plan_id":"free"},{"bike_id":"e670912e-4d64-418d-a115-4ee484695e56","system_id":"levelo_inurba_marseille","lat":43.33048,"lon":5.38911,"is_reserved":false,"is_disabled":false,"rental_uris":{"android":"levelo://app?vid=e670912e-4d64-418d-a115-4ee484695e56","ios":"levelo://app?vid=e670912e-4d64-418d-a115-4ee484695e56"},"vehicle_type_id":"4","last_reported":1691852731,"current_range_meters":14000,"station_id":"ce4bhr92rcd13ifvqhrg","pricing_plan_id":"free"},{"bike_id":"455260f5-201e-45ac-8473-9f69d25d2f7d","system_id":"levelo_inurba_marseille","lat":43.33045,"lon":5.38918,"is_reserved":false,"is_disabled":false,"rental_uris":{"android":"levelo://app?vid=455260f5-201e-45ac-8473-9f69d25d2f7d","ios":"levelo://app?vid=455260f5-201e-45ac-8473-9f69d25d2f7d"},"vehicle_type_id":"4","last_reported":1691852731,"current_range_meters":11600,"station_id":"ce4bhr92rcd13ifvqhrg","pricing_plan_id":"free"},{"bike_id":"892867ae-c845-473e-87fc-2b3f5701ecf4","system_id":"levelo_inurba_marseille","lat":43.29005,"lon":5.35616,"is_reserved":false,"is_disabled":false,"rental_uris":{"android":"levelo://app?vid=892867ae-c845-473e-87fc-2b3f5701ecf4","ios":"levelo://app?vid=892867ae-c845-473e-87fc-2b3f5701ecf4"},"vehicle_type_id":"4","last_reported":1691852731,"current_range_meters":19200,"station_id":"ce4bhb92rcd13ifvqen0","pricing_plan_id":"free"},{"bike_id":"d92191b5-3897-428d-989c-4b986c7a7e64","system_id":"levelo_inurba_marseille","lat":43.28999,"lon":5.35612,"is_reserved":false,"is_disabled":false,"rental_uris":{"android":"levelo://app?vid=d92191b5-3897-428d-989c-4b986c7a7e64","ios":"levelo://app?vid=d92191b5-3897-428d-989c-4b986c7a7e64"},"vehicle_type_id":"4","last_reported":1691852731,"current_range_meters":18800,"station_id":"ce4bhb92rcd13ifvqen0","pricing_plan_id":"free"},{"bike_id":"5d02712f-4f94-4f68-a88d-ef3bb78b3801","system_id":"levelo_inurba_marseille","lat":43.295169,"lon":5.390426,"is_reserved":false,"is_disabled":false,"rental_uris":{"android":"levelo://app?vid=5d02712f-4f94-4f68-a88d-ef3bb78b3801","ios":"levelo://app?vid=5d02712f-4f94-4f68-a88d-ef3bb78b3801"},"vehicle_type_id":"4","last_reported":1691852731,"current_range_meters":27600,"station_id":"ce4bh3p2rcd13ifvqdp0","pricing_plan_id":"free"},{"bike_id":"eac1effd-dad4-4d5a-8615-de2dad28e37e","system_id":"levelo_inurba_marseille","lat":43.2901,"lon":5.381269,"is_reserved":false,"is_disabled":false,"rental_uris":{"android":"levelo://app?vid=eac1effd-dad4-4d5a-8615-de2dad28e37e","ios":"levelo://app?vid=eac1effd-dad4-4d5a-8615-de2dad28e37e"},"vehicle_type_id":"4","last_reported":1691852731,"current_range_meters":13600,"station_id":"ce4bh4p2rcd13ifvqe1g","pricing_plan_id":"free"},{"bike_id":"8656ad36-7450-4238-aa14-ad5ad76e4b05","system_id":"levelo_inurba_marseille","lat":43.2901,"lon":5.381269,"is_reserved":false,"is_disabled":false,"rental_uris":{"android":"levelo://app?vid=8656ad36-7450-4238-aa14-ad5ad76e4b05","ios":"levelo://app?vid=8656ad36-7450-4238-aa14-ad5ad76e4b05"},"vehicle_type_id":"4","last_reported":1691852731,"current_range_meters":2000,"station_id":"ce4bh4p2rcd13ifvqe1g","pricing_plan_id":"free"},{"bike_id":"78432150-0a8c-46a4-a02c-7483494ab56f","system_id":"levelo_inurba_marseille","lat":43.2901,"lon":5.381269,"is_reserved":false,"is_disabled":false,"rental_uris":{"android":"levelo://app?vid=78432150-0a8c-46a4-a02c-7483494ab56f","ios":"levelo://app?vid=78432150-0a8c-46a4-a02c-7483494ab56f"},"vehicle_type_id":"4","last_reported":1691852731,"current_range_meters":18000,"station_id":"ce4bh4p2rcd13ifvqe1g","pricing_plan_id":"free"},{"bike_id":"c4b0aa63-7248-4c69-80eb-f0aa4c35dc39","system_id":"levelo_inurba_marseille","lat":43.33036,"lon":5.39103,"is_reserved":false,"is_disabled":false,"rental_uris":{"android":"levelo://app?vid=c4b0aa63-7248-4c69-80eb-f0aa4c35dc39","ios":"levelo://app?vid=c4b0aa63-7248-4c69-80eb-f0aa4c35dc39"},"vehicle_type_id":"4","last_reported":1691852731,"current_range_meters":6800,"station_id":"","pricing_plan_id":"free"},{"bike_id":"88854dcd-c821-476d-ab3d-414522622dc0","system_id":"levelo_inurba_marseille","lat":43.33756,"lon":5.37467,"is_reserved":false,"is_disabled":false,"rental_uris":{"android":"levelo://app?vid=88854dcd-c821-476d-ab3d-414522622dc0","ios":"levelo://app?vid=88854dcd-c821-476d-ab3d-414522622dc0"},"vehicle_type_id":"4","last_reported":1691852731,"current_range_meters":19600,"station_id":"","pricing_plan_id":"free"},{"bike_id":"7ac4ad57-e01e-49fa-818c-cc2e91fa59f6","system_id":"levelo_inurba_marseille","lat":43.33769,"lon":5.37507,"is_reserved":false,"is_disabled":false,"rental_uris":{"android":"levelo://app?vid=7ac4ad57-e01e-49fa-818c-cc2e91fa59f6","ios":"levelo://app?vid=7ac4ad57-e01e-49fa-818c-cc2e91fa59f6"},"vehicle_type_id":"4","last_reported":1691852731,"current_range_meters":4400,"station_id":"","pricing_plan_id":"free"},{"bike_id":"915f802e-f31b-4c71-8de0-2a5fc39e5970","system_id":"levelo_inurba_marseille","lat":43.32994,"lon":5.39403,"is_reserved":false,"is_disabled":false,"rental_uris":{"android":"levelo://app?vid=915f802e-f31b-4c71-8de0-2a5fc39e5970","ios":"levelo://app?vid=915f802e-f31b-4c71-8de0-2a5fc39e5970"},"vehicle_type_id":"4","last_reported":1691852731,"current_range_meters":2800,"station_id":"","pricing_plan_id":"free"},{"bike_id":"1a19a10c-a7d3-49df-bd69-f00589144749","system_id":"levelo_inurba_marseille","lat":43.298681,"lon":5.397225,"is_reserved":false,"is_disabled":false,"rental_uris":{"android":"levelo://app?vid=1a19a10c-a7d3-49df-bd69-f00589144749","ios":"levelo://app?vid=1a19a10c-a7d3-49df-bd69-f00589144749"},"vehicle_type_id":"4","last_reported":1691852731,"current_range_meters":26000,"station_id":"ce4bh0h2rcd13ifvqd50","pricing_plan_id":"free"},{"bike_id":"d3f0706b-4573-484a-ad6a-14a73d219d9a","system_id":"levelo_inurba_marseille","lat":43.286961,"lon":5.373785,"is_reserved":false,"is_disabled":false,"rental_uris":{"android":"levelo://app?vid=d3f0706b-4573-484a-ad6a-14a73d219d9a","ios":"levelo://app?vid=d3f0706b-4573-484a-ad6a-14a73d219d9a"},"vehicle_type_id":"4","last_reported":1691852731,"current_range_meters":10000,"station_id":"ce4bh3p2rcd13ifvqdq0","pricing_plan_id":"free"},{"bike_id":"75199276-b705-4ad7-b6a9-49aeaa84628a","system_id":"levelo_inurba_marseille","lat":43.286591,"lon":5.363346,"is_reserved":false,"is_disabled":false,"rental_uris":{"android":"levelo://app?vid=75199276-b705-4ad7-b6a9-49aeaa84628a","ios":"levelo://app?vid=75199276-b705-4ad7-b6a9-49aeaa84628a"},"vehicle_type_id":"4","last_reported":1691852731,"current_range_meters":31200,"station_id":"ce4bhah2rcd13ifvqej0","pricing_plan_id":"free"},{"bike_id":"c167e342-02bf-4c22-82f7-cc2cdc9d7a3d","system_id":"levelo_inurba_marseille","lat":43.31634,"lon":5.4043,"is_reserved":false,"is_disabled":false,"rental_uris":{"android":"levelo://app?vid=c167e342-02bf-4c22-82f7-cc2cdc9d7a3d","ios":"levelo://app?vid=c167e342-02bf-4c22-82f7-cc2cdc9d7a3d"},"vehicle_type_id":"4","last_reported":1691852731,"current_range_meters":0,"station_id":"ce4bh012rcd13ifvqd00","pricing_plan_id":"free"},{"bike_id":"aba005d5-f147-41e1-ad08-0718801aaf03","system_id":"levelo_inurba_marseille","lat":43.316523,"lon":5.404367,"is_reserved":false,"is_disabled":false,"rental_uris":{"android":"levelo://app?vid=aba005d5-f147-41e1-ad08-0718801aaf03","ios":"levelo://app?vid=aba005d5-f147-41e1-ad08-0718801aaf03"},"vehicle_type_id":"4","last_reported":1691852731,"current_range_meters":8400,"station_id":"ce4bh012rcd13ifvqd00","pricing_plan_id":"free"},{"bike_id":"bae09e80-3b6b-404f-8322-7d1b1001393c","system_id":"levelo_inurba_marseille","lat":43.316517,"lon":5.404375,"is_reserved":false,"is_disabled":false,"rental_uris":{"android":"levelo://app?vid=bae09e80-3b6b-404f-8322-7d1b1001393c","ios":"levelo://app?vid=bae09e80-3b6b-404f-8322-7d1b1001393c"},"vehicle_type_id":"4","last_reported":1691852731,"current_range_meters":2000,"station_id":"ce4bh012rcd13ifvqd00","pricing_plan_id":"free"},{"bike_id":"f60a61e1-1711-473a-bd83-5b1cdcdc2133","system_id":"levelo_inurba_marseille","lat":43.316517,"lon":5.404375,"is_reserved":false,"is_disabled":false,"rental_uris":{"android":"levelo://app?vid=f60a61e1-1711-473a-bd83-5b1cdcdc2133","ios":"levelo://app?vid=f60a61e1-1711-473a-bd83-5b1cdcdc2133"},"vehicle_type_id":"4","last_reported":1691852731,"current_range_meters":10400,"station_id":"ce4bh012rcd13ifvqd00","pricing_plan_id":"free"},{"bike_id":"97a3bad6-0312-40ea-9f77-4d8d50311d51","system_id":"levelo_inurba_marseille","lat":43.316517,"lon":5.404375,"is_reserved":false,"is_disabled":false,"rental_uris":{"android":"levelo://app?vid=97a3bad6-0312-40ea-9f77-4d8d50311d51","ios":"levelo://app?vid=97a3bad6-0312-40ea-9f77-4d8d50311d51"},"vehicle_type_id":"4","last_reported":1691852731,"current_range_meters":2000,"station_id":"ce4bh012rcd13ifvqd00","pricing_plan_id":"free"},{"bike_id":"bc399b90-3bb6-4585-9148-fa66101baaa0","system_id":"levelo_inurba_marseille","lat":43.291994,"lon":5.392907,"is_reserved":false,"is_disabled":false,"rental_uris":{"android":"levelo://app?vid=bc399b90-3bb6-4585-9148-fa66101baaa0","ios":"levelo://app?vid=bc399b90-3bb6-4585-9148-fa66101baaa0"},"vehicle_type_id":"4","last_reported":1691852731,"current_range_meters":14400,"station_id":"ce4bh192rcd13ifvqdd0","pricing_plan_id":"free"},{"bike_id":"98c4049d-02c1-4a8e-aef3-ad0b3498c162","system_id":"levelo_inurba_marseille","lat":43.291994,"lon":5.392907,"is_reserved":false,"is_disabled":false,"rental_uris":{"android":"levelo://app?vid=98c4049d-02c1-4a8e-aef3-ad0b3498c162","ios":"levelo://app?vid=98c4049d-02c1-4a8e-aef3-ad0b3498c162"},"vehicle_type_id":"4","last_reported":1691852731,"current_range_meters":2800,"station_id":"ce4bh192rcd13ifvqdd0","pricing_plan_id":"free"},{"bike_id":"cf14d8bf-2129-4eb5-b1e2-7fa0ecbaffce","system_id":"levelo_inurba_marseille","lat":43.284538,"lon":5.358657,"is_reserved":false,"is_disabled":false,"rental_uris":{"android":"levelo://app?vid=cf14d8bf-2129-4eb5-b1e2-7fa0ecbaffce","ios":"levelo://app?vid=cf14d8bf-2129-4eb5-b1e2-7fa0ecbaffce"},"vehicle_type_id":"4","last_reported":1691852731,"current_range_meters":12400,"station_id":"ce4bhah2rcd13ifvqei0","pricing_plan_id":"free"},{"bike_id":"0bae66c9-8535-41bd-a452-b29b3f1d1824","system_id":"levelo_inurba_marseille","lat":43.285856,"lon":5.350771,"is_reserved":false,"is_disabled":false,"rental_uris":{"android":"levelo://app?vid=0bae66c9-8535-41bd-a452-b29b3f1d1824","ios":"levelo://app?vid=0bae66c9-8535-41bd-a452-b29b3f1d1824"},"vehicle_type_id":"4","last_reported":1691852731,"current_range_meters":30400,"station_id":"ce4bhch2rcd13ifvqeug","pricing_plan_id":"free"},{"bike_id":"3b223568-5b07-42c5-99ae-c0a13d41ec46","system_id":"levelo_inurba_marseille","lat":43.283998,"lon":5.375062,"is_reserved":false,"is_disabled":false,"rental_uris":{"android":"levelo://app?vid=3b223568-5b07-42c5-99ae-c0a13d41ec46","ios":"levelo://app?vid=3b223568-5b07-42c5-99ae-c0a13d41ec46"},"vehicle_type_id":"4","last_reported":1691852731,"current_range_meters":8400,"station_id":"ce4bh412rcd13ifvqds0","pricing_plan_id":"free"},{"bike_id":"99ee8b0a-2949-491b-a05a-8531b41eb798","system_id":"levelo_inurba_marseille","lat":43.284019,"lon":5.375173,"is_reserved":false,"is_disabled":false,"rental_uris":{"android":"levelo://app?vid=99ee8b0a-2949-491b-a05a-8531b41eb798","ios":"levelo://app?vid=99ee8b0a-2949-491b-a05a-8531b41eb798"},"vehicle_type_id":"4","last_reported":1691852731,"current_range_meters":28000,"station_id":"ce4bh412rcd13ifvqds0","pricing_plan_id":"free"},{"bike_id":"4069d65e-9402-4c65-ad24-8b2cf098464e","system_id":"levelo_inurba_marseille","lat":43.283998,"lon":5.375062,"is_reserved":false,"is_disabled":false,"rental_uris":{"android":"levelo://app?vid=4069d65e-9402-4c65-ad24-8b2cf098464e","ios":"levelo://app?vid=4069d65e-9402-4c65-ad24-8b2cf098464e"},"vehicle_type_id":"4","last_reported":1691852731,"current_range_meters":31200,"station_id":"ce4bh412rcd13ifvqds0","pricing_plan_id":"free"},{"bike_id":"b8ac69bc-5beb-416f-a43a-f57eab347be3","system_id":"levelo_inurba_marseille","lat":43.283998,"lon":5.375062,"is_reserved":false,"is_disabled":false,"rental_uris":{"android":"levelo://app?vid=b8ac69bc-5beb-416f-a43a-f57eab347be3","ios":"levelo://app?vid=b8ac69bc-5beb-416f-a43a-f57eab347be3"},"vehicle_type_id":"4","last_reported":1691852731,"current_range_meters":31200,"station_id":"ce4bh412rcd13ifvqds0","pricing_plan_id":"free"},{"bike_id":"620b3352-8fdf-4d9a-8bf8-e0fbe17e8d40","system_id":"levelo_inurba_marseille","lat":43.28674,"lon":5.38656,"is_reserved":false,"is_disabled":false,"rental_uris":{"android":"levelo://app?vid=620b3352-8fdf-4d9a-8bf8-e0fbe17e8d40","ios":"levelo://app?vid=620b3352-8fdf-4d9a-8bf8-e0fbe17e8d40"},"vehicle_type_id":"4","last_reported":1691852731,"current_range_meters":6800,"station_id":"ce4bh492rcd13ifvqdug","pricing_plan_id":"free"},{"bike_id":"e8bfe475-6e8c-4895-9278-7f5c0747dc0e","system_id":"levelo_inurba_marseille","lat":43.28676,"lon":5.38669,"is_reserved":false,"is_disabled":false,"rental_uris":{"android":"levelo://app?vid=e8bfe475-6e8c-4895-9278-7f5c0747dc0e","ios":"levelo://app?vid=e8bfe475-6e8c-4895-9278-7f5c0747dc0e"},"vehicle_type_id":"4","last_reported":1691852731,"current_range_meters":17600,"station_id":"ce4bh492rcd13ifvqdug","pricing_plan_id":"free"},{"bike_id":"18d60405-7fcb-4f0d-a3c0-66a2bebff4ef","system_id":"levelo_inurba_marseille","lat":43.319179,"lon":5.407725,"is_reserved":false,"is_disabled":false,"rental_uris":{"android":"levelo://app?vid=18d60405-7fcb-4f0d-a3c0-66a2bebff4ef","ios":"levelo://app?vid=18d60405-7fcb-4f0d-a3c0-66a2bebff4ef"},"vehicle_type_id":"4","last_reported":1691852731,"current_range_meters":29200,"station_id":"ce4bhq12rcd13ifvqhig","pricing_plan_id":"free"},{"bike_id":"a7f977ab-df2a-42be-af54-1bb16c7ef5dc","system_id":"levelo_inurba_marseille","lat":43.323464,"lon":5.406297,"is_reserved":false,"is_disabled":false,"rental_uris":{"android":"levelo://app?vid=a7f977ab-df2a-42be-af54-1bb16c7ef5dc","ios":"levelo://app?vid=a7f977ab-df2a-42be-af54-1bb16c7ef5dc"},"vehicle_type_id":"4","last_reported":1691852731,"current_range_meters":31200,"station_id":"ce4bhq92rcd13ifvqhjg","pricing_plan_id":"free"},{"bike_id":"77387bbb-06d5-400f-b530-4b392abf819f","system_id":"levelo_inurba_marseille","lat":43.323464,"lon":5.406297,"is_reserved":false,"is_disabled":false,"rental_uris":{"android":"levelo://app?vid=77387bbb-06d5-400f-b530-4b392abf819f","ios":"levelo://app?vid=77387bbb-06d5-400f-b530-4b392abf819f"},"vehicle_type_id":"4","last_reported":1691852731,"current_range_meters":30800,"station_id":"ce4bhq92rcd13ifvqhjg","pricing_plan_id":"free"},{"bike_id":"e2c2f663-5dd6-43cb-9f3c-986ac869dd33","system_id":"levelo_inurba_marseille","lat":43.323464,"lon":5.406297,"is_reserved":false,"is_disabled":false,"rental_uris":{"android":"levelo://app?vid=e2c2f663-5dd6-43cb-9f3c-986ac869dd33","ios":"levelo://app?vid=e2c2f663-5dd6-43cb-9f3c-986ac869dd33"},"vehicle_type_id":"4","last_reported":1691852731,"current_range_meters":7600,"station_id":"ce4bhq92rcd13ifvqhjg","pricing_plan_id":"free"},{"bike_id":"1e5fc929-b2e6-478f-90e9-ed5e75397a8d","system_id":"levelo_inurba_marseille","lat":43.323464,"lon":5.406297,"is_reserved":false,"is_disabled":false,"rental_uris":{"android":"levelo://app?vid=1e5fc929-b2e6-478f-90e9-ed5e75397a8d","ios":"levelo://app?vid=1e5fc929-b2e6-478f-90e9-ed5e75397a8d"},"vehicle_type_id":"4","last_reported":1691852731,"current_range_meters":31600,"station_id":"ce4bhq92rcd13ifvqhjg","pricing_plan_id":"free"},{"bike_id":"99655be4-85c4-4618-9f8f-575f85f1237b","system_id":"levelo_inurba_marseille","lat":43.323464,"lon":5.406297,"is_reserved":false,"is_disabled":false,"rental_uris":{"android":"levelo://app?vid=99655be4-85c4-4618-9f8f-575f85f1237b","ios":"levelo://app?vid=99655be4-85c4-4618-9f8f-575f85f1237b"},"vehicle_type_id":"4","last_reported":1691852731,"current_range_meters":31600,"station_id":"ce4bhq92rcd13ifvqhjg","pricing_plan_id":"free"},{"bike_id":"fffcff2f-a9f9-44f0-bb09-83324346213d","system_id":"levelo_inurba_marseille","lat":43.33723,"lon":5.39186,"is_reserved":false,"is_disabled":false,"rental_uris":{"android":"levelo://app?vid=fffcff2f-a9f9-44f0-bb09-83324346213d","ios":"levelo://app?vid=fffcff2f-a9f9-44f0-bb09-83324346213d"},"vehicle_type_id":"4","last_reported":1691852731,"current_range_meters":25600,"station_id":"ce4bhr92rcd13ifvqhsg","pricing_plan_id":"free"},{"bike_id":"a369c97d-81f0-46c7-b8ce-be37c51bdc96","system_id":"levelo_inurba_marseille","lat":43.33726,"lon":5.39183,"is_reserved":false,"is_disabled":false,"rental_uris":{"android":"levelo://app?vid=a369c97d-81f0-46c7-b8ce-be37c51bdc96","ios":"levelo://app?vid=a369c97d-81f0-46c7-b8ce-be37c51bdc96"},"vehicle_type_id":"4","last_reported":1691852731,"current_range_meters":18800,"station_id":"ce4bhr92rcd13ifvqhsg","pricing_plan_id":"free"},{"bike_id":"1d1f8de5-a381-4951-8286-1972c35a95ab","system_id":"levelo_inurba_marseille","lat":43.323464,"lon":5.406297,"is_reserved":false,"is_disabled":false,"rental_uris":{"android":"levelo://app?vid=1d1f8de5-a381-4951-8286-1972c35a95ab","ios":"levelo://app?vid=1d1f8de5-a381-4951-8286-1972c35a95ab"},"vehicle_type_id":"4","last_reported":1691852731,"current_range_meters":27200,"station_id":"ce4bhq92rcd13ifvqhjg","pricing_plan_id":"free"},{"bike_id":"fbfeeb75-e370-407d-81d3-a22af631e8cf","system_id":"levelo_inurba_marseille","lat":43.323464,"lon":5.406297,"is_reserved":false,"is_disabled":false,"rental_uris":{"android":"levelo://app?vid=fbfeeb75-e370-407d-81d3-a22af631e8cf","ios":"levelo://app?vid=fbfeeb75-e370-407d-81d3-a22af631e8cf"},"vehicle_type_id":"4","last_reported":1691852731,"current_range_meters":31600,"station_id":"ce4bhq92rcd13ifvqhjg","pricing_plan_id":"free"},{"bike_id":"d0077ace-8d19-4088-b70c-82e3c4919915","system_id":"levelo_inurba_marseille","lat":43.323464,"lon":5.406297,"is_reserved":false,"is_disabled":false,"rental_uris":{"android":"levelo://app?vid=d0077ace-8d19-4088-b70c-82e3c4919915","ios":"levelo://app?vid=d0077ace-8d19-4088-b70c-82e3c4919915"},"vehicle_type_id":"4","last_reported":1691852731,"current_range_meters":31600,"station_id":"ce4bhq92rcd13ifvqhjg","pricing_plan_id":"free"},{"bike_id":"0f37a334-b23f-4231-8c75-c49ee23dddb1","system_id":"levelo_inurba_marseille","lat":43.323464,"lon":5.406297,"is_reserved":false,"is_disabled":false,"rental_uris":{"android":"levelo://app?vid=0f37a334-b23f-4231-8c75-c49ee23dddb1","ios":"levelo://app?vid=0f37a334-b23f-4231-8c75-c49ee23dddb1"},"vehicle_type_id":"4","last_reported":1691852731,"current_range_meters":31600,"station_id":"ce4bhq92rcd13ifvqhjg","pricing_plan_id":"free"},{"bike_id":"b2188b0d-5227-4325-bc94-84b6f1239ecf","system_id":"levelo_inurba_marseille","lat":43.323464,"lon":5.406297,"is_reserved":false,"is_disabled":false,"rental_uris":{"android":"levelo://app?vid=b2188b0d-5227-4325-bc94-84b6f1239ecf","ios":"levelo://app?vid=b2188b0d-5227-4325-bc94-84b6f1239ecf"},"vehicle_type_id":"4","last_reported":1691852731,"current_range_meters":31200,"station_id":"ce4bhq92rcd13ifvqhjg","pricing_plan_id":"free"},{"bike_id":"b715fbc1-3e27-463b-b010-bead04f06ee1","system_id":"levelo_inurba_marseille","lat":43.323464,"lon":5.406297,"is_reserved":false,"is_disabled":false,"rental_uris":{"android":"levelo://app?vid=b715fbc1-3e27-463b-b010-bead04f06ee1","ios":"levelo://app?vid=b715fbc1-3e27-463b-b010-bead04f06ee1"},"vehicle_type_id":"4","last_reported":1691852731,"current_range_meters":28800,"station_id":"ce4bhq92rcd13ifvqhjg","pricing_plan_id":"free"},{"bike_id":"7460c8d0-5157-44e8-88a8-237d1833d417","system_id":"levelo_inurba_marseille","lat":43.323464,"lon":5.406297,"is_reserved":false,"is_disabled":false,"rental_uris":{"android":"levelo://app?vid=7460c8d0-5157-44e8-88a8-237d1833d417","ios":"levelo://app?vid=7460c8d0-5157-44e8-88a8-237d1833d417"},"vehicle_type_id":"4","last_reported":1691852731,"current_range_meters":29200,"station_id":"ce4bhq92rcd13ifvqhjg","pricing_plan_id":"free"},{"bike_id":"9c88b162-66af-4d80-b737-a3db75d2a885","system_id":"levelo_inurba_marseille","lat":43.323464,"lon":5.406297,"is_reserved":false,"is_disabled":false,"rental_uris":{"android":"levelo://app?vid=9c88b162-66af-4d80-b737-a3db75d2a885","ios":"levelo://app?vid=9c88b162-66af-4d80-b737-a3db75d2a885"},"vehicle_type_id":"4","last_reported":1691852731,"current_range_meters":28400,"station_id":"ce4bhq92rcd13ifvqhjg","pricing_plan_id":"free"},{"bike_id":"20366594-0d30-4db8-88b8-e519f296cea1","system_id":"levelo_inurba_marseille","lat":43.28479,"lon":5.38421,"is_reserved":false,"is_disabled":false,"rental_uris":{"android":"levelo://app?vid=20366594-0d30-4db8-88b8-e519f296cea1","ios":"levelo://app?vid=20366594-0d30-4db8-88b8-e519f296cea1"},"vehicle_type_id":"4","last_reported":1691852731,"current_range_meters":0,"station_id":"ce4bh512rcd13ifvqe3g","pricing_plan_id":"free"},{"bike_id":"b7d89c7e-e4a5-4005-81b3-828f204d2ef6","system_id":"levelo_inurba_marseille","lat":43.28477,"lon":5.38423,"is_reserved":false,"is_disabled":false,"rental_uris":{"android":"levelo://app?vid=b7d89c7e-e4a5-4005-81b3-828f204d2ef6","ios":"levelo://app?vid=b7d89c7e-e4a5-4005-81b3-828f204d2ef6"},"vehicle_type_id":"4","last_reported":1691852731,"current_range_meters":12800,"station_id":"ce4bh512rcd13ifvqe3g","pricing_plan_id":"free"},{"bike_id":"572ae52d-e814-4f97-8862-9d4ef2d739ab","system_id":"levelo_inurba_marseille","lat":43.29799,"lon":5.40396,"is_reserved":false,"is_disabled":false,"rental_uris":{"android":"levelo://app?vid=572ae52d-e814-4f97-8862-9d4ef2d739ab","ios":"levelo://app?vid=572ae52d-e814-4f97-8862-9d4ef2d739ab"},"vehicle_type_id":"4","last_reported":1691852731,"current_range_meters":24000,"station_id":"ce4bh112rcd13ifvqd90","pricing_plan_id":"free"},{"bike_id":"26424308-5c72-421a-a223-5efeb2d7a0b7","system_id":"levelo_inurba_marseille","lat":43.28846,"lon":5.39334,"is_reserved":false,"is_disabled":false,"rental_uris":{"android":"levelo://app?vid=26424308-5c72-421a-a223-5efeb2d7a0b7","ios":"levelo://app?vid=26424308-5c72-421a-a223-5efeb2d7a0b7"},"vehicle_type_id":"4","last_reported":1691852731,"current_range_meters":2000,"station_id":"","pricing_plan_id":"free"},{"bike_id":"de8ad574-945d-45b0-b5fa-8e8c336b6512","system_id":"levelo_inurba_marseille","lat":43.32393,"lon":5.40664,"is_reserved":false,"is_disabled":false,"rental_uris":{"android":"levelo://app?vid=de8ad574-945d-45b0-b5fa-8e8c336b6512","ios":"levelo://app?vid=de8ad574-945d-45b0-b5fa-8e8c336b6512"},"vehicle_type_id":"4","last_reported":1691852731,"current_range_meters":20000,"station_id":"","pricing_plan_id":"free"},{"bike_id":"dc18e65e-4699-4c00-a77f-6c704dc3678d","system_id":"levelo_inurba_marseille","lat":43.2843,"lon":5.34981,"is_reserved":false,"is_disabled":false,"rental_uris":{"android":"levelo://app?vid=dc18e65e-4699-4c00-a77f-6c704dc3678d","ios":"levelo://app?vid=dc18e65e-4699-4c00-a77f-6c704dc3678d"},"vehicle_type_id":"4","last_reported":1691852731,"current_range_meters":25600,"station_id":"ce4bhbh2rcd13ifvqepg","pricing_plan_id":"free"},{"bike_id":"0c3d1675-11fd-46e5-9f2c-8b820b48ed85","system_id":"levelo_inurba_marseille","lat":43.284219,"lon":5.3497,"is_reserved":false,"is_disabled":false,"rental_uris":{"android":"levelo://app?vid=0c3d1675-11fd-46e5-9f2c-8b820b48ed85","ios":"levelo://app?vid=0c3d1675-11fd-46e5-9f2c-8b820b48ed85"},"vehicle_type_id":"4","last_reported":1691852731,"current_range_meters":29600,"station_id":"ce4bhbh2rcd13ifvqepg","pricing_plan_id":"free"},{"bike_id":"be128c2c-d4d2-4718-b33b-9c64bee378bc","system_id":"levelo_inurba_marseille","lat":43.28423,"lon":5.34992,"is_reserved":false,"is_disabled":false,"rental_uris":{"android":"levelo://app?vid=be128c2c-d4d2-4718-b33b-9c64bee378bc","ios":"levelo://app?vid=be128c2c-d4d2-4718-b33b-9c64bee378bc"},"vehicle_type_id":"4","last_reported":1691852731,"current_range_meters":12400,"station_id":"ce4bhbh2rcd13ifvqepg","pricing_plan_id":"free"},{"bike_id":"5b314571-4077-4c58-8f95-b94ed8a60cca","system_id":"levelo_inurba_marseille","lat":43.28425,"lon":5.34984,"is_reserved":false,"is_disabled":false,"rental_uris":{"android":"levelo://app?vid=5b314571-4077-4c58-8f95-b94ed8a60cca","ios":"levelo://app?vid=5b314571-4077-4c58-8f95-b94ed8a60cca"},"vehicle_type_id":"4","last_reported":1691852731,"current_range_meters":20400,"station_id":"ce4bhbh2rcd13ifvqepg","pricing_plan_id":"free"},{"bike_id":"d2c4ce50-f2ac-41b1-98a5-1fef4b367435","system_id":"levelo_inurba_marseille","lat":43.28424,"lon":5.34986,"is_reserved":false,"is_disabled":false,"rental_uris":{"android":"levelo://app?vid=d2c4ce50-f2ac-41b1-98a5-1fef4b367435","ios":"levelo://app?vid=d2c4ce50-f2ac-41b1-98a5-1fef4b367435"},"vehicle_type_id":"4","last_reported":1691852731,"current_range_meters":24400,"station_id":"ce4bhbh2rcd13ifvqepg","pricing_plan_id":"free"},{"bike_id":"67ab69a2-70b8-420a-8350-b04b247c8db5","system_id":"levelo_inurba_marseille","lat":43.28422,"lon":5.34992,"is_reserved":false,"is_disabled":false,"rental_uris":{"android":"levelo://app?vid=67ab69a2-70b8-420a-8350-b04b247c8db5","ios":"levelo://app?vid=67ab69a2-70b8-420a-8350-b04b247c8db5"},"vehicle_type_id":"4","last_reported":1691852731,"current_range_meters":21600,"station_id":"ce4bhbh2rcd13ifvqepg","pricing_plan_id":"free"},{"bike_id":"0d4a1ca6-c714-4ff8-b5b9-9c153755d7ee","system_id":"levelo_inurba_marseille","lat":43.2842,"lon":5.34998,"is_reserved":false,"is_disabled":false,"rental_uris":{"android":"levelo://app?vid=0d4a1ca6-c714-4ff8-b5b9-9c153755d7ee","ios":"levelo://app?vid=0d4a1ca6-c714-4ff8-b5b9-9c153755d7ee"},"vehicle_type_id":"4","last_reported":1691852731,"current_range_meters":31200,"station_id":"ce4bhbh2rcd13ifvqepg","pricing_plan_id":"free"},{"bike_id":"d413c25b-7dca-4442-a27f-3ca7bc3ad773","system_id":"levelo_inurba_marseille","lat":43.2842,"lon":5.34996,"is_reserved":false,"is_disabled":false,"rental_uris":{"android":"levelo://app?vid=d413c25b-7dca-4442-a27f-3ca7bc3ad773","ios":"levelo://app?vid=d413c25b-7dca-4442-a27f-3ca7bc3ad773"},"vehicle_type_id":"4","last_reported":1691852731,"current_range_meters":14400,"station_id":"ce4bhbh2rcd13ifvqepg","pricing_plan_id":"free"},{"bike_id":"c5da1742-ac1c-41d3-87ef-f2cda8e48879","system_id":"levelo_inurba_marseille","lat":43.284219,"lon":5.3497,"is_reserved":false,"is_disabled":false,"rental_uris":{"android":"levelo://app?vid=c5da1742-ac1c-41d3-87ef-f2cda8e48879","ios":"levelo://app?vid=c5da1742-ac1c-41d3-87ef-f2cda8e48879"},"vehicle_type_id":"4","last_reported":1691852731,"current_range_meters":31200,"station_id":"ce4bhbh2rcd13ifvqepg","pricing_plan_id":"free"},{"bike_id":"665b7da6-5b84-43eb-9356-8b03b1094cac","system_id":"levelo_inurba_marseille","lat":43.28422,"lon":5.34988,"is_reserved":false,"is_disabled":false,"rental_uris":{"android":"levelo://app?vid=665b7da6-5b84-43eb-9356-8b03b1094cac","ios":"levelo://app?vid=665b7da6-5b84-43eb-9356-8b03b1094cac"},"vehicle_type_id":"4","last_reported":1691852731,"current_range_meters":15600,"station_id":"ce4bhbh2rcd13ifvqepg","pricing_plan_id":"free"},{"bike_id":"f7b92aa7-8425-450c-be7b-da0361219fe1","system_id":"levelo_inurba_marseille","lat":43.284219,"lon":5.3497,"is_reserved":false,"is_disabled":false,"rental_uris":{"android":"levelo://app?vid=f7b92aa7-8425-450c-be7b-da0361219fe1","ios":"levelo://app?vid=f7b92aa7-8425-450c-be7b-da0361219fe1"},"vehicle_type_id":"4","last_reported":1691852731,"current_range_meters":10800,"station_id":"ce4bhbh2rcd13ifvqepg","pricing_plan_id":"free"},{"bike_id":"1480e8dd-d613-4501-9065-39fa3ad3b1c0","system_id":"levelo_inurba_marseille","lat":43.284219,"lon":5.3497,"is_reserved":false,"is_disabled":false,"rental_uris":{"android":"levelo://app?vid=1480e8dd-d613-4501-9065-39fa3ad3b1c0","ios":"levelo://app?vid=1480e8dd-d613-4501-9065-39fa3ad3b1c0"},"vehicle_type_id":"4","last_reported":1691852731,"current_range_meters":10800,"station_id":"ce4bhbh2rcd13ifvqepg","pricing_plan_id":"free"},{"bike_id":"6f5226ab-f142-443a-b9c1-709f834fe8ae","system_id":"levelo_inurba_marseille","lat":43.284219,"lon":5.3497,"is_reserved":false,"is_disabled":false,"rental_uris":{"android":"levelo://app?vid=6f5226ab-f142-443a-b9c1-709f834fe8ae","ios":"levelo://app?vid=6f5226ab-f142-443a-b9c1-709f834fe8ae"},"vehicle_type_id":"4","last_reported":1691852731,"current_range_meters":17200,"station_id":"ce4bhbh2rcd13ifvqepg","pricing_plan_id":"free"},{"bike_id":"5ea3c972-ba19-41f5-b15f-89656e5f0d65","system_id":"levelo_inurba_marseille","lat":43.28422,"lon":5.34983,"is_reserved":false,"is_disabled":false,"rental_uris":{"android":"levelo://app?vid=5ea3c972-ba19-41f5-b15f-89656e5f0d65","ios":"levelo://app?vid=5ea3c972-ba19-41f5-b15f-89656e5f0d65"},"vehicle_type_id":"4","last_reported":1691852731,"current_range_meters":0,"station_id":"ce4bhbh2rcd13ifvqepg","pricing_plan_id":"free"},{"bike_id":"7683891b-01ae-4d96-8d23-ca515d1a019a","system_id":"levelo_inurba_marseille","lat":43.28419,"lon":5.34991,"is_reserved":false,"is_disabled":false,"rental_uris":{"android":"levelo://app?vid=7683891b-01ae-4d96-8d23-ca515d1a019a","ios":"levelo://app?vid=7683891b-01ae-4d96-8d23-ca515d1a019a"},"vehicle_type_id":"4","last_reported":1691852731,"current_range_meters":30800,"station_id":"ce4bhbh2rcd13ifvqepg","pricing_plan_id":"free"},{"bike_id":"653d7767-e989-4e56-a7f3-98440879dbc2","system_id":"levelo_inurba_marseille","lat":43.284219,"lon":5.3497,"is_reserved":false,"is_disabled":false,"rental_uris":{"android":"levelo://app?vid=653d7767-e989-4e56-a7f3-98440879dbc2","ios":"levelo://app?vid=653d7767-e989-4e56-a7f3-98440879dbc2"},"vehicle_type_id":"4","last_reported":1691852731,"current_range_meters":26400,"station_id":"ce4bhbh2rcd13ifvqepg","pricing_plan_id":"free"},{"bike_id":"ec3d2c64-c29e-4a1a-9cd6-5fc940226bd4","system_id":"levelo_inurba_marseille","lat":43.28422,"lon":5.34979,"is_reserved":false,"is_disabled":false,"rental_uris":{"android":"levelo://app?vid=ec3d2c64-c29e-4a1a-9cd6-5fc940226bd4","ios":"levelo://app?vid=ec3d2c64-c29e-4a1a-9cd6-5fc940226bd4"},"vehicle_type_id":"4","last_reported":1691852731,"current_range_meters":12000,"station_id":"ce4bhbh2rcd13ifvqepg","pricing_plan_id":"free"},{"bike_id":"b568e77a-5147-4276-b56d-d2e37f3dfe1e","system_id":"levelo_inurba_marseille","lat":43.284219,"lon":5.3497,"is_reserved":false,"is_disabled":false,"rental_uris":{"android":"levelo://app?vid=b568e77a-5147-4276-b56d-d2e37f3dfe1e","ios":"levelo://app?vid=b568e77a-5147-4276-b56d-d2e37f3dfe1e"},"vehicle_type_id":"4","last_reported":1691852731,"current_range_meters":22800,"station_id":"ce4bhbh2rcd13ifvqepg","pricing_plan_id":"free"},{"bike_id":"41edfc74-57ad-4c0d-a7f2-965f40fa6547","system_id":"levelo_inurba_marseille","lat":43.28416,"lon":5.34992,"is_reserved":false,"is_disabled":false,"rental_uris":{"android":"levelo://app?vid=41edfc74-57ad-4c0d-a7f2-965f40fa6547","ios":"levelo://app?vid=41edfc74-57ad-4c0d-a7f2-965f40fa6547"},"vehicle_type_id":"4","last_reported":1691852731,"current_range_meters":23600,"station_id":"ce4bhbh2rcd13ifvqepg","pricing_plan_id":"free"},{"bike_id":"d9b584cf-c884-464b-b4e5-116a03328a04","system_id":"levelo_inurba_marseille","lat":43.284219,"lon":5.3497,"is_reserved":false,"is_disabled":false,"rental_uris":{"android":"levelo://app?vid=d9b584cf-c884-464b-b4e5-116a03328a04","ios":"levelo://app?vid=d9b584cf-c884-464b-b4e5-116a03328a04"},"vehicle_type_id":"4","last_reported":1691852731,"current_range_meters":15600,"station_id":"ce4bhbh2rcd13ifvqepg","pricing_plan_id":"free"},{"bike_id":"823f3b4f-a689-44e6-8332-98b0afc324fc","system_id":"levelo_inurba_marseille","lat":43.284219,"lon":5.3497,"is_reserved":false,"is_disabled":false,"rental_uris":{"android":"levelo://app?vid=823f3b4f-a689-44e6-8332-98b0afc324fc","ios":"levelo://app?vid=823f3b4f-a689-44e6-8332-98b0afc324fc"},"vehicle_type_id":"4","last_reported":1691852731,"current_range_meters":28400,"station_id":"ce4bhbh2rcd13ifvqepg","pricing_plan_id":"free"},{"bike_id":"abe782ba-5320-4fb0-bdd9-7a00f2589f7d","system_id":"levelo_inurba_marseille","lat":43.28414,"lon":5.34993,"is_reserved":false,"is_disabled":false,"rental_uris":{"android":"levelo://app?vid=abe782ba-5320-4fb0-bdd9-7a00f2589f7d","ios":"levelo://app?vid=abe782ba-5320-4fb0-bdd9-7a00f2589f7d"},"vehicle_type_id":"4","last_reported":1691852731,"current_range_meters":31200,"station_id":"ce4bhbh2rcd13ifvqepg","pricing_plan_id":"free"},{"bike_id":"3158c134-9410-482c-b260-d6928c11f4ae","system_id":"levelo_inurba_marseille","lat":43.28417,"lon":5.34981,"is_reserved":false,"is_disabled":false,"rental_uris":{"android":"levelo://app?vid=3158c134-9410-482c-b260-d6928c11f4ae","ios":"levelo://app?vid=3158c134-9410-482c-b260-d6928c11f4ae"},"vehicle_type_id":"4","last_reported":1691852731,"current_range_meters":11600,"station_id":"ce4bhbh2rcd13ifvqepg","pricing_plan_id":"free"},{"bike_id":"5e60d11b-afc2-43a7-b83d-60e0b499fca7","system_id":"levelo_inurba_marseille","lat":43.28413,"lon":5.34993,"is_reserved":false,"is_disabled":false,"rental_uris":{"android":"levelo://app?vid=5e60d11b-afc2-43a7-b83d-60e0b499fca7","ios":"levelo://app?vid=5e60d11b-afc2-43a7-b83d-60e0b499fca7"},"vehicle_type_id":"4","last_reported":1691852731,"current_range_meters":24000,"station_id":"ce4bhbh2rcd13ifvqepg","pricing_plan_id":"free"},{"bike_id":"b5757c5b-4999-4c87-9eba-fa39b5085f5f","system_id":"levelo_inurba_marseille","lat":43.284219,"lon":5.3497,"is_reserved":false,"is_disabled":false,"rental_uris":{"android":"levelo://app?vid=b5757c5b-4999-4c87-9eba-fa39b5085f5f","ios":"levelo://app?vid=b5757c5b-4999-4c87-9eba-fa39b5085f5f"},"vehicle_type_id":"4","last_reported":1691852731,"current_range_meters":25600,"station_id":"ce4bhbh2rcd13ifvqepg","pricing_plan_id":"free"},{"bike_id":"91daee9c-96cf-410c-ba67-cb777d4c13f4","system_id":"levelo_inurba_marseille","lat":43.28412,"lon":5.34993,"is_reserved":false,"is_disabled":false,"rental_uris":{"android":"levelo://app?vid=91daee9c-96cf-410c-ba67-cb777d4c13f4","ios":"levelo://app?vid=91daee9c-96cf-410c-ba67-cb777d4c13f4"},"vehicle_type_id":"4","last_reported":1691852731,"current_range_meters":26000,"station_id":"ce4bhbh2rcd13ifvqepg","pricing_plan_id":"free"},{"bike_id":"17d6175b-d5ce-4d9d-994a-210022bb3c2f","system_id":"levelo_inurba_marseille","lat":43.28413,"lon":5.34988,"is_reserved":false,"is_disabled":false,"rental_uris":{"android":"levelo://app?vid=17d6175b-d5ce-4d9d-994a-210022bb3c2f","ios":"levelo://app?vid=17d6175b-d5ce-4d9d-994a-210022bb3c2f"},"vehicle_type_id":"4","last_reported":1691852731,"current_range_meters":31200,"station_id":"ce4bhbh2rcd13ifvqepg","pricing_plan_id":"free"},{"bike_id":"cb91c5bf-4874-491f-896e-1845ccf26e1f","system_id":"levelo_inurba_marseille","lat":43.28412,"lon":5.34984,"is_reserved":false,"is_disabled":false,"rental_uris":{"android":"levelo://app?vid=cb91c5bf-4874-491f-896e-1845ccf26e1f","ios":"levelo://app?vid=cb91c5bf-4874-491f-896e-1845ccf26e1f"},"vehicle_type_id":"4","last_reported":1691852731,"current_range_meters":20400,"station_id":"ce4bhbh2rcd13ifvqepg","pricing_plan_id":"free"},{"bike_id":"99c33f36-2cfe-45c2-8a31-df991aff9d9c","system_id":"levelo_inurba_marseille","lat":43.28412,"lon":5.34981,"is_reserved":false,"is_disabled":false,"rental_uris":{"android":"levelo://app?vid=99c33f36-2cfe-45c2-8a31-df991aff9d9c","ios":"levelo://app?vid=99c33f36-2cfe-45c2-8a31-df991aff9d9c"},"vehicle_type_id":"4","last_reported":1691852731,"current_range_meters":6800,"station_id":"ce4bhbh2rcd13ifvqepg","pricing_plan_id":"free"},{"bike_id":"5cec26ac-344f-432b-af34-450b75305b9b","system_id":"levelo_inurba_marseille","lat":43.292724,"lon":5.401131,"is_reserved":false,"is_disabled":false,"rental_uris":{"android":"levelo://app?vid=5cec26ac-344f-432b-af34-450b75305b9b","ios":"levelo://app?vid=5cec26ac-344f-432b-af34-450b75305b9b"},"vehicle_type_id":"4","last_reported":1691852731,"current_range_meters":31200,"station_id":"ce4bh312rcd13ifvqdk0","pricing_plan_id":"free"},{"bike_id":"ed40e2c0-4e99-44dd-ac06-0929f208e0c0","system_id":"levelo_inurba_marseille","lat":43.282744,"lon":5.350533,"is_reserved":false,"is_disabled":false,"rental_uris":{"android":"levelo://app?vid=ed40e2c0-4e99-44dd-ac06-0929f208e0c0","ios":"levelo://app?vid=ed40e2c0-4e99-44dd-ac06-0929f208e0c0"},"vehicle_type_id":"4","last_reported":1691852731,"current_range_meters":30800,"station_id":"ce4bhbp2rcd13ifvqerg","pricing_plan_id":"free"},{"bike_id":"88940920-727e-47f8-bee6-24feedff1167","system_id":"levelo_inurba_marseille","lat":43.282744,"lon":5.350533,"is_reserved":false,"is_disabled":false,"rental_uris":{"android":"levelo://app?vid=88940920-727e-47f8-bee6-24feedff1167","ios":"levelo://app?vid=88940920-727e-47f8-bee6-24feedff1167"},"vehicle_type_id":"4","last_reported":1691852731,"current_range_meters":31600,"station_id":"ce4bhbp2rcd13ifvqerg","pricing_plan_id":"free"},{"bike_id":"011ba36b-e86f-4276-86c9-29fd1ee89940","system_id":"levelo_inurba_marseille","lat":43.282744,"lon":5.350533,"is_reserved":false,"is_disabled":false,"rental_uris":{"android":"levelo://app?vid=011ba36b-e86f-4276-86c9-29fd1ee89940","ios":"levelo://app?vid=011ba36b-e86f-4276-86c9-29fd1ee89940"},"vehicle_type_id":"4","last_reported":1691852731,"current_range_meters":31200,"station_id":"ce4bhbp2rcd13ifvqerg","pricing_plan_id":"free"},{"bike_id":"05a97397-3106-42ca-be34-264070853384","system_id":"levelo_inurba_marseille","lat":43.28277,"lon":5.35075,"is_reserved":false,"is_disabled":false,"rental_uris":{"android":"levelo://app?vid=05a97397-3106-42ca-be34-264070853384","ios":"levelo://app?vid=05a97397-3106-42ca-be34-264070853384"},"vehicle_type_id":"4","last_reported":1691852731,"current_range_meters":15600,"station_id":"ce4bhbp2rcd13ifvqerg","pricing_plan_id":"free"},{"bike_id":"26890f38-8ba2-443f-b923-26c880b05536","system_id":"levelo_inurba_marseille","lat":43.28277,"lon":5.35069,"is_reserved":false,"is_disabled":false,"rental_uris":{"android":"levelo://app?vid=26890f38-8ba2-443f-b923-26c880b05536","ios":"levelo://app?vid=26890f38-8ba2-443f-b923-26c880b05536"},"vehicle_type_id":"4","last_reported":1691852731,"current_range_meters":14400,"station_id":"ce4bhbp2rcd13ifvqerg","pricing_plan_id":"free"},{"bike_id":"bb982810-4756-4947-9c0e-38e2c8652c08","system_id":"levelo_inurba_marseille","lat":43.28275,"lon":5.35072,"is_reserved":false,"is_disabled":false,"rental_uris":{"android":"levelo://app?vid=bb982810-4756-4947-9c0e-38e2c8652c08","ios":"levelo://app?vid=bb982810-4756-4947-9c0e-38e2c8652c08"},"vehicle_type_id":"4","last_reported":1691852731,"current_range_meters":13200,"station_id":"ce4bhbp2rcd13ifvqerg","pricing_plan_id":"free"},{"bike_id":"1fc6ade5-c86d-4c6d-9fc7-7033d45b5fe9","system_id":"levelo_inurba_marseille","lat":43.28274,"lon":5.35071,"is_reserved":false,"is_disabled":false,"rental_uris":{"android":"levelo://app?vid=1fc6ade5-c86d-4c6d-9fc7-7033d45b5fe9","ios":"levelo://app?vid=1fc6ade5-c86d-4c6d-9fc7-7033d45b5fe9"},"vehicle_type_id":"4","last_reported":1691852731,"current_range_meters":11200,"station_id":"ce4bhbp2rcd13ifvqerg","pricing_plan_id":"free"},{"bike_id":"cd3b6fb7-2de4-4fe3-a6ea-9b7f4f21d43a","system_id":"levelo_inurba_marseille","lat":43.28275,"lon":5.35067,"is_reserved":false,"is_disabled":false,"rental_uris":{"android":"levelo://app?vid=cd3b6fb7-2de4-4fe3-a6ea-9b7f4f21d43a","ios":"levelo://app?vid=cd3b6fb7-2de4-4fe3-a6ea-9b7f4f21d43a"},"vehicle_type_id":"4","last_reported":1691852731,"current_range_meters":28000,"station_id":"ce4bhbp2rcd13ifvqerg","pricing_plan_id":"free"},{"bike_id":"6730495b-a86f-43df-9037-b61ebf273edd","system_id":"levelo_inurba_marseille","lat":43.28275,"lon":5.35066,"is_reserved":false,"is_disabled":false,"rental_uris":{"android":"levelo://app?vid=6730495b-a86f-43df-9037-b61ebf273edd","ios":"levelo://app?vid=6730495b-a86f-43df-9037-b61ebf273edd"},"vehicle_type_id":"4","last_reported":1691852731,"current_range_meters":31200,"station_id":"ce4bhbp2rcd13ifvqerg","pricing_plan_id":"free"},{"bike_id":"f03c8f93-5b93-4330-8e67-aade0d22e188","system_id":"levelo_inurba_marseille","lat":43.28272,"lon":5.35072,"is_reserved":false,"is_disabled":false,"rental_uris":{"android":"levelo://app?vid=f03c8f93-5b93-4330-8e67-aade0d22e188","ios":"levelo://app?vid=f03c8f93-5b93-4330-8e67-aade0d22e188"},"vehicle_type_id":"4","last_reported":1691852731,"current_range_meters":9600,"station_id":"ce4bhbp2rcd13ifvqerg","pricing_plan_id":"free"},{"bike_id":"4bdc0675-a1e3-479c-89df-b6bd0342acae","system_id":"levelo_inurba_marseille","lat":43.282754,"lon":5.350519,"is_reserved":false,"is_disabled":false,"rental_uris":{"android":"levelo://app?vid=4bdc0675-a1e3-479c-89df-b6bd0342acae","ios":"levelo://app?vid=4bdc0675-a1e3-479c-89df-b6bd0342acae"},"vehicle_type_id":"4","last_reported":1691852731,"current_range_meters":31200,"station_id":"ce4bhbp2rcd13ifvqerg","pricing_plan_id":"free"},{"bike_id":"090b741a-3cc2-484f-b22a-4c95fbb4a5e7","system_id":"levelo_inurba_marseille","lat":43.28272,"lon":5.3507,"is_reserved":false,"is_disabled":false,"rental_uris":{"android":"levelo://app?vid=090b741a-3cc2-484f-b22a-4c95fbb4a5e7","ios":"levelo://app?vid=090b741a-3cc2-484f-b22a-4c95fbb4a5e7"},"vehicle_type_id":"4","last_reported":1691852731,"current_range_meters":20800,"station_id":"ce4bhbp2rcd13ifvqerg","pricing_plan_id":"free"},{"bike_id":"9fb1306a-3bf6-4286-bc41-f50de9558086","system_id":"levelo_inurba_marseille","lat":43.282754,"lon":5.350519,"is_reserved":false,"is_disabled":false,"rental_uris":{"android":"levelo://app?vid=9fb1306a-3bf6-4286-bc41-f50de9558086","ios":"levelo://app?vid=9fb1306a-3bf6-4286-bc41-f50de9558086"},"vehicle_type_id":"4","last_reported":1691852731,"current_range_meters":30800,"station_id":"ce4bhbp2rcd13ifvqerg","pricing_plan_id":"free"},{"bike_id":"aeb1b629-c3bc-424c-95d8-02f767f15d57","system_id":"levelo_inurba_marseille","lat":43.282744,"lon":5.350533,"is_reserved":false,"is_disabled":false,"rental_uris":{"android":"levelo://app?vid=aeb1b629-c3bc-424c-95d8-02f767f15d57","ios":"levelo://app?vid=aeb1b629-c3bc-424c-95d8-02f767f15d57"},"vehicle_type_id":"4","last_reported":1691852731,"current_range_meters":31600,"station_id":"ce4bhbp2rcd13ifvqerg","pricing_plan_id":"free"},{"bike_id":"5f06dc10-3d89-4da5-8316-0c94b46ed110","system_id":"levelo_inurba_marseille","lat":43.2827,"lon":5.35071,"is_reserved":false,"is_disabled":false,"rental_uris":{"android":"levelo://app?vid=5f06dc10-3d89-4da5-8316-0c94b46ed110","ios":"levelo://app?vid=5f06dc10-3d89-4da5-8316-0c94b46ed110"},"vehicle_type_id":"4","last_reported":1691852731,"current_range_meters":29600,"station_id":"ce4bhbp2rcd13ifvqerg","pricing_plan_id":"free"},{"bike_id":"69f4e108-2817-4ebf-9952-19b9605f34d7","system_id":"levelo_inurba_marseille","lat":43.282744,"lon":5.350533,"is_reserved":false,"is_disabled":false,"rental_uris":{"android":"levelo://app?vid=69f4e108-2817-4ebf-9952-19b9605f34d7","ios":"levelo://app?vid=69f4e108-2817-4ebf-9952-19b9605f34d7"},"vehicle_type_id":"4","last_reported":1691852731,"current_range_meters":31600,"station_id":"ce4bhbp2rcd13ifvqerg","pricing_plan_id":"free"},{"bike_id":"c582153c-c816-490a-af59-d38bada77b09","system_id":"levelo_inurba_marseille","lat":43.28267,"lon":5.35075,"is_reserved":false,"is_disabled":false,"rental_uris":{"android":"levelo://app?vid=c582153c-c816-490a-af59-d38bada77b09","ios":"levelo://app?vid=c582153c-c816-490a-af59-d38bada77b09"},"vehicle_type_id":"4","last_reported":1691852731,"current_range_meters":26000,"station_id":"ce4bhbp2rcd13ifvqerg","pricing_plan_id":"free"},{"bike_id":"970abcd4-067a-4d35-ac2d-dbe3e5de7116","system_id":"levelo_inurba_marseille","lat":43.28271,"lon":5.3506,"is_reserved":false,"is_disabled":false,"rental_uris":{"android":"levelo://app?vid=970abcd4-067a-4d35-ac2d-dbe3e5de7116","ios":"levelo://app?vid=970abcd4-067a-4d35-ac2d-dbe3e5de7116"},"vehicle_type_id":"4","last_reported":1691852731,"current_range_meters":0,"station_id":"ce4bhbp2rcd13ifvqerg","pricing_plan_id":"free"},{"bike_id":"dd95d071-fe48-4c22-aa27-f9e9528723b9","system_id":"levelo_inurba_marseille","lat":43.282744,"lon":5.350533,"is_reserved":false,"is_disabled":false,"rental_uris":{"android":"levelo://app?vid=dd95d071-fe48-4c22-aa27-f9e9528723b9","ios":"levelo://app?vid=dd95d071-fe48-4c22-aa27-f9e9528723b9"},"vehicle_type_id":"4","last_reported":1691852731,"current_range_meters":31600,"station_id":"ce4bhbp2rcd13ifvqerg","pricing_plan_id":"free"},{"bike_id":"b8235933-5be7-449b-9946-2b54962569a7","system_id":"levelo_inurba_marseille","lat":43.282744,"lon":5.350533,"is_reserved":false,"is_disabled":false,"rental_uris":{"android":"levelo://app?vid=b8235933-5be7-449b-9946-2b54962569a7","ios":"levelo://app?vid=b8235933-5be7-449b-9946-2b54962569a7"},"vehicle_type_id":"4","last_reported":1691852731,"current_range_meters":13600,"station_id":"ce4bhbp2rcd13ifvqerg","pricing_plan_id":"free"},{"bike_id":"8e584fa1-79a3-4cd0-8031-b62446227c08","system_id":"levelo_inurba_marseille","lat":43.282744,"lon":5.350533,"is_reserved":false,"is_disabled":false,"rental_uris":{"android":"levelo://app?vid=8e584fa1-79a3-4cd0-8031-b62446227c08","ios":"levelo://app?vid=8e584fa1-79a3-4cd0-8031-b62446227c08"},"vehicle_type_id":"4","last_reported":1691852731,"current_range_meters":26800,"station_id":"ce4bhbp2rcd13ifvqerg","pricing_plan_id":"free"},{"bike_id":"d33827b0-c20a-456b-987c-13f42c77a1a1","system_id":"levelo_inurba_marseille","lat":43.28039,"lon":5.369297,"is_reserved":false,"is_disabled":false,"rental_uris":{"android":"levelo://app?vid=d33827b0-c20a-456b-987c-13f42c77a1a1","ios":"levelo://app?vid=d33827b0-c20a-456b-987c-13f42c77a1a1"},"vehicle_type_id":"4","last_reported":1691852731,"current_range_meters":20800,"station_id":"ce4bha12rcd13ifvqef0","pricing_plan_id":"free"},{"bike_id":"6154e0d8-42cb-4c75-8ef8-2c0c6a1a4456","system_id":"levelo_inurba_marseille","lat":43.282744,"lon":5.350533,"is_reserved":false,"is_disabled":false,"rental_uris":{"android":"levelo://app?vid=6154e0d8-42cb-4c75-8ef8-2c0c6a1a4456","ios":"levelo://app?vid=6154e0d8-42cb-4c75-8ef8-2c0c6a1a4456"},"vehicle_type_id":"4","last_reported":1691852731,"current_range_meters":4800,"station_id":"ce4bhbp2rcd13ifvqerg","pricing_plan_id":"free"},{"bike_id":"9e0cf028-2672-425c-b4bf-a15b7e096f18","system_id":"levelo_inurba_marseille","lat":43.28361,"lon":5.38644,"is_reserved":false,"is_disabled":false,"rental_uris":{"android":"levelo://app?vid=9e0cf028-2672-425c-b4bf-a15b7e096f18","ios":"levelo://app?vid=9e0cf028-2672-425c-b4bf-a15b7e096f18"},"vehicle_type_id":"4","last_reported":1691852731,"current_range_meters":14800,"station_id":"ce4bh492rcd13ifvqdvg","pricing_plan_id":"free"},{"bike_id":"96bb78f0-b017-4bf0-b6e6-a8502b58e0f0","system_id":"levelo_inurba_marseille","lat":43.28038,"lon":5.3694,"is_reserved":false,"is_disabled":false,"rental_uris":{"android":"levelo://app?vid=96bb78f0-b017-4bf0-b6e6-a8502b58e0f0","ios":"levelo://app?vid=96bb78f0-b017-4bf0-b6e6-a8502b58e0f0"},"vehicle_type_id":"4","last_reported":1691852731,"current_range_meters":4800,"station_id":"ce4bha12rcd13ifvqef0","pricing_plan_id":"free"},{"bike_id":"55bea554-743c-4c7f-9b36-2d2d208331c6","system_id":"levelo_inurba_marseille","lat":43.283502,"lon":5.386471,"is_reserved":false,"is_disabled":false,"rental_uris":{"android":"levelo://app?vid=55bea554-743c-4c7f-9b36-2d2d208331c6","ios":"levelo://app?vid=55bea554-743c-4c7f-9b36-2d2d208331c6"},"vehicle_type_id":"4","last_reported":1691852731,"current_range_meters":18800,"station_id":"ce4bh492rcd13ifvqdvg","pricing_plan_id":"free"},{"bike_id":"3ef62f71-4cc0-4f4c-97da-dcacaefba0c7","system_id":"levelo_inurba_marseille","lat":43.28039,"lon":5.369297,"is_reserved":false,"is_disabled":false,"rental_uris":{"android":"levelo://app?vid=3ef62f71-4cc0-4f4c-97da-dcacaefba0c7","ios":"levelo://app?vid=3ef62f71-4cc0-4f4c-97da-dcacaefba0c7"},"vehicle_type_id":"4","last_reported":1691852731,"current_range_meters":31600,"station_id":"ce4bha12rcd13ifvqef0","pricing_plan_id":"free"},{"bike_id":"eb8e4c4f-5fc5-4007-ab2b-231fad0dc17c","system_id":"levelo_inurba_marseille","lat":43.29041,"lon":5.399634,"is_reserved":false,"is_disabled":false,"rental_uris":{"android":"levelo://app?vid=eb8e4c4f-5fc5-4007-ab2b-231fad0dc17c","ios":"levelo://app?vid=eb8e4c4f-5fc5-4007-ab2b-231fad0dc17c"},"vehicle_type_id":"4","last_reported":1691852731,"current_range_meters":30800,"station_id":"ce4bh392rcd13ifvqdm0","pricing_plan_id":"free"},{"bike_id":"f31c25b2-cbbf-4aa9-89c0-e2fbb42e6856","system_id":"levelo_inurba_marseille","lat":43.281,"lon":5.37838,"is_reserved":false,"is_disabled":false,"rental_uris":{"android":"levelo://app?vid=f31c25b2-cbbf-4aa9-89c0-e2fbb42e6856","ios":"levelo://app?vid=f31c25b2-cbbf-4aa9-89c0-e2fbb42e6856"},"vehicle_type_id":"4","last_reported":1691852731,"current_range_meters":8000,"station_id":"ce4bha12rcd13ifvqee0","pricing_plan_id":"free"},{"bike_id":"26cf5e75-bb9c-4e66-9b57-3f57adfff943","system_id":"levelo_inurba_marseille","lat":43.29631,"lon":5.40598,"is_reserved":false,"is_disabled":false,"rental_uris":{"android":"levelo://app?vid=26cf5e75-bb9c-4e66-9b57-3f57adfff943","ios":"levelo://app?vid=26cf5e75-bb9c-4e66-9b57-3f57adfff943"},"vehicle_type_id":"4","last_reported":1691852731,"current_range_meters":1200,"station_id":"ce4bh0h2rcd13ifvqd60","pricing_plan_id":"free"},{"bike_id":"5cb816ca-e9a6-4433-8a05-a8dd71a1f854","system_id":"levelo_inurba_marseille","lat":43.284462,"lon":5.392121,"is_reserved":false,"is_disabled":false,"rental_uris":{"android":"levelo://app?vid=5cb816ca-e9a6-4433-8a05-a8dd71a1f854","ios":"levelo://app?vid=5cb816ca-e9a6-4433-8a05-a8dd71a1f854"},"vehicle_type_id":"4","last_reported":1691852731,"current_range_meters":10800,"station_id":"ce4bhoh2rcd13ifvqh5g","pricing_plan_id":"free"},{"bike_id":"a0f258ed-ced3-412c-a3a0-592502c28464","system_id":"levelo_inurba_marseille","lat":43.32661,"lon":5.40929,"is_reserved":false,"is_disabled":false,"rental_uris":{"android":"levelo://app?vid=a0f258ed-ced3-412c-a3a0-592502c28464","ios":"levelo://app?vid=a0f258ed-ced3-412c-a3a0-592502c28464"},"vehicle_type_id":"4","last_reported":1691852731,"current_range_meters":15200,"station_id":"","pricing_plan_id":"free"},{"bike_id":"f42b7872-5584-4239-b4b2-845ea01160c2","system_id":"levelo_inurba_marseille","lat":43.285742,"lon":5.395004,"is_reserved":false,"is_disabled":false,"rental_uris":{"android":"levelo://app?vid=f42b7872-5584-4239-b4b2-845ea01160c2","ios":"levelo://app?vid=f42b7872-5584-4239-b4b2-845ea01160c2"},"vehicle_type_id":"4","last_reported":1691852731,"current_range_meters":28400,"station_id":"ce4bh292rcd13ifvqdg0","pricing_plan_id":"free"},{"bike_id":"482fc622-e271-488a-83f0-3334b6aee62d","system_id":"levelo_inurba_marseille","lat":43.3266,"lon":5.40983,"is_reserved":false,"is_disabled":false,"rental_uris":{"android":"levelo://app?vid=482fc622-e271-488a-83f0-3334b6aee62d","ios":"levelo://app?vid=482fc622-e271-488a-83f0-3334b6aee62d"},"vehicle_type_id":"4","last_reported":1691852731,"current_range_meters":31200,"station_id":"ce4bhpp2rcd13ifvqhgg","pricing_plan_id":"free"},{"bike_id":"a198a2b7-0bb3-43a3-a883-3f9fd89f016e","system_id":"levelo_inurba_marseille","lat":43.32662,"lon":5.40984,"is_reserved":false,"is_disabled":false,"rental_uris":{"android":"levelo://app?vid=a198a2b7-0bb3-43a3-a883-3f9fd89f016e","ios":"levelo://app?vid=a198a2b7-0bb3-43a3-a883-3f9fd89f016e"},"vehicle_type_id":"4","last_reported":1691852731,"current_range_meters":31200,"station_id":"ce4bhpp2rcd13ifvqhgg","pricing_plan_id":"free"},{"bike_id":"686ee020-b9e3-45bf-bf4e-92cda32b1d0e","system_id":"levelo_inurba_marseille","lat":43.326605,"lon":5.409903,"is_reserved":false,"is_disabled":false,"rental_uris":{"android":"levelo://app?vid=686ee020-b9e3-45bf-bf4e-92cda32b1d0e","ios":"levelo://app?vid=686ee020-b9e3-45bf-bf4e-92cda32b1d0e"},"vehicle_type_id":"4","last_reported":1691852731,"current_range_meters":18400,"station_id":"ce4bhpp2rcd13ifvqhgg","pricing_plan_id":"free"},{"bike_id":"338897be-2ef3-4769-b926-4ebf115f9f86","system_id":"levelo_inurba_marseille","lat":43.32659,"lon":5.40988,"is_reserved":false,"is_disabled":false,"rental_uris":{"android":"levelo://app?vid=338897be-2ef3-4769-b926-4ebf115f9f86","ios":"levelo://app?vid=338897be-2ef3-4769-b926-4ebf115f9f86"},"vehicle_type_id":"4","last_reported":1691852731,"current_range_meters":23200,"station_id":"ce4bhpp2rcd13ifvqhgg","pricing_plan_id":"free"},{"bike_id":"b2296d5a-5356-4f93-b2c1-a43c9f125823","system_id":"levelo_inurba_marseille","lat":43.326605,"lon":5.409903,"is_reserved":false,"is_disabled":false,"rental_uris":{"android":"levelo://app?vid=b2296d5a-5356-4f93-b2c1-a43c9f125823","ios":"levelo://app?vid=b2296d5a-5356-4f93-b2c1-a43c9f125823"},"vehicle_type_id":"4","last_reported":1691852731,"current_range_meters":14400,"station_id":"ce4bhpp2rcd13ifvqhgg","pricing_plan_id":"free"},{"bike_id":"17871fac-3496-4a57-be8e-0acb60dc3de5","system_id":"levelo_inurba_marseille","lat":43.32663,"lon":5.40989,"is_reserved":false,"is_disabled":false,"rental_uris":{"android":"levelo://app?vid=17871fac-3496-4a57-be8e-0acb60dc3de5","ios":"levelo://app?vid=17871fac-3496-4a57-be8e-0acb60dc3de5"},"vehicle_type_id":"4","last_reported":1691852731,"current_range_meters":31200,"station_id":"ce4bhpp2rcd13ifvqhgg","pricing_plan_id":"free"},{"bike_id":"1c14edb4-41c5-4b75-ba63-7b8ce648a4b7","system_id":"levelo_inurba_marseille","lat":43.32661,"lon":5.40991,"is_reserved":false,"is_disabled":false,"rental_uris":{"android":"levelo://app?vid=1c14edb4-41c5-4b75-ba63-7b8ce648a4b7","ios":"levelo://app?vid=1c14edb4-41c5-4b75-ba63-7b8ce648a4b7"},"vehicle_type_id":"4","last_reported":1691852731,"current_range_meters":30000,"station_id":"ce4bhpp2rcd13ifvqhgg","pricing_plan_id":"free"},{"bike_id":"eae365ed-8378-4fe0-beb4-beae857bd763","system_id":"levelo_inurba_marseille","lat":43.326605,"lon":5.409903,"is_reserved":false,"is_disabled":false,"rental_uris":{"android":"levelo://app?vid=eae365ed-8378-4fe0-beb4-beae857bd763","ios":"levelo://app?vid=eae365ed-8378-4fe0-beb4-beae857bd763"},"vehicle_type_id":"4","last_reported":1691852731,"current_range_meters":6000,"station_id":"ce4bhpp2rcd13ifvqhgg","pricing_plan_id":"free"},{"bike_id":"7d20c6f9-54b3-482c-9f46-2975184da393","system_id":"levelo_inurba_marseille","lat":43.32658,"lon":5.40996,"is_reserved":false,"is_disabled":false,"rental_uris":{"android":"levelo://app?vid=7d20c6f9-54b3-482c-9f46-2975184da393","ios":"levelo://app?vid=7d20c6f9-54b3-482c-9f46-2975184da393"},"vehicle_type_id":"4","last_reported":1691852731,"current_range_meters":10000,"station_id":"ce4bhpp2rcd13ifvqhgg","pricing_plan_id":"free"},{"bike_id":"2ec1a3ae-43c9-405f-a1e1-b78ee0392aa4","system_id":"levelo_inurba_marseille","lat":43.33154,"lon":5.40635,"is_reserved":false,"is_disabled":false,"rental_uris":{"android":"levelo://app?vid=2ec1a3ae-43c9-405f-a1e1-b78ee0392aa4","ios":"levelo://app?vid=2ec1a3ae-43c9-405f-a1e1-b78ee0392aa4"},"vehicle_type_id":"4","last_reported":1691852731,"current_range_meters":5200,"station_id":"","pricing_plan_id":"free"},{"bike_id":"da6fbcb8-e009-46da-a322-fd6b91e19038","system_id":"levelo_inurba_marseille","lat":43.304188,"lon":5.412904,"is_reserved":false,"is_disabled":false,"rental_uris":{"android":"levelo://app?vid=da6fbcb8-e009-46da-a322-fd6b91e19038","ios":"levelo://app?vid=da6fbcb8-e009-46da-a322-fd6b91e19038"},"vehicle_type_id":"4","last_reported":1691852731,"current_range_meters":31200,"station_id":"ce4bhop2rcd13ifvqh8g","pricing_plan_id":"free"},{"bike_id":"f1a80c81-32ab-41ea-80dd-001891b9c055","system_id":"levelo_inurba_marseille","lat":43.304188,"lon":5.412904,"is_reserved":false,"is_disabled":false,"rental_uris":{"android":"levelo://app?vid=f1a80c81-32ab-41ea-80dd-001891b9c055","ios":"levelo://app?vid=f1a80c81-32ab-41ea-80dd-001891b9c055"},"vehicle_type_id":"4","last_reported":1691852731,"current_range_meters":31200,"station_id":"ce4bhop2rcd13ifvqh8g","pricing_plan_id":"free"},{"bike_id":"738d49be-9570-4611-a11f-7d3113a06ee9","system_id":"levelo_inurba_marseille","lat":43.33192,"lon":5.4066,"is_reserved":false,"is_disabled":false,"rental_uris":{"android":"levelo://app?vid=738d49be-9570-4611-a11f-7d3113a06ee9","ios":"levelo://app?vid=738d49be-9570-4611-a11f-7d3113a06ee9"},"vehicle_type_id":"4","last_reported":1691852731,"current_range_meters":30800,"station_id":"","pricing_plan_id":"free"},{"bike_id":"d55851b7-9259-4f70-af81-c8628cc81328","system_id":"levelo_inurba_marseille","lat":43.304188,"lon":5.412904,"is_reserved":false,"is_disabled":false,"rental_uris":{"android":"levelo://app?vid=d55851b7-9259-4f70-af81-c8628cc81328","ios":"levelo://app?vid=d55851b7-9259-4f70-af81-c8628cc81328"},"vehicle_type_id":"4","last_reported":1691852731,"current_range_meters":10400,"station_id":"ce4bhop2rcd13ifvqh8g","pricing_plan_id":"free"},{"bike_id":"897014e0-5f5e-412d-97e8-3d8d4cf1982d","system_id":"levelo_inurba_marseille","lat":43.29965,"lon":5.41297,"is_reserved":false,"is_disabled":false,"rental_uris":{"android":"levelo://app?vid=897014e0-5f5e-412d-97e8-3d8d4cf1982d","ios":"levelo://app?vid=897014e0-5f5e-412d-97e8-3d8d4cf1982d"},"vehicle_type_id":"4","last_reported":1691852731,"current_range_meters":16800,"station_id":"ce4bhp12rcd13ifvqh9g","pricing_plan_id":"free"},{"bike_id":"1ea7b9ab-3639-49c4-a737-1fd9e86ec593","system_id":"levelo_inurba_marseille","lat":43.3205,"lon":5.41551,"is_reserved":false,"is_disabled":false,"rental_uris":{"android":"levelo://app?vid=1ea7b9ab-3639-49c4-a737-1fd9e86ec593","ios":"levelo://app?vid=1ea7b9ab-3639-49c4-a737-1fd9e86ec593"},"vehicle_type_id":"4","last_reported":1691852731,"current_range_meters":29200,"station_id":"ce4bhq92rcd13ifvqhkg","pricing_plan_id":"free"},{"bike_id":"a91a698d-512d-427a-9b4a-f7a33d5144dc","system_id":"levelo_inurba_marseille","lat":43.3206,"lon":5.4155,"is_reserved":false,"is_disabled":false,"rental_uris":{"android":"levelo://app?vid=a91a698d-512d-427a-9b4a-f7a33d5144dc","ios":"levelo://app?vid=a91a698d-512d-427a-9b4a-f7a33d5144dc"},"vehicle_type_id":"4","last_reported":1691852731,"current_range_meters":31200,"station_id":"ce4bhq92rcd13ifvqhkg","pricing_plan_id":"free"},{"bike_id":"c327718a-8fe6-4791-a349-aba0f8f94e82","system_id":"levelo_inurba_marseille","lat":43.279742,"lon":5.38744,"is_reserved":false,"is_disabled":false,"rental_uris":{"android":"levelo://app?vid=c327718a-8fe6-4791-a349-aba0f8f94e82","ios":"levelo://app?vid=c327718a-8fe6-4791-a349-aba0f8f94e82"},"vehicle_type_id":"4","last_reported":1691852731,"current_range_meters":29200,"station_id":"ce4bhg12rcd13ifvqf80","pricing_plan_id":"free"},{"bike_id":"1e242145-38eb-4938-a6df-bbfde5080df8","system_id":"levelo_inurba_marseille","lat":43.276226,"lon":5.361056,"is_reserved":false,"is_disabled":false,"rental_uris":{"android":"levelo://app?vid=1e242145-38eb-4938-a6df-bbfde5080df8","ios":"levelo://app?vid=1e242145-38eb-4938-a6df-bbfde5080df8"},"vehicle_type_id":"4","last_reported":1691852731,"current_range_meters":31200,"station_id":"ce4bgj92rcd13ifvqbe0","pricing_plan_id":"free"},{"bike_id":"a906beed-32d8-4893-a3de-4317b149b163","system_id":"levelo_inurba_marseille","lat":43.276179,"lon":5.361009,"is_reserved":false,"is_disabled":false,"rental_uris":{"android":"levelo://app?vid=a906beed-32d8-4893-a3de-4317b149b163","ios":"levelo://app?vid=a906beed-32d8-4893-a3de-4317b149b163"},"vehicle_type_id":"4","last_reported":1691852731,"current_range_meters":12800,"station_id":"ce4bgj92rcd13ifvqbe0","pricing_plan_id":"free"},{"bike_id":"2c80864b-d64d-44f6-8539-4dd5736034ba","system_id":"levelo_inurba_marseille","lat":43.276179,"lon":5.361009,"is_reserved":false,"is_disabled":false,"rental_uris":{"android":"levelo://app?vid=2c80864b-d64d-44f6-8539-4dd5736034ba","ios":"levelo://app?vid=2c80864b-d64d-44f6-8539-4dd5736034ba"},"vehicle_type_id":"4","last_reported":1691852731,"current_range_meters":25600,"station_id":"ce4bgj92rcd13ifvqbe0","pricing_plan_id":"free"},{"bike_id":"22291eca-5e9e-489a-9817-d15b56f3bb32","system_id":"levelo_inurba_marseille","lat":43.276179,"lon":5.361009,"is_reserved":false,"is_disabled":false,"rental_uris":{"android":"levelo://app?vid=22291eca-5e9e-489a-9817-d15b56f3bb32","ios":"levelo://app?vid=22291eca-5e9e-489a-9817-d15b56f3bb32"},"vehicle_type_id":"4","last_reported":1691852731,"current_range_meters":31200,"station_id":"ce4bgj92rcd13ifvqbe0","pricing_plan_id":"free"},{"bike_id":"386ed8e3-b71e-4f68-86af-202c5b76503e","system_id":"levelo_inurba_marseille","lat":43.27611,"lon":5.36121,"is_reserved":false,"is_disabled":false,"rental_uris":{"android":"levelo://app?vid=386ed8e3-b71e-4f68-86af-202c5b76503e","ios":"levelo://app?vid=386ed8e3-b71e-4f68-86af-202c5b76503e"},"vehicle_type_id":"4","last_reported":1691852731,"current_range_meters":24000,"station_id":"ce4bgj92rcd13ifvqbe0","pricing_plan_id":"free"},{"bike_id":"e054d7f3-9372-409e-9f0c-ac68b3331341","system_id":"levelo_inurba_marseille","lat":43.303837,"lon":5.418724,"is_reserved":false,"is_disabled":false,"rental_uris":{"android":"levelo://app?vid=e054d7f3-9372-409e-9f0c-ac68b3331341","ios":"levelo://app?vid=e054d7f3-9372-409e-9f0c-ac68b3331341"},"vehicle_type_id":"4","last_reported":1691852731,"current_range_meters":22400,"station_id":"ce4bhop2rcd13ifvqh7g","pricing_plan_id":"free"},{"bike_id":"df9cb19a-be75-406e-957d-03a8696c64f6","system_id":"levelo_inurba_marseille","lat":43.303837,"lon":5.418724,"is_reserved":false,"is_disabled":false,"rental_uris":{"android":"levelo://app?vid=df9cb19a-be75-406e-957d-03a8696c64f6","ios":"levelo://app?vid=df9cb19a-be75-406e-957d-03a8696c64f6"},"vehicle_type_id":"4","last_reported":1691852731,"current_range_meters":18000,"station_id":"ce4bhop2rcd13ifvqh7g","pricing_plan_id":"free"},{"bike_id":"82b97d4b-7d6f-46b6-8859-fff29ba54af7","system_id":"levelo_inurba_marseille","lat":43.278399,"lon":5.392139,"is_reserved":false,"is_disabled":false,"rental_uris":{"android":"levelo://app?vid=82b97d4b-7d6f-46b6-8859-fff29ba54af7","ios":"levelo://app?vid=82b97d4b-7d6f-46b6-8859-fff29ba54af7"},"vehicle_type_id":"4","last_reported":1691852731,"current_range_meters":18400,"station_id":"ce4bhjp2rcd13ifvqga0","pricing_plan_id":"free"},{"bike_id":"bb8eb1b2-2a0c-4941-9c23-5388343c68e1","system_id":"levelo_inurba_marseille","lat":43.27384,"lon":5.36264,"is_reserved":false,"is_disabled":false,"rental_uris":{"android":"levelo://app?vid=bb8eb1b2-2a0c-4941-9c23-5388343c68e1","ios":"levelo://app?vid=bb8eb1b2-2a0c-4941-9c23-5388343c68e1"},"vehicle_type_id":"4","last_reported":1691852731,"current_range_meters":16400,"station_id":"ce4bhbh2rcd13ifvqeo0","pricing_plan_id":"free"},{"bike_id":"cdbb1529-7eba-439f-b87f-8a5d34181938","system_id":"levelo_inurba_marseille","lat":43.273613,"lon":5.362705,"is_reserved":false,"is_disabled":false,"rental_uris":{"android":"levelo://app?vid=cdbb1529-7eba-439f-b87f-8a5d34181938","ios":"levelo://app?vid=cdbb1529-7eba-439f-b87f-8a5d34181938"},"vehicle_type_id":"4","last_reported":1691852731,"current_range_meters":31200,"station_id":"ce4bhbh2rcd13ifvqeo0","pricing_plan_id":"free"},{"bike_id":"f59f20a5-9182-48a4-832a-ae24e44f2178","system_id":"levelo_inurba_marseille","lat":43.27383,"lon":5.36264,"is_reserved":false,"is_disabled":false,"rental_uris":{"android":"levelo://app?vid=f59f20a5-9182-48a4-832a-ae24e44f2178","ios":"levelo://app?vid=f59f20a5-9182-48a4-832a-ae24e44f2178"},"vehicle_type_id":"4","last_reported":1691852731,"current_range_meters":23600,"station_id":"ce4bhbh2rcd13ifvqeo0","pricing_plan_id":"free"},{"bike_id":"4b3809a8-6b7b-496b-a514-fb3f077049a9","system_id":"levelo_inurba_marseille","lat":43.2783,"lon":5.3922,"is_reserved":false,"is_disabled":false,"rental_uris":{"android":"levelo://app?vid=4b3809a8-6b7b-496b-a514-fb3f077049a9","ios":"levelo://app?vid=4b3809a8-6b7b-496b-a514-fb3f077049a9"},"vehicle_type_id":"4","last_reported":1691852731,"current_range_meters":15200,"station_id":"","pricing_plan_id":"free"},{"bike_id":"75d002f3-e400-4f47-aacf-95059208d36b","system_id":"levelo_inurba_marseille","lat":43.273613,"lon":5.362705,"is_reserved":false,"is_disabled":false,"rental_uris":{"android":"levelo://app?vid=75d002f3-e400-4f47-aacf-95059208d36b","ios":"levelo://app?vid=75d002f3-e400-4f47-aacf-95059208d36b"},"vehicle_type_id":"4","last_reported":1691852731,"current_range_meters":22400,"station_id":"ce4bhbh2rcd13ifvqeo0","pricing_plan_id":"free"},{"bike_id":"649b3ea9-1552-47ea-9b2d-9f7d63979bcf","system_id":"levelo_inurba_marseille","lat":43.273613,"lon":5.362705,"is_reserved":false,"is_disabled":false,"rental_uris":{"android":"levelo://app?vid=649b3ea9-1552-47ea-9b2d-9f7d63979bcf","ios":"levelo://app?vid=649b3ea9-1552-47ea-9b2d-9f7d63979bcf"},"vehicle_type_id":"4","last_reported":1691852731,"current_range_meters":31200,"station_id":"ce4bhbh2rcd13ifvqeo0","pricing_plan_id":"free"},{"bike_id":"bb397dbb-000c-4be4-b7c2-ed743753a08b","system_id":"levelo_inurba_marseille","lat":43.273613,"lon":5.362705,"is_reserved":false,"is_disabled":false,"rental_uris":{"android":"levelo://app?vid=bb397dbb-000c-4be4-b7c2-ed743753a08b","ios":"levelo://app?vid=bb397dbb-000c-4be4-b7c2-ed743753a08b"},"vehicle_type_id":"4","last_reported":1691852731,"current_range_meters":16000,"station_id":"ce4bhbh2rcd13ifvqeo0","pricing_plan_id":"free"},{"bike_id":"83fca188-9a5c-468a-939a-2560f8582e90","system_id":"levelo_inurba_marseille","lat":43.273613,"lon":5.362705,"is_reserved":false,"is_disabled":false,"rental_uris":{"android":"levelo://app?vid=83fca188-9a5c-468a-939a-2560f8582e90","ios":"levelo://app?vid=83fca188-9a5c-468a-939a-2560f8582e90"},"vehicle_type_id":"4","last_reported":1691852731,"current_range_meters":19600,"station_id":"ce4bhbh2rcd13ifvqeo0","pricing_plan_id":"free"},{"bike_id":"3dc49c32-6c30-4f2f-9fd9-e27b22bed64f","system_id":"levelo_inurba_marseille","lat":43.273613,"lon":5.362705,"is_reserved":false,"is_disabled":false,"rental_uris":{"android":"levelo://app?vid=3dc49c32-6c30-4f2f-9fd9-e27b22bed64f","ios":"levelo://app?vid=3dc49c32-6c30-4f2f-9fd9-e27b22bed64f"},"vehicle_type_id":"4","last_reported":1691852731,"current_range_meters":30800,"station_id":"ce4bhbh2rcd13ifvqeo0","pricing_plan_id":"free"},{"bike_id":"e90bfddb-6a87-428f-b93a-27b431e21a43","system_id":"levelo_inurba_marseille","lat":43.273613,"lon":5.362705,"is_reserved":false,"is_disabled":false,"rental_uris":{"android":"levelo://app?vid=e90bfddb-6a87-428f-b93a-27b431e21a43","ios":"levelo://app?vid=e90bfddb-6a87-428f-b93a-27b431e21a43"},"vehicle_type_id":"4","last_reported":1691852731,"current_range_meters":27200,"station_id":"ce4bhbh2rcd13ifvqeo0","pricing_plan_id":"free"},{"bike_id":"e1419460-4275-40b4-9c6a-743dc2175856","system_id":"levelo_inurba_marseille","lat":43.273613,"lon":5.362705,"is_reserved":false,"is_disabled":false,"rental_uris":{"android":"levelo://app?vid=e1419460-4275-40b4-9c6a-743dc2175856","ios":"levelo://app?vid=e1419460-4275-40b4-9c6a-743dc2175856"},"vehicle_type_id":"4","last_reported":1691852731,"current_range_meters":31600,"station_id":"ce4bhbh2rcd13ifvqeo0","pricing_plan_id":"free"},