{"last_updated":1739211203,"ttl":60,"version":"2.2","data":{"bikes":[{"bike_id":"5cda301b-bce8-41d3-abea-2e981f99524e","system_id":"levelo_inurba_marseille","lat":43.29849,"lon":5.36285,"is_reserved":false,"is_disabled":false,"rental_uris":{"android":"levelo://app?vid=5cda301b-bce8-41d3-abea-2e981f99524e","ios":"levelo://app?vid=5cda301b-bce8-41d3-abea-2e981f99524e"},"vehicle_type_id":"4","last_reported":1739211203,"current_range_meters":28400,"station_id":"ce4bgpp2rcd13ifvqc3g","pricing_plan_id":"cebpf4jnsgd1na2vs0mg"},{"bike_id":"6bebc4c8-69ea-4172-940f-fcdebdb6f8aa","system_id":"levelo_inurba_marseille","lat":43.29261,"lon":5.38456,"is_reserved":false,"is_disabled":false,"rental_uris":{"android":"levelo://app?vid=6bebc4c8-69ea-4172-940f-fcdebdb6f8aa","ios":"levelo://app?vid=6bebc4c8-69ea-4172-940f-fcdebdb6f8aa"},"vehicle_type_id":"4","last_reported":1739211203,"current_range_meters":32400,"station_id":"ce4bh692rcd13ifvqea0","pricing_plan_id":"cebpf4jnsgd1na2vs0mg"},{"bike_id":"e7d8ed8c-85a3-44c3-8805-56fbe310205d","system_id":"levelo_inurba_marseille","lat":43.28411,"lon":5.37515,"is_reserved":false,"is_disabled":false,"rental_uris":{"android":"levelo://app?vid=e7d8ed8c-85a3-44c3-8805-56fbe310205d","ios":"levelo://app?vid=e7d8ed8c-85a3-44c3-8805-56fbe310205d"},"vehicle_type_id":"4","last_reported":1739211203,"current_range_meters":38000,"station_id":"ce4bh412rcd13ifvqds0","pricing_plan_id":"cebpf4jnsgd1na2vs0mg"},{"bike_id":"9eef4d4d-6af0-40e5-b3ef-3a8f6c4313c6","system_id":"levelo_inurba_marseille","lat":43.28859,"lon":5.39312,"is_reserved":false,"is_disabled":false,"rental_uris":{"android":"levelo://app?vid=9eef4d4d-6af0-40e5-b3ef-3a8f6c4313c6","ios":"levelo://app?vid=9eef4d4d-6af0-40e5-b3ef-3a8f6c4313c6"},"vehicle_type_id":"4","last_reported":1739211203,"current_range_meters":8800,"station_id":"ce4bh2p2rcd13ifvqdi0","pricing_plan_id":"cebpf4jnsgd1na2vs0mg"},{"bike_id":"b068362a-3288-489d-9388-78d1aec4149d","system_id":"levelo_inurba_marseille","lat":43.26559,"lon":5.39016,"is_reserved":false,"is_disabled":false,"rental_uris":{"android":"levelo://app?vid=b068362a-3288-489d-9388-78d1aec4149d","ios":"levelo://app?vid=b068362a-3288-489d-9388-78d1aec4149d"},"vehicle_type_id":"4","last_reported":1739211203,"current_range_meters":38800,"station_id":"ce4bhe12rcd13ifvqf30","pricing_plan_id":"cebpf4jnsgd1na2vs0mg"},{"bike_id":"2c79f386-0aff-4f60-b200-023bfcd6d056","system_id":"levelo_inurba_marseille","lat":43.29592,"lon":5.36745,"is_reserved":false,"is_disabled":false,"rental_uris":{"android":"levelo://app?vid=2c79f386-0aff-4f60-b200-023bfcd6d056","ios":"levelo://app?vid=2c79f386-0aff-4f60-b200-023bfcd6d056"},"vehicle_type_id":"4","last_reported":1739211203,"current_range_meters":36800,"station_id":"ce4bgph2rcd13ifvqc2g","pricing_plan_id":"cebpf4jnsgd1na2vs0mg"},{"bike_id":"1e432c46-6902-4068-bc83-c8d18cce47cc","system_id":"levelo_inurba_marseille","lat":43.26078,"lon":5.39345,"is_reserved":false,"is_disabled":false,"rental_uris":{"android":"levelo://app?vid=1e432c46-6902-4068-bc83-c8d18cce47cc","ios":"levelo://app?vid=1e432c46-6902-4068-bc83-c8d18cce47cc"},"vehicle_type_id":"4","last_reported":1739211203,"current_range_meters":39200,"station_id":"ce4bhh92rcd13ifvqfj0","pricing_plan_id":"cebpf4jnsgd1na2vs0mg"},{"bike_id":"e993eb87-94d2-4703-9939-c1e249fc0545","system_id":"levelo_inurba_marseille","lat":43.27677,"lon":5.38867,"is_reserved":false,"is_disabled":false,"rental_uris":{"android":"levelo://app?vid=e993eb87-94d2-4703-9939-c1e249fc0545","ios":"levelo://app?vid=e993eb87-94d2-4703-9939-c1e249fc0545"},"vehicle_type_id":"4","last_reported":1739211203,"current_range_meters":38000,"station_id":"ce4bhi12rcd13ifvqfo0","pricing_plan_id":"cebpf4jnsgd1na2vs0mg"},{"bike_id":"3887b386-3ca2-4422-b535-49b5419b189a","system_id":"levelo_inurba_marseille","lat":43.28343,"lon":5.38095,"is_reserved":false,"is_disabled":false,"rental_uris":{"android":"levelo://app?vid=3887b386-3ca2-4422-b535-49b5419b189a","ios":"levelo://app?vid=3887b386-3ca2-4422-b535-49b5419b189a"},"vehicle_type_id":"4","last_reported":1739211203,"current_range_meters":32400,"station_id":"ce4bh412rcd13ifvqdr0","pricing_plan_id":"cebpf4jnsgd1na2vs0mg"},{"bike_id":"ff82ee3e-6927-4929-9ab9-69d9ba0b2981","system_id":"levelo_inurba_marseille","lat":43.27959,"lon":5.41032,"is_reserved":false,"is_disabled":true,"rental_uris":{"android":"levelo://app?vid=ff82ee3e-6927-4929-9ab9-69d9ba0b2981","ios":"levelo://app?vid=ff82ee3e-6927-4929-9ab9-69d9ba0b2981"},"vehicle_type_id":"4","last_reported":1739211203,"current_range_meters":0,"station_id":"ce4bhnp2rcd13ifvqh0g","pricing_plan_id":"cebpf4jnsgd1na2vs0mg"},{"bike_id":"acfa6e83-9dec-41be-a012-0d6b6130d9d9","system_id":"levelo_inurba_marseille","lat":43.31132,"lon":5.37765,"is_reserved":false,"is_disabled":false,"rental_uris":{"android":"levelo://app?vid=acfa6e83-9dec-41be-a012-0d6b6130d9d9","ios":"levelo://app?vid=acfa6e83-9dec-41be-a012-0d6b6130d9d9"},"vehicle_type_id":"4","last_reported":1739211203,"current_range_meters":34800,"station_id":"ce4bgt92rcd13ifvqcg0","pricing_plan_id":"cebpf4jnsgd1na2vs0mg"},{"bike_id":"3a0d9c17-bc24-420f-bd0c-8fc03dfaab43","system_id":"levelo_inurba_marseille","lat":43.30305,"lon":5.39215,"is_reserved":false,"is_disabled":false,"rental_uris":{"android":"levelo://app?vid=3a0d9c17-bc24-420f-bd0c-8fc03dfaab43","ios":"levelo://app?vid=3a0d9c17-bc24-420f-bd0c-8fc03dfaab43"},"vehicle_type_id":"4","last_reported":1739211203,"current_range_meters":19200,"station_id":"ce4bgkh2rcd13ifvqbk0","pricing_plan_id":"cebpf4jnsgd1na2vs0mg"},{"bike_id":"6137e2b6-9f28-4b0a-8923-7198ab8d9ffc","system_id":"levelo_inurba_marseille","lat":43.29046,"lon":5.38647,"is_reserved":false,"is_disabled":false,"rental_uris":{"android":"levelo://app?vid=6137e2b6-9f28-4b0a-8923-7198ab8d9ffc","ios":"levelo://app?vid=6137e2b6-9f28-4b0a-8923-7198ab8d9ffc"},"vehicle_type_id":"4","last_reported":1739211203,"current_range_meters":24400,"station_id":"ce4bh4p2rcd13ifvqe0g","pricing_plan_id":"cebpf4jnsgd1na2vs0mg"},{"bike_id":"783ee94b-6044-42f0-85b3-7d1aca1b3d61","system_id":"levelo_inurba_marseille","lat":43.2955,"lon":5.37495,"is_reserved":false,"is_disabled":true,"rental_uris":{"android":"levelo://app?vid=783ee94b-6044-42f0-85b3-7d1aca1b3d61","ios":"levelo://app?vid=783ee94b-6044-42f0-85b3-7d1aca1b3d61"},"vehicle_type_id":"4","last_reported":1739211203,"current_range_meters":24000,"station_id":"ce4bgkp2rcd13ifvqbmg","pricing_plan_id":"cebpf4jnsgd1na2vs0mg"},{"bike_id":"fc63d1c6-39db-42fc-a5f0-8ec761e9b064","system_id":"levelo_inurba_marseille","lat":43.31699,"lon":5.40468,"is_reserved":false,"is_disabled":false,"rental_uris":{"android":"levelo://app?vid=fc63d1c6-39db-42fc-a5f0-8ec761e9b064","ios":"levelo://app?vid=fc63d1c6-39db-42fc-a5f0-8ec761e9b064"},"vehicle_type_id":"4","last_reported":1739211203,"current_range_meters":38800,"station_id":"ce4bh012rcd13ifvqd00","pricing_plan_id":"cebpf4jnsgd1na2vs0mg"},{"bike_id":"9e4564f0-0519-46c9-beea-73f529a3ce6a","system_id":"levelo_inurba_marseille","lat":43.24806,"lon":5.37459,"is_reserved":false,"is_disabled":false,"rental_uris":{"android":"levelo://app?vid=9e4564f0-0519-46c9-beea-73f529a3ce6a","ios":"levelo://app?vid=9e4564f0-0519-46c9-beea-73f529a3ce6a"},"vehicle_type_id":"4","last_reported":1739211203,"current_range_meters":36800,"station_id":"ce4bhgh2rcd13ifvqfb0","pricing_plan_id":"cebpf4jnsgd1na2vs0mg"},{"bike_id":"4d204692-43d3-495c-b2d3-51ca2587e954","system_id":"levelo_inurba_marseille","lat":43.26942,"lon":5.40256,"is_reserved":false,"is_disabled":false,"rental_uris":{"android":"levelo://app?vid=4d204692-43d3-495c-b2d3-51ca2587e954","ios":"levelo://app?vid=4d204692-43d3-495c-b2d3-51ca2587e954"},"vehicle_type_id":"4","last_reported":1739211203,"current_range_meters":23200,"station_id":"cjm6bp8fraef2m0cb0m0","pricing_plan_id":"cebpf4jnsgd1na2vs0mg"},{"bike_id":"4fec62a4-5d14-461f-a07c-ceeb3a48fbed","system_id":"levelo_inurba_marseille","lat":43.31069,"lon":5.38335,"is_reserved":false,"is_disabled":false,"rental_uris":{"android":"levelo://app?vid=4fec62a4-5d14-461f-a07c-ceeb3a48fbed","ios":"levelo://app?vid=4fec62a4-5d14-461f-a07c-ceeb3a48fbed"},"vehicle_type_id":"4","last_reported":1739211203,"current_range_meters":38800,"station_id":"ce4bgv92rcd13ifvqcr0","pricing_plan_id":"cebpf4jnsgd1na2vs0mg"},{"bike_id":"33cb047c-e978-4b6c-8731-c6d48d58bf39","system_id":"levelo_inurba_marseille","lat":43.30641,"lon":5.40089,"is_reserved":false,"is_disabled":false,"rental_uris":{"android":"levelo://app?vid=33cb047c-e978-4b6c-8731-c6d48d58bf39","ios":"levelo://app?vid=33cb047c-e978-4b6c-8731-c6d48d58bf39"},"vehicle_type_id":"4","last_reported":1739211203,"current_range_meters":17200,"station_id":"ce4bh112rcd13ifvqda0","pricing_plan_id":"cebpf4jnsgd1na2vs0mg"},{"bike_id":"56dfaeae-7712-45a2-b747-d9b7bf8eeab3","system_id":"levelo_inurba_marseille","lat":43.2707,"lon":5.42277,"is_reserved":false,"is_disabled":false,"rental_uris":{"android":"levelo://app?vid=56dfaeae-7712-45a2-b747-d9b7bf8eeab3","ios":"levelo://app?vid=56dfaeae-7712-45a2-b747-d9b7bf8eeab3"},"vehicle_type_id":"4","last_reported":1739211203,"current_range_meters":38800,"station_id":"ce4bhk92rcd13ifvqgb0","pricing_plan_id":"cebpf4jnsgd1na2vs0mg"},{"bike_id":"111672d5-ab51-46ac-b98d-b7bc77f4bbf9","system_id":"levelo_inurba_marseille","lat":43.28084,"lon":5.39655,"is_reserved":false,"is_disabled":false,"rental_uris":{"android":"levelo://app?vid=111672d5-ab51-46ac-b98d-b7bc77f4bbf9","ios":"levelo://app?vid=111672d5-ab51-46ac-b98d-b7bc77f4bbf9"},"vehicle_type_id":"4","last_reported":1739211203,"current_range_meters":19200,"station_id":"ce4bho12rcd13ifvqh2g","pricing_plan_id":"cebpf4jnsgd1na2vs0mg"},{"bike_id":"8e7ce03c-394f-4066-aafd-5b16027f082f","system_id":"levelo_inurba_marseille","lat":43.28348,"lon":5.38097,"is_reserved":false,"is_disabled":false,"rental_uris":{"android":"levelo://app?vid=8e7ce03c-394f-4066-aafd-5b16027f082f","ios":"levelo://app?vid=8e7ce03c-394f-4066-aafd-5b16027f082f"},"vehicle_type_id":"4","last_reported":1739211203,"current_range_meters":38000,"station_id":"ce4bh412rcd13ifvqdr0","pricing_plan_id":"cebpf4jnsgd1na2vs0mg"},{"bike_id":"8fa465ec-101c-43a7-930c-1881514a84d9","system_id":"levelo_inurba_marseille","lat":43.26193,"lon":5.37455,"is_reserved":false,"is_disabled":false,"rental_uris":{"android":"levelo://app?vid=8fa465ec-101c-43a7-930c-1881514a84d9","ios":"levelo://app?vid=8fa465ec-101c-43a7-930c-1881514a84d9"},"vehicle_type_id":"4","last_reported":1739211203,"current_range_meters":38800,"station_id":"ce4bhgp2rcd13ifvqfc0","pricing_plan_id":"cebpf4jnsgd1na2vs0mg"},{"bike_id":"a5107f39-92f7-457a-abc6-ef1e21f23056","system_id":"levelo_inurba_marseille","lat":43.26191,"lon":5.37452,"is_reserved":false,"is_disabled":false,"rental_uris":{"android":"levelo://app?vid=a5107f39-92f7-457a-abc6-ef1e21f23056","ios":"levelo://app?vid=a5107f39-92f7-457a-abc6-ef1e21f23056"},"vehicle_type_id":"4","last_reported":1739211203,"current_range_meters":21600,"station_id":"ce4bhgp2rcd13ifvqfc0","pricing_plan_id":"cebpf4jnsgd1na2vs0mg"},{"bike_id":"6803ddfa-d502-42a2-ad93-8e0a9a783768","system_id":"levelo_inurba_marseille","lat":43.2603,"lon":5.375524,"is_reserved":false,"is_disabled":false,"rental_uris":{"android":"levelo://app?vid=6803ddfa-d502-42a2-ad93-8e0a9a783768","ios":"levelo://app?vid=6803ddfa-d502-42a2-ad93-8e0a9a783768"},"vehicle_type_id":"4","last_reported":1739211203,"current_range_meters":24400,"station_id":"ce4bhgh2rcd13ifvqfa0","pricing_plan_id":"cebpf4jnsgd1na2vs0mg"},{"bike_id":"ec577290-415e-4adf-bee8-70a702854fd7","system_id":"levelo_inurba_marseille","lat":43.28459,"lon":5.35891,"is_reserved":false,"is_disabled":false,"rental_uris":{"android":"levelo://app?vid=ec577290-415e-4adf-bee8-70a702854fd7","ios":"levelo://app?vid=ec577290-415e-4adf-bee8-70a702854fd7"},"vehicle_type_id":"4","last_reported":1739211203,"current_range_meters":38800,"station_id":"ce4bhah2rcd13ifvqei0","pricing_plan_id":"cebpf4jnsgd1na2vs0mg"},{"bike_id":"fb500d19-2acb-4daa-b2cf-af7bafed1b9d","system_id":"levelo_inurba_marseille","lat":43.29848,"lon":5.36273,"is_reserved":false,"is_disabled":false,"rental_uris":{"android":"levelo://app?vid=fb500d19-2acb-4daa-b2cf-af7bafed1b9d","ios":"levelo://app?vid=fb500d19-2acb-4daa-b2cf-af7bafed1b9d"},"vehicle_type_id":"4","last_reported":1739211203,"current_range_meters":20400,"station_id":"ce4bgpp2rcd13ifvqc3g","pricing_plan_id":"cebpf4jnsgd1na2vs0mg"},{"bike_id":"e1a1cb17-6051-49c6-8a5e-b8f5a47c715d","system_id":"levelo_inurba_marseille","lat":43.28853,"lon":5.3585,"is_reserved":false,"is_disabled":false,"rental_uris":{"android":"levelo://app?vid=e1a1cb17-6051-49c6-8a5e-b8f5a47c715d","ios":"levelo://app?vid=e1a1cb17-6051-49c6-8a5e-b8f5a47c715d"},"vehicle_type_id":"4","last_reported":1739211203,"current_range_meters":19200,"station_id":"ce4bhb12rcd13ifvqem0","pricing_plan_id":"cebpf4jnsgd1na2vs0mg"},{"bike_id":"f798cbc4-a869-471f-bce8-f64397eebe81","system_id":"levelo_inurba_marseille","lat":43.23956,"lon":5.36629,"is_reserved":false,"is_disabled":false,"rental_uris":{"android":"levelo://app?vid=f798cbc4-a869-471f-bce8-f64397eebe81","ios":"levelo://app?vid=f798cbc4-a869-471f-bce8-f64397eebe81"},"vehicle_type_id":"4","last_reported":1739211203,"current_range_meters":25200,"station_id":"ce4bhi12rcd13ifvqfp0","pricing_plan_id":"cebpf4jnsgd1na2vs0mg"},{"bike_id":"54d63e68-b968-4dd7-9b72-70e4fcd836d3","system_id":"levelo_inurba_marseille","lat":43.28444,"lon":5.35876,"is_reserved":false,"is_disabled":false,"rental_uris":{"android":"levelo://app?vid=54d63e68-b968-4dd7-9b72-70e4fcd836d3","ios":"levelo://app?vid=54d63e68-b968-4dd7-9b72-70e4fcd836d3"},"vehicle_type_id":"4","last_reported":1739211203,"current_range_meters":29600,"station_id":"ce4bhah2rcd13ifvqei0","pricing_plan_id":"cebpf4jnsgd1na2vs0mg"},{"bike_id":"e16066ab-006f-454f-b3d3-dd2d27276a53","system_id":"levelo_inurba_marseille","lat":43.299789,"lon":5.385501,"is_reserved":false,"is_disabled":false,"rental_uris":{"android":"levelo://app?vid=e16066ab-006f-454f-b3d3-dd2d27276a53","ios":"levelo://app?vid=e16066ab-006f-454f-b3d3-dd2d27276a53"},"vehicle_type_id":"4","last_reported":1739211203,"current_range_meters":30400,"station_id":"ce4bgj92rcd13ifvqbd0","pricing_plan_id":"cebpf4jnsgd1na2vs0mg"},{"bike_id":"776c444e-ae69-4270-af0f-40003d483afe","system_id":"levelo_inurba_marseille","lat":43.23967,"lon":5.36628,"is_reserved":false,"is_disabled":false,"rental_uris":{"android":"levelo://app?vid=776c444e-ae69-4270-af0f-40003d483afe","ios":"levelo://app?vid=776c444e-ae69-4270-af0f-40003d483afe"},"vehicle_type_id":"4","last_reported":1739211203,"current_range_meters":36800,"station_id":"ce4bhi12rcd13ifvqfp0","pricing_plan_id":"cebpf4jnsgd1na2vs0mg"},{"bike_id":"f3bcba27-74ec-4bdf-ade8-289e62afd362","system_id":"levelo_inurba_marseille","lat":43.26056,"lon":5.39394,"is_reserved":false,"is_disabled":false,"rental_uris":{"android":"levelo://app?vid=f3bcba27-74ec-4bdf-ade8-289e62afd362","ios":"levelo://app?vid=f3bcba27-74ec-4bdf-ade8-289e62afd362"},"vehicle_type_id":"4","last_reported":1739211203,"current_range_meters":30000,"station_id":"ce4bhh92rcd13ifvqfj0","pricing_plan_id":"cebpf4jnsgd1na2vs0mg"},{"bike_id":"bf8cd02e-ccdc-4523-894a-3fce83d782e3","system_id":"levelo_inurba_marseille","lat":43.33724,"lon":5.39184,"is_reserved":false,"is_disabled":false,"rental_uris":{"android":"levelo://app?vid=bf8cd02e-ccdc-4523-894a-3fce83d782e3","ios":"levelo://app?vid=bf8cd02e-ccdc-4523-894a-3fce83d782e3"},"vehicle_type_id":"4","last_reported":1739211203,"current_range_meters":38000,"station_id":"ce4bhr92rcd13ifvqhsg","pricing_plan_id":"cebpf4jnsgd1na2vs0mg"},{"bike_id":"20ae166b-19b8-4e2c-8018-6388a5f6be55","system_id":"levelo_inurba_marseille","lat":43.29375,"lon":5.3785,"is_reserved":false,"is_disabled":false,"rental_uris":{"android":"levelo://app?vid=20ae166b-19b8-4e2c-8018-6388a5f6be55","ios":"levelo://app?vid=20ae166b-19b8-4e2c-8018-6388a5f6be55"},"vehicle_type_id":"4","last_reported":1739211203,"current_range_meters":36400,"station_id":"ce4bgjh2rcd13ifvqbf0","pricing_plan_id":"cebpf4jnsgd1na2vs0mg"},{"bike_id":"c93ba4b5-809f-42a1-951f-4f195f9c3735","system_id":"levelo_inurba_marseille","lat":43.29192,"lon":5.3579,"is_reserved":false,"is_disabled":false,"rental_uris":{"android":"levelo://app?vid=c93ba4b5-809f-42a1-951f-4f195f9c3735","ios":"levelo://app?vid=c93ba4b5-809f-42a1-951f-4f195f9c3735"},"vehicle_type_id":"4","last_reported":1739211203,"current_range_meters":37600,"station_id":"ce4bhb12rcd13ifvqel0","pricing_plan_id":"cebpf4jnsgd1na2vs0mg"},{"bike_id":"3269462b-d1f8-4e6c-ad17-2a10a27bad7b","system_id":"levelo_inurba_marseille","lat":43.28112,"lon":5.37827,"is_reserved":false,"is_disabled":false,"rental_uris":{"android":"levelo://app?vid=3269462b-d1f8-4e6c-ad17-2a10a27bad7b","ios":"levelo://app?vid=3269462b-d1f8-4e6c-ad17-2a10a27bad7b"},"vehicle_type_id":"4","last_reported":1739211203,"current_range_meters":27600,"station_id":"ce4bha12rcd13ifvqee0","pricing_plan_id":"cebpf4jnsgd1na2vs0mg"},{"bike_id":"aced1ea0-81c5-48e0-9496-fe612ed4147b","system_id":"levelo_inurba_marseille","lat":43.30946,"lon":5.39023,"is_reserved":false,"is_disabled":false,"rental_uris":{"android":"levelo://app?vid=aced1ea0-81c5-48e0-9496-fe612ed4147b","ios":"levelo://app?vid=aced1ea0-81c5-48e0-9496-fe612ed4147b"},"vehicle_type_id":"4","last_reported":1739211203,"current_range_meters":28800,"station_id":"ce4bgup2rcd13ifvqco0","pricing_plan_id":"cebpf4jnsgd1na2vs0mg"},{"bike_id":"3d775884-6b38-47ff-bdab-a7708da1a655","system_id":"levelo_inurba_marseille","lat":43.26187,"lon":5.37449,"is_reserved":false,"is_disabled":false,"rental_uris":{"android":"levelo://app?vid=3d775884-6b38-47ff-bdab-a7708da1a655","ios":"levelo://app?vid=3d775884-6b38-47ff-bdab-a7708da1a655"},"vehicle_type_id":"4","last_reported":1739211203,"current_range_meters":28800,"station_id":"ce4bhgp2rcd13ifvqfc0","pricing_plan_id":"cebpf4jnsgd1na2vs0mg"},{"bike_id":"5335ee3e-2ac7-41ed-ac02-5858c45b95ef","system_id":"levelo_inurba_marseille","lat":43.296,"lon":5.38104,"is_reserved":false,"is_disabled":false,"rental_uris":{"android":"levelo://app?vid=5335ee3e-2ac7-41ed-ac02-5858c45b95ef","ios":"levelo://app?vid=5335ee3e-2ac7-41ed-ac02-5858c45b95ef"},"vehicle_type_id":"4","last_reported":1739211203,"current_range_meters":8000,"station_id":"ce4bgl12rcd13ifvqbo0","pricing_plan_id":"cebpf4jnsgd1na2vs0mg"},{"bike_id":"a1e1c154-9e5a-4afc-9a7e-cedaf38d9921","system_id":"levelo_inurba_marseille","lat":43.290005,"lon":5.356212,"is_reserved":false,"is_disabled":false,"rental_uris":{"android":"levelo://app?vid=a1e1c154-9e5a-4afc-9a7e-cedaf38d9921","ios":"levelo://app?vid=a1e1c154-9e5a-4afc-9a7e-cedaf38d9921"},"vehicle_type_id":"4","last_reported":1739211203,"current_range_meters":34000,"station_id":"ce4bhb92rcd13ifvqen0","pricing_plan_id":"cebpf4jnsgd1na2vs0mg"},{"bike_id":"2cbfe800-0234-45fc-ab0d-bf11da6f24e6","system_id":"levelo_inurba_marseille","lat":43.29983,"lon":5.38487,"is_reserved":false,"is_disabled":false,"rental_uris":{"android":"levelo://app?vid=2cbfe800-0234-45fc-ab0d-bf11da6f24e6","ios":"levelo://app?vid=2cbfe800-0234-45fc-ab0d-bf11da6f24e6"},"vehicle_type_id":"4","last_reported":1739211203,"current_range_meters":11600,"station_id":"ce4bgj92rcd13ifvqbd0","pricing_plan_id":"cebpf4jnsgd1na2vs0mg"},{"bike_id":"726fb099-c3d7-4106-beb8-89951bfba46d","system_id":"levelo_inurba_marseille","lat":43.29541,"lon":5.37463,"is_reserved":false,"is_disabled":true,"rental_uris":{"android":"levelo://app?vid=726fb099-c3d7-4106-beb8-89951bfba46d","ios":"levelo://app?vid=726fb099-c3d7-4106-beb8-89951bfba46d"},"vehicle_type_id":"4","last_reported":1739211203,"current_range_meters":33600,"station_id":"ce4bgkp2rcd13ifvqbmg","pricing_plan_id":"cebpf4jnsgd1na2vs0mg"},{"bike_id":"12c6f3c0-11aa-4715-bd54-297d86a1ea08","system_id":"levelo_inurba_marseille","lat":43.30552,"lon":5.38439,"is_reserved":false,"is_disabled":false,"rental_uris":{"android":"levelo://app?vid=12c6f3c0-11aa-4715-bd54-297d86a1ea08","ios":"levelo://app?vid=12c6f3c0-11aa-4715-bd54-297d86a1ea08"},"vehicle_type_id":"4","last_reported":1739211203,"current_range_meters":35200,"station_id":"ce4bgg92rcd13ifvqb30","pricing_plan_id":"cebpf4jnsgd1na2vs0mg"},{"bike_id":"d3a42aea-ee55-4cae-bd2d-6e76ca5ca6e2","system_id":"levelo_inurba_marseille","lat":43.29974,"lon":5.3849,"is_reserved":false,"is_disabled":false,"rental_uris":{"android":"levelo://app?vid=d3a42aea-ee55-4cae-bd2d-6e76ca5ca6e2","ios":"levelo://app?vid=d3a42aea-ee55-4cae-bd2d-6e76ca5ca6e2"},"vehicle_type_id":"4","last_reported":1739211203,"current_range_meters":38000,"station_id":"ce4bgj92rcd13ifvqbd0","pricing_plan_id":"cebpf4jnsgd1na2vs0mg"},{"bike_id":"0381de35-f333-4648-ac27-3a02f9943927","system_id":"levelo_inurba_marseille","lat":43.31121,"lon":5.37766,"is_reserved":false,"is_disabled":false,"rental_uris":{"android":"levelo://app?vid=0381de35-f333-4648-ac27-3a02f9943927","ios":"levelo://app?vid=0381de35-f333-4648-ac27-3a02f9943927"},"vehicle_type_id":"4","last_reported":1739211203,"current_range_meters":35200,"station_id":"ce4bgt92rcd13ifvqcg0","pricing_plan_id":"cebpf4jnsgd1na2vs0mg"},{"bike_id":"5728af05-01f3-4c14-afd6-c4ebe0f65611","system_id":"levelo_inurba_marseille","lat":43.249,"lon":5.39022,"is_reserved":false,"is_disabled":false,"rental_uris":{"android":"levelo://app?vid=5728af05-01f3-4c14-afd6-c4ebe0f65611","ios":"levelo://app?vid=5728af05-01f3-4c14-afd6-c4ebe0f65611"},"vehicle_type_id":"4","last_reported":1739211203,"current_range_meters":8400,"station_id":"","pricing_plan_id":"cebpf4jnsgd1na2vs0mg"},{"bike_id":"aea23ed9-9652-444a-9af5-bf460ace1b14","system_id":"levelo_inurba_marseille","lat":43.287,"lon":5.39984,"is_reserved":false,"is_disabled":false,"rental_uris":{"android":"levelo://app?vid=aea23ed9-9652-444a-9af5-bf460ace1b14","ios":"levelo://app?vid=aea23ed9-9652-444a-9af5-bf460ace1b14"},"vehicle_type_id":"4","last_reported":1739211203,"current_range_meters":8400,"station_id":"ce4bho92rcd13ifvqh3g","pricing_plan_id":"cebpf4jnsgd1na2vs0mg"},{"bike_id":"55fe04a7-d37a-4ee4-965a-2262a655cb55","system_id":"levelo_inurba_marseille","lat":43.23194,"lon":5.39981,"is_reserved":false,"is_disabled":false,"rental_uris":{"android":"levelo://app?vid=55fe04a7-d37a-4ee4-965a-2262a655cb55","ios":"levelo://app?vid=55fe04a7-d37a-4ee4-965a-2262a655cb55"},"vehicle_type_id":"4","last_reported":1739211203,"current_range_meters":39200,"station_id":"ce4bhn12rcd13ifvqgqg","pricing_plan_id":"cebpf4jnsgd1na2vs0mg"},{"bike_id":"3441c74a-282b-45aa-b329-9e43a88c8a80","system_id":"levelo_inurba_marseille","lat":43.24824,"lon":5.37461,"is_reserved":false,"is_disabled":false,"rental_uris":{"android":"levelo://app?vid=3441c74a-282b-45aa-b329-9e43a88c8a80","ios":"levelo://app?vid=3441c74a-282b-45aa-b329-9e43a88c8a80"},"vehicle_type_id":"4","last_reported":1739211203,"current_range_meters":18800,"station_id":"ce4bhgh2rcd13ifvqfb0","pricing_plan_id":"cebpf4jnsgd1na2vs0mg"},{"bike_id":"e00cd517-4a6d-40d8-b46e-27fb98e2bb39","system_id":"levelo_inurba_marseille","lat":43.28462,"lon":5.35896,"is_reserved":false,"is_disabled":false,"rental_uris":{"android":"levelo://app?vid=e00cd517-4a6d-40d8-b46e-27fb98e2bb39","ios":"levelo://app?vid=e00cd517-4a6d-40d8-b46e-27fb98e2bb39"},"vehicle_type_id":"4","last_reported":1739211203,"current_range_meters":38800,"station_id":"ce4bhah2rcd13ifvqei0","pricing_plan_id":"cebpf4jnsgd1na2vs0mg"},{"bike_id":"79796ead-ab78-4aec-a47e-2dbaa29bc627","system_id":"levelo_inurba_marseille","lat":43.24545,"lon":5.39522,"is_reserved":false,"is_disabled":false,"rental_uris":{"android":"levelo://app?vid=79796ead-ab78-4aec-a47e-2dbaa29bc627","ios":"levelo://app?vid=79796ead-ab78-4aec-a47e-2dbaa29bc627"},"vehicle_type_id":"4","last_reported":1739211203,"current_range_meters":3600,"station_id":"ce4bhlp2rcd13ifvqgjg","pricing_plan_id":"cebpf4jnsgd1na2vs0mg"},{"bike_id":"3964663c-b0ef-4fd9-bca2-5e6eb580081e","system_id":"levelo_inurba_marseille","lat":43.28137,"lon":5.39918,"is_reserved":false,"is_disabled":false,"rental_uris":{"android":"levelo://app?vid=3964663c-b0ef-4fd9-bca2-5e6eb580081e","ios":"levelo://app?vid=3964663c-b0ef-4fd9-bca2-5e6eb580081e"},"vehicle_type_id":"4","last_reported":1739211203,"current_range_meters":19200,"station_id":"","pricing_plan_id":"cebpf4jnsgd1na2vs0mg"},{"bike_id":"8e2f681c-56b3-4dbe-acf6-d95949b97842","system_id":"levelo_inurba_marseille","lat":43.301561,"lon":5.380922,"is_reserved":false,"is_disabled":true,"rental_uris":{"android":"levelo://app?vid=8e2f681c-56b3-4dbe-acf6-d95949b97842","ios":"levelo://app?vid=8e2f681c-56b3-4dbe-acf6-d95949b97842"},"vehicle_type_id":"4","last_reported":1739211203,"current_range_meters":26000,"station_id":"","pricing_plan_id":"cebpf4jnsgd1na2vs0mg"},{"bike_id":"6e1b6112-cd26-421f-b157-6ac716f542d7","system_id":"levelo_inurba_marseille","lat":43.27172,"lon":5.40991,"is_reserved":false,"is_disabled":false,"rental_uris":{"android":"levelo://app?vid=6e1b6112-cd26-421f-b157-6ac716f542d7","ios":"levelo://app?vid=6e1b6112-cd26-421f-b157-6ac716f542d7"},"vehicle_type_id":"4","last_reported":1739211203,"current_range_meters":28000,"station_id":"ce4bhl12rcd13ifvqgf0","pricing_plan_id":"cebpf4jnsgd1na2vs0mg"},{"bike_id":"70147b00-bf62-4b2f-ae78-d994fa7f7f17","system_id":"levelo_inurba_marseille","lat":43.29004,"lon":5.35605,"is_reserved":false,"is_disabled":false,"rental_uris":{"android":"levelo://app?vid=70147b00-bf62-4b2f-ae78-d994fa7f7f17","ios":"levelo://app?vid=70147b00-bf62-4b2f-ae78-d994fa7f7f17"},"vehicle_type_id":"4","last_reported":1739211203,"current_range_meters":30400,"station_id":"ce4bhb92rcd13ifvqen0","pricing_plan_id":"cebpf4jnsgd1na2vs0mg"},{"bike_id":"5a712f7b-faea-4b41-b7bd-078b067ddb56","system_id":"levelo_inurba_marseille","lat":43.25575,"lon":5.38245,"is_reserved":false,"is_disabled":true,"rental_uris":{"android":"levelo://app?vid=5a712f7b-faea-4b41-b7bd-078b067ddb56","ios":"levelo://app?vid=5a712f7b-faea-4b41-b7bd-078b067ddb56"},"vehicle_type_id":"4","last_reported":1739211203,"current_range_meters":32000,"station_id":"ce4bhih2rcd13ifvqfs0","pricing_plan_id":"cebpf4jnsgd1na2vs0mg"},{"bike_id":"b41d8475-1b61-4022-b648-2777adae10ea","system_id":"levelo_inurba_marseille","lat":43.241673,"lon":5.364041,"is_reserved":false,"is_disabled":false,"rental_uris":{"android":"levelo://app?vid=b41d8475-1b61-4022-b648-2777adae10ea","ios":"levelo://app?vid=b41d8475-1b61-4022-b648-2777adae10ea"},"vehicle_type_id":"4","last_reported":1739211203,"current_range_meters":28400,"station_id":"cpo36qri1sfpv3e86is0","pricing_plan_id":"cebpf4jnsgd1na2vs0mg"},{"bike_id":"797c91fd-a875-467b-999b-207e5af3706b","system_id":"levelo_inurba_marseille","lat":43.27888,"lon":5.38011,"is_reserved":false,"is_disabled":false,"rental_uris":{"android":"levelo://app?vid=797c91fd-a875-467b-999b-207e5af3706b","ios":"levelo://app?vid=797c91fd-a875-467b-999b-207e5af3706b"},"vehicle_type_id":"4","last_reported":1739211203,"current_range_meters":38800,"station_id":"ce4bhf92rcd13ifvqf50","pricing_plan_id":"cebpf4jnsgd1na2vs0mg"},{"bike_id":"a7835e07-e964-41a5-b983-d86a68e78b9f","system_id":"levelo_inurba_marseille","lat":43.31482,"lon":5.3729,"is_reserved":false,"is_disabled":false,"rental_uris":{"android":"levelo://app?vid=a7835e07-e964-41a5-b983-d86a68e78b9f","ios":"levelo://app?vid=a7835e07-e964-41a5-b983-d86a68e78b9f"},"vehicle_type_id":"4","last_reported":1739211203,"current_range_meters":22800,"station_id":"ce4bgt12rcd13ifvqcd0","pricing_plan_id":"cebpf4jnsgd1na2vs0mg"},{"bike_id":"fa1d3426-6924-4679-877d-315e8d2e7c0a","system_id":"levelo_inurba_marseille","lat":43.251107,"lon":5.403247,"is_reserved":false,"is_disabled":false,"rental_uris":{"android":"levelo://app?vid=fa1d3426-6924-4679-877d-315e8d2e7c0a","ios":"levelo://app?vid=fa1d3426-6924-4679-877d-315e8d2e7c0a"},"vehicle_type_id":"4","last_reported":1739211203,"current_range_meters":38800,"station_id":"ce4bhlh2rcd13ifvqgig","pricing_plan_id":"cebpf4jnsgd1na2vs0mg"},{"bike_id":"e5f8d77e-9dce-4d46-a39b-2d8058329c62","system_id":"levelo_inurba_marseille","lat":43.25867,"lon":5.39896,"is_reserved":false,"is_disabled":false,"rental_uris":{"android":"levelo://app?vid=e5f8d77e-9dce-4d46-a39b-2d8058329c62","ios":"levelo://app?vid=e5f8d77e-9dce-4d46-a39b-2d8058329c62"},"vehicle_type_id":"4","last_reported":1739211203,"current_range_meters":30000,"station_id":"ce4bhl92rcd13ifvqghg","pricing_plan_id":"cebpf4jnsgd1na2vs0mg"},{"bike_id":"de2613b9-f410-486c-b3e6-441a82fdb8d0","system_id":"levelo_inurba_marseille","lat":43.29783,"lon":5.39333,"is_reserved":false,"is_disabled":false,"rental_uris":{"android":"levelo://app?vid=de2613b9-f410-486c-b3e6-441a82fdb8d0","ios":"levelo://app?vid=de2613b9-f410-486c-b3e6-441a82fdb8d0"},"vehicle_type_id":"4","last_reported":1739211203,"current_range_meters":39200,"station_id":"chh1huq6cuj3fo74tm60","pricing_plan_id":"cebpf4jnsgd1na2vs0mg"},{"bike_id":"cee3a258-64c3-4f3c-b852-6f77297d112b","system_id":"levelo_inurba_marseille","lat":43.29892,"lon":5.43669,"is_reserved":false,"is_disabled":false,"rental_uris":{"android":"levelo://app?vid=cee3a258-64c3-4f3c-b852-6f77297d112b","ios":"levelo://app?vid=cee3a258-64c3-4f3c-b852-6f77297d112b"},"vehicle_type_id":"4","last_reported":1739211203,"current_range_meters":38000,"station_id":"ce4bhpp2rcd13ifvqhfg","pricing_plan_id":"cebpf4jnsgd1na2vs0mg"},{"bike_id":"4380d772-4a93-4e24-beaf-11c145e3a87e","system_id":"levelo_inurba_marseille","lat":43.26195,"lon":5.37445,"is_reserved":false,"is_disabled":false,"rental_uris":{"android":"levelo://app?vid=4380d772-4a93-4e24-beaf-11c145e3a87e","ios":"levelo://app?vid=4380d772-4a93-4e24-beaf-11c145e3a87e"},"vehicle_type_id":"4","last_reported":1739211203,"current_range_meters":7200,"station_id":"ce4bhgp2rcd13ifvqfc0","pricing_plan_id":"cebpf4jnsgd1na2vs0mg"},{"bike_id":"51ab7186-5043-4bed-baca-73708608a302","system_id":"levelo_inurba_marseille","lat":43.29584,"lon":5.37026,"is_reserved":false,"is_disabled":true,"rental_uris":{"android":"levelo://app?vid=51ab7186-5043-4bed-baca-73708608a302","ios":"levelo://app?vid=51ab7186-5043-4bed-baca-73708608a302"},"vehicle_type_id":"4","last_reported":1739211203,"current_range_meters":10800,"station_id":"","pricing_plan_id":"cebpf4jnsgd1na2vs0mg"},{"bike_id":"7aea78e9-6742-4e6c-8617-877f951312f7","system_id":"levelo_inurba_marseille","lat":43.30106,"lon":5.39077,"is_reserved":false,"is_disabled":false,"rental_uris":{"android":"levelo://app?vid=7aea78e9-6742-4e6c-8617-877f951312f7","ios":"levelo://app?vid=7aea78e9-6742-4e6c-8617-877f951312f7"},"vehicle_type_id":"4","last_reported":1739211203,"current_range_meters":18000,"station_id":"ce4bh192rcd13ifvqdb0","pricing_plan_id":"cebpf4jnsgd1na2vs0mg"},{"bike_id":"a8158c90-43cd-485b-b227-ab2c6a7833b6","system_id":"levelo_inurba_marseille","lat":43.28037,"lon":5.36945,"is_reserved":false,"is_disabled":false,"rental_uris":{"android":"levelo://app?vid=a8158c90-43cd-485b-b227-ab2c6a7833b6","ios":"levelo://app?vid=a8158c90-43cd-485b-b227-ab2c6a7833b6"},"vehicle_type_id":"4","last_reported":1739211203,"current_range_meters":32000,"station_id":"ce4bha12rcd13ifvqef0","pricing_plan_id":"cebpf4jnsgd1na2vs0mg"},{"bike_id":"0b2730f4-2761-48a6-b43d-961c9e696ec1","system_id":"levelo_inurba_marseille","lat":43.28466,"lon":5.35882,"is_reserved":false,"is_disabled":false,"rental_uris":{"android":"levelo://app?vid=0b2730f4-2761-48a6-b43d-961c9e696ec1","ios":"levelo://app?vid=0b2730f4-2761-48a6-b43d-961c9e696ec1"},"vehicle_type_id":"4","last_reported":1739211203,"current_range_meters":38800,"station_id":"ce4bhah2rcd13ifvqei0","pricing_plan_id":"cebpf4jnsgd1na2vs0mg"},{"bike_id":"890464c4-7185-412e-a93b-79d798bd90c9","system_id":"levelo_inurba_marseille","lat":43.28435,"lon":5.39215,"is_reserved":false,"is_disabled":false,"rental_uris":{"android":"levelo://app?vid=890464c4-7185-412e-a93b-79d798bd90c9","ios":"levelo://app?vid=890464c4-7185-412e-a93b-79d798bd90c9"},"vehicle_type_id":"4","last_reported":1739211203,"current_range_meters":32000,"station_id":"ce4bhoh2rcd13ifvqh5g","pricing_plan_id":"cebpf4jnsgd1na2vs0mg"},{"bike_id":"3d79b4ad-746d-4d37-b786-cccafe1d2d8d","system_id":"levelo_inurba_marseille","lat":43.29514,"lon":5.39043,"is_reserved":false,"is_disabled":false,"rental_uris":{"android":"levelo://app?vid=3d79b4ad-746d-4d37-b786-cccafe1d2d8d","ios":"levelo://app?vid=3d79b4ad-746d-4d37-b786-cccafe1d2d8d"},"vehicle_type_id":"4","last_reported":1739211203,"current_range_meters":25200,"station_id":"ce4bh3p2rcd13ifvqdp0","pricing_plan_id":"cebpf4jnsgd1na2vs0mg"},{"bike_id":"8517ba79-8da0-4668-8cee-0db8d18cba54","system_id":"levelo_inurba_marseille","lat":43.295471,"lon":5.394638,"is_reserved":false,"is_disabled":false,"rental_uris":{"android":"levelo://app?vid=8517ba79-8da0-4668-8cee-0db8d18cba54","ios":"levelo://app?vid=8517ba79-8da0-4668-8cee-0db8d18cba54"},"vehicle_type_id":"4","last_reported":1739211203,"current_range_meters":25200,"station_id":"","pricing_plan_id":"cebpf4jnsgd1na2vs0mg"},{"bike_id":"6a61494c-64e7-4150-8260-115f4cb420a4","system_id":"levelo_inurba_marseille","lat":43.29259,"lon":5.384456,"is_reserved":false,"is_disabled":false,"rental_uris":{"android":"levelo://app?vid=6a61494c-64e7-4150-8260-115f4cb420a4","ios":"levelo://app?vid=6a61494c-64e7-4150-8260-115f4cb420a4"},"vehicle_type_id":"4","last_reported":1739211203,"current_range_meters":12400,"station_id":"ce4bh692rcd13ifvqea0","pricing_plan_id":"cebpf4jnsgd1na2vs0mg"},{"bike_id":"d4327ff5-8f3f-4ce5-ae44-45d10371ce48","system_id":"levelo_inurba_marseille","lat":43.29423,"lon":5.38623,"is_reserved":false,"is_disabled":false,"rental_uris":{"android":"levelo://app?vid=d4327ff5-8f3f-4ce5-ae44-45d10371ce48","ios":"levelo://app?vid=d4327ff5-8f3f-4ce5-ae44-45d10371ce48"},"vehicle_type_id":"4","last_reported":1739211203,"current_range_meters":3600,"station_id":"ce4bh2h2rcd13ifvqdh0","pricing_plan_id":"cebpf4jnsgd1na2vs0mg"},{"bike_id":"0cdcc8f7-f674-43f1-9b73-0f1949650402","system_id":"levelo_inurba_marseille","lat":43.23957,"lon":5.36627,"is_reserved":false,"is_disabled":false,"rental_uris":{"android":"levelo://app?vid=0cdcc8f7-f674-43f1-9b73-0f1949650402","ios":"levelo://app?vid=0cdcc8f7-f674-43f1-9b73-0f1949650402"},"vehicle_type_id":"4","last_reported":1739211203,"current_range_meters":37600,"station_id":"ce4bhi12rcd13ifvqfp0","pricing_plan_id":"cebpf4jnsgd1na2vs0mg"},{"bike_id":"d553cdce-7bf4-4d4c-ba09-e92f1353b0e2","system_id":"levelo_inurba_marseille","lat":43.2902,"lon":5.37563,"is_reserved":false,"is_disabled":false,"rental_uris":{"android":"levelo://app?vid=d553cdce-7bf4-4d4c-ba09-e92f1353b0e2","ios":"levelo://app?vid=d553cdce-7bf4-4d4c-ba09-e92f1353b0e2"},"vehicle_type_id":"4","last_reported":1739211203,"current_range_meters":12800,"station_id":"ce4bh692rcd13ifvqe90","pricing_plan_id":"cebpf4jnsgd1na2vs0mg"},{"bike_id":"de77abfa-6f74-40e9-8131-b7884eda37eb","system_id":"levelo_inurba_marseille","lat":43.29934,"lon":5.39401,"is_reserved":false,"is_disabled":false,"rental_uris":{"android":"levelo://app?vid=de77abfa-6f74-40e9-8131-b7884eda37eb","ios":"levelo://app?vid=de77abfa-6f74-40e9-8131-b7884eda37eb"},"vehicle_type_id":"4","last_reported":1739211203,"current_range_meters":31200,"station_id":"","pricing_plan_id":"cebpf4jnsgd1na2vs0mg"},{"bike_id":"44dd6324-cf8b-4645-bc5d-6f2dbec52f2a","system_id":"levelo_inurba_marseille","lat":43.26579,"lon":5.38984,"is_reserved":false,"is_disabled":false,"rental_uris":{"android":"levelo://app?vid=44dd6324-cf8b-4645-bc5d-6f2dbec52f2a","ios":"levelo://app?vid=44dd6324-cf8b-4645-bc5d-6f2dbec52f2a"},"vehicle_type_id":"4","last_reported":1739211203,"current_range_meters":18000,"station_id":"ce4bhe12rcd13ifvqf30","pricing_plan_id":"cebpf4jnsgd1na2vs0mg"},{"bike_id":"ee079ffa-4416-4a91-bc98-3bd665acea3b","system_id":"levelo_inurba_marseille","lat":43.33729,"lon":5.39188,"is_reserved":false,"is_disabled":false,"rental_uris":{"android":"levelo://app?vid=ee079ffa-4416-4a91-bc98-3bd665acea3b","ios":"levelo://app?vid=ee079ffa-4416-4a91-bc98-3bd665acea3b"},"vehicle_type_id":"4","last_reported":1739211203,"current_range_meters":38800,"station_id":"ce4bhr92rcd13ifvqhsg","pricing_plan_id":"cebpf4jnsgd1na2vs0mg"},{"bike_id":"1fa82dc6-47d4-4356-bbca-393bf4461726","system_id":"levelo_inurba_marseille","lat":43.23962,"lon":5.36623,"is_reserved":false,"is_disabled":false,"rental_uris":{"android":"levelo://app?vid=1fa82dc6-47d4-4356-bbca-393bf4461726","ios":"levelo://app?vid=1fa82dc6-47d4-4356-bbca-393bf4461726"},"vehicle_type_id":"4","last_reported":1739211203,"current_range_meters":22800,"station_id":"ce4bhi12rcd13ifvqfp0","pricing_plan_id":"cebpf4jnsgd1na2vs0mg"},{"bike_id":"c6a4319f-5177-4e2c-a761-978445166b5f","system_id":"levelo_inurba_marseille","lat":43.2927,"lon":5.40903,"is_reserved":false,"is_disabled":false,"rental_uris":{"android":"levelo://app?vid=c6a4319f-5177-4e2c-a761-978445166b5f","ios":"levelo://app?vid=c6a4319f-5177-4e2c-a761-978445166b5f"},"vehicle_type_id":"4","last_reported":1739211203,"current_range_meters":19200,"station_id":"ce4bh192rcd13ifvqdc0","pricing_plan_id":"cebpf4jnsgd1na2vs0mg"},{"bike_id":"c6aad220-fba0-4181-a935-e0397a1e78c4","system_id":"levelo_inurba_marseille","lat":43.31482,"lon":5.37307,"is_reserved":false,"is_disabled":false,"rental_uris":{"android":"levelo://app?vid=c6aad220-fba0-4181-a935-e0397a1e78c4","ios":"levelo://app?vid=c6aad220-fba0-4181-a935-e0397a1e78c4"},"vehicle_type_id":"4","last_reported":1739211203,"current_range_meters":37600,"station_id":"ce4bgt12rcd13ifvqcd0","pricing_plan_id":"cebpf4jnsgd1na2vs0mg"},{"bike_id":"1b222d92-0766-4553-98e5-5fe5b4e88883","system_id":"levelo_inurba_marseille","lat":43.23065,"lon":5.35491,"is_reserved":false,"is_disabled":false,"rental_uris":{"android":"levelo://app?vid=1b222d92-0766-4553-98e5-5fe5b4e88883","ios":"levelo://app?vid=1b222d92-0766-4553-98e5-5fe5b4e88883"},"vehicle_type_id":"4","last_reported":1739211203,"current_range_meters":7200,"station_id":"cpo3342slgdg3j2ifvpg","pricing_plan_id":"cebpf4jnsgd1na2vs0mg"},{"bike_id":"67c77a93-95e0-4dde-b030-1b6a0f65cf9a","system_id":"levelo_inurba_marseille","lat":43.271685,"lon":5.409931,"is_reserved":false,"is_disabled":false,"rental_uris":{"android":"levelo://app?vid=67c77a93-95e0-4dde-b030-1b6a0f65cf9a","ios":"levelo://app?vid=67c77a93-95e0-4dde-b030-1b6a0f65cf9a"},"vehicle_type_id":"4","last_reported":1739211203,"current_range_meters":12000,"station_id":"ce4bhl12rcd13ifvqgf0","pricing_plan_id":"cebpf4jnsgd1na2vs0mg"},{"bike_id":"d0d8ec2f-c95a-46f3-be60-0d8863b57c52","system_id":"levelo_inurba_marseille","lat":43.28344,"lon":5.3811,"is_reserved":false,"is_disabled":false,"rental_uris":{"android":"levelo://app?vid=d0d8ec2f-c95a-46f3-be60-0d8863b57c52","ios":"levelo://app?vid=d0d8ec2f-c95a-46f3-be60-0d8863b57c52"},"vehicle_type_id":"4","last_reported":1739211203,"current_range_meters":39200,"station_id":"ce4bh412rcd13ifvqdr0","pricing_plan_id":"cebpf4jnsgd1na2vs0mg"},{"bike_id":"496fa2ad-a547-4095-b8b9-a29f1a78ab4b","system_id":"levelo_inurba_marseille","lat":43.27812,"lon":5.40713,"is_reserved":false,"is_disabled":false,"rental_uris":{"android":"levelo://app?vid=496fa2ad-a547-4095-b8b9-a29f1a78ab4b","ios":"levelo://app?vid=496fa2ad-a547-4095-b8b9-a29f1a78ab4b"},"vehicle_type_id":"4","last_reported":1739211203,"current_range_meters":37600,"station_id":"ce4bhnh2rcd13ifvqgtg","pricing_plan_id":"cebpf4jnsgd1na2vs0mg"},{"bike_id":"f53564a4-cbf9-4b55-bb72-8eda8cad3a05","system_id":"levelo_inurba_marseille","lat":43.270763,"lon":5.422773,"is_reserved":false,"is_disabled":false,"rental_uris":{"android":"levelo://app?vid=f53564a4-cbf9-4b55-bb72-8eda8cad3a05","ios":"levelo://app?vid=f53564a4-cbf9-4b55-bb72-8eda8cad3a05"},"vehicle_type_id":"4","last_reported":1739211203,"current_range_meters":22000,"station_id":"ce4bhk92rcd13ifvqgb0","pricing_plan_id":"cebpf4jnsgd1na2vs0mg"},{"bike_id":"01ea49d7-471f-408d-84c4-55b6e9d5f5e2","system_id":"levelo_inurba_marseille","lat":43.28097,"lon":5.37837,"is_reserved":false,"is_disabled":false,"rental_uris":{"android":"levelo://app?vid=01ea49d7-471f-408d-84c4-55b6e9d5f5e2","ios":"levelo://app?vid=01ea49d7-471f-408d-84c4-55b6e9d5f5e2"},"vehicle_type_id":"4","last_reported":1739211203,"current_range_meters":9200,"station_id":"ce4bha12rcd13ifvqee0","pricing_plan_id":"cebpf4jnsgd1na2vs0mg"},{"bike_id":"05f6ac8f-0127-4e39-bd11-d53a74225ef8","system_id":"levelo_inurba_marseille","lat":43.27874,"lon":5.40597,"is_reserved":false,"is_disabled":true,"rental_uris":{"android":"levelo://app?vid=05f6ac8f-0127-4e39-bd11-d53a74225ef8","ios":"levelo://app?vid=05f6ac8f-0127-4e39-bd11-d53a74225ef8"},"vehicle_type_id":"4","last_reported":1739211203,"current_range_meters":0,"station_id":"","pricing_plan_id":"cebpf4jnsgd1na2vs0mg"},{"bike_id":"e49ee871-b82d-4767-83e2-99541bcc1e76","system_id":"levelo_inurba_marseille","lat":43.31735,"lon":5.3901,"is_reserved":false,"is_disabled":false,"rental_uris":{"android":"levelo://app?vid=e49ee871-b82d-4767-83e2-99541bcc1e76","ios":"levelo://app?vid=e49ee871-b82d-4767-83e2-99541bcc1e76"},"vehicle_type_id":"4","last_reported":1739211203,"current_range_meters":24800,"station_id":"ce4bhqp2rcd13ifvqhng","pricing_plan_id":"cebpf4jnsgd1na2vs0mg"},{"bike_id":"9e95c25f-9492-4617-9ba6-6875215282be","system_id":"levelo_inurba_marseille","lat":43.29169,"lon":5.37157,"is_reserved":false,"is_disabled":false,"rental_uris":{"android":"levelo://app?vid=9e95c25f-9492-4617-9ba6-6875215282be","ios":"levelo://app?vid=9e95c25f-9492-4617-9ba6-6875215282be"},"vehicle_type_id":"4","last_reported":1739211203,"current_range_meters":25600,"station_id":"ce4bha92rcd13ifvqeh0","pricing_plan_id":"cebpf4jnsgd1na2vs0mg"},{"bike_id":"76f3170e-3ff7-41ad-9bc5-e166406e18c1","system_id":"levelo_inurba_marseille","lat":43.28421,"lon":5.34974,"is_reserved":false,"is_disabled":false,"rental_uris":{"android":"levelo://app?vid=76f3170e-3ff7-41ad-9bc5-e166406e18c1","ios":"levelo://app?vid=76f3170e-3ff7-41ad-9bc5-e166406e18c1"},"vehicle_type_id":"4","last_reported":1739211203,"current_range_meters":30400,"station_id":"ce4bhbh2rcd13ifvqepg","pricing_plan_id":"cebpf4jnsgd1na2vs0mg"},{"bike_id":"6d72b0de-a496-48e5-b83d-b10e51b3fada","system_id":"levelo_inurba_marseille","lat":43.30165,"lon":5.39884,"is_reserved":false,"is_disabled":false,"rental_uris":{"android":"levelo://app?vid=6d72b0de-a496-48e5-b83d-b10e51b3fada","ios":"levelo://app?vid=6d72b0de-a496-48e5-b83d-b10e51b3fada"},"vehicle_type_id":"4","last_reported":1739211203,"current_range_meters":16400,"station_id":"","pricing_plan_id":"cebpf4jnsgd1na2vs0mg"},{"bike_id":"1fdf0618-86d8-4dbc-9fa6-ce8ceed227b9","system_id":"levelo_inurba_marseille","lat":43.260572,"lon":5.393998,"is_reserved":false,"is_disabled":false,"rental_uris":{"android":"levelo://app?vid=1fdf0618-86d8-4dbc-9fa6-ce8ceed227b9","ios":"levelo://app?vid=1fdf0618-86d8-4dbc-9fa6-ce8ceed227b9"},"vehicle_type_id":"4","last_reported":1739211203,"current_range_meters":38400,"station_id":"ce4bhh92rcd13ifvqfj0","pricing_plan_id":"cebpf4jnsgd1na2vs0mg"},{"bike_id":"021aebcc-7a96-411a-add9-f1926aeb8933","system_id":"levelo_inurba_marseille","lat":43.28378,"lon":5.38639,"is_reserved":false,"is_disabled":false,"rental_uris":{"android":"levelo://app?vid=021aebcc-7a96-411a-add9-f1926aeb8933","ios":"levelo://app?vid=021aebcc-7a96-411a-add9-f1926aeb8933"},"vehicle_type_id":"4","last_reported":1739211203,"current_range_meters":25600,"station_id":"ce4bh492rcd13ifvqdvg","pricing_plan_id":"cebpf4jnsgd1na2vs0mg"},{"bike_id":"04564863-f1f2-443b-b8f1-fcbab471f36d","system_id":"levelo_inurba_marseille","lat":43.29535,"lon":5.39042,"is_reserved":false,"is_disabled":false,"rental_uris":{"android":"levelo://app?vid=04564863-f1f2-443b-b8f1-fcbab471f36d","ios":"levelo://app?vid=04564863-f1f2-443b-b8f1-fcbab471f36d"},"vehicle_type_id":"4","last_reported":1739211203,"current_range_meters":39200,"station_id":"ce4bh3p2rcd13ifvqdp0","pricing_plan_id":"cebpf4jnsgd1na2vs0mg"},{"bike_id":"dd41f2a2-09dc-43f9-a8c9-4fa6e36c91d4","system_id":"levelo_inurba_marseille","lat":43.2978,"lon":5.38097,"is_reserved":false,"is_disabled":false,"rental_uris":{"android":"levelo://app?vid=dd41f2a2-09dc-43f9-a8c9-4fa6e36c91d4","ios":"levelo://app?vid=dd41f2a2-09dc-43f9-a8c9-4fa6e36c91d4"},"vehicle_type_id":"4","last_reported":1739211203,"current_range_meters":38800,"station_id":"ce4bgip2rcd13ifvqbb0","pricing_plan_id":"cebpf4jnsgd1na2vs0mg"},{"bike_id":"fd7cd6eb-8023-4160-9061-39fa556cf25c","system_id":"levelo_inurba_marseille","lat":43.30316,"lon":5.40439,"is_reserved":false,"is_disabled":true,"rental_uris":{"android":"levelo://app?vid=fd7cd6eb-8023-4160-9061-39fa556cf25c","ios":"levelo://app?vid=fd7cd6eb-8023-4160-9061-39fa556cf25c"},"vehicle_type_id":"4","last_reported":1739211203,"current_range_meters":32000,"station_id":"ce4bh012rcd13ifvqd10","pricing_plan_id":"cebpf4jnsgd1na2vs0mg"},{"bike_id":"a5168041-1b3d-49a6-9f44-b7b9bc9707e0","system_id":"levelo_inurba_marseille","lat":43.29271,"lon":5.38447,"is_reserved":false,"is_disabled":false,"rental_uris":{"android":"levelo://app?vid=a5168041-1b3d-49a6-9f44-b7b9bc9707e0","ios":"levelo://app?vid=a5168041-1b3d-49a6-9f44-b7b9bc9707e0"},"vehicle_type_id":"4","last_reported":1739211203,"current_range_meters":38400,"station_id":"ce4bh692rcd13ifvqea0","pricing_plan_id":"cebpf4jnsgd1na2vs0mg"},{"bike_id":"d32849cf-4c14-4032-9063-172d06d3f04f","system_id":"levelo_inurba_marseille","lat":43.23207,"lon":5.35568,"is_reserved":false,"is_disabled":false,"rental_uris":{"android":"levelo://app?vid=d32849cf-4c14-4032-9063-172d06d3f04f","ios":"levelo://app?vid=d32849cf-4c14-4032-9063-172d06d3f04f"},"vehicle_type_id":"4","last_reported":1739211203,"current_range_meters":37600,"station_id":"ce4bhu92rcd13ifvqi70","pricing_plan_id":"cebpf4jnsgd1na2vs0mg"},{"bike_id":"c87dd89a-a8b2-4d16-9242-970a1bd537e6","system_id":"levelo_inurba_marseille","lat":43.27842,"lon":5.39205,"is_reserved":false,"is_disabled":false,"rental_uris":{"android":"levelo://app?vid=c87dd89a-a8b2-4d16-9242-970a1bd537e6","ios":"levelo://app?vid=c87dd89a-a8b2-4d16-9242-970a1bd537e6"},"vehicle_type_id":"4","last_reported":1739211203,"current_range_meters":38800,"station_id":"ce4bhjp2rcd13ifvqga0","pricing_plan_id":"cebpf4jnsgd1na2vs0mg"},{"bike_id":"0d94fef7-a70b-4836-8bee-b6bf6c70a896","system_id":"levelo_inurba_marseille","lat":43.27669,"lon":5.388853,"is_reserved":false,"is_disabled":false,"rental_uris":{"android":"levelo://app?vid=0d94fef7-a70b-4836-8bee-b6bf6c70a896","ios":"levelo://app?vid=0d94fef7-a70b-4836-8bee-b6bf6c70a896"},"vehicle_type_id":"4","last_reported":1739211203,"current_range_meters":26800,"station_id":"ce4bhi12rcd13ifvqfo0","pricing_plan_id":"cebpf4jnsgd1na2vs0mg"},{"bike_id":"b7cfafc0-fba3-47fa-8c3d-d96c6bee1f7a","system_id":"levelo_inurba_marseille","lat":43.24386,"lon":5.37118,"is_reserved":false,"is_disabled":false,"rental_uris":{"android":"levelo://app?vid=b7cfafc0-fba3-47fa-8c3d-d96c6bee1f7a","ios":"levelo://app?vid=b7cfafc0-fba3-47fa-8c3d-d96c6bee1f7a"},"vehicle_type_id":"4","last_reported":1739211203,"current_range_meters":36400,"station_id":"ce4bhhh2rcd13ifvqfk0","pricing_plan_id":"cebpf4jnsgd1na2vs0mg"},{"bike_id":"35fa277b-471f-48ab-8131-17be4bead2f1","system_id":"levelo_inurba_marseille","lat":43.28714,"lon":5.37943,"is_reserved":false,"is_disabled":false,"rental_uris":{"android":"levelo://app?vid=35fa277b-471f-48ab-8131-17be4bead2f1","ios":"levelo://app?vid=35fa277b-471f-48ab-8131-17be4bead2f1"},"vehicle_type_id":"4","last_reported":1739211203,"current_range_meters":34000,"station_id":"ce4bh9p2rcd13ifvqec0","pricing_plan_id":"cebpf4jnsgd1na2vs0mg"},{"bike_id":"7ad2debf-586d-4c17-96ee-4293391683d1","system_id":"levelo_inurba_marseille","lat":43.28142,"lon":5.42667,"is_reserved":false,"is_disabled":false,"rental_uris":{"android":"levelo://app?vid=7ad2debf-586d-4c17-96ee-4293391683d1","ios":"levelo://app?vid=7ad2debf-586d-4c17-96ee-4293391683d1"},"vehicle_type_id":"4","last_reported":1739211203,"current_range_meters":22000,"station_id":"ce4bhnh2rcd13ifvqgug","pricing_plan_id":"cebpf4jnsgd1na2vs0mg"},{"bike_id":"3053beb1-cf70-417b-badc-581ea0c267b6","system_id":"levelo_inurba_marseille","lat":43.318867,"lon":5.407363,"is_reserved":false,"is_disabled":false,"rental_uris":{"android":"levelo://app?vid=3053beb1-cf70-417b-badc-581ea0c267b6","ios":"levelo://app?vid=3053beb1-cf70-417b-badc-581ea0c267b6"},"vehicle_type_id":"4","last_reported":1739211203,"current_range_meters":29600,"station_id":"ce4bhq12rcd13ifvqhig","pricing_plan_id":"cebpf4jnsgd1na2vs0mg"},{"bike_id":"386a5c6b-0374-40ee-8fee-068f2ec38f9b","system_id":"levelo_inurba_marseille","lat":43.23959,"lon":5.36615,"is_reserved":false,"is_disabled":false,"rental_uris":{"android":"levelo://app?vid=386a5c6b-0374-40ee-8fee-068f2ec38f9b","ios":"levelo://app?vid=386a5c6b-0374-40ee-8fee-068f2ec38f9b"},"vehicle_type_id":"4","last_reported":1739211203,"current_range_meters":15200,"station_id":"ce4bhi12rcd13ifvqfp0","pricing_plan_id":"cebpf4jnsgd1na2vs0mg"},{"bike_id":"9fce44f2-1cbb-41b3-913d-0f4daaf602d1","system_id":"levelo_inurba_marseille","lat":43.31698,"lon":5.37745,"is_reserved":false,"is_disabled":false,"rental_uris":{"android":"levelo://app?vid=9fce44f2-1cbb-41b3-913d-0f4daaf602d1","ios":"levelo://app?vid=9fce44f2-1cbb-41b3-913d-0f4daaf602d1"},"vehicle_type_id":"4","last_reported":1739211203,"current_range_meters":22800,"station_id":"ce4bgth2rcd13ifvqch0","pricing_plan_id":"cebpf4jnsgd1na2vs0mg"},{"bike_id":"039c59cc-4781-4efa-83b6-d949383ae591","system_id":"levelo_inurba_marseille","lat":43.32549,"lon":5.41424,"is_reserved":false,"is_disabled":false,"rental_uris":{"android":"levelo://app?vid=039c59cc-4781-4efa-83b6-d949383ae591","ios":"levelo://app?vid=039c59cc-4781-4efa-83b6-d949383ae591"},"vehicle_type_id":"4","last_reported":1739211203,"current_range_meters":37600,"station_id":"ce4bhq12rcd13ifvqhhg","pricing_plan_id":"cebpf4jnsgd1na2vs0mg"},{"bike_id":"27970130-9f58-408f-85a6-eea1ca4029cd","system_id":"levelo_inurba_marseille","lat":43.29539,"lon":5.39027,"is_reserved":false,"is_disabled":false,"rental_uris":{"android":"levelo://app?vid=27970130-9f58-408f-85a6-eea1ca4029cd","ios":"levelo://app?vid=27970130-9f58-408f-85a6-eea1ca4029cd"},"vehicle_type_id":"4","last_reported":1739211203,"current_range_meters":38800,"station_id":"ce4bh3p2rcd13ifvqdp0","pricing_plan_id":"cebpf4jnsgd1na2vs0mg"},{"bike_id":"3ad78980-d954-4439-b88d-56e0dcfe7b89","system_id":"levelo_inurba_marseille","lat":43.23957,"lon":5.36623,"is_reserved":false,"is_disabled":false,"rental_uris":{"android":"levelo://app?vid=3ad78980-d954-4439-b88d-56e0dcfe7b89","ios":"levelo://app?vid=3ad78980-d954-4439-b88d-56e0dcfe7b89"},"vehicle_type_id":"4","last_reported":1739211203,"current_range_meters":14000,"station_id":"ce4bhi12rcd13ifvqfp0","pricing_plan_id":"cebpf4jnsgd1na2vs0mg"},{"bike_id":"cadba6b3-7793-42af-88e5-c898681e364d","system_id":"levelo_inurba_marseille","lat":43.29556,"lon":5.37513,"is_reserved":false,"is_disabled":false,"rental_uris":{"android":"levelo://app?vid=cadba6b3-7793-42af-88e5-c898681e364d","ios":"levelo://app?vid=cadba6b3-7793-42af-88e5-c898681e364d"},"vehicle_type_id":"4","last_reported":1739211203,"current_range_meters":38800,"station_id":"ce4bgh92rcd13ifvqb50","pricing_plan_id":"cebpf4jnsgd1na2vs0mg"},{"bike_id":"57bb23cc-aacd-4798-9d5f-20a9fef2ce8a","system_id":"levelo_inurba_marseille","lat":43.30631,"lon":5.40086,"is_reserved":false,"is_disabled":false,"rental_uris":{"android":"levelo://app?vid=57bb23cc-aacd-4798-9d5f-20a9fef2ce8a","ios":"levelo://app?vid=57bb23cc-aacd-4798-9d5f-20a9fef2ce8a"},"vehicle_type_id":"4","last_reported":1739211203,"current_range_meters":21600,"station_id":"ce4bh112rcd13ifvqda0","pricing_plan_id":"cebpf4jnsgd1na2vs0mg"},{"bike_id":"f69cd6be-4142-4fae-b32e-2ad56ba1af59","system_id":"levelo_inurba_marseille","lat":43.31702,"lon":5.40447,"is_reserved":false,"is_disabled":true,"rental_uris":{"android":"levelo://app?vid=f69cd6be-4142-4fae-b32e-2ad56ba1af59","ios":"levelo://app?vid=f69cd6be-4142-4fae-b32e-2ad56ba1af59"},"vehicle_type_id":"4","last_reported":1739211203,"current_range_meters":0,"station_id":"ce4bh012rcd13ifvqd00","pricing_plan_id":"cebpf4jnsgd1na2vs0mg"},{"bike_id":"01b0e03f-7b96-4ac3-a2a1-cc92043b5081","system_id":"levelo_inurba_marseille","lat":43.292,"lon":5.39325,"is_reserved":false,"is_disabled":true,"rental_uris":{"android":"levelo://app?vid=01b0e03f-7b96-4ac3-a2a1-cc92043b5081","ios":"levelo://app?vid=01b0e03f-7b96-4ac3-a2a1-cc92043b5081"},"vehicle_type_id":"4","last_reported":1739211203,"current_range_meters":26800,"station_id":"ce4bh192rcd13ifvqdd0","pricing_plan_id":"cebpf4jnsgd1na2vs0mg"},{"bike_id":"e86a799e-3e6e-4715-b9cd-b7ec9b4bf324","system_id":"levelo_inurba_marseille","lat":43.30128,"lon":5.39889,"is_reserved":false,"is_disabled":false,"rental_uris":{"android":"levelo://app?vid=e86a799e-3e6e-4715-b9cd-b7ec9b4bf324","ios":"levelo://app?vid=e86a799e-3e6e-4715-b9cd-b7ec9b4bf324"},"vehicle_type_id":"4","last_reported":1739211203,"current_range_meters":35600,"station_id":"ce4bh0h2rcd13ifvqd40","pricing_plan_id":"cebpf4jnsgd1na2vs0mg"},{"bike_id":"53189acc-671c-4379-9289-6340acb9dc59","system_id":"levelo_inurba_marseille","lat":43.2849,"lon":5.38565,"is_reserved":false,"is_disabled":false,"rental_uris":{"android":"levelo://app?vid=53189acc-671c-4379-9289-6340acb9dc59","ios":"levelo://app?vid=53189acc-671c-4379-9289-6340acb9dc59"},"vehicle_type_id":"4","last_reported":1739211203,"current_range_meters":26800,"station_id":"ce4bh8p2rcd13ifvqeb0","pricing_plan_id":"cebpf4jnsgd1na2vs0mg"},{"bike_id":"685a393f-51db-46f0-b2e2-fc7a6afd3cdf","system_id":"levelo_inurba_marseille","lat":43.28618,"lon":5.35101,"is_reserved":false,"is_disabled":false,"rental_uris":{"android":"levelo://app?vid=685a393f-51db-46f0-b2e2-fc7a6afd3cdf","ios":"levelo://app?vid=685a393f-51db-46f0-b2e2-fc7a6afd3cdf"},"vehicle_type_id":"4","last_reported":1739211203,"current_range_meters":37600,"station_id":"ce4bhch2rcd13ifvqeug","pricing_plan_id":"cebpf4jnsgd1na2vs0mg"},{"bike_id":"12ad02c5-ba58-4c84-a5e7-039ca5bc6e6d","system_id":"levelo_inurba_marseille","lat":43.28715,"lon":5.3795,"is_reserved":false,"is_disabled":false,"rental_uris":{"android":"levelo://app?vid=12ad02c5-ba58-4c84-a5e7-039ca5bc6e6d","ios":"levelo://app?vid=12ad02c5-ba58-4c84-a5e7-039ca5bc6e6d"},"vehicle_type_id":"4","last_reported":1739211203,"current_range_meters":24400,"station_id":"ce4bh9p2rcd13ifvqec0","pricing_plan_id":"cebpf4jnsgd1na2vs0mg"},{"bike_id":"d083bfc3-cca1-45dd-bf2a-a271ff65031c","system_id":"levelo_inurba_marseille","lat":43.30127,"lon":5.39865,"is_reserved":false,"is_disabled":false,"rental_uris":{"android":"levelo://app?vid=d083bfc3-cca1-45dd-bf2a-a271ff65031c","ios":"levelo://app?vid=d083bfc3-cca1-45dd-bf2a-a271ff65031c"},"vehicle_type_id":"4","last_reported":1739211203,"current_range_meters":38400,"station_id":"ce4bh0h2rcd13ifvqd40","pricing_plan_id":"cebpf4jnsgd1na2vs0mg"},{"bike_id":"3bb91385-514e-4bb7-bbc6-ce3aa19ccbeb","system_id":"levelo_inurba_marseille","lat":43.32004,"lon":5.38157,"is_reserved":false,"is_disabled":false,"rental_uris":{"android":"levelo://app?vid=3bb91385-514e-4bb7-bbc6-ce3aa19ccbeb","ios":"levelo://app?vid=3bb91385-514e-4bb7-bbc6-ce3aa19ccbeb"},"vehicle_type_id":"4","last_reported":1739211203,"current_range_meters":33600,"station_id":"ce4bhr12rcd13ifvqhpg","pricing_plan_id":"cebpf4jnsgd1na2vs0mg"},{"bike_id":"9f443121-e8ff-4aac-bc9a-d9077c8e664b","system_id":"levelo_inurba_marseille","lat":43.27071,"lon":5.42283,"is_reserved":false,"is_disabled":false,"rental_uris":{"android":"levelo://app?vid=9f443121-e8ff-4aac-bc9a-d9077c8e664b","ios":"levelo://app?vid=9f443121-e8ff-4aac-bc9a-d9077c8e664b"},"vehicle_type_id":"4","last_reported":1739211203,"current_range_meters":28800,"station_id":"ce4bhk92rcd13ifvqgb0","pricing_plan_id":"cebpf4jnsgd1na2vs0mg"},{"bike_id":"f01ae2af-eb71-402e-9c3f-3463ac491de9","system_id":"levelo_inurba_marseille","lat":43.29711,"lon":5.36614,"is_reserved":false,"is_disabled":false,"rental_uris":{"android":"levelo://app?vid=f01ae2af-eb71-402e-9c3f-3463ac491de9","ios":"levelo://app?vid=f01ae2af-eb71-402e-9c3f-3463ac491de9"},"vehicle_type_id":"4","last_reported":1739211203,"current_range_meters":15200,"station_id":"ce4bgn12rcd13ifvqbt0","pricing_plan_id":"cebpf4jnsgd1na2vs0mg"},{"bike_id":"c03e3e74-2231-4470-8600-8fa32748c474","system_id":"levelo_inurba_marseille","lat":43.2482,"lon":5.37421,"is_reserved":false,"is_disabled":false,"rental_uris":{"android":"levelo://app?vid=c03e3e74-2231-4470-8600-8fa32748c474","ios":"levelo://app?vid=c03e3e74-2231-4470-8600-8fa32748c474"},"vehicle_type_id":"4","last_reported":1739211203,"current_range_meters":37600,"station_id":"ce4bhgh2rcd13ifvqfb0","pricing_plan_id":"cebpf4jnsgd1na2vs0mg"},{"bike_id":"4591023d-5c1e-434a-8f93-a035257c7caf","system_id":"levelo_inurba_marseille","lat":43.28351,"lon":5.38115,"is_reserved":false,"is_disabled":false,"rental_uris":{"android":"levelo://app?vid=4591023d-5c1e-434a-8f93-a035257c7caf","ios":"levelo://app?vid=4591023d-5c1e-434a-8f93-a035257c7caf"},"vehicle_type_id":"4","last_reported":1739211203,"current_range_meters":30000,"station_id":"ce4bh412rcd13ifvqdr0","pricing_plan_id":"cebpf4jnsgd1na2vs0mg"},{"bike_id":"c2250f20-2283-4e17-b7ce-382f2f740aa1","system_id":"levelo_inurba_marseille","lat":43.24812,"lon":5.37457,"is_reserved":false,"is_disabled":false,"rental_uris":{"android":"levelo://app?vid=c2250f20-2283-4e17-b7ce-382f2f740aa1","ios":"levelo://app?vid=c2250f20-2283-4e17-b7ce-382f2f740aa1"},"vehicle_type_id":"4","last_reported":1739211203,"current_range_meters":27600,"station_id":"ce4bhgh2rcd13ifvqfb0","pricing_plan_id":"cebpf4jnsgd1na2vs0mg"},{"bike_id":"a7d5fd81-b182-4b4f-ab69-77d729f13e57","system_id":"levelo_inurba_marseille","lat":43.26553,"lon":5.37284,"is_reserved":false,"is_disabled":false,"rental_uris":{"android":"levelo://app?vid=a7d5fd81-b182-4b4f-ab69-77d729f13e57","ios":"levelo://app?vid=a7d5fd81-b182-4b4f-ab69-77d729f13e57"},"vehicle_type_id":"4","last_reported":1739211203,"current_range_meters":21600,"station_id":"ce4bhg12rcd13ifvqf70","pricing_plan_id":"cebpf4jnsgd1na2vs0mg"},{"bike_id":"bed94834-c7f0-43b2-a0cc-27dad8f97f4f","system_id":"levelo_inurba_marseille","lat":43.29571,"lon":5.37519,"is_reserved":false,"is_disabled":false,"rental_uris":{"android":"levelo://app?vid=bed94834-c7f0-43b2-a0cc-27dad8f97f4f","ios":"levelo://app?vid=bed94834-c7f0-43b2-a0cc-27dad8f97f4f"},"vehicle_type_id":"4","last_reported":1739211203,"current_range_meters":32000,"station_id":"ce4bgh92rcd13ifvqb50","pricing_plan_id":"cebpf4jnsgd1na2vs0mg"},{"bike_id":"2d2562e9-c5fe-467e-b336-8c8a98a4a277","system_id":"levelo_inurba_marseille","lat":43.29854,"lon":5.3626,"is_reserved":false,"is_disabled":false,"rental_uris":{"android":"levelo://app?vid=2d2562e9-c5fe-467e-b336-8c8a98a4a277","ios":"levelo://app?vid=2d2562e9-c5fe-467e-b336-8c8a98a4a277"},"vehicle_type_id":"4","last_reported":1739211203,"current_range_meters":28400,"station_id":"ce4bgpp2rcd13ifvqc3g","pricing_plan_id":"cebpf4jnsgd1na2vs0mg"},{"bike_id":"fdcb41f8-a4c8-462f-a3ed-fdbca4069024","system_id":"levelo_inurba_marseille","lat":43.2808,"lon":5.3966,"is_reserved":false,"is_disabled":false,"rental_uris":{"android":"levelo://app?vid=fdcb41f8-a4c8-462f-a3ed-fdbca4069024","ios":"levelo://app?vid=fdcb41f8-a4c8-462f-a3ed-fdbca4069024"},"vehicle_type_id":"4","last_reported":1739211203,"current_range_meters":39200,"station_id":"ce4bho12rcd13ifvqh2g","pricing_plan_id":"cebpf4jnsgd1na2vs0mg"},{"bike_id":"46364d9d-9e7c-4b5a-9d07-d05c87074a64","system_id":"levelo_inurba_marseille","lat":43.29538,"lon":5.39031,"is_reserved":false,"is_disabled":true,"rental_uris":{"android":"levelo://app?vid=46364d9d-9e7c-4b5a-9d07-d05c87074a64","ios":"levelo://app?vid=46364d9d-9e7c-4b5a-9d07-d05c87074a64"},"vehicle_type_id":"4","last_reported":1739211203,"current_range_meters":24000,"station_id":"ce4bh3p2rcd13ifvqdp0","pricing_plan_id":"cebpf4jnsgd1na2vs0mg"},{"bike_id":"0a261332-55f6-4ea5-8bd3-dc2e591b1330","system_id":"levelo_inurba_marseille","lat":43.28461,"lon":5.35884,"is_reserved":false,"is_disabled":false,"rental_uris":{"android":"levelo://app?vid=0a261332-55f6-4ea5-8bd3-dc2e591b1330","ios":"levelo://app?vid=0a261332-55f6-4ea5-8bd3-dc2e591b1330"},"vehicle_type_id":"4","last_reported":1739211203,"current_range_meters":30400,"station_id":"ce4bhah2rcd13ifvqei0","pricing_plan_id":"cebpf4jnsgd1na2vs0mg"},{"bike_id":"02dda515-7b78-4cf1-8bd3-c1f58c49e12b","system_id":"levelo_inurba_marseille","lat":43.283518,"lon":5.381096,"is_reserved":false,"is_disabled":false,"rental_uris":{"android":"levelo://app?vid=02dda515-7b78-4cf1-8bd3-c1f58c49e12b","ios":"levelo://app?vid=02dda515-7b78-4cf1-8bd3-c1f58c49e12b"},"vehicle_type_id":"4","last_reported":1739211203,"current_range_meters":32400,"station_id":"ce4bh412rcd13ifvqdr0","pricing_plan_id":"cebpf4jnsgd1na2vs0mg"},{"bike_id":"16e8f863-9556-471d-9735-d43e55a9579d","system_id":"levelo_inurba_marseille","lat":43.29845,"lon":5.36267,"is_reserved":false,"is_disabled":false,"rental_uris":{"android":"levelo://app?vid=16e8f863-9556-471d-9735-d43e55a9579d","ios":"levelo://app?vid=16e8f863-9556-471d-9735-d43e55a9579d"},"vehicle_type_id":"4","last_reported":1739211203,"current_range_meters":38800,"station_id":"ce4bgpp2rcd13ifvqc3g","pricing_plan_id":"cebpf4jnsgd1na2vs0mg"},{"bike_id":"cadb477f-722b-4abb-a3c4-af7eae9a4cfd","system_id":"levelo_inurba_marseille","lat":43.3095,"lon":5.39027,"is_reserved":false,"is_disabled":false,"rental_uris":{"android":"levelo://app?vid=cadb477f-722b-4abb-a3c4-af7eae9a4cfd","ios":"levelo://app?vid=cadb477f-722b-4abb-a3c4-af7eae9a4cfd"},"vehicle_type_id":"4","last_reported":1739211203,"current_range_meters":11200,"station_id":"ce4bgup2rcd13ifvqco0","pricing_plan_id":"cebpf4jnsgd1na2vs0mg"},{"bike_id":"06de6696-fded-417a-b163-8bd5cef8a49f","system_id":"levelo_inurba_marseille","lat":43.29,"lon":5.35617,"is_reserved":false,"is_disabled":false,"rental_uris":{"android":"levelo://app?vid=06de6696-fded-417a-b163-8bd5cef8a49f","ios":"levelo://app?vid=06de6696-fded-417a-b163-8bd5cef8a49f"},"vehicle_type_id":"4","last_reported":1739211203,"current_range_meters":35200,"station_id":"ce4bhb92rcd13ifvqen0","pricing_plan_id":"cebpf4jnsgd1na2vs0mg"},{"bike_id":"12886e97-e796-47ee-8132-238f166724e7","system_id":"levelo_inurba_marseille","lat":43.29964,"lon":5.38497,"is_reserved":false,"is_disabled":false,"rental_uris":{"android":"levelo://app?vid=12886e97-e796-47ee-8132-238f166724e7","ios":"levelo://app?vid=12886e97-e796-47ee-8132-238f166724e7"},"vehicle_type_id":"4","last_reported":1739211203,"current_range_meters":22800,"station_id":"ce4bgj92rcd13ifvqbd0","pricing_plan_id":"cebpf4jnsgd1na2vs0mg"},{"bike_id":"91c3c342-fc22-4947-b47f-1a2cc2e964fc","system_id":"levelo_inurba_marseille","lat":43.30435,"lon":5.38894,"is_reserved":false,"is_disabled":false,"rental_uris":{"android":"levelo://app?vid=91c3c342-fc22-4947-b47f-1a2cc2e964fc","ios":"levelo://app?vid=91c3c342-fc22-4947-b47f-1a2cc2e964fc"},"vehicle_type_id":"4","last_reported":1739211203,"current_range_meters":12800,"station_id":"ce4bgk12rcd13ifvqbi0","pricing_plan_id":"cebpf4jnsgd1na2vs0mg"},{"bike_id":"1d2000e3-6e82-4c8d-9a0a-5d8181e36eb3","system_id":"levelo_inurba_marseille","lat":43.25017,"lon":5.38919,"is_reserved":false,"is_disabled":false,"rental_uris":{"android":"levelo://app?vid=1d2000e3-6e82-4c8d-9a0a-5d8181e36eb3","ios":"levelo://app?vid=1d2000e3-6e82-4c8d-9a0a-5d8181e36eb3"},"vehicle_type_id":"4","last_reported":1739211203,"current_range_meters":9600,"station_id":"ce4bhgp2rcd13ifvqfd0","pricing_plan_id":"cebpf4jnsgd1na2vs0mg"},{"bike_id":"18de598c-8984-48ca-bcb3-e9d09f7b954c","system_id":"levelo_inurba_marseille","lat":43.28847,"lon":5.35853,"is_reserved":false,"is_disabled":false,"rental_uris":{"android":"levelo://app?vid=18de598c-8984-48ca-bcb3-e9d09f7b954c","ios":"levelo://app?vid=18de598c-8984-48ca-bcb3-e9d09f7b954c"},"vehicle_type_id":"4","last_reported":1739211203,"current_range_meters":27600,"station_id":"ce4bhb12rcd13ifvqem0","pricing_plan_id":"cebpf4jnsgd1na2vs0mg"},{"bike_id":"288ed061-f3af-4bd4-ae8f-737bd17d8ab1","system_id":"levelo_inurba_marseille","lat":43.317276,"lon":5.423883,"is_reserved":false,"is_disabled":false,"rental_uris":{"android":"levelo://app?vid=288ed061-f3af-4bd4-ae8f-737bd17d8ab1","ios":"levelo://app?vid=288ed061-f3af-4bd4-ae8f-737bd17d8ab1"},"vehicle_type_id":"4","last_reported":1739211203,"current_range_meters":38800,"station_id":"ce4bhp92rcd13ifvqhbg","pricing_plan_id":"cebpf4jnsgd1na2vs0mg"},{"bike_id":"ab056ecb-7c4d-4f3a-98d2-8a94e69e20b2","system_id":"levelo_inurba_marseille","lat":43.28617,"lon":5.35098,"is_reserved":false,"is_disabled":false,"rental_uris":{"android":"levelo://app?vid=ab056ecb-7c4d-4f3a-98d2-8a94e69e20b2","ios":"levelo://app?vid=ab056ecb-7c4d-4f3a-98d2-8a94e69e20b2"},"vehicle_type_id":"4","last_reported":1739211203,"current_range_meters":27600,"station_id":"ce4bhch2rcd13ifvqeug","pricing_plan_id":"cebpf4jnsgd1na2vs0mg"},{"bike_id":"e444e3be-8491-4804-bba0-bb173959d33c","system_id":"levelo_inurba_marseille","lat":43.29586,"lon":5.36739,"is_reserved":false,"is_disabled":false,"rental_uris":{"android":"levelo://app?vid=e444e3be-8491-4804-bba0-bb173959d33c","ios":"levelo://app?vid=e444e3be-8491-4804-bba0-bb173959d33c"},"vehicle_type_id":"4","last_reported":1739211203,"current_range_meters":28400,"station_id":"ce4bgph2rcd13ifvqc2g","pricing_plan_id":"cebpf4jnsgd1na2vs0mg"},{"bike_id":"f74e6a0e-c0df-491f-bbe0-5ca951d4c05a","system_id":"levelo_inurba_marseille","lat":43.30267,"lon":5.40075,"is_reserved":false,"is_disabled":false,"rental_uris":{"android":"levelo://app?vid=f74e6a0e-c0df-491f-bbe0-5ca951d4c05a","ios":"levelo://app?vid=f74e6a0e-c0df-491f-bbe0-5ca951d4c05a"},"vehicle_type_id":"4","last_reported":1739211203,"current_range_meters":6800,"station_id":"ce4bgvh2rcd13ifvqcs0","pricing_plan_id":"cebpf4jnsgd1na2vs0mg"},{"bike_id":"79c27d1b-6e84-42bc-bef4-d8fc6ca0d19a","system_id":"levelo_inurba_marseille","lat":43.28703,"lon":5.39988,"is_reserved":false,"is_disabled":true,"rental_uris":{"android":"levelo://app?vid=79c27d1b-6e84-42bc-bef4-d8fc6ca0d19a","ios":"levelo://app?vid=79c27d1b-6e84-42bc-bef4-d8fc6ca0d19a"},"vehicle_type_id":"4","last_reported":1739211203,"current_range_meters":38800,"station_id":"ce4bho92rcd13ifvqh3g","pricing_plan_id":"cebpf4jnsgd1na2vs0mg"},{"bike_id":"d5a37605-4e0b-406c-a924-7ca9f964c4e0","system_id":"levelo_inurba_marseille","lat":43.24813,"lon":5.37459,"is_reserved":false,"is_disabled":false,"rental_uris":{"android":"levelo://app?vid=d5a37605-4e0b-406c-a924-7ca9f964c4e0","ios":"levelo://app?vid=d5a37605-4e0b-406c-a924-7ca9f964c4e0"},"vehicle_type_id":"4","last_reported":1739211203,"current_range_meters":28800,"station_id":"ce4bhgh2rcd13ifvqfb0","pricing_plan_id":"cebpf4jnsgd1na2vs0mg"},{"bike_id":"2f9906fe-0c89-4b86-a39b-e1b3d8114c06","system_id":"levelo_inurba_marseille","lat":43.28932,"lon":5.36647,"is_reserved":false,"is_disabled":false,"rental_uris":{"android":"levelo://app?vid=2f9906fe-0c89-4b86-a39b-e1b3d8114c06","ios":"levelo://app?vid=2f9906fe-0c89-4b86-a39b-e1b3d8114c06"},"vehicle_type_id":"4","last_reported":1739211203,"current_range_meters":12400,"station_id":"ce4bhap2rcd13ifvqek0","pricing_plan_id":"cebpf4jnsgd1na2vs0mg"},{"bike_id":"ddaf09b0-2c3b-4688-b484-14cdfe4165fc","system_id":"levelo_inurba_marseille","lat":43.28727,"lon":5.37416,"is_reserved":false,"is_disabled":false,"rental_uris":{"android":"levelo://app?vid=ddaf09b0-2c3b-4688-b484-14cdfe4165fc","ios":"levelo://app?vid=ddaf09b0-2c3b-4688-b484-14cdfe4165fc"},"vehicle_type_id":"4","last_reported":1739211203,"current_range_meters":24000,"station_id":"ce4bh3p2rcd13ifvqdq0","pricing_plan_id":"cebpf4jnsgd1na2vs0mg"},{"bike_id":"e87a8ee6-9ece-4cdf-9a1a-a4ecf7297724","system_id":"levelo_inurba_marseille","lat":43.29843,"lon":5.36269,"is_reserved":false,"is_disabled":false,"rental_uris":{"android":"levelo://app?vid=e87a8ee6-9ece-4cdf-9a1a-a4ecf7297724","ios":"levelo://app?vid=e87a8ee6-9ece-4cdf-9a1a-a4ecf7297724"},"vehicle_type_id":"4","last_reported":1739211203,"current_range_meters":13600,"station_id":"ce4bgpp2rcd13ifvqc3g","pricing_plan_id":"cebpf4jnsgd1na2vs0mg"},{"bike_id":"a97f3a8d-e1f7-4ede-af5a-b155aa57a80e","system_id":"levelo_inurba_marseille","lat":43.25581,"lon":5.38217,"is_reserved":false,"is_disabled":false,"rental_uris":{"android":"levelo://app?vid=a97f3a8d-e1f7-4ede-af5a-b155aa57a80e","ios":"levelo://app?vid=a97f3a8d-e1f7-4ede-af5a-b155aa57a80e"},"vehicle_type_id":"4","last_reported":1739211203,"current_range_meters":18000,"station_id":"ce4bhih2rcd13ifvqfs0","pricing_plan_id":"cebpf4jnsgd1na2vs0mg"},{"bike_id":"e7978a9e-c76d-49c3-b991-c2733ada93ec","system_id":"levelo_inurba_marseille","lat":43.26933,"lon":5.40277,"is_reserved":false,"is_disabled":false,"rental_uris":{"android":"levelo://app?vid=e7978a9e-c76d-49c3-b991-c2733ada93ec","ios":"levelo://app?vid=e7978a9e-c76d-49c3-b991-c2733ada93ec"},"vehicle_type_id":"4","last_reported":1739211203,"current_range_meters":38800,"station_id":"cjm6bp8fraef2m0cb0m0","pricing_plan_id":"cebpf4jnsgd1na2vs0mg"},{"bike_id":"07baf43e-fc57-48a3-beea-0bd26e095e21","system_id":"levelo_inurba_marseille","lat":43.29195,"lon":5.39314,"is_reserved":false,"is_disabled":false,"rental_uris":{"android":"levelo://app?vid=07baf43e-fc57-48a3-beea-0bd26e095e21","ios":"levelo://app?vid=07baf43e-fc57-48a3-beea-0bd26e095e21"},"vehicle_type_id":"4","last_reported":1739211203,"current_range_meters":26000,"station_id":"ce4bh192rcd13ifvqdd0","pricing_plan_id":"cebpf4jnsgd1na2vs0mg"},{"bike_id":"1af00a82-b32d-4f50-8686-c27833a37a2d","system_id":"levelo_inurba_marseille","lat":43.30328,"lon":5.4044,"is_reserved":false,"is_disabled":false,"rental_uris":{"android":"levelo://app?vid=1af00a82-b32d-4f50-8686-c27833a37a2d","ios":"levelo://app?vid=1af00a82-b32d-4f50-8686-c27833a37a2d"},"vehicle_type_id":"4","last_reported":1739211203,"current_range_meters":36400,"station_id":"ce4bh012rcd13ifvqd10","pricing_plan_id":"cebpf4jnsgd1na2vs0mg"},{"bike_id":"c4813b27-4250-43ea-8be5-ccd7321d2af3","system_id":"levelo_inurba_marseille","lat":43.28222,"lon":5.36994,"is_reserved":false,"is_disabled":false,"rental_uris":{"android":"levelo://app?vid=c4813b27-4250-43ea-8be5-ccd7321d2af3","ios":"levelo://app?vid=c4813b27-4250-43ea-8be5-ccd7321d2af3"},"vehicle_type_id":"4","last_reported":1739211203,"current_range_meters":25200,"station_id":"","pricing_plan_id":"cebpf4jnsgd1na2vs0mg"},{"bike_id":"4eca2257-b4d4-48dc-bd5c-447a18abb0cd","system_id":"levelo_inurba_marseille","lat":43.3205,"lon":5.41556,"is_reserved":false,"is_disabled":false,"rental_uris":{"android":"levelo://app?vid=4eca2257-b4d4-48dc-bd5c-447a18abb0cd","ios":"levelo://app?vid=4eca2257-b4d4-48dc-bd5c-447a18abb0cd"},"vehicle_type_id":"4","last_reported":1739211203,"current_range_meters":38800,"station_id":"ce4bhq92rcd13ifvqhkg","pricing_plan_id":"cebpf4jnsgd1na2vs0mg"},{"bike_id":"db45b2ad-8e58-4df6-8875-abc370f12198","system_id":"levelo_inurba_marseille","lat":43.31757,"lon":5.39009,"is_reserved":false,"is_disabled":false,"rental_uris":{"android":"levelo://app?vid=db45b2ad-8e58-4df6-8875-abc370f12198","ios":"levelo://app?vid=db45b2ad-8e58-4df6-8875-abc370f12198"},"vehicle_type_id":"4","last_reported":1739211203,"current_range_meters":24800,"station_id":"ce4bhqp2rcd13ifvqhng","pricing_plan_id":"cebpf4jnsgd1na2vs0mg"},{"bike_id":"30040434-0ce6-4639-9cfb-4b7e126d7c60","system_id":"levelo_inurba_marseille","lat":43.27487,"lon":5.42451,"is_reserved":false,"is_disabled":false,"rental_uris":{"android":"levelo://app?vid=30040434-0ce6-4639-9cfb-4b7e126d7c60","ios":"levelo://app?vid=30040434-0ce6-4639-9cfb-4b7e126d7c60"},"vehicle_type_id":"4","last_reported":1739211203,"current_range_meters":38800,"station_id":"ce4bhn92rcd13ifvqgrg","pricing_plan_id":"cebpf4jnsgd1na2vs0mg"},{"bike_id":"addd07a1-34d8-46c5-813c-e5860355448f","system_id":"levelo_inurba_marseille","lat":43.28421,"lon":5.37513,"is_reserved":false,"is_disabled":false,"rental_uris":{"android":"levelo://app?vid=addd07a1-34d8-46c5-813c-e5860355448f","ios":"levelo://app?vid=addd07a1-34d8-46c5-813c-e5860355448f"},"vehicle_type_id":"4","last_reported":1739211203,"current_range_meters":30000,"station_id":"ce4bho92rcd13ifvqh3g","pricing_plan_id":"cebpf4jnsgd1na2vs0mg"},{"bike_id":"868bab58-7fb6-4926-8070-cd9a4296d6f1","system_id":"levelo_inurba_marseille","lat":43.2835,"lon":5.38109,"is_reserved":false,"is_disabled":false,"rental_uris":{"android":"levelo://app?vid=868bab58-7fb6-4926-8070-cd9a4296d6f1","ios":"levelo://app?vid=868bab58-7fb6-4926-8070-cd9a4296d6f1"},"vehicle_type_id":"4","last_reported":1739211203,"current_range_meters":38000,"station_id":"ce4bh412rcd13ifvqdr0","pricing_plan_id":"cebpf4jnsgd1na2vs0mg"},{"bike_id":"598c2bbf-6a25-4cff-b55d-aa2b11dcffd1","system_id":"levelo_inurba_marseille","lat":43.29594,"lon":5.36735,"is_reserved":false,"is_disabled":false,"rental_uris":{"android":"levelo://app?vid=598c2bbf-6a25-4cff-b55d-aa2b11dcffd1","ios":"levelo://app?vid=598c2bbf-6a25-4cff-b55d-aa2b11dcffd1"},"vehicle_type_id":"4","last_reported":1739211203,"current_range_meters":35200,"station_id":"ce4bgph2rcd13ifvqc2g","pricing_plan_id":"cebpf4jnsgd1na2vs0mg"},{"bike_id":"841e0f04-b00a-44de-83b7-b9b92c40d93b","system_id":"levelo_inurba_marseille","lat":43.28172,"lon":5.42641,"is_reserved":false,"is_disabled":false,"rental_uris":{"android":"levelo://app?vid=841e0f04-b00a-44de-83b7-b9b92c40d93b","ios":"levelo://app?vid=841e0f04-b00a-44de-83b7-b9b92c40d93b"},"vehicle_type_id":"4","last_reported":1739211203,"current_range_meters":17600,"station_id":"ce4bhnh2rcd13ifvqgug","pricing_plan_id":"cebpf4jnsgd1na2vs0mg"},{"bike_id":"4740ba17-16bf-4c07-b1cb-0cf663b53a6e","system_id":"levelo_inurba_marseille","lat":43.31122,"lon":5.37766,"is_reserved":false,"is_disabled":false,"rental_uris":{"android":"levelo://app?vid=4740ba17-16bf-4c07-b1cb-0cf663b53a6e","ios":"levelo://app?vid=4740ba17-16bf-4c07-b1cb-0cf663b53a6e"},"vehicle_type_id":"4","last_reported":1739211203,"current_range_meters":39200,"station_id":"ce4bgt92rcd13ifvqcg0","pricing_plan_id":"cebpf4jnsgd1na2vs0mg"},{"bike_id":"88379eaf-5a6d-4117-a07a-21ee5231369a","system_id":"levelo_inurba_marseille","lat":43.31528,"lon":5.38039,"is_reserved":false,"is_disabled":false,"rental_uris":{"android":"levelo://app?vid=88379eaf-5a6d-4117-a07a-21ee5231369a","ios":"levelo://app?vid=88379eaf-5a6d-4117-a07a-21ee5231369a"},"vehicle_type_id":"4","last_reported":1739211203,"current_range_meters":38800,"station_id":"ce4bhsp2rcd13ifvqi50","pricing_plan_id":"cebpf4jnsgd1na2vs0mg"},{"bike_id":"82a368a9-2d3c-4975-9cf3-c8a511531cc6","system_id":"levelo_inurba_marseille","lat":43.29843,"lon":5.36273,"is_reserved":false,"is_disabled":false,"rental_uris":{"android":"levelo://app?vid=82a368a9-2d3c-4975-9cf3-c8a511531cc6","ios":"levelo://app?vid=82a368a9-2d3c-4975-9cf3-c8a511531cc6"},"vehicle_type_id":"4","last_reported":1739211203,"current_range_meters":32800,"station_id":"ce4bgpp2rcd13ifvqc3g","pricing_plan_id":"cebpf4jnsgd1na2vs0mg"},{"bike_id":"7f373262-a4b8-4178-add5-706d4829fc72","system_id":"levelo_inurba_marseille","lat":43.26792,"lon":5.39406,"is_reserved":false,"is_disabled":false,"rental_uris":{"android":"levelo://app?vid=7f373262-a4b8-4178-add5-706d4829fc72","ios":"levelo://app?vid=7f373262-a4b8-4178-add5-706d4829fc72"},"vehicle_type_id":"4","last_reported":1739211203,"current_range_meters":16000,"station_id":"ce4bhh12rcd13ifvqfg0","pricing_plan_id":"cebpf4jnsgd1na2vs0mg"},{"bike_id":"73e31d25-afb3-49ff-b748-3fe454da947d","system_id":"levelo_inurba_marseille","lat":43.28931,"lon":5.36629,"is_reserved":false,"is_disabled":false,"rental_uris":{"android":"levelo://app?vid=73e31d25-afb3-49ff-b748-3fe454da947d","ios":"levelo://app?vid=73e31d25-afb3-49ff-b748-3fe454da947d"},"vehicle_type_id":"4","last_reported":1739211203,"current_range_meters":39200,"station_id":"ce4bhap2rcd13ifvqek0","pricing_plan_id":"cebpf4jnsgd1na2vs0mg"},{"bike_id":"b8cbd248-db62-4d84-b3a4-fd8e7e00f9d3","system_id":"levelo_inurba_marseille","lat":43.2803,"lon":5.36943,"is_reserved":false,"is_disabled":false,"rental_uris":{"android":"levelo://app?vid=b8cbd248-db62-4d84-b3a4-fd8e7e00f9d3","ios":"levelo://app?vid=b8cbd248-db62-4d84-b3a4-fd8e7e00f9d3"},"vehicle_type_id":"4","last_reported":1739211203,"current_range_meters":32800,"station_id":"ce4bha12rcd13ifvqef0","pricing_plan_id":"cebpf4jnsgd1na2vs0mg"},{"bike_id":"1ec14052-2d33-4aa1-9ab8-58cc71db74d1","system_id":"levelo_inurba_marseille","lat":43.2417,"lon":5.36394,"is_reserved":false,"is_disabled":false,"rental_uris":{"android":"levelo://app?vid=1ec14052-2d33-4aa1-9ab8-58cc71db74d1","ios":"levelo://app?vid=1ec14052-2d33-4aa1-9ab8-58cc71db74d1"},"vehicle_type_id":"4","last_reported":1739211203,"current_range_meters":18000,"station_id":"cpo36qri1sfpv3e86is0","pricing_plan_id":"cebpf4jnsgd1na2vs0mg"},{"bike_id":"6e99eac2-ce29-457d-b4dd-f5cd87e6b34c","system_id":"levelo_inurba_marseille","lat":43.28341,"lon":5.38114,"is_reserved":false,"is_disabled":false,"rental_uris":{"android":"levelo://app?vid=6e99eac2-ce29-457d-b4dd-f5cd87e6b34c","ios":"levelo://app?vid=6e99eac2-ce29-457d-b4dd-f5cd87e6b34c"},"vehicle_type_id":"4","last_reported":1739211203,"current_range_meters":39200,"station_id":"ce4bh412rcd13ifvqdr0","pricing_plan_id":"cebpf4jnsgd1na2vs0mg"},{"bike_id":"217b50bb-6dfb-4fdf-b8ec-e129004f7d6e","system_id":"levelo_inurba_marseille","lat":43.26933,"lon":5.38919,"is_reserved":false,"is_disabled":false,"rental_uris":{"android":"levelo://app?vid=217b50bb-6dfb-4fdf-b8ec-e129004f7d6e","ios":"levelo://app?vid=217b50bb-6dfb-4fdf-b8ec-e129004f7d6e"},"vehicle_type_id":"4","last_reported":1739211203,"current_range_meters":32000,"station_id":"ce4bhhh2rcd13ifvqfl0","pricing_plan_id":"cebpf4jnsgd1na2vs0mg"},{"bike_id":"147fdb9f-bbf0-4d68-b92a-ffc10f6fac4a","system_id":"levelo_inurba_marseille","lat":43.26958,"lon":5.38642,"is_reserved":false,"is_disabled":false,"rental_uris":{"android":"levelo://app?vid=147fdb9f-bbf0-4d68-b92a-ffc10f6fac4a","ios":"levelo://app?vid=147fdb9f-bbf0-4d68-b92a-ffc10f6fac4a"},"vehicle_type_id":"4","last_reported":1739211203,"current_range_meters":18000,"station_id":"ce4bhh92rcd13ifvqfh0","pricing_plan_id":"cebpf4jnsgd1na2vs0mg"},{"bike_id":"1fc2e01a-39db-473e-9340-05e46c2bfee3","system_id":"levelo_inurba_marseille","lat":43.28582,"lon":5.39493,"is_reserved":false,"is_disabled":false,"rental_uris":{"android":"levelo://app?vid=1fc2e01a-39db-473e-9340-05e46c2bfee3","ios":"levelo://app?vid=1fc2e01a-39db-473e-9340-05e46c2bfee3"},"vehicle_type_id":"4","last_reported":1739211203,"current_range_meters":39200,"station_id":"ce4bh292rcd13ifvqdg0","pricing_plan_id":"cebpf4jnsgd1na2vs0mg"},{"bike_id":"cbdfe6ce-8115-496a-afed-0b5742f1d148","system_id":"levelo_inurba_marseille","lat":43.29443,"lon":5.39756,"is_reserved":false,"is_disabled":false,"rental_uris":{"android":"levelo://app?vid=cbdfe6ce-8115-496a-afed-0b5742f1d148","ios":"levelo://app?vid=cbdfe6ce-8115-496a-afed-0b5742f1d148"},"vehicle_type_id":"4","last_reported":1739211203,"current_range_meters":6400,"station_id":"ce4bh3h2rcd13ifvqdo0","pricing_plan_id":"cebpf4jnsgd1na2vs0mg"},{"bike_id":"fbb98623-bd6f-4427-9463-8f7fc3b3bd20","system_id":"levelo_inurba_marseille","lat":43.28039,"lon":5.36938,"is_reserved":false,"is_disabled":false,"rental_uris":{"android":"levelo://app?vid=fbb98623-bd6f-4427-9463-8f7fc3b3bd20","ios":"levelo://app?vid=fbb98623-bd6f-4427-9463-8f7fc3b3bd20"},"vehicle_type_id":"4","last_reported":1739211203,"current_range_meters":32000,"station_id":"ce4bha12rcd13ifvqef0","pricing_plan_id":"cebpf4jnsgd1na2vs0mg"},{"bike_id":"b75a39f8-7a1e-4aa2-8ccd-7bf84e18ca73","system_id":"levelo_inurba_marseille","lat":43.30304,"lon":5.39215,"is_reserved":false,"is_disabled":false,"rental_uris":{"android":"levelo://app?vid=b75a39f8-7a1e-4aa2-8ccd-7bf84e18ca73","ios":"levelo://app?vid=b75a39f8-7a1e-4aa2-8ccd-7bf84e18ca73"},"vehicle_type_id":"4","last_reported":1739211203,"current_range_meters":33200,"station_id":"ce4bgkh2rcd13ifvqbk0","pricing_plan_id":"cebpf4jnsgd1na2vs0mg"},{"bike_id":"c96f92a7-f6aa-4b72-bfcc-b3fd0520d382","system_id":"levelo_inurba_marseille","lat":43.26195,"lon":5.37441,"is_reserved":false,"is_disabled":false,"rental_uris":{"android":"levelo://app?vid=c96f92a7-f6aa-4b72-bfcc-b3fd0520d382","ios":"levelo://app?vid=c96f92a7-f6aa-4b72-bfcc-b3fd0520d382"},"vehicle_type_id":"4","last_reported":1739211203,"current_range_meters":38800,"station_id":"ce4bhgp2rcd13ifvqfc0","pricing_plan_id":"cebpf4jnsgd1na2vs0mg"},{"bike_id":"53dedc30-10cb-4cf6-aa3e-119646708c08","system_id":"levelo_inurba_marseille","lat":43.26035,"lon":5.37554,"is_reserved":false,"is_disabled":false,"rental_uris":{"android":"levelo://app?vid=53dedc30-10cb-4cf6-aa3e-119646708c08","ios":"levelo://app?vid=53dedc30-10cb-4cf6-aa3e-119646708c08"},"vehicle_type_id":"4","last_reported":1739211203,"current_range_meters":38800,"station_id":"ce4bhgh2rcd13ifvqfa0","pricing_plan_id":"cebpf4jnsgd1na2vs0mg"},{"bike_id":"5d5b9d52-4005-4b8d-8e03-12940e9796d0","system_id":"levelo_inurba_marseille","lat":43.24083,"lon":5.37753,"is_reserved":false,"is_disabled":true,"rental_uris":{"android":"levelo://app?vid=5d5b9d52-4005-4b8d-8e03-12940e9796d0","ios":"levelo://app?vid=5d5b9d52-4005-4b8d-8e03-12940e9796d0"},"vehicle_type_id":"4","last_reported":1739211203,"current_range_meters":10000,"station_id":"ce4bhnp2rcd13ifvqgvg","pricing_plan_id":"cebpf4jnsgd1na2vs0mg"},{"bike_id":"e74edd37-0ec7-4f56-b77f-e7249fd01314","system_id":"levelo_inurba_marseille","lat":43.30541,"lon":5.3654,"is_reserved":false,"is_disabled":true,"rental_uris":{"android":"levelo://app?vid=e74edd37-0ec7-4f56-b77f-e7249fd01314","ios":"levelo://app?vid=e74edd37-0ec7-4f56-b77f-e7249fd01314"},"vehicle_type_id":"4","last_reported":1739211203,"current_range_meters":18000,"station_id":"ce4bgs12rcd13ifvqcag","pricing_plan_id":"cebpf4jnsgd1na2vs0mg"},{"bike_id":"d65a14c4-ecf3-4048-b05f-9a757ce2f182","system_id":"levelo_inurba_marseille","lat":43.246699,"lon":5.381701,"is_reserved":false,"is_disabled":false,"rental_uris":{"android":"levelo://app?vid=d65a14c4-ecf3-4048-b05f-9a757ce2f182","ios":"levelo://app?vid=d65a14c4-ecf3-4048-b05f-9a757ce2f182"},"vehicle_type_id":"4","last_reported":1739211203,"current_range_meters":38800,"station_id":"ce4bhih2rcd13ifvqfr0","pricing_plan_id":"cebpf4jnsgd1na2vs0mg"},{"bike_id":"ca63d75f-d551-49cb-bec7-e060cadddd73","system_id":"levelo_inurba_marseille","lat":43.28092,"lon":5.44186,"is_reserved":false,"is_disabled":false,"rental_uris":{"android":"levelo://app?vid=ca63d75f-d551-49cb-bec7-e060cadddd73","ios":"levelo://app?vid=ca63d75f-d551-49cb-bec7-e060cadddd73"},"vehicle_type_id":"4","last_reported":1739211203,"current_range_meters":17600,"station_id":"","pricing_plan_id":"cebpf4jnsgd1na2vs0mg"},{"bike_id":"cc4b841e-39e1-4ccd-8cd9-e1cd20a21238","system_id":"levelo_inurba_marseille","lat":43.26564,"lon":5.39002,"is_reserved":false,"is_disabled":false,"rental_uris":{"android":"levelo://app?vid=cc4b841e-39e1-4ccd-8cd9-e1cd20a21238","ios":"levelo://app?vid=cc4b841e-39e1-4ccd-8cd9-e1cd20a21238"},"vehicle_type_id":"4","last_reported":1739211203,"current_range_meters":37600,"station_id":"ce4bhe12rcd13ifvqf30","pricing_plan_id":"cebpf4jnsgd1na2vs0mg"},{"bike_id":"11017eca-f9ec-4c55-9626-3a45d68bb196","system_id":"levelo_inurba_marseille","lat":43.28004,"lon":5.4001,"is_reserved":false,"is_disabled":false,"rental_uris":{"android":"levelo://app?vid=11017eca-f9ec-4c55-9626-3a45d68bb196","ios":"levelo://app?vid=11017eca-f9ec-4c55-9626-3a45d68bb196"},"vehicle_type_id":"4","last_reported":1739211203,"current_range_meters":28000,"station_id":"ce4bho92rcd13ifvqh4g","pricing_plan_id":"cebpf4jnsgd1na2vs0mg"},{"bike_id":"79d0b172-0217-44e3-bae8-123b0260e5bd","system_id":"levelo_inurba_marseille","lat":43.27566,"lon":5.38418,"is_reserved":false,"is_disabled":false,"rental_uris":{"android":"levelo://app?vid=79d0b172-0217-44e3-bae8-123b0260e5bd","ios":"levelo://app?vid=79d0b172-0217-44e3-bae8-123b0260e5bd"},"vehicle_type_id":"4","last_reported":1739211203,"current_range_meters":38400,"station_id":"ce4bhh92rcd13ifvqfi0","pricing_plan_id":"cebpf4jnsgd1na2vs0mg"},{"bike_id":"e5491c41-467c-40d9-b58c-33959b38346b","system_id":"levelo_inurba_marseille","lat":43.28729,"lon":5.36085,"is_reserved":false,"is_disabled":false,"rental_uris":{"android":"levelo://app?vid=e5491c41-467c-40d9-b58c-33959b38346b","ios":"levelo://app?vid=e5491c41-467c-40d9-b58c-33959b38346b"},"vehicle_type_id":"4","last_reported":1739211203,"current_range_meters":16000,"station_id":"cki0cbj6b192h4jlfktg","pricing_plan_id":"cebpf4jnsgd1na2vs0mg"},{"bike_id":"e1918a80-e061-48ff-a7f0-f6cb259b93c9","system_id":"levelo_inurba_marseille","lat":43.29529,"lon":5.39028,"is_reserved":false,"is_disabled":false,"rental_uris":{"android":"levelo://app?vid=e1918a80-e061-48ff-a7f0-f6cb259b93c9","ios":"levelo://app?vid=e1918a80-e061-48ff-a7f0-f6cb259b93c9"},"vehicle_type_id":"4","last_reported":1739211203,"current_range_meters":28400,"station_id":"ce4bh3p2rcd13ifvqdp0","pricing_plan_id":"cebpf4jnsgd1na2vs0mg"},{"bike_id":"1969c5f1-d408-4258-a461-1fa1a74aa8a1","system_id":"levelo_inurba_marseille","lat":43.25114,"lon":5.40324,"is_reserved":false,"is_disabled":false,"rental_uris":{"android":"levelo://app?vid=1969c5f1-d408-4258-a461-1fa1a74aa8a1","ios":"levelo://app?vid=1969c5f1-d408-4258-a461-1fa1a74aa8a1"},"vehicle_type_id":"4","last_reported":1739211203,"current_range_meters":19200,"station_id":"ce4bhlh2rcd13ifvqgig","pricing_plan_id":"cebpf4jnsgd1na2vs0mg"},{"bike_id":"f2a19d6d-1c3c-4ae5-a155-e51d34c1aabd","system_id":"levelo_inurba_marseille","lat":43.28582,"lon":5.39502,"is_reserved":false,"is_disabled":false,"rental_uris":{"android":"levelo://app?vid=f2a19d6d-1c3c-4ae5-a155-e51d34c1aabd","ios":"levelo://app?vid=f2a19d6d-1c3c-4ae5-a155-e51d34c1aabd"},"vehicle_type_id":"4","last_reported":1739211203,"current_range_meters":32800,"station_id":"ce4bh292rcd13ifvqdg0","pricing_plan_id":"cebpf4jnsgd1na2vs0mg"},{"bike_id":"118acaa8-c377-4759-a8f9-c3303973ef34","system_id":"levelo_inurba_marseille","lat":43.29882,"lon":5.3891,"is_reserved":false,"is_disabled":false,"rental_uris":{"android":"levelo://app?vid=118acaa8-c377-4759-a8f9-c3303973ef34","ios":"levelo://app?vid=118acaa8-c377-4759-a8f9-c3303973ef34"},"vehicle_type_id":"4","last_reported":1739211203,"current_range_meters":28000,"station_id":"ce4bh392rcd13ifvqdl0","pricing_plan_id":"cebpf4jnsgd1na2vs0mg"},{"bike_id":"4e913ade-0549-49b5-837a-c96bb285d8aa","system_id":"levelo_inurba_marseille","lat":43.28362,"lon":5.38098,"is_reserved":false,"is_disabled":false,"rental_uris":{"android":"levelo://app?vid=4e913ade-0549-49b5-837a-c96bb285d8aa","ios":"levelo://app?vid=4e913ade-0549-49b5-837a-c96bb285d8aa"},"vehicle_type_id":"4","last_reported":1739211203,"current_range_meters":7200,"station_id":"ce4bh412rcd13ifvqdr0","pricing_plan_id":"cebpf4jnsgd1na2vs0mg"},{"bike_id":"90a5a9a9-9ea7-4619-b9b7-10691f0ea3c3","system_id":"levelo_inurba_marseille","lat":43.29379,"lon":5.37858,"is_reserved":false,"is_disabled":false,"rental_uris":{"android":"levelo://app?vid=90a5a9a9-9ea7-4619-b9b7-10691f0ea3c3","ios":"levelo://app?vid=90a5a9a9-9ea7-4619-b9b7-10691f0ea3c3"},"vehicle_type_id":"4","last_reported":1739211203,"current_range_meters":38800,"station_id":"ce4bgjh2rcd13ifvqbf0","pricing_plan_id":"cebpf4jnsgd1na2vs0mg"},{"bike_id":"4c48d573-1f44-4f27-a583-59899319a308","system_id":"levelo_inurba_marseille","lat":43.2868,"lon":5.37405,"is_reserved":false,"is_disabled":false,"rental_uris":{"android":"levelo://app?vid=4c48d573-1f44-4f27-a583-59899319a308","ios":"levelo://app?vid=4c48d573-1f44-4f27-a583-59899319a308"},"vehicle_type_id":"4","last_reported":1739211203,"current_range_meters":29600,"station_id":"ce4bh3p2rcd13ifvqdq0","pricing_plan_id":"cebpf4jnsgd1na2vs0mg"},{"bike_id":"c3276e7a-34bb-483a-a12b-a2c5385c98cb","system_id":"levelo_inurba_marseille","lat":43.30126,"lon":5.39876,"is_reserved":false,"is_disabled":false,"rental_uris":{"android":"levelo://app?vid=c3276e7a-34bb-483a-a12b-a2c5385c98cb","ios":"levelo://app?vid=c3276e7a-34bb-483a-a12b-a2c5385c98cb"},"vehicle_type_id":"4","last_reported":1739211203,"current_range_meters":36800,"station_id":"ce4bh0h2rcd13ifvqd40","pricing_plan_id":"cebpf4jnsgd1na2vs0mg"},{"bike_id":"50fdafd8-0e01-4c26-88cd-374400d9e0c2","system_id":"levelo_inurba_marseille","lat":43.29009,"lon":5.35614,"is_reserved":false,"is_disabled":false,"rental_uris":{"android":"levelo://app?vid=50fdafd8-0e01-4c26-88cd-374400d9e0c2","ios":"levelo://app?vid=50fdafd8-0e01-4c26-88cd-374400d9e0c2"},"vehicle_type_id":"4","last_reported":1739211203,"current_range_meters":13600,"station_id":"ce4bhb92rcd13ifvqen0","pricing_plan_id":"cebpf4jnsgd1na2vs0mg"},{"bike_id":"54ce597b-1ca1-4d62-923d-d4b29eec04b3","system_id":"levelo_inurba_marseille","lat":43.31131,"lon":5.38261,"is_reserved":false,"is_disabled":false,"rental_uris":{"android":"levelo://app?vid=54ce597b-1ca1-4d62-923d-d4b29eec04b3","ios":"levelo://app?vid=54ce597b-1ca1-4d62-923d-d4b29eec04b3"},"vehicle_type_id":"4","last_reported":1739211203,"current_range_meters":24800,"station_id":"","pricing_plan_id":"cebpf4jnsgd1na2vs0mg"},{"bike_id":"b4765ae2-b7fb-4718-bf68-ce7ba2c817f9","system_id":"levelo_inurba_marseille","lat":43.27068,"lon":5.42285,"is_reserved":false,"is_disabled":false,"rental_uris":{"android":"levelo://app?vid=b4765ae2-b7fb-4718-bf68-ce7ba2c817f9","ios":"levelo://app?vid=b4765ae2-b7fb-4718-bf68-ce7ba2c817f9"},"vehicle_type_id":"4","last_reported":1739211203,"current_range_meters":27600,"station_id":"ce4bhk92rcd13ifvqgb0","pricing_plan_id":"cebpf4jnsgd1na2vs0mg"},{"bike_id":"a208325e-37e5-4c4e-8da6-ada4810a13ed","system_id":"levelo_inurba_marseille","lat":43.26058,"lon":5.39382,"is_reserved":false,"is_disabled":false,"rental_uris":{"android":"levelo://app?vid=a208325e-37e5-4c4e-8da6-ada4810a13ed","ios":"levelo://app?vid=a208325e-37e5-4c4e-8da6-ada4810a13ed"},"vehicle_type_id":"4","last_reported":1739211203,"current_range_meters":39200,"station_id":"ce4bhh92rcd13ifvqfj0","pricing_plan_id":"cebpf4jnsgd1na2vs0mg"},{"bike_id":"a2edcc76-2265-4bc6-8f2e-29b460d743ff","system_id":"levelo_inurba_marseille","lat":43.25597,"lon":5.3822,"is_reserved":false,"is_disabled":false,"rental_uris":{"android":"levelo://app?vid=a2edcc76-2265-4bc6-8f2e-29b460d743ff","ios":"levelo://app?vid=a2edcc76-2265-4bc6-8f2e-29b460d743ff"},"vehicle_type_id":"4","last_reported":1739211203,"current_range_meters":24800,"station_id":"ce4bhih2rcd13ifvqfs0","pricing_plan_id":"cebpf4jnsgd1na2vs0mg"},{"bike_id":"7faccd19-6ae2-4866-8c91-895df7907f50","system_id":"levelo_inurba_marseille","lat":43.29842,"lon":5.36269,"is_reserved":false,"is_disabled":false,"rental_uris":{"android":"levelo://app?vid=7faccd19-6ae2-4866-8c91-895df7907f50","ios":"levelo://app?vid=7faccd19-6ae2-4866-8c91-895df7907f50"},"vehicle_type_id":"4","last_reported":1739211203,"current_range_meters":23200,"station_id":"ce4bgpp2rcd13ifvqc3g","pricing_plan_id":"cebpf4jnsgd1na2vs0mg"},{"bike_id":"9134c7ed-0811-4530-914d-beda2004c168","system_id":"levelo_inurba_marseille","lat":43.29421,"lon":5.38624,"is_reserved":false,"is_disabled":false,"rental_uris":{"android":"levelo://app?vid=9134c7ed-0811-4530-914d-beda2004c168","ios":"levelo://app?vid=9134c7ed-0811-4530-914d-beda2004c168"},"vehicle_type_id":"4","last_reported":1739211203,"current_range_meters":11200,"station_id":"ce4bh2h2rcd13ifvqdh0","pricing_plan_id":"cebpf4jnsgd1na2vs0mg"},{"bike_id":"c8491384-f52d-4c3d-b2f4-45fe0c615375","system_id":"levelo_inurba_marseille","lat":43.2827,"lon":5.3509,"is_reserved":false,"is_disabled":false,"rental_uris":{"android":"levelo://app?vid=c8491384-f52d-4c3d-b2f4-45fe0c615375","ios":"levelo://app?vid=c8491384-f52d-4c3d-b2f4-45fe0c615375"},"vehicle_type_id":"4","last_reported":1739211203,"current_range_meters":32800,"station_id":"ce4bhbp2rcd13ifvqerg","pricing_plan_id":"cebpf4jnsgd1na2vs0mg"},{"bike_id":"aaf034b3-5bbe-4060-a0e5-a6ba3f8f5e93","system_id":"levelo_inurba_marseille","lat":43.2862,"lon":5.351,"is_reserved":false,"is_disabled":false,"rental_uris":{"android":"levelo://app?vid=aaf034b3-5bbe-4060-a0e5-a6ba3f8f5e93","ios":"levelo://app?vid=aaf034b3-5bbe-4060-a0e5-a6ba3f8f5e93"},"vehicle_type_id":"4","last_reported":1739211203,"current_range_meters":28400,"station_id":"ce4bhch2rcd13ifvqeug","pricing_plan_id":"cebpf4jnsgd1na2vs0mg"},{"bike_id":"a59bcb7e-b2e3-4ee5-b218-1c28e53b3039","system_id":"levelo_inurba_marseille","lat":43.27327,"lon":5.39082,"is_reserved":false,"is_disabled":true,"rental_uris":{"android":"levelo://app?vid=a59bcb7e-b2e3-4ee5-b218-1c28e53b3039","ios":"levelo://app?vid=a59bcb7e-b2e3-4ee5-b218-1c28e53b3039"},"vehicle_type_id":"4","last_reported":1739211203,"current_range_meters":6400,"station_id":"ce4bhgp2rcd13ifvqfe0","pricing_plan_id":"cebpf4jnsgd1na2vs0mg"},{"bike_id":"87e3c53d-7aca-4612-9ca0-025114b3ed98","system_id":"levelo_inurba_marseille","lat":43.29796,"lon":5.38095,"is_reserved":false,"is_disabled":false,"rental_uris":{"android":"levelo://app?vid=87e3c53d-7aca-4612-9ca0-025114b3ed98","ios":"levelo://app?vid=87e3c53d-7aca-4612-9ca0-025114b3ed98"},"vehicle_type_id":"4","last_reported":1739211203,"current_range_meters":36000,"station_id":"ce4bgip2rcd13ifvqbb0","pricing_plan_id":"cebpf4jnsgd1na2vs0mg"},{"bike_id":"eeb2aa54-85af-4272-b09e-e6e38aa50c61","system_id":"levelo_inurba_marseille","lat":43.25122,"lon":5.40314,"is_reserved":false,"is_disabled":false,"rental_uris":{"android":"levelo://app?vid=eeb2aa54-85af-4272-b09e-e6e38aa50c61","ios":"levelo://app?vid=eeb2aa54-85af-4272-b09e-e6e38aa50c61"},"vehicle_type_id":"4","last_reported":1739211203,"current_range_meters":38000,"station_id":"ce4bhlh2rcd13ifvqgig","pricing_plan_id":"cebpf4jnsgd1na2vs0mg"},{"bike_id":"ec849b97-32e8-4538-a3ea-2e1cfc5ef6fe","system_id":"levelo_inurba_marseille","lat":43.28609,"lon":5.37068,"is_reserved":false,"is_disabled":false,"rental_uris":{"android":"levelo://app?vid=ec849b97-32e8-4538-a3ea-2e1cfc5ef6fe","ios":"levelo://app?vid=ec849b97-32e8-4538-a3ea-2e1cfc5ef6fe"},"vehicle_type_id":"4","last_reported":1739211203,"current_range_meters":39200,"station_id":"ce4bht12rcd13ifvqi60","pricing_plan_id":"cebpf4jnsgd1na2vs0mg"},{"bike_id":"0d06f8ed-583f-4925-acc0-af879bb23622","system_id":"levelo_inurba_marseille","lat":43.27775,"lon":5.39863,"is_reserved":false,"is_disabled":true,"rental_uris":{"android":"levelo://app?vid=0d06f8ed-583f-4925-acc0-af879bb23622","ios":"levelo://app?vid=0d06f8ed-583f-4925-acc0-af879bb23622"},"vehicle_type_id":"4","last_reported":1739211203,"current_range_meters":0,"station_id":"","pricing_plan_id":"cebpf4jnsgd1na2vs0mg"},{"bike_id":"caf90ade-e411-4f1c-81ae-71066d58ea40","system_id":"levelo_inurba_marseille","lat":43.28923,"lon":5.38402,"is_reserved":false,"is_disabled":false,"rental_uris":{"android":"levelo://app?vid=caf90ade-e411-4f1c-81ae-71066d58ea40","ios":"levelo://app?vid=caf90ade-e411-4f1c-81ae-71066d58ea40"},"vehicle_type_id":"4","last_reported":1739211203,"current_range_meters":23200,"station_id":"ce4bh612rcd13ifvqe6g","pricing_plan_id":"cebpf4jnsgd1na2vs0mg"},{"bike_id":"8f87421f-e761-4491-8316-d67ef99c10b1","system_id":"levelo_inurba_marseille","lat":43.29853,"lon":5.36289,"is_reserved":false,"is_disabled":false,"rental_uris":{"android":"levelo://app?vid=8f87421f-e761-4491-8316-d67ef99c10b1","ios":"levelo://app?vid=8f87421f-e761-4491-8316-d67ef99c10b1"},"vehicle_type_id":"4","last_reported":1739211203,"current_range_meters":24000,"station_id":"ce4bgpp2rcd13ifvqc3g","pricing_plan_id":"cebpf4jnsgd1na2vs0mg"},{"bike_id":"d606c525-7dbc-4209-ad64-fc43807a857e","system_id":"levelo_inurba_marseille","lat":43.27992,"lon":5.40005,"is_reserved":false,"is_disabled":false,"rental_uris":{"android":"levelo://app?vid=d606c525-7dbc-4209-ad64-fc43807a857e","ios":"levelo://app?vid=d606c525-7dbc-4209-ad64-fc43807a857e"},"vehicle_type_id":"4","last_reported":1739211203,"current_range_meters":34800,"station_id":"ce4bho92rcd13ifvqh4g","pricing_plan_id":"cebpf4jnsgd1na2vs0mg"},{"bike_id":"15d8c906-1286-4b4c-9ca3-d38c21e42dbe","system_id":"levelo_inurba_marseille","lat":43.2795,"lon":5.3871,"is_reserved":false,"is_disabled":false,"rental_uris":{"android":"levelo://app?vid=15d8c906-1286-4b4c-9ca3-d38c21e42dbe","ios":"levelo://app?vid=15d8c906-1286-4b4c-9ca3-d38c21e42dbe"},"vehicle_type_id":"4","last_reported":1739211203,"current_range_meters":14800,"station_id":"ce4bhg12rcd13ifvqf80","pricing_plan_id":"cebpf4jnsgd1na2vs0mg"},{"bike_id":"ed072242-9ece-44df-80f9-34b35301c035","system_id":"levelo_inurba_marseille","lat":43.28356,"lon":5.38091,"is_reserved":false,"is_disabled":false,"rental_uris":{"android":"levelo://app?vid=ed072242-9ece-44df-80f9-34b35301c035","ios":"levelo://app?vid=ed072242-9ece-44df-80f9-34b35301c035"},"vehicle_type_id":"4","last_reported":1739211203,"current_range_meters":38000,"station_id":"ce4bh412rcd13ifvqdr0","pricing_plan_id":"cebpf4jnsgd1na2vs0mg"},{"bike_id":"aa73f3e1-5d29-48cf-86fc-acab720e3734","system_id":"levelo_inurba_marseille","lat":43.23957,"lon":5.36643,"is_reserved":false,"is_disabled":false,"rental_uris":{"android":"levelo://app?vid=aa73f3e1-5d29-48cf-86fc-acab720e3734","ios":"levelo://app?vid=aa73f3e1-5d29-48cf-86fc-acab720e3734"},"vehicle_type_id":"4","last_reported":1739211203,"current_range_meters":16000,"station_id":"ce4bhi12rcd13ifvqfp0","pricing_plan_id":"cebpf4jnsgd1na2vs0mg"},{"bike_id":"277fab29-c1dc-4fca-bdc0-afb633753197","system_id":"levelo_inurba_marseille","lat":43.24388,"lon":5.37054,"is_reserved":false,"is_disabled":false,"rental_uris":{"android":"levelo://app?vid=277fab29-c1dc-4fca-bdc0-afb633753197","ios":"levelo://app?vid=277fab29-c1dc-4fca-bdc0-afb633753197"},"vehicle_type_id":"4","last_reported":1739211203,"current_range_meters":38800,"station_id":"ce4bhhh2rcd13ifvqfk0","pricing_plan_id":"cebpf4jnsgd1na2vs0mg"},{"bike_id":"579dbba2-c63a-4485-a596-be4c5fef0f41","system_id":"levelo_inurba_marseille","lat":43.32052,"lon":5.41525,"is_reserved":false,"is_disabled":false,"rental_uris":{"android":"levelo://app?vid=579dbba2-c63a-4485-a596-be4c5fef0f41","ios":"levelo://app?vid=579dbba2-c63a-4485-a596-be4c5fef0f41"},"vehicle_type_id":"4","last_reported":1739211203,"current_range_meters":35200,"station_id":"ce4bhq92rcd13ifvqhkg","pricing_plan_id":"cebpf4jnsgd1na2vs0mg"},{"bike_id":"68f2e2f5-6877-4dcc-b245-592907d28096","system_id":"levelo_inurba_marseille","lat":43.27567,"lon":5.38405,"is_reserved":false,"is_disabled":false,"rental_uris":{"android":"levelo://app?vid=68f2e2f5-6877-4dcc-b245-592907d28096","ios":"levelo://app?vid=68f2e2f5-6877-4dcc-b245-592907d28096"},"vehicle_type_id":"4","last_reported":1739211203,"current_range_meters":39200,"station_id":"ce4bhh92rcd13ifvqfi0","pricing_plan_id":"cebpf4jnsgd1na2vs0mg"},{"bike_id":"8235e40a-7324-466d-8490-52082549a68b","system_id":"levelo_inurba_marseille","lat":43.28718,"lon":5.3795,"is_reserved":false,"is_disabled":true,"rental_uris":{"android":"levelo://app?vid=8235e40a-7324-466d-8490-52082549a68b","ios":"levelo://app?vid=8235e40a-7324-466d-8490-52082549a68b"},"vehicle_type_id":"4","last_reported":1739211203,"current_range_meters":27200,"station_id":"ce4bh9p2rcd13ifvqec0","pricing_plan_id":"cebpf4jnsgd1na2vs0mg"},{"bike_id":"c950ea40-9af8-455a-88b8-64cd1c8d982d","system_id":"levelo_inurba_marseille","lat":43.28144,"lon":5.42647,"is_reserved":false,"is_disabled":false,"rental_uris":{"android":"levelo://app?vid=c950ea40-9af8-455a-88b8-64cd1c8d982d","ios":"levelo://app?vid=c950ea40-9af8-455a-88b8-64cd1c8d982d"},"vehicle_type_id":"4","last_reported":1739211203,"current_range_meters":30400,"station_id":"ce4bhnh2rcd13ifvqgug","pricing_plan_id":"cebpf4jnsgd1na2vs0mg"},{"bike_id":"d157203c-3a5b-4bbc-9638-6eefce740d5e","system_id":"levelo_inurba_marseille","lat":43.23192,"lon":5.35564,"is_reserved":false,"is_disabled":false,"rental_uris":{"android":"levelo://app?vid=d157203c-3a5b-4bbc-9638-6eefce740d5e","ios":"levelo://app?vid=d157203c-3a5b-4bbc-9638-6eefce740d5e"},"vehicle_type_id":"4","last_reported":1739211203,"current_range_meters":38800,"station_id":"ce4bhu92rcd13ifvqi70","pricing_plan_id":"cebpf4jnsgd1na2vs0mg"},