{"last_updated":1684177507,"ttl":30,"version":"2.2","data":{"bikes":[{"bike_id":"88ce2597-1ee1-4bdd-8109-d26a472c8e42","system_id":"levelo_inurba_marseille","lat":43.314811,"lon":5.373103,"is_reserved":false,"is_disabled":false,"rental_uris":{"android":"levelo://app?vid=88ce2597-1ee1-4bdd-8109-d26a472c8e42","ios":"levelo://app?vid=88ce2597-1ee1-4bdd-8109-d26a472c8e42"},"vehicle_type_id":"4","last_reported":1684177507,"current_range_meters":1600,"station_id":"ce4bgt12rcd13ifvqcd0","pricing_plan_id":"free"},{"bike_id":"2f11cd2c-4d01-4456-b483-9c5ecce10f33","system_id":"levelo_inurba_marseille","lat":43.30894,"lon":5.37208,"is_reserved":false,"is_disabled":false,"rental_uris":{"android":"levelo://app?vid=2f11cd2c-4d01-4456-b483-9c5ecce10f33","ios":"levelo://app?vid=2f11cd2c-4d01-4456-b483-9c5ecce10f33"},"vehicle_type_id":"4","last_reported":1684177507,"current_range_meters":0,"station_id":"","pricing_plan_id":"free"},{"bike_id":"f560fd9d-9152-48da-b6b7-132a7a4e1e57","system_id":"levelo_inurba_marseille","lat":43.30588,"lon":5.36563,"is_reserved":false,"is_disabled":false,"rental_uris":{"android":"levelo://app?vid=f560fd9d-9152-48da-b6b7-132a7a4e1e57","ios":"levelo://app?vid=f560fd9d-9152-48da-b6b7-132a7a4e1e57"},"vehicle_type_id":"4","last_reported":1684177507,"current_range_meters":6400,"station_id":"","pricing_plan_id":"free"},{"bike_id":"b83cfe34-bfb4-4136-856c-3be5c8f21d24","system_id":"levelo_inurba_marseille","lat":43.305368,"lon":5.367343,"is_reserved":false,"is_disabled":false,"rental_uris":{"android":"levelo://app?vid=b83cfe34-bfb4-4136-856c-3be5c8f21d24","ios":"levelo://app?vid=b83cfe34-bfb4-4136-856c-3be5c8f21d24"},"vehicle_type_id":"4","last_reported":1684177507,"current_range_meters":6400,"station_id":"ce4bgrp2rcd13ifvqc9g","pricing_plan_id":"free"},{"bike_id":"4eec7eb7-3467-467d-8a1f-08d7ddb1a5d5","system_id":"levelo_inurba_marseille","lat":43.305368,"lon":5.367343,"is_reserved":false,"is_disabled":false,"rental_uris":{"android":"levelo://app?vid=4eec7eb7-3467-467d-8a1f-08d7ddb1a5d5","ios":"levelo://app?vid=4eec7eb7-3467-467d-8a1f-08d7ddb1a5d5"},"vehicle_type_id":"4","last_reported":1684177507,"current_range_meters":1600,"station_id":"ce4bgrp2rcd13ifvqc9g","pricing_plan_id":"free"},{"bike_id":"ab3dbd1b-1c39-4045-87d4-02d822b9ee7f","system_id":"levelo_inurba_marseille","lat":43.31116,"lon":5.37763,"is_reserved":false,"is_disabled":false,"rental_uris":{"android":"levelo://app?vid=ab3dbd1b-1c39-4045-87d4-02d822b9ee7f","ios":"levelo://app?vid=ab3dbd1b-1c39-4045-87d4-02d822b9ee7f"},"vehicle_type_id":"4","last_reported":1684177507,"current_range_meters":14000,"station_id":"ce4bgt92rcd13ifvqcg0","pricing_plan_id":"free"},{"bike_id":"7f400d3f-adb8-45a3-99e5-4253315e7c58","system_id":"levelo_inurba_marseille","lat":43.31527,"lon":5.38026,"is_reserved":false,"is_disabled":false,"rental_uris":{"android":"levelo://app?vid=7f400d3f-adb8-45a3-99e5-4253315e7c58","ios":"levelo://app?vid=7f400d3f-adb8-45a3-99e5-4253315e7c58"},"vehicle_type_id":"4","last_reported":1684177507,"current_range_meters":25200,"station_id":"ce4bhsp2rcd13ifvqi50","pricing_plan_id":"free"},{"bike_id":"7fe0f161-39e0-4dfb-84cd-2ce3032115c5","system_id":"levelo_inurba_marseille","lat":43.31534,"lon":5.38029,"is_reserved":false,"is_disabled":false,"rental_uris":{"android":"levelo://app?vid=7fe0f161-39e0-4dfb-84cd-2ce3032115c5","ios":"levelo://app?vid=7fe0f161-39e0-4dfb-84cd-2ce3032115c5"},"vehicle_type_id":"4","last_reported":1684177507,"current_range_meters":24000,"station_id":"ce4bhsp2rcd13ifvqi50","pricing_plan_id":"free"},{"bike_id":"0efda71b-021c-45f3-b45c-29799de9652a","system_id":"levelo_inurba_marseille","lat":43.308012,"lon":5.381511,"is_reserved":false,"is_disabled":false,"rental_uris":{"android":"levelo://app?vid=0efda71b-021c-45f3-b45c-29799de9652a","ios":"levelo://app?vid=0efda71b-021c-45f3-b45c-29799de9652a"},"vehicle_type_id":"4","last_reported":1684177507,"current_range_meters":0,"station_id":"ce4bgt12rcd13ifvqce0","pricing_plan_id":"free"},{"bike_id":"5f3e617a-26b3-4a60-b24f-527e432da336","system_id":"levelo_inurba_marseille","lat":43.308012,"lon":5.381511,"is_reserved":false,"is_disabled":false,"rental_uris":{"android":"levelo://app?vid=5f3e617a-26b3-4a60-b24f-527e432da336","ios":"levelo://app?vid=5f3e617a-26b3-4a60-b24f-527e432da336"},"vehicle_type_id":"4","last_reported":1684177507,"current_range_meters":25600,"station_id":"ce4bgt12rcd13ifvqce0","pricing_plan_id":"free"},{"bike_id":"d4ddbd63-b3e1-4ad5-b81b-5c8c3c7b0ee1","system_id":"levelo_inurba_marseille","lat":43.308012,"lon":5.381511,"is_reserved":false,"is_disabled":false,"rental_uris":{"android":"levelo://app?vid=d4ddbd63-b3e1-4ad5-b81b-5c8c3c7b0ee1","ios":"levelo://app?vid=d4ddbd63-b3e1-4ad5-b81b-5c8c3c7b0ee1"},"vehicle_type_id":"4","last_reported":1684177507,"current_range_meters":11200,"station_id":"ce4bgt12rcd13ifvqce0","pricing_plan_id":"free"},{"bike_id":"6e1e7581-e14e-4d5a-90a8-767e725815d0","system_id":"levelo_inurba_marseille","lat":43.304606,"lon":5.379026,"is_reserved":false,"is_disabled":false,"rental_uris":{"android":"levelo://app?vid=6e1e7581-e14e-4d5a-90a8-767e725815d0","ios":"levelo://app?vid=6e1e7581-e14e-4d5a-90a8-767e725815d0"},"vehicle_type_id":"4","last_reported":1684177507,"current_range_meters":0,"station_id":"ce4bgup2rcd13ifvqcn0","pricing_plan_id":"free"},{"bike_id":"c39e1cff-512e-4af6-bcc6-aaed17dbf89a","system_id":"levelo_inurba_marseille","lat":43.304606,"lon":5.379026,"is_reserved":false,"is_disabled":false,"rental_uris":{"android":"levelo://app?vid=c39e1cff-512e-4af6-bcc6-aaed17dbf89a","ios":"levelo://app?vid=c39e1cff-512e-4af6-bcc6-aaed17dbf89a"},"vehicle_type_id":"4","last_reported":1684177507,"current_range_meters":31200,"station_id":"ce4bgup2rcd13ifvqcn0","pricing_plan_id":"free"},{"bike_id":"e0c11041-4ebe-4200-a841-488b72fe5c40","system_id":"levelo_inurba_marseille","lat":43.304606,"lon":5.379026,"is_reserved":false,"is_disabled":false,"rental_uris":{"android":"levelo://app?vid=e0c11041-4ebe-4200-a841-488b72fe5c40","ios":"levelo://app?vid=e0c11041-4ebe-4200-a841-488b72fe5c40"},"vehicle_type_id":"4","last_reported":1684177507,"current_range_meters":12800,"station_id":"ce4bgup2rcd13ifvqcn0","pricing_plan_id":"free"},{"bike_id":"4692ce45-8d24-4159-8380-be70ae777744","system_id":"levelo_inurba_marseille","lat":43.304606,"lon":5.379026,"is_reserved":false,"is_disabled":false,"rental_uris":{"android":"levelo://app?vid=4692ce45-8d24-4159-8380-be70ae777744","ios":"levelo://app?vid=4692ce45-8d24-4159-8380-be70ae777744"},"vehicle_type_id":"4","last_reported":1684177507,"current_range_meters":23200,"station_id":"ce4bgup2rcd13ifvqcn0","pricing_plan_id":"free"},{"bike_id":"77356d28-3dad-4b14-a737-190bd3b8267a","system_id":"levelo_inurba_marseille","lat":43.31995,"lon":5.38142,"is_reserved":false,"is_disabled":false,"rental_uris":{"android":"levelo://app?vid=77356d28-3dad-4b14-a737-190bd3b8267a","ios":"levelo://app?vid=77356d28-3dad-4b14-a737-190bd3b8267a"},"vehicle_type_id":"4","last_reported":1684177507,"current_range_meters":19200,"station_id":"ce4bhr12rcd13ifvqhpg","pricing_plan_id":"free"},{"bike_id":"ac2832dc-d468-4d5e-b78f-ebe0d25212f3","system_id":"levelo_inurba_marseille","lat":43.313571,"lon":5.384829,"is_reserved":false,"is_disabled":false,"rental_uris":{"android":"levelo://app?vid=ac2832dc-d468-4d5e-b78f-ebe0d25212f3","ios":"levelo://app?vid=ac2832dc-d468-4d5e-b78f-ebe0d25212f3"},"vehicle_type_id":"4","last_reported":1684177507,"current_range_meters":21600,"station_id":"ce4bgt92rcd13ifvqcf0","pricing_plan_id":"free"},{"bike_id":"05e039e5-fb9a-4b4b-b123-089cbf0bed20","system_id":"levelo_inurba_marseille","lat":43.299222,"lon":5.365554,"is_reserved":false,"is_disabled":false,"rental_uris":{"android":"levelo://app?vid=05e039e5-fb9a-4b4b-b123-089cbf0bed20","ios":"levelo://app?vid=05e039e5-fb9a-4b4b-b123-089cbf0bed20"},"vehicle_type_id":"4","last_reported":1684177507,"current_range_meters":1600,"station_id":"ce4bgm92rcd13ifvqbr0","pricing_plan_id":"free"},{"bike_id":"eb52e3f8-e67d-4eaf-acac-08360b3f0c23","system_id":"levelo_inurba_marseille","lat":43.305364,"lon":5.384119,"is_reserved":false,"is_disabled":false,"rental_uris":{"android":"levelo://app?vid=eb52e3f8-e67d-4eaf-acac-08360b3f0c23","ios":"levelo://app?vid=eb52e3f8-e67d-4eaf-acac-08360b3f0c23"},"vehicle_type_id":"4","last_reported":1684177507,"current_range_meters":30000,"station_id":"ce4bgg92rcd13ifvqb30","pricing_plan_id":"free"},{"bike_id":"d864b4f6-1f05-41d2-86b2-279ae6b54984","system_id":"levelo_inurba_marseille","lat":43.299243,"lon":5.374807,"is_reserved":false,"is_disabled":false,"rental_uris":{"android":"levelo://app?vid=d864b4f6-1f05-41d2-86b2-279ae6b54984","ios":"levelo://app?vid=d864b4f6-1f05-41d2-86b2-279ae6b54984"},"vehicle_type_id":"4","last_reported":1684177507,"current_range_meters":0,"station_id":"ce4bgjh2rcd13ifvqbg0","pricing_plan_id":"free"},{"bike_id":"2d10a793-644c-46c5-99a6-9b9cfc4bb6fe","system_id":"levelo_inurba_marseille","lat":43.298433,"lon":5.362774,"is_reserved":false,"is_disabled":false,"rental_uris":{"android":"levelo://app?vid=2d10a793-644c-46c5-99a6-9b9cfc4bb6fe","ios":"levelo://app?vid=2d10a793-644c-46c5-99a6-9b9cfc4bb6fe"},"vehicle_type_id":"4","last_reported":1684177507,"current_range_meters":29200,"station_id":"ce4bgpp2rcd13ifvqc3g","pricing_plan_id":"free"},{"bike_id":"e9230023-feb2-4293-ac65-b7da3f0b20e5","system_id":"levelo_inurba_marseille","lat":43.311722,"lon":5.387247,"is_reserved":false,"is_disabled":false,"rental_uris":{"android":"levelo://app?vid=e9230023-feb2-4293-ac65-b7da3f0b20e5","ios":"levelo://app?vid=e9230023-feb2-4293-ac65-b7da3f0b20e5"},"vehicle_type_id":"4","last_reported":1684177507,"current_range_meters":22000,"station_id":"ce4bgv12rcd13ifvqcp0","pricing_plan_id":"free"},{"bike_id":"be840c93-0dae-4113-b065-6e63692db62c","system_id":"levelo_inurba_marseille","lat":43.32764,"lon":5.36691,"is_reserved":false,"is_disabled":false,"rental_uris":{"android":"levelo://app?vid=be840c93-0dae-4113-b065-6e63692db62c","ios":"levelo://app?vid=be840c93-0dae-4113-b065-6e63692db62c"},"vehicle_type_id":"4","last_reported":1684177507,"current_range_meters":2800,"station_id":"","pricing_plan_id":"free"},{"bike_id":"223a3942-eae0-44ef-a497-aa5c208469bf","system_id":"levelo_inurba_marseille","lat":43.3282,"lon":5.36692,"is_reserved":false,"is_disabled":false,"rental_uris":{"android":"levelo://app?vid=223a3942-eae0-44ef-a497-aa5c208469bf","ios":"levelo://app?vid=223a3942-eae0-44ef-a497-aa5c208469bf"},"vehicle_type_id":"4","last_reported":1684177507,"current_range_meters":15200,"station_id":"ce4bhs92rcd13ifvqi0g","pricing_plan_id":"free"},{"bike_id":"ce99431c-8377-4512-9962-530c9a4ca775","system_id":"levelo_inurba_marseille","lat":43.32827,"lon":5.36679,"is_reserved":false,"is_disabled":false,"rental_uris":{"android":"levelo://app?vid=ce99431c-8377-4512-9962-530c9a4ca775","ios":"levelo://app?vid=ce99431c-8377-4512-9962-530c9a4ca775"},"vehicle_type_id":"4","last_reported":1684177507,"current_range_meters":19600,"station_id":"ce4bhs92rcd13ifvqi0g","pricing_plan_id":"free"},{"bike_id":"e7f2b6eb-fd3e-4f84-a542-cc68dc37093a","system_id":"levelo_inurba_marseille","lat":43.32829,"lon":5.36692,"is_reserved":false,"is_disabled":false,"rental_uris":{"android":"levelo://app?vid=e7f2b6eb-fd3e-4f84-a542-cc68dc37093a","ios":"levelo://app?vid=e7f2b6eb-fd3e-4f84-a542-cc68dc37093a"},"vehicle_type_id":"4","last_reported":1684177507,"current_range_meters":20800,"station_id":"ce4bhs92rcd13ifvqi0g","pricing_plan_id":"free"},{"bike_id":"dacc45fb-1908-4c3c-b90c-3f48a4252764","system_id":"levelo_inurba_marseille","lat":43.3283,"lon":5.36694,"is_reserved":false,"is_disabled":false,"rental_uris":{"android":"levelo://app?vid=dacc45fb-1908-4c3c-b90c-3f48a4252764","ios":"levelo://app?vid=dacc45fb-1908-4c3c-b90c-3f48a4252764"},"vehicle_type_id":"4","last_reported":1684177507,"current_range_meters":17600,"station_id":"ce4bhs92rcd13ifvqi0g","pricing_plan_id":"free"},{"bike_id":"f7f5e7cd-f784-4de0-9ab3-dfe3cf921004","system_id":"levelo_inurba_marseille","lat":43.32833,"lon":5.36691,"is_reserved":false,"is_disabled":false,"rental_uris":{"android":"levelo://app?vid=f7f5e7cd-f784-4de0-9ab3-dfe3cf921004","ios":"levelo://app?vid=f7f5e7cd-f784-4de0-9ab3-dfe3cf921004"},"vehicle_type_id":"4","last_reported":1684177507,"current_range_meters":5200,"station_id":"ce4bhs92rcd13ifvqi0g","pricing_plan_id":"free"},{"bike_id":"2e3b9d51-8c66-4a9a-8612-ff9a723ae0cb","system_id":"levelo_inurba_marseille","lat":43.29712,"lon":5.36642,"is_reserved":false,"is_disabled":false,"rental_uris":{"android":"levelo://app?vid=2e3b9d51-8c66-4a9a-8612-ff9a723ae0cb","ios":"levelo://app?vid=2e3b9d51-8c66-4a9a-8612-ff9a723ae0cb"},"vehicle_type_id":"4","last_reported":1684177507,"current_range_meters":400,"station_id":"","pricing_plan_id":"free"},{"bike_id":"93e9ff74-0e8c-4677-9eaf-6b297a31e7b0","system_id":"levelo_inurba_marseille","lat":43.29711,"lon":5.36601,"is_reserved":false,"is_disabled":false,"rental_uris":{"android":"levelo://app?vid=93e9ff74-0e8c-4677-9eaf-6b297a31e7b0","ios":"levelo://app?vid=93e9ff74-0e8c-4677-9eaf-6b297a31e7b0"},"vehicle_type_id":"4","last_reported":1684177507,"current_range_meters":11600,"station_id":"ce4bgn12rcd13ifvqbt0","pricing_plan_id":"free"},{"bike_id":"c831ca36-41c6-4424-8989-5a38f7d52dc3","system_id":"levelo_inurba_marseille","lat":43.29711,"lon":5.366,"is_reserved":false,"is_disabled":false,"rental_uris":{"android":"levelo://app?vid=c831ca36-41c6-4424-8989-5a38f7d52dc3","ios":"levelo://app?vid=c831ca36-41c6-4424-8989-5a38f7d52dc3"},"vehicle_type_id":"4","last_reported":1684177507,"current_range_meters":11600,"station_id":"ce4bgn12rcd13ifvqbt0","pricing_plan_id":"free"},{"bike_id":"97913fc9-2ea1-48fc-8d72-b632efc55a86","system_id":"levelo_inurba_marseille","lat":43.296131,"lon":5.370791,"is_reserved":false,"is_disabled":false,"rental_uris":{"android":"levelo://app?vid=97913fc9-2ea1-48fc-8d72-b632efc55a86","ios":"levelo://app?vid=97913fc9-2ea1-48fc-8d72-b632efc55a86"},"vehicle_type_id":"4","last_reported":1684177507,"current_range_meters":23200,"station_id":"ce4bgnh2rcd13ifvqc0g","pricing_plan_id":"free"},{"bike_id":"02e62067-7927-49ee-a88c-ecdaeabd2780","system_id":"levelo_inurba_marseille","lat":43.29573,"lon":5.367355,"is_reserved":false,"is_disabled":false,"rental_uris":{"android":"levelo://app?vid=02e62067-7927-49ee-a88c-ecdaeabd2780","ios":"levelo://app?vid=02e62067-7927-49ee-a88c-ecdaeabd2780"},"vehicle_type_id":"4","last_reported":1684177507,"current_range_meters":14800,"station_id":"ce4bgph2rcd13ifvqc2g","pricing_plan_id":"free"},{"bike_id":"7ff6d02f-eb57-4401-a16e-a4890a923b71","system_id":"levelo_inurba_marseille","lat":43.317557,"lon":5.390173,"is_reserved":false,"is_disabled":false,"rental_uris":{"android":"levelo://app?vid=7ff6d02f-eb57-4401-a16e-a4890a923b71","ios":"levelo://app?vid=7ff6d02f-eb57-4401-a16e-a4890a923b71"},"vehicle_type_id":"4","last_reported":1684177507,"current_range_meters":8800,"station_id":"ce4bhqp2rcd13ifvqhng","pricing_plan_id":"free"},{"bike_id":"7d232b6c-ade1-4f84-852f-9ece1a04e9b4","system_id":"levelo_inurba_marseille","lat":43.317557,"lon":5.390173,"is_reserved":false,"is_disabled":false,"rental_uris":{"android":"levelo://app?vid=7d232b6c-ade1-4f84-852f-9ece1a04e9b4","ios":"levelo://app?vid=7d232b6c-ade1-4f84-852f-9ece1a04e9b4"},"vehicle_type_id":"4","last_reported":1684177507,"current_range_meters":800,"station_id":"ce4bhqp2rcd13ifvqhng","pricing_plan_id":"free"},{"bike_id":"cf4cf2a7-f6d5-4bad-a1b9-b1b00f4cc020","system_id":"levelo_inurba_marseille","lat":43.317557,"lon":5.390173,"is_reserved":false,"is_disabled":false,"rental_uris":{"android":"levelo://app?vid=cf4cf2a7-f6d5-4bad-a1b9-b1b00f4cc020","ios":"levelo://app?vid=cf4cf2a7-f6d5-4bad-a1b9-b1b00f4cc020"},"vehicle_type_id":"4","last_reported":1684177507,"current_range_meters":31200,"station_id":"ce4bhqp2rcd13ifvqhng","pricing_plan_id":"free"},{"bike_id":"44e74a91-a6e8-4fde-8748-2e47402ee350","system_id":"levelo_inurba_marseille","lat":43.317557,"lon":5.390173,"is_reserved":false,"is_disabled":false,"rental_uris":{"android":"levelo://app?vid=44e74a91-a6e8-4fde-8748-2e47402ee350","ios":"levelo://app?vid=44e74a91-a6e8-4fde-8748-2e47402ee350"},"vehicle_type_id":"4","last_reported":1684177507,"current_range_meters":30800,"station_id":"ce4bhqp2rcd13ifvqhng","pricing_plan_id":"free"},{"bike_id":"b65dc5a9-b161-4858-bd32-8682daa54c2c","system_id":"levelo_inurba_marseille","lat":43.309038,"lon":5.396546,"is_reserved":false,"is_disabled":false,"rental_uris":{"android":"levelo://app?vid=b65dc5a9-b161-4858-bd32-8682daa54c2c","ios":"levelo://app?vid=b65dc5a9-b161-4858-bd32-8682daa54c2c"},"vehicle_type_id":"4","last_reported":1684177507,"current_range_meters":19600,"station_id":"ce4bh012rcd13ifvqcv0","pricing_plan_id":"free"},{"bike_id":"1dfa9dcc-ad43-4366-80ee-5c7f154611fc","system_id":"levelo_inurba_marseille","lat":43.32364,"lon":5.38878,"is_reserved":false,"is_disabled":false,"rental_uris":{"android":"levelo://app?vid=1dfa9dcc-ad43-4366-80ee-5c7f154611fc","ios":"levelo://app?vid=1dfa9dcc-ad43-4366-80ee-5c7f154611fc"},"vehicle_type_id":"4","last_reported":1684177507,"current_range_meters":25600,"station_id":"ce4bhqp2rcd13ifvqhog","pricing_plan_id":"free"},{"bike_id":"368dad79-014b-46e3-b946-93453ee151a4","system_id":"levelo_inurba_marseille","lat":43.32364,"lon":5.38879,"is_reserved":false,"is_disabled":false,"rental_uris":{"android":"levelo://app?vid=368dad79-014b-46e3-b946-93453ee151a4","ios":"levelo://app?vid=368dad79-014b-46e3-b946-93453ee151a4"},"vehicle_type_id":"4","last_reported":1684177507,"current_range_meters":0,"station_id":"ce4bhqp2rcd13ifvqhog","pricing_plan_id":"free"},{"bike_id":"57788115-387d-40a2-a807-a902fa910e3a","system_id":"levelo_inurba_marseille","lat":43.32363,"lon":5.38881,"is_reserved":false,"is_disabled":false,"rental_uris":{"android":"levelo://app?vid=57788115-387d-40a2-a807-a902fa910e3a","ios":"levelo://app?vid=57788115-387d-40a2-a807-a902fa910e3a"},"vehicle_type_id":"4","last_reported":1684177507,"current_range_meters":13200,"station_id":"ce4bhqp2rcd13ifvqhog","pricing_plan_id":"free"},{"bike_id":"5a09d5d9-cf75-4fd0-8215-8ed6a2ada486","system_id":"levelo_inurba_marseille","lat":43.32365,"lon":5.3888,"is_reserved":false,"is_disabled":false,"rental_uris":{"android":"levelo://app?vid=5a09d5d9-cf75-4fd0-8215-8ed6a2ada486","ios":"levelo://app?vid=5a09d5d9-cf75-4fd0-8215-8ed6a2ada486"},"vehicle_type_id":"4","last_reported":1684177507,"current_range_meters":10000,"station_id":"ce4bhqp2rcd13ifvqhog","pricing_plan_id":"free"},{"bike_id":"9ec1a55f-8c74-4a8f-b32c-0166f897593e","system_id":"levelo_inurba_marseille","lat":43.32363,"lon":5.38886,"is_reserved":false,"is_disabled":false,"rental_uris":{"android":"levelo://app?vid=9ec1a55f-8c74-4a8f-b32c-0166f897593e","ios":"levelo://app?vid=9ec1a55f-8c74-4a8f-b32c-0166f897593e"},"vehicle_type_id":"4","last_reported":1684177507,"current_range_meters":0,"station_id":"","pricing_plan_id":"free"},{"bike_id":"b598aa41-f21a-44ab-bfa6-d8292decfa6d","system_id":"levelo_inurba_marseille","lat":43.32362,"lon":5.38887,"is_reserved":false,"is_disabled":false,"rental_uris":{"android":"levelo://app?vid=b598aa41-f21a-44ab-bfa6-d8292decfa6d","ios":"levelo://app?vid=b598aa41-f21a-44ab-bfa6-d8292decfa6d"},"vehicle_type_id":"4","last_reported":1684177507,"current_range_meters":0,"station_id":"","pricing_plan_id":"free"},{"bike_id":"cc25496d-8593-433d-a9e2-a643a228371f","system_id":"levelo_inurba_marseille","lat":43.32367,"lon":5.38884,"is_reserved":false,"is_disabled":false,"rental_uris":{"android":"levelo://app?vid=cc25496d-8593-433d-a9e2-a643a228371f","ios":"levelo://app?vid=cc25496d-8593-433d-a9e2-a643a228371f"},"vehicle_type_id":"4","last_reported":1684177507,"current_range_meters":30400,"station_id":"ce4bhqp2rcd13ifvqhog","pricing_plan_id":"free"},{"bike_id":"1a705e8e-b254-4ef5-ac1a-3b23d1742151","system_id":"levelo_inurba_marseille","lat":43.32369,"lon":5.38887,"is_reserved":false,"is_disabled":false,"rental_uris":{"android":"levelo://app?vid=1a705e8e-b254-4ef5-ac1a-3b23d1742151","ios":"levelo://app?vid=1a705e8e-b254-4ef5-ac1a-3b23d1742151"},"vehicle_type_id":"4","last_reported":1684177507,"current_range_meters":27200,"station_id":"","pricing_plan_id":"free"},{"bike_id":"8c83af73-e52b-455d-a488-2dcd7b769ae0","system_id":"levelo_inurba_marseille","lat":43.32373,"lon":5.38889,"is_reserved":false,"is_disabled":false,"rental_uris":{"android":"levelo://app?vid=8c83af73-e52b-455d-a488-2dcd7b769ae0","ios":"levelo://app?vid=8c83af73-e52b-455d-a488-2dcd7b769ae0"},"vehicle_type_id":"4","last_reported":1684177507,"current_range_meters":7200,"station_id":"ce4bhqp2rcd13ifvqhog","pricing_plan_id":"free"},{"bike_id":"57e56c09-fed2-4da4-9a65-d59cf27e3aa7","system_id":"levelo_inurba_marseille","lat":43.29602,"lon":5.381084,"is_reserved":false,"is_disabled":false,"rental_uris":{"android":"levelo://app?vid=57e56c09-fed2-4da4-9a65-d59cf27e3aa7","ios":"levelo://app?vid=57e56c09-fed2-4da4-9a65-d59cf27e3aa7"},"vehicle_type_id":"4","last_reported":1684177507,"current_range_meters":7200,"station_id":"ce4bgl12rcd13ifvqbo0","pricing_plan_id":"free"},{"bike_id":"ba322b22-e611-46b0-9cf3-13fe72e96d4d","system_id":"levelo_inurba_marseille","lat":43.293249,"lon":5.371578,"is_reserved":false,"is_disabled":false,"rental_uris":{"android":"levelo://app?vid=ba322b22-e611-46b0-9cf3-13fe72e96d4d","ios":"levelo://app?vid=ba322b22-e611-46b0-9cf3-13fe72e96d4d"},"vehicle_type_id":"4","last_reported":1684177507,"current_range_meters":11200,"station_id":"ce4bgh92rcd13ifvqb40","pricing_plan_id":"free"},{"bike_id":"033036a1-31f2-4338-8950-aadd70e61b76","system_id":"levelo_inurba_marseille","lat":43.292749,"lon":5.368398,"is_reserved":false,"is_disabled":false,"rental_uris":{"android":"levelo://app?vid=033036a1-31f2-4338-8950-aadd70e61b76","ios":"levelo://app?vid=033036a1-31f2-4338-8950-aadd70e61b76"},"vehicle_type_id":"4","last_reported":1684177507,"current_range_meters":0,"station_id":"ce4bhbp2rcd13ifvqesg","pricing_plan_id":"free"},{"bike_id":"edd4a928-6526-446b-bab6-98bda0de84ef","system_id":"levelo_inurba_marseille","lat":43.293009,"lon":5.374584,"is_reserved":false,"is_disabled":false,"rental_uris":{"android":"levelo://app?vid=edd4a928-6526-446b-bab6-98bda0de84ef","ios":"levelo://app?vid=edd4a928-6526-446b-bab6-98bda0de84ef"},"vehicle_type_id":"4","last_reported":1684177507,"current_range_meters":25200,"station_id":"ce4bgi12rcd13ifvqb70","pricing_plan_id":"free"},{"bike_id":"b87e0c22-5e45-426e-bf03-0e01fc5fabc8","system_id":"levelo_inurba_marseille","lat":43.305994,"lon":5.393687,"is_reserved":false,"is_disabled":false,"rental_uris":{"android":"levelo://app?vid=b87e0c22-5e45-426e-bf03-0e01fc5fabc8","ios":"levelo://app?vid=b87e0c22-5e45-426e-bf03-0e01fc5fabc8"},"vehicle_type_id":"4","last_reported":1684177507,"current_range_meters":24000,"station_id":"ce4bh0p2rcd13ifvqd80","pricing_plan_id":"free"},{"bike_id":"9f0031d0-4118-4b8a-95b7-22ca503c4d27","system_id":"levelo_inurba_marseille","lat":43.305994,"lon":5.393687,"is_reserved":false,"is_disabled":false,"rental_uris":{"android":"levelo://app?vid=9f0031d0-4118-4b8a-95b7-22ca503c4d27","ios":"levelo://app?vid=9f0031d0-4118-4b8a-95b7-22ca503c4d27"},"vehicle_type_id":"4","last_reported":1684177507,"current_range_meters":2800,"station_id":"ce4bh0p2rcd13ifvqd80","pricing_plan_id":"free"},{"bike_id":"e7336636-37af-40bc-a462-f0d1dd442335","system_id":"levelo_inurba_marseille","lat":43.303,"lon":5.39201,"is_reserved":false,"is_disabled":false,"rental_uris":{"android":"levelo://app?vid=e7336636-37af-40bc-a462-f0d1dd442335","ios":"levelo://app?vid=e7336636-37af-40bc-a462-f0d1dd442335"},"vehicle_type_id":"4","last_reported":1684177507,"current_range_meters":31200,"station_id":"ce4bgkh2rcd13ifvqbk0","pricing_plan_id":"free"},{"bike_id":"1afbc316-0498-47a4-a634-2621f5d370c4","system_id":"levelo_inurba_marseille","lat":43.302992,"lon":5.392136,"is_reserved":false,"is_disabled":false,"rental_uris":{"android":"levelo://app?vid=1afbc316-0498-47a4-a634-2621f5d370c4","ios":"levelo://app?vid=1afbc316-0498-47a4-a634-2621f5d370c4"},"vehicle_type_id":"4","last_reported":1684177507,"current_range_meters":31200,"station_id":"ce4bgkh2rcd13ifvqbk0","pricing_plan_id":"free"},{"bike_id":"9966f7b6-e8c0-4f7d-a28a-e5d9414a6d80","system_id":"levelo_inurba_marseille","lat":43.30073,"lon":5.39023,"is_reserved":false,"is_disabled":false,"rental_uris":{"android":"levelo://app?vid=9966f7b6-e8c0-4f7d-a28a-e5d9414a6d80","ios":"levelo://app?vid=9966f7b6-e8c0-4f7d-a28a-e5d9414a6d80"},"vehicle_type_id":"4","last_reported":1684177507,"current_range_meters":8400,"station_id":"ce4bh192rcd13ifvqdb0","pricing_plan_id":"free"},{"bike_id":"1051531a-3cb5-45de-904c-ffb2396c5070","system_id":"levelo_inurba_marseille","lat":43.29372,"lon":5.3786,"is_reserved":false,"is_disabled":false,"rental_uris":{"android":"levelo://app?vid=1051531a-3cb5-45de-904c-ffb2396c5070","ios":"levelo://app?vid=1051531a-3cb5-45de-904c-ffb2396c5070"},"vehicle_type_id":"4","last_reported":1684177507,"current_range_meters":28000,"station_id":"ce4bgjh2rcd13ifvqbf0","pricing_plan_id":"free"},{"bike_id":"dd3627e8-d092-4ca9-b15b-006d703de33a","system_id":"levelo_inurba_marseille","lat":43.30085,"lon":5.390856,"is_reserved":false,"is_disabled":false,"rental_uris":{"android":"levelo://app?vid=dd3627e8-d092-4ca9-b15b-006d703de33a","ios":"levelo://app?vid=dd3627e8-d092-4ca9-b15b-006d703de33a"},"vehicle_type_id":"4","last_reported":1684177507,"current_range_meters":2400,"station_id":"ce4bh192rcd13ifvqdb0","pricing_plan_id":"free"},{"bike_id":"4d53f3d2-c7cc-4a42-be3d-cf9e6da1385d","system_id":"levelo_inurba_marseille","lat":43.29225,"lon":5.3605,"is_reserved":false,"is_disabled":false,"rental_uris":{"android":"levelo://app?vid=4d53f3d2-c7cc-4a42-be3d-cf9e6da1385d","ios":"levelo://app?vid=4d53f3d2-c7cc-4a42-be3d-cf9e6da1385d"},"vehicle_type_id":"4","last_reported":1684177507,"current_range_meters":31200,"station_id":"","pricing_plan_id":"free"},{"bike_id":"e3de6960-b3ae-47d4-8bcf-95ff209eb7ad","system_id":"levelo_inurba_marseille","lat":43.29225,"lon":5.36044,"is_reserved":false,"is_disabled":false,"rental_uris":{"android":"levelo://app?vid=e3de6960-b3ae-47d4-8bcf-95ff209eb7ad","ios":"levelo://app?vid=e3de6960-b3ae-47d4-8bcf-95ff209eb7ad"},"vehicle_type_id":"4","last_reported":1684177507,"current_range_meters":29600,"station_id":"","pricing_plan_id":"free"},{"bike_id":"453a632c-0aab-4169-ab3b-1c8a8f0bfbc1","system_id":"levelo_inurba_marseille","lat":43.29222,"lon":5.36048,"is_reserved":false,"is_disabled":false,"rental_uris":{"android":"levelo://app?vid=453a632c-0aab-4169-ab3b-1c8a8f0bfbc1","ios":"levelo://app?vid=453a632c-0aab-4169-ab3b-1c8a8f0bfbc1"},"vehicle_type_id":"4","last_reported":1684177507,"current_range_meters":22800,"station_id":"","pricing_plan_id":"free"},{"bike_id":"82039ecd-c545-452d-a185-09c29ecc395d","system_id":"levelo_inurba_marseille","lat":43.292663,"lon":5.376394,"is_reserved":false,"is_disabled":false,"rental_uris":{"android":"levelo://app?vid=82039ecd-c545-452d-a185-09c29ecc395d","ios":"levelo://app?vid=82039ecd-c545-452d-a185-09c29ecc395d"},"vehicle_type_id":"4","last_reported":1684177507,"current_range_meters":30000,"station_id":"ce4bgi12rcd13ifvqb80","pricing_plan_id":"free"},{"bike_id":"41fc31f4-166d-4ccd-9b32-c518b806fcf7","system_id":"levelo_inurba_marseille","lat":43.29876,"lon":5.38904,"is_reserved":false,"is_disabled":false,"rental_uris":{"android":"levelo://app?vid=41fc31f4-166d-4ccd-9b32-c518b806fcf7","ios":"levelo://app?vid=41fc31f4-166d-4ccd-9b32-c518b806fcf7"},"vehicle_type_id":"4","last_reported":1684177507,"current_range_meters":13600,"station_id":"ce4bh392rcd13ifvqdl0","pricing_plan_id":"free"},{"bike_id":"8cec4b6e-4f8c-409f-8354-db91ca933785","system_id":"levelo_inurba_marseille","lat":43.309038,"lon":5.396546,"is_reserved":false,"is_disabled":false,"rental_uris":{"android":"levelo://app?vid=8cec4b6e-4f8c-409f-8354-db91ca933785","ios":"levelo://app?vid=8cec4b6e-4f8c-409f-8354-db91ca933785"},"vehicle_type_id":"4","last_reported":1684177507,"current_range_meters":8800,"station_id":"ce4bh012rcd13ifvqcv0","pricing_plan_id":"free"},{"bike_id":"945a7229-f7de-4ecb-ad16-394f39ce166e","system_id":"levelo_inurba_marseille","lat":43.309038,"lon":5.396546,"is_reserved":false,"is_disabled":false,"rental_uris":{"android":"levelo://app?vid=945a7229-f7de-4ecb-ad16-394f39ce166e","ios":"levelo://app?vid=945a7229-f7de-4ecb-ad16-394f39ce166e"},"vehicle_type_id":"4","last_reported":1684177507,"current_range_meters":0,"station_id":"ce4bh012rcd13ifvqcv0","pricing_plan_id":"free"},{"bike_id":"e284ada4-469b-403a-8c9f-7388febaac16","system_id":"levelo_inurba_marseille","lat":43.31329,"lon":5.39683,"is_reserved":false,"is_disabled":false,"rental_uris":{"android":"levelo://app?vid=e284ada4-469b-403a-8c9f-7388febaac16","ios":"levelo://app?vid=e284ada4-469b-403a-8c9f-7388febaac16"},"vehicle_type_id":"4","last_reported":1684177507,"current_range_meters":0,"station_id":"ce4bgvp2rcd13ifvqcu0","pricing_plan_id":"free"},{"bike_id":"5bb394b4-a5ac-4e3b-a34c-f7d07a2ba07b","system_id":"levelo_inurba_marseille","lat":43.309038,"lon":5.396546,"is_reserved":false,"is_disabled":false,"rental_uris":{"android":"levelo://app?vid=5bb394b4-a5ac-4e3b-a34c-f7d07a2ba07b","ios":"levelo://app?vid=5bb394b4-a5ac-4e3b-a34c-f7d07a2ba07b"},"vehicle_type_id":"4","last_reported":1684177507,"current_range_meters":5200,"station_id":"ce4bh012rcd13ifvqcv0","pricing_plan_id":"free"},{"bike_id":"52ac4585-c689-4bbd-b451-ea4231d99aae","system_id":"levelo_inurba_marseille","lat":43.31327,"lon":5.39687,"is_reserved":false,"is_disabled":false,"rental_uris":{"android":"levelo://app?vid=52ac4585-c689-4bbd-b451-ea4231d99aae","ios":"levelo://app?vid=52ac4585-c689-4bbd-b451-ea4231d99aae"},"vehicle_type_id":"4","last_reported":1684177507,"current_range_meters":15200,"station_id":"ce4bgvp2rcd13ifvqcu0","pricing_plan_id":"free"},{"bike_id":"536f814f-4b19-4750-a500-28ac8e4536e4","system_id":"levelo_inurba_marseille","lat":43.31325,"lon":5.39691,"is_reserved":false,"is_disabled":false,"rental_uris":{"android":"levelo://app?vid=536f814f-4b19-4750-a500-28ac8e4536e4","ios":"levelo://app?vid=536f814f-4b19-4750-a500-28ac8e4536e4"},"vehicle_type_id":"4","last_reported":1684177507,"current_range_meters":2800,"station_id":"ce4bgvp2rcd13ifvqcu0","pricing_plan_id":"free"},{"bike_id":"6d2bb92d-58a4-4619-9e46-f46813fb14a3","system_id":"levelo_inurba_marseille","lat":43.31328,"lon":5.39691,"is_reserved":false,"is_disabled":false,"rental_uris":{"android":"levelo://app?vid=6d2bb92d-58a4-4619-9e46-f46813fb14a3","ios":"levelo://app?vid=6d2bb92d-58a4-4619-9e46-f46813fb14a3"},"vehicle_type_id":"4","last_reported":1684177507,"current_range_meters":11600,"station_id":"ce4bgvp2rcd13ifvqcu0","pricing_plan_id":"free"},{"bike_id":"ab455cb5-c46c-44f3-a835-8063aa0d39cd","system_id":"levelo_inurba_marseille","lat":43.31322,"lon":5.39692,"is_reserved":false,"is_disabled":false,"rental_uris":{"android":"levelo://app?vid=ab455cb5-c46c-44f3-a835-8063aa0d39cd","ios":"levelo://app?vid=ab455cb5-c46c-44f3-a835-8063aa0d39cd"},"vehicle_type_id":"4","last_reported":1684177507,"current_range_meters":22000,"station_id":"ce4bgvp2rcd13ifvqcu0","pricing_plan_id":"free"},{"bike_id":"3bbf8571-c3ca-4f06-baee-bc5cd88e056a","system_id":"levelo_inurba_marseille","lat":43.3133,"lon":5.39694,"is_reserved":false,"is_disabled":false,"rental_uris":{"android":"levelo://app?vid=3bbf8571-c3ca-4f06-baee-bc5cd88e056a","ios":"levelo://app?vid=3bbf8571-c3ca-4f06-baee-bc5cd88e056a"},"vehicle_type_id":"4","last_reported":1684177507,"current_range_meters":10000,"station_id":"ce4bgvp2rcd13ifvqcu0","pricing_plan_id":"free"},{"bike_id":"8c331635-570f-4fea-a291-134922223915","system_id":"levelo_inurba_marseille","lat":43.313291,"lon":5.396838,"is_reserved":false,"is_disabled":false,"rental_uris":{"android":"levelo://app?vid=8c331635-570f-4fea-a291-134922223915","ios":"levelo://app?vid=8c331635-570f-4fea-a291-134922223915"},"vehicle_type_id":"4","last_reported":1684177507,"current_range_meters":7200,"station_id":"ce4bgvp2rcd13ifvqcu0","pricing_plan_id":"free"},{"bike_id":"f732d9a4-2e98-4ae2-ad41-ac892c11ff42","system_id":"levelo_inurba_marseille","lat":43.31336,"lon":5.39696,"is_reserved":false,"is_disabled":false,"rental_uris":{"android":"levelo://app?vid=f732d9a4-2e98-4ae2-ad41-ac892c11ff42","ios":"levelo://app?vid=f732d9a4-2e98-4ae2-ad41-ac892c11ff42"},"vehicle_type_id":"4","last_reported":1684177507,"current_range_meters":12000,"station_id":"ce4bgvp2rcd13ifvqcu0","pricing_plan_id":"free"},{"bike_id":"d1e3cb8b-55f8-40b0-a409-b74d193856ea","system_id":"levelo_inurba_marseille","lat":43.31332,"lon":5.39697,"is_reserved":false,"is_disabled":false,"rental_uris":{"android":"levelo://app?vid=d1e3cb8b-55f8-40b0-a409-b74d193856ea","ios":"levelo://app?vid=d1e3cb8b-55f8-40b0-a409-b74d193856ea"},"vehicle_type_id":"4","last_reported":1684177507,"current_range_meters":21200,"station_id":"ce4bgvp2rcd13ifvqcu0","pricing_plan_id":"free"},{"bike_id":"6825e468-bd2a-4601-8b1e-b07d648dc187","system_id":"levelo_inurba_marseille","lat":43.309038,"lon":5.396546,"is_reserved":false,"is_disabled":false,"rental_uris":{"android":"levelo://app?vid=6825e468-bd2a-4601-8b1e-b07d648dc187","ios":"levelo://app?vid=6825e468-bd2a-4601-8b1e-b07d648dc187"},"vehicle_type_id":"4","last_reported":1684177507,"current_range_meters":20400,"station_id":"ce4bh012rcd13ifvqcv0","pricing_plan_id":"free"},{"bike_id":"7969a1e0-f74f-4d9e-884f-a88d12370a46","system_id":"levelo_inurba_marseille","lat":43.29529,"lon":5.385581,"is_reserved":false,"is_disabled":false,"rental_uris":{"android":"levelo://app?vid=7969a1e0-f74f-4d9e-884f-a88d12370a46","ios":"levelo://app?vid=7969a1e0-f74f-4d9e-884f-a88d12370a46"},"vehicle_type_id":"4","last_reported":1684177507,"current_range_meters":28000,"station_id":"ce4bgih2rcd13ifvqba0","pricing_plan_id":"free"},{"bike_id":"9e4b2ef5-45ae-44c0-bb5b-9959f00c6ec1","system_id":"levelo_inurba_marseille","lat":43.290624,"lon":5.359245,"is_reserved":false,"is_disabled":false,"rental_uris":{"android":"levelo://app?vid=9e4b2ef5-45ae-44c0-bb5b-9959f00c6ec1","ios":"levelo://app?vid=9e4b2ef5-45ae-44c0-bb5b-9959f00c6ec1"},"vehicle_type_id":"4","last_reported":1684177507,"current_range_meters":31600,"station_id":"ce4bha92rcd13ifvqeg0","pricing_plan_id":"free"},{"bike_id":"d7cba365-f8f5-43b5-ac5b-7d531fd3e213","system_id":"levelo_inurba_marseille","lat":43.290624,"lon":5.359245,"is_reserved":false,"is_disabled":false,"rental_uris":{"android":"levelo://app?vid=d7cba365-f8f5-43b5-ac5b-7d531fd3e213","ios":"levelo://app?vid=d7cba365-f8f5-43b5-ac5b-7d531fd3e213"},"vehicle_type_id":"4","last_reported":1684177507,"current_range_meters":2800,"station_id":"ce4bha92rcd13ifvqeg0","pricing_plan_id":"free"},{"bike_id":"f251ace7-6ef1-4796-943e-f4b43abc1be5","system_id":"levelo_inurba_marseille","lat":43.290319,"lon":5.375732,"is_reserved":false,"is_disabled":false,"rental_uris":{"android":"levelo://app?vid=f251ace7-6ef1-4796-943e-f4b43abc1be5","ios":"levelo://app?vid=f251ace7-6ef1-4796-943e-f4b43abc1be5"},"vehicle_type_id":"4","last_reported":1684177507,"current_range_meters":6800,"station_id":"ce4bh692rcd13ifvqe90","pricing_plan_id":"free"},{"bike_id":"d6e17160-be91-482b-918e-1af4b370ce51","system_id":"levelo_inurba_marseille","lat":43.294153,"lon":5.386305,"is_reserved":false,"is_disabled":false,"rental_uris":{"android":"levelo://app?vid=d6e17160-be91-482b-918e-1af4b370ce51","ios":"levelo://app?vid=d6e17160-be91-482b-918e-1af4b370ce51"},"vehicle_type_id":"4","last_reported":1684177507,"current_range_meters":10000,"station_id":"ce4bh2h2rcd13ifvqdh0","pricing_plan_id":"free"},{"bike_id":"6c06c152-72a8-4089-89f6-a9ea45decd41","system_id":"levelo_inurba_marseille","lat":43.289184,"lon":5.366408,"is_reserved":false,"is_disabled":false,"rental_uris":{"android":"levelo://app?vid=6c06c152-72a8-4089-89f6-a9ea45decd41","ios":"levelo://app?vid=6c06c152-72a8-4089-89f6-a9ea45decd41"},"vehicle_type_id":"4","last_reported":1684177507,"current_range_meters":27200,"station_id":"ce4bhap2rcd13ifvqek0","pricing_plan_id":"free"},{"bike_id":"fa20c37e-7dc3-4a1f-a257-7e9d37504805","system_id":"levelo_inurba_marseille","lat":43.289184,"lon":5.366408,"is_reserved":false,"is_disabled":false,"rental_uris":{"android":"levelo://app?vid=fa20c37e-7dc3-4a1f-a257-7e9d37504805","ios":"levelo://app?vid=fa20c37e-7dc3-4a1f-a257-7e9d37504805"},"vehicle_type_id":"4","last_reported":1684177507,"current_range_meters":2800,"station_id":"ce4bhap2rcd13ifvqek0","pricing_plan_id":"free"},{"bike_id":"908a036c-8ae1-403d-b5e6-5c621f68f1b1","system_id":"levelo_inurba_marseille","lat":43.304296,"lon":5.397513,"is_reserved":false,"is_disabled":false,"rental_uris":{"android":"levelo://app?vid=908a036c-8ae1-403d-b5e6-5c621f68f1b1","ios":"levelo://app?vid=908a036c-8ae1-403d-b5e6-5c621f68f1b1"},"vehicle_type_id":"4","last_reported":1684177507,"current_range_meters":0,"station_id":"ce4bh092rcd13ifvqd20","pricing_plan_id":"free"},{"bike_id":"030b9231-c3b2-411e-ae6d-e65516608c7a","system_id":"levelo_inurba_marseille","lat":43.33041,"lon":5.38916,"is_reserved":false,"is_disabled":false,"rental_uris":{"android":"levelo://app?vid=030b9231-c3b2-411e-ae6d-e65516608c7a","ios":"levelo://app?vid=030b9231-c3b2-411e-ae6d-e65516608c7a"},"vehicle_type_id":"4","last_reported":1684177507,"current_range_meters":19600,"station_id":"ce4bhr92rcd13ifvqhrg","pricing_plan_id":"free"},{"bike_id":"e4a75553-1296-4bdc-930a-334566dca8c8","system_id":"levelo_inurba_marseille","lat":43.3304,"lon":5.3892,"is_reserved":false,"is_disabled":false,"rental_uris":{"android":"levelo://app?vid=e4a75553-1296-4bdc-930a-334566dca8c8","ios":"levelo://app?vid=e4a75553-1296-4bdc-930a-334566dca8c8"},"vehicle_type_id":"4","last_reported":1684177507,"current_range_meters":28800,"station_id":"ce4bhr92rcd13ifvqhrg","pricing_plan_id":"free"},{"bike_id":"a0d2163e-1f3c-45fb-ac7a-b360ff538a92","system_id":"levelo_inurba_marseille","lat":43.33041,"lon":5.38919,"is_reserved":false,"is_disabled":false,"rental_uris":{"android":"levelo://app?vid=a0d2163e-1f3c-45fb-ac7a-b360ff538a92","ios":"levelo://app?vid=a0d2163e-1f3c-45fb-ac7a-b360ff538a92"},"vehicle_type_id":"4","last_reported":1684177507,"current_range_meters":11600,"station_id":"ce4bhr92rcd13ifvqhrg","pricing_plan_id":"free"},{"bike_id":"8fed593d-e041-48a5-97b4-87fa0bd07169","system_id":"levelo_inurba_marseille","lat":43.33043,"lon":5.38916,"is_reserved":false,"is_disabled":false,"rental_uris":{"android":"levelo://app?vid=8fed593d-e041-48a5-97b4-87fa0bd07169","ios":"levelo://app?vid=8fed593d-e041-48a5-97b4-87fa0bd07169"},"vehicle_type_id":"4","last_reported":1684177507,"current_range_meters":28400,"station_id":"ce4bhr92rcd13ifvqhrg","pricing_plan_id":"free"},{"bike_id":"dc811be1-f27e-44b8-a981-b26decf78c4c","system_id":"levelo_inurba_marseille","lat":43.33046,"lon":5.38915,"is_reserved":false,"is_disabled":false,"rental_uris":{"android":"levelo://app?vid=dc811be1-f27e-44b8-a981-b26decf78c4c","ios":"levelo://app?vid=dc811be1-f27e-44b8-a981-b26decf78c4c"},"vehicle_type_id":"4","last_reported":1684177507,"current_range_meters":5600,"station_id":"ce4bhr92rcd13ifvqhrg","pricing_plan_id":"free"},{"bike_id":"7c9f71ef-b77f-4c03-9f45-a7decfddcc77","system_id":"levelo_inurba_marseille","lat":43.33042,"lon":5.38923,"is_reserved":false,"is_disabled":false,"rental_uris":{"android":"levelo://app?vid=7c9f71ef-b77f-4c03-9f45-a7decfddcc77","ios":"levelo://app?vid=7c9f71ef-b77f-4c03-9f45-a7decfddcc77"},"vehicle_type_id":"4","last_reported":1684177507,"current_range_meters":30400,"station_id":"ce4bhr92rcd13ifvqhrg","pricing_plan_id":"free"},{"bike_id":"d1207b2e-3cb5-421b-ba98-79f633aa28c4","system_id":"levelo_inurba_marseille","lat":43.33049,"lon":5.38916,"is_reserved":false,"is_disabled":false,"rental_uris":{"android":"levelo://app?vid=d1207b2e-3cb5-421b-ba98-79f633aa28c4","ios":"levelo://app?vid=d1207b2e-3cb5-421b-ba98-79f633aa28c4"},"vehicle_type_id":"4","last_reported":1684177507,"current_range_meters":28800,"station_id":"ce4bhr92rcd13ifvqhrg","pricing_plan_id":"free"},{"bike_id":"3a06cd24-5b32-4494-a36d-3f853a55115f","system_id":"levelo_inurba_marseille","lat":43.290974,"lon":5.381315,"is_reserved":false,"is_disabled":false,"rental_uris":{"android":"levelo://app?vid=3a06cd24-5b32-4494-a36d-3f853a55115f","ios":"levelo://app?vid=3a06cd24-5b32-4494-a36d-3f853a55115f"},"vehicle_type_id":"4","last_reported":1684177507,"current_range_meters":18000,"station_id":"","pricing_plan_id":"free"},{"bike_id":"197c09f7-840e-4c4d-98e4-41aae45f5023","system_id":"levelo_inurba_marseille","lat":43.295169,"lon":5.390426,"is_reserved":false,"is_disabled":false,"rental_uris":{"android":"levelo://app?vid=197c09f7-840e-4c4d-98e4-41aae45f5023","ios":"levelo://app?vid=197c09f7-840e-4c4d-98e4-41aae45f5023"},"vehicle_type_id":"4","last_reported":1684177507,"current_range_meters":9200,"station_id":"ce4bh3p2rcd13ifvqdp0","pricing_plan_id":"free"},{"bike_id":"20212468-ac32-41ab-a81a-5f5ad8e8e96f","system_id":"levelo_inurba_marseille","lat":43.289743,"lon":5.378304,"is_reserved":false,"is_disabled":false,"rental_uris":{"android":"levelo://app?vid=20212468-ac32-41ab-a81a-5f5ad8e8e96f","ios":"levelo://app?vid=20212468-ac32-41ab-a81a-5f5ad8e8e96f"},"vehicle_type_id":"4","last_reported":1684177507,"current_range_meters":22800,"station_id":"ce4bh9p2rcd13ifvqed0","pricing_plan_id":"free"},{"bike_id":"53ea35b3-7c86-4f62-90dc-0c8fa7681453","system_id":"levelo_inurba_marseille","lat":43.295169,"lon":5.390426,"is_reserved":false,"is_disabled":false,"rental_uris":{"android":"levelo://app?vid=53ea35b3-7c86-4f62-90dc-0c8fa7681453","ios":"levelo://app?vid=53ea35b3-7c86-4f62-90dc-0c8fa7681453"},"vehicle_type_id":"4","last_reported":1684177507,"current_range_meters":2800,"station_id":"ce4bh3p2rcd13ifvqdp0","pricing_plan_id":"free"},{"bike_id":"a644ae46-7eab-4ece-b842-a78fc03eaa6b","system_id":"levelo_inurba_marseille","lat":43.337328,"lon":5.374538,"is_reserved":false,"is_disabled":false,"rental_uris":{"android":"levelo://app?vid=a644ae46-7eab-4ece-b842-a78fc03eaa6b","ios":"levelo://app?vid=a644ae46-7eab-4ece-b842-a78fc03eaa6b"},"vehicle_type_id":"4","last_reported":1684177507,"current_range_meters":22400,"station_id":"ce4bhah2rcd13ifvqei0","pricing_plan_id":"free"},{"bike_id":"0aaf129a-7f4a-4b0c-837f-833be83b7a49","system_id":"levelo_inurba_marseille","lat":43.337436,"lon":5.374627,"is_reserved":false,"is_disabled":false,"rental_uris":{"android":"levelo://app?vid=0aaf129a-7f4a-4b0c-837f-833be83b7a49","ios":"levelo://app?vid=0aaf129a-7f4a-4b0c-837f-833be83b7a49"},"vehicle_type_id":"4","last_reported":1684177507,"current_range_meters":23200,"station_id":"ce4bhnp2rcd13ifvqgvg","pricing_plan_id":"free"},{"bike_id":"813d4a8b-9ad8-4d3a-8b70-7af3f4d37c5c","system_id":"levelo_inurba_marseille","lat":43.33756,"lon":5.37419,"is_reserved":false,"is_disabled":false,"rental_uris":{"android":"levelo://app?vid=813d4a8b-9ad8-4d3a-8b70-7af3f4d37c5c","ios":"levelo://app?vid=813d4a8b-9ad8-4d3a-8b70-7af3f4d37c5c"},"vehicle_type_id":"4","last_reported":1684177507,"current_range_meters":28800,"station_id":"ce4rr2p2rcd13i802rgg","pricing_plan_id":"free"},{"bike_id":"757ccc8b-c0f0-43bc-9389-dca280934b31","system_id":"levelo_inurba_marseille","lat":43.30642,"lon":5.401031,"is_reserved":false,"is_disabled":false,"rental_uris":{"android":"levelo://app?vid=757ccc8b-c0f0-43bc-9389-dca280934b31","ios":"levelo://app?vid=757ccc8b-c0f0-43bc-9389-dca280934b31"},"vehicle_type_id":"4","last_reported":1684177507,"current_range_meters":400,"station_id":"ce4bh112rcd13ifvqda0","pricing_plan_id":"free"},{"bike_id":"e3868811-efd8-433e-83e6-6a9a136ad5ee","system_id":"levelo_inurba_marseille","lat":43.301117,"lon":5.398795,"is_reserved":false,"is_disabled":false,"rental_uris":{"android":"levelo://app?vid=e3868811-efd8-433e-83e6-6a9a136ad5ee","ios":"levelo://app?vid=e3868811-efd8-433e-83e6-6a9a136ad5ee"},"vehicle_type_id":"4","last_reported":1684177507,"current_range_meters":1200,"station_id":"ce4bh0h2rcd13ifvqd40","pricing_plan_id":"free"},{"bike_id":"615ca6c4-65cb-4b8f-87b6-8e6e436c5b1f","system_id":"levelo_inurba_marseille","lat":43.301117,"lon":5.398795,"is_reserved":false,"is_disabled":false,"rental_uris":{"android":"levelo://app?vid=615ca6c4-65cb-4b8f-87b6-8e6e436c5b1f","ios":"levelo://app?vid=615ca6c4-65cb-4b8f-87b6-8e6e436c5b1f"},"vehicle_type_id":"4","last_reported":1684177507,"current_range_meters":0,"station_id":"ce4bh0h2rcd13ifvqd40","pricing_plan_id":"free"},{"bike_id":"f4f9158e-2480-45ae-a4ff-48a0306434f1","system_id":"levelo_inurba_marseille","lat":43.295196,"lon":5.39397,"is_reserved":false,"is_disabled":false,"rental_uris":{"android":"levelo://app?vid=f4f9158e-2480-45ae-a4ff-48a0306434f1","ios":"levelo://app?vid=f4f9158e-2480-45ae-a4ff-48a0306434f1"},"vehicle_type_id":"4","last_reported":1684177507,"current_range_meters":24400,"station_id":"ce4bh292rcd13ifvqdf0","pricing_plan_id":"free"},{"bike_id":"7826ef39-2a11-4f49-a20b-96fe748c20e8","system_id":"levelo_inurba_marseille","lat":43.286593,"lon":5.363346,"is_reserved":false,"is_disabled":false,"rental_uris":{"android":"levelo://app?vid=7826ef39-2a11-4f49-a20b-96fe748c20e8","ios":"levelo://app?vid=7826ef39-2a11-4f49-a20b-96fe748c20e8"},"vehicle_type_id":"4","last_reported":1684177507,"current_range_meters":16400,"station_id":"ce4bhah2rcd13ifvqej0","pricing_plan_id":"free"},{"bike_id":"ef4d4385-d924-459c-9f32-87cafb724cec","system_id":"levelo_inurba_marseille","lat":43.298681,"lon":5.397225,"is_reserved":false,"is_disabled":false,"rental_uris":{"android":"levelo://app?vid=ef4d4385-d924-459c-9f32-87cafb724cec","ios":"levelo://app?vid=ef4d4385-d924-459c-9f32-87cafb724cec"},"vehicle_type_id":"4","last_reported":1684177507,"current_range_meters":26400,"station_id":"ce4bh0h2rcd13ifvqd50","pricing_plan_id":"free"},{"bike_id":"da7311f0-50f9-45c7-9cda-84447bc44ae4","system_id":"levelo_inurba_marseille","lat":43.298681,"lon":5.397225,"is_reserved":false,"is_disabled":false,"rental_uris":{"android":"levelo://app?vid=da7311f0-50f9-45c7-9cda-84447bc44ae4","ios":"levelo://app?vid=da7311f0-50f9-45c7-9cda-84447bc44ae4"},"vehicle_type_id":"4","last_reported":1684177507,"current_range_meters":16800,"station_id":"ce4bh0h2rcd13ifvqd50","pricing_plan_id":"free"},{"bike_id":"7e82c6f0-37e9-4738-b7eb-8d4f99851c60","system_id":"levelo_inurba_marseille","lat":43.286591,"lon":5.363346,"is_reserved":false,"is_disabled":false,"rental_uris":{"android":"levelo://app?vid=7e82c6f0-37e9-4738-b7eb-8d4f99851c60","ios":"levelo://app?vid=7e82c6f0-37e9-4738-b7eb-8d4f99851c60"},"vehicle_type_id":"4","last_reported":1684177507,"current_range_meters":16800,"station_id":"ce4bhah2rcd13ifvqej0","pricing_plan_id":"free"},{"bike_id":"0551dfa7-dd57-40d7-a3ce-6c24f7a9f2f1","system_id":"levelo_inurba_marseille","lat":43.286593,"lon":5.363346,"is_reserved":false,"is_disabled":false,"rental_uris":{"android":"levelo://app?vid=0551dfa7-dd57-40d7-a3ce-6c24f7a9f2f1","ios":"levelo://app?vid=0551dfa7-dd57-40d7-a3ce-6c24f7a9f2f1"},"vehicle_type_id":"4","last_reported":1684177507,"current_range_meters":12000,"station_id":"ce4bhah2rcd13ifvqej0","pricing_plan_id":"free"},{"bike_id":"f678dba6-96af-4908-b57b-6e2b66555a43","system_id":"levelo_inurba_marseille","lat":43.286593,"lon":5.363346,"is_reserved":false,"is_disabled":false,"rental_uris":{"android":"levelo://app?vid=f678dba6-96af-4908-b57b-6e2b66555a43","ios":"levelo://app?vid=f678dba6-96af-4908-b57b-6e2b66555a43"},"vehicle_type_id":"4","last_reported":1684177507,"current_range_meters":27600,"station_id":"ce4bhah2rcd13ifvqej0","pricing_plan_id":"free"},{"bike_id":"c428c559-7f01-4beb-87e6-64eb4d3dcc87","system_id":"levelo_inurba_marseille","lat":43.298681,"lon":5.397225,"is_reserved":false,"is_disabled":false,"rental_uris":{"android":"levelo://app?vid=c428c559-7f01-4beb-87e6-64eb4d3dcc87","ios":"levelo://app?vid=c428c559-7f01-4beb-87e6-64eb4d3dcc87"},"vehicle_type_id":"4","last_reported":1684177507,"current_range_meters":13600,"station_id":"ce4bh0h2rcd13ifvqd50","pricing_plan_id":"free"},{"bike_id":"ae28b5f1-5a14-4ac0-919a-f7af664062dd","system_id":"levelo_inurba_marseille","lat":43.295196,"lon":5.39397,"is_reserved":false,"is_disabled":false,"rental_uris":{"android":"levelo://app?vid=ae28b5f1-5a14-4ac0-919a-f7af664062dd","ios":"levelo://app?vid=ae28b5f1-5a14-4ac0-919a-f7af664062dd"},"vehicle_type_id":"4","last_reported":1684177507,"current_range_meters":22400,"station_id":"ce4bh292rcd13ifvqdf0","pricing_plan_id":"free"},{"bike_id":"d32d3d76-cd04-4c1e-9b0e-5b5af0f227b6","system_id":"levelo_inurba_marseille","lat":43.295194,"lon":5.39397,"is_reserved":false,"is_disabled":false,"rental_uris":{"android":"levelo://app?vid=d32d3d76-cd04-4c1e-9b0e-5b5af0f227b6","ios":"levelo://app?vid=d32d3d76-cd04-4c1e-9b0e-5b5af0f227b6"},"vehicle_type_id":"4","last_reported":1684177507,"current_range_meters":22800,"station_id":"ce4bh292rcd13ifvqdf0","pricing_plan_id":"free"},{"bike_id":"590173a9-6fb4-47cc-b8c3-a3d3029b974b","system_id":"levelo_inurba_marseille","lat":43.295194,"lon":5.39397,"is_reserved":false,"is_disabled":false,"rental_uris":{"android":"levelo://app?vid=590173a9-6fb4-47cc-b8c3-a3d3029b974b","ios":"levelo://app?vid=590173a9-6fb4-47cc-b8c3-a3d3029b974b"},"vehicle_type_id":"4","last_reported":1684177507,"current_range_meters":22400,"station_id":"ce4bh292rcd13ifvqdf0","pricing_plan_id":"free"},{"bike_id":"a893aa3a-8a11-4732-9ef1-47e10478da44","system_id":"levelo_inurba_marseille","lat":43.295194,"lon":5.39397,"is_reserved":false,"is_disabled":false,"rental_uris":{"android":"levelo://app?vid=a893aa3a-8a11-4732-9ef1-47e10478da44","ios":"levelo://app?vid=a893aa3a-8a11-4732-9ef1-47e10478da44"},"vehicle_type_id":"4","last_reported":1684177507,"current_range_meters":16000,"station_id":"ce4bh292rcd13ifvqdf0","pricing_plan_id":"free"},{"bike_id":"d7713585-46da-4941-94ca-093503e02051","system_id":"levelo_inurba_marseille","lat":43.29029,"lon":5.38625,"is_reserved":false,"is_disabled":false,"rental_uris":{"android":"levelo://app?vid=d7713585-46da-4941-94ca-093503e02051","ios":"levelo://app?vid=d7713585-46da-4941-94ca-093503e02051"},"vehicle_type_id":"4","last_reported":1684177507,"current_range_meters":31200,"station_id":"","pricing_plan_id":"free"},{"bike_id":"77b0b328-ea30-457d-9fac-493407192c66","system_id":"levelo_inurba_marseille","lat":43.290336,"lon":5.386425,"is_reserved":false,"is_disabled":false,"rental_uris":{"android":"levelo://app?vid=77b0b328-ea30-457d-9fac-493407192c66","ios":"levelo://app?vid=77b0b328-ea30-457d-9fac-493407192c66"},"vehicle_type_id":"4","last_reported":1684177507,"current_range_meters":20400,"station_id":"ce4bh4p2rcd13ifvqe0g","pricing_plan_id":"free"},{"bike_id":"2867b053-34c5-4b12-ba56-df9ed7451427","system_id":"levelo_inurba_marseille","lat":43.290336,"lon":5.386425,"is_reserved":false,"is_disabled":false,"rental_uris":{"android":"levelo://app?vid=2867b053-34c5-4b12-ba56-df9ed7451427","ios":"levelo://app?vid=2867b053-34c5-4b12-ba56-df9ed7451427"},"vehicle_type_id":"4","last_reported":1684177507,"current_range_meters":5200,"station_id":"ce4bh4p2rcd13ifvqe0g","pricing_plan_id":"free"},{"bike_id":"673b6362-aef5-48f3-be5e-ef3e3825bc07","system_id":"levelo_inurba_marseille","lat":43.28613,"lon":5.37059,"is_reserved":false,"is_disabled":false,"rental_uris":{"android":"levelo://app?vid=673b6362-aef5-48f3-be5e-ef3e3825bc07","ios":"levelo://app?vid=673b6362-aef5-48f3-be5e-ef3e3825bc07"},"vehicle_type_id":"4","last_reported":1684177507,"current_range_meters":4000,"station_id":"","pricing_plan_id":"free"},{"bike_id":"70cd5c5c-9ca7-49b4-ae44-e0ce806bffe2","system_id":"levelo_inurba_marseille","lat":43.316447,"lon":5.404321,"is_reserved":false,"is_disabled":false,"rental_uris":{"android":"levelo://app?vid=70cd5c5c-9ca7-49b4-ae44-e0ce806bffe2","ios":"levelo://app?vid=70cd5c5c-9ca7-49b4-ae44-e0ce806bffe2"},"vehicle_type_id":"4","last_reported":1684177507,"current_range_meters":4800,"station_id":"","pricing_plan_id":"free"},{"bike_id":"b057bc10-1fd6-4179-9f46-304225790629","system_id":"levelo_inurba_marseille","lat":43.291994,"lon":5.392907,"is_reserved":false,"is_disabled":false,"rental_uris":{"android":"levelo://app?vid=b057bc10-1fd6-4179-9f46-304225790629","ios":"levelo://app?vid=b057bc10-1fd6-4179-9f46-304225790629"},"vehicle_type_id":"4","last_reported":1684177507,"current_range_meters":5600,"station_id":"ce4bh192rcd13ifvqdd0","pricing_plan_id":"free"},{"bike_id":"4a1dc33a-1cc7-483d-955e-7f0ed75ff79a","system_id":"levelo_inurba_marseille","lat":43.291994,"lon":5.392907,"is_reserved":false,"is_disabled":false,"rental_uris":{"android":"levelo://app?vid=4a1dc33a-1cc7-483d-955e-7f0ed75ff79a","ios":"levelo://app?vid=4a1dc33a-1cc7-483d-955e-7f0ed75ff79a"},"vehicle_type_id":"4","last_reported":1684177507,"current_range_meters":29600,"station_id":"ce4bh192rcd13ifvqdd0","pricing_plan_id":"free"},{"bike_id":"91d10efa-f5c0-468c-8c23-dd728787f52c","system_id":"levelo_inurba_marseille","lat":43.291994,"lon":5.392907,"is_reserved":false,"is_disabled":false,"rental_uris":{"android":"levelo://app?vid=91d10efa-f5c0-468c-8c23-dd728787f52c","ios":"levelo://app?vid=91d10efa-f5c0-468c-8c23-dd728787f52c"},"vehicle_type_id":"4","last_reported":1684177507,"current_range_meters":27600,"station_id":"ce4bh192rcd13ifvqdd0","pricing_plan_id":"free"},{"bike_id":"75a013cb-3619-473e-8293-281855dd86e3","system_id":"levelo_inurba_marseille","lat":43.3302,"lon":5.39753,"is_reserved":false,"is_disabled":false,"rental_uris":{"android":"levelo://app?vid=75a013cb-3619-473e-8293-281855dd86e3","ios":"levelo://app?vid=75a013cb-3619-473e-8293-281855dd86e3"},"vehicle_type_id":"4","last_reported":1684177507,"current_range_meters":21600,"station_id":"","pricing_plan_id":"free"},{"bike_id":"84a6cafb-20e0-4a3a-8cbc-b5459a59de3d","system_id":"levelo_inurba_marseille","lat":43.284534,"lon":5.358662,"is_reserved":false,"is_disabled":false,"rental_uris":{"android":"levelo://app?vid=84a6cafb-20e0-4a3a-8cbc-b5459a59de3d","ios":"levelo://app?vid=84a6cafb-20e0-4a3a-8cbc-b5459a59de3d"},"vehicle_type_id":"4","last_reported":1684177507,"current_range_meters":27200,"station_id":"ce4bhah2rcd13ifvqei0","pricing_plan_id":"free"},{"bike_id":"14225d95-0809-4d1c-932b-6940116a5a01","system_id":"levelo_inurba_marseille","lat":43.284534,"lon":5.358662,"is_reserved":false,"is_disabled":false,"rental_uris":{"android":"levelo://app?vid=14225d95-0809-4d1c-932b-6940116a5a01","ios":"levelo://app?vid=14225d95-0809-4d1c-932b-6940116a5a01"},"vehicle_type_id":"4","last_reported":1684177507,"current_range_meters":8400,"station_id":"ce4bhah2rcd13ifvqei0","pricing_plan_id":"free"},{"bike_id":"ab71db90-45eb-45c9-b4e0-ae6149c1fd53","system_id":"levelo_inurba_marseille","lat":43.284534,"lon":5.358662,"is_reserved":false,"is_disabled":false,"rental_uris":{"android":"levelo://app?vid=ab71db90-45eb-45c9-b4e0-ae6149c1fd53","ios":"levelo://app?vid=ab71db90-45eb-45c9-b4e0-ae6149c1fd53"},"vehicle_type_id":"4","last_reported":1684177507,"current_range_meters":4000,"station_id":"ce4bhah2rcd13ifvqei0","pricing_plan_id":"free"},{"bike_id":"f284ab26-209f-4e96-affb-4da1015d0eff","system_id":"levelo_inurba_marseille","lat":43.284534,"lon":5.358662,"is_reserved":false,"is_disabled":false,"rental_uris":{"android":"levelo://app?vid=f284ab26-209f-4e96-affb-4da1015d0eff","ios":"levelo://app?vid=f284ab26-209f-4e96-affb-4da1015d0eff"},"vehicle_type_id":"4","last_reported":1684177507,"current_range_meters":19200,"station_id":"ce4bhah2rcd13ifvqei0","pricing_plan_id":"free"},{"bike_id":"1a1fedfb-bc1b-4438-8983-b7abc439a0a2","system_id":"levelo_inurba_marseille","lat":43.284534,"lon":5.358662,"is_reserved":false,"is_disabled":false,"rental_uris":{"android":"levelo://app?vid=1a1fedfb-bc1b-4438-8983-b7abc439a0a2","ios":"levelo://app?vid=1a1fedfb-bc1b-4438-8983-b7abc439a0a2"},"vehicle_type_id":"4","last_reported":1684177507,"current_range_meters":2800,"station_id":"ce4bhah2rcd13ifvqei0","pricing_plan_id":"free"},{"bike_id":"754fba57-fb40-4e21-96df-867e8ee708f2","system_id":"levelo_inurba_marseille","lat":43.284534,"lon":5.358662,"is_reserved":false,"is_disabled":false,"rental_uris":{"android":"levelo://app?vid=754fba57-fb40-4e21-96df-867e8ee708f2","ios":"levelo://app?vid=754fba57-fb40-4e21-96df-867e8ee708f2"},"vehicle_type_id":"4","last_reported":1684177507,"current_range_meters":0,"station_id":"ce4bhah2rcd13ifvqei0","pricing_plan_id":"free"},{"bike_id":"f5db6993-8753-42ea-a5cf-414f4b2bfce5","system_id":"levelo_inurba_marseille","lat":43.284534,"lon":5.358662,"is_reserved":false,"is_disabled":false,"rental_uris":{"android":"levelo://app?vid=f5db6993-8753-42ea-a5cf-414f4b2bfce5","ios":"levelo://app?vid=f5db6993-8753-42ea-a5cf-414f4b2bfce5"},"vehicle_type_id":"4","last_reported":1684177507,"current_range_meters":19200,"station_id":"ce4bhah2rcd13ifvqei0","pricing_plan_id":"free"},{"bike_id":"fe0a48d0-5cfb-41dc-9318-dde0d3a6a311","system_id":"levelo_inurba_marseille","lat":43.284534,"lon":5.358662,"is_reserved":false,"is_disabled":false,"rental_uris":{"android":"levelo://app?vid=fe0a48d0-5cfb-41dc-9318-dde0d3a6a311","ios":"levelo://app?vid=fe0a48d0-5cfb-41dc-9318-dde0d3a6a311"},"vehicle_type_id":"4","last_reported":1684177507,"current_range_meters":9600,"station_id":"ce4bhah2rcd13ifvqei0","pricing_plan_id":"free"},{"bike_id":"2cf4b41e-bedc-4825-a7da-3cbde0c261d8","system_id":"levelo_inurba_marseille","lat":43.284534,"lon":5.358662,"is_reserved":false,"is_disabled":false,"rental_uris":{"android":"levelo://app?vid=2cf4b41e-bedc-4825-a7da-3cbde0c261d8","ios":"levelo://app?vid=2cf4b41e-bedc-4825-a7da-3cbde0c261d8"},"vehicle_type_id":"4","last_reported":1684177507,"current_range_meters":27200,"station_id":"ce4bhah2rcd13ifvqei0","pricing_plan_id":"free"},{"bike_id":"5a64992d-4f81-4576-9167-4fdf51d97a63","system_id":"levelo_inurba_marseille","lat":43.28619,"lon":5.35103,"is_reserved":false,"is_disabled":false,"rental_uris":{"android":"levelo://app?vid=5a64992d-4f81-4576-9167-4fdf51d97a63","ios":"levelo://app?vid=5a64992d-4f81-4576-9167-4fdf51d97a63"},"vehicle_type_id":"4","last_reported":1684177507,"current_range_meters":30400,"station_id":"","pricing_plan_id":"free"},{"bike_id":"df10c6a6-6b6f-43c5-b71a-d8f59b6dedee","system_id":"levelo_inurba_marseille","lat":43.28617,"lon":5.35108,"is_reserved":false,"is_disabled":false,"rental_uris":{"android":"levelo://app?vid=df10c6a6-6b6f-43c5-b71a-d8f59b6dedee","ios":"levelo://app?vid=df10c6a6-6b6f-43c5-b71a-d8f59b6dedee"},"vehicle_type_id":"4","last_reported":1684177507,"current_range_meters":30800,"station_id":"","pricing_plan_id":"free"},{"bike_id":"1fabdc21-faa3-4a85-847b-3e17a2e16412","system_id":"levelo_inurba_marseille","lat":43.28617,"lon":5.35106,"is_reserved":false,"is_disabled":false,"rental_uris":{"android":"levelo://app?vid=1fabdc21-faa3-4a85-847b-3e17a2e16412","ios":"levelo://app?vid=1fabdc21-faa3-4a85-847b-3e17a2e16412"},"vehicle_type_id":"4","last_reported":1684177507,"current_range_meters":17600,"station_id":"","pricing_plan_id":"free"},{"bike_id":"2d283eda-870b-4f4f-9675-155d89358bfb","system_id":"levelo_inurba_marseille","lat":43.28618,"lon":5.35101,"is_reserved":false,"is_disabled":false,"rental_uris":{"android":"levelo://app?vid=2d283eda-870b-4f4f-9675-155d89358bfb","ios":"levelo://app?vid=2d283eda-870b-4f4f-9675-155d89358bfb"},"vehicle_type_id":"4","last_reported":1684177507,"current_range_meters":31200,"station_id":"","pricing_plan_id":"free"},{"bike_id":"98eadbde-d5ff-4b7d-a2f2-f073c9242783","system_id":"levelo_inurba_marseille","lat":43.28619,"lon":5.35094,"is_reserved":false,"is_disabled":false,"rental_uris":{"android":"levelo://app?vid=98eadbde-d5ff-4b7d-a2f2-f073c9242783","ios":"levelo://app?vid=98eadbde-d5ff-4b7d-a2f2-f073c9242783"},"vehicle_type_id":"4","last_reported":1684177507,"current_range_meters":25200,"station_id":"","pricing_plan_id":"free"},{"bike_id":"bbd7436b-1f5c-4d85-a8ea-79bcb268f93e","system_id":"levelo_inurba_marseille","lat":43.285856,"lon":5.350771,"is_reserved":false,"is_disabled":false,"rental_uris":{"android":"levelo://app?vid=bbd7436b-1f5c-4d85-a8ea-79bcb268f93e","ios":"levelo://app?vid=bbd7436b-1f5c-4d85-a8ea-79bcb268f93e"},"vehicle_type_id":"4","last_reported":1684177507,"current_range_meters":31200,"station_id":"ce4bhch2rcd13ifvqeug","pricing_plan_id":"free"},{"bike_id":"3a242261-0216-45db-a1b0-f80d4648ccbb","system_id":"levelo_inurba_marseille","lat":43.28618,"lon":5.35094,"is_reserved":false,"is_disabled":false,"rental_uris":{"android":"levelo://app?vid=3a242261-0216-45db-a1b0-f80d4648ccbb","ios":"levelo://app?vid=3a242261-0216-45db-a1b0-f80d4648ccbb"},"vehicle_type_id":"4","last_reported":1684177507,"current_range_meters":27600,"station_id":"","pricing_plan_id":"free"},{"bike_id":"7c84b1e2-8962-4679-a840-ae274eec1961","system_id":"levelo_inurba_marseille","lat":43.28617,"lon":5.35097,"is_reserved":false,"is_disabled":false,"rental_uris":{"android":"levelo://app?vid=7c84b1e2-8962-4679-a840-ae274eec1961","ios":"levelo://app?vid=7c84b1e2-8962-4679-a840-ae274eec1961"},"vehicle_type_id":"4","last_reported":1684177507,"current_range_meters":20400,"station_id":"","pricing_plan_id":"free"},{"bike_id":"28bfd4b4-deeb-41fa-902d-d824483a1341","system_id":"levelo_inurba_marseille","lat":43.28615,"lon":5.35101,"is_reserved":false,"is_disabled":false,"rental_uris":{"android":"levelo://app?vid=28bfd4b4-deeb-41fa-902d-d824483a1341","ios":"levelo://app?vid=28bfd4b4-deeb-41fa-902d-d824483a1341"},"vehicle_type_id":"4","last_reported":1684177507,"current_range_meters":29600,"station_id":"","pricing_plan_id":"free"},{"bike_id":"8dd6de62-8b81-4c0f-99aa-5b6ffc0f7c6f","system_id":"levelo_inurba_marseille","lat":43.286151,"lon":5.351006,"is_reserved":false,"is_disabled":false,"rental_uris":{"android":"levelo://app?vid=8dd6de62-8b81-4c0f-99aa-5b6ffc0f7c6f","ios":"levelo://app?vid=8dd6de62-8b81-4c0f-99aa-5b6ffc0f7c6f"},"vehicle_type_id":"4","last_reported":1684177507,"current_range_meters":9600,"station_id":"ce4bhbp2rcd13ifvqerg","pricing_plan_id":"free"},{"bike_id":"ad843652-135d-4e99-860d-f84ed4896230","system_id":"levelo_inurba_marseille","lat":43.28614,"lon":5.35103,"is_reserved":false,"is_disabled":false,"rental_uris":{"android":"levelo://app?vid=ad843652-135d-4e99-860d-f84ed4896230","ios":"levelo://app?vid=ad843652-135d-4e99-860d-f84ed4896230"},"vehicle_type_id":"4","last_reported":1684177507,"current_range_meters":20000,"station_id":"","pricing_plan_id":"free"},{"bike_id":"2b665aec-e325-45fd-bbae-d3c8aca91a22","system_id":"levelo_inurba_marseille","lat":43.28617,"lon":5.3509,"is_reserved":false,"is_disabled":false,"rental_uris":{"android":"levelo://app?vid=2b665aec-e325-45fd-bbae-d3c8aca91a22","ios":"levelo://app?vid=2b665aec-e325-45fd-bbae-d3c8aca91a22"},"vehicle_type_id":"4","last_reported":1684177507,"current_range_meters":20800,"station_id":"","pricing_plan_id":"free"},{"bike_id":"a83cb1f1-b940-457e-a3d1-2eaa79d8dec1","system_id":"levelo_inurba_marseille","lat":43.28612,"lon":5.35104,"is_reserved":false,"is_disabled":false,"rental_uris":{"android":"levelo://app?vid=a83cb1f1-b940-457e-a3d1-2eaa79d8dec1","ios":"levelo://app?vid=a83cb1f1-b940-457e-a3d1-2eaa79d8dec1"},"vehicle_type_id":"4","last_reported":1684177507,"current_range_meters":6400,"station_id":"","pricing_plan_id":"free"},{"bike_id":"5110c4ba-4653-4a8b-a5ae-20f4280c9edd","system_id":"levelo_inurba_marseille","lat":43.28614,"lon":5.35097,"is_reserved":false,"is_disabled":false,"rental_uris":{"android":"levelo://app?vid=5110c4ba-4653-4a8b-a5ae-20f4280c9edd","ios":"levelo://app?vid=5110c4ba-4653-4a8b-a5ae-20f4280c9edd"},"vehicle_type_id":"4","last_reported":1684177507,"current_range_meters":1200,"station_id":"","pricing_plan_id":"free"},{"bike_id":"c8d10fac-b0cb-4047-a891-7a0e801041f4","system_id":"levelo_inurba_marseille","lat":43.28615,"lon":5.35093,"is_reserved":false,"is_disabled":false,"rental_uris":{"android":"levelo://app?vid=c8d10fac-b0cb-4047-a891-7a0e801041f4","ios":"levelo://app?vid=c8d10fac-b0cb-4047-a891-7a0e801041f4"},"vehicle_type_id":"4","last_reported":1684177507,"current_range_meters":17200,"station_id":"","pricing_plan_id":"free"},{"bike_id":"4da944e7-4bf8-4a1f-a9fe-9a3bde81f918","system_id":"levelo_inurba_marseille","lat":43.285856,"lon":5.350771,"is_reserved":false,"is_disabled":false,"rental_uris":{"android":"levelo://app?vid=4da944e7-4bf8-4a1f-a9fe-9a3bde81f918","ios":"levelo://app?vid=4da944e7-4bf8-4a1f-a9fe-9a3bde81f918"},"vehicle_type_id":"4","last_reported":1684177507,"current_range_meters":20800,"station_id":"ce4bhch2rcd13ifvqeug","pricing_plan_id":"free"},{"bike_id":"3c34687f-2d3a-4ab9-ad4a-f37f3ffd4f2d","system_id":"levelo_inurba_marseille","lat":43.28613,"lon":5.35094,"is_reserved":false,"is_disabled":false,"rental_uris":{"android":"levelo://app?vid=3c34687f-2d3a-4ab9-ad4a-f37f3ffd4f2d","ios":"levelo://app?vid=3c34687f-2d3a-4ab9-ad4a-f37f3ffd4f2d"},"vehicle_type_id":"4","last_reported":1684177507,"current_range_meters":26000,"station_id":"","pricing_plan_id":"free"},{"bike_id":"13097756-b7e8-4515-8c93-eed717af7a29","system_id":"levelo_inurba_marseille","lat":43.28612,"lon":5.35094,"is_reserved":false,"is_disabled":false,"rental_uris":{"android":"levelo://app?vid=13097756-b7e8-4515-8c93-eed717af7a29","ios":"levelo://app?vid=13097756-b7e8-4515-8c93-eed717af7a29"},"vehicle_type_id":"4","last_reported":1684177507,"current_range_meters":30400,"station_id":"","pricing_plan_id":"free"},{"bike_id":"62c36584-6e60-45b7-a042-f0f665004146","system_id":"levelo_inurba_marseille","lat":43.295713,"lon":5.399639,"is_reserved":false,"is_disabled":false,"rental_uris":{"android":"levelo://app?vid=62c36584-6e60-45b7-a042-f0f665004146","ios":"levelo://app?vid=62c36584-6e60-45b7-a042-f0f665004146"},"vehicle_type_id":"4","last_reported":1684177507,"current_range_meters":0,"station_id":"ce4bh312rcd13ifvqdj0","pricing_plan_id":"free"},{"bike_id":"0bcf236e-fe3a-490b-afce-31ff5aa9015c","system_id":"levelo_inurba_marseille","lat":43.286595,"lon":5.386795,"is_reserved":false,"is_disabled":false,"rental_uris":{"android":"levelo://app?vid=0bcf236e-fe3a-490b-afce-31ff5aa9015c","ios":"levelo://app?vid=0bcf236e-fe3a-490b-afce-31ff5aa9015c"},"vehicle_type_id":"4","last_reported":1684177507,"current_range_meters":13200,"station_id":"ce4bh492rcd13ifvqdug","pricing_plan_id":"free"},{"bike_id":"17e7dc15-428d-4c23-86d8-98285bd02285","system_id":"levelo_inurba_marseille","lat":43.286595,"lon":5.386795,"is_reserved":false,"is_disabled":false,"rental_uris":{"android":"levelo://app?vid=17e7dc15-428d-4c23-86d8-98285bd02285","ios":"levelo://app?vid=17e7dc15-428d-4c23-86d8-98285bd02285"},"vehicle_type_id":"4","last_reported":1684177507,"current_range_meters":9600,"station_id":"ce4bh492rcd13ifvqdug","pricing_plan_id":"free"},{"bike_id":"7c2566a0-db64-4f8d-8530-1ada6bf1bd13","system_id":"levelo_inurba_marseille","lat":43.32336,"lon":5.4062,"is_reserved":false,"is_disabled":false,"rental_uris":{"android":"levelo://app?vid=7c2566a0-db64-4f8d-8530-1ada6bf1bd13","ios":"levelo://app?vid=7c2566a0-db64-4f8d-8530-1ada6bf1bd13"},"vehicle_type_id":"4","last_reported":1684177507,"current_range_meters":7200,"station_id":"ce4bhq92rcd13ifvqhjg","pricing_plan_id":"free"},{"bike_id":"fa472c99-f4cf-47e3-9ce8-da1c4074cf69","system_id":"levelo_inurba_marseille","lat":43.32336,"lon":5.4062,"is_reserved":false,"is_disabled":false,"rental_uris":{"android":"levelo://app?vid=fa472c99-f4cf-47e3-9ce8-da1c4074cf69","ios":"levelo://app?vid=fa472c99-f4cf-47e3-9ce8-da1c4074cf69"},"vehicle_type_id":"4","last_reported":1684177507,"current_range_meters":12400,"station_id":"ce4bhq92rcd13ifvqhjg","pricing_plan_id":"free"},{"bike_id":"8a480d22-7309-4fb5-9034-3769c4658cf7","system_id":"levelo_inurba_marseille","lat":43.284787,"lon":5.384116,"is_reserved":false,"is_disabled":false,"rental_uris":{"android":"levelo://app?vid=8a480d22-7309-4fb5-9034-3769c4658cf7","ios":"levelo://app?vid=8a480d22-7309-4fb5-9034-3769c4658cf7"},"vehicle_type_id":"4","last_reported":1684177507,"current_range_meters":0,"station_id":"ce4bh512rcd13ifvqe3g","pricing_plan_id":"free"},{"bike_id":"015bb856-5538-4c3a-b3df-8b94f0a3aa3b","system_id":"levelo_inurba_marseille","lat":43.284787,"lon":5.384116,"is_reserved":false,"is_disabled":false,"rental_uris":{"android":"levelo://app?vid=015bb856-5538-4c3a-b3df-8b94f0a3aa3b","ios":"levelo://app?vid=015bb856-5538-4c3a-b3df-8b94f0a3aa3b"},"vehicle_type_id":"4","last_reported":1684177507,"current_range_meters":2000,"station_id":"ce4bh512rcd13ifvqe3g","pricing_plan_id":"free"},{"bike_id":"55a901e9-a075-470a-afa8-dd3f1684c033","system_id":"levelo_inurba_marseille","lat":43.288501,"lon":5.393087,"is_reserved":false,"is_disabled":false,"rental_uris":{"android":"levelo://app?vid=55a901e9-a075-470a-afa8-dd3f1684c033","ios":"levelo://app?vid=55a901e9-a075-470a-afa8-dd3f1684c033"},"vehicle_type_id":"4","last_reported":1684177507,"current_range_meters":17600,"station_id":"ce4bh2p2rcd13ifvqdi0","pricing_plan_id":"free"},{"bike_id":"d3fc5830-70e6-421e-bbb1-303900ecf9d5","system_id":"levelo_inurba_marseille","lat":43.284787,"lon":5.384116,"is_reserved":false,"is_disabled":false,"rental_uris":{"android":"levelo://app?vid=d3fc5830-70e6-421e-bbb1-303900ecf9d5","ios":"levelo://app?vid=d3fc5830-70e6-421e-bbb1-303900ecf9d5"},"vehicle_type_id":"4","last_reported":1684177507,"current_range_meters":2400,"station_id":"ce4bh512rcd13ifvqe3g","pricing_plan_id":"free"},{"bike_id":"1b6c2e93-41a6-4c5e-8b34-b482bec9a52f","system_id":"levelo_inurba_marseille","lat":43.288497,"lon":5.393089,"is_reserved":false,"is_disabled":false,"rental_uris":{"android":"levelo://app?vid=1b6c2e93-41a6-4c5e-8b34-b482bec9a52f","ios":"levelo://app?vid=1b6c2e93-41a6-4c5e-8b34-b482bec9a52f"},"vehicle_type_id":"4","last_reported":1684177507,"current_range_meters":8800,"station_id":"ce4bh2p2rcd13ifvqdi0","pricing_plan_id":"free"},{"bike_id":"dae20eb4-8eb0-41a9-8aa4-cc90108bb8cc","system_id":"levelo_inurba_marseille","lat":43.288497,"lon":5.393089,"is_reserved":false,"is_disabled":false,"rental_uris":{"android":"levelo://app?vid=dae20eb4-8eb0-41a9-8aa4-cc90108bb8cc","ios":"levelo://app?vid=dae20eb4-8eb0-41a9-8aa4-cc90108bb8cc"},"vehicle_type_id":"4","last_reported":1684177507,"current_range_meters":5600,"station_id":"ce4bh2p2rcd13ifvqdi0","pricing_plan_id":"free"},{"bike_id":"8b7bb9fd-73fb-41be-868a-86b4fd445df3","system_id":"levelo_inurba_marseille","lat":43.284217,"lon":5.349697,"is_reserved":false,"is_disabled":false,"rental_uris":{"android":"levelo://app?vid=8b7bb9fd-73fb-41be-868a-86b4fd445df3","ios":"levelo://app?vid=8b7bb9fd-73fb-41be-868a-86b4fd445df3"},"vehicle_type_id":"4","last_reported":1684177507,"current_range_meters":32000,"station_id":"ce4bhbh2rcd13ifvqepg","pricing_plan_id":"free"},{"bike_id":"a1e668d0-8824-45fb-b9ba-207c0d07a5df","system_id":"levelo_inurba_marseille","lat":43.28431,"lon":5.35001,"is_reserved":false,"is_disabled":false,"rental_uris":{"android":"levelo://app?vid=a1e668d0-8824-45fb-b9ba-207c0d07a5df","ios":"levelo://app?vid=a1e668d0-8824-45fb-b9ba-207c0d07a5df"},"vehicle_type_id":"4","last_reported":1684177507,"current_range_meters":24000,"station_id":"ce4bhbh2rcd13ifvqepg","pricing_plan_id":"free"},{"bike_id":"ff77120a-b002-44a3-b71d-f94a5d417301","system_id":"levelo_inurba_marseille","lat":43.283469,"lon":5.381075,"is_reserved":false,"is_disabled":false,"rental_uris":{"android":"levelo://app?vid=ff77120a-b002-44a3-b71d-f94a5d417301","ios":"levelo://app?vid=ff77120a-b002-44a3-b71d-f94a5d417301"},"vehicle_type_id":"4","last_reported":1684177507,"current_range_meters":14800,"station_id":"ce4bh412rcd13ifvqdr0","pricing_plan_id":"free"},{"bike_id":"9651c931-8a89-43a6-88ac-6d02385f536e","system_id":"levelo_inurba_marseille","lat":43.28427,"lon":5.34996,"is_reserved":false,"is_disabled":false,"rental_uris":{"android":"levelo://app?vid=9651c931-8a89-43a6-88ac-6d02385f536e","ios":"levelo://app?vid=9651c931-8a89-43a6-88ac-6d02385f536e"},"vehicle_type_id":"4","last_reported":1684177507,"current_range_meters":0,"station_id":"ce4bhbh2rcd13ifvqepg","pricing_plan_id":"free"},{"bike_id":"25d3f0c2-a677-47ae-8627-c6a36dd0e124","system_id":"levelo_inurba_marseille","lat":43.284219,"lon":5.3497,"is_reserved":false,"is_disabled":false,"rental_uris":{"android":"levelo://app?vid=25d3f0c2-a677-47ae-8627-c6a36dd0e124","ios":"levelo://app?vid=25d3f0c2-a677-47ae-8627-c6a36dd0e124"},"vehicle_type_id":"4","last_reported":1684177507,"current_range_meters":28400,"station_id":"ce4bhbh2rcd13ifvqepg","pricing_plan_id":"free"},{"bike_id":"62eb235e-5f9c-4982-a521-06ac25edfd39","system_id":"levelo_inurba_marseille","lat":43.28426,"lon":5.34992,"is_reserved":false,"is_disabled":false,"rental_uris":{"android":"levelo://app?vid=62eb235e-5f9c-4982-a521-06ac25edfd39","ios":"levelo://app?vid=62eb235e-5f9c-4982-a521-06ac25edfd39"},"vehicle_type_id":"4","last_reported":1684177507,"current_range_meters":20400,"station_id":"","pricing_plan_id":"free"},{"bike_id":"9e669dce-c083-4c21-bca9-c56f1097660d","system_id":"levelo_inurba_marseille","lat":43.28426,"lon":5.34989,"is_reserved":false,"is_disabled":false,"rental_uris":{"android":"levelo://app?vid=9e669dce-c083-4c21-bca9-c56f1097660d","ios":"levelo://app?vid=9e669dce-c083-4c21-bca9-c56f1097660d"},"vehicle_type_id":"4","last_reported":1684177507,"current_range_meters":28800,"station_id":"ce4bhbh2rcd13ifvqepg","pricing_plan_id":"free"},{"bike_id":"15998d67-37df-4e9a-ba40-bc0d505dd617","system_id":"levelo_inurba_marseille","lat":43.284219,"lon":5.3497,"is_reserved":false,"is_disabled":false,"rental_uris":{"android":"levelo://app?vid=15998d67-37df-4e9a-ba40-bc0d505dd617","ios":"levelo://app?vid=15998d67-37df-4e9a-ba40-bc0d505dd617"},"vehicle_type_id":"4","last_reported":1684177507,"current_range_meters":13600,"station_id":"ce4bhbh2rcd13ifvqepg","pricing_plan_id":"free"},{"bike_id":"858374cb-cfee-4f68-a770-bd6e01270211","system_id":"levelo_inurba_marseille","lat":43.284219,"lon":5.3497,"is_reserved":false,"is_disabled":false,"rental_uris":{"android":"levelo://app?vid=858374cb-cfee-4f68-a770-bd6e01270211","ios":"levelo://app?vid=858374cb-cfee-4f68-a770-bd6e01270211"},"vehicle_type_id":"4","last_reported":1684177507,"current_range_meters":30000,"station_id":"ce4bhbh2rcd13ifvqepg","pricing_plan_id":"free"},{"bike_id":"b3c5cdf8-ed54-40f2-bd35-edcd7fcdf94c","system_id":"levelo_inurba_marseille","lat":43.284219,"lon":5.3497,"is_reserved":false,"is_disabled":false,"rental_uris":{"android":"levelo://app?vid=b3c5cdf8-ed54-40f2-bd35-edcd7fcdf94c","ios":"levelo://app?vid=b3c5cdf8-ed54-40f2-bd35-edcd7fcdf94c"},"vehicle_type_id":"4","last_reported":1684177507,"current_range_meters":1200,"station_id":"ce4bhbh2rcd13ifvqepg","pricing_plan_id":"free"},{"bike_id":"422e969b-de68-4e39-b3ca-0164d4efd97f","system_id":"levelo_inurba_marseille","lat":43.284219,"lon":5.3497,"is_reserved":false,"is_disabled":false,"rental_uris":{"android":"levelo://app?vid=422e969b-de68-4e39-b3ca-0164d4efd97f","ios":"levelo://app?vid=422e969b-de68-4e39-b3ca-0164d4efd97f"},"vehicle_type_id":"4","last_reported":1684177507,"current_range_meters":30000,"station_id":"ce4bhbh2rcd13ifvqepg","pricing_plan_id":"free"},{"bike_id":"b557dae2-3d4d-44b6-a788-6ef45dc42c42","system_id":"levelo_inurba_marseille","lat":43.284219,"lon":5.3497,"is_reserved":false,"is_disabled":false,"rental_uris":{"android":"levelo://app?vid=b557dae2-3d4d-44b6-a788-6ef45dc42c42","ios":"levelo://app?vid=b557dae2-3d4d-44b6-a788-6ef45dc42c42"},"vehicle_type_id":"4","last_reported":1684177507,"current_range_meters":16800,"station_id":"ce4bhbh2rcd13ifvqepg","pricing_plan_id":"free"},{"bike_id":"d10b1c59-a278-44a7-994f-61b6779e4d5d","system_id":"levelo_inurba_marseille","lat":43.284217,"lon":5.349697,"is_reserved":false,"is_disabled":false,"rental_uris":{"android":"levelo://app?vid=d10b1c59-a278-44a7-994f-61b6779e4d5d","ios":"levelo://app?vid=d10b1c59-a278-44a7-994f-61b6779e4d5d"},"vehicle_type_id":"4","last_reported":1684177507,"current_range_meters":30000,"station_id":"ce4bhbh2rcd13ifvqepg","pricing_plan_id":"free"},{"bike_id":"0807e324-220f-4e7d-9d4d-aa719ff627e9","system_id":"levelo_inurba_marseille","lat":43.284217,"lon":5.349697,"is_reserved":false,"is_disabled":false,"rental_uris":{"android":"levelo://app?vid=0807e324-220f-4e7d-9d4d-aa719ff627e9","ios":"levelo://app?vid=0807e324-220f-4e7d-9d4d-aa719ff627e9"},"vehicle_type_id":"4","last_reported":1684177507,"current_range_meters":30800,"station_id":"ce4bhbh2rcd13ifvqepg","pricing_plan_id":"free"},{"bike_id":"bbb0c2bc-de98-45ab-816b-b14b9e0389f1","system_id":"levelo_inurba_marseille","lat":43.28422,"lon":5.34978,"is_reserved":false,"is_disabled":false,"rental_uris":{"android":"levelo://app?vid=bbb0c2bc-de98-45ab-816b-b14b9e0389f1","ios":"levelo://app?vid=bbb0c2bc-de98-45ab-816b-b14b9e0389f1"},"vehicle_type_id":"4","last_reported":1684177507,"current_range_meters":19600,"station_id":"ce4bhbh2rcd13ifvqepg","pricing_plan_id":"free"},{"bike_id":"e50ecd6f-e855-496f-8a8e-f94ead1768c9","system_id":"levelo_inurba_marseille","lat":43.284217,"lon":5.349697,"is_reserved":false,"is_disabled":false,"rental_uris":{"android":"levelo://app?vid=e50ecd6f-e855-496f-8a8e-f94ead1768c9","ios":"levelo://app?vid=e50ecd6f-e855-496f-8a8e-f94ead1768c9"},"vehicle_type_id":"4","last_reported":1684177507,"current_range_meters":20800,"station_id":"ce4bhbh2rcd13ifvqepg","pricing_plan_id":"free"},{"bike_id":"2d5de33f-8a72-4225-aa5b-0b90e4e03758","system_id":"levelo_inurba_marseille","lat":43.284217,"lon":5.349697,"is_reserved":false,"is_disabled":false,"rental_uris":{"android":"levelo://app?vid=2d5de33f-8a72-4225-aa5b-0b90e4e03758","ios":"levelo://app?vid=2d5de33f-8a72-4225-aa5b-0b90e4e03758"},"vehicle_type_id":"4","last_reported":1684177507,"current_range_meters":32000,"station_id":"ce4bhbh2rcd13ifvqepg","pricing_plan_id":"free"},{"bike_id":"c07c3e35-d52d-4b10-9a22-49a78bfbbfb8","system_id":"levelo_inurba_marseille","lat":43.284217,"lon":5.349697,"is_reserved":false,"is_disabled":false,"rental_uris":{"android":"levelo://app?vid=c07c3e35-d52d-4b10-9a22-49a78bfbbfb8","ios":"levelo://app?vid=c07c3e35-d52d-4b10-9a22-49a78bfbbfb8"},"vehicle_type_id":"4","last_reported":1684177507,"current_range_meters":28800,"station_id":"ce4bhbh2rcd13ifvqepg","pricing_plan_id":"free"},{"bike_id":"df7de2f6-a6f6-4c34-96f2-f1a8e36d1aea","system_id":"levelo_inurba_marseille","lat":43.284219,"lon":5.3497,"is_reserved":false,"is_disabled":false,"rental_uris":{"android":"levelo://app?vid=df7de2f6-a6f6-4c34-96f2-f1a8e36d1aea","ios":"levelo://app?vid=df7de2f6-a6f6-4c34-96f2-f1a8e36d1aea"},"vehicle_type_id":"4","last_reported":1684177507,"current_range_meters":31200,"station_id":"ce4bhbh2rcd13ifvqepg","pricing_plan_id":"free"},{"bike_id":"3b300651-be76-4054-b6e5-2981d85f0620","system_id":"levelo_inurba_marseille","lat":43.284217,"lon":5.349697,"is_reserved":false,"is_disabled":false,"rental_uris":{"android":"levelo://app?vid=3b300651-be76-4054-b6e5-2981d85f0620","ios":"levelo://app?vid=3b300651-be76-4054-b6e5-2981d85f0620"},"vehicle_type_id":"4","last_reported":1684177507,"current_range_meters":26800,"station_id":"ce4bhbh2rcd13ifvqepg","pricing_plan_id":"free"},{"bike_id":"a001094c-45ce-4fcb-9ddd-deba24a0194d","system_id":"levelo_inurba_marseille","lat":43.284219,"lon":5.3497,"is_reserved":false,"is_disabled":false,"rental_uris":{"android":"levelo://app?vid=a001094c-45ce-4fcb-9ddd-deba24a0194d","ios":"levelo://app?vid=a001094c-45ce-4fcb-9ddd-deba24a0194d"},"vehicle_type_id":"4","last_reported":1684177507,"current_range_meters":12800,"station_id":"ce4bhbh2rcd13ifvqepg","pricing_plan_id":"free"},{"bike_id":"88dde1fc-4a7b-453b-b569-c51ef30cf14c","system_id":"levelo_inurba_marseille","lat":43.284217,"lon":5.349697,"is_reserved":false,"is_disabled":false,"rental_uris":{"android":"levelo://app?vid=88dde1fc-4a7b-453b-b569-c51ef30cf14c","ios":"levelo://app?vid=88dde1fc-4a7b-453b-b569-c51ef30cf14c"},"vehicle_type_id":"4","last_reported":1684177507,"current_range_meters":29200,"station_id":"ce4bhbh2rcd13ifvqepg","pricing_plan_id":"free"},{"bike_id":"72cbb59e-93ed-48a8-9b5c-762f32e3ae96","system_id":"levelo_inurba_marseille","lat":43.284219,"lon":5.3497,"is_reserved":false,"is_disabled":false,"rental_uris":{"android":"levelo://app?vid=72cbb59e-93ed-48a8-9b5c-762f32e3ae96","ios":"levelo://app?vid=72cbb59e-93ed-48a8-9b5c-762f32e3ae96"},"vehicle_type_id":"4","last_reported":1684177507,"current_range_meters":31600,"station_id":"ce4bhbh2rcd13ifvqepg","pricing_plan_id":"free"},{"bike_id":"b90abf6e-4f78-4341-8547-efb6d0281c25","system_id":"levelo_inurba_marseille","lat":43.284217,"lon":5.349697,"is_reserved":false,"is_disabled":false,"rental_uris":{"android":"levelo://app?vid=b90abf6e-4f78-4341-8547-efb6d0281c25","ios":"levelo://app?vid=b90abf6e-4f78-4341-8547-efb6d0281c25"},"vehicle_type_id":"4","last_reported":1684177507,"current_range_meters":30800,"station_id":"ce4bhbh2rcd13ifvqepg","pricing_plan_id":"free"},{"bike_id":"8265ffbd-3992-4cab-aa87-1b3a4cc336ba","system_id":"levelo_inurba_marseille","lat":43.284217,"lon":5.349697,"is_reserved":false,"is_disabled":false,"rental_uris":{"android":"levelo://app?vid=8265ffbd-3992-4cab-aa87-1b3a4cc336ba","ios":"levelo://app?vid=8265ffbd-3992-4cab-aa87-1b3a4cc336ba"},"vehicle_type_id":"4","last_reported":1684177507,"current_range_meters":31200,"station_id":"ce4bhbh2rcd13ifvqepg","pricing_plan_id":"free"},{"bike_id":"4308e5dd-65b5-4891-bed5-2457cf84e029","system_id":"levelo_inurba_marseille","lat":43.284217,"lon":5.349697,"is_reserved":false,"is_disabled":false,"rental_uris":{"android":"levelo://app?vid=4308e5dd-65b5-4891-bed5-2457cf84e029","ios":"levelo://app?vid=4308e5dd-65b5-4891-bed5-2457cf84e029"},"vehicle_type_id":"4","last_reported":1684177507,"current_range_meters":22800,"station_id":"ce4bhbh2rcd13ifvqepg","pricing_plan_id":"free"},{"bike_id":"4f4af6fe-dc18-4dca-b938-c12f44d9f3ae","system_id":"levelo_inurba_marseille","lat":43.284219,"lon":5.3497,"is_reserved":false,"is_disabled":false,"rental_uris":{"android":"levelo://app?vid=4f4af6fe-dc18-4dca-b938-c12f44d9f3ae","ios":"levelo://app?vid=4f4af6fe-dc18-4dca-b938-c12f44d9f3ae"},"vehicle_type_id":"4","last_reported":1684177507,"current_range_meters":17600,"station_id":"ce4bhbh2rcd13ifvqepg","pricing_plan_id":"free"},{"bike_id":"d89cf7cf-7af7-4f1e-b4b5-a99a2bfee99c","system_id":"levelo_inurba_marseille","lat":43.28416,"lon":5.34975,"is_reserved":false,"is_disabled":false,"rental_uris":{"android":"levelo://app?vid=d89cf7cf-7af7-4f1e-b4b5-a99a2bfee99c","ios":"levelo://app?vid=d89cf7cf-7af7-4f1e-b4b5-a99a2bfee99c"},"vehicle_type_id":"4","last_reported":1684177507,"current_range_meters":8400,"station_id":"ce4bhbh2rcd13ifvqepg","pricing_plan_id":"free"},{"bike_id":"b0d4b5bd-763d-4dac-880b-e1288dec5298","system_id":"levelo_inurba_marseille","lat":43.289363,"lon":5.396322,"is_reserved":false,"is_disabled":false,"rental_uris":{"android":"levelo://app?vid=b0d4b5bd-763d-4dac-880b-e1288dec5298","ios":"levelo://app?vid=b0d4b5bd-763d-4dac-880b-e1288dec5298"},"vehicle_type_id":"4","last_reported":1684177507,"current_range_meters":0,"station_id":"ce4bh3h2rcd13ifvqdn0","pricing_plan_id":"free"},{"bike_id":"a8ccb64c-6258-4307-8d28-299a38e08140","system_id":"levelo_inurba_marseille","lat":43.292724,"lon":5.401131,"is_reserved":false,"is_disabled":false,"rental_uris":{"android":"levelo://app?vid=a8ccb64c-6258-4307-8d28-299a38e08140","ios":"levelo://app?vid=a8ccb64c-6258-4307-8d28-299a38e08140"},"vehicle_type_id":"4","last_reported":1684177507,"current_range_meters":0,"station_id":"ce4bh312rcd13ifvqdk0","pricing_plan_id":"free"},{"bike_id":"65521540-6265-451e-8b45-6e57e3e390db","system_id":"levelo_inurba_marseille","lat":43.283156,"lon":5.350295,"is_reserved":false,"is_disabled":false,"rental_uris":{"android":"levelo://app?vid=65521540-6265-451e-8b45-6e57e3e390db","ios":"levelo://app?vid=65521540-6265-451e-8b45-6e57e3e390db"},"vehicle_type_id":"4","last_reported":1684177507,"current_range_meters":10400,"station_id":"ce4bhbp2rcd13ifvqerg","pricing_plan_id":"free"},{"bike_id":"724a5289-bcc3-4ef7-a94b-394162953111","system_id":"levelo_inurba_marseille","lat":43.282754,"lon":5.350519,"is_reserved":false,"is_disabled":false,"rental_uris":{"android":"levelo://app?vid=724a5289-bcc3-4ef7-a94b-394162953111","ios":"levelo://app?vid=724a5289-bcc3-4ef7-a94b-394162953111"},"vehicle_type_id":"4","last_reported":1684177507,"current_range_meters":31200,"station_id":"ce4bhbp2rcd13ifvqerg","pricing_plan_id":"free"},{"bike_id":"61e17cf2-d5e0-46d9-b4a9-386dd36135b5","system_id":"levelo_inurba_marseille","lat":43.282744,"lon":5.350533,"is_reserved":false,"is_disabled":false,"rental_uris":{"android":"levelo://app?vid=61e17cf2-d5e0-46d9-b4a9-386dd36135b5","ios":"levelo://app?vid=61e17cf2-d5e0-46d9-b4a9-386dd36135b5"},"vehicle_type_id":"4","last_reported":1684177507,"current_range_meters":31200,"station_id":"ce4bhbp2rcd13ifvqerg","pricing_plan_id":"free"},{"bike_id":"77647b68-be27-42db-a73d-4db643761592","system_id":"levelo_inurba_marseille","lat":43.280382,"lon":5.369291,"is_reserved":false,"is_disabled":false,"rental_uris":{"android":"levelo://app?vid=77647b68-be27-42db-a73d-4db643761592","ios":"levelo://app?vid=77647b68-be27-42db-a73d-4db643761592"},"vehicle_type_id":"4","last_reported":1684177507,"current_range_meters":2400,"station_id":"ce4bha12rcd13ifvqef0","pricing_plan_id":"free"},{"bike_id":"1f0ddf90-2e10-4041-be36-26b04f0f8a69","system_id":"levelo_inurba_marseille","lat":43.28039,"lon":5.369297,"is_reserved":false,"is_disabled":false,"rental_uris":{"android":"levelo://app?vid=1f0ddf90-2e10-4041-be36-26b04f0f8a69","ios":"levelo://app?vid=1f0ddf90-2e10-4041-be36-26b04f0f8a69"},"vehicle_type_id":"4","last_reported":1684177507,"current_range_meters":0,"station_id":"ce4bha12rcd13ifvqef0","pricing_plan_id":"free"},{"bike_id":"8ad4500f-4799-4f38-94d4-36fc782ad132","system_id":"levelo_inurba_marseille","lat":43.280382,"lon":5.369291,"is_reserved":false,"is_disabled":false,"rental_uris":{"android":"levelo://app?vid=8ad4500f-4799-4f38-94d4-36fc782ad132","ios":"levelo://app?vid=8ad4500f-4799-4f38-94d4-36fc782ad132"},"vehicle_type_id":"4","last_reported":1684177507,"current_range_meters":31600,"station_id":"ce4bha12rcd13ifvqef0","pricing_plan_id":"free"},{"bike_id":"53f8261a-048a-4ee8-bd81-214ec10faccb","system_id":"levelo_inurba_marseille","lat":43.290412,"lon":5.399633,"is_reserved":false,"is_disabled":false,"rental_uris":{"android":"levelo://app?vid=53f8261a-048a-4ee8-bd81-214ec10faccb","ios":"levelo://app?vid=53f8261a-048a-4ee8-bd81-214ec10faccb"},"vehicle_type_id":"4","last_reported":1684177507,"current_range_meters":4400,"station_id":"ce4bh392rcd13ifvqdm0","pricing_plan_id":"free"},{"bike_id":"4bd34bbe-e1c9-446b-90d3-3e82a8cb3876","system_id":"levelo_inurba_marseille","lat":43.28039,"lon":5.369297,"is_reserved":false,"is_disabled":false,"rental_uris":{"android":"levelo://app?vid=4bd34bbe-e1c9-446b-90d3-3e82a8cb3876","ios":"levelo://app?vid=4bd34bbe-e1c9-446b-90d3-3e82a8cb3876"},"vehicle_type_id":"4","last_reported":1684177507,"current_range_meters":10800,"station_id":"ce4bha12rcd13ifvqef0","pricing_plan_id":"free"},{"bike_id":"0017a9a7-fdc9-4d39-b704-43764c645c1b","system_id":"levelo_inurba_marseille","lat":43.28039,"lon":5.369297,"is_reserved":false,"is_disabled":false,"rental_uris":{"android":"levelo://app?vid=0017a9a7-fdc9-4d39-b704-43764c645c1b","ios":"levelo://app?vid=0017a9a7-fdc9-4d39-b704-43764c645c1b"},"vehicle_type_id":"4","last_reported":1684177507,"current_range_meters":10800,"station_id":"ce4bha12rcd13ifvqef0","pricing_plan_id":"free"},{"bike_id":"19ae72dc-ffd7-452e-8e23-6a1cc31f40bf","system_id":"levelo_inurba_marseille","lat":43.280382,"lon":5.369291,"is_reserved":false,"is_disabled":false,"rental_uris":{"android":"levelo://app?vid=19ae72dc-ffd7-452e-8e23-6a1cc31f40bf","ios":"levelo://app?vid=19ae72dc-ffd7-452e-8e23-6a1cc31f40bf"},"vehicle_type_id":"4","last_reported":1684177507,"current_range_meters":29600,"station_id":"ce4bha12rcd13ifvqef0","pricing_plan_id":"free"},{"bike_id":"7188573f-d82f-4c27-ae6a-6375a830c6cf","system_id":"levelo_inurba_marseille","lat":43.281044,"lon":5.378308,"is_reserved":false,"is_disabled":false,"rental_uris":{"android":"levelo://app?vid=7188573f-d82f-4c27-ae6a-6375a830c6cf","ios":"levelo://app?vid=7188573f-d82f-4c27-ae6a-6375a830c6cf"},"vehicle_type_id":"4","last_reported":1684177507,"current_range_meters":800,"station_id":"ce4bha12rcd13ifvqee0","pricing_plan_id":"free"},{"bike_id":"893fba0a-5e03-42d2-8541-f82645dda73d","system_id":"levelo_inurba_marseille","lat":43.281044,"lon":5.378308,"is_reserved":false,"is_disabled":false,"rental_uris":{"android":"levelo://app?vid=893fba0a-5e03-42d2-8541-f82645dda73d","ios":"levelo://app?vid=893fba0a-5e03-42d2-8541-f82645dda73d"},"vehicle_type_id":"4","last_reported":1684177507,"current_range_meters":20800,"station_id":"ce4bha12rcd13ifvqee0","pricing_plan_id":"free"},{"bike_id":"b333fa2e-bf06-443d-8669-b648fa4c47c9","system_id":"levelo_inurba_marseille","lat":43.281044,"lon":5.378308,"is_reserved":false,"is_disabled":false,"rental_uris":{"android":"levelo://app?vid=b333fa2e-bf06-443d-8669-b648fa4c47c9","ios":"levelo://app?vid=b333fa2e-bf06-443d-8669-b648fa4c47c9"},"vehicle_type_id":"4","last_reported":1684177507,"current_range_meters":9200,"station_id":"ce4bha12rcd13ifvqee0","pricing_plan_id":"free"},{"bike_id":"d83d1909-4281-46bf-bde3-655e0157612f","system_id":"levelo_inurba_marseille","lat":43.281044,"lon":5.378308,"is_reserved":false,"is_disabled":false,"rental_uris":{"android":"levelo://app?vid=d83d1909-4281-46bf-bde3-655e0157612f","ios":"levelo://app?vid=d83d1909-4281-46bf-bde3-655e0157612f"},"vehicle_type_id":"4","last_reported":1684177507,"current_range_meters":16800,"station_id":"ce4bha12rcd13ifvqee0","pricing_plan_id":"free"},{"bike_id":"3b3f7107-68fe-4c98-816f-4d3de7194330","system_id":"levelo_inurba_marseille","lat":43.281044,"lon":5.378308,"is_reserved":false,"is_disabled":false,"rental_uris":{"android":"levelo://app?vid=3b3f7107-68fe-4c98-816f-4d3de7194330","ios":"levelo://app?vid=3b3f7107-68fe-4c98-816f-4d3de7194330"},"vehicle_type_id":"4","last_reported":1684177507,"current_range_meters":25200,"station_id":"ce4bha12rcd13ifvqee0","pricing_plan_id":"free"},{"bike_id":"8ec5b735-cdc3-4ce5-8103-3232a8fcb40b","system_id":"levelo_inurba_marseille","lat":43.296263,"lon":5.40601,"is_reserved":false,"is_disabled":false,"rental_uris":{"android":"levelo://app?vid=8ec5b735-cdc3-4ce5-8103-3232a8fcb40b","ios":"levelo://app?vid=8ec5b735-cdc3-4ce5-8103-3232a8fcb40b"},"vehicle_type_id":"4","last_reported":1684177507,"current_range_meters":0,"station_id":"ce4bh0h2rcd13ifvqd60","pricing_plan_id":"free"},{"bike_id":"445801c5-b105-461a-b7bc-d8853c08a824","system_id":"levelo_inurba_marseille","lat":43.28102,"lon":5.37853,"is_reserved":false,"is_disabled":false,"rental_uris":{"android":"levelo://app?vid=445801c5-b105-461a-b7bc-d8853c08a824","ios":"levelo://app?vid=445801c5-b105-461a-b7bc-d8853c08a824"},"vehicle_type_id":"4","last_reported":1684177507,"current_range_meters":0,"station_id":"ce4bha12rcd13ifvqee0","pricing_plan_id":"free"},{"bike_id":"c2ec542b-3552-4fb7-9b56-8e70c0b4c74f","system_id":"levelo_inurba_marseille","lat":43.284793,"lon":5.384119,"is_reserved":false,"is_disabled":false,"rental_uris":{"android":"levelo://app?vid=c2ec542b-3552-4fb7-9b56-8e70c0b4c74f","ios":"levelo://app?vid=c2ec542b-3552-4fb7-9b56-8e70c0b4c74f"},"vehicle_type_id":"4","last_reported":1684177507,"current_range_meters":12000,"station_id":"ce4bh512rcd13ifvqe3g","pricing_plan_id":"free"},{"bike_id":"035ebe30-49f5-4d1a-91d6-7c8829a5f2d7","system_id":"levelo_inurba_marseille","lat":43.284462,"lon":5.392121,"is_reserved":false,"is_disabled":false,"rental_uris":{"android":"levelo://app?vid=035ebe30-49f5-4d1a-91d6-7c8829a5f2d7","ios":"levelo://app?vid=035ebe30-49f5-4d1a-91d6-7c8829a5f2d7"},"vehicle_type_id":"4","last_reported":1684177507,"current_range_meters":20400,"station_id":"ce4bhoh2rcd13ifvqh5g","pricing_plan_id":"free"},{"bike_id":"a351b39b-f457-4c5c-a573-04ea41f85598","system_id":"levelo_inurba_marseille","lat":43.284462,"lon":5.392121,"is_reserved":false,"is_disabled":false,"rental_uris":{"android":"levelo://app?vid=a351b39b-f457-4c5c-a573-04ea41f85598","ios":"levelo://app?vid=a351b39b-f457-4c5c-a573-04ea41f85598"},"vehicle_type_id":"4","last_reported":1684177507,"current_range_meters":21600,"station_id":"ce4bhoh2rcd13ifvqh5g","pricing_plan_id":"free"},{"bike_id":"4293e83e-4abf-43b3-8e65-0a03cacae900","system_id":"levelo_inurba_marseille","lat":43.284462,"lon":5.392121,"is_reserved":false,"is_disabled":false,"rental_uris":{"android":"levelo://app?vid=4293e83e-4abf-43b3-8e65-0a03cacae900","ios":"levelo://app?vid=4293e83e-4abf-43b3-8e65-0a03cacae900"},"vehicle_type_id":"4","last_reported":1684177507,"current_range_meters":17600,"station_id":"ce4bhoh2rcd13ifvqh5g","pricing_plan_id":"free"},{"bike_id":"1a15c99e-bfc5-4c00-89e4-77cc32fdc58c","system_id":"levelo_inurba_marseille","lat":43.28573,"lon":5.394992,"is_reserved":false,"is_disabled":false,"rental_uris":{"android":"levelo://app?vid=1a15c99e-bfc5-4c00-89e4-77cc32fdc58c","ios":"levelo://app?vid=1a15c99e-bfc5-4c00-89e4-77cc32fdc58c"},"vehicle_type_id":"4","last_reported":1684177507,"current_range_meters":18400,"station_id":"ce4bh292rcd13ifvqdg0","pricing_plan_id":"free"},{"bike_id":"d8dceab8-fb2c-439a-8391-7ed920bf2c7a","system_id":"levelo_inurba_marseille","lat":43.28573,"lon":5.394992,"is_reserved":false,"is_disabled":false,"rental_uris":{"android":"levelo://app?vid=d8dceab8-fb2c-439a-8391-7ed920bf2c7a","ios":"levelo://app?vid=d8dceab8-fb2c-439a-8391-7ed920bf2c7a"},"vehicle_type_id":"4","last_reported":1684177507,"current_range_meters":4400,"station_id":"ce4bh292rcd13ifvqdg0","pricing_plan_id":"free"},{"bike_id":"ea41c085-4fa7-4045-a945-ad7f135b320f","system_id":"levelo_inurba_marseille","lat":43.28573,"lon":5.394992,"is_reserved":false,"is_disabled":false,"rental_uris":{"android":"levelo://app?vid=ea41c085-4fa7-4045-a945-ad7f135b320f","ios":"levelo://app?vid=ea41c085-4fa7-4045-a945-ad7f135b320f"},"vehicle_type_id":"4","last_reported":1684177507,"current_range_meters":18400,"station_id":"ce4bh292rcd13ifvqdg0","pricing_plan_id":"free"},{"bike_id":"1cac29b4-e7d0-4212-b938-f04ffb3e7428","system_id":"levelo_inurba_marseille","lat":43.28725,"lon":5.39998,"is_reserved":false,"is_disabled":false,"rental_uris":{"android":"levelo://app?vid=1cac29b4-e7d0-4212-b938-f04ffb3e7428","ios":"levelo://app?vid=1cac29b4-e7d0-4212-b938-f04ffb3e7428"},"vehicle_type_id":"4","last_reported":1684177507,"current_range_meters":24400,"station_id":"ce4bho92rcd13ifvqh3g","pricing_plan_id":"free"},{"bike_id":"167a1169-a704-4fde-a796-277a28c9dc5d","system_id":"levelo_inurba_marseille","lat":43.287154,"lon":5.399979,"is_reserved":false,"is_disabled":false,"rental_uris":{"android":"levelo://app?vid=167a1169-a704-4fde-a796-277a28c9dc5d","ios":"levelo://app?vid=167a1169-a704-4fde-a796-277a28c9dc5d"},"vehicle_type_id":"4","last_reported":1684177507,"current_range_meters":14800,"station_id":"ce4bho92rcd13ifvqh3g","pricing_plan_id":"free"},{"bike_id":"156dd21b-259b-4105-a539-cf03b8609ec1","system_id":"levelo_inurba_marseille","lat":43.287154,"lon":5.399979,"is_reserved":false,"is_disabled":false,"rental_uris":{"android":"levelo://app?vid=156dd21b-259b-4105-a539-cf03b8609ec1","ios":"levelo://app?vid=156dd21b-259b-4105-a539-cf03b8609ec1"},"vehicle_type_id":"4","last_reported":1684177507,"current_range_meters":0,"station_id":"ce4bho92rcd13ifvqh3g","pricing_plan_id":"free"},{"bike_id":"3adf3f59-71c0-43c2-86ef-4d5ce70137d7","system_id":"levelo_inurba_marseille","lat":43.299579,"lon":5.413255,"is_reserved":false,"is_disabled":false,"rental_uris":{"android":"levelo://app?vid=3adf3f59-71c0-43c2-86ef-4d5ce70137d7","ios":"levelo://app?vid=3adf3f59-71c0-43c2-86ef-4d5ce70137d7"},"vehicle_type_id":"4","last_reported":1684177507,"current_range_meters":10400,"station_id":"ce4bhp12rcd13ifvqh9g","pricing_plan_id":"free"},{"bike_id":"f3becbd7-f8dc-4553-927e-fdddbe5c3686","system_id":"levelo_inurba_marseille","lat":43.299579,"lon":5.413255,"is_reserved":false,"is_disabled":false,"rental_uris":{"android":"levelo://app?vid=f3becbd7-f8dc-4553-927e-fdddbe5c3686","ios":"levelo://app?vid=f3becbd7-f8dc-4553-927e-fdddbe5c3686"},"vehicle_type_id":"4","last_reported":1684177507,"current_range_meters":26400,"station_id":"ce4bhp12rcd13ifvqh9g","pricing_plan_id":"free"},{"bike_id":"8eaef046-90e1-4ec5-aaf1-1782c1c5679c","system_id":"levelo_inurba_marseille","lat":43.27618,"lon":5.361009,"is_reserved":false,"is_disabled":false,"rental_uris":{"android":"levelo://app?vid=8eaef046-90e1-4ec5-aaf1-1782c1c5679c","ios":"levelo://app?vid=8eaef046-90e1-4ec5-aaf1-1782c1c5679c"},"vehicle_type_id":"4","last_reported":1684177507,"current_range_meters":12800,"station_id":"ce4bgj92rcd13ifvqbe0","pricing_plan_id":"free"},{"bike_id":"11dfc2c5-6bff-4d9c-8809-a0ff0fb3cd9d","system_id":"levelo_inurba_marseille","lat":43.29261,"lon":5.40917,"is_reserved":false,"is_disabled":false,"rental_uris":{"android":"levelo://app?vid=11dfc2c5-6bff-4d9c-8809-a0ff0fb3cd9d","ios":"levelo://app?vid=11dfc2c5-6bff-4d9c-8809-a0ff0fb3cd9d"},"vehicle_type_id":"4","last_reported":1684177507,"current_range_meters":0,"station_id":"ce4bh192rcd13ifvqdc0","pricing_plan_id":"free"},{"bike_id":"5d12cad9-3c14-49bd-bf7f-66fa28578014","system_id":"levelo_inurba_marseille","lat":43.27618,"lon":5.361009,"is_reserved":false,"is_disabled":false,"rental_uris":{"android":"levelo://app?vid=5d12cad9-3c14-49bd-bf7f-66fa28578014","ios":"levelo://app?vid=5d12cad9-3c14-49bd-bf7f-66fa28578014"},"vehicle_type_id":"4","last_reported":1684177507,"current_range_meters":0,"station_id":"ce4bgj92rcd13ifvqbe0","pricing_plan_id":"free"},{"bike_id":"e64664b0-83d9-4fd0-8ac2-8b716954e2ba","system_id":"levelo_inurba_marseille","lat":43.280784,"lon":5.396622,"is_reserved":false,"is_disabled":false,"rental_uris":{"android":"levelo://app?vid=e64664b0-83d9-4fd0-8ac2-8b716954e2ba","ios":"levelo://app?vid=e64664b0-83d9-4fd0-8ac2-8b716954e2ba"},"vehicle_type_id":"4","last_reported":1684177507,"current_range_meters":31200,"station_id":"ce4bho12rcd13ifvqh2g","pricing_plan_id":"free"},{"bike_id":"f0302564-1d64-4b4b-928c-84765a5697ff","system_id":"levelo_inurba_marseille","lat":43.280784,"lon":5.396622,"is_reserved":false,"is_disabled":false,"rental_uris":{"android":"levelo://app?vid=f0302564-1d64-4b4b-928c-84765a5697ff","ios":"levelo://app?vid=f0302564-1d64-4b4b-928c-84765a5697ff"},"vehicle_type_id":"4","last_reported":1684177507,"current_range_meters":29200,"station_id":"ce4bho12rcd13ifvqh2g","pricing_plan_id":"free"},{"bike_id":"6c16d6c9-3af0-4fb1-9932-cb22d62ffce3","system_id":"levelo_inurba_marseille","lat":43.280784,"lon":5.396622,"is_reserved":false,"is_disabled":false,"rental_uris":{"android":"levelo://app?vid=6c16d6c9-3af0-4fb1-9932-cb22d62ffce3","ios":"levelo://app?vid=6c16d6c9-3af0-4fb1-9932-cb22d62ffce3"},"vehicle_type_id":"4","last_reported":1684177507,"current_range_meters":31200,"station_id":"ce4bho12rcd13ifvqh2g","pricing_plan_id":"free"},{"bike_id":"303a22d7-35e3-403e-b1f0-d92517982698","system_id":"levelo_inurba_marseille","lat":43.33612,"lon":5.410321,"is_reserved":false,"is_disabled":false,"rental_uris":{"android":"levelo://app?vid=303a22d7-35e3-403e-b1f0-d92517982698","ios":"levelo://app?vid=303a22d7-35e3-403e-b1f0-d92517982698"},"vehicle_type_id":"4","last_reported":1684177507,"current_range_meters":6400,"station_id":"ce4bhqh2rcd13ifvqhmg","pricing_plan_id":"free"},{"bike_id":"6f532741-58da-4aeb-a324-886e3af53bbb","system_id":"levelo_inurba_marseille","lat":43.278399,"lon":5.392139,"is_reserved":false,"is_disabled":false,"rental_uris":{"android":"levelo://app?vid=6f532741-58da-4aeb-a324-886e3af53bbb","ios":"levelo://app?vid=6f532741-58da-4aeb-a324-886e3af53bbb"},"vehicle_type_id":"4","last_reported":1684177507,"current_range_meters":0,"station_id":"ce4bhjp2rcd13ifvqga0","pricing_plan_id":"free"},{"bike_id":"a91768aa-9e34-4880-9e69-297640b1fbd6","system_id":"levelo_inurba_marseille","lat":43.278399,"lon":5.392139,"is_reserved":false,"is_disabled":false,"rental_uris":{"android":"levelo://app?vid=a91768aa-9e34-4880-9e69-297640b1fbd6","ios":"levelo://app?vid=a91768aa-9e34-4880-9e69-297640b1fbd6"},