{"last_updated":1719950947,"ttl":30,"version":"2.2","data":{"bikes":[{"bike_id":"5c0a1fca-8f7e-469f-b6a9-9b68616cdbf5","system_id":"levelo_inurba_marseille","lat":43.312239,"lon":5.368562,"is_reserved":false,"is_disabled":false,"rental_uris":{"android":"levelo://app?vid=5c0a1fca-8f7e-469f-b6a9-9b68616cdbf5","ios":"levelo://app?vid=5c0a1fca-8f7e-469f-b6a9-9b68616cdbf5"},"vehicle_type_id":"4","last_reported":1719950947,"current_range_meters":0,"station_id":"ce4bgl92rcd13ifvqbq0","pricing_plan_id":"cebpf4jnsgd1na2vs0mg"},{"bike_id":"0edb2846-e96f-4eca-9a38-b1bcccbf65e9","system_id":"levelo_inurba_marseille","lat":43.312239,"lon":5.368562,"is_reserved":false,"is_disabled":false,"rental_uris":{"android":"levelo://app?vid=0edb2846-e96f-4eca-9a38-b1bcccbf65e9","ios":"levelo://app?vid=0edb2846-e96f-4eca-9a38-b1bcccbf65e9"},"vehicle_type_id":"4","last_reported":1719950947,"current_range_meters":2800,"station_id":"ce4bgl92rcd13ifvqbq0","pricing_plan_id":"cebpf4jnsgd1na2vs0mg"},{"bike_id":"948e6086-1384-4f24-8434-cb2bc0fa4bdf","system_id":"levelo_inurba_marseille","lat":43.31105,"lon":5.370523,"is_reserved":false,"is_disabled":false,"rental_uris":{"android":"levelo://app?vid=948e6086-1384-4f24-8434-cb2bc0fa4bdf","ios":"levelo://app?vid=948e6086-1384-4f24-8434-cb2bc0fa4bdf"},"vehicle_type_id":"4","last_reported":1719950947,"current_range_meters":16400,"station_id":"","pricing_plan_id":"cebpf4jnsgd1na2vs0mg"},{"bike_id":"8d90d834-8b77-4877-8cde-4e27e3257280","system_id":"levelo_inurba_marseille","lat":43.309076,"lon":5.368465,"is_reserved":false,"is_disabled":false,"rental_uris":{"android":"levelo://app?vid=8d90d834-8b77-4877-8cde-4e27e3257280","ios":"levelo://app?vid=8d90d834-8b77-4877-8cde-4e27e3257280"},"vehicle_type_id":"4","last_reported":1719950947,"current_range_meters":0,"station_id":"ce4bgn92rcd13ifvqbvg","pricing_plan_id":"cebpf4jnsgd1na2vs0mg"},{"bike_id":"7886d22b-5830-40d7-b374-76ea7ce3739d","system_id":"levelo_inurba_marseille","lat":43.309076,"lon":5.368465,"is_reserved":false,"is_disabled":false,"rental_uris":{"android":"levelo://app?vid=7886d22b-5830-40d7-b374-76ea7ce3739d","ios":"levelo://app?vid=7886d22b-5830-40d7-b374-76ea7ce3739d"},"vehicle_type_id":"4","last_reported":1719950947,"current_range_meters":4400,"station_id":"ce4bgn92rcd13ifvqbvg","pricing_plan_id":"cebpf4jnsgd1na2vs0mg"},{"bike_id":"822e6be8-1fb5-429c-8b7a-e7d8449598de","system_id":"levelo_inurba_marseille","lat":43.309076,"lon":5.368465,"is_reserved":false,"is_disabled":false,"rental_uris":{"android":"levelo://app?vid=822e6be8-1fb5-429c-8b7a-e7d8449598de","ios":"levelo://app?vid=822e6be8-1fb5-429c-8b7a-e7d8449598de"},"vehicle_type_id":"4","last_reported":1719950947,"current_range_meters":14000,"station_id":"ce4bgn92rcd13ifvqbvg","pricing_plan_id":"cebpf4jnsgd1na2vs0mg"},{"bike_id":"bcf2b776-7993-44cd-884d-fdf1abd9b04a","system_id":"levelo_inurba_marseille","lat":43.314811,"lon":5.373103,"is_reserved":false,"is_disabled":false,"rental_uris":{"android":"levelo://app?vid=bcf2b776-7993-44cd-884d-fdf1abd9b04a","ios":"levelo://app?vid=bcf2b776-7993-44cd-884d-fdf1abd9b04a"},"vehicle_type_id":"4","last_reported":1719950947,"current_range_meters":10400,"station_id":"ce4bgt12rcd13ifvqcd0","pricing_plan_id":"cebpf4jnsgd1na2vs0mg"},{"bike_id":"3a2f21f2-35cc-4e0c-ae54-2f1529e46c5b","system_id":"levelo_inurba_marseille","lat":43.314811,"lon":5.373103,"is_reserved":false,"is_disabled":false,"rental_uris":{"android":"levelo://app?vid=3a2f21f2-35cc-4e0c-ae54-2f1529e46c5b","ios":"levelo://app?vid=3a2f21f2-35cc-4e0c-ae54-2f1529e46c5b"},"vehicle_type_id":"4","last_reported":1719950947,"current_range_meters":14400,"station_id":"ce4bgt12rcd13ifvqcd0","pricing_plan_id":"cebpf4jnsgd1na2vs0mg"},{"bike_id":"b205164b-b949-4b20-8af2-612e13b4bae5","system_id":"levelo_inurba_marseille","lat":43.305712,"lon":5.365641,"is_reserved":false,"is_disabled":false,"rental_uris":{"android":"levelo://app?vid=b205164b-b949-4b20-8af2-612e13b4bae5","ios":"levelo://app?vid=b205164b-b949-4b20-8af2-612e13b4bae5"},"vehicle_type_id":"4","last_reported":1719950947,"current_range_meters":4400,"station_id":"ce4bgs12rcd13ifvqcag","pricing_plan_id":"cebpf4jnsgd1na2vs0mg"},{"bike_id":"680354a0-47dd-4515-9af6-2f5bab6d1594","system_id":"levelo_inurba_marseille","lat":43.30546,"lon":5.36656,"is_reserved":false,"is_disabled":false,"rental_uris":{"android":"levelo://app?vid=680354a0-47dd-4515-9af6-2f5bab6d1594","ios":"levelo://app?vid=680354a0-47dd-4515-9af6-2f5bab6d1594"},"vehicle_type_id":"4","last_reported":1719950947,"current_range_meters":9200,"station_id":"","pricing_plan_id":"cebpf4jnsgd1na2vs0mg"},{"bike_id":"ab3c7716-39f8-4189-8872-51eda3285599","system_id":"levelo_inurba_marseille","lat":43.305368,"lon":5.367343,"is_reserved":false,"is_disabled":false,"rental_uris":{"android":"levelo://app?vid=ab3c7716-39f8-4189-8872-51eda3285599","ios":"levelo://app?vid=ab3c7716-39f8-4189-8872-51eda3285599"},"vehicle_type_id":"4","last_reported":1719950947,"current_range_meters":22000,"station_id":"ce4bgrp2rcd13ifvqc9g","pricing_plan_id":"cebpf4jnsgd1na2vs0mg"},{"bike_id":"48ca75ad-0556-4bf2-be0c-5e4ec4e43ce6","system_id":"levelo_inurba_marseille","lat":43.30599,"lon":5.37213,"is_reserved":false,"is_disabled":false,"rental_uris":{"android":"levelo://app?vid=48ca75ad-0556-4bf2-be0c-5e4ec4e43ce6","ios":"levelo://app?vid=48ca75ad-0556-4bf2-be0c-5e4ec4e43ce6"},"vehicle_type_id":"4","last_reported":1719950947,"current_range_meters":2400,"station_id":"ce4bgqh2rcd13ifvqc4g","pricing_plan_id":"cebpf4jnsgd1na2vs0mg"},{"bike_id":"990687b6-ad29-43a6-8805-3db839a252ba","system_id":"levelo_inurba_marseille","lat":43.311125,"lon":5.377624,"is_reserved":false,"is_disabled":false,"rental_uris":{"android":"levelo://app?vid=990687b6-ad29-43a6-8805-3db839a252ba","ios":"levelo://app?vid=990687b6-ad29-43a6-8805-3db839a252ba"},"vehicle_type_id":"4","last_reported":1719950947,"current_range_meters":13600,"station_id":"ce4bgt92rcd13ifvqcg0","pricing_plan_id":"cebpf4jnsgd1na2vs0mg"},{"bike_id":"19722169-9453-48b3-b329-cdbf20b37eca","system_id":"levelo_inurba_marseille","lat":43.31119,"lon":5.3777,"is_reserved":false,"is_disabled":false,"rental_uris":{"android":"levelo://app?vid=19722169-9453-48b3-b329-cdbf20b37eca","ios":"levelo://app?vid=19722169-9453-48b3-b329-cdbf20b37eca"},"vehicle_type_id":"4","last_reported":1719950947,"current_range_meters":0,"station_id":"ce4bgt92rcd13ifvqcg0","pricing_plan_id":"cebpf4jnsgd1na2vs0mg"},{"bike_id":"08c8c23e-7829-4f1e-b953-d48d50d42517","system_id":"levelo_inurba_marseille","lat":43.307945,"lon":5.376487,"is_reserved":false,"is_disabled":false,"rental_uris":{"android":"levelo://app?vid=08c8c23e-7829-4f1e-b953-d48d50d42517","ios":"levelo://app?vid=08c8c23e-7829-4f1e-b953-d48d50d42517"},"vehicle_type_id":"4","last_reported":1719950947,"current_range_meters":14800,"station_id":"ce4bgv92rcd13ifvqcq0","pricing_plan_id":"cebpf4jnsgd1na2vs0mg"},{"bike_id":"1fdd2b5f-6db3-4771-a700-94f0755094d8","system_id":"levelo_inurba_marseille","lat":43.307945,"lon":5.376487,"is_reserved":false,"is_disabled":false,"rental_uris":{"android":"levelo://app?vid=1fdd2b5f-6db3-4771-a700-94f0755094d8","ios":"levelo://app?vid=1fdd2b5f-6db3-4771-a700-94f0755094d8"},"vehicle_type_id":"4","last_reported":1719950947,"current_range_meters":11200,"station_id":"ce4bgv92rcd13ifvqcq0","pricing_plan_id":"cebpf4jnsgd1na2vs0mg"},{"bike_id":"86398d6a-9b73-45e8-b63d-1eccdca73fb0","system_id":"levelo_inurba_marseille","lat":43.307945,"lon":5.376487,"is_reserved":false,"is_disabled":false,"rental_uris":{"android":"levelo://app?vid=86398d6a-9b73-45e8-b63d-1eccdca73fb0","ios":"levelo://app?vid=86398d6a-9b73-45e8-b63d-1eccdca73fb0"},"vehicle_type_id":"4","last_reported":1719950947,"current_range_meters":16400,"station_id":"ce4bgv92rcd13ifvqcq0","pricing_plan_id":"cebpf4jnsgd1na2vs0mg"},{"bike_id":"e2dee27b-a6b9-4f13-8ccf-44a9d66fba95","system_id":"levelo_inurba_marseille","lat":43.317075,"lon":5.377367,"is_reserved":false,"is_disabled":false,"rental_uris":{"android":"levelo://app?vid=e2dee27b-a6b9-4f13-8ccf-44a9d66fba95","ios":"levelo://app?vid=e2dee27b-a6b9-4f13-8ccf-44a9d66fba95"},"vehicle_type_id":"4","last_reported":1719950947,"current_range_meters":23200,"station_id":"ce4bgth2rcd13ifvqch0","pricing_plan_id":"cebpf4jnsgd1na2vs0mg"},{"bike_id":"adea7717-971e-4356-8de2-358dd135d76d","system_id":"levelo_inurba_marseille","lat":43.317075,"lon":5.377367,"is_reserved":false,"is_disabled":false,"rental_uris":{"android":"levelo://app?vid=adea7717-971e-4356-8de2-358dd135d76d","ios":"levelo://app?vid=adea7717-971e-4356-8de2-358dd135d76d"},"vehicle_type_id":"4","last_reported":1719950947,"current_range_meters":23200,"station_id":"ce4bgth2rcd13ifvqch0","pricing_plan_id":"cebpf4jnsgd1na2vs0mg"},{"bike_id":"41131a81-9ad5-4ab8-8d4b-25a4f3e9f958","system_id":"levelo_inurba_marseille","lat":43.30297,"lon":5.368803,"is_reserved":false,"is_disabled":false,"rental_uris":{"android":"levelo://app?vid=41131a81-9ad5-4ab8-8d4b-25a4f3e9f958","ios":"levelo://app?vid=41131a81-9ad5-4ab8-8d4b-25a4f3e9f958"},"vehicle_type_id":"4","last_reported":1719950947,"current_range_meters":23200,"station_id":"ce4bgqh2rcd13ifvqc5g","pricing_plan_id":"cebpf4jnsgd1na2vs0mg"},{"bike_id":"4737fb90-f60c-458a-ae7a-8752d0ce3d32","system_id":"levelo_inurba_marseille","lat":43.315334,"lon":5.380192,"is_reserved":false,"is_disabled":false,"rental_uris":{"android":"levelo://app?vid=4737fb90-f60c-458a-ae7a-8752d0ce3d32","ios":"levelo://app?vid=4737fb90-f60c-458a-ae7a-8752d0ce3d32"},"vehicle_type_id":"4","last_reported":1719950947,"current_range_meters":0,"station_id":"ce4bhsp2rcd13ifvqi50","pricing_plan_id":"cebpf4jnsgd1na2vs0mg"},{"bike_id":"2db5725b-c6c4-4214-a689-025414f94ebb","system_id":"levelo_inurba_marseille","lat":43.31531,"lon":5.38024,"is_reserved":false,"is_disabled":false,"rental_uris":{"android":"levelo://app?vid=2db5725b-c6c4-4214-a689-025414f94ebb","ios":"levelo://app?vid=2db5725b-c6c4-4214-a689-025414f94ebb"},"vehicle_type_id":"4","last_reported":1719950947,"current_range_meters":10800,"station_id":"ce4bhsp2rcd13ifvqi50","pricing_plan_id":"cebpf4jnsgd1na2vs0mg"},{"bike_id":"c32c80f1-1e2e-429e-85c0-16759610d334","system_id":"levelo_inurba_marseille","lat":43.31533,"lon":5.38025,"is_reserved":false,"is_disabled":false,"rental_uris":{"android":"levelo://app?vid=c32c80f1-1e2e-429e-85c0-16759610d334","ios":"levelo://app?vid=c32c80f1-1e2e-429e-85c0-16759610d334"},"vehicle_type_id":"4","last_reported":1719950947,"current_range_meters":10800,"station_id":"ce4bhsp2rcd13ifvqi50","pricing_plan_id":"cebpf4jnsgd1na2vs0mg"},{"bike_id":"dfcda526-e8c1-436a-8810-dd4921eff8de","system_id":"levelo_inurba_marseille","lat":43.315289,"lon":5.380349,"is_reserved":false,"is_disabled":false,"rental_uris":{"android":"levelo://app?vid=dfcda526-e8c1-436a-8810-dd4921eff8de","ios":"levelo://app?vid=dfcda526-e8c1-436a-8810-dd4921eff8de"},"vehicle_type_id":"4","last_reported":1719950947,"current_range_meters":0,"station_id":"ce4bhsp2rcd13ifvqi50","pricing_plan_id":"cebpf4jnsgd1na2vs0mg"},{"bike_id":"d8ef14c1-f64b-4fe5-b255-b606daa37fb8","system_id":"levelo_inurba_marseille","lat":43.315289,"lon":5.380349,"is_reserved":false,"is_disabled":false,"rental_uris":{"android":"levelo://app?vid=d8ef14c1-f64b-4fe5-b255-b606daa37fb8","ios":"levelo://app?vid=d8ef14c1-f64b-4fe5-b255-b606daa37fb8"},"vehicle_type_id":"4","last_reported":1719950947,"current_range_meters":14400,"station_id":"ce4bhsp2rcd13ifvqi50","pricing_plan_id":"cebpf4jnsgd1na2vs0mg"},{"bike_id":"d2495ce3-fe8b-4705-a39a-5ffb41c5fb5e","system_id":"levelo_inurba_marseille","lat":43.315293,"lon":5.380349,"is_reserved":false,"is_disabled":false,"rental_uris":{"android":"levelo://app?vid=d2495ce3-fe8b-4705-a39a-5ffb41c5fb5e","ios":"levelo://app?vid=d2495ce3-fe8b-4705-a39a-5ffb41c5fb5e"},"vehicle_type_id":"4","last_reported":1719950947,"current_range_meters":0,"station_id":"ce4bhsp2rcd13ifvqi50","pricing_plan_id":"cebpf4jnsgd1na2vs0mg"},{"bike_id":"02f86433-5d8c-4e86-a239-0c6f3d4515f2","system_id":"levelo_inurba_marseille","lat":43.31533,"lon":5.38035,"is_reserved":false,"is_disabled":false,"rental_uris":{"android":"levelo://app?vid=02f86433-5d8c-4e86-a239-0c6f3d4515f2","ios":"levelo://app?vid=02f86433-5d8c-4e86-a239-0c6f3d4515f2"},"vehicle_type_id":"4","last_reported":1719950947,"current_range_meters":22400,"station_id":"ce4bhsp2rcd13ifvqi50","pricing_plan_id":"cebpf4jnsgd1na2vs0mg"},{"bike_id":"0957cbfa-9849-4ec2-a09d-20baa2993ddb","system_id":"levelo_inurba_marseille","lat":43.31538,"lon":5.380367,"is_reserved":false,"is_disabled":false,"rental_uris":{"android":"levelo://app?vid=0957cbfa-9849-4ec2-a09d-20baa2993ddb","ios":"levelo://app?vid=0957cbfa-9849-4ec2-a09d-20baa2993ddb"},"vehicle_type_id":"4","last_reported":1719950947,"current_range_meters":0,"station_id":"ce4bhsp2rcd13ifvqi50","pricing_plan_id":"cebpf4jnsgd1na2vs0mg"},{"bike_id":"f38d060f-b4fe-47d0-87f6-f95baa12a6f3","system_id":"levelo_inurba_marseille","lat":43.31537,"lon":5.38039,"is_reserved":false,"is_disabled":false,"rental_uris":{"android":"levelo://app?vid=f38d060f-b4fe-47d0-87f6-f95baa12a6f3","ios":"levelo://app?vid=f38d060f-b4fe-47d0-87f6-f95baa12a6f3"},"vehicle_type_id":"4","last_reported":1719950947,"current_range_meters":15600,"station_id":"ce4bhsp2rcd13ifvqi50","pricing_plan_id":"cebpf4jnsgd1na2vs0mg"},{"bike_id":"2b53dfdf-a605-4fb4-973b-373d9ba1005c","system_id":"levelo_inurba_marseille","lat":43.301939,"lon":5.366286,"is_reserved":false,"is_disabled":false,"rental_uris":{"android":"levelo://app?vid=2b53dfdf-a605-4fb4-973b-373d9ba1005c","ios":"levelo://app?vid=2b53dfdf-a605-4fb4-973b-373d9ba1005c"},"vehicle_type_id":"4","last_reported":1719950947,"current_range_meters":800,"station_id":"ce4bgrh2rcd13ifvqc8g","pricing_plan_id":"cebpf4jnsgd1na2vs0mg"},{"bike_id":"0c926b37-68db-4fc4-85b2-6ab802398660","system_id":"levelo_inurba_marseille","lat":43.301939,"lon":5.366286,"is_reserved":false,"is_disabled":false,"rental_uris":{"android":"levelo://app?vid=0c926b37-68db-4fc4-85b2-6ab802398660","ios":"levelo://app?vid=0c926b37-68db-4fc4-85b2-6ab802398660"},"vehicle_type_id":"4","last_reported":1719950947,"current_range_meters":0,"station_id":"ce4bgrh2rcd13ifvqc8g","pricing_plan_id":"cebpf4jnsgd1na2vs0mg"},{"bike_id":"440f4187-8df3-4c47-944a-40226464ce5b","system_id":"levelo_inurba_marseille","lat":43.308,"lon":5.38154,"is_reserved":false,"is_disabled":false,"rental_uris":{"android":"levelo://app?vid=440f4187-8df3-4c47-944a-40226464ce5b","ios":"levelo://app?vid=440f4187-8df3-4c47-944a-40226464ce5b"},"vehicle_type_id":"4","last_reported":1719950947,"current_range_meters":1600,"station_id":"ce4bgt12rcd13ifvqce0","pricing_plan_id":"cebpf4jnsgd1na2vs0mg"},{"bike_id":"e414ac58-fc5a-41aa-879e-53ed9b8404a6","system_id":"levelo_inurba_marseille","lat":43.308012,"lon":5.381511,"is_reserved":false,"is_disabled":false,"rental_uris":{"android":"levelo://app?vid=e414ac58-fc5a-41aa-879e-53ed9b8404a6","ios":"levelo://app?vid=e414ac58-fc5a-41aa-879e-53ed9b8404a6"},"vehicle_type_id":"4","last_reported":1719950947,"current_range_meters":23200,"station_id":"ce4bgt12rcd13ifvqce0","pricing_plan_id":"cebpf4jnsgd1na2vs0mg"},{"bike_id":"c9ccc1ec-2761-49f0-bd37-dda484b43eb6","system_id":"levelo_inurba_marseille","lat":43.304805,"lon":5.379075,"is_reserved":false,"is_disabled":false,"rental_uris":{"android":"levelo://app?vid=c9ccc1ec-2761-49f0-bd37-dda484b43eb6","ios":"levelo://app?vid=c9ccc1ec-2761-49f0-bd37-dda484b43eb6"},"vehicle_type_id":"4","last_reported":1719950947,"current_range_meters":0,"station_id":"ce4bgup2rcd13ifvqcn0","pricing_plan_id":"cebpf4jnsgd1na2vs0mg"},{"bike_id":"41303ca4-8797-4018-a269-4480b62fef1d","system_id":"levelo_inurba_marseille","lat":43.304606,"lon":5.379026,"is_reserved":false,"is_disabled":false,"rental_uris":{"android":"levelo://app?vid=41303ca4-8797-4018-a269-4480b62fef1d","ios":"levelo://app?vid=41303ca4-8797-4018-a269-4480b62fef1d"},"vehicle_type_id":"4","last_reported":1719950947,"current_range_meters":0,"station_id":"ce4bgup2rcd13ifvqcn0","pricing_plan_id":"cebpf4jnsgd1na2vs0mg"},{"bike_id":"41ca1fac-796a-426b-bb46-5cf8ab776f8b","system_id":"levelo_inurba_marseille","lat":43.304606,"lon":5.379026,"is_reserved":false,"is_disabled":false,"rental_uris":{"android":"levelo://app?vid=41ca1fac-796a-426b-bb46-5cf8ab776f8b","ios":"levelo://app?vid=41ca1fac-796a-426b-bb46-5cf8ab776f8b"},"vehicle_type_id":"4","last_reported":1719950947,"current_range_meters":17600,"station_id":"ce4bgup2rcd13ifvqcn0","pricing_plan_id":"cebpf4jnsgd1na2vs0mg"},{"bike_id":"106bcbc4-0205-4986-abda-32646b867505","system_id":"levelo_inurba_marseille","lat":43.304606,"lon":5.379026,"is_reserved":false,"is_disabled":false,"rental_uris":{"android":"levelo://app?vid=106bcbc4-0205-4986-abda-32646b867505","ios":"levelo://app?vid=106bcbc4-0205-4986-abda-32646b867505"},"vehicle_type_id":"4","last_reported":1719950947,"current_range_meters":4000,"station_id":"ce4bgup2rcd13ifvqcn0","pricing_plan_id":"cebpf4jnsgd1na2vs0mg"},{"bike_id":"bd6fbb60-725e-42d2-b027-62a473a1f8f9","system_id":"levelo_inurba_marseille","lat":43.324771,"lon":5.36557,"is_reserved":false,"is_disabled":false,"rental_uris":{"android":"levelo://app?vid=bd6fbb60-725e-42d2-b027-62a473a1f8f9","ios":"levelo://app?vid=bd6fbb60-725e-42d2-b027-62a473a1f8f9"},"vehicle_type_id":"4","last_reported":1719950947,"current_range_meters":25200,"station_id":"ce4bhs12rcd13ifvqhvg","pricing_plan_id":"cebpf4jnsgd1na2vs0mg"},{"bike_id":"d93a7f37-2c80-44ed-9bc5-de74a739c569","system_id":"levelo_inurba_marseille","lat":43.299222,"lon":5.365554,"is_reserved":false,"is_disabled":false,"rental_uris":{"android":"levelo://app?vid=d93a7f37-2c80-44ed-9bc5-de74a739c569","ios":"levelo://app?vid=d93a7f37-2c80-44ed-9bc5-de74a739c569"},"vehicle_type_id":"4","last_reported":1719950947,"current_range_meters":0,"station_id":"ce4bgm92rcd13ifvqbr0","pricing_plan_id":"cebpf4jnsgd1na2vs0mg"},{"bike_id":"28dae859-7940-410e-926e-93da0f96b36d","system_id":"levelo_inurba_marseille","lat":43.324893,"lon":5.365617,"is_reserved":false,"is_disabled":false,"rental_uris":{"android":"levelo://app?vid=28dae859-7940-410e-926e-93da0f96b36d","ios":"levelo://app?vid=28dae859-7940-410e-926e-93da0f96b36d"},"vehicle_type_id":"4","last_reported":1719950947,"current_range_meters":0,"station_id":"ce4bhs12rcd13ifvqhvg","pricing_plan_id":"cebpf4jnsgd1na2vs0mg"},{"bike_id":"28473e0b-2d58-47df-afa6-fd162fd26315","system_id":"levelo_inurba_marseille","lat":43.324771,"lon":5.36557,"is_reserved":false,"is_disabled":false,"rental_uris":{"android":"levelo://app?vid=28473e0b-2d58-47df-afa6-fd162fd26315","ios":"levelo://app?vid=28473e0b-2d58-47df-afa6-fd162fd26315"},"vehicle_type_id":"4","last_reported":1719950947,"current_range_meters":18800,"station_id":"ce4bhs12rcd13ifvqhvg","pricing_plan_id":"cebpf4jnsgd1na2vs0mg"},{"bike_id":"3fc12211-d406-474d-b0a3-dd47fbaed527","system_id":"levelo_inurba_marseille","lat":43.31084,"lon":5.383493,"is_reserved":false,"is_disabled":false,"rental_uris":{"android":"levelo://app?vid=3fc12211-d406-474d-b0a3-dd47fbaed527","ios":"levelo://app?vid=3fc12211-d406-474d-b0a3-dd47fbaed527"},"vehicle_type_id":"4","last_reported":1719950947,"current_range_meters":400,"station_id":"ce4bgv92rcd13ifvqcr0","pricing_plan_id":"cebpf4jnsgd1na2vs0mg"},{"bike_id":"80bf8218-de17-4f98-a53b-c0e6178eb79f","system_id":"levelo_inurba_marseille","lat":43.31068,"lon":5.38349,"is_reserved":false,"is_disabled":false,"rental_uris":{"android":"levelo://app?vid=80bf8218-de17-4f98-a53b-c0e6178eb79f","ios":"levelo://app?vid=80bf8218-de17-4f98-a53b-c0e6178eb79f"},"vehicle_type_id":"4","last_reported":1719950947,"current_range_meters":6400,"station_id":"ce4bgv92rcd13ifvqcr0","pricing_plan_id":"cebpf4jnsgd1na2vs0mg"},{"bike_id":"39f4bf74-eafb-47fd-af01-4ab28dfe4362","system_id":"levelo_inurba_marseille","lat":43.31073,"lon":5.38352,"is_reserved":false,"is_disabled":false,"rental_uris":{"android":"levelo://app?vid=39f4bf74-eafb-47fd-af01-4ab28dfe4362","ios":"levelo://app?vid=39f4bf74-eafb-47fd-af01-4ab28dfe4362"},"vehicle_type_id":"4","last_reported":1719950947,"current_range_meters":14000,"station_id":"ce4bgv92rcd13ifvqcr0","pricing_plan_id":"cebpf4jnsgd1na2vs0mg"},{"bike_id":"8271acd9-3330-4918-b031-fb11f805eaa9","system_id":"levelo_inurba_marseille","lat":43.31076,"lon":5.38354,"is_reserved":false,"is_disabled":false,"rental_uris":{"android":"levelo://app?vid=8271acd9-3330-4918-b031-fb11f805eaa9","ios":"levelo://app?vid=8271acd9-3330-4918-b031-fb11f805eaa9"},"vehicle_type_id":"4","last_reported":1719950947,"current_range_meters":0,"station_id":"ce4bgv92rcd13ifvqcr0","pricing_plan_id":"cebpf4jnsgd1na2vs0mg"},{"bike_id":"67497bd6-42f8-4701-89fd-e0b9b2bb206c","system_id":"levelo_inurba_marseille","lat":43.302784,"lon":5.377158,"is_reserved":false,"is_disabled":false,"rental_uris":{"android":"levelo://app?vid=67497bd6-42f8-4701-89fd-e0b9b2bb206c","ios":"levelo://app?vid=67497bd6-42f8-4701-89fd-e0b9b2bb206c"},"vehicle_type_id":"4","last_reported":1719950947,"current_range_meters":29200,"station_id":"ce4bguh2rcd13ifvqcj0","pricing_plan_id":"cebpf4jnsgd1na2vs0mg"},{"bike_id":"f663cd12-b029-4459-b4fa-4b33d1eb7eab","system_id":"levelo_inurba_marseille","lat":43.30143,"lon":5.37413,"is_reserved":false,"is_disabled":false,"rental_uris":{"android":"levelo://app?vid=f663cd12-b029-4459-b4fa-4b33d1eb7eab","ios":"levelo://app?vid=f663cd12-b029-4459-b4fa-4b33d1eb7eab"},"vehicle_type_id":"4","last_reported":1719950947,"current_range_meters":28400,"station_id":"ce4bgs92rcd13ifvqcc0","pricing_plan_id":"cebpf4jnsgd1na2vs0mg"},{"bike_id":"918a0809-851b-4e56-b92d-c01c6478e532","system_id":"levelo_inurba_marseille","lat":43.302784,"lon":5.377158,"is_reserved":false,"is_disabled":false,"rental_uris":{"android":"levelo://app?vid=918a0809-851b-4e56-b92d-c01c6478e532","ios":"levelo://app?vid=918a0809-851b-4e56-b92d-c01c6478e532"},"vehicle_type_id":"4","last_reported":1719950947,"current_range_meters":12800,"station_id":"ce4bguh2rcd13ifvqcj0","pricing_plan_id":"cebpf4jnsgd1na2vs0mg"},{"bike_id":"e97ce6cb-3a84-4f0c-9412-2f5c4a4949f3","system_id":"levelo_inurba_marseille","lat":43.302784,"lon":5.377158,"is_reserved":false,"is_disabled":false,"rental_uris":{"android":"levelo://app?vid=e97ce6cb-3a84-4f0c-9412-2f5c4a4949f3","ios":"levelo://app?vid=e97ce6cb-3a84-4f0c-9412-2f5c4a4949f3"},"vehicle_type_id":"4","last_reported":1719950947,"current_range_meters":24800,"station_id":"ce4bguh2rcd13ifvqcj0","pricing_plan_id":"cebpf4jnsgd1na2vs0mg"},{"bike_id":"1d56206f-324f-4337-808a-4076d00de064","system_id":"levelo_inurba_marseille","lat":43.31996,"lon":5.38153,"is_reserved":false,"is_disabled":false,"rental_uris":{"android":"levelo://app?vid=1d56206f-324f-4337-808a-4076d00de064","ios":"levelo://app?vid=1d56206f-324f-4337-808a-4076d00de064"},"vehicle_type_id":"4","last_reported":1719950947,"current_range_meters":2400,"station_id":"ce4bhr12rcd13ifvqhpg","pricing_plan_id":"cebpf4jnsgd1na2vs0mg"},{"bike_id":"2bac82ff-1ad8-425b-bc47-f23e67bcf282","system_id":"levelo_inurba_marseille","lat":43.31999,"lon":5.38152,"is_reserved":false,"is_disabled":false,"rental_uris":{"android":"levelo://app?vid=2bac82ff-1ad8-425b-bc47-f23e67bcf282","ios":"levelo://app?vid=2bac82ff-1ad8-425b-bc47-f23e67bcf282"},"vehicle_type_id":"4","last_reported":1719950947,"current_range_meters":5600,"station_id":"ce4bhr12rcd13ifvqhpg","pricing_plan_id":"cebpf4jnsgd1na2vs0mg"},{"bike_id":"0576af02-1cfc-422d-80a7-42c857aae8d4","system_id":"levelo_inurba_marseille","lat":43.31999,"lon":5.38154,"is_reserved":false,"is_disabled":false,"rental_uris":{"android":"levelo://app?vid=0576af02-1cfc-422d-80a7-42c857aae8d4","ios":"levelo://app?vid=0576af02-1cfc-422d-80a7-42c857aae8d4"},"vehicle_type_id":"4","last_reported":1719950947,"current_range_meters":14000,"station_id":"ce4bhr12rcd13ifvqhpg","pricing_plan_id":"cebpf4jnsgd1na2vs0mg"},{"bike_id":"a47edf10-d869-47fd-9ca0-55a1d0cd084c","system_id":"levelo_inurba_marseille","lat":43.31992,"lon":5.3817,"is_reserved":false,"is_disabled":false,"rental_uris":{"android":"levelo://app?vid=a47edf10-d869-47fd-9ca0-55a1d0cd084c","ios":"levelo://app?vid=a47edf10-d869-47fd-9ca0-55a1d0cd084c"},"vehicle_type_id":"4","last_reported":1719950947,"current_range_meters":1600,"station_id":"ce4bhr12rcd13ifvqhpg","pricing_plan_id":"cebpf4jnsgd1na2vs0mg"},{"bike_id":"672d8846-3a68-4863-900d-ac0e8fd4c739","system_id":"levelo_inurba_marseille","lat":43.313571,"lon":5.384829,"is_reserved":false,"is_disabled":false,"rental_uris":{"android":"levelo://app?vid=672d8846-3a68-4863-900d-ac0e8fd4c739","ios":"levelo://app?vid=672d8846-3a68-4863-900d-ac0e8fd4c739"},"vehicle_type_id":"4","last_reported":1719950947,"current_range_meters":12000,"station_id":"ce4bgt92rcd13ifvqcf0","pricing_plan_id":"cebpf4jnsgd1na2vs0mg"},{"bike_id":"5d26a4af-2346-4b0d-bf9c-17c4c4cbca21","system_id":"levelo_inurba_marseille","lat":43.313571,"lon":5.384829,"is_reserved":false,"is_disabled":false,"rental_uris":{"android":"levelo://app?vid=5d26a4af-2346-4b0d-bf9c-17c4c4cbca21","ios":"levelo://app?vid=5d26a4af-2346-4b0d-bf9c-17c4c4cbca21"},"vehicle_type_id":"4","last_reported":1719950947,"current_range_meters":8400,"station_id":"ce4bgt92rcd13ifvqcf0","pricing_plan_id":"cebpf4jnsgd1na2vs0mg"},{"bike_id":"d115a939-2b2b-4ce2-b88b-a28ce2b952cf","system_id":"levelo_inurba_marseille","lat":43.313571,"lon":5.384829,"is_reserved":false,"is_disabled":false,"rental_uris":{"android":"levelo://app?vid=d115a939-2b2b-4ce2-b88b-a28ce2b952cf","ios":"levelo://app?vid=d115a939-2b2b-4ce2-b88b-a28ce2b952cf"},"vehicle_type_id":"4","last_reported":1719950947,"current_range_meters":6800,"station_id":"ce4bgt92rcd13ifvqcf0","pricing_plan_id":"cebpf4jnsgd1na2vs0mg"},{"bike_id":"cd865d50-5209-482f-b232-4b0c43fc0a54","system_id":"levelo_inurba_marseille","lat":43.299724,"lon":5.371829,"is_reserved":false,"is_disabled":false,"rental_uris":{"android":"levelo://app?vid=cd865d50-5209-482f-b232-4b0c43fc0a54","ios":"levelo://app?vid=cd865d50-5209-482f-b232-4b0c43fc0a54"},"vehicle_type_id":"4","last_reported":1719950947,"current_range_meters":19200,"station_id":"ce4bgr92rcd13ifvqc7g","pricing_plan_id":"cebpf4jnsgd1na2vs0mg"},{"bike_id":"2989a012-514a-4d98-b2c3-1d91d08e4e31","system_id":"levelo_inurba_marseille","lat":43.299222,"lon":5.365554,"is_reserved":false,"is_disabled":false,"rental_uris":{"android":"levelo://app?vid=2989a012-514a-4d98-b2c3-1d91d08e4e31","ios":"levelo://app?vid=2989a012-514a-4d98-b2c3-1d91d08e4e31"},"vehicle_type_id":"4","last_reported":1719950947,"current_range_meters":10000,"station_id":"ce4bgm92rcd13ifvqbr0","pricing_plan_id":"cebpf4jnsgd1na2vs0mg"},{"bike_id":"40151270-be4c-40b9-8836-351045d1aaeb","system_id":"levelo_inurba_marseille","lat":43.295169,"lon":5.390426,"is_reserved":false,"is_disabled":false,"rental_uris":{"android":"levelo://app?vid=40151270-be4c-40b9-8836-351045d1aaeb","ios":"levelo://app?vid=40151270-be4c-40b9-8836-351045d1aaeb"},"vehicle_type_id":"4","last_reported":1719950947,"current_range_meters":25600,"station_id":"ce4bh3p2rcd13ifvqdp0","pricing_plan_id":"cebpf4jnsgd1na2vs0mg"},{"bike_id":"5e1bf21c-baea-465d-bb75-f298e38932b5","system_id":"levelo_inurba_marseille","lat":43.301073,"lon":5.377097,"is_reserved":false,"is_disabled":false,"rental_uris":{"android":"levelo://app?vid=5e1bf21c-baea-465d-bb75-f298e38932b5","ios":"levelo://app?vid=5e1bf21c-baea-465d-bb75-f298e38932b5"},"vehicle_type_id":"4","last_reported":1719950947,"current_range_meters":6400,"station_id":"","pricing_plan_id":"cebpf4jnsgd1na2vs0mg"},{"bike_id":"7ce9d2d7-5fe6-4e54-a560-3b9e786d63e5","system_id":"levelo_inurba_marseille","lat":43.30532,"lon":5.38398,"is_reserved":false,"is_disabled":false,"rental_uris":{"android":"levelo://app?vid=7ce9d2d7-5fe6-4e54-a560-3b9e786d63e5","ios":"levelo://app?vid=7ce9d2d7-5fe6-4e54-a560-3b9e786d63e5"},"vehicle_type_id":"4","last_reported":1719950947,"current_range_meters":0,"station_id":"ce4bgg92rcd13ifvqb30","pricing_plan_id":"cebpf4jnsgd1na2vs0mg"},{"bike_id":"f6e6264b-4ce8-4dd9-a736-c05ff98c5eb1","system_id":"levelo_inurba_marseille","lat":43.305364,"lon":5.384119,"is_reserved":false,"is_disabled":false,"rental_uris":{"android":"levelo://app?vid=f6e6264b-4ce8-4dd9-a736-c05ff98c5eb1","ios":"levelo://app?vid=f6e6264b-4ce8-4dd9-a736-c05ff98c5eb1"},"vehicle_type_id":"4","last_reported":1719950947,"current_range_meters":2000,"station_id":"ce4bgg92rcd13ifvqb30","pricing_plan_id":"cebpf4jnsgd1na2vs0mg"},{"bike_id":"277fc686-592f-4d32-ad3f-cbd5a2d8e807","system_id":"levelo_inurba_marseille","lat":43.298433,"lon":5.362774,"is_reserved":false,"is_disabled":false,"rental_uris":{"android":"levelo://app?vid=277fc686-592f-4d32-ad3f-cbd5a2d8e807","ios":"levelo://app?vid=277fc686-592f-4d32-ad3f-cbd5a2d8e807"},"vehicle_type_id":"4","last_reported":1719950947,"current_range_meters":7600,"station_id":"ce4bgpp2rcd13ifvqc3g","pricing_plan_id":"cebpf4jnsgd1na2vs0mg"},{"bike_id":"fa189760-f578-41a5-bb51-aeb1f7eda8df","system_id":"levelo_inurba_marseille","lat":43.305364,"lon":5.384119,"is_reserved":false,"is_disabled":false,"rental_uris":{"android":"levelo://app?vid=fa189760-f578-41a5-bb51-aeb1f7eda8df","ios":"levelo://app?vid=fa189760-f578-41a5-bb51-aeb1f7eda8df"},"vehicle_type_id":"4","last_reported":1719950947,"current_range_meters":24800,"station_id":"ce4bgg92rcd13ifvqb30","pricing_plan_id":"cebpf4jnsgd1na2vs0mg"},{"bike_id":"047988da-f295-44f1-948c-1d6a3f5c7dc5","system_id":"levelo_inurba_marseille","lat":43.305364,"lon":5.384119,"is_reserved":false,"is_disabled":false,"rental_uris":{"android":"levelo://app?vid=047988da-f295-44f1-948c-1d6a3f5c7dc5","ios":"levelo://app?vid=047988da-f295-44f1-948c-1d6a3f5c7dc5"},"vehicle_type_id":"4","last_reported":1719950947,"current_range_meters":11200,"station_id":"ce4bgg92rcd13ifvqb30","pricing_plan_id":"cebpf4jnsgd1na2vs0mg"},{"bike_id":"b51db31e-8ca7-49e7-9f39-3806586e43af","system_id":"levelo_inurba_marseille","lat":43.299243,"lon":5.37481,"is_reserved":false,"is_disabled":false,"rental_uris":{"android":"levelo://app?vid=b51db31e-8ca7-49e7-9f39-3806586e43af","ios":"levelo://app?vid=b51db31e-8ca7-49e7-9f39-3806586e43af"},"vehicle_type_id":"4","last_reported":1719950947,"current_range_meters":7200,"station_id":"ce4bgjh2rcd13ifvqbg0","pricing_plan_id":"cebpf4jnsgd1na2vs0mg"},{"bike_id":"84285553-309a-496f-828d-4c1e00011006","system_id":"levelo_inurba_marseille","lat":43.305303,"lon":5.38425,"is_reserved":false,"is_disabled":false,"rental_uris":{"android":"levelo://app?vid=84285553-309a-496f-828d-4c1e00011006","ios":"levelo://app?vid=84285553-309a-496f-828d-4c1e00011006"},"vehicle_type_id":"4","last_reported":1719950947,"current_range_meters":1200,"station_id":"ce4bgg92rcd13ifvqb30","pricing_plan_id":"cebpf4jnsgd1na2vs0mg"},{"bike_id":"a34d053a-53e7-41e7-88c0-de822c77220b","system_id":"levelo_inurba_marseille","lat":43.29916,"lon":5.37468,"is_reserved":false,"is_disabled":false,"rental_uris":{"android":"levelo://app?vid=a34d053a-53e7-41e7-88c0-de822c77220b","ios":"levelo://app?vid=a34d053a-53e7-41e7-88c0-de822c77220b"},"vehicle_type_id":"4","last_reported":1719950947,"current_range_meters":0,"station_id":"ce4bgjh2rcd13ifvqbg0","pricing_plan_id":"cebpf4jnsgd1na2vs0mg"},{"bike_id":"7fd6e02b-d8e9-496e-b28c-58980698a6c9","system_id":"levelo_inurba_marseille","lat":43.31179,"lon":5.38715,"is_reserved":false,"is_disabled":false,"rental_uris":{"android":"levelo://app?vid=7fd6e02b-d8e9-496e-b28c-58980698a6c9","ios":"levelo://app?vid=7fd6e02b-d8e9-496e-b28c-58980698a6c9"},"vehicle_type_id":"4","last_reported":1719950947,"current_range_meters":0,"station_id":"ce4bgv12rcd13ifvqcp0","pricing_plan_id":"cebpf4jnsgd1na2vs0mg"},{"bike_id":"ce74f646-a0eb-4e5c-9731-3ba069055d38","system_id":"levelo_inurba_marseille","lat":43.311722,"lon":5.387247,"is_reserved":false,"is_disabled":false,"rental_uris":{"android":"levelo://app?vid=ce74f646-a0eb-4e5c-9731-3ba069055d38","ios":"levelo://app?vid=ce74f646-a0eb-4e5c-9731-3ba069055d38"},"vehicle_type_id":"4","last_reported":1719950947,"current_range_meters":25600,"station_id":"ce4bgv12rcd13ifvqcp0","pricing_plan_id":"cebpf4jnsgd1na2vs0mg"},{"bike_id":"95e1646d-9c49-48cd-82a2-48c148375ad2","system_id":"levelo_inurba_marseille","lat":43.297774,"lon":5.370875,"is_reserved":false,"is_disabled":false,"rental_uris":{"android":"levelo://app?vid=95e1646d-9c49-48cd-82a2-48c148375ad2","ios":"levelo://app?vid=95e1646d-9c49-48cd-82a2-48c148375ad2"},"vehicle_type_id":"4","last_reported":1719950947,"current_range_meters":3600,"station_id":"ce4bgop2rcd13ifvqc1g","pricing_plan_id":"cebpf4jnsgd1na2vs0mg"},{"bike_id":"87593b0c-6ee8-4216-840d-a99b18396a97","system_id":"levelo_inurba_marseille","lat":43.322872,"lon":5.382756,"is_reserved":false,"is_disabled":false,"rental_uris":{"android":"levelo://app?vid=87593b0c-6ee8-4216-840d-a99b18396a97","ios":"levelo://app?vid=87593b0c-6ee8-4216-840d-a99b18396a97"},"vehicle_type_id":"4","last_reported":1719950947,"current_range_meters":1200,"station_id":"ce4bhr12rcd13ifvqhqg","pricing_plan_id":"cebpf4jnsgd1na2vs0mg"},{"bike_id":"007b0a9d-b423-49b2-81ed-75bcb5961074","system_id":"levelo_inurba_marseille","lat":43.322877,"lon":5.382637,"is_reserved":false,"is_disabled":false,"rental_uris":{"android":"levelo://app?vid=007b0a9d-b423-49b2-81ed-75bcb5961074","ios":"levelo://app?vid=007b0a9d-b423-49b2-81ed-75bcb5961074"},"vehicle_type_id":"4","last_reported":1719950947,"current_range_meters":24000,"station_id":"ce4bhr12rcd13ifvqhqg","pricing_plan_id":"cebpf4jnsgd1na2vs0mg"},{"bike_id":"acbacc07-3406-42b6-a4b4-6ba8eee52b33","system_id":"levelo_inurba_marseille","lat":43.322872,"lon":5.382756,"is_reserved":false,"is_disabled":false,"rental_uris":{"android":"levelo://app?vid=acbacc07-3406-42b6-a4b4-6ba8eee52b33","ios":"levelo://app?vid=acbacc07-3406-42b6-a4b4-6ba8eee52b33"},"vehicle_type_id":"4","last_reported":1719950947,"current_range_meters":31600,"station_id":"ce4bhr12rcd13ifvqhqg","pricing_plan_id":"cebpf4jnsgd1na2vs0mg"},{"bike_id":"708ec8f6-5933-4656-8642-2955eb070790","system_id":"levelo_inurba_marseille","lat":43.322872,"lon":5.382756,"is_reserved":false,"is_disabled":false,"rental_uris":{"android":"levelo://app?vid=708ec8f6-5933-4656-8642-2955eb070790","ios":"levelo://app?vid=708ec8f6-5933-4656-8642-2955eb070790"},"vehicle_type_id":"4","last_reported":1719950947,"current_range_meters":31200,"station_id":"ce4bhr12rcd13ifvqhqg","pricing_plan_id":"cebpf4jnsgd1na2vs0mg"},{"bike_id":"22b1ae34-f613-4a2d-bbce-23c9c8be1d8f","system_id":"levelo_inurba_marseille","lat":43.322872,"lon":5.382756,"is_reserved":false,"is_disabled":false,"rental_uris":{"android":"levelo://app?vid=22b1ae34-f613-4a2d-bbce-23c9c8be1d8f","ios":"levelo://app?vid=22b1ae34-f613-4a2d-bbce-23c9c8be1d8f"},"vehicle_type_id":"4","last_reported":1719950947,"current_range_meters":31600,"station_id":"ce4bhr12rcd13ifvqhqg","pricing_plan_id":"cebpf4jnsgd1na2vs0mg"},{"bike_id":"fbed3183-265f-4fbc-95f9-31ae99c34595","system_id":"levelo_inurba_marseille","lat":43.322872,"lon":5.382756,"is_reserved":false,"is_disabled":false,"rental_uris":{"android":"levelo://app?vid=fbed3183-265f-4fbc-95f9-31ae99c34595","ios":"levelo://app?vid=fbed3183-265f-4fbc-95f9-31ae99c34595"},"vehicle_type_id":"4","last_reported":1719950947,"current_range_meters":23200,"station_id":"ce4bhr12rcd13ifvqhqg","pricing_plan_id":"cebpf4jnsgd1na2vs0mg"},{"bike_id":"ea731f8a-f311-41ff-add8-bfb6a4ee4b2d","system_id":"levelo_inurba_marseille","lat":43.322872,"lon":5.382756,"is_reserved":false,"is_disabled":false,"rental_uris":{"android":"levelo://app?vid=ea731f8a-f311-41ff-add8-bfb6a4ee4b2d","ios":"levelo://app?vid=ea731f8a-f311-41ff-add8-bfb6a4ee4b2d"},"vehicle_type_id":"4","last_reported":1719950947,"current_range_meters":31600,"station_id":"ce4bhr12rcd13ifvqhqg","pricing_plan_id":"cebpf4jnsgd1na2vs0mg"},{"bike_id":"5b063ffc-55e7-4aa6-9e0e-cce785e0dff3","system_id":"levelo_inurba_marseille","lat":43.297794,"lon":5.370888,"is_reserved":false,"is_disabled":false,"rental_uris":{"android":"levelo://app?vid=5b063ffc-55e7-4aa6-9e0e-cce785e0dff3","ios":"levelo://app?vid=5b063ffc-55e7-4aa6-9e0e-cce785e0dff3"},"vehicle_type_id":"4","last_reported":1719950947,"current_range_meters":8400,"station_id":"ce4bgop2rcd13ifvqc1g","pricing_plan_id":"cebpf4jnsgd1na2vs0mg"},{"bike_id":"73c43fa7-4de7-45c4-bad8-6ed34d16cb6f","system_id":"levelo_inurba_marseille","lat":43.322872,"lon":5.382756,"is_reserved":false,"is_disabled":false,"rental_uris":{"android":"levelo://app?vid=73c43fa7-4de7-45c4-bad8-6ed34d16cb6f","ios":"levelo://app?vid=73c43fa7-4de7-45c4-bad8-6ed34d16cb6f"},"vehicle_type_id":"4","last_reported":1719950947,"current_range_meters":26000,"station_id":"ce4bhr12rcd13ifvqhqg","pricing_plan_id":"cebpf4jnsgd1na2vs0mg"},{"bike_id":"9b8adec2-2d8d-474c-bbc5-03ad96be0b08","system_id":"levelo_inurba_marseille","lat":43.32291,"lon":5.38282,"is_reserved":false,"is_disabled":false,"rental_uris":{"android":"levelo://app?vid=9b8adec2-2d8d-474c-bbc5-03ad96be0b08","ios":"levelo://app?vid=9b8adec2-2d8d-474c-bbc5-03ad96be0b08"},"vehicle_type_id":"4","last_reported":1719950947,"current_range_meters":0,"station_id":"ce4bhr12rcd13ifvqhqg","pricing_plan_id":"cebpf4jnsgd1na2vs0mg"},{"bike_id":"9d3d5736-d92e-4992-998d-a2abfa76e933","system_id":"levelo_inurba_marseille","lat":43.297163,"lon":5.365866,"is_reserved":false,"is_disabled":false,"rental_uris":{"android":"levelo://app?vid=9d3d5736-d92e-4992-998d-a2abfa76e933","ios":"levelo://app?vid=9d3d5736-d92e-4992-998d-a2abfa76e933"},"vehicle_type_id":"4","last_reported":1719950947,"current_range_meters":11200,"station_id":"ce4bgn12rcd13ifvqbt0","pricing_plan_id":"cebpf4jnsgd1na2vs0mg"},{"bike_id":"38160a90-fdca-4773-bc29-d7b123ca0095","system_id":"levelo_inurba_marseille","lat":43.297016,"lon":5.371023,"is_reserved":false,"is_disabled":false,"rental_uris":{"android":"levelo://app?vid=38160a90-fdca-4773-bc29-d7b123ca0095","ios":"levelo://app?vid=38160a90-fdca-4773-bc29-d7b123ca0095"},"vehicle_type_id":"4","last_reported":1719950947,"current_range_meters":12000,"station_id":"","pricing_plan_id":"cebpf4jnsgd1na2vs0mg"},{"bike_id":"9a658d93-fc63-4115-b116-bc6d0679bc67","system_id":"levelo_inurba_marseille","lat":43.2968,"lon":5.37291,"is_reserved":false,"is_disabled":false,"rental_uris":{"android":"levelo://app?vid=9a658d93-fc63-4115-b116-bc6d0679bc67","ios":"levelo://app?vid=9a658d93-fc63-4115-b116-bc6d0679bc67"},"vehicle_type_id":"4","last_reported":1719950947,"current_range_meters":28800,"station_id":"ce4bgk12rcd13ifvqbj0","pricing_plan_id":"cebpf4jnsgd1na2vs0mg"},{"bike_id":"a1a3f908-0293-4ffe-88df-d648d27ac344","system_id":"levelo_inurba_marseille","lat":43.29659,"lon":5.36238,"is_reserved":false,"is_disabled":false,"rental_uris":{"android":"levelo://app?vid=a1a3f908-0293-4ffe-88df-d648d27ac344","ios":"levelo://app?vid=a1a3f908-0293-4ffe-88df-d648d27ac344"},"vehicle_type_id":"4","last_reported":1719950947,"current_range_meters":800,"station_id":"","pricing_plan_id":"cebpf4jnsgd1na2vs0mg"},{"bike_id":"ff758a06-2594-43c8-87a1-51718cab4853","system_id":"levelo_inurba_marseille","lat":43.2965,"lon":5.36247,"is_reserved":false,"is_disabled":false,"rental_uris":{"android":"levelo://app?vid=ff758a06-2594-43c8-87a1-51718cab4853","ios":"levelo://app?vid=ff758a06-2594-43c8-87a1-51718cab4853"},"vehicle_type_id":"4","last_reported":1719950947,"current_range_meters":0,"station_id":"","pricing_plan_id":"cebpf4jnsgd1na2vs0mg"},{"bike_id":"0c845e77-91f9-4f53-b4c0-9cd585c05b3e","system_id":"levelo_inurba_marseille","lat":43.29663,"lon":5.36162,"is_reserved":false,"is_disabled":false,"rental_uris":{"android":"levelo://app?vid=0c845e77-91f9-4f53-b4c0-9cd585c05b3e","ios":"levelo://app?vid=0c845e77-91f9-4f53-b4c0-9cd585c05b3e"},"vehicle_type_id":"4","last_reported":1719950947,"current_range_meters":6800,"station_id":"","pricing_plan_id":"cebpf4jnsgd1na2vs0mg"},{"bike_id":"adc4024b-3f3e-4987-b679-29e6a909a809","system_id":"levelo_inurba_marseille","lat":43.30135,"lon":5.38379,"is_reserved":false,"is_disabled":false,"rental_uris":{"android":"levelo://app?vid=adc4024b-3f3e-4987-b679-29e6a909a809","ios":"levelo://app?vid=adc4024b-3f3e-4987-b679-29e6a909a809"},"vehicle_type_id":"4","last_reported":1719950947,"current_range_meters":2800,"station_id":"","pricing_plan_id":"cebpf4jnsgd1na2vs0mg"},{"bike_id":"57dd9445-1ff4-460d-b978-0f490b554392","system_id":"levelo_inurba_marseille","lat":43.299028,"lon":5.381509,"is_reserved":false,"is_disabled":false,"rental_uris":{"android":"levelo://app?vid=57dd9445-1ff4-460d-b978-0f490b554392","ios":"levelo://app?vid=57dd9445-1ff4-460d-b978-0f490b554392"},"vehicle_type_id":"4","last_reported":1719950947,"current_range_meters":10800,"station_id":"ce4bgj12rcd13ifvqbc0","pricing_plan_id":"cebpf4jnsgd1na2vs0mg"},{"bike_id":"7b732214-2127-4f0c-84a7-ae24b2ec6fe5","system_id":"levelo_inurba_marseille","lat":43.309515,"lon":5.39018,"is_reserved":false,"is_disabled":false,"rental_uris":{"android":"levelo://app?vid=7b732214-2127-4f0c-84a7-ae24b2ec6fe5","ios":"levelo://app?vid=7b732214-2127-4f0c-84a7-ae24b2ec6fe5"},"vehicle_type_id":"4","last_reported":1719950947,"current_range_meters":21600,"station_id":"ce4bgup2rcd13ifvqco0","pricing_plan_id":"cebpf4jnsgd1na2vs0mg"},{"bike_id":"87eb1970-4938-420a-b1db-b7018d5a13b0","system_id":"levelo_inurba_marseille","lat":43.309589,"lon":5.390258,"is_reserved":false,"is_disabled":false,"rental_uris":{"android":"levelo://app?vid=87eb1970-4938-420a-b1db-b7018d5a13b0","ios":"levelo://app?vid=87eb1970-4938-420a-b1db-b7018d5a13b0"},"vehicle_type_id":"4","last_reported":1719950947,"current_range_meters":7200,"station_id":"ce4bgup2rcd13ifvqco0","pricing_plan_id":"cebpf4jnsgd1na2vs0mg"},{"bike_id":"36ae3ea5-eb89-46b7-a018-5c182efb7950","system_id":"levelo_inurba_marseille","lat":43.309593,"lon":5.390292,"is_reserved":false,"is_disabled":false,"rental_uris":{"android":"levelo://app?vid=36ae3ea5-eb89-46b7-a018-5c182efb7950","ios":"levelo://app?vid=36ae3ea5-eb89-46b7-a018-5c182efb7950"},"vehicle_type_id":"4","last_reported":1719950947,"current_range_meters":1600,"station_id":"ce4bgup2rcd13ifvqco0","pricing_plan_id":"cebpf4jnsgd1na2vs0mg"},{"bike_id":"992970c6-372a-46c7-b7c4-85d162e29ed2","system_id":"levelo_inurba_marseille","lat":43.309493,"lon":5.390297,"is_reserved":false,"is_disabled":false,"rental_uris":{"android":"levelo://app?vid=992970c6-372a-46c7-b7c4-85d162e29ed2","ios":"levelo://app?vid=992970c6-372a-46c7-b7c4-85d162e29ed2"},"vehicle_type_id":"4","last_reported":1719950947,"current_range_meters":21200,"station_id":"ce4bgup2rcd13ifvqco0","pricing_plan_id":"cebpf4jnsgd1na2vs0mg"},{"bike_id":"cfeaa36c-5302-4595-9ed3-9dbbc7616cc8","system_id":"levelo_inurba_marseille","lat":43.30949,"lon":5.39033,"is_reserved":false,"is_disabled":false,"rental_uris":{"android":"levelo://app?vid=cfeaa36c-5302-4595-9ed3-9dbbc7616cc8","ios":"levelo://app?vid=cfeaa36c-5302-4595-9ed3-9dbbc7616cc8"},"vehicle_type_id":"4","last_reported":1719950947,"current_range_meters":14000,"station_id":"ce4bgup2rcd13ifvqco0","pricing_plan_id":"cebpf4jnsgd1na2vs0mg"},{"bike_id":"080dea97-3233-4e1d-915d-71b59139de17","system_id":"levelo_inurba_marseille","lat":43.309589,"lon":5.390258,"is_reserved":false,"is_disabled":false,"rental_uris":{"android":"levelo://app?vid=080dea97-3233-4e1d-915d-71b59139de17","ios":"levelo://app?vid=080dea97-3233-4e1d-915d-71b59139de17"},"vehicle_type_id":"4","last_reported":1719950947,"current_range_meters":24000,"station_id":"ce4bgup2rcd13ifvqco0","pricing_plan_id":"cebpf4jnsgd1na2vs0mg"},{"bike_id":"432606e7-6199-46d2-bc16-e1ead83dc734","system_id":"levelo_inurba_marseille","lat":43.309589,"lon":5.390258,"is_reserved":false,"is_disabled":false,"rental_uris":{"android":"levelo://app?vid=432606e7-6199-46d2-bc16-e1ead83dc734","ios":"levelo://app?vid=432606e7-6199-46d2-bc16-e1ead83dc734"},"vehicle_type_id":"4","last_reported":1719950947,"current_range_meters":30000,"station_id":"ce4bgup2rcd13ifvqco0","pricing_plan_id":"cebpf4jnsgd1na2vs0mg"},{"bike_id":"eb3066d3-1fa6-4e42-a0f5-c5d780d82f75","system_id":"levelo_inurba_marseille","lat":43.309589,"lon":5.390258,"is_reserved":false,"is_disabled":false,"rental_uris":{"android":"levelo://app?vid=eb3066d3-1fa6-4e42-a0f5-c5d780d82f75","ios":"levelo://app?vid=eb3066d3-1fa6-4e42-a0f5-c5d780d82f75"},"vehicle_type_id":"4","last_reported":1719950947,"current_range_meters":13200,"station_id":"ce4bgup2rcd13ifvqco0","pricing_plan_id":"cebpf4jnsgd1na2vs0mg"},{"bike_id":"2a852c54-f386-4df6-b4f1-ac63a9e46a6c","system_id":"levelo_inurba_marseille","lat":43.3095,"lon":5.39037,"is_reserved":false,"is_disabled":false,"rental_uris":{"android":"levelo://app?vid=2a852c54-f386-4df6-b4f1-ac63a9e46a6c","ios":"levelo://app?vid=2a852c54-f386-4df6-b4f1-ac63a9e46a6c"},"vehicle_type_id":"4","last_reported":1719950947,"current_range_meters":0,"station_id":"ce4bgup2rcd13ifvqco0","pricing_plan_id":"cebpf4jnsgd1na2vs0mg"},{"bike_id":"9c47e545-ceed-4766-8a65-1368401b432c","system_id":"levelo_inurba_marseille","lat":43.309509,"lon":5.390374,"is_reserved":false,"is_disabled":false,"rental_uris":{"android":"levelo://app?vid=9c47e545-ceed-4766-8a65-1368401b432c","ios":"levelo://app?vid=9c47e545-ceed-4766-8a65-1368401b432c"},"vehicle_type_id":"4","last_reported":1719950947,"current_range_meters":0,"station_id":"ce4bgup2rcd13ifvqco0","pricing_plan_id":"cebpf4jnsgd1na2vs0mg"},{"bike_id":"abd6b3fc-4d05-482e-948d-2747d99867d1","system_id":"levelo_inurba_marseille","lat":43.30953,"lon":5.3904,"is_reserved":false,"is_disabled":false,"rental_uris":{"android":"levelo://app?vid=abd6b3fc-4d05-482e-948d-2747d99867d1","ios":"levelo://app?vid=abd6b3fc-4d05-482e-948d-2747d99867d1"},"vehicle_type_id":"4","last_reported":1719950947,"current_range_meters":0,"station_id":"ce4bgup2rcd13ifvqco0","pricing_plan_id":"cebpf4jnsgd1na2vs0mg"},{"bike_id":"b470cf4a-ca9a-46af-9d7a-e31e9989fc30","system_id":"levelo_inurba_marseille","lat":43.30947,"lon":5.39043,"is_reserved":false,"is_disabled":false,"rental_uris":{"android":"levelo://app?vid=b470cf4a-ca9a-46af-9d7a-e31e9989fc30","ios":"levelo://app?vid=b470cf4a-ca9a-46af-9d7a-e31e9989fc30"},"vehicle_type_id":"4","last_reported":1719950947,"current_range_meters":2800,"station_id":"ce4bgup2rcd13ifvqco0","pricing_plan_id":"cebpf4jnsgd1na2vs0mg"},{"bike_id":"a5a0e9f1-89cc-4b6d-99ae-3cec1340ee61","system_id":"levelo_inurba_marseille","lat":43.3095,"lon":5.39044,"is_reserved":false,"is_disabled":false,"rental_uris":{"android":"levelo://app?vid=a5a0e9f1-89cc-4b6d-99ae-3cec1340ee61","ios":"levelo://app?vid=a5a0e9f1-89cc-4b6d-99ae-3cec1340ee61"},"vehicle_type_id":"4","last_reported":1719950947,"current_range_meters":17200,"station_id":"ce4bgup2rcd13ifvqco0","pricing_plan_id":"cebpf4jnsgd1na2vs0mg"},{"bike_id":"0b83db07-c3b0-43f5-8e64-65beae685c22","system_id":"levelo_inurba_marseille","lat":43.309589,"lon":5.390258,"is_reserved":false,"is_disabled":false,"rental_uris":{"android":"levelo://app?vid=0b83db07-c3b0-43f5-8e64-65beae685c22","ios":"levelo://app?vid=0b83db07-c3b0-43f5-8e64-65beae685c22"},"vehicle_type_id":"4","last_reported":1719950947,"current_range_meters":22400,"station_id":"ce4bgup2rcd13ifvqco0","pricing_plan_id":"cebpf4jnsgd1na2vs0mg"},{"bike_id":"8df00549-38ff-49cb-bc04-b004bb5c3c5b","system_id":"levelo_inurba_marseille","lat":43.31763,"lon":5.39008,"is_reserved":false,"is_disabled":false,"rental_uris":{"android":"levelo://app?vid=8df00549-38ff-49cb-bc04-b004bb5c3c5b","ios":"levelo://app?vid=8df00549-38ff-49cb-bc04-b004bb5c3c5b"},"vehicle_type_id":"4","last_reported":1719950947,"current_range_meters":20800,"station_id":"ce4bhqp2rcd13ifvqhng","pricing_plan_id":"cebpf4jnsgd1na2vs0mg"},{"bike_id":"a2f7c650-ec39-437f-a1de-5051d5ff5569","system_id":"levelo_inurba_marseille","lat":43.31759,"lon":5.3901,"is_reserved":false,"is_disabled":false,"rental_uris":{"android":"levelo://app?vid=a2f7c650-ec39-437f-a1de-5051d5ff5569","ios":"levelo://app?vid=a2f7c650-ec39-437f-a1de-5051d5ff5569"},"vehicle_type_id":"4","last_reported":1719950947,"current_range_meters":2400,"station_id":"ce4bhqp2rcd13ifvqhng","pricing_plan_id":"cebpf4jnsgd1na2vs0mg"},{"bike_id":"da4775f7-4997-4974-bcc0-e4bb69345cfc","system_id":"levelo_inurba_marseille","lat":43.31758,"lon":5.390153,"is_reserved":false,"is_disabled":false,"rental_uris":{"android":"levelo://app?vid=da4775f7-4997-4974-bcc0-e4bb69345cfc","ios":"levelo://app?vid=da4775f7-4997-4974-bcc0-e4bb69345cfc"},"vehicle_type_id":"4","last_reported":1719950947,"current_range_meters":9600,"station_id":"ce4bhqp2rcd13ifvqhng","pricing_plan_id":"cebpf4jnsgd1na2vs0mg"},{"bike_id":"4b689a2a-9189-42f4-9378-dae7cbe571cc","system_id":"levelo_inurba_marseille","lat":43.31754,"lon":5.39017,"is_reserved":false,"is_disabled":false,"rental_uris":{"android":"levelo://app?vid=4b689a2a-9189-42f4-9378-dae7cbe571cc","ios":"levelo://app?vid=4b689a2a-9189-42f4-9378-dae7cbe571cc"},"vehicle_type_id":"4","last_reported":1719950947,"current_range_meters":2000,"station_id":"ce4bhqp2rcd13ifvqhng","pricing_plan_id":"cebpf4jnsgd1na2vs0mg"},{"bike_id":"8201a051-7a83-4da0-aa0e-67216f71588d","system_id":"levelo_inurba_marseille","lat":43.31759,"lon":5.39016,"is_reserved":false,"is_disabled":false,"rental_uris":{"android":"levelo://app?vid=8201a051-7a83-4da0-aa0e-67216f71588d","ios":"levelo://app?vid=8201a051-7a83-4da0-aa0e-67216f71588d"},"vehicle_type_id":"4","last_reported":1719950947,"current_range_meters":5600,"station_id":"ce4bhqp2rcd13ifvqhng","pricing_plan_id":"cebpf4jnsgd1na2vs0mg"},{"bike_id":"ea6ecdd6-cbc0-4ab5-bacc-c317a6caaaae","system_id":"levelo_inurba_marseille","lat":43.31763,"lon":5.39016,"is_reserved":false,"is_disabled":false,"rental_uris":{"android":"levelo://app?vid=ea6ecdd6-cbc0-4ab5-bacc-c317a6caaaae","ios":"levelo://app?vid=ea6ecdd6-cbc0-4ab5-bacc-c317a6caaaae"},"vehicle_type_id":"4","last_reported":1719950947,"current_range_meters":19600,"station_id":"ce4bhqp2rcd13ifvqhng","pricing_plan_id":"cebpf4jnsgd1na2vs0mg"},{"bike_id":"0031b23f-89b1-455f-8159-d6869ddfbe9f","system_id":"levelo_inurba_marseille","lat":43.31759,"lon":5.39018,"is_reserved":false,"is_disabled":false,"rental_uris":{"android":"levelo://app?vid=0031b23f-89b1-455f-8159-d6869ddfbe9f","ios":"levelo://app?vid=0031b23f-89b1-455f-8159-d6869ddfbe9f"},"vehicle_type_id":"4","last_reported":1719950947,"current_range_meters":29600,"station_id":"ce4bhqp2rcd13ifvqhng","pricing_plan_id":"cebpf4jnsgd1na2vs0mg"},{"bike_id":"a05bb14b-df44-4f0f-ada8-774c57cd21c6","system_id":"levelo_inurba_marseille","lat":43.31757,"lon":5.39019,"is_reserved":false,"is_disabled":false,"rental_uris":{"android":"levelo://app?vid=a05bb14b-df44-4f0f-ada8-774c57cd21c6","ios":"levelo://app?vid=a05bb14b-df44-4f0f-ada8-774c57cd21c6"},"vehicle_type_id":"4","last_reported":1719950947,"current_range_meters":11200,"station_id":"ce4bhqp2rcd13ifvqhng","pricing_plan_id":"cebpf4jnsgd1na2vs0mg"},{"bike_id":"1fbf8a51-be18-4a2b-80dc-e9843f581605","system_id":"levelo_inurba_marseille","lat":43.31753,"lon":5.39025,"is_reserved":false,"is_disabled":false,"rental_uris":{"android":"levelo://app?vid=1fbf8a51-be18-4a2b-80dc-e9843f581605","ios":"levelo://app?vid=1fbf8a51-be18-4a2b-80dc-e9843f581605"},"vehicle_type_id":"4","last_reported":1719950947,"current_range_meters":17200,"station_id":"ce4bhqp2rcd13ifvqhng","pricing_plan_id":"cebpf4jnsgd1na2vs0mg"},{"bike_id":"cbc291de-5f0b-45f5-96de-de66fe58efc2","system_id":"levelo_inurba_marseille","lat":43.31758,"lon":5.39024,"is_reserved":false,"is_disabled":false,"rental_uris":{"android":"levelo://app?vid=cbc291de-5f0b-45f5-96de-de66fe58efc2","ios":"levelo://app?vid=cbc291de-5f0b-45f5-96de-de66fe58efc2"},"vehicle_type_id":"4","last_reported":1719950947,"current_range_meters":18400,"station_id":"ce4bhqp2rcd13ifvqhng","pricing_plan_id":"cebpf4jnsgd1na2vs0mg"},{"bike_id":"7d2c8c1b-28e1-493c-8f13-b968c8a47d7c","system_id":"levelo_inurba_marseille","lat":43.286961,"lon":5.373785,"is_reserved":false,"is_disabled":false,"rental_uris":{"android":"levelo://app?vid=7d2c8c1b-28e1-493c-8f13-b968c8a47d7c","ios":"levelo://app?vid=7d2c8c1b-28e1-493c-8f13-b968c8a47d7c"},"vehicle_type_id":"4","last_reported":1719950947,"current_range_meters":24000,"station_id":"ce4bh3p2rcd13ifvqdq0","pricing_plan_id":"cebpf4jnsgd1na2vs0mg"},{"bike_id":"183e92c2-490b-474b-8fa4-7e530eb33bb9","system_id":"levelo_inurba_marseille","lat":43.304274,"lon":5.388873,"is_reserved":false,"is_disabled":false,"rental_uris":{"android":"levelo://app?vid=183e92c2-490b-474b-8fa4-7e530eb33bb9","ios":"levelo://app?vid=183e92c2-490b-474b-8fa4-7e530eb33bb9"},"vehicle_type_id":"4","last_reported":1719950947,"current_range_meters":4400,"station_id":"ce4bgk12rcd13ifvqbi0","pricing_plan_id":"cebpf4jnsgd1na2vs0mg"},{"bike_id":"bb8f40b3-2280-4d3a-8069-76b01d38b87f","system_id":"levelo_inurba_marseille","lat":43.290345,"lon":5.38646,"is_reserved":false,"is_disabled":false,"rental_uris":{"android":"levelo://app?vid=bb8f40b3-2280-4d3a-8069-76b01d38b87f","ios":"levelo://app?vid=bb8f40b3-2280-4d3a-8069-76b01d38b87f"},"vehicle_type_id":"4","last_reported":1719950947,"current_range_meters":6400,"station_id":"ce4bh4p2rcd13ifvqe0g","pricing_plan_id":"cebpf4jnsgd1na2vs0mg"},{"bike_id":"1e7edd19-f6f2-4ab3-85ee-8fd68b7230d1","system_id":"levelo_inurba_marseille","lat":43.297948,"lon":5.381045,"is_reserved":false,"is_disabled":false,"rental_uris":{"android":"levelo://app?vid=1e7edd19-f6f2-4ab3-85ee-8fd68b7230d1","ios":"levelo://app?vid=1e7edd19-f6f2-4ab3-85ee-8fd68b7230d1"},"vehicle_type_id":"4","last_reported":1719950947,"current_range_meters":31200,"station_id":"ce4bgip2rcd13ifvqbb0","pricing_plan_id":"cebpf4jnsgd1na2vs0mg"},{"bike_id":"c4648ab1-6318-43b0-b8b2-1f931647df2e","system_id":"levelo_inurba_marseille","lat":43.295748,"lon":5.37522,"is_reserved":false,"is_disabled":false,"rental_uris":{"android":"levelo://app?vid=c4648ab1-6318-43b0-b8b2-1f931647df2e","ios":"levelo://app?vid=c4648ab1-6318-43b0-b8b2-1f931647df2e"},"vehicle_type_id":"4","last_reported":1719950947,"current_range_meters":11600,"station_id":"ce4bgh92rcd13ifvqb50","pricing_plan_id":"cebpf4jnsgd1na2vs0mg"},{"bike_id":"778ae6b9-0283-49bc-9858-f0cb26d81a5f","system_id":"levelo_inurba_marseille","lat":43.29557,"lon":5.37508,"is_reserved":false,"is_disabled":false,"rental_uris":{"android":"levelo://app?vid=778ae6b9-0283-49bc-9858-f0cb26d81a5f","ios":"levelo://app?vid=778ae6b9-0283-49bc-9858-f0cb26d81a5f"},"vehicle_type_id":"4","last_reported":1719950947,"current_range_meters":27200,"station_id":"","pricing_plan_id":"cebpf4jnsgd1na2vs0mg"},{"bike_id":"bbfe7086-cceb-42db-aeec-c7073fb107ff","system_id":"levelo_inurba_marseille","lat":43.2972,"lon":5.38013,"is_reserved":false,"is_disabled":false,"rental_uris":{"android":"levelo://app?vid=bbfe7086-cceb-42db-aeec-c7073fb107ff","ios":"levelo://app?vid=bbfe7086-cceb-42db-aeec-c7073fb107ff"},"vehicle_type_id":"4","last_reported":1719950947,"current_range_meters":8400,"station_id":"","pricing_plan_id":"cebpf4jnsgd1na2vs0mg"},{"bike_id":"afd6fe75-78ac-4283-a939-76afd2ea0f26","system_id":"levelo_inurba_marseille","lat":43.299707,"lon":5.384859,"is_reserved":false,"is_disabled":false,"rental_uris":{"android":"levelo://app?vid=afd6fe75-78ac-4283-a939-76afd2ea0f26","ios":"levelo://app?vid=afd6fe75-78ac-4283-a939-76afd2ea0f26"},"vehicle_type_id":"4","last_reported":1719950947,"current_range_meters":21200,"station_id":"ce4bgj92rcd13ifvqbd0","pricing_plan_id":"cebpf4jnsgd1na2vs0mg"},{"bike_id":"c29f7c61-c1dc-42fc-a952-e0a713268d81","system_id":"levelo_inurba_marseille","lat":43.299724,"lon":5.384848,"is_reserved":false,"is_disabled":false,"rental_uris":{"android":"levelo://app?vid=c29f7c61-c1dc-42fc-a952-e0a713268d81","ios":"levelo://app?vid=c29f7c61-c1dc-42fc-a952-e0a713268d81"},"vehicle_type_id":"4","last_reported":1719950947,"current_range_meters":31200,"station_id":"ce4bgj92rcd13ifvqbd0","pricing_plan_id":"cebpf4jnsgd1na2vs0mg"},{"bike_id":"4ffb3372-53e8-4b13-a81f-3cd8d1d07a3d","system_id":"levelo_inurba_marseille","lat":43.299724,"lon":5.384848,"is_reserved":false,"is_disabled":false,"rental_uris":{"android":"levelo://app?vid=4ffb3372-53e8-4b13-a81f-3cd8d1d07a3d","ios":"levelo://app?vid=4ffb3372-53e8-4b13-a81f-3cd8d1d07a3d"},"vehicle_type_id":"4","last_reported":1719950947,"current_range_meters":17600,"station_id":"ce4bgj92rcd13ifvqbd0","pricing_plan_id":"cebpf4jnsgd1na2vs0mg"},{"bike_id":"0dbca193-9b65-4d75-a403-1355ccd43d1e","system_id":"levelo_inurba_marseille","lat":43.29529,"lon":5.385581,"is_reserved":false,"is_disabled":false,"rental_uris":{"android":"levelo://app?vid=0dbca193-9b65-4d75-a403-1355ccd43d1e","ios":"levelo://app?vid=0dbca193-9b65-4d75-a403-1355ccd43d1e"},"vehicle_type_id":"4","last_reported":1719950947,"current_range_meters":12800,"station_id":"ce4bgih2rcd13ifvqba0","pricing_plan_id":"cebpf4jnsgd1na2vs0mg"},{"bike_id":"4d7d186a-0368-4efd-80ca-0fff544f8a85","system_id":"levelo_inurba_marseille","lat":43.32367,"lon":5.388836,"is_reserved":false,"is_disabled":false,"rental_uris":{"android":"levelo://app?vid=4d7d186a-0368-4efd-80ca-0fff544f8a85","ios":"levelo://app?vid=4d7d186a-0368-4efd-80ca-0fff544f8a85"},"vehicle_type_id":"4","last_reported":1719950947,"current_range_meters":10400,"station_id":"ce4bhqp2rcd13ifvqhog","pricing_plan_id":"cebpf4jnsgd1na2vs0mg"},{"bike_id":"a5ff5896-25f2-4336-bd86-030dca27ff88","system_id":"levelo_inurba_marseille","lat":43.32367,"lon":5.388836,"is_reserved":false,"is_disabled":false,"rental_uris":{"android":"levelo://app?vid=a5ff5896-25f2-4336-bd86-030dca27ff88","ios":"levelo://app?vid=a5ff5896-25f2-4336-bd86-030dca27ff88"},"vehicle_type_id":"4","last_reported":1719950947,"current_range_meters":21200,"station_id":"ce4bhqp2rcd13ifvqhog","pricing_plan_id":"cebpf4jnsgd1na2vs0mg"},{"bike_id":"71d8d7b3-d7a1-4087-80be-3e2984cfc7a8","system_id":"levelo_inurba_marseille","lat":43.32367,"lon":5.388836,"is_reserved":false,"is_disabled":false,"rental_uris":{"android":"levelo://app?vid=71d8d7b3-d7a1-4087-80be-3e2984cfc7a8","ios":"levelo://app?vid=71d8d7b3-d7a1-4087-80be-3e2984cfc7a8"},"vehicle_type_id":"4","last_reported":1719950947,"current_range_meters":1600,"station_id":"ce4bhqp2rcd13ifvqhog","pricing_plan_id":"cebpf4jnsgd1na2vs0mg"},{"bike_id":"22875943-f9df-4fa9-b486-a5141bd9e616","system_id":"levelo_inurba_marseille","lat":43.32367,"lon":5.388836,"is_reserved":false,"is_disabled":false,"rental_uris":{"android":"levelo://app?vid=22875943-f9df-4fa9-b486-a5141bd9e616","ios":"levelo://app?vid=22875943-f9df-4fa9-b486-a5141bd9e616"},"vehicle_type_id":"4","last_reported":1719950947,"current_range_meters":800,"station_id":"ce4bhqp2rcd13ifvqhog","pricing_plan_id":"cebpf4jnsgd1na2vs0mg"},{"bike_id":"2abe6333-5712-4473-949d-0eb8c6d75a42","system_id":"levelo_inurba_marseille","lat":43.29602,"lon":5.381084,"is_reserved":false,"is_disabled":false,"rental_uris":{"android":"levelo://app?vid=2abe6333-5712-4473-949d-0eb8c6d75a42","ios":"levelo://app?vid=2abe6333-5712-4473-949d-0eb8c6d75a42"},"vehicle_type_id":"4","last_reported":1719950947,"current_range_meters":800,"station_id":"ce4bgl12rcd13ifvqbo0","pricing_plan_id":"cebpf4jnsgd1na2vs0mg"},{"bike_id":"60fba7e3-c01d-40ee-9c33-e6fd7d504766","system_id":"levelo_inurba_marseille","lat":43.29602,"lon":5.381084,"is_reserved":false,"is_disabled":false,"rental_uris":{"android":"levelo://app?vid=60fba7e3-c01d-40ee-9c33-e6fd7d504766","ios":"levelo://app?vid=60fba7e3-c01d-40ee-9c33-e6fd7d504766"},"vehicle_type_id":"4","last_reported":1719950947,"current_range_meters":400,"station_id":"ce4bgl12rcd13ifvqbo0","pricing_plan_id":"cebpf4jnsgd1na2vs0mg"},{"bike_id":"be0f36ab-3c20-49d0-a585-f16890f709c7","system_id":"levelo_inurba_marseille","lat":43.29594,"lon":5.381015,"is_reserved":false,"is_disabled":false,"rental_uris":{"android":"levelo://app?vid=be0f36ab-3c20-49d0-a585-f16890f709c7","ios":"levelo://app?vid=be0f36ab-3c20-49d0-a585-f16890f709c7"},"vehicle_type_id":"4","last_reported":1719950947,"current_range_meters":28000,"station_id":"ce4bgl12rcd13ifvqbo0","pricing_plan_id":"cebpf4jnsgd1na2vs0mg"},{"bike_id":"293e6022-339f-417b-be9a-3bc427b73e0c","system_id":"levelo_inurba_marseille","lat":43.293259,"lon":5.371586,"is_reserved":false,"is_disabled":false,"rental_uris":{"android":"levelo://app?vid=293e6022-339f-417b-be9a-3bc427b73e0c","ios":"levelo://app?vid=293e6022-339f-417b-be9a-3bc427b73e0c"},"vehicle_type_id":"4","last_reported":1719950947,"current_range_meters":22000,"station_id":"ce4bgh92rcd13ifvqb40","pricing_plan_id":"cebpf4jnsgd1na2vs0mg"},{"bike_id":"a10d6110-0e93-4bc7-8aab-2c19bcae756e","system_id":"levelo_inurba_marseille","lat":43.2936,"lon":5.37835,"is_reserved":false,"is_disabled":false,"rental_uris":{"android":"levelo://app?vid=a10d6110-0e93-4bc7-8aab-2c19bcae756e","ios":"levelo://app?vid=a10d6110-0e93-4bc7-8aab-2c19bcae756e"},"vehicle_type_id":"4","last_reported":1719950947,"current_range_meters":13200,"station_id":"ce4bgjh2rcd13ifvqbf0","pricing_plan_id":"cebpf4jnsgd1na2vs0mg"},{"bike_id":"957641df-157c-496f-afd8-9acbf9f029ad","system_id":"levelo_inurba_marseille","lat":43.292749,"lon":5.368402,"is_reserved":false,"is_disabled":false,"rental_uris":{"android":"levelo://app?vid=957641df-157c-496f-afd8-9acbf9f029ad","ios":"levelo://app?vid=957641df-157c-496f-afd8-9acbf9f029ad"},"vehicle_type_id":"4","last_reported":1719950947,"current_range_meters":9200,"station_id":"ce4bhbp2rcd13ifvqesg","pricing_plan_id":"cebpf4jnsgd1na2vs0mg"},{"bike_id":"4f297e41-18ef-4e2e-8e0b-c2db0b0fd21d","system_id":"levelo_inurba_marseille","lat":43.30032,"lon":5.38912,"is_reserved":false,"is_disabled":false,"rental_uris":{"android":"levelo://app?vid=4f297e41-18ef-4e2e-8e0b-c2db0b0fd21d","ios":"levelo://app?vid=4f297e41-18ef-4e2e-8e0b-c2db0b0fd21d"},"vehicle_type_id":"4","last_reported":1719950947,"current_range_meters":10000,"station_id":"","pricing_plan_id":"cebpf4jnsgd1na2vs0mg"},{"bike_id":"df9afa50-51d5-4f9e-a565-bf0f0eaf6dd2","system_id":"levelo_inurba_marseille","lat":43.29307,"lon":5.37472,"is_reserved":false,"is_disabled":false,"rental_uris":{"android":"levelo://app?vid=df9afa50-51d5-4f9e-a565-bf0f0eaf6dd2","ios":"levelo://app?vid=df9afa50-51d5-4f9e-a565-bf0f0eaf6dd2"},"vehicle_type_id":"4","last_reported":1719950947,"current_range_meters":0,"station_id":"ce4bgi12rcd13ifvqb70","pricing_plan_id":"cebpf4jnsgd1na2vs0mg"},{"bike_id":"ece0f6f9-6682-4d48-b389-57e34c25a1da","system_id":"levelo_inurba_marseille","lat":43.29304,"lon":5.37467,"is_reserved":false,"is_disabled":false,"rental_uris":{"android":"levelo://app?vid=ece0f6f9-6682-4d48-b389-57e34c25a1da","ios":"levelo://app?vid=ece0f6f9-6682-4d48-b389-57e34c25a1da"},"vehicle_type_id":"4","last_reported":1719950947,"current_range_meters":0,"station_id":"ce4bgi12rcd13ifvqb70","pricing_plan_id":"cebpf4jnsgd1na2vs0mg"},{"bike_id":"db086fe3-4e34-4741-908e-abb75f56c8c2","system_id":"levelo_inurba_marseille","lat":43.30595,"lon":5.3936,"is_reserved":false,"is_disabled":false,"rental_uris":{"android":"levelo://app?vid=db086fe3-4e34-4741-908e-abb75f56c8c2","ios":"levelo://app?vid=db086fe3-4e34-4741-908e-abb75f56c8c2"},"vehicle_type_id":"4","last_reported":1719950947,"current_range_meters":18000,"station_id":"ce4bh0p2rcd13ifvqd80","pricing_plan_id":"cebpf4jnsgd1na2vs0mg"},{"bike_id":"ff141f3c-2c32-43d4-9674-7a89e84147a6","system_id":"levelo_inurba_marseille","lat":43.305994,"lon":5.393687,"is_reserved":false,"is_disabled":false,"rental_uris":{"android":"levelo://app?vid=ff141f3c-2c32-43d4-9674-7a89e84147a6","ios":"levelo://app?vid=ff141f3c-2c32-43d4-9674-7a89e84147a6"},"vehicle_type_id":"4","last_reported":1719950947,"current_range_meters":27600,"station_id":"ce4bh0p2rcd13ifvqd80","pricing_plan_id":"cebpf4jnsgd1na2vs0mg"},{"bike_id":"085406e5-ea75-457c-bd49-94f0dca2401d","system_id":"levelo_inurba_marseille","lat":43.303002,"lon":5.392142,"is_reserved":false,"is_disabled":false,"rental_uris":{"android":"levelo://app?vid=085406e5-ea75-457c-bd49-94f0dca2401d","ios":"levelo://app?vid=085406e5-ea75-457c-bd49-94f0dca2401d"},"vehicle_type_id":"4","last_reported":1719950947,"current_range_meters":24000,"station_id":"ce4bgkh2rcd13ifvqbk0","pricing_plan_id":"cebpf4jnsgd1na2vs0mg"},{"bike_id":"2f71d996-5986-43bc-991b-7b8fef8df2e5","system_id":"levelo_inurba_marseille","lat":43.303002,"lon":5.392142,"is_reserved":false,"is_disabled":false,"rental_uris":{"android":"levelo://app?vid=2f71d996-5986-43bc-991b-7b8fef8df2e5","ios":"levelo://app?vid=2f71d996-5986-43bc-991b-7b8fef8df2e5"},"vehicle_type_id":"4","last_reported":1719950947,"current_range_meters":8400,"station_id":"ce4bgkh2rcd13ifvqbk0","pricing_plan_id":"cebpf4jnsgd1na2vs0mg"},{"bike_id":"378403be-e914-4a31-8fd1-f91234e47090","system_id":"levelo_inurba_marseille","lat":43.303002,"lon":5.392142,"is_reserved":false,"is_disabled":false,"rental_uris":{"android":"levelo://app?vid=378403be-e914-4a31-8fd1-f91234e47090","ios":"levelo://app?vid=378403be-e914-4a31-8fd1-f91234e47090"},"vehicle_type_id":"4","last_reported":1719950947,"current_range_meters":10000,"station_id":"ce4bgkh2rcd13ifvqbk0","pricing_plan_id":"cebpf4jnsgd1na2vs0mg"},{"bike_id":"b8525649-09c9-475c-8ae9-08e4c3efba7a","system_id":"levelo_inurba_marseille","lat":43.303002,"lon":5.392142,"is_reserved":false,"is_disabled":false,"rental_uris":{"android":"levelo://app?vid=b8525649-09c9-475c-8ae9-08e4c3efba7a","ios":"levelo://app?vid=b8525649-09c9-475c-8ae9-08e4c3efba7a"},"vehicle_type_id":"4","last_reported":1719950947,"current_range_meters":3200,"station_id":"ce4bgkh2rcd13ifvqbk0","pricing_plan_id":"cebpf4jnsgd1na2vs0mg"},{"bike_id":"61c205cc-e50e-4c67-8979-e4551b0af5c5","system_id":"levelo_inurba_marseille","lat":43.30297,"lon":5.39206,"is_reserved":false,"is_disabled":false,"rental_uris":{"android":"levelo://app?vid=61c205cc-e50e-4c67-8979-e4551b0af5c5","ios":"levelo://app?vid=61c205cc-e50e-4c67-8979-e4551b0af5c5"},"vehicle_type_id":"4","last_reported":1719950947,"current_range_meters":16800,"station_id":"ce4bgkh2rcd13ifvqbk0","pricing_plan_id":"cebpf4jnsgd1na2vs0mg"},{"bike_id":"19c5a14e-bb7c-4346-b8ef-500872a9e29c","system_id":"levelo_inurba_marseille","lat":43.302992,"lon":5.392136,"is_reserved":false,"is_disabled":false,"rental_uris":{"android":"levelo://app?vid=19c5a14e-bb7c-4346-b8ef-500872a9e29c","ios":"levelo://app?vid=19c5a14e-bb7c-4346-b8ef-500872a9e29c"},"vehicle_type_id":"4","last_reported":1719950947,"current_range_meters":4800,"station_id":"ce4bgkh2rcd13ifvqbk0","pricing_plan_id":"cebpf4jnsgd1na2vs0mg"},{"bike_id":"349c7f2b-393c-40a7-b4a2-f09629c2cf98","system_id":"levelo_inurba_marseille","lat":43.30299,"lon":5.39214,"is_reserved":false,"is_disabled":false,"rental_uris":{"android":"levelo://app?vid=349c7f2b-393c-40a7-b4a2-f09629c2cf98","ios":"levelo://app?vid=349c7f2b-393c-40a7-b4a2-f09629c2cf98"},"vehicle_type_id":"4","last_reported":1719950947,"current_range_meters":6400,"station_id":"ce4bgkh2rcd13ifvqbk0","pricing_plan_id":"cebpf4jnsgd1na2vs0mg"},{"bike_id":"fc41454f-b075-444c-baf1-4283c117c6b8","system_id":"levelo_inurba_marseille","lat":43.30306,"lon":5.3922,"is_reserved":false,"is_disabled":false,"rental_uris":{"android":"levelo://app?vid=fc41454f-b075-444c-baf1-4283c117c6b8","ios":"levelo://app?vid=fc41454f-b075-444c-baf1-4283c117c6b8"},"vehicle_type_id":"4","last_reported":1719950947,"current_range_meters":0,"station_id":"ce4bgkh2rcd13ifvqbk0","pricing_plan_id":"cebpf4jnsgd1na2vs0mg"},{"bike_id":"dab4cd37-2989-44aa-aa71-c3cdc63841d4","system_id":"levelo_inurba_marseille","lat":43.2936,"lon":5.37835,"is_reserved":false,"is_disabled":false,"rental_uris":{"android":"levelo://app?vid=dab4cd37-2989-44aa-aa71-c3cdc63841d4","ios":"levelo://app?vid=dab4cd37-2989-44aa-aa71-c3cdc63841d4"},"vehicle_type_id":"4","last_reported":1719950947,"current_range_meters":2000,"station_id":"ce4bgjh2rcd13ifvqbf0","pricing_plan_id":"cebpf4jnsgd1na2vs0mg"},{"bike_id":"9380520c-8ba6-4e34-a269-8e45af2ddf6e","system_id":"levelo_inurba_marseille","lat":43.2936,"lon":5.37835,"is_reserved":false,"is_disabled":false,"rental_uris":{"android":"levelo://app?vid=9380520c-8ba6-4e34-a269-8e45af2ddf6e","ios":"levelo://app?vid=9380520c-8ba6-4e34-a269-8e45af2ddf6e"},"vehicle_type_id":"4","last_reported":1719950947,"current_range_meters":4800,"station_id":"ce4bgjh2rcd13ifvqbf0","pricing_plan_id":"cebpf4jnsgd1na2vs0mg"},{"bike_id":"af9055a4-f2da-4ee5-889b-15889f95eeb9","system_id":"levelo_inurba_marseille","lat":43.292311,"lon":5.360731,"is_reserved":false,"is_disabled":false,"rental_uris":{"android":"levelo://app?vid=af9055a4-f2da-4ee5-889b-15889f95eeb9","ios":"levelo://app?vid=af9055a4-f2da-4ee5-889b-15889f95eeb9"},"vehicle_type_id":"4","last_reported":1719950947,"current_range_meters":0,"station_id":"ce4bhbh2rcd13ifvqeqg","pricing_plan_id":"cebpf4jnsgd1na2vs0mg"},{"bike_id":"f3bd7510-c031-4e51-962d-3928b3eaab43","system_id":"levelo_inurba_marseille","lat":43.300852,"lon":5.390859,"is_reserved":false,"is_disabled":false,"rental_uris":{"android":"levelo://app?vid=f3bd7510-c031-4e51-962d-3928b3eaab43","ios":"levelo://app?vid=f3bd7510-c031-4e51-962d-3928b3eaab43"},"vehicle_type_id":"4","last_reported":1719950947,"current_range_meters":16400,"station_id":"ce4bh192rcd13ifvqdb0","pricing_plan_id":"cebpf4jnsgd1na2vs0mg"},{"bike_id":"c50c37ec-5f31-41c8-830e-7feb80e864cf","system_id":"levelo_inurba_marseille","lat":43.292311,"lon":5.360731,"is_reserved":false,"is_disabled":false,"rental_uris":{"android":"levelo://app?vid=c50c37ec-5f31-41c8-830e-7feb80e864cf","ios":"levelo://app?vid=c50c37ec-5f31-41c8-830e-7feb80e864cf"},"vehicle_type_id":"4","last_reported":1719950947,"current_range_meters":6800,"station_id":"ce4bhbh2rcd13ifvqeqg","pricing_plan_id":"cebpf4jnsgd1na2vs0mg"},{"bike_id":"5543c083-f83d-46ef-9cd9-93ba2cec5adf","system_id":"levelo_inurba_marseille","lat":43.292311,"lon":5.360731,"is_reserved":false,"is_disabled":false,"rental_uris":{"android":"levelo://app?vid=5543c083-f83d-46ef-9cd9-93ba2cec5adf","ios":"levelo://app?vid=5543c083-f83d-46ef-9cd9-93ba2cec5adf"},"vehicle_type_id":"4","last_reported":1719950947,"current_range_meters":2000,"station_id":"ce4bhbh2rcd13ifvqeqg","pricing_plan_id":"cebpf4jnsgd1na2vs0mg"},{"bike_id":"a3db5506-2b97-48df-9daf-7df28383a32f","system_id":"levelo_inurba_marseille","lat":43.29222,"lon":5.36073,"is_reserved":false,"is_disabled":false,"rental_uris":{"android":"levelo://app?vid=a3db5506-2b97-48df-9daf-7df28383a32f","ios":"levelo://app?vid=a3db5506-2b97-48df-9daf-7df28383a32f"},"vehicle_type_id":"4","last_reported":1719950947,"current_range_meters":0,"station_id":"ce4bhbh2rcd13ifvqeqg","pricing_plan_id":"cebpf4jnsgd1na2vs0mg"},{"bike_id":"569ed427-3db7-45ab-b92f-848795d0055e","system_id":"levelo_inurba_marseille","lat":43.293009,"lon":5.374584,"is_reserved":false,"is_disabled":false,"rental_uris":{"android":"levelo://app?vid=569ed427-3db7-45ab-b92f-848795d0055e","ios":"levelo://app?vid=569ed427-3db7-45ab-b92f-848795d0055e"},"vehicle_type_id":"4","last_reported":1719950947,"current_range_meters":12800,"station_id":"ce4bgi12rcd13ifvqb70","pricing_plan_id":"cebpf4jnsgd1na2vs0mg"},{"bike_id":"144fba20-3aaa-4cf3-a209-9f78d78514c0","system_id":"levelo_inurba_marseille","lat":43.292672,"lon":5.376196,"is_reserved":false,"is_disabled":false,"rental_uris":{"android":"levelo://app?vid=144fba20-3aaa-4cf3-a209-9f78d78514c0","ios":"levelo://app?vid=144fba20-3aaa-4cf3-a209-9f78d78514c0"},"vehicle_type_id":"4","last_reported":1719950947,"current_range_meters":31200,"station_id":"","pricing_plan_id":"cebpf4jnsgd1na2vs0mg"},{"bike_id":"4d802e8a-82db-45c0-af10-e384c90cc38c","system_id":"levelo_inurba_marseille","lat":43.291675,"lon":5.371583,"is_reserved":false,"is_disabled":false,"rental_uris":{"android":"levelo://app?vid=4d802e8a-82db-45c0-af10-e384c90cc38c","ios":"levelo://app?vid=4d802e8a-82db-45c0-af10-e384c90cc38c"},"vehicle_type_id":"4","last_reported":1719950947,"current_range_meters":1600,"station_id":"ce4bha92rcd13ifvqeh0","pricing_plan_id":"cebpf4jnsgd1na2vs0mg"},{"bike_id":"60b28703-4028-4a20-80d0-63a20436ed3a","system_id":"levelo_inurba_marseille","lat":43.29349,"lon":5.37957,"is_reserved":false,"is_disabled":false,"rental_uris":{"android":"levelo://app?vid=60b28703-4028-4a20-80d0-63a20436ed3a","ios":"levelo://app?vid=60b28703-4028-4a20-80d0-63a20436ed3a"},"vehicle_type_id":"4","last_reported":1719950947,"current_range_meters":0,"station_id":"","pricing_plan_id":"cebpf4jnsgd1na2vs0mg"},{"bike_id":"64b4ac80-bd0b-432d-ad96-9c58be1dc881","system_id":"levelo_inurba_marseille","lat":43.309038,"lon":5.396546,"is_reserved":false,"is_disabled":false,"rental_uris":{"android":"levelo://app?vid=64b4ac80-bd0b-432d-ad96-9c58be1dc881","ios":"levelo://app?vid=64b4ac80-bd0b-432d-ad96-9c58be1dc881"},"vehicle_type_id":"4","last_reported":1719950947,"current_range_meters":6000,"station_id":"ce4bh012rcd13ifvqcv0","pricing_plan_id":"cebpf4jnsgd1na2vs0mg"},{"bike_id":"8bffc61d-eb53-4b67-bc3c-8bfb4589c71f","system_id":"levelo_inurba_marseille","lat":43.291994,"lon":5.357886,"is_reserved":false,"is_disabled":false,"rental_uris":{"android":"levelo://app?vid=8bffc61d-eb53-4b67-bc3c-8bfb4589c71f","ios":"levelo://app?vid=8bffc61d-eb53-4b67-bc3c-8bfb4589c71f"},"vehicle_type_id":"4","last_reported":1719950947,"current_range_meters":0,"station_id":"ce4bhb12rcd13ifvqel0","pricing_plan_id":"cebpf4jnsgd1na2vs0mg"},{"bike_id":"18018df1-1f9e-465c-9b38-ebeade0c014f","system_id":"levelo_inurba_marseille","lat":43.309038,"lon":5.396546,"is_reserved":false,"is_disabled":false,"rental_uris":{"android":"levelo://app?vid=18018df1-1f9e-465c-9b38-ebeade0c014f","ios":"levelo://app?vid=18018df1-1f9e-465c-9b38-ebeade0c014f"},"vehicle_type_id":"4","last_reported":1719950947,"current_range_meters":0,"station_id":"ce4bh012rcd13ifvqcv0","pricing_plan_id":"cebpf4jnsgd1na2vs0mg"},{"bike_id":"15ace7c4-e76f-49c6-a545-58f441e16b33","system_id":"levelo_inurba_marseille","lat":43.31331,"lon":5.39689,"is_reserved":false,"is_disabled":false,"rental_uris":{"android":"levelo://app?vid=15ace7c4-e76f-49c6-a545-58f441e16b33","ios":"levelo://app?vid=15ace7c4-e76f-49c6-a545-58f441e16b33"},"vehicle_type_id":"4","last_reported":1719950947,"current_range_meters":31200,"station_id":"ce4bgvp2rcd13ifvqcu0","pricing_plan_id":"cebpf4jnsgd1na2vs0mg"},{"bike_id":"9fb19eba-19f9-47dc-bf9c-f96de6177bac","system_id":"levelo_inurba_marseille","lat":43.313291,"lon":5.396838,"is_reserved":false,"is_disabled":false,"rental_uris":{"android":"levelo://app?vid=9fb19eba-19f9-47dc-bf9c-f96de6177bac","ios":"levelo://app?vid=9fb19eba-19f9-47dc-bf9c-f96de6177bac"},"vehicle_type_id":"4","last_reported":1719950947,"current_range_meters":11600,"station_id":"ce4bgvp2rcd13ifvqcu0","pricing_plan_id":"cebpf4jnsgd1na2vs0mg"},{"bike_id":"ecf1403a-93e4-4d51-aee3-246503410ecd","system_id":"levelo_inurba_marseille","lat":43.31329,"lon":5.3969,"is_reserved":false,"is_disabled":false,"rental_uris":{"android":"levelo://app?vid=ecf1403a-93e4-4d51-aee3-246503410ecd","ios":"levelo://app?vid=ecf1403a-93e4-4d51-aee3-246503410ecd"},"vehicle_type_id":"4","last_reported":1719950947,"current_range_meters":6400,"station_id":"ce4bgvp2rcd13ifvqcu0","pricing_plan_id":"cebpf4jnsgd1na2vs0mg"},{"bike_id":"362d43bd-b9f0-4ada-8d05-7d867fefb15b","system_id":"levelo_inurba_marseille","lat":43.29268,"lon":5.37875,"is_reserved":false,"is_disabled":false,"rental_uris":{"android":"levelo://app?vid=362d43bd-b9f0-4ada-8d05-7d867fefb15b","ios":"levelo://app?vid=362d43bd-b9f0-4ada-8d05-7d867fefb15b"},"vehicle_type_id":"4","last_reported":1719950947,"current_range_meters":0,"station_id":"","pricing_plan_id":"cebpf4jnsgd1na2vs0mg"},{"bike_id":"dfe9e7d9-7f7f-4629-810d-c038dadcc4b9","system_id":"levelo_inurba_marseille","lat":43.31331,"lon":5.39694,"is_reserved":false,"is_disabled":false,"rental_uris":{"android":"levelo://app?vid=dfe9e7d9-7f7f-4629-810d-c038dadcc4b9","ios":"levelo://app?vid=dfe9e7d9-7f7f-4629-810d-c038dadcc4b9"},"vehicle_type_id":"4","last_reported":1719950947,"current_range_meters":9600,"station_id":"ce4bgvp2rcd13ifvqcu0","pricing_plan_id":"cebpf4jnsgd1na2vs0mg"},{"bike_id":"f2b46963-76e5-4ebc-ae54-06db77e38483","system_id":"levelo_inurba_marseille","lat":43.309038,"lon":5.396546,"is_reserved":false,"is_disabled":false,"rental_uris":{"android":"levelo://app?vid=f2b46963-76e5-4ebc-ae54-06db77e38483","ios":"levelo://app?vid=f2b46963-76e5-4ebc-ae54-06db77e38483"},"vehicle_type_id":"4","last_reported":1719950947,"current_range_meters":11600,"station_id":"ce4bh012rcd13ifvqcv0","pricing_plan_id":"cebpf4jnsgd1na2vs0mg"},{"bike_id":"976a0340-e8ad-45fe-af16-1eeacb57b2f1","system_id":"levelo_inurba_marseille","lat":43.313291,"lon":5.396838,"is_reserved":false,"is_disabled":false,"rental_uris":{"android":"levelo://app?vid=976a0340-e8ad-45fe-af16-1eeacb57b2f1","ios":"levelo://app?vid=976a0340-e8ad-45fe-af16-1eeacb57b2f1"},"vehicle_type_id":"4","last_reported":1719950947,"current_range_meters":10800,"station_id":"ce4bgvp2rcd13ifvqcu0","pricing_plan_id":"cebpf4jnsgd1na2vs0mg"},{"bike_id":"de518754-f808-4859-a961-b2ddfce7f178","system_id":"levelo_inurba_marseille","lat":43.309038,"lon":5.396546,"is_reserved":false,"is_disabled":false,"rental_uris":{"android":"levelo://app?vid=de518754-f808-4859-a961-b2ddfce7f178","ios":"levelo://app?vid=de518754-f808-4859-a961-b2ddfce7f178"},"vehicle_type_id":"4","last_reported":1719950947,"current_range_meters":15600,"station_id":"ce4bh012rcd13ifvqcv0","pricing_plan_id":"cebpf4jnsgd1na2vs0mg"},{"bike_id":"a6824106-e58c-4632-9e63-ffec81fcc21b","system_id":"levelo_inurba_marseille","lat":43.31324,"lon":5.39705,"is_reserved":false,"is_disabled":false,"rental_uris":{"android":"levelo://app?vid=a6824106-e58c-4632-9e63-ffec81fcc21b","ios":"levelo://app?vid=a6824106-e58c-4632-9e63-ffec81fcc21b"},"vehicle_type_id":"4","last_reported":1719950947,"current_range_meters":17600,"station_id":"ce4bgvp2rcd13ifvqcu0","pricing_plan_id":"cebpf4jnsgd1na2vs0mg"},{"bike_id":"1cdea6fb-5616-44d1-bd97-d5f48c1f71bf","system_id":"levelo_inurba_marseille","lat":43.309038,"lon":5.396546,"is_reserved":false,"is_disabled":false,"rental_uris":{"android":"levelo://app?vid=1cdea6fb-5616-44d1-bd97-d5f48c1f71bf","ios":"levelo://app?vid=1cdea6fb-5616-44d1-bd97-d5f48c1f71bf"},"vehicle_type_id":"4","last_reported":1719950947,"current_range_meters":7600,"station_id":"ce4bh012rcd13ifvqcv0","pricing_plan_id":"cebpf4jnsgd1na2vs0mg"},{"bike_id":"db7db2bd-950b-4d7c-a972-a73cd26dba8c","system_id":"levelo_inurba_marseille","lat":43.29529,"lon":5.385581,"is_reserved":false,"is_disabled":false,"rental_uris":{"android":"levelo://app?vid=db7db2bd-950b-4d7c-a972-a73cd26dba8c","ios":"levelo://app?vid=db7db2bd-950b-4d7c-a972-a73cd26dba8c"},"vehicle_type_id":"4","last_reported":1719950947,"current_range_meters":31200,"station_id":"ce4bgih2rcd13ifvqba0","pricing_plan_id":"cebpf4jnsgd1na2vs0mg"},{"bike_id":"7324db37-d10c-4084-9f12-4c099e26c5ad","system_id":"levelo_inurba_marseille","lat":43.29529,"lon":5.385581,"is_reserved":false,"is_disabled":false,"rental_uris":{"android":"levelo://app?vid=7324db37-d10c-4084-9f12-4c099e26c5ad","ios":"levelo://app?vid=7324db37-d10c-4084-9f12-4c099e26c5ad"},"vehicle_type_id":"4","last_reported":1719950947,"current_range_meters":25600,"station_id":"ce4bgih2rcd13ifvqba0","pricing_plan_id":"cebpf4jnsgd1na2vs0mg"},{"bike_id":"a4cb5e9e-1cf2-4212-926b-6b349a426adc","system_id":"levelo_inurba_marseille","lat":43.29539,"lon":5.38546,"is_reserved":false,"is_disabled":false,"rental_uris":{"android":"levelo://app?vid=a4cb5e9e-1cf2-4212-926b-6b349a426adc","ios":"levelo://app?vid=a4cb5e9e-1cf2-4212-926b-6b349a426adc"},"vehicle_type_id":"4","last_reported":1719950947,"current_range_meters":28400,"station_id":"ce4bgih2rcd13ifvqba0","pricing_plan_id":"cebpf4jnsgd1na2vs0mg"},{"bike_id":"d7e0b768-812c-4afc-8d73-d6e003a4e439","system_id":"levelo_inurba_marseille","lat":43.29532,"lon":5.38536,"is_reserved":false,"is_disabled":false,"rental_uris":{"android":"levelo://app?vid=d7e0b768-812c-4afc-8d73-d6e003a4e439","ios":"levelo://app?vid=d7e0b768-812c-4afc-8d73-d6e003a4e439"},"vehicle_type_id":"4","last_reported":1719950947,"current_range_meters":0,"station_id":"ce4bgih2rcd13ifvqba0","pricing_plan_id":"cebpf4jnsgd1na2vs0mg"},{"bike_id":"f9b57475-10a0-46e5-acad-75316cc1684b","system_id":"levelo_inurba_marseille","lat":43.2953,"lon":5.38533,"is_reserved":false,"is_disabled":false,"rental_uris":{"android":"levelo://app?vid=f9b57475-10a0-46e5-acad-75316cc1684b","ios":"levelo://app?vid=f9b57475-10a0-46e5-acad-75316cc1684b"},"vehicle_type_id":"4","last_reported":1719950947,"current_range_meters":10400,"station_id":"ce4bgih2rcd13ifvqba0","pricing_plan_id":"cebpf4jnsgd1na2vs0mg"},{"bike_id":"05ee8b59-3b15-44b2-8e77-51bd559a09f2","system_id":"levelo_inurba_marseille","lat":43.29529,"lon":5.38535,"is_reserved":false,"is_disabled":false,"rental_uris":{"android":"levelo://app?vid=05ee8b59-3b15-44b2-8e77-51bd559a09f2","ios":"levelo://app?vid=05ee8b59-3b15-44b2-8e77-51bd559a09f2"},"vehicle_type_id":"4","last_reported":1719950947,"current_range_meters":20400,"station_id":"ce4bgih2rcd13ifvqba0","pricing_plan_id":"cebpf4jnsgd1na2vs0mg"},{"bike_id":"b32f65f4-1d7e-47ea-aeb7-c48ef9016e91","system_id":"levelo_inurba_marseille","lat":43.29529,"lon":5.385581,"is_reserved":false,"is_disabled":false,"rental_uris":{"android":"levelo://app?vid=b32f65f4-1d7e-47ea-aeb7-c48ef9016e91","ios":"levelo://app?vid=b32f65f4-1d7e-47ea-aeb7-c48ef9016e91"},"vehicle_type_id":"4","last_reported":1719950947,"current_range_meters":8400,"station_id":"ce4bgih2rcd13ifvqba0","pricing_plan_id":"cebpf4jnsgd1na2vs0mg"},{"bike_id":"b66267e9-5082-4295-a785-d5a83d7339b7","system_id":"levelo_inurba_marseille","lat":43.29529,"lon":5.385581,"is_reserved":false,"is_disabled":false,"rental_uris":{"android":"levelo://app?vid=b66267e9-5082-4295-a785-d5a83d7339b7","ios":"levelo://app?vid=b66267e9-5082-4295-a785-d5a83d7339b7"},"vehicle_type_id":"4","last_reported":1719950947,"current_range_meters":29600,"station_id":"ce4bgih2rcd13ifvqba0","pricing_plan_id":"cebpf4jnsgd1na2vs0mg"},{"bike_id":"9d6d5d30-5771-4d44-b81a-7ecaa6d25875","system_id":"levelo_inurba_marseille","lat":43.29529,"lon":5.38541,"is_reserved":false,"is_disabled":false,"rental_uris":{"android":"levelo://app?vid=9d6d5d30-5771-4d44-b81a-7ecaa6d25875","ios":"levelo://app?vid=9d6d5d30-5771-4d44-b81a-7ecaa6d25875"},"vehicle_type_id":"4","last_reported":1719950947,"current_range_meters":16400,"station_id":"ce4bgih2rcd13ifvqba0","pricing_plan_id":"cebpf4jnsgd1na2vs0mg"},{"bike_id":"7831157e-8539-445b-81d2-29886e04b542","system_id":"levelo_inurba_marseille","lat":43.29526,"lon":5.38537,"is_reserved":false,"is_disabled":false,"rental_uris":{"android":"levelo://app?vid=7831157e-8539-445b-81d2-29886e04b542","ios":"levelo://app?vid=7831157e-8539-445b-81d2-29886e04b542"},"vehicle_type_id":"4","last_reported":1719950947,"current_range_meters":25200,"station_id":"ce4bgih2rcd13ifvqba0","pricing_plan_id":"cebpf4jnsgd1na2vs0mg"},{"bike_id":"d6a799a1-52dd-44b3-9745-f9997be7706e","system_id":"levelo_inurba_marseille","lat":43.29526,"lon":5.38542,"is_reserved":false,"is_disabled":false,"rental_uris":{"android":"levelo://app?vid=d6a799a1-52dd-44b3-9745-f9997be7706e","ios":"levelo://app?vid=d6a799a1-52dd-44b3-9745-f9997be7706e"},"vehicle_type_id":"4","last_reported":1719950947,"current_range_meters":13200,"station_id":"ce4bgih2rcd13ifvqba0","pricing_plan_id":"cebpf4jnsgd1na2vs0mg"},{"bike_id":"4db8dc2a-bab1-4b9d-9931-834606c5e7f9","system_id":"levelo_inurba_marseille","lat":43.29527,"lon":5.38544,"is_reserved":false,"is_disabled":false,"rental_uris":{"android":"levelo://app?vid=4db8dc2a-bab1-4b9d-9931-834606c5e7f9","ios":"levelo://app?vid=4db8dc2a-bab1-4b9d-9931-834606c5e7f9"},"vehicle_type_id":"4","last_reported":1719950947,"current_range_meters":3200,"station_id":"ce4bgih2rcd13ifvqba0","pricing_plan_id":"cebpf4jnsgd1na2vs0mg"},{"bike_id":"2d94e08c-c52a-4db4-830e-5c8dde3d03c9","system_id":"levelo_inurba_marseille","lat":43.29529,"lon":5.385581,"is_reserved":false,"is_disabled":false,"rental_uris":{"android":"levelo://app?vid=2d94e08c-c52a-4db4-830e-5c8dde3d03c9","ios":"levelo://app?vid=2d94e08c-c52a-4db4-830e-5c8dde3d03c9"},"vehicle_type_id":"4","last_reported":1719950947,"current_range_meters":21600,"station_id":"ce4bgih2rcd13ifvqba0","pricing_plan_id":"cebpf4jnsgd1na2vs0mg"},{"bike_id":"6e78e60b-58c7-473e-aeb3-8e14152bd173","system_id":"levelo_inurba_marseille","lat":43.29526,"lon":5.38554,"is_reserved":false,"is_disabled":false,"rental_uris":{"android":"levelo://app?vid=6e78e60b-58c7-473e-aeb3-8e14152bd173","ios":"levelo://app?vid=6e78e60b-58c7-473e-aeb3-8e14152bd173"},"vehicle_type_id":"4","last_reported":1719950947,"current_range_meters":16400,"station_id":"ce4bgih2rcd13ifvqba0","pricing_plan_id":"cebpf4jnsgd1na2vs0mg"},{"bike_id":"618459d3-f90a-4cc0-9f2a-de83436026a7","system_id":"levelo_inurba_marseille","lat":43.290779,"lon":5.371482,"is_reserved":false,"is_disabled":false,"rental_uris":{"android":"levelo://app?vid=618459d3-f90a-4cc0-9f2a-de83436026a7","ios":"levelo://app?vid=618459d3-f90a-4cc0-9f2a-de83436026a7"},"vehicle_type_id":"4","last_reported":1719950947,"current_range_meters":800,"station_id":"ce4bh5p2rcd13ifvqe4g","pricing_plan_id":"cebpf4jnsgd1na2vs0mg"},{"bike_id":"0c5730e2-67fd-4476-a481-06c37c2a5553","system_id":"levelo_inurba_marseille","lat":43.30667,"lon":5.39641,"is_reserved":false,"is_disabled":false,"rental_uris":{"android":"levelo://app?vid=0c5730e2-67fd-4476-a481-06c37c2a5553","ios":"levelo://app?vid=0c5730e2-67fd-4476-a481-06c37c2a5553"},"vehicle_type_id":"4","last_reported":1719950947,"current_range_meters":22800,"station_id":"","pricing_plan_id":"cebpf4jnsgd1na2vs0mg"},{"bike_id":"d632ed7c-7bcf-4bfe-85e0-c413ac146c4e","system_id":"levelo_inurba_marseille","lat":43.302008,"lon":5.394694,"is_reserved":false,"is_disabled":false,"rental_uris":{"android":"levelo://app?vid=d632ed7c-7bcf-4bfe-85e0-c413ac146c4e","ios":"levelo://app?vid=d632ed7c-7bcf-4bfe-85e0-c413ac146c4e"},"vehicle_type_id":"4","last_reported":1719950947,"current_range_meters":400,"station_id":"ce4bh0p2rcd13ifvqd70","pricing_plan_id":"cebpf4jnsgd1na2vs0mg"},{"bike_id":"ce19d290-24cc-44e1-96cf-e54d57e06ff0","system_id":"levelo_inurba_marseille","lat":43.302008,"lon":5.394694,"is_reserved":false,"is_disabled":false,"rental_uris":{"android":"levelo://app?vid=ce19d290-24cc-44e1-96cf-e54d57e06ff0","ios":"levelo://app?vid=ce19d290-24cc-44e1-96cf-e54d57e06ff0"},"vehicle_type_id":"4","last_reported":1719950947,"current_range_meters":2800,"station_id":"ce4bh0p2rcd13ifvqd70","pricing_plan_id":"cebpf4jnsgd1na2vs0mg"},{"bike_id":"2e6bfeb1-a3e1-4ada-b05d-15f04c1b9d55","system_id":"levelo_inurba_marseille","lat":43.30216,"lon":5.39461,"is_reserved":false,"is_disabled":false,"rental_uris":{"android":"levelo://app?vid=2e6bfeb1-a3e1-4ada-b05d-15f04c1b9d55","ios":"levelo://app?vid=2e6bfeb1-a3e1-4ada-b05d-15f04c1b9d55"},"vehicle_type_id":"4","last_reported":1719950947,"current_range_meters":0,"station_id":"ce4bh0p2rcd13ifvqd70","pricing_plan_id":"cebpf4jnsgd1na2vs0mg"},{"bike_id":"e7ca577a-4bf2-4970-b187-b2964212cf0c","system_id":"levelo_inurba_marseille","lat":43.302008,"lon":5.394694,"is_reserved":false,"is_disabled":false,"rental_uris":{"android":"levelo://app?vid=e7ca577a-4bf2-4970-b187-b2964212cf0c","ios":"levelo://app?vid=e7ca577a-4bf2-4970-b187-b2964212cf0c"},"vehicle_type_id":"4","last_reported":1719950947,"current_range_meters":24000,"station_id":"ce4bh0p2rcd13ifvqd70","pricing_plan_id":"cebpf4jnsgd1na2vs0mg"},{"bike_id":"911b57e7-95fb-4f3a-8c34-79cfeea56222","system_id":"levelo_inurba_marseille","lat":43.302008,"lon":5.394694,"is_reserved":false,"is_disabled":false,"rental_uris":{"android":"levelo://app?vid=911b57e7-95fb-4f3a-8c34-79cfeea56222","ios":"levelo://app?vid=911b57e7-95fb-4f3a-8c34-79cfeea56222"},"vehicle_type_id":"4","last_reported":1719950947,"current_range_meters":24400,"station_id":"ce4bh0p2rcd13ifvqd70","pricing_plan_id":"cebpf4jnsgd1na2vs0mg"},{"bike_id":"31537e13-3af0-4036-90e4-2a3c5c8f9bee","system_id":"levelo_inurba_marseille","lat":43.29051,"lon":5.359113,"is_reserved":false,"is_disabled":false,"rental_uris":{"android":"levelo://app?vid=31537e13-3af0-4036-90e4-2a3c5c8f9bee","ios":"levelo://app?vid=31537e13-3af0-4036-90e4-2a3c5c8f9bee"},"vehicle_type_id":"4","last_reported":1719950947,"current_range_meters":3600,"station_id":"ce4bha92rcd13ifvqeg0","pricing_plan_id":"cebpf4jnsgd1na2vs0mg"},{"bike_id":"004491c2-1be1-47ef-9717-ff22d9621c02","system_id":"levelo_inurba_marseille","lat":43.290631,"lon":5.359244,"is_reserved":false,"is_disabled":false,"rental_uris":{"android":"levelo://app?vid=004491c2-1be1-47ef-9717-ff22d9621c02","ios":"levelo://app?vid=004491c2-1be1-47ef-9717-ff22d9621c02"},"vehicle_type_id":"4","last_reported":1719950947,"current_range_meters":10400,"station_id":"ce4bha92rcd13ifvqeg0","pricing_plan_id":"cebpf4jnsgd1na2vs0mg"},{"bike_id":"97ff3298-d9e7-4b47-9b5c-e57c0fd95572","system_id":"levelo_inurba_marseille","lat":43.294153,"lon":5.386305,"is_reserved":false,"is_disabled":false,"rental_uris":{"android":"levelo://app?vid=97ff3298-d9e7-4b47-9b5c-e57c0fd95572","ios":"levelo://app?vid=97ff3298-d9e7-4b47-9b5c-e57c0fd95572"},"vehicle_type_id":"4","last_reported":1719950947,"current_range_meters":26000,"station_id":"ce4bh2h2rcd13ifvqdh0","pricing_plan_id":"cebpf4jnsgd1na2vs0mg"},{"bike_id":"1bedae5e-ddc3-497b-bf55-010cba558aa0","system_id":"levelo_inurba_marseille","lat":43.29424,"lon":5.38625,"is_reserved":false,"is_disabled":false,"rental_uris":{"android":"levelo://app?vid=1bedae5e-ddc3-497b-bf55-010cba558aa0","ios":"levelo://app?vid=1bedae5e-ddc3-497b-bf55-010cba558aa0"},"vehicle_type_id":"4","last_reported":1719950947,"current_range_meters":17600,"station_id":"ce4bh2h2rcd13ifvqdh0","pricing_plan_id":"cebpf4jnsgd1na2vs0mg"},{"bike_id":"21737c3c-2ecd-4149-a7cf-dac50ab236d2","system_id":"levelo_inurba_marseille","lat":43.29418,"lon":5.38618,"is_reserved":false,"is_disabled":false,"rental_uris":{"android":"levelo://app?vid=21737c3c-2ecd-4149-a7cf-dac50ab236d2","ios":"levelo://app?vid=21737c3c-2ecd-4149-a7cf-dac50ab236d2"},"vehicle_type_id":"4","last_reported":1719950947,"current_range_meters":0,"station_id":"ce4bh2h2rcd13ifvqdh0","pricing_plan_id":"cebpf4jnsgd1na2vs0mg"},{"bike_id":"5cfc2402-0a12-4a9f-a567-581029fcf5e9","system_id":"levelo_inurba_marseille","lat":43.294153,"lon":5.386305,"is_reserved":false,"is_disabled":false,"rental_uris":{"android":"levelo://app?vid=5cfc2402-0a12-4a9f-a567-581029fcf5e9","ios":"levelo://app?vid=5cfc2402-0a12-4a9f-a567-581029fcf5e9"},"vehicle_type_id":"4","last_reported":1719950947,"current_range_meters":0,"station_id":"ce4bh2h2rcd13ifvqdh0","pricing_plan_id":"cebpf4jnsgd1na2vs0mg"},{"bike_id":"4f25ac70-ea03-44ac-81b1-d66feb6838f1","system_id":"levelo_inurba_marseille","lat":43.29423,"lon":5.38628,"is_reserved":false,"is_disabled":false,"rental_uris":{"android":"levelo://app?vid=4f25ac70-ea03-44ac-81b1-d66feb6838f1","ios":"levelo://app?vid=4f25ac70-ea03-44ac-81b1-d66feb6838f1"},"vehicle_type_id":"4","last_reported":1719950947,"current_range_meters":3200,"station_id":"ce4bh2h2rcd13ifvqdh0","pricing_plan_id":"cebpf4jnsgd1na2vs0mg"},{"bike_id":"ba4bb204-a64f-4768-8ee3-be60e36cf08a","system_id":"levelo_inurba_marseille","lat":43.29419,"lon":5.38621,"is_reserved":false,"is_disabled":false,"rental_uris":{"android":"levelo://app?vid=ba4bb204-a64f-4768-8ee3-be60e36cf08a","ios":"levelo://app?vid=ba4bb204-a64f-4768-8ee3-be60e36cf08a"},"vehicle_type_id":"4","last_reported":1719950947,"current_range_meters":3600,"station_id":"ce4bh2h2rcd13ifvqdh0","pricing_plan_id":"cebpf4jnsgd1na2vs0mg"},{"bike_id":"3bdb8c49-eb86-4941-85df-fb76ed42c744","system_id":"levelo_inurba_marseille","lat":43.29417,"lon":5.38619,"is_reserved":false,"is_disabled":false,"rental_uris":{"android":"levelo://app?vid=3bdb8c49-eb86-4941-85df-fb76ed42c744","ios":"levelo://app?vid=3bdb8c49-eb86-4941-85df-fb76ed42c744"},"vehicle_type_id":"4","last_reported":1719950947,"current_range_meters":12400,"station_id":"ce4bh2h2rcd13ifvqdh0","pricing_plan_id":"cebpf4jnsgd1na2vs0mg"},{"bike_id":"289bab0b-8272-4bb3-a4aa-ed6fe5f0eb39","system_id":"levelo_inurba_marseille","lat":43.294153,"lon":5.386305,"is_reserved":false,"is_disabled":false,"rental_uris":{"android":"levelo://app?vid=289bab0b-8272-4bb3-a4aa-ed6fe5f0eb39","ios":"levelo://app?vid=289bab0b-8272-4bb3-a4aa-ed6fe5f0eb39"},"vehicle_type_id":"4","last_reported":1719950947,"current_range_meters":4400,"station_id":"ce4bh2h2rcd13ifvqdh0","pricing_plan_id":"cebpf4jnsgd1na2vs0mg"},{"bike_id":"e5b53eaa-ae29-445f-a4a2-79711d0c3f47","system_id":"levelo_inurba_marseille","lat":43.294153,"lon":5.386305,"is_reserved":false,"is_disabled":false,"rental_uris":{"android":"levelo://app?vid=e5b53eaa-ae29-445f-a4a2-79711d0c3f47","ios":"levelo://app?vid=e5b53eaa-ae29-445f-a4a2-79711d0c3f47"},"vehicle_type_id":"4","last_reported":1719950947,"current_range_meters":13200,"station_id":"ce4bh2h2rcd13ifvqdh0","pricing_plan_id":"cebpf4jnsgd1na2vs0mg"},{"bike_id":"2221c2a8-f7f7-4dee-af47-bb7925f2618f","system_id":"levelo_inurba_marseille","lat":43.294153,"lon":5.386305,"is_reserved":false,"is_disabled":false,"rental_uris":{"android":"levelo://app?vid=2221c2a8-f7f7-4dee-af47-bb7925f2618f","ios":"levelo://app?vid=2221c2a8-f7f7-4dee-af47-bb7925f2618f"},"vehicle_type_id":"4","last_reported":1719950947,"current_range_meters":31200,"station_id":"ce4bh2h2rcd13ifvqdh0","pricing_plan_id":"cebpf4jnsgd1na2vs0mg"},{"bike_id":"af42ee7d-1fe1-45a0-8a16-8034226ee8ee","system_id":"levelo_inurba_marseille","lat":43.29413,"lon":5.3862,"is_reserved":false,"is_disabled":false,"rental_uris":{"android":"levelo://app?vid=af42ee7d-1fe1-45a0-8a16-8034226ee8ee","ios":"levelo://app?vid=af42ee7d-1fe1-45a0-8a16-8034226ee8ee"},"vehicle_type_id":"4","last_reported":1719950947,"current_range_meters":800,"station_id":"ce4bh2h2rcd13ifvqdh0","pricing_plan_id":"cebpf4jnsgd1na2vs0mg"},{"bike_id":"e97ee9b4-1452-4a6b-9cdf-4101862cb7c6","system_id":"levelo_inurba_marseille","lat":43.29417,"lon":5.386276,"is_reserved":false,"is_disabled":false,"rental_uris":{"android":"levelo://app?vid=e97ee9b4-1452-4a6b-9cdf-4101862cb7c6","ios":"levelo://app?vid=e97ee9b4-1452-4a6b-9cdf-4101862cb7c6"},"vehicle_type_id":"4","last_reported":1719950947,"current_range_meters":22400,"station_id":"ce4bh2h2rcd13ifvqdh0","pricing_plan_id":"cebpf4jnsgd1na2vs0mg"},{"bike_id":"7c4da0f5-5be4-4632-9d35-7452dac33772","system_id":"levelo_inurba_marseille","lat":43.29416,"lon":5.38628,"is_reserved":false,"is_disabled":false,"rental_uris":{"android":"levelo://app?vid=7c4da0f5-5be4-4632-9d35-7452dac33772","ios":"levelo://app?vid=7c4da0f5-5be4-4632-9d35-7452dac33772"},"vehicle_type_id":"4","last_reported":1719950947,"current_range_meters":5600,"station_id":"ce4bh2h2rcd13ifvqdh0","pricing_plan_id":"cebpf4jnsgd1na2vs0mg"},{"bike_id":"6dee3e5d-0433-4f9e-b6d8-3821f0417f70","system_id":"levelo_inurba_marseille","lat":43.29415,"lon":5.38628,"is_reserved":false,"is_disabled":false,"rental_uris":{"android":"levelo://app?vid=6dee3e5d-0433-4f9e-b6d8-3821f0417f70","ios":"levelo://app?vid=6dee3e5d-0433-4f9e-b6d8-3821f0417f70"},"vehicle_type_id":"4","last_reported":1719950947,"current_range_meters":20000,"station_id":"ce4bh2h2rcd13ifvqdh0","pricing_plan_id":"cebpf4jnsgd1na2vs0mg"},{"bike_id":"ce191b99-5f4c-4564-9072-352ae7cf06bf","system_id":"levelo_inurba_marseille","lat":43.29416,"lon":5.38631,"is_reserved":false,"is_disabled":false,"rental_uris":{"android":"levelo://app?vid=ce191b99-5f4c-4564-9072-352ae7cf06bf","ios":"levelo://app?vid=ce191b99-5f4c-4564-9072-352ae7cf06bf"},"vehicle_type_id":"4","last_reported":1719950947,"current_range_meters":10800,"station_id":"ce4bh2h2rcd13ifvqdh0","pricing_plan_id":"cebpf4jnsgd1na2vs0mg"},{"bike_id":"9755095e-7ffc-46bf-b311-058fe9b1a4b2","system_id":"levelo_inurba_marseille","lat":43.29415,"lon":5.3863,"is_reserved":false,"is_disabled":false,"rental_uris":{"android":"levelo://app?vid=9755095e-7ffc-46bf-b311-058fe9b1a4b2","ios":"levelo://app?vid=9755095e-7ffc-46bf-b311-058fe9b1a4b2"},"vehicle_type_id":"4","last_reported":1719950947,"current_range_meters":14400,"station_id":"ce4bh2h2rcd13ifvqdh0","pricing_plan_id":"cebpf4jnsgd1na2vs0mg"},{"bike_id":"9023be8f-f52d-4f87-b9d3-8b3332d952e1","system_id":"levelo_inurba_marseille","lat":43.29415,"lon":5.3863,"is_reserved":false,"is_disabled":false,"rental_uris":{"android":"levelo://app?vid=9023be8f-f52d-4f87-b9d3-8b3332d952e1","ios":"levelo://app?vid=9023be8f-f52d-4f87-b9d3-8b3332d952e1"},"vehicle_type_id":"4","last_reported":1719950947,"current_range_meters":24000,"station_id":"ce4bh2h2rcd13ifvqdh0","pricing_plan_id":"cebpf4jnsgd1na2vs0mg"},{"bike_id":"8e4e7d05-cb12-408f-a9bf-2b209c24dfd3","system_id":"levelo_inurba_marseille","lat":43.29416,"lon":5.38632,"is_reserved":false,"is_disabled":false,"rental_uris":{"android":"levelo://app?vid=8e4e7d05-cb12-408f-a9bf-2b209c24dfd3","ios":"levelo://app?vid=8e4e7d05-cb12-408f-a9bf-2b209c24dfd3"},"vehicle_type_id":"4","last_reported":1719950947,"current_range_meters":30800,"station_id":"ce4bh2h2rcd13ifvqdh0","pricing_plan_id":"cebpf4jnsgd1na2vs0mg"},{"bike_id":"749534e8-1aa3-48e7-bd30-9efc50257a29","system_id":"levelo_inurba_marseille","lat":43.29414,"lon":5.38629,"is_reserved":false,"is_disabled":false,"rental_uris":{"android":"levelo://app?vid=749534e8-1aa3-48e7-bd30-9efc50257a29","ios":"levelo://app?vid=749534e8-1aa3-48e7-bd30-9efc50257a29"},"vehicle_type_id":"4","last_reported":1719950947,"current_range_meters":16400,"station_id":"ce4bh2h2rcd13ifvqdh0","pricing_plan_id":"cebpf4jnsgd1na2vs0mg"},{"bike_id":"9cbd147d-ad14-4fad-896d-4a6a9ffcc820","system_id":"levelo_inurba_marseille","lat":43.294162,"lon":5.386292,"is_reserved":false,"is_disabled":false,"rental_uris":{"android":"levelo://app?vid=9cbd147d-ad14-4fad-896d-4a6a9ffcc820","ios":"levelo://app?vid=9cbd147d-ad14-4fad-896d-4a6a9ffcc820"},"vehicle_type_id":"4","last_reported":1719950947,"current_range_meters":24400,"station_id":"ce4bh2h2rcd13ifvqdh0","pricing_plan_id":"cebpf4jnsgd1na2vs0mg"},{"bike_id":"68c737c7-69a2-4701-8a3b-7c0fb84b69e6","system_id":"levelo_inurba_marseille","lat":43.289468,"lon":5.363719,"is_reserved":false,"is_disabled":false,"rental_uris":{"android":"levelo://app?vid=68c737c7-69a2-4701-8a3b-7c0fb84b69e6","ios":"levelo://app?vid=68c737c7-69a2-4701-8a3b-7c0fb84b69e6"},"vehicle_type_id":"4","last_reported":1719950947,"current_range_meters":0,"station_id":"ce4bhc92rcd13ifvqetg","pricing_plan_id":"cebpf4jnsgd1na2vs0mg"},{"bike_id":"265d1098-90a2-4abc-aeaf-c807320260cb","system_id":"levelo_inurba_marseille","lat":43.289468,"lon":5.363719,"is_reserved":false,"is_disabled":false,"rental_uris":{"android":"levelo://app?vid=265d1098-90a2-4abc-aeaf-c807320260cb","ios":"levelo://app?vid=265d1098-90a2-4abc-aeaf-c807320260cb"},"vehicle_type_id":"4","last_reported":1719950947,"current_range_meters":0,"station_id":"ce4bhc92rcd13ifvqetg","pricing_plan_id":"cebpf4jnsgd1na2vs0mg"},{"bike_id":"c2edfabb-ba48-4872-ab73-fa603954c833","system_id":"levelo_inurba_marseille","lat":43.289468,"lon":5.363719,"is_reserved":false,"is_disabled":false,"rental_uris":{"android":"levelo://app?vid=c2edfabb-ba48-4872-ab73-fa603954c833","ios":"levelo://app?vid=c2edfabb-ba48-4872-ab73-fa603954c833"},"vehicle_type_id":"4","last_reported":1719950947,"current_range_meters":9200,"station_id":"ce4bhc92rcd13ifvqetg","pricing_plan_id":"cebpf4jnsgd1na2vs0mg"},{"bike_id":"42160fad-f043-4413-b5c6-928cdc6eaa7d","system_id":"levelo_inurba_marseille","lat":43.294102,"lon":5.386445,"is_reserved":false,"is_disabled":false,"rental_uris":{"android":"levelo://app?vid=42160fad-f043-4413-b5c6-928cdc6eaa7d","ios":"levelo://app?vid=42160fad-f043-4413-b5c6-928cdc6eaa7d"},"vehicle_type_id":"4","last_reported":1719950947,"current_range_meters":22400,"station_id":"ce4bh2h2rcd13ifvqdh0","pricing_plan_id":"cebpf4jnsgd1na2vs0mg"},{"bike_id":"6035be86-4146-4416-b01f-ea66498a9c4e","system_id":"levelo_inurba_marseille","lat":43.289468,"lon":5.363719,"is_reserved":false,"is_disabled":false,"rental_uris":{"android":"levelo://app?vid=6035be86-4146-4416-b01f-ea66498a9c4e","ios":"levelo://app?vid=6035be86-4146-4416-b01f-ea66498a9c4e"},"vehicle_type_id":"4","last_reported":1719950947,"current_range_meters":19200,"station_id":"ce4bhc92rcd13ifvqetg","pricing_plan_id":"cebpf4jnsgd1na2vs0mg"},