{"last_updated":1727118411,"ttl":30,"version":"2.2","data":{"bikes":[{"bike_id":"34e49e59-195f-4e3e-907c-4e46993b2f20","system_id":"levelo_inurba_marseille","lat":43.25079,"lon":5.3952,"is_reserved":false,"is_disabled":false,"rental_uris":{"android":"levelo://app?vid=34e49e59-195f-4e3e-907c-4e46993b2f20","ios":"levelo://app?vid=34e49e59-195f-4e3e-907c-4e46993b2f20"},"vehicle_type_id":"4","last_reported":1727118411,"current_range_meters":29600,"station_id":"ce4bhm12rcd13ifvqgkg","pricing_plan_id":"cebpf4jnsgd1na2vs0mg"},{"bike_id":"82577459-7502-4b90-bdc3-5297bdcfcd2b","system_id":"levelo_inurba_marseille","lat":43.32653,"lon":5.40997,"is_reserved":false,"is_disabled":false,"rental_uris":{"android":"levelo://app?vid=82577459-7502-4b90-bdc3-5297bdcfcd2b","ios":"levelo://app?vid=82577459-7502-4b90-bdc3-5297bdcfcd2b"},"vehicle_type_id":"4","last_reported":1727118411,"current_range_meters":38800,"station_id":"ce4bhpp2rcd13ifvqhgg","pricing_plan_id":"cebpf4jnsgd1na2vs0mg"},{"bike_id":"0b867cf0-0a3a-446c-b669-b298f9278571","system_id":"levelo_inurba_marseille","lat":43.26549,"lon":5.37296,"is_reserved":false,"is_disabled":false,"rental_uris":{"android":"levelo://app?vid=0b867cf0-0a3a-446c-b669-b298f9278571","ios":"levelo://app?vid=0b867cf0-0a3a-446c-b669-b298f9278571"},"vehicle_type_id":"4","last_reported":1727118411,"current_range_meters":38800,"station_id":"ce4bhg12rcd13ifvqf70","pricing_plan_id":"cebpf4jnsgd1na2vs0mg"},{"bike_id":"5f0b1244-d634-4717-ab1d-dd6db718fb6d","system_id":"levelo_inurba_marseille","lat":43.30803,"lon":5.43542,"is_reserved":false,"is_disabled":false,"rental_uris":{"android":"levelo://app?vid=5f0b1244-d634-4717-ab1d-dd6db718fb6d","ios":"levelo://app?vid=5f0b1244-d634-4717-ab1d-dd6db718fb6d"},"vehicle_type_id":"4","last_reported":1727118411,"current_range_meters":38800,"station_id":"ce4bhph2rcd13ifvqheg","pricing_plan_id":"cebpf4jnsgd1na2vs0mg"},{"bike_id":"195f0389-8525-419d-b9b7-07f958b4f1d0","system_id":"levelo_inurba_marseille","lat":43.30881,"lon":5.39646,"is_reserved":false,"is_disabled":false,"rental_uris":{"android":"levelo://app?vid=195f0389-8525-419d-b9b7-07f958b4f1d0","ios":"levelo://app?vid=195f0389-8525-419d-b9b7-07f958b4f1d0"},"vehicle_type_id":"4","last_reported":1727118411,"current_range_meters":27600,"station_id":"ce4bh012rcd13ifvqcv0","pricing_plan_id":"cebpf4jnsgd1na2vs0mg"},{"bike_id":"8a36b205-5d39-425b-9431-3cbfd0b04638","system_id":"levelo_inurba_marseille","lat":43.31708,"lon":5.43709,"is_reserved":false,"is_disabled":false,"rental_uris":{"android":"levelo://app?vid=8a36b205-5d39-425b-9431-3cbfd0b04638","ios":"levelo://app?vid=8a36b205-5d39-425b-9431-3cbfd0b04638"},"vehicle_type_id":"4","last_reported":1727118411,"current_range_meters":12400,"station_id":"ce4bhp92rcd13ifvqhcg","pricing_plan_id":"cebpf4jnsgd1na2vs0mg"},{"bike_id":"c1564186-787d-4e6b-9464-d7f1268ba34b","system_id":"levelo_inurba_marseille","lat":43.29434,"lon":5.39754,"is_reserved":false,"is_disabled":false,"rental_uris":{"android":"levelo://app?vid=c1564186-787d-4e6b-9464-d7f1268ba34b","ios":"levelo://app?vid=c1564186-787d-4e6b-9464-d7f1268ba34b"},"vehicle_type_id":"4","last_reported":1727118411,"current_range_meters":23200,"station_id":"ce4bh3h2rcd13ifvqdo0","pricing_plan_id":"cebpf4jnsgd1na2vs0mg"},{"bike_id":"20a042f1-81aa-4cde-8548-4f002e395336","system_id":"levelo_inurba_marseille","lat":43.31063,"lon":5.40086,"is_reserved":false,"is_disabled":false,"rental_uris":{"android":"levelo://app?vid=20a042f1-81aa-4cde-8548-4f002e395336","ios":"levelo://app?vid=20a042f1-81aa-4cde-8548-4f002e395336"},"vehicle_type_id":"4","last_reported":1727118411,"current_range_meters":27600,"station_id":"ce4bgvp2rcd13ifvqct0","pricing_plan_id":"cebpf4jnsgd1na2vs0mg"},{"bike_id":"fd550f3a-c4be-4030-8e5d-80c1d67c306e","system_id":"levelo_inurba_marseille","lat":43.24543,"lon":5.39527,"is_reserved":false,"is_disabled":false,"rental_uris":{"android":"levelo://app?vid=fd550f3a-c4be-4030-8e5d-80c1d67c306e","ios":"levelo://app?vid=fd550f3a-c4be-4030-8e5d-80c1d67c306e"},"vehicle_type_id":"4","last_reported":1727118411,"current_range_meters":2800,"station_id":"ce4bhlp2rcd13ifvqgjg","pricing_plan_id":"cebpf4jnsgd1na2vs0mg"},{"bike_id":"ec40b85b-25d9-47e2-8c62-cfae630541e2","system_id":"levelo_inurba_marseille","lat":43.29344,"lon":5.37859,"is_reserved":false,"is_disabled":false,"rental_uris":{"android":"levelo://app?vid=ec40b85b-25d9-47e2-8c62-cfae630541e2","ios":"levelo://app?vid=ec40b85b-25d9-47e2-8c62-cfae630541e2"},"vehicle_type_id":"4","last_reported":1727118411,"current_range_meters":10000,"station_id":"ce4bgjh2rcd13ifvqbf0","pricing_plan_id":"cebpf4jnsgd1na2vs0mg"},{"bike_id":"8422990e-8823-4d96-af43-839cc39d19a0","system_id":"levelo_inurba_marseille","lat":43.27074,"lon":5.42285,"is_reserved":false,"is_disabled":false,"rental_uris":{"android":"levelo://app?vid=8422990e-8823-4d96-af43-839cc39d19a0","ios":"levelo://app?vid=8422990e-8823-4d96-af43-839cc39d19a0"},"vehicle_type_id":"4","last_reported":1727118411,"current_range_meters":38800,"station_id":"ce4bhk92rcd13ifvqgb0","pricing_plan_id":"cebpf4jnsgd1na2vs0mg"},{"bike_id":"55f2a712-941e-4f18-8bbc-b9d9754a641f","system_id":"levelo_inurba_marseille","lat":43.32297,"lon":5.38555,"is_reserved":false,"is_disabled":false,"rental_uris":{"android":"levelo://app?vid=55f2a712-941e-4f18-8bbc-b9d9754a641f","ios":"levelo://app?vid=55f2a712-941e-4f18-8bbc-b9d9754a641f"},"vehicle_type_id":"4","last_reported":1727118411,"current_range_meters":21600,"station_id":"","pricing_plan_id":"cebpf4jnsgd1na2vs0mg"},{"bike_id":"2b9f0eeb-e51d-4906-a990-8153533f2907","system_id":"levelo_inurba_marseille","lat":43.29419,"lon":5.38625,"is_reserved":false,"is_disabled":false,"rental_uris":{"android":"levelo://app?vid=2b9f0eeb-e51d-4906-a990-8153533f2907","ios":"levelo://app?vid=2b9f0eeb-e51d-4906-a990-8153533f2907"},"vehicle_type_id":"4","last_reported":1727118411,"current_range_meters":19600,"station_id":"ce4bh2h2rcd13ifvqdh0","pricing_plan_id":"cebpf4jnsgd1na2vs0mg"},{"bike_id":"1f090e47-c4ab-43e9-a602-6c27abddd982","system_id":"levelo_inurba_marseille","lat":43.30597,"lon":5.37204,"is_reserved":false,"is_disabled":false,"rental_uris":{"android":"levelo://app?vid=1f090e47-c4ab-43e9-a602-6c27abddd982","ios":"levelo://app?vid=1f090e47-c4ab-43e9-a602-6c27abddd982"},"vehicle_type_id":"4","last_reported":1727118411,"current_range_meters":27600,"station_id":"ce4bgqh2rcd13ifvqc4g","pricing_plan_id":"cebpf4jnsgd1na2vs0mg"},{"bike_id":"edd9f561-5010-424f-b5df-12ce2bb400d0","system_id":"levelo_inurba_marseille","lat":43.245361,"lon":5.395248,"is_reserved":false,"is_disabled":false,"rental_uris":{"android":"levelo://app?vid=edd9f561-5010-424f-b5df-12ce2bb400d0","ios":"levelo://app?vid=edd9f561-5010-424f-b5df-12ce2bb400d0"},"vehicle_type_id":"4","last_reported":1727118411,"current_range_meters":3200,"station_id":"ce4bhlp2rcd13ifvqgjg","pricing_plan_id":"cebpf4jnsgd1na2vs0mg"},{"bike_id":"ba398423-104c-4d17-851a-2a8001635d21","system_id":"levelo_inurba_marseille","lat":43.31167,"lon":5.38729,"is_reserved":false,"is_disabled":false,"rental_uris":{"android":"levelo://app?vid=ba398423-104c-4d17-851a-2a8001635d21","ios":"levelo://app?vid=ba398423-104c-4d17-851a-2a8001635d21"},"vehicle_type_id":"4","last_reported":1727118411,"current_range_meters":38800,"station_id":"ce4bgv12rcd13ifvqcp0","pricing_plan_id":"cebpf4jnsgd1na2vs0mg"},{"bike_id":"ff089e92-e1d8-46cc-9121-c5b0576ff68e","system_id":"levelo_inurba_marseille","lat":43.29192,"lon":5.39331,"is_reserved":false,"is_disabled":false,"rental_uris":{"android":"levelo://app?vid=ff089e92-e1d8-46cc-9121-c5b0576ff68e","ios":"levelo://app?vid=ff089e92-e1d8-46cc-9121-c5b0576ff68e"},"vehicle_type_id":"4","last_reported":1727118411,"current_range_meters":29600,"station_id":"ce4bh192rcd13ifvqdd0","pricing_plan_id":"cebpf4jnsgd1na2vs0mg"},{"bike_id":"4117225d-fbf7-489f-a9f9-a7903758f15d","system_id":"levelo_inurba_marseille","lat":43.337444,"lon":5.374475,"is_reserved":false,"is_disabled":false,"rental_uris":{"android":"levelo://app?vid=4117225d-fbf7-489f-a9f9-a7903758f15d","ios":"levelo://app?vid=4117225d-fbf7-489f-a9f9-a7903758f15d"},"vehicle_type_id":"4","last_reported":1727118411,"current_range_meters":24800,"station_id":"","pricing_plan_id":"cebpf4jnsgd1na2vs0mg"},{"bike_id":"9e6695d8-e56a-4cc9-bd4e-b96fc24281a7","system_id":"levelo_inurba_marseille","lat":43.30786,"lon":5.37649,"is_reserved":false,"is_disabled":false,"rental_uris":{"android":"levelo://app?vid=9e6695d8-e56a-4cc9-bd4e-b96fc24281a7","ios":"levelo://app?vid=9e6695d8-e56a-4cc9-bd4e-b96fc24281a7"},"vehicle_type_id":"4","last_reported":1727118411,"current_range_meters":16800,"station_id":"ce4bgv92rcd13ifvqcq0","pricing_plan_id":"cebpf4jnsgd1na2vs0mg"},{"bike_id":"d0ec4f7a-ac0d-44fa-83b4-aeda2498d0bb","system_id":"levelo_inurba_marseille","lat":43.27918,"lon":5.39581,"is_reserved":false,"is_disabled":false,"rental_uris":{"android":"levelo://app?vid=d0ec4f7a-ac0d-44fa-83b4-aeda2498d0bb","ios":"levelo://app?vid=d0ec4f7a-ac0d-44fa-83b4-aeda2498d0bb"},"vehicle_type_id":"4","last_reported":1727118411,"current_range_meters":37600,"station_id":"ce4bhf92rcd13ifvqf40","pricing_plan_id":"cebpf4jnsgd1na2vs0mg"},{"bike_id":"49e4f352-f1f7-4a8d-b947-c01be90df125","system_id":"levelo_inurba_marseille","lat":43.33015,"lon":5.39039,"is_reserved":false,"is_disabled":false,"rental_uris":{"android":"levelo://app?vid=49e4f352-f1f7-4a8d-b947-c01be90df125","ios":"levelo://app?vid=49e4f352-f1f7-4a8d-b947-c01be90df125"},"vehicle_type_id":"4","last_reported":1727118411,"current_range_meters":13600,"station_id":"ce4bhr92rcd13ifvqhrg","pricing_plan_id":"cebpf4jnsgd1na2vs0mg"},{"bike_id":"ac892f7f-5753-4cf8-83b3-933bebfb2461","system_id":"levelo_inurba_marseille","lat":43.28452,"lon":5.35893,"is_reserved":false,"is_disabled":false,"rental_uris":{"android":"levelo://app?vid=ac892f7f-5753-4cf8-83b3-933bebfb2461","ios":"levelo://app?vid=ac892f7f-5753-4cf8-83b3-933bebfb2461"},"vehicle_type_id":"4","last_reported":1727118411,"current_range_meters":8400,"station_id":"ce4bhah2rcd13ifvqei0","pricing_plan_id":"cebpf4jnsgd1na2vs0mg"},{"bike_id":"19831b78-b954-4a98-acb2-5cd5937977d0","system_id":"levelo_inurba_marseille","lat":43.275801,"lon":5.384186,"is_reserved":false,"is_disabled":false,"rental_uris":{"android":"levelo://app?vid=19831b78-b954-4a98-acb2-5cd5937977d0","ios":"levelo://app?vid=19831b78-b954-4a98-acb2-5cd5937977d0"},"vehicle_type_id":"4","last_reported":1727118411,"current_range_meters":38400,"station_id":"ce4bhh92rcd13ifvqfi0","pricing_plan_id":"cebpf4jnsgd1na2vs0mg"},{"bike_id":"a697c666-c7db-4dd0-93e0-cd3cdc25783c","system_id":"levelo_inurba_marseille","lat":43.32655,"lon":5.40999,"is_reserved":false,"is_disabled":false,"rental_uris":{"android":"levelo://app?vid=a697c666-c7db-4dd0-93e0-cd3cdc25783c","ios":"levelo://app?vid=a697c666-c7db-4dd0-93e0-cd3cdc25783c"},"vehicle_type_id":"4","last_reported":1727118411,"current_range_meters":37600,"station_id":"ce4bhpp2rcd13ifvqhgg","pricing_plan_id":"cebpf4jnsgd1na2vs0mg"},{"bike_id":"8cf8eddb-e442-47b0-9c45-6088c76a1438","system_id":"levelo_inurba_marseille","lat":43.31751,"lon":5.39017,"is_reserved":false,"is_disabled":false,"rental_uris":{"android":"levelo://app?vid=8cf8eddb-e442-47b0-9c45-6088c76a1438","ios":"levelo://app?vid=8cf8eddb-e442-47b0-9c45-6088c76a1438"},"vehicle_type_id":"4","last_reported":1727118411,"current_range_meters":38800,"station_id":"ce4bhqp2rcd13ifvqhng","pricing_plan_id":"cebpf4jnsgd1na2vs0mg"},{"bike_id":"96a83bfe-c6b5-4256-89b6-ec36bdfaf970","system_id":"levelo_inurba_marseille","lat":43.26942,"lon":5.40256,"is_reserved":false,"is_disabled":false,"rental_uris":{"android":"levelo://app?vid=96a83bfe-c6b5-4256-89b6-ec36bdfaf970","ios":"levelo://app?vid=96a83bfe-c6b5-4256-89b6-ec36bdfaf970"},"vehicle_type_id":"4","last_reported":1727118411,"current_range_meters":12400,"station_id":"cjm6bp8fraef2m0cb0m0","pricing_plan_id":"cebpf4jnsgd1na2vs0mg"},{"bike_id":"6d6504ad-a948-442b-a1e3-2b33fe6fa231","system_id":"levelo_inurba_marseille","lat":43.315216,"lon":5.380317,"is_reserved":false,"is_disabled":false,"rental_uris":{"android":"levelo://app?vid=6d6504ad-a948-442b-a1e3-2b33fe6fa231","ios":"levelo://app?vid=6d6504ad-a948-442b-a1e3-2b33fe6fa231"},"vehicle_type_id":"4","last_reported":1727118411,"current_range_meters":7200,"station_id":"ce4bhsp2rcd13ifvqi50","pricing_plan_id":"cebpf4jnsgd1na2vs0mg"},{"bike_id":"67f25e71-d398-4629-b141-dc877cec4c4c","system_id":"levelo_inurba_marseille","lat":43.26017,"lon":5.37588,"is_reserved":false,"is_disabled":false,"rental_uris":{"android":"levelo://app?vid=67f25e71-d398-4629-b141-dc877cec4c4c","ios":"levelo://app?vid=67f25e71-d398-4629-b141-dc877cec4c4c"},"vehicle_type_id":"4","last_reported":1727118411,"current_range_meters":7200,"station_id":"ce4bhgh2rcd13ifvqfa0","pricing_plan_id":"cebpf4jnsgd1na2vs0mg"},{"bike_id":"5a1521a8-5072-4ef0-818c-b1a7c293acca","system_id":"levelo_inurba_marseille","lat":43.26549,"lon":5.37287,"is_reserved":false,"is_disabled":false,"rental_uris":{"android":"levelo://app?vid=5a1521a8-5072-4ef0-818c-b1a7c293acca","ios":"levelo://app?vid=5a1521a8-5072-4ef0-818c-b1a7c293acca"},"vehicle_type_id":"4","last_reported":1727118411,"current_range_meters":38800,"station_id":"ce4bhg12rcd13ifvqf70","pricing_plan_id":"cebpf4jnsgd1na2vs0mg"},{"bike_id":"8c5f180f-6afb-41a6-b1ae-57b1729b897a","system_id":"levelo_inurba_marseille","lat":43.24663,"lon":5.38166,"is_reserved":false,"is_disabled":false,"rental_uris":{"android":"levelo://app?vid=8c5f180f-6afb-41a6-b1ae-57b1729b897a","ios":"levelo://app?vid=8c5f180f-6afb-41a6-b1ae-57b1729b897a"},"vehicle_type_id":"4","last_reported":1727118411,"current_range_meters":4000,"station_id":"ce4bhih2rcd13ifvqfr0","pricing_plan_id":"cebpf4jnsgd1na2vs0mg"},{"bike_id":"1a108c67-bfd6-4ec1-bbd7-f904000be4ea","system_id":"levelo_inurba_marseille","lat":43.28722,"lon":5.36081,"is_reserved":false,"is_disabled":false,"rental_uris":{"android":"levelo://app?vid=1a108c67-bfd6-4ec1-bbd7-f904000be4ea","ios":"levelo://app?vid=1a108c67-bfd6-4ec1-bbd7-f904000be4ea"},"vehicle_type_id":"4","last_reported":1727118411,"current_range_meters":18800,"station_id":"cki0cbj6b192h4jlfktg","pricing_plan_id":"cebpf4jnsgd1na2vs0mg"},{"bike_id":"8130be1a-3e82-47c6-95d8-218a863937a6","system_id":"levelo_inurba_marseille","lat":43.33015,"lon":5.39046,"is_reserved":false,"is_disabled":false,"rental_uris":{"android":"levelo://app?vid=8130be1a-3e82-47c6-95d8-218a863937a6","ios":"levelo://app?vid=8130be1a-3e82-47c6-95d8-218a863937a6"},"vehicle_type_id":"4","last_reported":1727118411,"current_range_meters":23200,"station_id":"ce4bhr92rcd13ifvqhrg","pricing_plan_id":"cebpf4jnsgd1na2vs0mg"},{"bike_id":"3ebaaaec-15d2-494c-ab9e-13e8bcbe1874","system_id":"levelo_inurba_marseille","lat":43.29276,"lon":5.3686,"is_reserved":false,"is_disabled":false,"rental_uris":{"android":"levelo://app?vid=3ebaaaec-15d2-494c-ab9e-13e8bcbe1874","ios":"levelo://app?vid=3ebaaaec-15d2-494c-ab9e-13e8bcbe1874"},"vehicle_type_id":"4","last_reported":1727118411,"current_range_meters":29600,"station_id":"ce4bhbp2rcd13ifvqesg","pricing_plan_id":"cebpf4jnsgd1na2vs0mg"},{"bike_id":"0acb8fda-8c8b-45d6-a605-e76d40778e66","system_id":"levelo_inurba_marseille","lat":43.28449,"lon":5.35896,"is_reserved":false,"is_disabled":false,"rental_uris":{"android":"levelo://app?vid=0acb8fda-8c8b-45d6-a605-e76d40778e66","ios":"levelo://app?vid=0acb8fda-8c8b-45d6-a605-e76d40778e66"},"vehicle_type_id":"4","last_reported":1727118411,"current_range_meters":36000,"station_id":"ce4bhah2rcd13ifvqei0","pricing_plan_id":"cebpf4jnsgd1na2vs0mg"},{"bike_id":"e9968bae-5473-49ad-9d92-9499df32cdda","system_id":"levelo_inurba_marseille","lat":43.28646,"lon":5.38674,"is_reserved":false,"is_disabled":false,"rental_uris":{"android":"levelo://app?vid=e9968bae-5473-49ad-9d92-9499df32cdda","ios":"levelo://app?vid=e9968bae-5473-49ad-9d92-9499df32cdda"},"vehicle_type_id":"4","last_reported":1727118411,"current_range_meters":36800,"station_id":"ce4bh492rcd13ifvqdug","pricing_plan_id":"cebpf4jnsgd1na2vs0mg"},{"bike_id":"57be9e58-b1b2-43d9-9f58-d16597d1070b","system_id":"levelo_inurba_marseille","lat":43.28694,"lon":5.37393,"is_reserved":false,"is_disabled":false,"rental_uris":{"android":"levelo://app?vid=57be9e58-b1b2-43d9-9f58-d16597d1070b","ios":"levelo://app?vid=57be9e58-b1b2-43d9-9f58-d16597d1070b"},"vehicle_type_id":"4","last_reported":1727118411,"current_range_meters":36400,"station_id":"ce4bh3p2rcd13ifvqdq0","pricing_plan_id":"cebpf4jnsgd1na2vs0mg"},{"bike_id":"5f03d8f9-2866-4cbc-b898-568e2190d871","system_id":"levelo_inurba_marseille","lat":43.28448,"lon":5.392092,"is_reserved":false,"is_disabled":false,"rental_uris":{"android":"levelo://app?vid=5f03d8f9-2866-4cbc-b898-568e2190d871","ios":"levelo://app?vid=5f03d8f9-2866-4cbc-b898-568e2190d871"},"vehicle_type_id":"4","last_reported":1727118411,"current_range_meters":21600,"station_id":"ce4bhoh2rcd13ifvqh5g","pricing_plan_id":"cebpf4jnsgd1na2vs0mg"},{"bike_id":"42ab4af4-d339-4d57-8a34-8534ea0f5417","system_id":"levelo_inurba_marseille","lat":43.27948,"lon":5.41056,"is_reserved":false,"is_disabled":false,"rental_uris":{"android":"levelo://app?vid=42ab4af4-d339-4d57-8a34-8534ea0f5417","ios":"levelo://app?vid=42ab4af4-d339-4d57-8a34-8534ea0f5417"},"vehicle_type_id":"4","last_reported":1727118411,"current_range_meters":20400,"station_id":"ce4bhnp2rcd13ifvqh0g","pricing_plan_id":"cebpf4jnsgd1na2vs0mg"},{"bike_id":"666624a4-1ff9-40c1-90cd-a2413de224c1","system_id":"levelo_inurba_marseille","lat":43.27918,"lon":5.39583,"is_reserved":false,"is_disabled":false,"rental_uris":{"android":"levelo://app?vid=666624a4-1ff9-40c1-90cd-a2413de224c1","ios":"levelo://app?vid=666624a4-1ff9-40c1-90cd-a2413de224c1"},"vehicle_type_id":"4","last_reported":1727118411,"current_range_meters":9200,"station_id":"ce4bhf92rcd13ifvqf40","pricing_plan_id":"cebpf4jnsgd1na2vs0mg"},{"bike_id":"b21569f0-5530-4ec9-864b-9d1594786945","system_id":"levelo_inurba_marseille","lat":43.29432,"lon":5.39758,"is_reserved":false,"is_disabled":false,"rental_uris":{"android":"levelo://app?vid=b21569f0-5530-4ec9-864b-9d1594786945","ios":"levelo://app?vid=b21569f0-5530-4ec9-864b-9d1594786945"},"vehicle_type_id":"4","last_reported":1727118411,"current_range_meters":34800,"station_id":"ce4bh3h2rcd13ifvqdo0","pricing_plan_id":"cebpf4jnsgd1na2vs0mg"},{"bike_id":"a5a019c0-3bb2-4801-a6f6-dc0031724795","system_id":"levelo_inurba_marseille","lat":43.27897,"lon":5.38018,"is_reserved":false,"is_disabled":false,"rental_uris":{"android":"levelo://app?vid=a5a019c0-3bb2-4801-a6f6-dc0031724795","ios":"levelo://app?vid=a5a019c0-3bb2-4801-a6f6-dc0031724795"},"vehicle_type_id":"4","last_reported":1727118411,"current_range_meters":18800,"station_id":"ce4bhf92rcd13ifvqf50","pricing_plan_id":"cebpf4jnsgd1na2vs0mg"},{"bike_id":"695aad5b-d024-4f0e-ae46-a715fe638d1f","system_id":"levelo_inurba_marseille","lat":43.30878,"lon":5.39645,"is_reserved":false,"is_disabled":false,"rental_uris":{"android":"levelo://app?vid=695aad5b-d024-4f0e-ae46-a715fe638d1f","ios":"levelo://app?vid=695aad5b-d024-4f0e-ae46-a715fe638d1f"},"vehicle_type_id":"4","last_reported":1727118411,"current_range_meters":30400,"station_id":"ce4bh012rcd13ifvqcv0","pricing_plan_id":"cebpf4jnsgd1na2vs0mg"},{"bike_id":"36c416da-9158-44af-aa3a-06b103bea7bf","system_id":"levelo_inurba_marseille","lat":43.337444,"lon":5.374475,"is_reserved":false,"is_disabled":false,"rental_uris":{"android":"levelo://app?vid=36c416da-9158-44af-aa3a-06b103bea7bf","ios":"levelo://app?vid=36c416da-9158-44af-aa3a-06b103bea7bf"},"vehicle_type_id":"4","last_reported":1727118411,"current_range_meters":22400,"station_id":"","pricing_plan_id":"cebpf4jnsgd1na2vs0mg"},{"bike_id":"72806877-b81f-4e43-9ac9-b0f0e98b1741","system_id":"levelo_inurba_marseille","lat":43.29774,"lon":5.39339,"is_reserved":false,"is_disabled":false,"rental_uris":{"android":"levelo://app?vid=72806877-b81f-4e43-9ac9-b0f0e98b1741","ios":"levelo://app?vid=72806877-b81f-4e43-9ac9-b0f0e98b1741"},"vehicle_type_id":"4","last_reported":1727118411,"current_range_meters":32800,"station_id":"chh1huq6cuj3fo74tm60","pricing_plan_id":"cebpf4jnsgd1na2vs0mg"},{"bike_id":"ae2cb518-dc3d-4204-839c-ebf3a10a9627","system_id":"levelo_inurba_marseille","lat":43.29897,"lon":5.43676,"is_reserved":false,"is_disabled":false,"rental_uris":{"android":"levelo://app?vid=ae2cb518-dc3d-4204-839c-ebf3a10a9627","ios":"levelo://app?vid=ae2cb518-dc3d-4204-839c-ebf3a10a9627"},"vehicle_type_id":"4","last_reported":1727118411,"current_range_meters":4400,"station_id":"ce4bhpp2rcd13ifvqhfg","pricing_plan_id":"cebpf4jnsgd1na2vs0mg"},{"bike_id":"149b26ed-a813-4c7b-873e-974f4887237c","system_id":"levelo_inurba_marseille","lat":43.28666,"lon":5.36357,"is_reserved":false,"is_disabled":false,"rental_uris":{"android":"levelo://app?vid=149b26ed-a813-4c7b-873e-974f4887237c","ios":"levelo://app?vid=149b26ed-a813-4c7b-873e-974f4887237c"},"vehicle_type_id":"4","last_reported":1727118411,"current_range_meters":19200,"station_id":"ce4bhah2rcd13ifvqej0","pricing_plan_id":"cebpf4jnsgd1na2vs0mg"},{"bike_id":"d5f5db2f-2c3d-4046-a044-391b3f72b76d","system_id":"levelo_inurba_marseille","lat":43.32355,"lon":5.38897,"is_reserved":false,"is_disabled":false,"rental_uris":{"android":"levelo://app?vid=d5f5db2f-2c3d-4046-a044-391b3f72b76d","ios":"levelo://app?vid=d5f5db2f-2c3d-4046-a044-391b3f72b76d"},"vehicle_type_id":"4","last_reported":1727118411,"current_range_meters":20400,"station_id":"ce4bhqp2rcd13ifvqhog","pricing_plan_id":"cebpf4jnsgd1na2vs0mg"},{"bike_id":"94576bef-1880-4696-97ad-1a3c62b80871","system_id":"levelo_inurba_marseille","lat":43.31257,"lon":5.40186,"is_reserved":false,"is_disabled":false,"rental_uris":{"android":"levelo://app?vid=94576bef-1880-4696-97ad-1a3c62b80871","ios":"levelo://app?vid=94576bef-1880-4696-97ad-1a3c62b80871"},"vehicle_type_id":"4","last_reported":1727118411,"current_range_meters":8400,"station_id":"ce4bh092rcd13ifvqd30","pricing_plan_id":"cebpf4jnsgd1na2vs0mg"},{"bike_id":"5abf3738-3056-45d0-ad36-b5f63eb6c7bd","system_id":"levelo_inurba_marseille","lat":43.31712,"lon":5.43707,"is_reserved":false,"is_disabled":false,"rental_uris":{"android":"levelo://app?vid=5abf3738-3056-45d0-ad36-b5f63eb6c7bd","ios":"levelo://app?vid=5abf3738-3056-45d0-ad36-b5f63eb6c7bd"},"vehicle_type_id":"4","last_reported":1727118411,"current_range_meters":19600,"station_id":"ce4bhp92rcd13ifvqhcg","pricing_plan_id":"cebpf4jnsgd1na2vs0mg"},{"bike_id":"6e942756-6f8b-4979-89fc-ce9bf3b8c787","system_id":"levelo_inurba_marseille","lat":43.28153,"lon":5.42644,"is_reserved":false,"is_disabled":false,"rental_uris":{"android":"levelo://app?vid=6e942756-6f8b-4979-89fc-ce9bf3b8c787","ios":"levelo://app?vid=6e942756-6f8b-4979-89fc-ce9bf3b8c787"},"vehicle_type_id":"4","last_reported":1727118411,"current_range_meters":9200,"station_id":"ce4bhnh2rcd13ifvqgug","pricing_plan_id":"cebpf4jnsgd1na2vs0mg"},{"bike_id":"d1d6b9b6-2887-4d3e-b96e-c1ac41581358","system_id":"levelo_inurba_marseille","lat":43.29835,"lon":5.36268,"is_reserved":false,"is_disabled":false,"rental_uris":{"android":"levelo://app?vid=d1d6b9b6-2887-4d3e-b96e-c1ac41581358","ios":"levelo://app?vid=d1d6b9b6-2887-4d3e-b96e-c1ac41581358"},"vehicle_type_id":"4","last_reported":1727118411,"current_range_meters":4400,"station_id":"ce4bgpp2rcd13ifvqc3g","pricing_plan_id":"cebpf4jnsgd1na2vs0mg"},{"bike_id":"e1a52084-ba2b-41f8-95d8-e96b0b7f999b","system_id":"levelo_inurba_marseille","lat":43.32655,"lon":5.40999,"is_reserved":false,"is_disabled":false,"rental_uris":{"android":"levelo://app?vid=e1a52084-ba2b-41f8-95d8-e96b0b7f999b","ios":"levelo://app?vid=e1a52084-ba2b-41f8-95d8-e96b0b7f999b"},"vehicle_type_id":"4","last_reported":1727118411,"current_range_meters":17600,"station_id":"ce4bhpp2rcd13ifvqhgg","pricing_plan_id":"cebpf4jnsgd1na2vs0mg"},{"bike_id":"e19610b5-c071-4e39-bb6e-c980cb07cf6a","system_id":"levelo_inurba_marseille","lat":43.293094,"lon":5.371826,"is_reserved":false,"is_disabled":false,"rental_uris":{"android":"levelo://app?vid=e19610b5-c071-4e39-bb6e-c980cb07cf6a","ios":"levelo://app?vid=e19610b5-c071-4e39-bb6e-c980cb07cf6a"},"vehicle_type_id":"4","last_reported":1727118411,"current_range_meters":24000,"station_id":"ce4bgqh2rcd13ifvqc4g","pricing_plan_id":"cebpf4jnsgd1na2vs0mg"},{"bike_id":"dacf1e9b-3f58-4e12-a92d-b75a6bfe0ec8","system_id":"levelo_inurba_marseille","lat":43.29189,"lon":5.39324,"is_reserved":false,"is_disabled":false,"rental_uris":{"android":"levelo://app?vid=dacf1e9b-3f58-4e12-a92d-b75a6bfe0ec8","ios":"levelo://app?vid=dacf1e9b-3f58-4e12-a92d-b75a6bfe0ec8"},"vehicle_type_id":"4","last_reported":1727118411,"current_range_meters":38400,"station_id":"ce4bh192rcd13ifvqdd0","pricing_plan_id":"cebpf4jnsgd1na2vs0mg"},{"bike_id":"b07123d7-1377-4433-ad21-459392a56837","system_id":"levelo_inurba_marseille","lat":43.29196,"lon":5.39329,"is_reserved":false,"is_disabled":false,"rental_uris":{"android":"levelo://app?vid=b07123d7-1377-4433-ad21-459392a56837","ios":"levelo://app?vid=b07123d7-1377-4433-ad21-459392a56837"},"vehicle_type_id":"4","last_reported":1727118411,"current_range_meters":32000,"station_id":"ce4bh192rcd13ifvqdd0","pricing_plan_id":"cebpf4jnsgd1na2vs0mg"},{"bike_id":"97b7a43b-cedc-4ed1-903e-6243f72dea61","system_id":"levelo_inurba_marseille","lat":43.28456,"lon":5.35889,"is_reserved":false,"is_disabled":false,"rental_uris":{"android":"levelo://app?vid=97b7a43b-cedc-4ed1-903e-6243f72dea61","ios":"levelo://app?vid=97b7a43b-cedc-4ed1-903e-6243f72dea61"},"vehicle_type_id":"4","last_reported":1727118411,"current_range_meters":12000,"station_id":"ce4bhah2rcd13ifvqei0","pricing_plan_id":"cebpf4jnsgd1na2vs0mg"},{"bike_id":"4311ad07-fe17-44e4-8154-398daa141b11","system_id":"levelo_inurba_marseille","lat":43.31167,"lon":5.38721,"is_reserved":false,"is_disabled":false,"rental_uris":{"android":"levelo://app?vid=4311ad07-fe17-44e4-8154-398daa141b11","ios":"levelo://app?vid=4311ad07-fe17-44e4-8154-398daa141b11"},"vehicle_type_id":"4","last_reported":1727118411,"current_range_meters":24400,"station_id":"ce4bgv12rcd13ifvqcp0","pricing_plan_id":"cebpf4jnsgd1na2vs0mg"},{"bike_id":"f1b66d7e-fd20-444f-bbd7-4dcf02f3bcb0","system_id":"levelo_inurba_marseille","lat":43.29877,"lon":5.39735,"is_reserved":false,"is_disabled":false,"rental_uris":{"android":"levelo://app?vid=f1b66d7e-fd20-444f-bbd7-4dcf02f3bcb0","ios":"levelo://app?vid=f1b66d7e-fd20-444f-bbd7-4dcf02f3bcb0"},"vehicle_type_id":"4","last_reported":1727118411,"current_range_meters":30400,"station_id":"ce4bh0h2rcd13ifvqd50","pricing_plan_id":"cebpf4jnsgd1na2vs0mg"},{"bike_id":"19c965cc-20c2-4867-aaf4-e11af088d33a","system_id":"levelo_inurba_marseille","lat":43.297,"lon":5.37708,"is_reserved":false,"is_disabled":false,"rental_uris":{"android":"levelo://app?vid=19c965cc-20c2-4867-aaf4-e11af088d33a","ios":"levelo://app?vid=19c965cc-20c2-4867-aaf4-e11af088d33a"},"vehicle_type_id":"4","last_reported":1727118411,"current_range_meters":27200,"station_id":"ce4bgkh2rcd13ifvqbl0","pricing_plan_id":"cebpf4jnsgd1na2vs0mg"},{"bike_id":"65bbbffa-1c60-4ffa-9043-605fcbd35601","system_id":"levelo_inurba_marseille","lat":43.30318,"lon":5.40445,"is_reserved":false,"is_disabled":false,"rental_uris":{"android":"levelo://app?vid=65bbbffa-1c60-4ffa-9043-605fcbd35601","ios":"levelo://app?vid=65bbbffa-1c60-4ffa-9043-605fcbd35601"},"vehicle_type_id":"4","last_reported":1727118411,"current_range_meters":36400,"station_id":"ce4bh012rcd13ifvqd10","pricing_plan_id":"cebpf4jnsgd1na2vs0mg"},{"bike_id":"9e247c25-6360-485c-bf89-f8460d8e1258","system_id":"levelo_inurba_marseille","lat":43.29201,"lon":5.39307,"is_reserved":false,"is_disabled":false,"rental_uris":{"android":"levelo://app?vid=9e247c25-6360-485c-bf89-f8460d8e1258","ios":"levelo://app?vid=9e247c25-6360-485c-bf89-f8460d8e1258"},"vehicle_type_id":"4","last_reported":1727118411,"current_range_meters":12400,"station_id":"ce4bh192rcd13ifvqdd0","pricing_plan_id":"cebpf4jnsgd1na2vs0mg"},{"bike_id":"bc6b7353-965d-48a5-9ec7-b69be5bbe364","system_id":"levelo_inurba_marseille","lat":43.29069,"lon":5.37179,"is_reserved":false,"is_disabled":false,"rental_uris":{"android":"levelo://app?vid=bc6b7353-965d-48a5-9ec7-b69be5bbe364","ios":"levelo://app?vid=bc6b7353-965d-48a5-9ec7-b69be5bbe364"},"vehicle_type_id":"4","last_reported":1727118411,"current_range_meters":8800,"station_id":"ce4bh5p2rcd13ifvqe4g","pricing_plan_id":"cebpf4jnsgd1na2vs0mg"},{"bike_id":"cc89f616-48df-4041-b875-a549fb5bf069","system_id":"levelo_inurba_marseille","lat":43.25716,"lon":5.41118,"is_reserved":false,"is_disabled":false,"rental_uris":{"android":"levelo://app?vid=cc89f616-48df-4041-b875-a549fb5bf069","ios":"levelo://app?vid=cc89f616-48df-4041-b875-a549fb5bf069"},"vehicle_type_id":"4","last_reported":1727118411,"current_range_meters":24400,"station_id":"ce4bhkp2rcd13ifvqgd0","pricing_plan_id":"cebpf4jnsgd1na2vs0mg"},{"bike_id":"b71df53b-6af3-4be4-8bbc-2d7e59f4e40d","system_id":"levelo_inurba_marseille","lat":43.30638,"lon":5.40093,"is_reserved":false,"is_disabled":false,"rental_uris":{"android":"levelo://app?vid=b71df53b-6af3-4be4-8bbc-2d7e59f4e40d","ios":"levelo://app?vid=b71df53b-6af3-4be4-8bbc-2d7e59f4e40d"},"vehicle_type_id":"4","last_reported":1727118411,"current_range_meters":38800,"station_id":"ce4bh112rcd13ifvqda0","pricing_plan_id":"cebpf4jnsgd1na2vs0mg"},{"bike_id":"80e593fc-7480-466c-a9ef-6d5ddec9f9c5","system_id":"levelo_inurba_marseille","lat":43.30583,"lon":5.37471,"is_reserved":false,"is_disabled":false,"rental_uris":{"android":"levelo://app?vid=80e593fc-7480-466c-a9ef-6d5ddec9f9c5","ios":"levelo://app?vid=80e593fc-7480-466c-a9ef-6d5ddec9f9c5"},"vehicle_type_id":"4","last_reported":1727118411,"current_range_meters":10800,"station_id":"","pricing_plan_id":"cebpf4jnsgd1na2vs0mg"},{"bike_id":"1d07573b-acb9-4139-b856-2964b45ce32c","system_id":"levelo_inurba_marseille","lat":43.299133,"lon":5.375722,"is_reserved":false,"is_disabled":false,"rental_uris":{"android":"levelo://app?vid=1d07573b-acb9-4139-b856-2964b45ce32c","ios":"levelo://app?vid=1d07573b-acb9-4139-b856-2964b45ce32c"},"vehicle_type_id":"4","last_reported":1727118411,"current_range_meters":3200,"station_id":"ce4bgjh2rcd13ifvqbg0","pricing_plan_id":"cebpf4jnsgd1na2vs0mg"},{"bike_id":"5233d860-f58e-4e7f-9139-8faba3081bec","system_id":"levelo_inurba_marseille","lat":43.26048,"lon":5.38705,"is_reserved":false,"is_disabled":false,"rental_uris":{"android":"levelo://app?vid=5233d860-f58e-4e7f-9139-8faba3081bec","ios":"levelo://app?vid=5233d860-f58e-4e7f-9139-8faba3081bec"},"vehicle_type_id":"4","last_reported":1727118411,"current_range_meters":8800,"station_id":"","pricing_plan_id":"cebpf4jnsgd1na2vs0mg"},{"bike_id":"089efe7d-e0b7-4f2b-b37b-ee301256611d","system_id":"levelo_inurba_marseille","lat":43.24542,"lon":5.39529,"is_reserved":false,"is_disabled":false,"rental_uris":{"android":"levelo://app?vid=089efe7d-e0b7-4f2b-b37b-ee301256611d","ios":"levelo://app?vid=089efe7d-e0b7-4f2b-b37b-ee301256611d"},"vehicle_type_id":"4","last_reported":1727118411,"current_range_meters":12800,"station_id":"ce4bhlp2rcd13ifvqgjg","pricing_plan_id":"cebpf4jnsgd1na2vs0mg"},{"bike_id":"2ece3bb3-5776-42d8-a3ec-7c3c120df5c0","system_id":"levelo_inurba_marseille","lat":43.29508,"lon":5.39416,"is_reserved":false,"is_disabled":false,"rental_uris":{"android":"levelo://app?vid=2ece3bb3-5776-42d8-a3ec-7c3c120df5c0","ios":"levelo://app?vid=2ece3bb3-5776-42d8-a3ec-7c3c120df5c0"},"vehicle_type_id":"4","last_reported":1727118411,"current_range_meters":38800,"station_id":"ce4bh292rcd13ifvqdf0","pricing_plan_id":"cebpf4jnsgd1na2vs0mg"},{"bike_id":"c0bf08f8-39b8-43bf-8302-ac2a4dd5ad58","system_id":"levelo_inurba_marseille","lat":43.29554,"lon":5.42299,"is_reserved":false,"is_disabled":false,"rental_uris":{"android":"levelo://app?vid=c0bf08f8-39b8-43bf-8302-ac2a4dd5ad58","ios":"levelo://app?vid=c0bf08f8-39b8-43bf-8302-ac2a4dd5ad58"},"vehicle_type_id":"4","last_reported":1727118411,"current_range_meters":26800,"station_id":"ce4bhph2rcd13ifvqhdg","pricing_plan_id":"cebpf4jnsgd1na2vs0mg"},{"bike_id":"b2b591d0-b586-40da-b868-6c9b52bcba2f","system_id":"levelo_inurba_marseille","lat":43.289725,"lon":5.378313,"is_reserved":false,"is_disabled":false,"rental_uris":{"android":"levelo://app?vid=b2b591d0-b586-40da-b868-6c9b52bcba2f","ios":"levelo://app?vid=b2b591d0-b586-40da-b868-6c9b52bcba2f"},"vehicle_type_id":"4","last_reported":1727118411,"current_range_meters":6800,"station_id":"ce4bh3p2rcd13ifvqdp0","pricing_plan_id":"cebpf4jnsgd1na2vs0mg"},{"bike_id":"50ec5143-d76d-4c1f-be06-20aac23ea47e","system_id":"levelo_inurba_marseille","lat":43.24544,"lon":5.39526,"is_reserved":false,"is_disabled":false,"rental_uris":{"android":"levelo://app?vid=50ec5143-d76d-4c1f-be06-20aac23ea47e","ios":"levelo://app?vid=50ec5143-d76d-4c1f-be06-20aac23ea47e"},"vehicle_type_id":"4","last_reported":1727118411,"current_range_meters":13600,"station_id":"ce4bhlp2rcd13ifvqgjg","pricing_plan_id":"cebpf4jnsgd1na2vs0mg"},{"bike_id":"6ebddf4d-c3c1-4b37-8142-28b097f07001","system_id":"levelo_inurba_marseille","lat":43.29309,"lon":5.37185,"is_reserved":false,"is_disabled":false,"rental_uris":{"android":"levelo://app?vid=6ebddf4d-c3c1-4b37-8142-28b097f07001","ios":"levelo://app?vid=6ebddf4d-c3c1-4b37-8142-28b097f07001"},"vehicle_type_id":"4","last_reported":1727118411,"current_range_meters":8800,"station_id":"ce4bgh92rcd13ifvqb40","pricing_plan_id":"cebpf4jnsgd1na2vs0mg"},{"bike_id":"07c14650-ae6a-4e16-ab1f-44817d12d49f","system_id":"levelo_inurba_marseille","lat":43.33021,"lon":5.39041,"is_reserved":false,"is_disabled":false,"rental_uris":{"android":"levelo://app?vid=07c14650-ae6a-4e16-ab1f-44817d12d49f","ios":"levelo://app?vid=07c14650-ae6a-4e16-ab1f-44817d12d49f"},"vehicle_type_id":"4","last_reported":1727118411,"current_range_meters":38800,"station_id":"ce4bhr92rcd13ifvqhrg","pricing_plan_id":"cebpf4jnsgd1na2vs0mg"},{"bike_id":"905cbc60-a60c-4721-9845-1765bd2211c4","system_id":"levelo_inurba_marseille","lat":43.28691,"lon":5.37404,"is_reserved":false,"is_disabled":false,"rental_uris":{"android":"levelo://app?vid=905cbc60-a60c-4721-9845-1765bd2211c4","ios":"levelo://app?vid=905cbc60-a60c-4721-9845-1765bd2211c4"},"vehicle_type_id":"4","last_reported":1727118411,"current_range_meters":32000,"station_id":"ce4bh3p2rcd13ifvqdq0","pricing_plan_id":"cebpf4jnsgd1na2vs0mg"},{"bike_id":"671a4e3a-4769-4894-819f-01fd439ea1bd","system_id":"levelo_inurba_marseille","lat":43.29532,"lon":5.37506,"is_reserved":false,"is_disabled":false,"rental_uris":{"android":"levelo://app?vid=671a4e3a-4769-4894-819f-01fd439ea1bd","ios":"levelo://app?vid=671a4e3a-4769-4894-819f-01fd439ea1bd"},"vehicle_type_id":"4","last_reported":1727118411,"current_range_meters":17600,"station_id":"ce4bgkp2rcd13ifvqbmg","pricing_plan_id":"cebpf4jnsgd1na2vs0mg"},{"bike_id":"b465dd82-7321-44d9-8506-f280661f2fc1","system_id":"levelo_inurba_marseille","lat":43.28153,"lon":5.42641,"is_reserved":false,"is_disabled":false,"rental_uris":{"android":"levelo://app?vid=b465dd82-7321-44d9-8506-f280661f2fc1","ios":"levelo://app?vid=b465dd82-7321-44d9-8506-f280661f2fc1"},"vehicle_type_id":"4","last_reported":1727118411,"current_range_meters":14000,"station_id":"ce4bhnh2rcd13ifvqgug","pricing_plan_id":"cebpf4jnsgd1na2vs0mg"},{"bike_id":"729a7eee-bcf8-4897-b93a-b2ea3ca3b6d1","system_id":"levelo_inurba_marseille","lat":43.23953,"lon":5.36646,"is_reserved":false,"is_disabled":false,"rental_uris":{"android":"levelo://app?vid=729a7eee-bcf8-4897-b93a-b2ea3ca3b6d1","ios":"levelo://app?vid=729a7eee-bcf8-4897-b93a-b2ea3ca3b6d1"},"vehicle_type_id":"4","last_reported":1727118411,"current_range_meters":28400,"station_id":"ce4bhi12rcd13ifvqfp0","pricing_plan_id":"cebpf4jnsgd1na2vs0mg"},{"bike_id":"5e78644a-090e-41bf-ab23-adedf1c682c2","system_id":"levelo_inurba_marseille","lat":43.29875,"lon":5.38914,"is_reserved":false,"is_disabled":false,"rental_uris":{"android":"levelo://app?vid=5e78644a-090e-41bf-ab23-adedf1c682c2","ios":"levelo://app?vid=5e78644a-090e-41bf-ab23-adedf1c682c2"},"vehicle_type_id":"4","last_reported":1727118411,"current_range_meters":38800,"station_id":"ce4bh392rcd13ifvqdl0","pricing_plan_id":"cebpf4jnsgd1na2vs0mg"},{"bike_id":"af25104a-5b11-42bb-8e51-8b1263035d92","system_id":"levelo_inurba_marseille","lat":43.28571,"lon":5.39502,"is_reserved":false,"is_disabled":false,"rental_uris":{"android":"levelo://app?vid=af25104a-5b11-42bb-8e51-8b1263035d92","ios":"levelo://app?vid=af25104a-5b11-42bb-8e51-8b1263035d92"},"vehicle_type_id":"4","last_reported":1727118411,"current_range_meters":35200,"station_id":"ce4bh292rcd13ifvqdg0","pricing_plan_id":"cebpf4jnsgd1na2vs0mg"},{"bike_id":"02507c8a-f7ec-4e88-86d6-987f221b2f49","system_id":"levelo_inurba_marseille","lat":43.288269,"lon":5.392758,"is_reserved":false,"is_disabled":false,"rental_uris":{"android":"levelo://app?vid=02507c8a-f7ec-4e88-86d6-987f221b2f49","ios":"levelo://app?vid=02507c8a-f7ec-4e88-86d6-987f221b2f49"},"vehicle_type_id":"4","last_reported":1727118411,"current_range_meters":8000,"station_id":"ce4bh2p2rcd13ifvqdi0","pricing_plan_id":"cebpf4jnsgd1na2vs0mg"},{"bike_id":"fa3196d2-3388-4767-bf72-8fd7ebe5bf57","system_id":"levelo_inurba_marseille","lat":43.29304,"lon":5.374533,"is_reserved":false,"is_disabled":false,"rental_uris":{"android":"levelo://app?vid=fa3196d2-3388-4767-bf72-8fd7ebe5bf57","ios":"levelo://app?vid=fa3196d2-3388-4767-bf72-8fd7ebe5bf57"},"vehicle_type_id":"4","last_reported":1727118411,"current_range_meters":38800,"station_id":"ce4bgi12rcd13ifvqb70","pricing_plan_id":"cebpf4jnsgd1na2vs0mg"},{"bike_id":"d01cb5ff-abad-4bcd-b873-e34e4af2fc89","system_id":"levelo_inurba_marseille","lat":43.295105,"lon":5.390716,"is_reserved":false,"is_disabled":false,"rental_uris":{"android":"levelo://app?vid=d01cb5ff-abad-4bcd-b873-e34e4af2fc89","ios":"levelo://app?vid=d01cb5ff-abad-4bcd-b873-e34e4af2fc89"},"vehicle_type_id":"4","last_reported":1727118411,"current_range_meters":35200,"station_id":"ce4bh3p2rcd13ifvqdp0","pricing_plan_id":"cebpf4jnsgd1na2vs0mg"},{"bike_id":"715c4804-6a86-4398-98ec-b57358573177","system_id":"levelo_inurba_marseille","lat":43.22929,"lon":5.35374,"is_reserved":false,"is_disabled":false,"rental_uris":{"android":"levelo://app?vid=715c4804-6a86-4398-98ec-b57358573177","ios":"levelo://app?vid=715c4804-6a86-4398-98ec-b57358573177"},"vehicle_type_id":"4","last_reported":1727118411,"current_range_meters":34000,"station_id":"cpo3532slgdg3j2ikp40","pricing_plan_id":"cebpf4jnsgd1na2vs0mg"},{"bike_id":"d16d903a-7689-4132-83e0-9849efc079f5","system_id":"levelo_inurba_marseille","lat":43.32258,"lon":5.38743,"is_reserved":false,"is_disabled":false,"rental_uris":{"android":"levelo://app?vid=d16d903a-7689-4132-83e0-9849efc079f5","ios":"levelo://app?vid=d16d903a-7689-4132-83e0-9849efc079f5"},"vehicle_type_id":"4","last_reported":1727118411,"current_range_meters":35600,"station_id":"","pricing_plan_id":"cebpf4jnsgd1na2vs0mg"},{"bike_id":"546ea9b6-6c2c-458b-9fd3-a0a4d96b6a26","system_id":"levelo_inurba_marseille","lat":43.30638,"lon":5.40085,"is_reserved":false,"is_disabled":false,"rental_uris":{"android":"levelo://app?vid=546ea9b6-6c2c-458b-9fd3-a0a4d96b6a26","ios":"levelo://app?vid=546ea9b6-6c2c-458b-9fd3-a0a4d96b6a26"},"vehicle_type_id":"4","last_reported":1727118411,"current_range_meters":38000,"station_id":"ce4bh112rcd13ifvqda0","pricing_plan_id":"cebpf4jnsgd1na2vs0mg"},{"bike_id":"ba2542eb-4a30-47aa-b57a-68ac954d789a","system_id":"levelo_inurba_marseille","lat":43.23185,"lon":5.3556,"is_reserved":false,"is_disabled":false,"rental_uris":{"android":"levelo://app?vid=ba2542eb-4a30-47aa-b57a-68ac954d789a","ios":"levelo://app?vid=ba2542eb-4a30-47aa-b57a-68ac954d789a"},"vehicle_type_id":"4","last_reported":1727118411,"current_range_meters":16800,"station_id":"ce4bhu92rcd13ifvqi70","pricing_plan_id":"cebpf4jnsgd1na2vs0mg"},{"bike_id":"659b91b7-6dd8-4ec1-9f23-c9ffa2a71178","system_id":"levelo_inurba_marseille","lat":43.31492,"lon":5.37308,"is_reserved":false,"is_disabled":false,"rental_uris":{"android":"levelo://app?vid=659b91b7-6dd8-4ec1-9f23-c9ffa2a71178","ios":"levelo://app?vid=659b91b7-6dd8-4ec1-9f23-c9ffa2a71178"},"vehicle_type_id":"4","last_reported":1727118411,"current_range_meters":38800,"station_id":"ce4bgt12rcd13ifvqcd0","pricing_plan_id":"cebpf4jnsgd1na2vs0mg"},{"bike_id":"d99c0a65-4a98-4d66-bbb7-1771c49ba06d","system_id":"levelo_inurba_marseille","lat":43.303,"lon":5.36918,"is_reserved":false,"is_disabled":false,"rental_uris":{"android":"levelo://app?vid=d99c0a65-4a98-4d66-bbb7-1771c49ba06d","ios":"levelo://app?vid=d99c0a65-4a98-4d66-bbb7-1771c49ba06d"},"vehicle_type_id":"4","last_reported":1727118411,"current_range_meters":30400,"station_id":"ce4bgqh2rcd13ifvqc5g","pricing_plan_id":"cebpf4jnsgd1na2vs0mg"},{"bike_id":"2c5228b9-8b0f-4a80-9c17-02dbe75bf871","system_id":"levelo_inurba_marseille","lat":43.30416,"lon":5.41286,"is_reserved":false,"is_disabled":false,"rental_uris":{"android":"levelo://app?vid=2c5228b9-8b0f-4a80-9c17-02dbe75bf871","ios":"levelo://app?vid=2c5228b9-8b0f-4a80-9c17-02dbe75bf871"},"vehicle_type_id":"4","last_reported":1727118411,"current_range_meters":12400,"station_id":"ce4bhop2rcd13ifvqh8g","pricing_plan_id":"cebpf4jnsgd1na2vs0mg"},{"bike_id":"7fcaf16a-2e31-4bd7-92bc-3711e21f288f","system_id":"levelo_inurba_marseille","lat":43.29535,"lon":5.385822,"is_reserved":false,"is_disabled":false,"rental_uris":{"android":"levelo://app?vid=7fcaf16a-2e31-4bd7-92bc-3711e21f288f","ios":"levelo://app?vid=7fcaf16a-2e31-4bd7-92bc-3711e21f288f"},"vehicle_type_id":"4","last_reported":1727118411,"current_range_meters":12800,"station_id":"ce4bgih2rcd13ifvqba0","pricing_plan_id":"cebpf4jnsgd1na2vs0mg"},{"bike_id":"de7a9364-01a3-4992-abd0-885eede3f774","system_id":"levelo_inurba_marseille","lat":43.33016,"lon":5.39041,"is_reserved":false,"is_disabled":false,"rental_uris":{"android":"levelo://app?vid=de7a9364-01a3-4992-abd0-885eede3f774","ios":"levelo://app?vid=de7a9364-01a3-4992-abd0-885eede3f774"},"vehicle_type_id":"4","last_reported":1727118411,"current_range_meters":39200,"station_id":"ce4bhr92rcd13ifvqhrg","pricing_plan_id":"cebpf4jnsgd1na2vs0mg"},{"bike_id":"e5a4bf62-8f23-47e6-b472-5bbb7fee5ae7","system_id":"levelo_inurba_marseille","lat":43.26927,"lon":5.38917,"is_reserved":false,"is_disabled":false,"rental_uris":{"android":"levelo://app?vid=e5a4bf62-8f23-47e6-b472-5bbb7fee5ae7","ios":"levelo://app?vid=e5a4bf62-8f23-47e6-b472-5bbb7fee5ae7"},"vehicle_type_id":"4","last_reported":1727118411,"current_range_meters":24400,"station_id":"ce4bhhh2rcd13ifvqfl0","pricing_plan_id":"cebpf4jnsgd1na2vs0mg"},{"bike_id":"98913b7e-c49f-44af-aecd-0f4ee8a6bf7e","system_id":"levelo_inurba_marseille","lat":43.24807,"lon":5.37463,"is_reserved":false,"is_disabled":false,"rental_uris":{"android":"levelo://app?vid=98913b7e-c49f-44af-aecd-0f4ee8a6bf7e","ios":"levelo://app?vid=98913b7e-c49f-44af-aecd-0f4ee8a6bf7e"},"vehicle_type_id":"4","last_reported":1727118411,"current_range_meters":29600,"station_id":"ce4bhgh2rcd13ifvqfb0","pricing_plan_id":"cebpf4jnsgd1na2vs0mg"},{"bike_id":"f324d064-a6e1-493b-b068-c3543b7486cc","system_id":"levelo_inurba_marseille","lat":43.30956,"lon":5.39038,"is_reserved":false,"is_disabled":false,"rental_uris":{"android":"levelo://app?vid=f324d064-a6e1-493b-b068-c3543b7486cc","ios":"levelo://app?vid=f324d064-a6e1-493b-b068-c3543b7486cc"},"vehicle_type_id":"4","last_reported":1727118411,"current_range_meters":9200,"station_id":"ce4bh0h2rcd13ifvqd40","pricing_plan_id":"cebpf4jnsgd1na2vs0mg"},{"bike_id":"c8587e6b-2d94-484d-9f12-aa04e5abcb30","system_id":"levelo_inurba_marseille","lat":43.30128,"lon":5.38778,"is_reserved":false,"is_disabled":false,"rental_uris":{"android":"levelo://app?vid=c8587e6b-2d94-484d-9f12-aa04e5abcb30","ios":"levelo://app?vid=c8587e6b-2d94-484d-9f12-aa04e5abcb30"},"vehicle_type_id":"4","last_reported":1727118411,"current_range_meters":23200,"station_id":"ce4bghh2rcd13ifvqb60","pricing_plan_id":"cebpf4jnsgd1na2vs0mg"},{"bike_id":"145cbcd5-fc67-4b82-b57e-a55874aa762d","system_id":"levelo_inurba_marseille","lat":43.23177,"lon":5.39986,"is_reserved":false,"is_disabled":false,"rental_uris":{"android":"levelo://app?vid=145cbcd5-fc67-4b82-b57e-a55874aa762d","ios":"levelo://app?vid=145cbcd5-fc67-4b82-b57e-a55874aa762d"},"vehicle_type_id":"4","last_reported":1727118411,"current_range_meters":13600,"station_id":"ce4bhn12rcd13ifvqgqg","pricing_plan_id":"cebpf4jnsgd1na2vs0mg"},{"bike_id":"b6de6f0f-81d2-4df7-9878-2a6c01adde46","system_id":"levelo_inurba_marseille","lat":43.30318,"lon":5.40444,"is_reserved":false,"is_disabled":false,"rental_uris":{"android":"levelo://app?vid=b6de6f0f-81d2-4df7-9878-2a6c01adde46","ios":"levelo://app?vid=b6de6f0f-81d2-4df7-9878-2a6c01adde46"},"vehicle_type_id":"4","last_reported":1727118411,"current_range_meters":38800,"station_id":"ce4bh012rcd13ifvqd10","pricing_plan_id":"cebpf4jnsgd1na2vs0mg"},{"bike_id":"1ec9d979-31c8-444b-aabe-92b02e1cfc1d","system_id":"levelo_inurba_marseille","lat":43.34147,"lon":5.40907,"is_reserved":false,"is_disabled":false,"rental_uris":{"android":"levelo://app?vid=1ec9d979-31c8-444b-aabe-92b02e1cfc1d","ios":"levelo://app?vid=1ec9d979-31c8-444b-aabe-92b02e1cfc1d"},"vehicle_type_id":"4","last_reported":1727118411,"current_range_meters":39200,"station_id":"ce4bhqh2rcd13ifvqhlg","pricing_plan_id":"cebpf4jnsgd1na2vs0mg"},{"bike_id":"49ed727c-90dc-4db5-b755-d5b127b1944f","system_id":"levelo_inurba_marseille","lat":43.28871,"lon":5.358534,"is_reserved":false,"is_disabled":false,"rental_uris":{"android":"levelo://app?vid=49ed727c-90dc-4db5-b755-d5b127b1944f","ios":"levelo://app?vid=49ed727c-90dc-4db5-b755-d5b127b1944f"},"vehicle_type_id":"4","last_reported":1727118411,"current_range_meters":36000,"station_id":"ce4bhb12rcd13ifvqem0","pricing_plan_id":"cebpf4jnsgd1na2vs0mg"},{"bike_id":"b23f72c2-fab1-4033-a977-3e7871938f6a","system_id":"levelo_inurba_marseille","lat":43.32655,"lon":5.40993,"is_reserved":false,"is_disabled":false,"rental_uris":{"android":"levelo://app?vid=b23f72c2-fab1-4033-a977-3e7871938f6a","ios":"levelo://app?vid=b23f72c2-fab1-4033-a977-3e7871938f6a"},"vehicle_type_id":"4","last_reported":1727118411,"current_range_meters":38800,"station_id":"ce4bhpp2rcd13ifvqhgg","pricing_plan_id":"cebpf4jnsgd1na2vs0mg"},{"bike_id":"927366b0-d0ae-42ff-897b-581d638d70db","system_id":"levelo_inurba_marseille","lat":43.27373,"lon":5.36253,"is_reserved":false,"is_disabled":false,"rental_uris":{"android":"levelo://app?vid=927366b0-d0ae-42ff-897b-581d638d70db","ios":"levelo://app?vid=927366b0-d0ae-42ff-897b-581d638d70db"},"vehicle_type_id":"4","last_reported":1727118411,"current_range_meters":38800,"station_id":"ce4bhbh2rcd13ifvqeo0","pricing_plan_id":"cebpf4jnsgd1na2vs0mg"},{"bike_id":"a9976275-fafa-4f69-8675-413d7629718a","system_id":"levelo_inurba_marseille","lat":43.28573,"lon":5.39503,"is_reserved":false,"is_disabled":false,"rental_uris":{"android":"levelo://app?vid=a9976275-fafa-4f69-8675-413d7629718a","ios":"levelo://app?vid=a9976275-fafa-4f69-8675-413d7629718a"},"vehicle_type_id":"4","last_reported":1727118411,"current_range_meters":15200,"station_id":"ce4bh292rcd13ifvqdg0","pricing_plan_id":"cebpf4jnsgd1na2vs0mg"},{"bike_id":"76d869cb-ae3b-4c16-b8e2-6b4427599a1a","system_id":"levelo_inurba_marseille","lat":43.2769,"lon":5.38867,"is_reserved":false,"is_disabled":false,"rental_uris":{"android":"levelo://app?vid=76d869cb-ae3b-4c16-b8e2-6b4427599a1a","ios":"levelo://app?vid=76d869cb-ae3b-4c16-b8e2-6b4427599a1a"},"vehicle_type_id":"4","last_reported":1727118411,"current_range_meters":17600,"station_id":"ce4bhi12rcd13ifvqfo0","pricing_plan_id":"cebpf4jnsgd1na2vs0mg"},{"bike_id":"2044764b-84b7-4f61-afcf-ff018bc129ec","system_id":"levelo_inurba_marseille","lat":43.288821,"lon":5.386599,"is_reserved":false,"is_disabled":false,"rental_uris":{"android":"levelo://app?vid=2044764b-84b7-4f61-afcf-ff018bc129ec","ios":"levelo://app?vid=2044764b-84b7-4f61-afcf-ff018bc129ec"},"vehicle_type_id":"4","last_reported":1727118411,"current_range_meters":8000,"station_id":"ce4bh2p2rcd13ifvqdi0","pricing_plan_id":"cebpf4jnsgd1na2vs0mg"},{"bike_id":"3985d11c-af0a-4e76-820b-ef3ed63957fe","system_id":"levelo_inurba_marseille","lat":43.323716,"lon":5.388844,"is_reserved":false,"is_disabled":false,"rental_uris":{"android":"levelo://app?vid=3985d11c-af0a-4e76-820b-ef3ed63957fe","ios":"levelo://app?vid=3985d11c-af0a-4e76-820b-ef3ed63957fe"},"vehicle_type_id":"4","last_reported":1727118411,"current_range_meters":34800,"station_id":"ce4bhqp2rcd13ifvqhog","pricing_plan_id":"cebpf4jnsgd1na2vs0mg"},{"bike_id":"f0cce526-e2de-4da6-b09d-68979bda1c97","system_id":"levelo_inurba_marseille","lat":43.28702,"lon":5.37393,"is_reserved":false,"is_disabled":false,"rental_uris":{"android":"levelo://app?vid=f0cce526-e2de-4da6-b09d-68979bda1c97","ios":"levelo://app?vid=f0cce526-e2de-4da6-b09d-68979bda1c97"},"vehicle_type_id":"4","last_reported":1727118411,"current_range_meters":9600,"station_id":"ce4bh3p2rcd13ifvqdq0","pricing_plan_id":"cebpf4jnsgd1na2vs0mg"},{"bike_id":"a82e4976-1e63-477f-bd6f-e3c5c04888d6","system_id":"levelo_inurba_marseille","lat":43.29433,"lon":5.39747,"is_reserved":false,"is_disabled":false,"rental_uris":{"android":"levelo://app?vid=a82e4976-1e63-477f-bd6f-e3c5c04888d6","ios":"levelo://app?vid=a82e4976-1e63-477f-bd6f-e3c5c04888d6"},"vehicle_type_id":"4","last_reported":1727118411,"current_range_meters":37600,"station_id":"ce4bh3h2rcd13ifvqdo0","pricing_plan_id":"cebpf4jnsgd1na2vs0mg"},{"bike_id":"1a6dc438-b378-4226-a2cf-11e3018ca659","system_id":"levelo_inurba_marseille","lat":43.31368,"lon":5.38496,"is_reserved":false,"is_disabled":false,"rental_uris":{"android":"levelo://app?vid=1a6dc438-b378-4226-a2cf-11e3018ca659","ios":"levelo://app?vid=1a6dc438-b378-4226-a2cf-11e3018ca659"},"vehicle_type_id":"4","last_reported":1727118411,"current_range_meters":4000,"station_id":"ce4bgt92rcd13ifvqcf0","pricing_plan_id":"cebpf4jnsgd1na2vs0mg"},{"bike_id":"9df50652-051d-43c0-abf9-fcc2222cce08","system_id":"levelo_inurba_marseille","lat":43.254979,"lon":5.376546,"is_reserved":false,"is_disabled":false,"rental_uris":{"android":"levelo://app?vid=9df50652-051d-43c0-abf9-fcc2222cce08","ios":"levelo://app?vid=9df50652-051d-43c0-abf9-fcc2222cce08"},"vehicle_type_id":"4","last_reported":1727118411,"current_range_meters":38800,"station_id":"ce4bhh12rcd13ifvqff0","pricing_plan_id":"cebpf4jnsgd1na2vs0mg"},{"bike_id":"3cda9349-2e12-4344-aa0d-37eb925476b4","system_id":"levelo_inurba_marseille","lat":43.30413,"lon":5.41289,"is_reserved":false,"is_disabled":false,"rental_uris":{"android":"levelo://app?vid=3cda9349-2e12-4344-aa0d-37eb925476b4","ios":"levelo://app?vid=3cda9349-2e12-4344-aa0d-37eb925476b4"},"vehicle_type_id":"4","last_reported":1727118411,"current_range_meters":20400,"station_id":"ce4bhop2rcd13ifvqh8g","pricing_plan_id":"cebpf4jnsgd1na2vs0mg"},{"bike_id":"c32c9f99-2785-472b-a64b-1235b0b8e4b2","system_id":"levelo_inurba_marseille","lat":43.23961,"lon":5.36638,"is_reserved":false,"is_disabled":false,"rental_uris":{"android":"levelo://app?vid=c32c9f99-2785-472b-a64b-1235b0b8e4b2","ios":"levelo://app?vid=c32c9f99-2785-472b-a64b-1235b0b8e4b2"},"vehicle_type_id":"4","last_reported":1727118411,"current_range_meters":24400,"station_id":"ce4bhi12rcd13ifvqfp0","pricing_plan_id":"cebpf4jnsgd1na2vs0mg"},{"bike_id":"c5e500ef-d55d-4721-9b31-e9eb41ee1459","system_id":"levelo_inurba_marseille","lat":43.294115,"lon":5.386233,"is_reserved":false,"is_disabled":false,"rental_uris":{"android":"levelo://app?vid=c5e500ef-d55d-4721-9b31-e9eb41ee1459","ios":"levelo://app?vid=c5e500ef-d55d-4721-9b31-e9eb41ee1459"},"vehicle_type_id":"4","last_reported":1727118411,"current_range_meters":38000,"station_id":"ce4bgup2rcd13ifvqcn0","pricing_plan_id":"cebpf4jnsgd1na2vs0mg"},{"bike_id":"e8fc63c0-c69a-4387-862d-5270e53c05e0","system_id":"levelo_inurba_marseille","lat":43.264832,"lon":5.395463,"is_reserved":false,"is_disabled":false,"rental_uris":{"android":"levelo://app?vid=e8fc63c0-c69a-4387-862d-5270e53c05e0","ios":"levelo://app?vid=e8fc63c0-c69a-4387-862d-5270e53c05e0"},"vehicle_type_id":"4","last_reported":1727118411,"current_range_meters":10800,"station_id":"ce4bhi12rcd13ifvqfq0","pricing_plan_id":"cebpf4jnsgd1na2vs0mg"},{"bike_id":"89a67435-0828-4d47-9e33-8a79db223524","system_id":"levelo_inurba_marseille","lat":43.29252,"lon":5.4091,"is_reserved":false,"is_disabled":false,"rental_uris":{"android":"levelo://app?vid=89a67435-0828-4d47-9e33-8a79db223524","ios":"levelo://app?vid=89a67435-0828-4d47-9e33-8a79db223524"},"vehicle_type_id":"4","last_reported":1727118411,"current_range_meters":36800,"station_id":"ce4bh192rcd13ifvqdc0","pricing_plan_id":"cebpf4jnsgd1na2vs0mg"},{"bike_id":"ef0cc24b-5386-44a7-8edc-eb4b414ea303","system_id":"levelo_inurba_marseille","lat":43.29628,"lon":5.40599,"is_reserved":false,"is_disabled":false,"rental_uris":{"android":"levelo://app?vid=ef0cc24b-5386-44a7-8edc-eb4b414ea303","ios":"levelo://app?vid=ef0cc24b-5386-44a7-8edc-eb4b414ea303"},"vehicle_type_id":"4","last_reported":1727118411,"current_range_meters":38000,"station_id":"ce4bh0h2rcd13ifvqd60","pricing_plan_id":"cebpf4jnsgd1na2vs0mg"},{"bike_id":"ea0cd00c-2484-4da7-a47a-957c0c727a3b","system_id":"levelo_inurba_marseille","lat":43.2885,"lon":5.39312,"is_reserved":false,"is_disabled":false,"rental_uris":{"android":"levelo://app?vid=ea0cd00c-2484-4da7-a47a-957c0c727a3b","ios":"levelo://app?vid=ea0cd00c-2484-4da7-a47a-957c0c727a3b"},"vehicle_type_id":"4","last_reported":1727118411,"current_range_meters":32000,"station_id":"ce4bh2p2rcd13ifvqdi0","pricing_plan_id":"cebpf4jnsgd1na2vs0mg"},{"bike_id":"882e6ed1-e6d5-4c42-bb25-46ec58548160","system_id":"levelo_inurba_marseille","lat":43.2902,"lon":5.38659,"is_reserved":false,"is_disabled":false,"rental_uris":{"android":"levelo://app?vid=882e6ed1-e6d5-4c42-bb25-46ec58548160","ios":"levelo://app?vid=882e6ed1-e6d5-4c42-bb25-46ec58548160"},"vehicle_type_id":"4","last_reported":1727118411,"current_range_meters":38000,"station_id":"ce4bh4p2rcd13ifvqe0g","pricing_plan_id":"cebpf4jnsgd1na2vs0mg"},{"bike_id":"454a8827-f3bd-4ebf-8b50-bd0f8d5e8c40","system_id":"levelo_inurba_marseille","lat":43.2815,"lon":5.42645,"is_reserved":false,"is_disabled":false,"rental_uris":{"android":"levelo://app?vid=454a8827-f3bd-4ebf-8b50-bd0f8d5e8c40","ios":"levelo://app?vid=454a8827-f3bd-4ebf-8b50-bd0f8d5e8c40"},"vehicle_type_id":"4","last_reported":1727118411,"current_range_meters":22400,"station_id":"ce4bhnh2rcd13ifvqgug","pricing_plan_id":"cebpf4jnsgd1na2vs0mg"},{"bike_id":"c33ac870-cb94-44c7-8f5e-5243712930b4","system_id":"levelo_inurba_marseille","lat":43.31182,"lon":5.38705,"is_reserved":false,"is_disabled":false,"rental_uris":{"android":"levelo://app?vid=c33ac870-cb94-44c7-8f5e-5243712930b4","ios":"levelo://app?vid=c33ac870-cb94-44c7-8f5e-5243712930b4"},"vehicle_type_id":"4","last_reported":1727118411,"current_range_meters":38800,"station_id":"ce4bgv12rcd13ifvqcp0","pricing_plan_id":"cebpf4jnsgd1na2vs0mg"},{"bike_id":"0ff024f1-7c46-4b20-9f97-c0ff2e3a1d63","system_id":"levelo_inurba_marseille","lat":43.295262,"lon":5.385327,"is_reserved":false,"is_disabled":false,"rental_uris":{"android":"levelo://app?vid=0ff024f1-7c46-4b20-9f97-c0ff2e3a1d63","ios":"levelo://app?vid=0ff024f1-7c46-4b20-9f97-c0ff2e3a1d63"},"vehicle_type_id":"4","last_reported":1727118411,"current_range_meters":14800,"station_id":"ce4bgih2rcd13ifvqba0","pricing_plan_id":"cebpf4jnsgd1na2vs0mg"},{"bike_id":"c959ca8d-ba53-4b69-b028-aa3156c88619","system_id":"levelo_inurba_marseille","lat":43.28384,"lon":5.38626,"is_reserved":false,"is_disabled":false,"rental_uris":{"android":"levelo://app?vid=c959ca8d-ba53-4b69-b028-aa3156c88619","ios":"levelo://app?vid=c959ca8d-ba53-4b69-b028-aa3156c88619"},"vehicle_type_id":"4","last_reported":1727118411,"current_range_meters":34800,"station_id":"","pricing_plan_id":"cebpf4jnsgd1na2vs0mg"},{"bike_id":"b2b960b2-1096-4df0-90ec-e8e8d3ec1b45","system_id":"levelo_inurba_marseille","lat":43.2918,"lon":5.39337,"is_reserved":false,"is_disabled":false,"rental_uris":{"android":"levelo://app?vid=b2b960b2-1096-4df0-90ec-e8e8d3ec1b45","ios":"levelo://app?vid=b2b960b2-1096-4df0-90ec-e8e8d3ec1b45"},"vehicle_type_id":"4","last_reported":1727118411,"current_range_meters":38800,"station_id":"ce4bh192rcd13ifvqdd0","pricing_plan_id":"cebpf4jnsgd1na2vs0mg"},{"bike_id":"99b23c29-19c3-45f6-a684-fed021e776d5","system_id":"levelo_inurba_marseille","lat":43.31753,"lon":5.39019,"is_reserved":false,"is_disabled":false,"rental_uris":{"android":"levelo://app?vid=99b23c29-19c3-45f6-a684-fed021e776d5","ios":"levelo://app?vid=99b23c29-19c3-45f6-a684-fed021e776d5"},"vehicle_type_id":"4","last_reported":1727118411,"current_range_meters":23200,"station_id":"ce4bhqp2rcd13ifvqhng","pricing_plan_id":"cebpf4jnsgd1na2vs0mg"},{"bike_id":"aa109f4f-5441-4fb1-80c4-d0fc2d1cc889","system_id":"levelo_inurba_marseille","lat":43.28941,"lon":5.36402,"is_reserved":false,"is_disabled":false,"rental_uris":{"android":"levelo://app?vid=aa109f4f-5441-4fb1-80c4-d0fc2d1cc889","ios":"levelo://app?vid=aa109f4f-5441-4fb1-80c4-d0fc2d1cc889"},"vehicle_type_id":"4","last_reported":1727118411,"current_range_meters":38800,"station_id":"ce4bhc92rcd13ifvqetg","pricing_plan_id":"cebpf4jnsgd1na2vs0mg"},{"bike_id":"a2c8ed06-94c0-4417-862a-16507ef42481","system_id":"levelo_inurba_marseille","lat":43.33725,"lon":5.39187,"is_reserved":false,"is_disabled":false,"rental_uris":{"android":"levelo://app?vid=a2c8ed06-94c0-4417-862a-16507ef42481","ios":"levelo://app?vid=a2c8ed06-94c0-4417-862a-16507ef42481"},"vehicle_type_id":"4","last_reported":1727118411,"current_range_meters":38800,"station_id":"ce4bhr92rcd13ifvqhsg","pricing_plan_id":"cebpf4jnsgd1na2vs0mg"},{"bike_id":"04b980a8-d35e-4fcc-a9e3-8a08587031b6","system_id":"levelo_inurba_marseille","lat":43.26216,"lon":5.37444,"is_reserved":false,"is_disabled":false,"rental_uris":{"android":"levelo://app?vid=04b980a8-d35e-4fcc-a9e3-8a08587031b6","ios":"levelo://app?vid=04b980a8-d35e-4fcc-a9e3-8a08587031b6"},"vehicle_type_id":"4","last_reported":1727118411,"current_range_meters":38800,"station_id":"ce4bhgp2rcd13ifvqfc0","pricing_plan_id":"cebpf4jnsgd1na2vs0mg"},{"bike_id":"71e3eaf6-911a-4212-97d8-c6c24063f9ba","system_id":"levelo_inurba_marseille","lat":43.25086,"lon":5.39525,"is_reserved":false,"is_disabled":false,"rental_uris":{"android":"levelo://app?vid=71e3eaf6-911a-4212-97d8-c6c24063f9ba","ios":"levelo://app?vid=71e3eaf6-911a-4212-97d8-c6c24063f9ba"},"vehicle_type_id":"4","last_reported":1727118411,"current_range_meters":10800,"station_id":"ce4bhm12rcd13ifvqgkg","pricing_plan_id":"cebpf4jnsgd1na2vs0mg"},{"bike_id":"877d2b73-9b3b-475a-81ab-40d90d4af252","system_id":"levelo_inurba_marseille","lat":43.293355,"lon":5.371658,"is_reserved":false,"is_disabled":false,"rental_uris":{"android":"levelo://app?vid=877d2b73-9b3b-475a-81ab-40d90d4af252","ios":"levelo://app?vid=877d2b73-9b3b-475a-81ab-40d90d4af252"},"vehicle_type_id":"4","last_reported":1727118411,"current_range_meters":7200,"station_id":"ce4bgqh2rcd13ifvqc4g","pricing_plan_id":"cebpf4jnsgd1na2vs0mg"},{"bike_id":"fa690805-233a-4a70-a9f3-33f1b67cdb1f","system_id":"levelo_inurba_marseille","lat":43.32294,"lon":5.38263,"is_reserved":false,"is_disabled":false,"rental_uris":{"android":"levelo://app?vid=fa690805-233a-4a70-a9f3-33f1b67cdb1f","ios":"levelo://app?vid=fa690805-233a-4a70-a9f3-33f1b67cdb1f"},"vehicle_type_id":"4","last_reported":1727118411,"current_range_meters":36800,"station_id":"ce4bhr12rcd13ifvqhqg","pricing_plan_id":"cebpf4jnsgd1na2vs0mg"},{"bike_id":"e8c77e2c-a327-42bc-93c9-ec7927eac0cb","system_id":"levelo_inurba_marseille","lat":43.26547,"lon":5.37295,"is_reserved":false,"is_disabled":false,"rental_uris":{"android":"levelo://app?vid=e8c77e2c-a327-42bc-93c9-ec7927eac0cb","ios":"levelo://app?vid=e8c77e2c-a327-42bc-93c9-ec7927eac0cb"},"vehicle_type_id":"4","last_reported":1727118411,"current_range_meters":4800,"station_id":"ce4bhg12rcd13ifvqf70","pricing_plan_id":"cebpf4jnsgd1na2vs0mg"},{"bike_id":"e86bb56b-8257-4a34-a96d-205fd2a4397b","system_id":"levelo_inurba_marseille","lat":43.27493,"lon":5.42451,"is_reserved":false,"is_disabled":false,"rental_uris":{"android":"levelo://app?vid=e86bb56b-8257-4a34-a96d-205fd2a4397b","ios":"levelo://app?vid=e86bb56b-8257-4a34-a96d-205fd2a4397b"},"vehicle_type_id":"4","last_reported":1727118411,"current_range_meters":38000,"station_id":"ce4bhn92rcd13ifvqgrg","pricing_plan_id":"cebpf4jnsgd1na2vs0mg"},{"bike_id":"4e8befd0-9831-464d-938a-06a1c2037458","system_id":"levelo_inurba_marseille","lat":43.2815,"lon":5.42645,"is_reserved":false,"is_disabled":false,"rental_uris":{"android":"levelo://app?vid=4e8befd0-9831-464d-938a-06a1c2037458","ios":"levelo://app?vid=4e8befd0-9831-464d-938a-06a1c2037458"},"vehicle_type_id":"4","last_reported":1727118411,"current_range_meters":17200,"station_id":"ce4bhnh2rcd13ifvqgug","pricing_plan_id":"cebpf4jnsgd1na2vs0mg"},{"bike_id":"d52240e4-6ec3-4ef7-af95-d844cd9b1f63","system_id":"levelo_inurba_marseille","lat":43.27425,"lon":5.39411,"is_reserved":false,"is_disabled":false,"rental_uris":{"android":"levelo://app?vid=d52240e4-6ec3-4ef7-af95-d844cd9b1f63","ios":"levelo://app?vid=d52240e4-6ec3-4ef7-af95-d844cd9b1f63"},"vehicle_type_id":"4","last_reported":1727118411,"current_range_meters":20400,"station_id":"ce4bhdp2rcd13ifvqf20","pricing_plan_id":"cebpf4jnsgd1na2vs0mg"},{"bike_id":"282ba42d-f489-4888-914e-9756f4e46c85","system_id":"levelo_inurba_marseille","lat":43.32483,"lon":5.36567,"is_reserved":false,"is_disabled":false,"rental_uris":{"android":"levelo://app?vid=282ba42d-f489-4888-914e-9756f4e46c85","ios":"levelo://app?vid=282ba42d-f489-4888-914e-9756f4e46c85"},"vehicle_type_id":"4","last_reported":1727118411,"current_range_meters":15200,"station_id":"ce4bhs12rcd13ifvqhvg","pricing_plan_id":"cebpf4jnsgd1na2vs0mg"},{"bike_id":"31184b5d-3cf1-4ce0-9d27-e2331f3bdbb3","system_id":"levelo_inurba_marseille","lat":43.28912,"lon":5.384,"is_reserved":false,"is_disabled":false,"rental_uris":{"android":"levelo://app?vid=31184b5d-3cf1-4ce0-9d27-e2331f3bdbb3","ios":"levelo://app?vid=31184b5d-3cf1-4ce0-9d27-e2331f3bdbb3"},"vehicle_type_id":"4","last_reported":1727118411,"current_range_meters":8000,"station_id":"ce4bh612rcd13ifvqe6g","pricing_plan_id":"cebpf4jnsgd1na2vs0mg"},{"bike_id":"7eacd0ae-7015-4504-8187-36e3b5fe6fb0","system_id":"levelo_inurba_marseille","lat":43.2706,"lon":5.42282,"is_reserved":false,"is_disabled":false,"rental_uris":{"android":"levelo://app?vid=7eacd0ae-7015-4504-8187-36e3b5fe6fb0","ios":"levelo://app?vid=7eacd0ae-7015-4504-8187-36e3b5fe6fb0"},"vehicle_type_id":"4","last_reported":1727118411,"current_range_meters":27600,"station_id":"ce4bhk92rcd13ifvqgb0","pricing_plan_id":"cebpf4jnsgd1na2vs0mg"},{"bike_id":"36f556c9-7c2d-4f83-ae19-f26215d6eeef","system_id":"levelo_inurba_marseille","lat":43.28666,"lon":5.38689,"is_reserved":false,"is_disabled":false,"rental_uris":{"android":"levelo://app?vid=36f556c9-7c2d-4f83-ae19-f26215d6eeef","ios":"levelo://app?vid=36f556c9-7c2d-4f83-ae19-f26215d6eeef"},"vehicle_type_id":"4","last_reported":1727118411,"current_range_meters":6800,"station_id":"ce4bh492rcd13ifvqdug","pricing_plan_id":"cebpf4jnsgd1na2vs0mg"},{"bike_id":"8f292934-62db-4e45-8525-d903798075c3","system_id":"levelo_inurba_marseille","lat":43.32656,"lon":5.40999,"is_reserved":false,"is_disabled":false,"rental_uris":{"android":"levelo://app?vid=8f292934-62db-4e45-8525-d903798075c3","ios":"levelo://app?vid=8f292934-62db-4e45-8525-d903798075c3"},"vehicle_type_id":"4","last_reported":1727118411,"current_range_meters":38800,"station_id":"ce4bhpp2rcd13ifvqhgg","pricing_plan_id":"cebpf4jnsgd1na2vs0mg"},{"bike_id":"a3776cba-5cbf-4fbf-b0a3-99d433064aea","system_id":"levelo_inurba_marseille","lat":43.2937,"lon":5.378428,"is_reserved":false,"is_disabled":false,"rental_uris":{"android":"levelo://app?vid=a3776cba-5cbf-4fbf-b0a3-99d433064aea","ios":"levelo://app?vid=a3776cba-5cbf-4fbf-b0a3-99d433064aea"},"vehicle_type_id":"4","last_reported":1727118411,"current_range_meters":38400,"station_id":"ce4bgjh2rcd13ifvqbf0","pricing_plan_id":"cebpf4jnsgd1na2vs0mg"},{"bike_id":"56987817-2749-43e3-ac52-d490b6c35d1d","system_id":"levelo_inurba_marseille","lat":43.27828,"lon":5.39214,"is_reserved":false,"is_disabled":false,"rental_uris":{"android":"levelo://app?vid=56987817-2749-43e3-ac52-d490b6c35d1d","ios":"levelo://app?vid=56987817-2749-43e3-ac52-d490b6c35d1d"},"vehicle_type_id":"4","last_reported":1727118411,"current_range_meters":25200,"station_id":"ce4bhjp2rcd13ifvqga0","pricing_plan_id":"cebpf4jnsgd1na2vs0mg"},{"bike_id":"cf47a395-2204-4280-bc51-3fa9b3a8a3fb","system_id":"levelo_inurba_marseille","lat":43.27809,"lon":5.40715,"is_reserved":false,"is_disabled":false,"rental_uris":{"android":"levelo://app?vid=cf47a395-2204-4280-bc51-3fa9b3a8a3fb","ios":"levelo://app?vid=cf47a395-2204-4280-bc51-3fa9b3a8a3fb"},"vehicle_type_id":"4","last_reported":1727118411,"current_range_meters":2000,"station_id":"ce4bhnh2rcd13ifvqgtg","pricing_plan_id":"cebpf4jnsgd1na2vs0mg"},{"bike_id":"40ec77eb-6257-4910-b338-910ef8290bad","system_id":"levelo_inurba_marseille","lat":43.28105,"lon":5.40643,"is_reserved":false,"is_disabled":false,"rental_uris":{"android":"levelo://app?vid=40ec77eb-6257-4910-b338-910ef8290bad","ios":"levelo://app?vid=40ec77eb-6257-4910-b338-910ef8290bad"},"vehicle_type_id":"4","last_reported":1727118411,"current_range_meters":8400,"station_id":"","pricing_plan_id":"cebpf4jnsgd1na2vs0mg"},{"bike_id":"77d9d72f-c5af-45ab-a35f-af14d396db5c","system_id":"levelo_inurba_marseille","lat":43.33019,"lon":5.39046,"is_reserved":false,"is_disabled":false,"rental_uris":{"android":"levelo://app?vid=77d9d72f-c5af-45ab-a35f-af14d396db5c","ios":"levelo://app?vid=77d9d72f-c5af-45ab-a35f-af14d396db5c"},"vehicle_type_id":"4","last_reported":1727118411,"current_range_meters":38800,"station_id":"ce4bhr92rcd13ifvqhrg","pricing_plan_id":"cebpf4jnsgd1na2vs0mg"},{"bike_id":"b0f4d08d-9574-447c-9f76-6a11e8a82ce4","system_id":"levelo_inurba_marseille","lat":43.31326,"lon":5.39701,"is_reserved":false,"is_disabled":false,"rental_uris":{"android":"levelo://app?vid=b0f4d08d-9574-447c-9f76-6a11e8a82ce4","ios":"levelo://app?vid=b0f4d08d-9574-447c-9f76-6a11e8a82ce4"},"vehicle_type_id":"4","last_reported":1727118411,"current_range_meters":39200,"station_id":"ce4bgvp2rcd13ifvqcu0","pricing_plan_id":"cebpf4jnsgd1na2vs0mg"},{"bike_id":"ed1f0c4b-c2ec-4633-9b10-9782357e4a7c","system_id":"levelo_inurba_marseille","lat":43.308,"lon":5.43529,"is_reserved":false,"is_disabled":false,"rental_uris":{"android":"levelo://app?vid=ed1f0c4b-c2ec-4633-9b10-9782357e4a7c","ios":"levelo://app?vid=ed1f0c4b-c2ec-4633-9b10-9782357e4a7c"},"vehicle_type_id":"4","last_reported":1727118411,"current_range_meters":12000,"station_id":"ce4bhph2rcd13ifvqheg","pricing_plan_id":"cebpf4jnsgd1na2vs0mg"},{"bike_id":"0074696f-e649-4639-9210-689b92842bdc","system_id":"levelo_inurba_marseille","lat":43.30801,"lon":5.43522,"is_reserved":false,"is_disabled":false,"rental_uris":{"android":"levelo://app?vid=0074696f-e649-4639-9210-689b92842bdc","ios":"levelo://app?vid=0074696f-e649-4639-9210-689b92842bdc"},"vehicle_type_id":"4","last_reported":1727118411,"current_range_meters":39200,"station_id":"ce4bhph2rcd13ifvqheg","pricing_plan_id":"cebpf4jnsgd1na2vs0mg"},{"bike_id":"2e6ed305-9804-4c19-8d38-29ea058bb145","system_id":"levelo_inurba_marseille","lat":43.29022,"lon":5.38639,"is_reserved":false,"is_disabled":false,"rental_uris":{"android":"levelo://app?vid=2e6ed305-9804-4c19-8d38-29ea058bb145","ios":"levelo://app?vid=2e6ed305-9804-4c19-8d38-29ea058bb145"},"vehicle_type_id":"4","last_reported":1727118411,"current_range_meters":10000,"station_id":"ce4bh4p2rcd13ifvqe0g","pricing_plan_id":"cebpf4jnsgd1na2vs0mg"},{"bike_id":"877753fc-658d-4c7a-bbb8-46de59f59494","system_id":"levelo_inurba_marseille","lat":43.33024,"lon":5.39045,"is_reserved":false,"is_disabled":false,"rental_uris":{"android":"levelo://app?vid=877753fc-658d-4c7a-bbb8-46de59f59494","ios":"levelo://app?vid=877753fc-658d-4c7a-bbb8-46de59f59494"},"vehicle_type_id":"4","last_reported":1727118411,"current_range_meters":30400,"station_id":"ce4bhr92rcd13ifvqhrg","pricing_plan_id":"cebpf4jnsgd1na2vs0mg"},{"bike_id":"fcda3a67-a435-45c7-86e4-a03e9398f708","system_id":"levelo_inurba_marseille","lat":43.28609,"lon":5.35105,"is_reserved":false,"is_disabled":false,"rental_uris":{"android":"levelo://app?vid=fcda3a67-a435-45c7-86e4-a03e9398f708","ios":"levelo://app?vid=fcda3a67-a435-45c7-86e4-a03e9398f708"},"vehicle_type_id":"4","last_reported":1727118411,"current_range_meters":6400,"station_id":"ce4bhch2rcd13ifvqeug","pricing_plan_id":"cebpf4jnsgd1na2vs0mg"},{"bike_id":"47286325-de5e-401b-bc76-3f6c6a9bbdae","system_id":"levelo_inurba_marseille","lat":43.292874,"lon":5.374711,"is_reserved":false,"is_disabled":false,"rental_uris":{"android":"levelo://app?vid=47286325-de5e-401b-bc76-3f6c6a9bbdae","ios":"levelo://app?vid=47286325-de5e-401b-bc76-3f6c6a9bbdae"},"vehicle_type_id":"4","last_reported":1727118411,"current_range_meters":38000,"station_id":"ce4bgn12rcd13ifvqbt0","pricing_plan_id":"cebpf4jnsgd1na2vs0mg"},{"bike_id":"c369579b-b613-44ad-8086-135a36381457","system_id":"levelo_inurba_marseille","lat":43.3054,"lon":5.38416,"is_reserved":false,"is_disabled":false,"rental_uris":{"android":"levelo://app?vid=c369579b-b613-44ad-8086-135a36381457","ios":"levelo://app?vid=c369579b-b613-44ad-8086-135a36381457"},"vehicle_type_id":"4","last_reported":1727118411,"current_range_meters":24800,"station_id":"ce4bgg92rcd13ifvqb30","pricing_plan_id":"cebpf4jnsgd1na2vs0mg"},{"bike_id":"d46cb383-a530-43a6-8682-34e5b62f70cd","system_id":"levelo_inurba_marseille","lat":43.27494,"lon":5.42457,"is_reserved":false,"is_disabled":false,"rental_uris":{"android":"levelo://app?vid=d46cb383-a530-43a6-8682-34e5b62f70cd","ios":"levelo://app?vid=d46cb383-a530-43a6-8682-34e5b62f70cd"},"vehicle_type_id":"4","last_reported":1727118411,"current_range_meters":27600,"station_id":"ce4bhn92rcd13ifvqgrg","pricing_plan_id":"cebpf4jnsgd1na2vs0mg"},{"bike_id":"1d651bbb-ef4f-4fb3-a149-4f3df095ed4d","system_id":"levelo_inurba_marseille","lat":43.32331,"lon":5.40624,"is_reserved":false,"is_disabled":false,"rental_uris":{"android":"levelo://app?vid=1d651bbb-ef4f-4fb3-a149-4f3df095ed4d","ios":"levelo://app?vid=1d651bbb-ef4f-4fb3-a149-4f3df095ed4d"},"vehicle_type_id":"4","last_reported":1727118411,"current_range_meters":20000,"station_id":"ce4bhq92rcd13ifvqhjg","pricing_plan_id":"cebpf4jnsgd1na2vs0mg"},{"bike_id":"fa389a28-fbc0-443d-ae17-61deeb7eddc4","system_id":"levelo_inurba_marseille","lat":43.2978,"lon":5.39365,"is_reserved":false,"is_disabled":false,"rental_uris":{"android":"levelo://app?vid=fa389a28-fbc0-443d-ae17-61deeb7eddc4","ios":"levelo://app?vid=fa389a28-fbc0-443d-ae17-61deeb7eddc4"},"vehicle_type_id":"4","last_reported":1727118411,"current_range_meters":36000,"station_id":"chh1huq6cuj3fo74tm60","pricing_plan_id":"cebpf4jnsgd1na2vs0mg"},{"bike_id":"69c20e57-c96b-4712-b3c4-c22934ffa276","system_id":"levelo_inurba_marseille","lat":43.30884,"lon":5.39639,"is_reserved":false,"is_disabled":false,"rental_uris":{"android":"levelo://app?vid=69c20e57-c96b-4712-b3c4-c22934ffa276","ios":"levelo://app?vid=69c20e57-c96b-4712-b3c4-c22934ffa276"},"vehicle_type_id":"4","last_reported":1727118411,"current_range_meters":15200,"station_id":"ce4bh012rcd13ifvqcv0","pricing_plan_id":"cebpf4jnsgd1na2vs0mg"},{"bike_id":"c40e829a-7fc0-4f32-9222-7edbf9d51fc2","system_id":"levelo_inurba_marseille","lat":43.28408,"lon":5.37517,"is_reserved":false,"is_disabled":false,"rental_uris":{"android":"levelo://app?vid=c40e829a-7fc0-4f32-9222-7edbf9d51fc2","ios":"levelo://app?vid=c40e829a-7fc0-4f32-9222-7edbf9d51fc2"},"vehicle_type_id":"4","last_reported":1727118411,"current_range_meters":38800,"station_id":"ce4bh412rcd13ifvqds0","pricing_plan_id":"cebpf4jnsgd1na2vs0mg"},{"bike_id":"437b2009-cf5a-4a29-a62e-844fd6ef5fa7","system_id":"levelo_inurba_marseille","lat":43.29781,"lon":5.39339,"is_reserved":false,"is_disabled":false,"rental_uris":{"android":"levelo://app?vid=437b2009-cf5a-4a29-a62e-844fd6ef5fa7","ios":"levelo://app?vid=437b2009-cf5a-4a29-a62e-844fd6ef5fa7"},"vehicle_type_id":"4","last_reported":1727118411,"current_range_meters":11200,"station_id":"chh1huq6cuj3fo74tm60","pricing_plan_id":"cebpf4jnsgd1na2vs0mg"},{"bike_id":"4aa4622c-b393-455b-858c-e31f5966da2d","system_id":"levelo_inurba_marseille","lat":43.24663,"lon":5.3817,"is_reserved":false,"is_disabled":false,"rental_uris":{"android":"levelo://app?vid=4aa4622c-b393-455b-858c-e31f5966da2d","ios":"levelo://app?vid=4aa4622c-b393-455b-858c-e31f5966da2d"},"vehicle_type_id":"4","last_reported":1727118411,"current_range_meters":38800,"station_id":"ce4bhih2rcd13ifvqfr0","pricing_plan_id":"cebpf4jnsgd1na2vs0mg"},{"bike_id":"c177910f-a70c-4cf4-86b6-882df5171316","system_id":"levelo_inurba_marseille","lat":43.29537,"lon":5.38545,"is_reserved":false,"is_disabled":false,"rental_uris":{"android":"levelo://app?vid=c177910f-a70c-4cf4-86b6-882df5171316","ios":"levelo://app?vid=c177910f-a70c-4cf4-86b6-882df5171316"},"vehicle_type_id":"4","last_reported":1727118411,"current_range_meters":6000,"station_id":"ce4bgih2rcd13ifvqba0","pricing_plan_id":"cebpf4jnsgd1na2vs0mg"},{"bike_id":"7ce3c92c-def6-4e7e-8307-1ffcb59b7f86","system_id":"levelo_inurba_marseille","lat":43.30127,"lon":5.38791,"is_reserved":false,"is_disabled":false,"rental_uris":{"android":"levelo://app?vid=7ce3c92c-def6-4e7e-8307-1ffcb59b7f86","ios":"levelo://app?vid=7ce3c92c-def6-4e7e-8307-1ffcb59b7f86"},"vehicle_type_id":"4","last_reported":1727118411,"current_range_meters":15200,"station_id":"ce4bghh2rcd13ifvqb60","pricing_plan_id":"cebpf4jnsgd1na2vs0mg"},{"bike_id":"9293bf76-669c-44b1-ab3c-e5210753b52f","system_id":"levelo_inurba_marseille","lat":43.30415,"lon":5.41288,"is_reserved":false,"is_disabled":false,"rental_uris":{"android":"levelo://app?vid=9293bf76-669c-44b1-ab3c-e5210753b52f","ios":"levelo://app?vid=9293bf76-669c-44b1-ab3c-e5210753b52f"},"vehicle_type_id":"4","last_reported":1727118411,"current_range_meters":19600,"station_id":"ce4bhop2rcd13ifvqh8g","pricing_plan_id":"cebpf4jnsgd1na2vs0mg"},{"bike_id":"c556ff5a-9148-4ec5-9759-21f4fef596ad","system_id":"levelo_inurba_marseille","lat":43.23178,"lon":5.39991,"is_reserved":false,"is_disabled":false,"rental_uris":{"android":"levelo://app?vid=c556ff5a-9148-4ec5-9759-21f4fef596ad","ios":"levelo://app?vid=c556ff5a-9148-4ec5-9759-21f4fef596ad"},"vehicle_type_id":"4","last_reported":1727118411,"current_range_meters":26000,"station_id":"ce4bhn12rcd13ifvqgqg","pricing_plan_id":"cebpf4jnsgd1na2vs0mg"},{"bike_id":"7e3920a9-97d9-483d-b7ba-9d14c34ba84c","system_id":"levelo_inurba_marseille","lat":43.28461,"lon":5.35896,"is_reserved":false,"is_disabled":false,"rental_uris":{"android":"levelo://app?vid=7e3920a9-97d9-483d-b7ba-9d14c34ba84c","ios":"levelo://app?vid=7e3920a9-97d9-483d-b7ba-9d14c34ba84c"},"vehicle_type_id":"4","last_reported":1727118411,"current_range_meters":38400,"station_id":"ce4bhah2rcd13ifvqei0","pricing_plan_id":"cebpf4jnsgd1na2vs0mg"},{"bike_id":"e89c9581-6d7a-4880-8fb9-3f7560331d25","system_id":"levelo_inurba_marseille","lat":43.28154,"lon":5.4265,"is_reserved":false,"is_disabled":false,"rental_uris":{"android":"levelo://app?vid=e89c9581-6d7a-4880-8fb9-3f7560331d25","ios":"levelo://app?vid=e89c9581-6d7a-4880-8fb9-3f7560331d25"},"vehicle_type_id":"4","last_reported":1727118411,"current_range_meters":9600,"station_id":"ce4bhnh2rcd13ifvqgug","pricing_plan_id":"cebpf4jnsgd1na2vs0mg"},{"bike_id":"ee8a5fb1-b149-4dcf-97dc-917649395c3e","system_id":"levelo_inurba_marseille","lat":43.248052,"lon":5.374596,"is_reserved":false,"is_disabled":false,"rental_uris":{"android":"levelo://app?vid=ee8a5fb1-b149-4dcf-97dc-917649395c3e","ios":"levelo://app?vid=ee8a5fb1-b149-4dcf-97dc-917649395c3e"},"vehicle_type_id":"4","last_reported":1727118411,"current_range_meters":28000,"station_id":"ce4bhgh2rcd13ifvqfb0","pricing_plan_id":"cebpf4jnsgd1na2vs0mg"},{"bike_id":"9337a9bc-bbc8-485e-99e9-300685e07206","system_id":"levelo_inurba_marseille","lat":43.29033,"lon":5.38649,"is_reserved":false,"is_disabled":false,"rental_uris":{"android":"levelo://app?vid=9337a9bc-bbc8-485e-99e9-300685e07206","ios":"levelo://app?vid=9337a9bc-bbc8-485e-99e9-300685e07206"},"vehicle_type_id":"4","last_reported":1727118411,"current_range_meters":38800,"station_id":"ce4bh4p2rcd13ifvqe0g","pricing_plan_id":"cebpf4jnsgd1na2vs0mg"},{"bike_id":"16ae6180-f6e5-47e0-8f4b-70a0144490cf","system_id":"levelo_inurba_marseille","lat":43.3041,"lon":5.41288,"is_reserved":false,"is_disabled":false,"rental_uris":{"android":"levelo://app?vid=16ae6180-f6e5-47e0-8f4b-70a0144490cf","ios":"levelo://app?vid=16ae6180-f6e5-47e0-8f4b-70a0144490cf"},"vehicle_type_id":"4","last_reported":1727118411,"current_range_meters":14800,"station_id":"ce4bhop2rcd13ifvqh8g","pricing_plan_id":"cebpf4jnsgd1na2vs0mg"},{"bike_id":"f3ebb421-4e3f-4583-ae8c-954c996c47fa","system_id":"levelo_inurba_marseille","lat":43.29258,"lon":5.38455,"is_reserved":false,"is_disabled":false,"rental_uris":{"android":"levelo://app?vid=f3ebb421-4e3f-4583-ae8c-954c996c47fa","ios":"levelo://app?vid=f3ebb421-4e3f-4583-ae8c-954c996c47fa"},"vehicle_type_id":"4","last_reported":1727118411,"current_range_meters":38800,"station_id":"ce4bh692rcd13ifvqea0","pricing_plan_id":"cebpf4jnsgd1na2vs0mg"},{"bike_id":"e25d417b-ad78-4f3d-bd12-ee4005be6dc3","system_id":"levelo_inurba_marseille","lat":43.2905,"lon":5.35928,"is_reserved":false,"is_disabled":false,"rental_uris":{"android":"levelo://app?vid=e25d417b-ad78-4f3d-bd12-ee4005be6dc3","ios":"levelo://app?vid=e25d417b-ad78-4f3d-bd12-ee4005be6dc3"},"vehicle_type_id":"4","last_reported":1727118411,"current_range_meters":25200,"station_id":"ce4bha92rcd13ifvqeg0","pricing_plan_id":"cebpf4jnsgd1na2vs0mg"},{"bike_id":"6e78d59c-5154-4d11-b194-a0bd97a6c225","system_id":"levelo_inurba_marseille","lat":43.2619,"lon":5.37453,"is_reserved":false,"is_disabled":false,"rental_uris":{"android":"levelo://app?vid=6e78d59c-5154-4d11-b194-a0bd97a6c225","ios":"levelo://app?vid=6e78d59c-5154-4d11-b194-a0bd97a6c225"},"vehicle_type_id":"4","last_reported":1727118411,"current_range_meters":38800,"station_id":"ce4bhgp2rcd13ifvqfc0","pricing_plan_id":"cebpf4jnsgd1na2vs0mg"},{"bike_id":"7a4e9a5c-ae3b-40ea-90ad-b7780f4ee8d3","system_id":"levelo_inurba_marseille","lat":43.29571,"lon":5.39987,"is_reserved":false,"is_disabled":false,"rental_uris":{"android":"levelo://app?vid=7a4e9a5c-ae3b-40ea-90ad-b7780f4ee8d3","ios":"levelo://app?vid=7a4e9a5c-ae3b-40ea-90ad-b7780f4ee8d3"},"vehicle_type_id":"4","last_reported":1727118411,"current_range_meters":39200,"station_id":"ce4bh312rcd13ifvqdj0","pricing_plan_id":"cebpf4jnsgd1na2vs0mg"},{"bike_id":"e3af0b57-a7cc-491d-8bfb-4853073ba6a0","system_id":"levelo_inurba_marseille","lat":43.323395,"lon":5.406265,"is_reserved":false,"is_disabled":false,"rental_uris":{"android":"levelo://app?vid=e3af0b57-a7cc-491d-8bfb-4853073ba6a0","ios":"levelo://app?vid=e3af0b57-a7cc-491d-8bfb-4853073ba6a0"},"vehicle_type_id":"4","last_reported":1727118411,"current_range_meters":4000,"station_id":"","pricing_plan_id":"cebpf4jnsgd1na2vs0mg"},{"bike_id":"1f03cd5a-d073-4216-841a-b8489226f4f2","system_id":"levelo_inurba_marseille","lat":43.28566,"lon":5.39503,"is_reserved":false,"is_disabled":false,"rental_uris":{"android":"levelo://app?vid=1f03cd5a-d073-4216-841a-b8489226f4f2","ios":"levelo://app?vid=1f03cd5a-d073-4216-841a-b8489226f4f2"},"vehicle_type_id":"4","last_reported":1727118411,"current_range_meters":6800,"station_id":"ce4bh292rcd13ifvqdg0","pricing_plan_id":"cebpf4jnsgd1na2vs0mg"},{"bike_id":"da12dab4-cf6f-4205-97d4-2c964fa537b5","system_id":"levelo_inurba_marseille","lat":43.3208,"lon":5.38117,"is_reserved":false,"is_disabled":false,"rental_uris":{"android":"levelo://app?vid=da12dab4-cf6f-4205-97d4-2c964fa537b5","ios":"levelo://app?vid=da12dab4-cf6f-4205-97d4-2c964fa537b5"},"vehicle_type_id":"4","last_reported":1727118411,"current_range_meters":17600,"station_id":"","pricing_plan_id":"cebpf4jnsgd1na2vs0mg"},{"bike_id":"52bcde14-c71c-49f2-8512-0fe1c2bbf840","system_id":"levelo_inurba_marseille","lat":43.29592,"lon":5.38106,"is_reserved":false,"is_disabled":false,"rental_uris":{"android":"levelo://app?vid=52bcde14-c71c-49f2-8512-0fe1c2bbf840","ios":"levelo://app?vid=52bcde14-c71c-49f2-8512-0fe1c2bbf840"},"vehicle_type_id":"4","last_reported":1727118411,"current_range_meters":37600,"station_id":"ce4bgl12rcd13ifvqbo0","pricing_plan_id":"cebpf4jnsgd1na2vs0mg"},{"bike_id":"bf956e83-bc04-451b-85d2-451ba416a3af","system_id":"levelo_inurba_marseille","lat":43.311131,"lon":5.377693,"is_reserved":false,"is_disabled":false,"rental_uris":{"android":"levelo://app?vid=bf956e83-bc04-451b-85d2-451ba416a3af","ios":"levelo://app?vid=bf956e83-bc04-451b-85d2-451ba416a3af"},"vehicle_type_id":"4","last_reported":1727118411,"current_range_meters":22800,"station_id":"ce4bgt92rcd13ifvqcg0","pricing_plan_id":"cebpf4jnsgd1na2vs0mg"},{"bike_id":"fad93ecb-b026-49b7-9a02-d73afba2e3d0","system_id":"levelo_inurba_marseille","lat":43.29438,"lon":5.39753,"is_reserved":false,"is_disabled":false,"rental_uris":{"android":"levelo://app?vid=fad93ecb-b026-49b7-9a02-d73afba2e3d0","ios":"levelo://app?vid=fad93ecb-b026-49b7-9a02-d73afba2e3d0"},"vehicle_type_id":"4","last_reported":1727118411,"current_range_meters":38400,"station_id":"ce4bh3h2rcd13ifvqdo0","pricing_plan_id":"cebpf4jnsgd1na2vs0mg"},{"bike_id":"36dc71fe-bfc9-4a4d-b2ef-39ebb067c458","system_id":"levelo_inurba_marseille","lat":43.29545,"lon":5.42287,"is_reserved":false,"is_disabled":false,"rental_uris":{"android":"levelo://app?vid=36dc71fe-bfc9-4a4d-b2ef-39ebb067c458","ios":"levelo://app?vid=36dc71fe-bfc9-4a4d-b2ef-39ebb067c458"},"vehicle_type_id":"4","last_reported":1727118411,"current_range_meters":39200,"station_id":"ce4bhph2rcd13ifvqhdg","pricing_plan_id":"cebpf4jnsgd1na2vs0mg"},{"bike_id":"4e442a34-1c41-4d3c-9b65-5b0b3be50276","system_id":"levelo_inurba_marseille","lat":43.3372,"lon":5.392,"is_reserved":false,"is_disabled":false,"rental_uris":{"android":"levelo://app?vid=4e442a34-1c41-4d3c-9b65-5b0b3be50276","ios":"levelo://app?vid=4e442a34-1c41-4d3c-9b65-5b0b3be50276"},"vehicle_type_id":"4","last_reported":1727118411,"current_range_meters":36800,"station_id":"ce4bhr92rcd13ifvqhsg","pricing_plan_id":"cebpf4jnsgd1na2vs0mg"},{"bike_id":"825506b1-24dd-4090-949a-c20cdfe1c10e","system_id":"levelo_inurba_marseille","lat":43.26547,"lon":5.37291,"is_reserved":false,"is_disabled":false,"rental_uris":{"android":"levelo://app?vid=825506b1-24dd-4090-949a-c20cdfe1c10e","ios":"levelo://app?vid=825506b1-24dd-4090-949a-c20cdfe1c10e"},"vehicle_type_id":"4","last_reported":1727118411,"current_range_meters":6800,"station_id":"ce4bhg12rcd13ifvqf70","pricing_plan_id":"cebpf4jnsgd1na2vs0mg"},{"bike_id":"ab82d197-8bb6-4b0e-b7b2-f44f006c368e","system_id":"levelo_inurba_marseille","lat":43.287,"lon":5.373882,"is_reserved":false,"is_disabled":false,"rental_uris":{"android":"levelo://app?vid=ab82d197-8bb6-4b0e-b7b2-f44f006c368e","ios":"levelo://app?vid=ab82d197-8bb6-4b0e-b7b2-f44f006c368e"},"vehicle_type_id":"4","last_reported":1727118411,"current_range_meters":4800,"station_id":"ce4bh3p2rcd13ifvqdq0","pricing_plan_id":"cebpf4jnsgd1na2vs0mg"},{"bike_id":"b02031c3-1af7-4ceb-b456-58c5dd56dcaf","system_id":"levelo_inurba_marseille","lat":43.28671,"lon":5.36358,"is_reserved":false,"is_disabled":false,"rental_uris":{"android":"levelo://app?vid=b02031c3-1af7-4ceb-b456-58c5dd56dcaf","ios":"levelo://app?vid=b02031c3-1af7-4ceb-b456-58c5dd56dcaf"},"vehicle_type_id":"4","last_reported":1727118411,"current_range_meters":22800,"station_id":"ce4bhah2rcd13ifvqej0","pricing_plan_id":"cebpf4jnsgd1na2vs0mg"},{"bike_id":"08b7b016-493d-4aa6-b8e0-9e58c7496fda","system_id":"levelo_inurba_marseille","lat":43.29967,"lon":5.38502,"is_reserved":false,"is_disabled":false,"rental_uris":{"android":"levelo://app?vid=08b7b016-493d-4aa6-b8e0-9e58c7496fda","ios":"levelo://app?vid=08b7b016-493d-4aa6-b8e0-9e58c7496fda"},"vehicle_type_id":"4","last_reported":1727118411,"current_range_meters":38000,"station_id":"ce4bgj92rcd13ifvqbd0","pricing_plan_id":"cebpf4jnsgd1na2vs0mg"},{"bike_id":"413adb04-2263-4526-a84b-7f131b9e8561","system_id":"levelo_inurba_marseille","lat":43.32374,"lon":5.38931,"is_reserved":false,"is_disabled":false,"rental_uris":{"android":"levelo://app?vid=413adb04-2263-4526-a84b-7f131b9e8561","ios":"levelo://app?vid=413adb04-2263-4526-a84b-7f131b9e8561"},"vehicle_type_id":"4","last_reported":1727118411,"current_range_meters":38800,"station_id":"ce4bhqp2rcd13ifvqhog","pricing_plan_id":"cebpf4jnsgd1na2vs0mg"},{"bike_id":"47e1b004-8da4-4d74-98a2-ac98ce7101ee","system_id":"levelo_inurba_marseille","lat":43.26191,"lon":5.37451,"is_reserved":false,"is_disabled":false,"rental_uris":{"android":"levelo://app?vid=47e1b004-8da4-4d74-98a2-ac98ce7101ee","ios":"levelo://app?vid=47e1b004-8da4-4d74-98a2-ac98ce7101ee"},"vehicle_type_id":"4","last_reported":1727118411,"current_range_meters":38800,"station_id":"ce4bhgp2rcd13ifvqfc0","pricing_plan_id":"cebpf4jnsgd1na2vs0mg"},{"bike_id":"9d5dbf1d-4028-41bf-9dae-f4f69d16b2aa","system_id":"levelo_inurba_marseille","lat":43.31083,"lon":5.42435,"is_reserved":false,"is_disabled":false,"rental_uris":{"android":"levelo://app?vid=9d5dbf1d-4028-41bf-9dae-f4f69d16b2aa","ios":"levelo://app?vid=9d5dbf1d-4028-41bf-9dae-f4f69d16b2aa"},"vehicle_type_id":"4","last_reported":1727118411,"current_range_meters":30400,"station_id":"ce4bhp92rcd13ifvqhag","pricing_plan_id":"cebpf4jnsgd1na2vs0mg"},{"bike_id":"4c3d29a6-94ef-4f05-b120-1051863a57ee","system_id":"levelo_inurba_marseille","lat":43.30878,"lon":5.39653,"is_reserved":false,"is_disabled":false,"rental_uris":{"android":"levelo://app?vid=4c3d29a6-94ef-4f05-b120-1051863a57ee","ios":"levelo://app?vid=4c3d29a6-94ef-4f05-b120-1051863a57ee"},"vehicle_type_id":"4","last_reported":1727118411,"current_range_meters":4800,"station_id":"ce4bh012rcd13ifvqcv0","pricing_plan_id":"cebpf4jnsgd1na2vs0mg"},{"bike_id":"49a897fa-a1e0-4da8-adc3-cd89b1f40c6b","system_id":"levelo_inurba_marseille","lat":43.27941,"lon":5.41063,"is_reserved":false,"is_disabled":false,"rental_uris":{"android":"levelo://app?vid=49a897fa-a1e0-4da8-adc3-cd89b1f40c6b","ios":"levelo://app?vid=49a897fa-a1e0-4da8-adc3-cd89b1f40c6b"},"vehicle_type_id":"4","last_reported":1727118411,"current_range_meters":2000,"station_id":"ce4bhnp2rcd13ifvqh0g","pricing_plan_id":"cebpf4jnsgd1na2vs0mg"},{"bike_id":"c5f9714c-664d-4289-bc83-98ac604eb9e6","system_id":"levelo_inurba_marseille","lat":43.29548,"lon":5.42292,"is_reserved":false,"is_disabled":false,"rental_uris":{"android":"levelo://app?vid=c5f9714c-664d-4289-bc83-98ac604eb9e6","ios":"levelo://app?vid=c5f9714c-664d-4289-bc83-98ac604eb9e6"},"vehicle_type_id":"4","last_reported":1727118411,"current_range_meters":39200,"station_id":"ce4bhph2rcd13ifvqhdg","pricing_plan_id":"cebpf4jnsgd1na2vs0mg"},{"bike_id":"aaf5c426-7a93-43ff-8bc8-b50ec0be2861","system_id":"levelo_inurba_marseille","lat":43.24651,"lon":5.38895,"is_reserved":false,"is_disabled":false,"rental_uris":{"android":"levelo://app?vid=aaf5c426-7a93-43ff-8bc8-b50ec0be2861","ios":"levelo://app?vid=aaf5c426-7a93-43ff-8bc8-b50ec0be2861"},"vehicle_type_id":"4","last_reported":1727118411,"current_range_meters":8800,"station_id":"ce4bhg12rcd13ifvqf60","pricing_plan_id":"cebpf4jnsgd1na2vs0mg"},{"bike_id":"eaf6f3a4-a870-473f-9337-4c4d6e35700e","system_id":"levelo_inurba_marseille","lat":43.28343,"lon":5.38127,"is_reserved":false,"is_disabled":false,"rental_uris":{"android":"levelo://app?vid=eaf6f3a4-a870-473f-9337-4c4d6e35700e","ios":"levelo://app?vid=eaf6f3a4-a870-473f-9337-4c4d6e35700e"},"vehicle_type_id":"4","last_reported":1727118411,"current_range_meters":3200,"station_id":"ce4bh412rcd13ifvqdr0","pricing_plan_id":"cebpf4jnsgd1na2vs0mg"},{"bike_id":"582becdd-da4c-4d50-8a33-ffb0a3c6efc3","system_id":"levelo_inurba_marseille","lat":43.29192,"lon":5.39319,"is_reserved":false,"is_disabled":false,"rental_uris":{"android":"levelo://app?vid=582becdd-da4c-4d50-8a33-ffb0a3c6efc3","ios":"levelo://app?vid=582becdd-da4c-4d50-8a33-ffb0a3c6efc3"},"vehicle_type_id":"4","last_reported":1727118411,"current_range_meters":12800,"station_id":"ce4bh192rcd13ifvqdd0","pricing_plan_id":"cebpf4jnsgd1na2vs0mg"},{"bike_id":"b49e8aa4-b4d7-4f9d-a437-8d1bbdfe618a","system_id":"levelo_inurba_marseille","lat":43.29549,"lon":5.42291,"is_reserved":false,"is_disabled":false,"rental_uris":{"android":"levelo://app?vid=b49e8aa4-b4d7-4f9d-a437-8d1bbdfe618a","ios":"levelo://app?vid=b49e8aa4-b4d7-4f9d-a437-8d1bbdfe618a"},"vehicle_type_id":"4","last_reported":1727118411,"current_range_meters":38800,"station_id":"ce4bhph2rcd13ifvqhdg","pricing_plan_id":"cebpf4jnsgd1na2vs0mg"},{"bike_id":"27df7fec-8236-4fe3-a58b-99ef28386406","system_id":"levelo_inurba_marseille","lat":43.29787,"lon":5.3811,"is_reserved":false,"is_disabled":false,"rental_uris":{"android":"levelo://app?vid=27df7fec-8236-4fe3-a58b-99ef28386406","ios":"levelo://app?vid=27df7fec-8236-4fe3-a58b-99ef28386406"},"vehicle_type_id":"4","last_reported":1727118411,"current_range_meters":2800,"station_id":"ce4bgip2rcd13ifvqbb0","pricing_plan_id":"cebpf4jnsgd1na2vs0mg"},{"bike_id":"0268be4f-4128-493f-820d-26c7617b1bcb","system_id":"levelo_inurba_marseille","lat":43.29194,"lon":5.39332,"is_reserved":false,"is_disabled":false,"rental_uris":{"android":"levelo://app?vid=0268be4f-4128-493f-820d-26c7617b1bcb","ios":"levelo://app?vid=0268be4f-4128-493f-820d-26c7617b1bcb"},"vehicle_type_id":"4","last_reported":1727118411,"current_range_meters":24800,"station_id":"ce4bh192rcd13ifvqdd0","pricing_plan_id":"cebpf4jnsgd1na2vs0mg"},{"bike_id":"c203efdb-fe94-4178-a72c-1daae27645d7","system_id":"levelo_inurba_marseille","lat":43.29032,"lon":5.38656,"is_reserved":false,"is_disabled":false,"rental_uris":{"android":"levelo://app?vid=c203efdb-fe94-4178-a72c-1daae27645d7","ios":"levelo://app?vid=c203efdb-fe94-4178-a72c-1daae27645d7"},"vehicle_type_id":"4","last_reported":1727118411,"current_range_meters":2800,"station_id":"ce4bh4p2rcd13ifvqe0g","pricing_plan_id":"cebpf4jnsgd1na2vs0mg"},{"bike_id":"1b424706-aab3-4959-99b9-2559df57b28b","system_id":"levelo_inurba_marseille","lat":43.26539,"lon":5.39002,"is_reserved":false,"is_disabled":false,"rental_uris":{"android":"levelo://app?vid=1b424706-aab3-4959-99b9-2559df57b28b","ios":"levelo://app?vid=1b424706-aab3-4959-99b9-2559df57b28b"},"vehicle_type_id":"4","last_reported":1727118411,"current_range_meters":38800,"station_id":"","pricing_plan_id":"cebpf4jnsgd1na2vs0mg"},{"bike_id":"bfe57a40-fdc3-4173-879d-c93157cc56e1","system_id":"levelo_inurba_marseille","lat":43.29238,"lon":5.40916,"is_reserved":false,"is_disabled":false,"rental_uris":{"android":"levelo://app?vid=bfe57a40-fdc3-4173-879d-c93157cc56e1","ios":"levelo://app?vid=bfe57a40-fdc3-4173-879d-c93157cc56e1"},"vehicle_type_id":"4","last_reported":1727118411,"current_range_meters":18800,"station_id":"ce4bh192rcd13ifvqdc0","pricing_plan_id":"cebpf4jnsgd1na2vs0mg"},{"bike_id":"2c17afe0-5ebe-440b-bd8c-a6dbded46011","system_id":"levelo_inurba_marseille","lat":43.32541,"lon":5.4144,"is_reserved":false,"is_disabled":false,"rental_uris":{"android":"levelo://app?vid=2c17afe0-5ebe-440b-bd8c-a6dbded46011","ios":"levelo://app?vid=2c17afe0-5ebe-440b-bd8c-a6dbded46011"},"vehicle_type_id":"4","last_reported":1727118411,"current_range_meters":8800,"station_id":"ce4bhq12rcd13ifvqhhg","pricing_plan_id":"cebpf4jnsgd1na2vs0mg"},{"bike_id":"0086df81-4e9f-4dfa-b7d8-fa53bd0a0ad6","system_id":"levelo_inurba_marseille","lat":43.25079,"lon":5.39518,"is_reserved":false,"is_disabled":false,"rental_uris":{"android":"levelo://app?vid=0086df81-4e9f-4dfa-b7d8-fa53bd0a0ad6","ios":"levelo://app?vid=0086df81-4e9f-4dfa-b7d8-fa53bd0a0ad6"},"vehicle_type_id":"4","last_reported":1727118411,"current_range_meters":36800,"station_id":"ce4bhm12rcd13ifvqgkg","pricing_plan_id":"cebpf4jnsgd1na2vs0mg"},{"bike_id":"5461ea1c-76b0-4429-a05e-d6299ebc8ba1","system_id":"levelo_inurba_marseille","lat":43.31718,"lon":5.4241,"is_reserved":false,"is_disabled":false,"rental_uris":{"android":"levelo://app?vid=5461ea1c-76b0-4429-a05e-d6299ebc8ba1","ios":"levelo://app?vid=5461ea1c-76b0-4429-a05e-d6299ebc8ba1"},"vehicle_type_id":"4","last_reported":1727118411,"current_range_meters":39200,"station_id":"ce4bhp92rcd13ifvqhbg","pricing_plan_id":"cebpf4jnsgd1na2vs0mg"},{"bike_id":"613c67cf-2a5d-4115-8267-10475d422360","system_id":"levelo_inurba_marseille","lat":43.31489,"lon":5.37299,"is_reserved":false,"is_disabled":false,"rental_uris":{"android":"levelo://app?vid=613c67cf-2a5d-4115-8267-10475d422360","ios":"levelo://app?vid=613c67cf-2a5d-4115-8267-10475d422360"},"vehicle_type_id":"4","last_reported":1727118411,"current_range_meters":38800,"station_id":"ce4bgt12rcd13ifvqcd0","pricing_plan_id":"cebpf4jnsgd1na2vs0mg"},{"bike_id":"dc979de0-7801-462a-a71f-1d665d6099b8","system_id":"levelo_inurba_marseille","lat":43.29026,"lon":5.38651,"is_reserved":false,"is_disabled":false,"rental_uris":{"android":"levelo://app?vid=dc979de0-7801-462a-a71f-1d665d6099b8","ios":"levelo://app?vid=dc979de0-7801-462a-a71f-1d665d6099b8"},"vehicle_type_id":"4","last_reported":1727118411,"current_range_meters":38800,"station_id":"ce4bh4p2rcd13ifvqe0g","pricing_plan_id":"cebpf4jnsgd1na2vs0mg"},{"bike_id":"4dd25ccb-f563-47c5-8aa8-2bf4e28d8fba","system_id":"levelo_inurba_marseille","lat":43.24647,"lon":5.38894,"is_reserved":false,"is_disabled":false,"rental_uris":{"android":"levelo://app?vid=4dd25ccb-f563-47c5-8aa8-2bf4e28d8fba","ios":"levelo://app?vid=4dd25ccb-f563-47c5-8aa8-2bf4e28d8fba"},"vehicle_type_id":"4","last_reported":1727118411,"current_range_meters":37600,"station_id":"ce4bhg12rcd13ifvqf60","pricing_plan_id":"cebpf4jnsgd1na2vs0mg"},{"bike_id":"60ff8254-715f-457b-a1b3-1dc29e9803e3","system_id":"levelo_inurba_marseille","lat":43.29894,"lon":5.43664,"is_reserved":false,"is_disabled":false,"rental_uris":{"android":"levelo://app?vid=60ff8254-715f-457b-a1b3-1dc29e9803e3","ios":"levelo://app?vid=60ff8254-715f-457b-a1b3-1dc29e9803e3"},"vehicle_type_id":"4","last_reported":1727118411,"current_range_meters":5600,"station_id":"ce4bhpp2rcd13ifvqhfg","pricing_plan_id":"cebpf4jnsgd1na2vs0mg"},{"bike_id":"3433e3ae-1a65-4ba7-9152-ddedd884931d","system_id":"levelo_inurba_marseille","lat":43.28003,"lon":5.40022,"is_reserved":false,"is_disabled":false,"rental_uris":{"android":"levelo://app?vid=3433e3ae-1a65-4ba7-9152-ddedd884931d","ios":"levelo://app?vid=3433e3ae-1a65-4ba7-9152-ddedd884931d"},"vehicle_type_id":"4","last_reported":1727118411,"current_range_meters":39200,"station_id":"ce4bho92rcd13ifvqh4g","pricing_plan_id":"cebpf4jnsgd1na2vs0mg"},{"bike_id":"c1d87ad9-cabf-4556-bba5-0764007ca0e3","system_id":"levelo_inurba_marseille","lat":43.27916,"lon":5.39583,"is_reserved":false,"is_disabled":false,"rental_uris":{"android":"levelo://app?vid=c1d87ad9-cabf-4556-bba5-0764007ca0e3","ios":"levelo://app?vid=c1d87ad9-cabf-4556-bba5-0764007ca0e3"},"vehicle_type_id":"4","last_reported":1727118411,"current_range_meters":9600,"station_id":"ce4bhf92rcd13ifvqf40","pricing_plan_id":"cebpf4jnsgd1na2vs0mg"},{"bike_id":"4b3953b1-5508-460a-8850-526d115a6a80","system_id":"levelo_inurba_marseille","lat":43.30199,"lon":5.39468,"is_reserved":false,"is_disabled":false,"rental_uris":{"android":"levelo://app?vid=4b3953b1-5508-460a-8850-526d115a6a80","ios":"levelo://app?vid=4b3953b1-5508-460a-8850-526d115a6a80"},"vehicle_type_id":"4","last_reported":1727118411,"current_range_meters":16400,"station_id":"ce4bh0p2rcd13ifvqd70","pricing_plan_id":"cebpf4jnsgd1na2vs0mg"},{"bike_id":"f243b745-dffa-46f0-9e54-31f42a6b4a4e","system_id":"levelo_inurba_marseille","lat":43.25084,"lon":5.39527,"is_reserved":false,"is_disabled":false,"rental_uris":{"android":"levelo://app?vid=f243b745-dffa-46f0-9e54-31f42a6b4a4e","ios":"levelo://app?vid=f243b745-dffa-46f0-9e54-31f42a6b4a4e"},"vehicle_type_id":"4","last_reported":1727118411,"current_range_meters":28400,"station_id":"ce4bhm12rcd13ifvqgkg","pricing_plan_id":"cebpf4jnsgd1na2vs0mg"},{"bike_id":"2f3b0f07-2015-45b6-9095-33159c737d1a","system_id":"levelo_inurba_marseille","lat":43.23181,"lon":5.39996,"is_reserved":false,"is_disabled":false,"rental_uris":{"android":"levelo://app?vid=2f3b0f07-2015-45b6-9095-33159c737d1a","ios":"levelo://app?vid=2f3b0f07-2015-45b6-9095-33159c737d1a"},"vehicle_type_id":"4","last_reported":1727118411,"current_range_meters":10800,"station_id":"ce4bhn12rcd13ifvqgqg","pricing_plan_id":"cebpf4jnsgd1na2vs0mg"},{"bike_id":"ad916acf-e45a-468b-ae9b-0de8bbbd3a11","system_id":"levelo_inurba_marseille","lat":43.29418,"lon":5.38621,"is_reserved":false,"is_disabled":false,"rental_uris":{"android":"levelo://app?vid=ad916acf-e45a-468b-ae9b-0de8bbbd3a11","ios":"levelo://app?vid=ad916acf-e45a-468b-ae9b-0de8bbbd3a11"},"vehicle_type_id":"4","last_reported":1727118411,"current_range_meters":4800,"station_id":"ce4bh2h2rcd13ifvqdh0","pricing_plan_id":"cebpf4jnsgd1na2vs0mg"},{"bike_id":"485e1996-cb26-4896-91e4-a39251480fdc","system_id":"levelo_inurba_marseille","lat":43.31776,"lon":5.40597,"is_reserved":false,"is_disabled":false,"rental_uris":{"android":"levelo://app?vid=485e1996-cb26-4896-91e4-a39251480fdc","ios":"levelo://app?vid=485e1996-cb26-4896-91e4-a39251480fdc"},"vehicle_type_id":"4","last_reported":1727118411,"current_range_meters":38800,"station_id":"ce4bhq92rcd13ifvqhjg","pricing_plan_id":"cebpf4jnsgd1na2vs0mg"},{"bike_id":"02e2d360-f924-4d00-935f-7ac12bb5ffbe","system_id":"levelo_inurba_marseille","lat":43.31106,"lon":5.44716,"is_reserved":false,"is_disabled":false,"rental_uris":{"android":"levelo://app?vid=02e2d360-f924-4d00-935f-7ac12bb5ffbe","ios":"levelo://app?vid=02e2d360-f924-4d00-935f-7ac12bb5ffbe"},"vehicle_type_id":"4","last_reported":1727118411,"current_range_meters":6800,"station_id":"","pricing_plan_id":"cebpf4jnsgd1na2vs0mg"},{"bike_id":"b2a96470-34c0-45da-817a-05199b106195","system_id":"levelo_inurba_marseille","lat":43.2318,"lon":5.39994,"is_reserved":false,"is_disabled":false,"rental_uris":{"android":"levelo://app?vid=b2a96470-34c0-45da-817a-05199b106195","ios":"levelo://app?vid=b2a96470-34c0-45da-817a-05199b106195"},"vehicle_type_id":"4","last_reported":1727118411,"current_range_meters":27600,"station_id":"ce4bhn12rcd13ifvqgqg","pricing_plan_id":"cebpf4jnsgd1na2vs0mg"},{"bike_id":"a67b4287-da83-43eb-8e86-126974c9a016","system_id":"levelo_inurba_marseille","lat":43.29546,"lon":5.42291,"is_reserved":false,"is_disabled":false,"rental_uris":{"android":"levelo://app?vid=a67b4287-da83-43eb-8e86-126974c9a016","ios":"levelo://app?vid=a67b4287-da83-43eb-8e86-126974c9a016"},"vehicle_type_id":"4","last_reported":1727118411,"current_range_meters":22800,"station_id":"ce4bhph2rcd13ifvqhdg","pricing_plan_id":"cebpf4jnsgd1na2vs0mg"},{"bike_id":"231df590-15eb-4c0a-bdf6-dddd3cb861cb","system_id":"levelo_inurba_marseille","lat":43.337444,"lon":5.374475,"is_reserved":false,"is_disabled":false,"rental_uris":{"android":"levelo://app?vid=231df590-15eb-4c0a-bdf6-dddd3cb861cb","ios":"levelo://app?vid=231df590-15eb-4c0a-bdf6-dddd3cb861cb"},"vehicle_type_id":"4","last_reported":1727118411,"current_range_meters":20400,"station_id":"","pricing_plan_id":"cebpf4jnsgd1na2vs0mg"},{"bike_id":"9dc75b3c-55d4-4b77-876f-ce11e8642a6a","system_id":"levelo_inurba_marseille","lat":43.28414,"lon":5.37512,"is_reserved":false,"is_disabled":false,"rental_uris":{"android":"levelo://app?vid=9dc75b3c-55d4-4b77-876f-ce11e8642a6a","ios":"levelo://app?vid=9dc75b3c-55d4-4b77-876f-ce11e8642a6a"},"vehicle_type_id":"4","last_reported":1727118411,"current_range_meters":38800,"station_id":"ce4bh412rcd13ifvqds0","pricing_plan_id":"cebpf4jnsgd1na2vs0mg"},{"bike_id":"3b211465-5030-4ebd-b5e2-78bdfeebc435","system_id":"levelo_inurba_marseille","lat":43.33718,"lon":5.39193,"is_reserved":false,"is_disabled":false,"rental_uris":{"android":"levelo://app?vid=3b211465-5030-4ebd-b5e2-78bdfeebc435","ios":"levelo://app?vid=3b211465-5030-4ebd-b5e2-78bdfeebc435"},"vehicle_type_id":"4","last_reported":1727118411,"current_range_meters":20400,"station_id":"ce4bhr92rcd13ifvqhsg","pricing_plan_id":"cebpf4jnsgd1na2vs0mg"},