{"last_updated":1769089092,"ttl":60,"version":"2.2","data":{"bikes":[{"bike_id":"f09c06aa-a05d-4b00-b228-d8bee2b62b4f","system_id":"levelo_inurba_marseille","lat":43.32358,"lon":5.36736,"is_reserved":false,"is_disabled":false,"rental_uris":{"android":"levelo://app?vid=f09c06aa-a05d-4b00-b228-d8bee2b62b4f","ios":"levelo://app?vid=f09c06aa-a05d-4b00-b228-d8bee2b62b4f"},"vehicle_type_id":"4","last_reported":1769089093,"current_range_meters":2800,"station_id":"ce4bhsh2rcd13ifvqi2g","pricing_plan_id":"cebpf4jnsgd1na2vs0mg"},{"bike_id":"afe0996f-39dd-4053-a078-5bd350bd2c7d","system_id":"levelo_inurba_marseille","lat":43.28362,"lon":5.38633,"is_reserved":false,"is_disabled":false,"rental_uris":{"android":"levelo://app?vid=afe0996f-39dd-4053-a078-5bd350bd2c7d","ios":"levelo://app?vid=afe0996f-39dd-4053-a078-5bd350bd2c7d"},"vehicle_type_id":"4","last_reported":1769089093,"current_range_meters":2800,"station_id":"ce4bh492rcd13ifvqdvg","pricing_plan_id":"cebpf4jnsgd1na2vs0mg"},{"bike_id":"5f477738-733e-4c98-961a-33429c5938fd","system_id":"levelo_inurba_marseille","lat":43.260586,"lon":5.393984,"is_reserved":false,"is_disabled":false,"rental_uris":{"android":"levelo://app?vid=5f477738-733e-4c98-961a-33429c5938fd","ios":"levelo://app?vid=5f477738-733e-4c98-961a-33429c5938fd"},"vehicle_type_id":"4","last_reported":1769089093,"current_range_meters":2800,"station_id":"ce4bhh92rcd13ifvqfj0","pricing_plan_id":"cebpf4jnsgd1na2vs0mg"},{"bike_id":"9fe9b7fa-bf5e-456b-b148-d56a572e2392","system_id":"levelo_inurba_marseille","lat":43.22566,"lon":5.4163,"is_reserved":false,"is_disabled":false,"rental_uris":{"android":"levelo://app?vid=9fe9b7fa-bf5e-456b-b148-d56a572e2392","ios":"levelo://app?vid=9fe9b7fa-bf5e-456b-b148-d56a572e2392"},"vehicle_type_id":"4","last_reported":1769089093,"current_range_meters":2800,"station_id":"st_d2o4gvlbi1j2169b742g","pricing_plan_id":"cebpf4jnsgd1na2vs0mg"},{"bike_id":"c74fed02-d9c1-4bb3-829a-d480216d8ab0","system_id":"levelo_inurba_marseille","lat":43.24671,"lon":5.38167,"is_reserved":false,"is_disabled":false,"rental_uris":{"android":"levelo://app?vid=c74fed02-d9c1-4bb3-829a-d480216d8ab0","ios":"levelo://app?vid=c74fed02-d9c1-4bb3-829a-d480216d8ab0"},"vehicle_type_id":"4","last_reported":1769089093,"current_range_meters":2800,"station_id":"ce4bhih2rcd13ifvqfr0","pricing_plan_id":"cebpf4jnsgd1na2vs0mg"},{"bike_id":"9508ee5b-3e71-47e5-864d-2f7221c15703","system_id":"levelo_inurba_marseille","lat":43.29046,"lon":5.38125,"is_reserved":false,"is_disabled":false,"rental_uris":{"android":"levelo://app?vid=9508ee5b-3e71-47e5-864d-2f7221c15703","ios":"levelo://app?vid=9508ee5b-3e71-47e5-864d-2f7221c15703"},"vehicle_type_id":"4","last_reported":1769089093,"current_range_meters":2800,"station_id":"ce4bh4p2rcd13ifvqe1g","pricing_plan_id":"cebpf4jnsgd1na2vs0mg"},{"bike_id":"054e163b-1e47-4a0a-a038-a7939885860e","system_id":"levelo_inurba_marseille","lat":43.32343,"lon":5.36744,"is_reserved":false,"is_disabled":false,"rental_uris":{"android":"levelo://app?vid=054e163b-1e47-4a0a-a038-a7939885860e","ios":"levelo://app?vid=054e163b-1e47-4a0a-a038-a7939885860e"},"vehicle_type_id":"4","last_reported":1769089093,"current_range_meters":2800,"station_id":"ce4bhsh2rcd13ifvqi2g","pricing_plan_id":"cebpf4jnsgd1na2vs0mg"},{"bike_id":"ffabd398-f54b-45bd-9851-1b3115defcf6","system_id":"levelo_inurba_marseille","lat":43.2418,"lon":5.39739,"is_reserved":false,"is_disabled":false,"rental_uris":{"android":"levelo://app?vid=ffabd398-f54b-45bd-9851-1b3115defcf6","ios":"levelo://app?vid=ffabd398-f54b-45bd-9851-1b3115defcf6"},"vehicle_type_id":"4","last_reported":1769089093,"current_range_meters":2800,"station_id":"ce4bhn12rcd13ifvqgpg","pricing_plan_id":"cebpf4jnsgd1na2vs0mg"},{"bike_id":"85a00108-f046-4ab5-9d8b-3a6b8b1df9c8","system_id":"levelo_inurba_marseille","lat":43.29733,"lon":5.37726,"is_reserved":false,"is_disabled":false,"rental_uris":{"android":"levelo://app?vid=85a00108-f046-4ab5-9d8b-3a6b8b1df9c8","ios":"levelo://app?vid=85a00108-f046-4ab5-9d8b-3a6b8b1df9c8"},"vehicle_type_id":"4","last_reported":1769089093,"current_range_meters":2800,"station_id":"ce4bgkh2rcd13ifvqbl0","pricing_plan_id":"cebpf4jnsgd1na2vs0mg"},{"bike_id":"e3006b68-2895-43e3-a6a3-f525aa75c699","system_id":"levelo_inurba_marseille","lat":43.24072,"lon":5.37755,"is_reserved":false,"is_disabled":false,"rental_uris":{"android":"levelo://app?vid=e3006b68-2895-43e3-a6a3-f525aa75c699","ios":"levelo://app?vid=e3006b68-2895-43e3-a6a3-f525aa75c699"},"vehicle_type_id":"4","last_reported":1769089093,"current_range_meters":2800,"station_id":"ce4bhnp2rcd13ifvqgvg","pricing_plan_id":"cebpf4jnsgd1na2vs0mg"},{"bike_id":"8a298815-9a78-45a9-9f89-65e4906aa231","system_id":"levelo_inurba_marseille","lat":43.29288,"lon":5.37906,"is_reserved":false,"is_disabled":false,"rental_uris":{"android":"levelo://app?vid=8a298815-9a78-45a9-9f89-65e4906aa231","ios":"levelo://app?vid=8a298815-9a78-45a9-9f89-65e4906aa231"},"vehicle_type_id":"4","last_reported":1769089093,"current_range_meters":2800,"station_id":"ce4bgjh2rcd13ifvqbf0","pricing_plan_id":"cebpf4jnsgd1na2vs0mg"},{"bike_id":"64089e70-95ae-4ee4-8be8-a9da03038877","system_id":"levelo_inurba_marseille","lat":43.31368,"lon":5.36712,"is_reserved":false,"is_disabled":false,"rental_uris":{"android":"levelo://app?vid=64089e70-95ae-4ee4-8be8-a9da03038877","ios":"levelo://app?vid=64089e70-95ae-4ee4-8be8-a9da03038877"},"vehicle_type_id":"4","last_reported":1769089093,"current_range_meters":2800,"station_id":"ce4bgr92rcd13ifvqc6g","pricing_plan_id":"cebpf4jnsgd1na2vs0mg"},{"bike_id":"13c816e9-5043-41d0-a44f-0b67121a9c07","system_id":"levelo_inurba_marseille","lat":43.27951,"lon":5.39166,"is_reserved":false,"is_disabled":false,"rental_uris":{"android":"levelo://app?vid=13c816e9-5043-41d0-a44f-0b67121a9c07","ios":"levelo://app?vid=13c816e9-5043-41d0-a44f-0b67121a9c07"},"vehicle_type_id":"4","last_reported":1769089093,"current_range_meters":2800,"station_id":"ce4bhjp2rcd13ifvqga0","pricing_plan_id":"cebpf4jnsgd1na2vs0mg"},{"bike_id":"e87352d1-6d91-4df0-b5b1-05942bf5224c","system_id":"levelo_inurba_marseille","lat":43.27497,"lon":5.42443,"is_reserved":false,"is_disabled":false,"rental_uris":{"android":"levelo://app?vid=e87352d1-6d91-4df0-b5b1-05942bf5224c","ios":"levelo://app?vid=e87352d1-6d91-4df0-b5b1-05942bf5224c"},"vehicle_type_id":"4","last_reported":1769089093,"current_range_meters":2800,"station_id":"ce4bhn92rcd13ifvqgrg","pricing_plan_id":"cebpf4jnsgd1na2vs0mg"},{"bike_id":"12bd883b-612b-4744-aa30-09be7d3e24e5","system_id":"levelo_inurba_marseille","lat":43.290463,"lon":5.399449,"is_reserved":false,"is_disabled":false,"rental_uris":{"android":"levelo://app?vid=12bd883b-612b-4744-aa30-09be7d3e24e5","ios":"levelo://app?vid=12bd883b-612b-4744-aa30-09be7d3e24e5"},"vehicle_type_id":"4","last_reported":1769089093,"current_range_meters":3200,"station_id":"ce4bh392rcd13ifvqdm0","pricing_plan_id":"cebpf4jnsgd1na2vs0mg"},{"bike_id":"ca345495-1b78-4bed-965a-82c48e64f987","system_id":"levelo_inurba_marseille","lat":43.29037,"lon":5.37561,"is_reserved":false,"is_disabled":false,"rental_uris":{"android":"levelo://app?vid=ca345495-1b78-4bed-965a-82c48e64f987","ios":"levelo://app?vid=ca345495-1b78-4bed-965a-82c48e64f987"},"vehicle_type_id":"4","last_reported":1769089093,"current_range_meters":3200,"station_id":"ce4bh692rcd13ifvqe90","pricing_plan_id":"cebpf4jnsgd1na2vs0mg"},{"bike_id":"ba7c3881-8d02-44ea-8323-180ba27af21e","system_id":"levelo_inurba_marseille","lat":43.290593,"lon":5.3716,"is_reserved":false,"is_disabled":false,"rental_uris":{"android":"levelo://app?vid=ba7c3881-8d02-44ea-8323-180ba27af21e","ios":"levelo://app?vid=ba7c3881-8d02-44ea-8323-180ba27af21e"},"vehicle_type_id":"4","last_reported":1769089093,"current_range_meters":3200,"station_id":"ce4bh5p2rcd13ifvqe4g","pricing_plan_id":"cebpf4jnsgd1na2vs0mg"},{"bike_id":"19c9b524-76f1-4e5d-8be9-000b11a19079","system_id":"levelo_inurba_marseille","lat":43.25028,"lon":5.38911,"is_reserved":false,"is_disabled":false,"rental_uris":{"android":"levelo://app?vid=19c9b524-76f1-4e5d-8be9-000b11a19079","ios":"levelo://app?vid=19c9b524-76f1-4e5d-8be9-000b11a19079"},"vehicle_type_id":"4","last_reported":1769089093,"current_range_meters":3200,"station_id":"ce4bhgp2rcd13ifvqfd0","pricing_plan_id":"cebpf4jnsgd1na2vs0mg"},{"bike_id":"0e8b9a28-6d75-47ae-afad-4f8de92c4373","system_id":"levelo_inurba_marseille","lat":43.28524,"lon":5.38436,"is_reserved":false,"is_disabled":false,"rental_uris":{"android":"levelo://app?vid=0e8b9a28-6d75-47ae-afad-4f8de92c4373","ios":"levelo://app?vid=0e8b9a28-6d75-47ae-afad-4f8de92c4373"},"vehicle_type_id":"4","last_reported":1769089093,"current_range_meters":3200,"station_id":"","pricing_plan_id":"cebpf4jnsgd1na2vs0mg"},{"bike_id":"b24c9d20-79a1-4e93-84fe-7651d2e88df1","system_id":"levelo_inurba_marseille","lat":43.30521,"lon":5.36722,"is_reserved":false,"is_disabled":false,"rental_uris":{"android":"levelo://app?vid=b24c9d20-79a1-4e93-84fe-7651d2e88df1","ios":"levelo://app?vid=b24c9d20-79a1-4e93-84fe-7651d2e88df1"},"vehicle_type_id":"4","last_reported":1769089093,"current_range_meters":3200,"station_id":"ce4bgrp2rcd13ifvqc9g","pricing_plan_id":"cebpf4jnsgd1na2vs0mg"},{"bike_id":"6e37b06d-32a5-4f06-b587-8b490116d37c","system_id":"levelo_inurba_marseille","lat":43.29821,"lon":5.38118,"is_reserved":false,"is_disabled":false,"rental_uris":{"android":"levelo://app?vid=6e37b06d-32a5-4f06-b587-8b490116d37c","ios":"levelo://app?vid=6e37b06d-32a5-4f06-b587-8b490116d37c"},"vehicle_type_id":"4","last_reported":1769089093,"current_range_meters":3200,"station_id":"ce4bgip2rcd13ifvqbb0","pricing_plan_id":"cebpf4jnsgd1na2vs0mg"},{"bike_id":"9d8f6b40-000e-4394-ad1e-cfceb15b7d69","system_id":"levelo_inurba_marseille","lat":43.27953,"lon":5.3872,"is_reserved":false,"is_disabled":false,"rental_uris":{"android":"levelo://app?vid=9d8f6b40-000e-4394-ad1e-cfceb15b7d69","ios":"levelo://app?vid=9d8f6b40-000e-4394-ad1e-cfceb15b7d69"},"vehicle_type_id":"4","last_reported":1769089093,"current_range_meters":3200,"station_id":"ce4bhg12rcd13ifvqf80","pricing_plan_id":"cebpf4jnsgd1na2vs0mg"},{"bike_id":"23952ec8-a0f1-4bc7-aad6-a1231657c9e9","system_id":"levelo_inurba_marseille","lat":43.26552,"lon":5.37284,"is_reserved":false,"is_disabled":false,"rental_uris":{"android":"levelo://app?vid=23952ec8-a0f1-4bc7-aad6-a1231657c9e9","ios":"levelo://app?vid=23952ec8-a0f1-4bc7-aad6-a1231657c9e9"},"vehicle_type_id":"4","last_reported":1769089093,"current_range_meters":3200,"station_id":"ce4bhg12rcd13ifvqf70","pricing_plan_id":"cebpf4jnsgd1na2vs0mg"},{"bike_id":"ce33f6ad-f3bd-4953-bd7c-6e1238f24a4f","system_id":"levelo_inurba_marseille","lat":43.24674,"lon":5.38154,"is_reserved":false,"is_disabled":false,"rental_uris":{"android":"levelo://app?vid=ce33f6ad-f3bd-4953-bd7c-6e1238f24a4f","ios":"levelo://app?vid=ce33f6ad-f3bd-4953-bd7c-6e1238f24a4f"},"vehicle_type_id":"4","last_reported":1769089093,"current_range_meters":3200,"station_id":"ce4bhih2rcd13ifvqfr0","pricing_plan_id":"cebpf4jnsgd1na2vs0mg"},{"bike_id":"1faea985-2c7d-46b3-a0c7-11ff4bef455a","system_id":"levelo_inurba_marseille","lat":43.24635,"lon":5.38876,"is_reserved":false,"is_disabled":false,"rental_uris":{"android":"levelo://app?vid=1faea985-2c7d-46b3-a0c7-11ff4bef455a","ios":"levelo://app?vid=1faea985-2c7d-46b3-a0c7-11ff4bef455a"},"vehicle_type_id":"4","last_reported":1769089093,"current_range_meters":3200,"station_id":"ce4bhg12rcd13ifvqf60","pricing_plan_id":"cebpf4jnsgd1na2vs0mg"},{"bike_id":"ef6fae58-91e5-4bb7-aaac-7e9985256503","system_id":"levelo_inurba_marseille","lat":43.29267,"lon":5.40911,"is_reserved":false,"is_disabled":false,"rental_uris":{"android":"levelo://app?vid=ef6fae58-91e5-4bb7-aaac-7e9985256503","ios":"levelo://app?vid=ef6fae58-91e5-4bb7-aaac-7e9985256503"},"vehicle_type_id":"4","last_reported":1769089093,"current_range_meters":3200,"station_id":"ce4bh192rcd13ifvqdc0","pricing_plan_id":"cebpf4jnsgd1na2vs0mg"},{"bike_id":"87376c51-7b52-4611-acd2-49441baafe3f","system_id":"levelo_inurba_marseille","lat":43.24614,"lon":5.402,"is_reserved":false,"is_disabled":false,"rental_uris":{"android":"levelo://app?vid=87376c51-7b52-4611-acd2-49441baafe3f","ios":"levelo://app?vid=87376c51-7b52-4611-acd2-49441baafe3f"},"vehicle_type_id":"4","last_reported":1769089093,"current_range_meters":3200,"station_id":"","pricing_plan_id":"cebpf4jnsgd1na2vs0mg"},{"bike_id":"6320c284-ab04-4268-a5e5-197566fdfeb3","system_id":"levelo_inurba_marseille","lat":43.295266,"lon":5.390457,"is_reserved":false,"is_disabled":false,"rental_uris":{"android":"levelo://app?vid=6320c284-ab04-4268-a5e5-197566fdfeb3","ios":"levelo://app?vid=6320c284-ab04-4268-a5e5-197566fdfeb3"},"vehicle_type_id":"4","last_reported":1769089093,"current_range_meters":3200,"station_id":"ce4bh3p2rcd13ifvqdp0","pricing_plan_id":"cebpf4jnsgd1na2vs0mg"},{"bike_id":"8352aaa1-5131-4bd2-89d1-1d9d8e0c64d5","system_id":"levelo_inurba_marseille","lat":43.27978,"lon":5.38748,"is_reserved":false,"is_disabled":false,"rental_uris":{"android":"levelo://app?vid=8352aaa1-5131-4bd2-89d1-1d9d8e0c64d5","ios":"levelo://app?vid=8352aaa1-5131-4bd2-89d1-1d9d8e0c64d5"},"vehicle_type_id":"4","last_reported":1769089093,"current_range_meters":3600,"station_id":"ce4bhg12rcd13ifvqf80","pricing_plan_id":"cebpf4jnsgd1na2vs0mg"},{"bike_id":"99d65f09-c0e6-4f0f-b72f-6e110c0f1bd4","system_id":"levelo_inurba_marseille","lat":43.29007,"lon":5.37593,"is_reserved":false,"is_disabled":false,"rental_uris":{"android":"levelo://app?vid=99d65f09-c0e6-4f0f-b72f-6e110c0f1bd4","ios":"levelo://app?vid=99d65f09-c0e6-4f0f-b72f-6e110c0f1bd4"},"vehicle_type_id":"4","last_reported":1769089093,"current_range_meters":3600,"station_id":"ce4bh692rcd13ifvqe90","pricing_plan_id":"cebpf4jnsgd1na2vs0mg"},{"bike_id":"628d1d29-948b-4815-bc3f-a0ef2ac1c781","system_id":"levelo_inurba_marseille","lat":43.24165,"lon":5.36405,"is_reserved":false,"is_disabled":false,"rental_uris":{"android":"levelo://app?vid=628d1d29-948b-4815-bc3f-a0ef2ac1c781","ios":"levelo://app?vid=628d1d29-948b-4815-bc3f-a0ef2ac1c781"},"vehicle_type_id":"4","last_reported":1769089093,"current_range_meters":3600,"station_id":"cpo36qri1sfpv3e86is0","pricing_plan_id":"cebpf4jnsgd1na2vs0mg"},{"bike_id":"0b64e895-792b-4498-9172-5f40249c5668","system_id":"levelo_inurba_marseille","lat":43.26072,"lon":5.39388,"is_reserved":false,"is_disabled":false,"rental_uris":{"android":"levelo://app?vid=0b64e895-792b-4498-9172-5f40249c5668","ios":"levelo://app?vid=0b64e895-792b-4498-9172-5f40249c5668"},"vehicle_type_id":"4","last_reported":1769089093,"current_range_meters":3600,"station_id":"ce4bhh92rcd13ifvqfj0","pricing_plan_id":"cebpf4jnsgd1na2vs0mg"},{"bike_id":"bf9df301-dc0d-41cc-96a1-27301e9f819b","system_id":"levelo_inurba_marseille","lat":43.28472,"lon":5.48389,"is_reserved":false,"is_disabled":false,"rental_uris":{"android":"levelo://app?vid=bf9df301-dc0d-41cc-96a1-27301e9f819b","ios":"levelo://app?vid=bf9df301-dc0d-41cc-96a1-27301e9f819b"},"vehicle_type_id":"4","last_reported":1769089093,"current_range_meters":3600,"station_id":"","pricing_plan_id":"cebpf4jnsgd1na2vs0mg"},{"bike_id":"545e4f83-e51a-49da-ad95-1c0f7558160f","system_id":"levelo_inurba_marseille","lat":43.24818,"lon":5.37431,"is_reserved":false,"is_disabled":false,"rental_uris":{"android":"levelo://app?vid=545e4f83-e51a-49da-ad95-1c0f7558160f","ios":"levelo://app?vid=545e4f83-e51a-49da-ad95-1c0f7558160f"},"vehicle_type_id":"4","last_reported":1769089093,"current_range_meters":3600,"station_id":"ce4bhgh2rcd13ifvqfb0","pricing_plan_id":"cebpf4jnsgd1na2vs0mg"},{"bike_id":"57560f65-e4ea-4eda-9d46-c69dedf142ff","system_id":"levelo_inurba_marseille","lat":43.26315,"lon":5.40992,"is_reserved":false,"is_disabled":false,"rental_uris":{"android":"levelo://app?vid=57560f65-e4ea-4eda-9d46-c69dedf142ff","ios":"levelo://app?vid=57560f65-e4ea-4eda-9d46-c69dedf142ff"},"vehicle_type_id":"4","last_reported":1769089093,"current_range_meters":3600,"station_id":"st_d4e5ca6na9uc73bfl5fg","pricing_plan_id":"cebpf4jnsgd1na2vs0mg"},{"bike_id":"f5dbe3f0-b000-4485-bfe7-7e6728e7222b","system_id":"levelo_inurba_marseille","lat":43.273786,"lon":5.362657,"is_reserved":false,"is_disabled":false,"rental_uris":{"android":"levelo://app?vid=f5dbe3f0-b000-4485-bfe7-7e6728e7222b","ios":"levelo://app?vid=f5dbe3f0-b000-4485-bfe7-7e6728e7222b"},"vehicle_type_id":"4","last_reported":1769089093,"current_range_meters":3600,"station_id":"ce4bhbh2rcd13ifvqeo0","pricing_plan_id":"cebpf4jnsgd1na2vs0mg"},{"bike_id":"4c7ae057-d306-4108-a109-f703240d1f82","system_id":"levelo_inurba_marseille","lat":43.25937,"lon":5.40899,"is_reserved":false,"is_disabled":false,"rental_uris":{"android":"levelo://app?vid=4c7ae057-d306-4108-a109-f703240d1f82","ios":"levelo://app?vid=4c7ae057-d306-4108-a109-f703240d1f82"},"vehicle_type_id":"4","last_reported":1769089093,"current_range_meters":3600,"station_id":"ce4bhm92rcd13ifvqglg","pricing_plan_id":"cebpf4jnsgd1na2vs0mg"},{"bike_id":"c0db7285-41a2-48d5-8666-424ca161e485","system_id":"levelo_inurba_marseille","lat":43.24656,"lon":5.38896,"is_reserved":false,"is_disabled":false,"rental_uris":{"android":"levelo://app?vid=c0db7285-41a2-48d5-8666-424ca161e485","ios":"levelo://app?vid=c0db7285-41a2-48d5-8666-424ca161e485"},"vehicle_type_id":"4","last_reported":1769089093,"current_range_meters":3600,"station_id":"ce4bhg12rcd13ifvqf60","pricing_plan_id":"cebpf4jnsgd1na2vs0mg"},{"bike_id":"94e447ef-188e-4e98-a497-4fbe709caccf","system_id":"levelo_inurba_marseille","lat":43.23958,"lon":5.36608,"is_reserved":false,"is_disabled":false,"rental_uris":{"android":"levelo://app?vid=94e447ef-188e-4e98-a497-4fbe709caccf","ios":"levelo://app?vid=94e447ef-188e-4e98-a497-4fbe709caccf"},"vehicle_type_id":"4","last_reported":1769089093,"current_range_meters":4000,"station_id":"ce4bhi12rcd13ifvqfp0","pricing_plan_id":"cebpf4jnsgd1na2vs0mg"},{"bike_id":"db3f14e4-220b-415c-9e28-2fe041e49f9a","system_id":"levelo_inurba_marseille","lat":43.26076,"lon":5.39375,"is_reserved":false,"is_disabled":false,"rental_uris":{"android":"levelo://app?vid=db3f14e4-220b-415c-9e28-2fe041e49f9a","ios":"levelo://app?vid=db3f14e4-220b-415c-9e28-2fe041e49f9a"},"vehicle_type_id":"4","last_reported":1769089093,"current_range_meters":4000,"station_id":"ce4bhh92rcd13ifvqfj0","pricing_plan_id":"cebpf4jnsgd1na2vs0mg"},{"bike_id":"6c089fda-8c58-4d9f-ba9f-5b075f1678f2","system_id":"levelo_inurba_marseille","lat":43.295931,"lon":5.377312,"is_reserved":false,"is_disabled":false,"rental_uris":{"android":"levelo://app?vid=6c089fda-8c58-4d9f-ba9f-5b075f1678f2","ios":"levelo://app?vid=6c089fda-8c58-4d9f-ba9f-5b075f1678f2"},"vehicle_type_id":"4","last_reported":1769089093,"current_range_meters":4000,"station_id":"ce4bgi92rcd13ifvqb90","pricing_plan_id":"cebpf4jnsgd1na2vs0mg"},{"bike_id":"c410668a-fb9f-4d89-8357-51bcc7148eda","system_id":"levelo_inurba_marseille","lat":43.24197,"lon":5.39776,"is_reserved":false,"is_disabled":false,"rental_uris":{"android":"levelo://app?vid=c410668a-fb9f-4d89-8357-51bcc7148eda","ios":"levelo://app?vid=c410668a-fb9f-4d89-8357-51bcc7148eda"},"vehicle_type_id":"4","last_reported":1769089093,"current_range_meters":4000,"station_id":"ce4bhn12rcd13ifvqgpg","pricing_plan_id":"cebpf4jnsgd1na2vs0mg"},{"bike_id":"10cf34e3-ebeb-4616-ad1f-0d1fe2900973","system_id":"levelo_inurba_marseille","lat":43.2407,"lon":5.37757,"is_reserved":false,"is_disabled":false,"rental_uris":{"android":"levelo://app?vid=10cf34e3-ebeb-4616-ad1f-0d1fe2900973","ios":"levelo://app?vid=10cf34e3-ebeb-4616-ad1f-0d1fe2900973"},"vehicle_type_id":"4","last_reported":1769089093,"current_range_meters":4000,"station_id":"ce4bhnp2rcd13ifvqgvg","pricing_plan_id":"cebpf4jnsgd1na2vs0mg"},{"bike_id":"488d3d36-c3f0-4390-80be-f0194a76248a","system_id":"levelo_inurba_marseille","lat":43.25595,"lon":5.40458,"is_reserved":false,"is_disabled":false,"rental_uris":{"android":"levelo://app?vid=488d3d36-c3f0-4390-80be-f0194a76248a","ios":"levelo://app?vid=488d3d36-c3f0-4390-80be-f0194a76248a"},"vehicle_type_id":"4","last_reported":1769089093,"current_range_meters":4000,"station_id":"","pricing_plan_id":"cebpf4jnsgd1na2vs0mg"},{"bike_id":"ee33ab3a-e3bc-40d4-a67a-4cd737f87d9a","system_id":"levelo_inurba_marseille","lat":43.298955,"lon":5.374746,"is_reserved":false,"is_disabled":false,"rental_uris":{"android":"levelo://app?vid=ee33ab3a-e3bc-40d4-a67a-4cd737f87d9a","ios":"levelo://app?vid=ee33ab3a-e3bc-40d4-a67a-4cd737f87d9a"},"vehicle_type_id":"4","last_reported":1769089093,"current_range_meters":4000,"station_id":"ce4bgjh2rcd13ifvqbg0","pricing_plan_id":"cebpf4jnsgd1na2vs0mg"},{"bike_id":"3b169f10-2dfb-4915-bbc5-519940701656","system_id":"levelo_inurba_marseille","lat":43.29803,"lon":5.38066,"is_reserved":false,"is_disabled":false,"rental_uris":{"android":"levelo://app?vid=3b169f10-2dfb-4915-bbc5-519940701656","ios":"levelo://app?vid=3b169f10-2dfb-4915-bbc5-519940701656"},"vehicle_type_id":"4","last_reported":1769089093,"current_range_meters":4000,"station_id":"ce4bgip2rcd13ifvqbb0","pricing_plan_id":"cebpf4jnsgd1na2vs0mg"},{"bike_id":"785363cb-b52a-40b6-ba39-31116df2786f","system_id":"levelo_inurba_marseille","lat":43.295414,"lon":5.385451,"is_reserved":false,"is_disabled":false,"rental_uris":{"android":"levelo://app?vid=785363cb-b52a-40b6-ba39-31116df2786f","ios":"levelo://app?vid=785363cb-b52a-40b6-ba39-31116df2786f"},"vehicle_type_id":"4","last_reported":1769089093,"current_range_meters":4000,"station_id":"ce4bgih2rcd13ifvqba0","pricing_plan_id":"cebpf4jnsgd1na2vs0mg"},{"bike_id":"19f100e7-b629-4937-9dfc-fd2ffdddb939","system_id":"levelo_inurba_marseille","lat":43.24074,"lon":5.37751,"is_reserved":false,"is_disabled":false,"rental_uris":{"android":"levelo://app?vid=19f100e7-b629-4937-9dfc-fd2ffdddb939","ios":"levelo://app?vid=19f100e7-b629-4937-9dfc-fd2ffdddb939"},"vehicle_type_id":"4","last_reported":1769089093,"current_range_meters":4000,"station_id":"ce4bhnp2rcd13ifvqgvg","pricing_plan_id":"cebpf4jnsgd1na2vs0mg"},{"bike_id":"c1ae6cbf-c116-4500-8fa0-4341cb3f61c3","system_id":"levelo_inurba_marseille","lat":43.325001,"lon":5.382991,"is_reserved":false,"is_disabled":false,"rental_uris":{"android":"levelo://app?vid=c1ae6cbf-c116-4500-8fa0-4341cb3f61c3","ios":"levelo://app?vid=c1ae6cbf-c116-4500-8fa0-4341cb3f61c3"},"vehicle_type_id":"4","last_reported":1769089093,"current_range_meters":4000,"station_id":"st_d4asgbiv49dc73anf9m0","pricing_plan_id":"cebpf4jnsgd1na2vs0mg"},{"bike_id":"34f60833-f4b4-4fe8-9369-551914a61488","system_id":"levelo_inurba_marseille","lat":43.29354,"lon":5.37288,"is_reserved":false,"is_disabled":false,"rental_uris":{"android":"levelo://app?vid=34f60833-f4b4-4fe8-9369-551914a61488","ios":"levelo://app?vid=34f60833-f4b4-4fe8-9369-551914a61488"},"vehicle_type_id":"4","last_reported":1769089093,"current_range_meters":4000,"station_id":"","pricing_plan_id":"cebpf4jnsgd1na2vs0mg"},{"bike_id":"5550a5b9-adf4-46c0-959f-1b39fcd94aad","system_id":"levelo_inurba_marseille","lat":43.29684,"lon":5.37304,"is_reserved":false,"is_disabled":false,"rental_uris":{"android":"levelo://app?vid=5550a5b9-adf4-46c0-959f-1b39fcd94aad","ios":"levelo://app?vid=5550a5b9-adf4-46c0-959f-1b39fcd94aad"},"vehicle_type_id":"4","last_reported":1769089093,"current_range_meters":4400,"station_id":"ce4bgk12rcd13ifvqbj0","pricing_plan_id":"cebpf4jnsgd1na2vs0mg"},{"bike_id":"d891b86b-9c4a-46fd-b64a-73de9353aaf0","system_id":"levelo_inurba_marseille","lat":43.309612,"lon":5.390449,"is_reserved":false,"is_disabled":false,"rental_uris":{"android":"levelo://app?vid=d891b86b-9c4a-46fd-b64a-73de9353aaf0","ios":"levelo://app?vid=d891b86b-9c4a-46fd-b64a-73de9353aaf0"},"vehicle_type_id":"4","last_reported":1769089093,"current_range_meters":4400,"station_id":"ce4bgup2rcd13ifvqco0","pricing_plan_id":"cebpf4jnsgd1na2vs0mg"},{"bike_id":"fe2a828f-710f-491e-b529-f22ca09a8365","system_id":"levelo_inurba_marseille","lat":43.30742,"lon":5.40942,"is_reserved":false,"is_disabled":false,"rental_uris":{"android":"levelo://app?vid=fe2a828f-710f-491e-b529-f22ca09a8365","ios":"levelo://app?vid=fe2a828f-710f-491e-b529-f22ca09a8365"},"vehicle_type_id":"4","last_reported":1769089093,"current_range_meters":4400,"station_id":"","pricing_plan_id":"cebpf4jnsgd1na2vs0mg"},{"bike_id":"623e2b1b-358e-4441-9481-57ef61957b04","system_id":"levelo_inurba_marseille","lat":43.31172,"lon":5.38664,"is_reserved":false,"is_disabled":false,"rental_uris":{"android":"levelo://app?vid=623e2b1b-358e-4441-9481-57ef61957b04","ios":"levelo://app?vid=623e2b1b-358e-4441-9481-57ef61957b04"},"vehicle_type_id":"4","last_reported":1769089093,"current_range_meters":4400,"station_id":"ce4bgv12rcd13ifvqcp0","pricing_plan_id":"cebpf4jnsgd1na2vs0mg"},{"bike_id":"3d3c635d-bdc1-420a-92f6-f7730f8a3248","system_id":"levelo_inurba_marseille","lat":43.309065,"lon":5.368559,"is_reserved":false,"is_disabled":false,"rental_uris":{"android":"levelo://app?vid=3d3c635d-bdc1-420a-92f6-f7730f8a3248","ios":"levelo://app?vid=3d3c635d-bdc1-420a-92f6-f7730f8a3248"},"vehicle_type_id":"4","last_reported":1769089093,"current_range_meters":4400,"station_id":"ce4bgn92rcd13ifvqbvg","pricing_plan_id":"cebpf4jnsgd1na2vs0mg"},{"bike_id":"5702b7dd-6610-470c-aa4b-9a42ea10f3cc","system_id":"levelo_inurba_marseille","lat":43.305523,"lon":5.365269,"is_reserved":false,"is_disabled":false,"rental_uris":{"android":"levelo://app?vid=5702b7dd-6610-470c-aa4b-9a42ea10f3cc","ios":"levelo://app?vid=5702b7dd-6610-470c-aa4b-9a42ea10f3cc"},"vehicle_type_id":"4","last_reported":1769089093,"current_range_meters":4400,"station_id":"ce4bgs12rcd13ifvqcag","pricing_plan_id":"cebpf4jnsgd1na2vs0mg"},{"bike_id":"70942bdb-cce8-4766-ba54-c7a8cb5b950f","system_id":"levelo_inurba_marseille","lat":43.25577,"lon":5.3824,"is_reserved":false,"is_disabled":false,"rental_uris":{"android":"levelo://app?vid=70942bdb-cce8-4766-ba54-c7a8cb5b950f","ios":"levelo://app?vid=70942bdb-cce8-4766-ba54-c7a8cb5b950f"},"vehicle_type_id":"4","last_reported":1769089093,"current_range_meters":4400,"station_id":"ce4bhih2rcd13ifvqfs0","pricing_plan_id":"cebpf4jnsgd1na2vs0mg"},{"bike_id":"c3c9d165-9f18-496b-a420-1a5a46ea337c","system_id":"levelo_inurba_marseille","lat":43.30538,"lon":5.36699,"is_reserved":false,"is_disabled":false,"rental_uris":{"android":"levelo://app?vid=c3c9d165-9f18-496b-a420-1a5a46ea337c","ios":"levelo://app?vid=c3c9d165-9f18-496b-a420-1a5a46ea337c"},"vehicle_type_id":"4","last_reported":1769089093,"current_range_meters":4400,"station_id":"ce4bgrp2rcd13ifvqc9g","pricing_plan_id":"cebpf4jnsgd1na2vs0mg"},{"bike_id":"a4d44896-ca37-4d0e-8595-a2aee6d5f8ab","system_id":"levelo_inurba_marseille","lat":43.32115,"lon":5.36772,"is_reserved":false,"is_disabled":false,"rental_uris":{"android":"levelo://app?vid=a4d44896-ca37-4d0e-8595-a2aee6d5f8ab","ios":"levelo://app?vid=a4d44896-ca37-4d0e-8595-a2aee6d5f8ab"},"vehicle_type_id":"4","last_reported":1769089093,"current_range_meters":4400,"station_id":"ce4bhrh2rcd13ifvqhug","pricing_plan_id":"cebpf4jnsgd1na2vs0mg"},{"bike_id":"5ad98fb6-2b18-44c2-8799-bf2ae668d269","system_id":"levelo_inurba_marseille","lat":43.3038,"lon":5.42492,"is_reserved":false,"is_disabled":false,"rental_uris":{"android":"levelo://app?vid=5ad98fb6-2b18-44c2-8799-bf2ae668d269","ios":"levelo://app?vid=5ad98fb6-2b18-44c2-8799-bf2ae668d269"},"vehicle_type_id":"4","last_reported":1769089093,"current_range_meters":4400,"station_id":"ce4bhoh2rcd13ifvqh6g","pricing_plan_id":"cebpf4jnsgd1na2vs0mg"},{"bike_id":"91c6b80f-ebf8-40dd-9043-2f1efcca7d75","system_id":"levelo_inurba_marseille","lat":43.29532,"lon":5.38539,"is_reserved":false,"is_disabled":true,"rental_uris":{"android":"levelo://app?vid=91c6b80f-ebf8-40dd-9043-2f1efcca7d75","ios":"levelo://app?vid=91c6b80f-ebf8-40dd-9043-2f1efcca7d75"},"vehicle_type_id":"4","last_reported":1769089093,"current_range_meters":4400,"station_id":"ce4bgih2rcd13ifvqba0","pricing_plan_id":"cebpf4jnsgd1na2vs0mg"},{"bike_id":"e2c75bb6-a8f5-4d10-8f8c-b5c9ff3756c1","system_id":"levelo_inurba_marseille","lat":43.3057,"lon":5.3652,"is_reserved":false,"is_disabled":false,"rental_uris":{"android":"levelo://app?vid=e2c75bb6-a8f5-4d10-8f8c-b5c9ff3756c1","ios":"levelo://app?vid=e2c75bb6-a8f5-4d10-8f8c-b5c9ff3756c1"},"vehicle_type_id":"4","last_reported":1769089093,"current_range_meters":4800,"station_id":"ce4bgs12rcd13ifvqcag","pricing_plan_id":"cebpf4jnsgd1na2vs0mg"},{"bike_id":"206441f8-aeae-4f5a-aba6-5de70a26d57c","system_id":"levelo_inurba_marseille","lat":43.265488,"lon":5.372932,"is_reserved":false,"is_disabled":false,"rental_uris":{"android":"levelo://app?vid=206441f8-aeae-4f5a-aba6-5de70a26d57c","ios":"levelo://app?vid=206441f8-aeae-4f5a-aba6-5de70a26d57c"},"vehicle_type_id":"4","last_reported":1769089093,"current_range_meters":4800,"station_id":"ce4bhg12rcd13ifvqf70","pricing_plan_id":"cebpf4jnsgd1na2vs0mg"},{"bike_id":"abb88afc-d82b-4ba7-ab70-224a7abe4dfa","system_id":"levelo_inurba_marseille","lat":43.32527,"lon":5.38331,"is_reserved":false,"is_disabled":false,"rental_uris":{"android":"levelo://app?vid=abb88afc-d82b-4ba7-ab70-224a7abe4dfa","ios":"levelo://app?vid=abb88afc-d82b-4ba7-ab70-224a7abe4dfa"},"vehicle_type_id":"4","last_reported":1769089093,"current_range_meters":4800,"station_id":"st_d4asgbiv49dc73anf9m0","pricing_plan_id":"cebpf4jnsgd1na2vs0mg"},{"bike_id":"f3a01c85-86e9-4a7c-837b-602faf4bbfde","system_id":"levelo_inurba_marseille","lat":43.28013,"lon":5.38718,"is_reserved":false,"is_disabled":false,"rental_uris":{"android":"levelo://app?vid=f3a01c85-86e9-4a7c-837b-602faf4bbfde","ios":"levelo://app?vid=f3a01c85-86e9-4a7c-837b-602faf4bbfde"},"vehicle_type_id":"4","last_reported":1769089093,"current_range_meters":4800,"station_id":"ce4bhg12rcd13ifvqf80","pricing_plan_id":"cebpf4jnsgd1na2vs0mg"},{"bike_id":"607c435d-5fb0-4f63-b221-a58bdcfdc9c2","system_id":"levelo_inurba_marseille","lat":43.25001,"lon":5.38931,"is_reserved":false,"is_disabled":false,"rental_uris":{"android":"levelo://app?vid=607c435d-5fb0-4f63-b221-a58bdcfdc9c2","ios":"levelo://app?vid=607c435d-5fb0-4f63-b221-a58bdcfdc9c2"},"vehicle_type_id":"4","last_reported":1769089093,"current_range_meters":4800,"station_id":"ce4bhgp2rcd13ifvqfd0","pricing_plan_id":"cebpf4jnsgd1na2vs0mg"},{"bike_id":"dde7b0e0-bbd1-44de-82f6-999f8e69694c","system_id":"levelo_inurba_marseille","lat":43.25532,"lon":5.37641,"is_reserved":false,"is_disabled":false,"rental_uris":{"android":"levelo://app?vid=dde7b0e0-bbd1-44de-82f6-999f8e69694c","ios":"levelo://app?vid=dde7b0e0-bbd1-44de-82f6-999f8e69694c"},"vehicle_type_id":"4","last_reported":1769089093,"current_range_meters":4800,"station_id":"ce4bhh12rcd13ifvqff0","pricing_plan_id":"cebpf4jnsgd1na2vs0mg"},{"bike_id":"a1ab9501-f96c-426e-8fbc-d87d97e64b36","system_id":"levelo_inurba_marseille","lat":43.28998,"lon":5.37853,"is_reserved":false,"is_disabled":false,"rental_uris":{"android":"levelo://app?vid=a1ab9501-f96c-426e-8fbc-d87d97e64b36","ios":"levelo://app?vid=a1ab9501-f96c-426e-8fbc-d87d97e64b36"},"vehicle_type_id":"4","last_reported":1769089093,"current_range_meters":4800,"station_id":"ce4bh9p2rcd13ifvqed0","pricing_plan_id":"cebpf4jnsgd1na2vs0mg"},{"bike_id":"d8f34b5e-d831-4a3d-8643-93f2f2dfecae","system_id":"levelo_inurba_marseille","lat":43.241622,"lon":5.364121,"is_reserved":false,"is_disabled":true,"rental_uris":{"android":"levelo://app?vid=d8f34b5e-d831-4a3d-8643-93f2f2dfecae","ios":"levelo://app?vid=d8f34b5e-d831-4a3d-8643-93f2f2dfecae"},"vehicle_type_id":"4","last_reported":1769089093,"current_range_meters":4800,"station_id":"cpo36qri1sfpv3e86is0","pricing_plan_id":"cebpf4jnsgd1na2vs0mg"},{"bike_id":"b1976e7f-f8b8-4864-9e87-b9955da362dc","system_id":"levelo_inurba_marseille","lat":43.286832,"lon":5.389516,"is_reserved":false,"is_disabled":false,"rental_uris":{"android":"levelo://app?vid=b1976e7f-f8b8-4864-9e87-b9955da362dc","ios":"levelo://app?vid=b1976e7f-f8b8-4864-9e87-b9955da362dc"},"vehicle_type_id":"4","last_reported":1769089093,"current_range_meters":4800,"station_id":"","pricing_plan_id":"cebpf4jnsgd1na2vs0mg"},{"bike_id":"94d782ce-d646-4a15-909c-4c48f4840c8d","system_id":"levelo_inurba_marseille","lat":43.25822,"lon":5.39438,"is_reserved":false,"is_disabled":false,"rental_uris":{"android":"levelo://app?vid=94d782ce-d646-4a15-909c-4c48f4840c8d","ios":"levelo://app?vid=94d782ce-d646-4a15-909c-4c48f4840c8d"},"vehicle_type_id":"4","last_reported":1769089093,"current_range_meters":4800,"station_id":"ce4bhip2rcd13ifvqft0","pricing_plan_id":"cebpf4jnsgd1na2vs0mg"},{"bike_id":"20deef10-ed33-4ec9-9903-ad6ab49b17b3","system_id":"levelo_inurba_marseille","lat":43.24464,"lon":5.42534,"is_reserved":false,"is_disabled":false,"rental_uris":{"android":"levelo://app?vid=20deef10-ed33-4ec9-9903-ad6ab49b17b3","ios":"levelo://app?vid=20deef10-ed33-4ec9-9903-ad6ab49b17b3"},"vehicle_type_id":"4","last_reported":1769089093,"current_range_meters":4800,"station_id":"st_d4a3vfp97mjs738cd8kg","pricing_plan_id":"cebpf4jnsgd1na2vs0mg"},{"bike_id":"2ff152df-2638-45a4-87e0-67ff6133f732","system_id":"levelo_inurba_marseille","lat":43.29094,"lon":5.38152,"is_reserved":false,"is_disabled":false,"rental_uris":{"android":"levelo://app?vid=2ff152df-2638-45a4-87e0-67ff6133f732","ios":"levelo://app?vid=2ff152df-2638-45a4-87e0-67ff6133f732"},"vehicle_type_id":"4","last_reported":1769089093,"current_range_meters":5600,"station_id":"ce4bh512rcd13ifvqe2g","pricing_plan_id":"cebpf4jnsgd1na2vs0mg"},{"bike_id":"efe98a95-3a21-49ba-9a6d-8fbeddac23c8","system_id":"levelo_inurba_marseille","lat":43.27974,"lon":5.4166,"is_reserved":false,"is_disabled":false,"rental_uris":{"android":"levelo://app?vid=efe98a95-3a21-49ba-9a6d-8fbeddac23c8","ios":"levelo://app?vid=efe98a95-3a21-49ba-9a6d-8fbeddac23c8"},"vehicle_type_id":"4","last_reported":1769089093,"current_range_meters":5600,"station_id":"ce4bho12rcd13ifvqh1g","pricing_plan_id":"cebpf4jnsgd1na2vs0mg"},{"bike_id":"68226070-db87-4f3a-bcca-d8c5e4b321f8","system_id":"levelo_inurba_marseille","lat":43.30266,"lon":5.37548,"is_reserved":false,"is_disabled":false,"rental_uris":{"android":"levelo://app?vid=68226070-db87-4f3a-bcca-d8c5e4b321f8","ios":"levelo://app?vid=68226070-db87-4f3a-bcca-d8c5e4b321f8"},"vehicle_type_id":"4","last_reported":1769089093,"current_range_meters":5600,"station_id":"","pricing_plan_id":"cebpf4jnsgd1na2vs0mg"},{"bike_id":"ebc59118-e1a4-482d-84d0-eafb34b0b9ea","system_id":"levelo_inurba_marseille","lat":43.23783,"lon":5.36644,"is_reserved":false,"is_disabled":false,"rental_uris":{"android":"levelo://app?vid=ebc59118-e1a4-482d-84d0-eafb34b0b9ea","ios":"levelo://app?vid=ebc59118-e1a4-482d-84d0-eafb34b0b9ea"},"vehicle_type_id":"4","last_reported":1769089093,"current_range_meters":5600,"station_id":"st_d3nk18o9ro0c73en2l3g","pricing_plan_id":"cebpf4jnsgd1na2vs0mg"},{"bike_id":"24da7d1f-4c31-464c-8591-7c8451c98bcf","system_id":"levelo_inurba_marseille","lat":43.23159,"lon":5.43714,"is_reserved":false,"is_disabled":false,"rental_uris":{"android":"levelo://app?vid=24da7d1f-4c31-464c-8591-7c8451c98bcf","ios":"levelo://app?vid=24da7d1f-4c31-464c-8591-7c8451c98bcf"},"vehicle_type_id":"4","last_reported":1769089093,"current_range_meters":5600,"station_id":"ce4bhmp2rcd13ifvqgog","pricing_plan_id":"cebpf4jnsgd1na2vs0mg"},{"bike_id":"3998b630-1550-4129-b95e-2d12a38501a1","system_id":"levelo_inurba_marseille","lat":43.2558,"lon":5.3822,"is_reserved":false,"is_disabled":false,"rental_uris":{"android":"levelo://app?vid=3998b630-1550-4129-b95e-2d12a38501a1","ios":"levelo://app?vid=3998b630-1550-4129-b95e-2d12a38501a1"},"vehicle_type_id":"4","last_reported":1769089093,"current_range_meters":5600,"station_id":"ce4bhih2rcd13ifvqfs0","pricing_plan_id":"cebpf4jnsgd1na2vs0mg"},{"bike_id":"def5f42b-be7f-44a7-b591-92654dafa523","system_id":"levelo_inurba_marseille","lat":43.29177,"lon":5.37145,"is_reserved":false,"is_disabled":false,"rental_uris":{"android":"levelo://app?vid=def5f42b-be7f-44a7-b591-92654dafa523","ios":"levelo://app?vid=def5f42b-be7f-44a7-b591-92654dafa523"},"vehicle_type_id":"4","last_reported":1769089093,"current_range_meters":5600,"station_id":"ce4bha92rcd13ifvqeh0","pricing_plan_id":"cebpf4jnsgd1na2vs0mg"},{"bike_id":"aec5c08c-9f05-47e9-bb02-2d63b83fc483","system_id":"levelo_inurba_marseille","lat":43.267498,"lon":5.39238,"is_reserved":false,"is_disabled":false,"rental_uris":{"android":"levelo://app?vid=aec5c08c-9f05-47e9-bb02-2d63b83fc483","ios":"levelo://app?vid=aec5c08c-9f05-47e9-bb02-2d63b83fc483"},"vehicle_type_id":"4","last_reported":1769089093,"current_range_meters":5600,"station_id":"","pricing_plan_id":"cebpf4jnsgd1na2vs0mg"},{"bike_id":"a58670c2-d079-4df2-8fc6-e62a88e4641e","system_id":"levelo_inurba_marseille","lat":43.30464,"lon":5.37908,"is_reserved":false,"is_disabled":false,"rental_uris":{"android":"levelo://app?vid=a58670c2-d079-4df2-8fc6-e62a88e4641e","ios":"levelo://app?vid=a58670c2-d079-4df2-8fc6-e62a88e4641e"},"vehicle_type_id":"4","last_reported":1769089093,"current_range_meters":5600,"station_id":"ce4bgup2rcd13ifvqcn0","pricing_plan_id":"cebpf4jnsgd1na2vs0mg"},{"bike_id":"c7b67d72-07cb-47d8-9c20-6588d0246c04","system_id":"levelo_inurba_marseille","lat":43.28415,"lon":5.34993,"is_reserved":false,"is_disabled":false,"rental_uris":{"android":"levelo://app?vid=c7b67d72-07cb-47d8-9c20-6588d0246c04","ios":"levelo://app?vid=c7b67d72-07cb-47d8-9c20-6588d0246c04"},"vehicle_type_id":"4","last_reported":1769089093,"current_range_meters":5600,"station_id":"ce4bhbh2rcd13ifvqepg","pricing_plan_id":"cebpf4jnsgd1na2vs0mg"},{"bike_id":"beb99d3a-6147-4b1a-9c23-62ca2bec7b3f","system_id":"levelo_inurba_marseille","lat":43.265,"lon":5.39532,"is_reserved":false,"is_disabled":false,"rental_uris":{"android":"levelo://app?vid=beb99d3a-6147-4b1a-9c23-62ca2bec7b3f","ios":"levelo://app?vid=beb99d3a-6147-4b1a-9c23-62ca2bec7b3f"},"vehicle_type_id":"4","last_reported":1769089093,"current_range_meters":5600,"station_id":"ce4bhi12rcd13ifvqfq0","pricing_plan_id":"cebpf4jnsgd1na2vs0mg"},{"bike_id":"a9d2cbb9-b682-43b1-9072-2e382fcdc0f1","system_id":"levelo_inurba_marseille","lat":43.24475,"lon":5.42552,"is_reserved":false,"is_disabled":false,"rental_uris":{"android":"levelo://app?vid=a9d2cbb9-b682-43b1-9072-2e382fcdc0f1","ios":"levelo://app?vid=a9d2cbb9-b682-43b1-9072-2e382fcdc0f1"},"vehicle_type_id":"4","last_reported":1769089093,"current_range_meters":6000,"station_id":"st_d4a3vfp97mjs738cd8kg","pricing_plan_id":"cebpf4jnsgd1na2vs0mg"},{"bike_id":"37a6ba89-0d66-46be-ad14-7de2d3d5b58b","system_id":"levelo_inurba_marseille","lat":43.27109,"lon":5.40063,"is_reserved":false,"is_disabled":false,"rental_uris":{"android":"levelo://app?vid=37a6ba89-0d66-46be-ad14-7de2d3d5b58b","ios":"levelo://app?vid=37a6ba89-0d66-46be-ad14-7de2d3d5b58b"},"vehicle_type_id":"4","last_reported":1769089093,"current_range_meters":6000,"station_id":"ce4bhk92rcd13ifvqgc0","pricing_plan_id":"cebpf4jnsgd1na2vs0mg"},{"bike_id":"bd3222b3-dffe-4214-a25c-da1b23e1c71b","system_id":"levelo_inurba_marseille","lat":43.32368,"lon":5.36744,"is_reserved":false,"is_disabled":false,"rental_uris":{"android":"levelo://app?vid=bd3222b3-dffe-4214-a25c-da1b23e1c71b","ios":"levelo://app?vid=bd3222b3-dffe-4214-a25c-da1b23e1c71b"},"vehicle_type_id":"4","last_reported":1769089093,"current_range_meters":6000,"station_id":"ce4bhsh2rcd13ifvqi2g","pricing_plan_id":"cebpf4jnsgd1na2vs0mg"},{"bike_id":"c5ce8352-3569-43f4-b61c-9c49854b9ea4","system_id":"levelo_inurba_marseille","lat":43.26561,"lon":5.3733,"is_reserved":false,"is_disabled":false,"rental_uris":{"android":"levelo://app?vid=c5ce8352-3569-43f4-b61c-9c49854b9ea4","ios":"levelo://app?vid=c5ce8352-3569-43f4-b61c-9c49854b9ea4"},"vehicle_type_id":"4","last_reported":1769089093,"current_range_meters":6000,"station_id":"ce4bhg12rcd13ifvqf70","pricing_plan_id":"cebpf4jnsgd1na2vs0mg"},{"bike_id":"005a7605-2adb-429f-8f8d-7fa8aa141843","system_id":"levelo_inurba_marseille","lat":43.31179,"lon":5.38728,"is_reserved":false,"is_disabled":false,"rental_uris":{"android":"levelo://app?vid=005a7605-2adb-429f-8f8d-7fa8aa141843","ios":"levelo://app?vid=005a7605-2adb-429f-8f8d-7fa8aa141843"},"vehicle_type_id":"4","last_reported":1769089093,"current_range_meters":6000,"station_id":"ce4bgv12rcd13ifvqcp0","pricing_plan_id":"cebpf4jnsgd1na2vs0mg"},{"bike_id":"12fe478a-dd5e-47b3-adb1-9d3368324ba1","system_id":"levelo_inurba_marseille","lat":43.31354,"lon":5.3672,"is_reserved":false,"is_disabled":false,"rental_uris":{"android":"levelo://app?vid=12fe478a-dd5e-47b3-adb1-9d3368324ba1","ios":"levelo://app?vid=12fe478a-dd5e-47b3-adb1-9d3368324ba1"},"vehicle_type_id":"4","last_reported":1769089093,"current_range_meters":6000,"station_id":"ce4bgr92rcd13ifvqc6g","pricing_plan_id":"cebpf4jnsgd1na2vs0mg"},{"bike_id":"133dd31b-7e8b-494a-b027-d9d75407821f","system_id":"levelo_inurba_marseille","lat":43.32464,"lon":5.36573,"is_reserved":false,"is_disabled":false,"rental_uris":{"android":"levelo://app?vid=133dd31b-7e8b-494a-b027-d9d75407821f","ios":"levelo://app?vid=133dd31b-7e8b-494a-b027-d9d75407821f"},"vehicle_type_id":"4","last_reported":1769089093,"current_range_meters":6000,"station_id":"ce4bhs12rcd13ifvqhvg","pricing_plan_id":"cebpf4jnsgd1na2vs0mg"},{"bike_id":"b05d35a6-a4b1-4f68-ab22-eac501a6370f","system_id":"levelo_inurba_marseille","lat":43.32351,"lon":5.36734,"is_reserved":false,"is_disabled":false,"rental_uris":{"android":"levelo://app?vid=b05d35a6-a4b1-4f68-ab22-eac501a6370f","ios":"levelo://app?vid=b05d35a6-a4b1-4f68-ab22-eac501a6370f"},"vehicle_type_id":"4","last_reported":1769089093,"current_range_meters":6000,"station_id":"ce4bhsh2rcd13ifvqi2g","pricing_plan_id":"cebpf4jnsgd1na2vs0mg"},{"bike_id":"dc4ceef8-23de-4910-9db6-c2c9947acc9d","system_id":"levelo_inurba_marseille","lat":43.301385,"lon":5.374185,"is_reserved":false,"is_disabled":false,"rental_uris":{"android":"levelo://app?vid=dc4ceef8-23de-4910-9db6-c2c9947acc9d","ios":"levelo://app?vid=dc4ceef8-23de-4910-9db6-c2c9947acc9d"},"vehicle_type_id":"4","last_reported":1769089093,"current_range_meters":6000,"station_id":"ce4bgs92rcd13ifvqcc0","pricing_plan_id":"cebpf4jnsgd1na2vs0mg"},{"bike_id":"a7dca984-2a89-4f7d-a4b2-c4b75083a65d","system_id":"levelo_inurba_marseille","lat":43.24641,"lon":5.38898,"is_reserved":false,"is_disabled":false,"rental_uris":{"android":"levelo://app?vid=a7dca984-2a89-4f7d-a4b2-c4b75083a65d","ios":"levelo://app?vid=a7dca984-2a89-4f7d-a4b2-c4b75083a65d"},"vehicle_type_id":"4","last_reported":1769089093,"current_range_meters":6000,"station_id":"ce4bh392rcd13ifvqdl0","pricing_plan_id":"cebpf4jnsgd1na2vs0mg"},{"bike_id":"7f896ee4-6a1d-46ab-98be-a505b02fd9e4","system_id":"levelo_inurba_marseille","lat":43.23793,"lon":5.36624,"is_reserved":false,"is_disabled":false,"rental_uris":{"android":"levelo://app?vid=7f896ee4-6a1d-46ab-98be-a505b02fd9e4","ios":"levelo://app?vid=7f896ee4-6a1d-46ab-98be-a505b02fd9e4"},"vehicle_type_id":"4","last_reported":1769089093,"current_range_meters":6000,"station_id":"st_d3nk18o9ro0c73en2l3g","pricing_plan_id":"cebpf4jnsgd1na2vs0mg"},{"bike_id":"c6379e2e-868e-49db-b43a-36d3fcb06ffa","system_id":"levelo_inurba_marseille","lat":43.23109,"lon":5.4364,"is_reserved":false,"is_disabled":false,"rental_uris":{"android":"levelo://app?vid=c6379e2e-868e-49db-b43a-36d3fcb06ffa","ios":"levelo://app?vid=c6379e2e-868e-49db-b43a-36d3fcb06ffa"},"vehicle_type_id":"4","last_reported":1769089093,"current_range_meters":6000,"station_id":"ce4bhmp2rcd13ifvqgog","pricing_plan_id":"cebpf4jnsgd1na2vs0mg"},{"bike_id":"737cdf6e-8c2e-4b43-8e7d-478c69e4c6a4","system_id":"levelo_inurba_marseille","lat":43.33084,"lon":5.3903,"is_reserved":false,"is_disabled":false,"rental_uris":{"android":"levelo://app?vid=737cdf6e-8c2e-4b43-8e7d-478c69e4c6a4","ios":"levelo://app?vid=737cdf6e-8c2e-4b43-8e7d-478c69e4c6a4"},"vehicle_type_id":"4","last_reported":1769089093,"current_range_meters":6000,"station_id":"","pricing_plan_id":"cebpf4jnsgd1na2vs0mg"},{"bike_id":"fc5d102e-6a36-4a5b-99d5-23cf30eec9b5","system_id":"levelo_inurba_marseille","lat":43.23193,"lon":5.355547,"is_reserved":false,"is_disabled":false,"rental_uris":{"android":"levelo://app?vid=fc5d102e-6a36-4a5b-99d5-23cf30eec9b5","ios":"levelo://app?vid=fc5d102e-6a36-4a5b-99d5-23cf30eec9b5"},"vehicle_type_id":"4","last_reported":1769089093,"current_range_meters":6400,"station_id":"ce4bhu92rcd13ifvqi70","pricing_plan_id":"cebpf4jnsgd1na2vs0mg"},{"bike_id":"96211231-e125-49f0-8cc9-82b3d3d6626e","system_id":"levelo_inurba_marseille","lat":43.25946,"lon":5.40894,"is_reserved":false,"is_disabled":false,"rental_uris":{"android":"levelo://app?vid=96211231-e125-49f0-8cc9-82b3d3d6626e","ios":"levelo://app?vid=96211231-e125-49f0-8cc9-82b3d3d6626e"},"vehicle_type_id":"4","last_reported":1769089093,"current_range_meters":6400,"station_id":"ce4bhm92rcd13ifvqglg","pricing_plan_id":"cebpf4jnsgd1na2vs0mg"},{"bike_id":"e04593b6-2f4c-462a-95b6-8e340f356623","system_id":"levelo_inurba_marseille","lat":43.2957,"lon":5.37504,"is_reserved":false,"is_disabled":false,"rental_uris":{"android":"levelo://app?vid=e04593b6-2f4c-462a-95b6-8e340f356623","ios":"levelo://app?vid=e04593b6-2f4c-462a-95b6-8e340f356623"},"vehicle_type_id":"4","last_reported":1769089093,"current_range_meters":6400,"station_id":"ce4bgh92rcd13ifvqb50","pricing_plan_id":"cebpf4jnsgd1na2vs0mg"},{"bike_id":"f6eb85c1-f53f-4dc1-8797-0471cff4e32e","system_id":"levelo_inurba_marseille","lat":43.28568,"lon":5.3911,"is_reserved":false,"is_disabled":false,"rental_uris":{"android":"levelo://app?vid=f6eb85c1-f53f-4dc1-8797-0471cff4e32e","ios":"levelo://app?vid=f6eb85c1-f53f-4dc1-8797-0471cff4e32e"},"vehicle_type_id":"4","last_reported":1769089093,"current_range_meters":6400,"station_id":"","pricing_plan_id":"cebpf4jnsgd1na2vs0mg"},{"bike_id":"01c732cc-5cd6-4f68-aa5b-bba65270e62e","system_id":"levelo_inurba_marseille","lat":43.30972,"lon":5.39088,"is_reserved":false,"is_disabled":false,"rental_uris":{"android":"levelo://app?vid=01c732cc-5cd6-4f68-aa5b-bba65270e62e","ios":"levelo://app?vid=01c732cc-5cd6-4f68-aa5b-bba65270e62e"},"vehicle_type_id":"4","last_reported":1769089093,"current_range_meters":6400,"station_id":"","pricing_plan_id":"cebpf4jnsgd1na2vs0mg"},{"bike_id":"b1497b8a-91a3-4219-9714-db397e11f82b","system_id":"levelo_inurba_marseille","lat":43.26295,"lon":5.3987,"is_reserved":false,"is_disabled":false,"rental_uris":{"android":"levelo://app?vid=b1497b8a-91a3-4219-9714-db397e11f82b","ios":"levelo://app?vid=b1497b8a-91a3-4219-9714-db397e11f82b"},"vehicle_type_id":"4","last_reported":1769089093,"current_range_meters":6400,"station_id":"","pricing_plan_id":"cebpf4jnsgd1na2vs0mg"},{"bike_id":"c1bbfc44-868e-41cc-a3f9-f190df3e03a4","system_id":"levelo_inurba_marseille","lat":43.29618,"lon":5.37727,"is_reserved":false,"is_disabled":false,"rental_uris":{"android":"levelo://app?vid=c1bbfc44-868e-41cc-a3f9-f190df3e03a4","ios":"levelo://app?vid=c1bbfc44-868e-41cc-a3f9-f190df3e03a4"},"vehicle_type_id":"4","last_reported":1769089093,"current_range_meters":6400,"station_id":"ce4bgi92rcd13ifvqb90","pricing_plan_id":"cebpf4jnsgd1na2vs0mg"},{"bike_id":"811e4109-4554-441e-908e-4c588b5c7adf","system_id":"levelo_inurba_marseille","lat":43.29749,"lon":5.36871,"is_reserved":false,"is_disabled":false,"rental_uris":{"android":"levelo://app?vid=811e4109-4554-441e-908e-4c588b5c7adf","ios":"levelo://app?vid=811e4109-4554-441e-908e-4c588b5c7adf"},"vehicle_type_id":"4","last_reported":1769089093,"current_range_meters":6400,"station_id":"","pricing_plan_id":"cebpf4jnsgd1na2vs0mg"},{"bike_id":"63550df3-d87e-4087-bfb2-31599e2ca646","system_id":"levelo_inurba_marseille","lat":43.258146,"lon":5.39433,"is_reserved":false,"is_disabled":false,"rental_uris":{"android":"levelo://app?vid=63550df3-d87e-4087-bfb2-31599e2ca646","ios":"levelo://app?vid=63550df3-d87e-4087-bfb2-31599e2ca646"},"vehicle_type_id":"4","last_reported":1769089093,"current_range_meters":6400,"station_id":"ce4bhip2rcd13ifvqft0","pricing_plan_id":"cebpf4jnsgd1na2vs0mg"},{"bike_id":"52a02767-ce1d-4050-a902-50bef406951c","system_id":"levelo_inurba_marseille","lat":43.288895,"lon":5.378689,"is_reserved":false,"is_disabled":false,"rental_uris":{"android":"levelo://app?vid=52a02767-ce1d-4050-a902-50bef406951c","ios":"levelo://app?vid=52a02767-ce1d-4050-a902-50bef406951c"},"vehicle_type_id":"4","last_reported":1769089093,"current_range_meters":6400,"station_id":"ce4bh9p2rcd13ifvqec0","pricing_plan_id":"cebpf4jnsgd1na2vs0mg"},{"bike_id":"62931247-4aff-4f68-9011-cb1aa7863151","system_id":"levelo_inurba_marseille","lat":43.255732,"lon":5.382456,"is_reserved":false,"is_disabled":false,"rental_uris":{"android":"levelo://app?vid=62931247-4aff-4f68-9011-cb1aa7863151","ios":"levelo://app?vid=62931247-4aff-4f68-9011-cb1aa7863151"},"vehicle_type_id":"4","last_reported":1769089093,"current_range_meters":6400,"station_id":"ce4bhih2rcd13ifvqfs0","pricing_plan_id":"cebpf4jnsgd1na2vs0mg"},{"bike_id":"5b8789d8-8a74-46cb-9a03-3650cf54c996","system_id":"levelo_inurba_marseille","lat":43.24641,"lon":5.43142,"is_reserved":false,"is_disabled":false,"rental_uris":{"android":"levelo://app?vid=5b8789d8-8a74-46cb-9a03-3650cf54c996","ios":"levelo://app?vid=5b8789d8-8a74-46cb-9a03-3650cf54c996"},"vehicle_type_id":"4","last_reported":1769089093,"current_range_meters":6400,"station_id":"st_d2m6c4gdas8pm72e190g","pricing_plan_id":"cebpf4jnsgd1na2vs0mg"},{"bike_id":"0da72354-4265-41f4-82cc-5df68d6d06d4","system_id":"levelo_inurba_marseille","lat":43.240741,"lon":5.377588,"is_reserved":false,"is_disabled":false,"rental_uris":{"android":"levelo://app?vid=0da72354-4265-41f4-82cc-5df68d6d06d4","ios":"levelo://app?vid=0da72354-4265-41f4-82cc-5df68d6d06d4"},"vehicle_type_id":"4","last_reported":1769089093,"current_range_meters":6400,"station_id":"ce4bhnp2rcd13ifvqgvg","pricing_plan_id":"cebpf4jnsgd1na2vs0mg"},{"bike_id":"af3e4ec7-913b-43cf-991c-29cf9d90a50c","system_id":"levelo_inurba_marseille","lat":43.31037,"lon":5.37169,"is_reserved":false,"is_disabled":false,"rental_uris":{"android":"levelo://app?vid=af3e4ec7-913b-43cf-991c-29cf9d90a50c","ios":"levelo://app?vid=af3e4ec7-913b-43cf-991c-29cf9d90a50c"},"vehicle_type_id":"4","last_reported":1769089093,"current_range_meters":6400,"station_id":"st_d4kl2rp97mjs73e7tdfg","pricing_plan_id":"cebpf4jnsgd1na2vs0mg"},{"bike_id":"b030be90-6900-43e5-b1dc-48af203dfc1b","system_id":"levelo_inurba_marseille","lat":43.28986,"lon":5.37844,"is_reserved":false,"is_disabled":false,"rental_uris":{"android":"levelo://app?vid=b030be90-6900-43e5-b1dc-48af203dfc1b","ios":"levelo://app?vid=b030be90-6900-43e5-b1dc-48af203dfc1b"},"vehicle_type_id":"4","last_reported":1769089093,"current_range_meters":6800,"station_id":"ce4bh9p2rcd13ifvqed0","pricing_plan_id":"cebpf4jnsgd1na2vs0mg"},{"bike_id":"d8344329-153b-4a08-9de8-fc84530e10b9","system_id":"levelo_inurba_marseille","lat":43.23814,"lon":5.36679,"is_reserved":false,"is_disabled":false,"rental_uris":{"android":"levelo://app?vid=d8344329-153b-4a08-9de8-fc84530e10b9","ios":"levelo://app?vid=d8344329-153b-4a08-9de8-fc84530e10b9"},"vehicle_type_id":"4","last_reported":1769089093,"current_range_meters":6800,"station_id":"st_d3nk18o9ro0c73en2l3g","pricing_plan_id":"cebpf4jnsgd1na2vs0mg"},{"bike_id":"db52c014-7507-43f9-8010-c9eb4d059d84","system_id":"levelo_inurba_marseille","lat":43.25087,"lon":5.39493,"is_reserved":false,"is_disabled":false,"rental_uris":{"android":"levelo://app?vid=db52c014-7507-43f9-8010-c9eb4d059d84","ios":"levelo://app?vid=db52c014-7507-43f9-8010-c9eb4d059d84"},"vehicle_type_id":"4","last_reported":1769089093,"current_range_meters":6800,"station_id":"ce4bhm12rcd13ifvqgkg","pricing_plan_id":"cebpf4jnsgd1na2vs0mg"},{"bike_id":"834cc4c1-afb1-4ebb-ba8b-63d683f00e27","system_id":"levelo_inurba_marseille","lat":43.29635,"lon":5.40593,"is_reserved":false,"is_disabled":false,"rental_uris":{"android":"levelo://app?vid=834cc4c1-afb1-4ebb-ba8b-63d683f00e27","ios":"levelo://app?vid=834cc4c1-afb1-4ebb-ba8b-63d683f00e27"},"vehicle_type_id":"4","last_reported":1769089093,"current_range_meters":6800,"station_id":"ce4bh0h2rcd13ifvqd60","pricing_plan_id":"cebpf4jnsgd1na2vs0mg"},{"bike_id":"f98220fc-889d-44fd-83c4-b74d36c9d0de","system_id":"levelo_inurba_marseille","lat":43.30121,"lon":5.4311,"is_reserved":false,"is_disabled":false,"rental_uris":{"android":"levelo://app?vid=f98220fc-889d-44fd-83c4-b74d36c9d0de","ios":"levelo://app?vid=f98220fc-889d-44fd-83c4-b74d36c9d0de"},"vehicle_type_id":"4","last_reported":1769089093,"current_range_meters":6800,"station_id":"st_d3js3co5814s73ftftug","pricing_plan_id":"cebpf4jnsgd1na2vs0mg"},{"bike_id":"9d86a94f-f259-4bff-8fc3-bc1bf1b477e4","system_id":"levelo_inurba_marseille","lat":43.25865,"lon":5.41801,"is_reserved":false,"is_disabled":false,"rental_uris":{"android":"levelo://app?vid=9d86a94f-f259-4bff-8fc3-bc1bf1b477e4","ios":"levelo://app?vid=9d86a94f-f259-4bff-8fc3-bc1bf1b477e4"},"vehicle_type_id":"4","last_reported":1769089093,"current_range_meters":6800,"station_id":"","pricing_plan_id":"cebpf4jnsgd1na2vs0mg"},{"bike_id":"9442084c-3381-47e8-b2dc-95ca76f97342","system_id":"levelo_inurba_marseille","lat":43.25019,"lon":5.38924,"is_reserved":false,"is_disabled":false,"rental_uris":{"android":"levelo://app?vid=9442084c-3381-47e8-b2dc-95ca76f97342","ios":"levelo://app?vid=9442084c-3381-47e8-b2dc-95ca76f97342"},"vehicle_type_id":"4","last_reported":1769089093,"current_range_meters":6800,"station_id":"ce4bhgp2rcd13ifvqfd0","pricing_plan_id":"cebpf4jnsgd1na2vs0mg"},{"bike_id":"68a97176-b5f0-40c2-844b-54696f24afa8","system_id":"levelo_inurba_marseille","lat":43.295855,"lon":5.377225,"is_reserved":false,"is_disabled":false,"rental_uris":{"android":"levelo://app?vid=68a97176-b5f0-40c2-844b-54696f24afa8","ios":"levelo://app?vid=68a97176-b5f0-40c2-844b-54696f24afa8"},"vehicle_type_id":"4","last_reported":1769089093,"current_range_meters":6800,"station_id":"ce4bgi92rcd13ifvqb90","pricing_plan_id":"cebpf4jnsgd1na2vs0mg"},{"bike_id":"f39628e7-f451-4af8-80af-ee31b074b0b2","system_id":"levelo_inurba_marseille","lat":43.28528,"lon":5.44099,"is_reserved":false,"is_disabled":false,"rental_uris":{"android":"levelo://app?vid=f39628e7-f451-4af8-80af-ee31b074b0b2","ios":"levelo://app?vid=f39628e7-f451-4af8-80af-ee31b074b0b2"},"vehicle_type_id":"4","last_reported":1769089093,"current_range_meters":6800,"station_id":"st_d3j3df2ikq2c7380ej80","pricing_plan_id":"cebpf4jnsgd1na2vs0mg"},{"bike_id":"6fedd87d-43f4-49d4-8c29-92430be6252f","system_id":"levelo_inurba_marseille","lat":43.28088,"lon":5.36648,"is_reserved":false,"is_disabled":false,"rental_uris":{"android":"levelo://app?vid=6fedd87d-43f4-49d4-8c29-92430be6252f","ios":"levelo://app?vid=6fedd87d-43f4-49d4-8c29-92430be6252f"},"vehicle_type_id":"4","last_reported":1769089093,"current_range_meters":6800,"station_id":"","pricing_plan_id":"cebpf4jnsgd1na2vs0mg"},{"bike_id":"66b52710-c980-4dbe-934a-c3e8ffc0f9e1","system_id":"levelo_inurba_marseille","lat":43.33167,"lon":5.37677,"is_reserved":false,"is_disabled":false,"rental_uris":{"android":"levelo://app?vid=66b52710-c980-4dbe-934a-c3e8ffc0f9e1","ios":"levelo://app?vid=66b52710-c980-4dbe-934a-c3e8ffc0f9e1"},"vehicle_type_id":"4","last_reported":1769089093,"current_range_meters":6800,"station_id":"st_d46cu089ee8s73dldbu0","pricing_plan_id":"cebpf4jnsgd1na2vs0mg"},{"bike_id":"33299776-2c9b-4959-8c33-6a412a8deb29","system_id":"levelo_inurba_marseille","lat":43.23115,"lon":5.43634,"is_reserved":false,"is_disabled":false,"rental_uris":{"android":"levelo://app?vid=33299776-2c9b-4959-8c33-6a412a8deb29","ios":"levelo://app?vid=33299776-2c9b-4959-8c33-6a412a8deb29"},"vehicle_type_id":"4","last_reported":1769089093,"current_range_meters":6800,"station_id":"ce4bhmp2rcd13ifvqgog","pricing_plan_id":"cebpf4jnsgd1na2vs0mg"},{"bike_id":"22bc6d8e-7e0c-4234-afe0-c88e2589ac70","system_id":"levelo_inurba_marseille","lat":43.27068,"lon":5.39903,"is_reserved":false,"is_disabled":false,"rental_uris":{"android":"levelo://app?vid=22bc6d8e-7e0c-4234-afe0-c88e2589ac70","ios":"levelo://app?vid=22bc6d8e-7e0c-4234-afe0-c88e2589ac70"},"vehicle_type_id":"4","last_reported":1769089093,"current_range_meters":6800,"station_id":"","pricing_plan_id":"cebpf4jnsgd1na2vs0mg"},{"bike_id":"d68cd528-87dc-4a28-8471-721b0cea6df0","system_id":"levelo_inurba_marseille","lat":43.281787,"lon":5.39241,"is_reserved":false,"is_disabled":false,"rental_uris":{"android":"levelo://app?vid=d68cd528-87dc-4a28-8471-721b0cea6df0","ios":"levelo://app?vid=d68cd528-87dc-4a28-8471-721b0cea6df0"},"vehicle_type_id":"4","last_reported":1769089093,"current_range_meters":6800,"station_id":"","pricing_plan_id":"cebpf4jnsgd1na2vs0mg"},{"bike_id":"14a8ee4e-79d5-40ba-9f2d-be4d84ed1852","system_id":"levelo_inurba_marseille","lat":43.231523,"lon":5.437209,"is_reserved":false,"is_disabled":false,"rental_uris":{"android":"levelo://app?vid=14a8ee4e-79d5-40ba-9f2d-be4d84ed1852","ios":"levelo://app?vid=14a8ee4e-79d5-40ba-9f2d-be4d84ed1852"},"vehicle_type_id":"4","last_reported":1769089093,"current_range_meters":6800,"station_id":"ce4bhmp2rcd13ifvqgog","pricing_plan_id":"cebpf4jnsgd1na2vs0mg"},{"bike_id":"30f7428d-5c9b-46c4-9d00-dbf16f0f1b3b","system_id":"levelo_inurba_marseille","lat":43.24039,"lon":5.37767,"is_reserved":false,"is_disabled":false,"rental_uris":{"android":"levelo://app?vid=30f7428d-5c9b-46c4-9d00-dbf16f0f1b3b","ios":"levelo://app?vid=30f7428d-5c9b-46c4-9d00-dbf16f0f1b3b"},"vehicle_type_id":"4","last_reported":1769089093,"current_range_meters":6800,"station_id":"ce4bhnp2rcd13ifvqgvg","pricing_plan_id":"cebpf4jnsgd1na2vs0mg"},{"bike_id":"596c41c7-2beb-4c3c-8922-aa97d708cd66","system_id":"levelo_inurba_marseille","lat":43.32346,"lon":5.36739,"is_reserved":false,"is_disabled":false,"rental_uris":{"android":"levelo://app?vid=596c41c7-2beb-4c3c-8922-aa97d708cd66","ios":"levelo://app?vid=596c41c7-2beb-4c3c-8922-aa97d708cd66"},"vehicle_type_id":"4","last_reported":1769089093,"current_range_meters":6800,"station_id":"ce4bhsh2rcd13ifvqi2g","pricing_plan_id":"cebpf4jnsgd1na2vs0mg"},{"bike_id":"f04e5f60-a34c-4fc7-aa13-09b56396abb3","system_id":"levelo_inurba_marseille","lat":43.29621,"lon":5.37727,"is_reserved":false,"is_disabled":false,"rental_uris":{"android":"levelo://app?vid=f04e5f60-a34c-4fc7-aa13-09b56396abb3","ios":"levelo://app?vid=f04e5f60-a34c-4fc7-aa13-09b56396abb3"},"vehicle_type_id":"4","last_reported":1769089093,"current_range_meters":6800,"station_id":"ce4bgi92rcd13ifvqb90","pricing_plan_id":"cebpf4jnsgd1na2vs0mg"},{"bike_id":"3206456b-45fe-4b57-ad6e-10515c2f78b7","system_id":"levelo_inurba_marseille","lat":43.24474,"lon":5.42534,"is_reserved":false,"is_disabled":false,"rental_uris":{"android":"levelo://app?vid=3206456b-45fe-4b57-ad6e-10515c2f78b7","ios":"levelo://app?vid=3206456b-45fe-4b57-ad6e-10515c2f78b7"},"vehicle_type_id":"4","last_reported":1769089093,"current_range_meters":6800,"station_id":"st_d4a3vfp97mjs738cd8kg","pricing_plan_id":"cebpf4jnsgd1na2vs0mg"},{"bike_id":"dfb6b791-badd-4621-9306-ea3c833e2455","system_id":"levelo_inurba_marseille","lat":43.32737,"lon":5.40923,"is_reserved":false,"is_disabled":false,"rental_uris":{"android":"levelo://app?vid=dfb6b791-badd-4621-9306-ea3c833e2455","ios":"levelo://app?vid=dfb6b791-badd-4621-9306-ea3c833e2455"},"vehicle_type_id":"4","last_reported":1769089093,"current_range_meters":6800,"station_id":"","pricing_plan_id":"cebpf4jnsgd1na2vs0mg"},{"bike_id":"09299833-1cab-4d88-9fd7-ec3ed736bdf9","system_id":"levelo_inurba_marseille","lat":43.25719,"lon":5.42241,"is_reserved":false,"is_disabled":false,"rental_uris":{"android":"levelo://app?vid=09299833-1cab-4d88-9fd7-ec3ed736bdf9","ios":"levelo://app?vid=09299833-1cab-4d88-9fd7-ec3ed736bdf9"},"vehicle_type_id":"4","last_reported":1769089093,"current_range_meters":6800,"station_id":"","pricing_plan_id":"cebpf4jnsgd1na2vs0mg"},{"bike_id":"7e67f891-715f-459a-a371-586807dd9847","system_id":"levelo_inurba_marseille","lat":43.31167,"lon":5.38702,"is_reserved":false,"is_disabled":false,"rental_uris":{"android":"levelo://app?vid=7e67f891-715f-459a-a371-586807dd9847","ios":"levelo://app?vid=7e67f891-715f-459a-a371-586807dd9847"},"vehicle_type_id":"4","last_reported":1769089093,"current_range_meters":7200,"station_id":"ce4bgv12rcd13ifvqcp0","pricing_plan_id":"cebpf4jnsgd1na2vs0mg"},{"bike_id":"f937a57b-876e-4112-8def-d43cc1095f9c","system_id":"levelo_inurba_marseille","lat":43.25927,"lon":5.40887,"is_reserved":false,"is_disabled":false,"rental_uris":{"android":"levelo://app?vid=f937a57b-876e-4112-8def-d43cc1095f9c","ios":"levelo://app?vid=f937a57b-876e-4112-8def-d43cc1095f9c"},"vehicle_type_id":"4","last_reported":1769089093,"current_range_meters":7200,"station_id":"ce4bhm92rcd13ifvqglg","pricing_plan_id":"cebpf4jnsgd1na2vs0mg"},{"bike_id":"eeffe7b1-d4a1-4360-9320-4faca1588673","system_id":"levelo_inurba_marseille","lat":43.30953,"lon":5.39061,"is_reserved":false,"is_disabled":false,"rental_uris":{"android":"levelo://app?vid=eeffe7b1-d4a1-4360-9320-4faca1588673","ios":"levelo://app?vid=eeffe7b1-d4a1-4360-9320-4faca1588673"},"vehicle_type_id":"4","last_reported":1769089093,"current_range_meters":7200,"station_id":"ce4bgup2rcd13ifvqco0","pricing_plan_id":"cebpf4jnsgd1na2vs0mg"},{"bike_id":"bc155171-5926-4120-a41f-255ec3666b8f","system_id":"levelo_inurba_marseille","lat":43.30153,"lon":5.38097,"is_reserved":false,"is_disabled":false,"rental_uris":{"android":"levelo://app?vid=bc155171-5926-4120-a41f-255ec3666b8f","ios":"levelo://app?vid=bc155171-5926-4120-a41f-255ec3666b8f"},"vehicle_type_id":"4","last_reported":1769089093,"current_range_meters":7200,"station_id":"ce4bgjp2rcd13ifvqbh0","pricing_plan_id":"cebpf4jnsgd1na2vs0mg"},{"bike_id":"68c7d43b-8e84-41d0-b47f-9475c5cf8e93","system_id":"levelo_inurba_marseille","lat":43.30092,"lon":5.39068,"is_reserved":false,"is_disabled":false,"rental_uris":{"android":"levelo://app?vid=68c7d43b-8e84-41d0-b47f-9475c5cf8e93","ios":"levelo://app?vid=68c7d43b-8e84-41d0-b47f-9475c5cf8e93"},"vehicle_type_id":"4","last_reported":1769089093,"current_range_meters":7200,"station_id":"ce4bh192rcd13ifvqdb0","pricing_plan_id":"cebpf4jnsgd1na2vs0mg"},{"bike_id":"f9143ecb-aade-4bb9-990c-9859476787e9","system_id":"levelo_inurba_marseille","lat":43.23792,"lon":5.36647,"is_reserved":false,"is_disabled":false,"rental_uris":{"android":"levelo://app?vid=f9143ecb-aade-4bb9-990c-9859476787e9","ios":"levelo://app?vid=f9143ecb-aade-4bb9-990c-9859476787e9"},"vehicle_type_id":"4","last_reported":1769089093,"current_range_meters":7200,"station_id":"st_d3nk18o9ro0c73en2l3g","pricing_plan_id":"cebpf4jnsgd1na2vs0mg"},{"bike_id":"c9dee47c-00b4-4792-bb20-0e804a11ccd5","system_id":"levelo_inurba_marseille","lat":43.30154,"lon":5.38087,"is_reserved":false,"is_disabled":false,"rental_uris":{"android":"levelo://app?vid=c9dee47c-00b4-4792-bb20-0e804a11ccd5","ios":"levelo://app?vid=c9dee47c-00b4-4792-bb20-0e804a11ccd5"},"vehicle_type_id":"4","last_reported":1769089093,"current_range_meters":7200,"station_id":"ce4bgjp2rcd13ifvqbh0","pricing_plan_id":"cebpf4jnsgd1na2vs0mg"},{"bike_id":"861bb7de-0e5d-4b2e-aab7-e5d1b3a5eab9","system_id":"levelo_inurba_marseille","lat":43.23149,"lon":5.43717,"is_reserved":false,"is_disabled":false,"rental_uris":{"android":"levelo://app?vid=861bb7de-0e5d-4b2e-aab7-e5d1b3a5eab9","ios":"levelo://app?vid=861bb7de-0e5d-4b2e-aab7-e5d1b3a5eab9"},"vehicle_type_id":"4","last_reported":1769089093,"current_range_meters":7200,"station_id":"ce4bhmp2rcd13ifvqgog","pricing_plan_id":"cebpf4jnsgd1na2vs0mg"},{"bike_id":"5630e9f9-70f3-4757-a8dd-7793cc2c1fe2","system_id":"levelo_inurba_marseille","lat":43.25585,"lon":5.38238,"is_reserved":false,"is_disabled":false,"rental_uris":{"android":"levelo://app?vid=5630e9f9-70f3-4757-a8dd-7793cc2c1fe2","ios":"levelo://app?vid=5630e9f9-70f3-4757-a8dd-7793cc2c1fe2"},"vehicle_type_id":"4","last_reported":1769089093,"current_range_meters":7200,"station_id":"ce4bhih2rcd13ifvqfs0","pricing_plan_id":"cebpf4jnsgd1na2vs0mg"},{"bike_id":"6cde08db-2d60-4fc0-a7d5-505f4f93c6d4","system_id":"levelo_inurba_marseille","lat":43.335498,"lon":5.374646,"is_reserved":false,"is_disabled":false,"rental_uris":{"android":"levelo://app?vid=6cde08db-2d60-4fc0-a7d5-505f4f93c6d4","ios":"levelo://app?vid=6cde08db-2d60-4fc0-a7d5-505f4f93c6d4"},"vehicle_type_id":"4","last_reported":1769089093,"current_range_meters":7200,"station_id":"","pricing_plan_id":"cebpf4jnsgd1na2vs0mg"},{"bike_id":"ff0abe3a-541a-4b03-b925-2d332a8f803b","system_id":"levelo_inurba_marseille","lat":43.27209,"lon":5.39192,"is_reserved":false,"is_disabled":false,"rental_uris":{"android":"levelo://app?vid=ff0abe3a-541a-4b03-b925-2d332a8f803b","ios":"levelo://app?vid=ff0abe3a-541a-4b03-b925-2d332a8f803b"},"vehicle_type_id":"4","last_reported":1769089093,"current_range_meters":7200,"station_id":"ce4bhhp2rcd13ifvqfm0","pricing_plan_id":"cebpf4jnsgd1na2vs0mg"},{"bike_id":"3ceb4388-6cc5-4ff4-b32c-76f5f4981409","system_id":"levelo_inurba_marseille","lat":43.23187,"lon":5.39972,"is_reserved":false,"is_disabled":false,"rental_uris":{"android":"levelo://app?vid=3ceb4388-6cc5-4ff4-b32c-76f5f4981409","ios":"levelo://app?vid=3ceb4388-6cc5-4ff4-b32c-76f5f4981409"},"vehicle_type_id":"4","last_reported":1769089093,"current_range_meters":7200,"station_id":"ce4bhn12rcd13ifvqgqg","pricing_plan_id":"cebpf4jnsgd1na2vs0mg"},{"bike_id":"82c1bb43-aeff-4fb3-9c6f-f5de4e18e253","system_id":"levelo_inurba_marseille","lat":43.30434,"lon":5.38886,"is_reserved":false,"is_disabled":false,"rental_uris":{"android":"levelo://app?vid=82c1bb43-aeff-4fb3-9c6f-f5de4e18e253","ios":"levelo://app?vid=82c1bb43-aeff-4fb3-9c6f-f5de4e18e253"},"vehicle_type_id":"4","last_reported":1769089093,"current_range_meters":7200,"station_id":"ce4bgk12rcd13ifvqbi0","pricing_plan_id":"cebpf4jnsgd1na2vs0mg"},{"bike_id":"9602bfb2-a38b-4065-8c80-dc0f09d03485","system_id":"levelo_inurba_marseille","lat":43.23191,"lon":5.35555,"is_reserved":false,"is_disabled":false,"rental_uris":{"android":"levelo://app?vid=9602bfb2-a38b-4065-8c80-dc0f09d03485","ios":"levelo://app?vid=9602bfb2-a38b-4065-8c80-dc0f09d03485"},"vehicle_type_id":"4","last_reported":1769089093,"current_range_meters":7200,"station_id":"ce4bhu92rcd13ifvqi70","pricing_plan_id":"cebpf4jnsgd1na2vs0mg"},{"bike_id":"53f2879f-b266-431f-832c-1df1cfd5ed6b","system_id":"levelo_inurba_marseille","lat":43.30548,"lon":5.36539,"is_reserved":false,"is_disabled":false,"rental_uris":{"android":"levelo://app?vid=53f2879f-b266-431f-832c-1df1cfd5ed6b","ios":"levelo://app?vid=53f2879f-b266-431f-832c-1df1cfd5ed6b"},"vehicle_type_id":"4","last_reported":1769089093,"current_range_meters":7200,"station_id":"ce4bgs12rcd13ifvqcag","pricing_plan_id":"cebpf4jnsgd1na2vs0mg"},{"bike_id":"090da4bf-e1ff-427c-b741-8d3293006606","system_id":"levelo_inurba_marseille","lat":43.23189,"lon":5.35533,"is_reserved":false,"is_disabled":false,"rental_uris":{"android":"levelo://app?vid=090da4bf-e1ff-427c-b741-8d3293006606","ios":"levelo://app?vid=090da4bf-e1ff-427c-b741-8d3293006606"},"vehicle_type_id":"4","last_reported":1769089093,"current_range_meters":8000,"station_id":"ce4bhu92rcd13ifvqi70","pricing_plan_id":"cebpf4jnsgd1na2vs0mg"},{"bike_id":"53563e6b-7433-47cd-b7e5-a8b0077cc14f","system_id":"levelo_inurba_marseille","lat":43.24075,"lon":5.37766,"is_reserved":false,"is_disabled":false,"rental_uris":{"android":"levelo://app?vid=53563e6b-7433-47cd-b7e5-a8b0077cc14f","ios":"levelo://app?vid=53563e6b-7433-47cd-b7e5-a8b0077cc14f"},"vehicle_type_id":"4","last_reported":1769089093,"current_range_meters":8000,"station_id":"ce4bhnp2rcd13ifvqgvg","pricing_plan_id":"cebpf4jnsgd1na2vs0mg"},{"bike_id":"b53456d2-0b9c-41b3-9cdb-8499eaa6161f","system_id":"levelo_inurba_marseille","lat":43.30958,"lon":5.39056,"is_reserved":false,"is_disabled":false,"rental_uris":{"android":"levelo://app?vid=b53456d2-0b9c-41b3-9cdb-8499eaa6161f","ios":"levelo://app?vid=b53456d2-0b9c-41b3-9cdb-8499eaa6161f"},"vehicle_type_id":"4","last_reported":1769089093,"current_range_meters":8000,"station_id":"ce4bgup2rcd13ifvqco0","pricing_plan_id":"cebpf4jnsgd1na2vs0mg"},{"bike_id":"ae72a7f7-0a78-43a1-a80c-a2893de3e9bb","system_id":"levelo_inurba_marseille","lat":43.24818,"lon":5.37466,"is_reserved":false,"is_disabled":false,"rental_uris":{"android":"levelo://app?vid=ae72a7f7-0a78-43a1-a80c-a2893de3e9bb","ios":"levelo://app?vid=ae72a7f7-0a78-43a1-a80c-a2893de3e9bb"},"vehicle_type_id":"4","last_reported":1769089093,"current_range_meters":8000,"station_id":"ce4bhgh2rcd13ifvqfb0","pricing_plan_id":"cebpf4jnsgd1na2vs0mg"},{"bike_id":"bca2f72e-00dc-416a-9eb6-45c1808c0c68","system_id":"levelo_inurba_marseille","lat":43.304811,"lon":5.378976,"is_reserved":false,"is_disabled":false,"rental_uris":{"android":"levelo://app?vid=bca2f72e-00dc-416a-9eb6-45c1808c0c68","ios":"levelo://app?vid=bca2f72e-00dc-416a-9eb6-45c1808c0c68"},"vehicle_type_id":"4","last_reported":1769089093,"current_range_meters":8000,"station_id":"ce4bgup2rcd13ifvqcn0","pricing_plan_id":"cebpf4jnsgd1na2vs0mg"},{"bike_id":"983434e7-b7db-4a47-ba3e-cd485de0f943","system_id":"levelo_inurba_marseille","lat":43.30154,"lon":5.3809,"is_reserved":false,"is_disabled":false,"rental_uris":{"android":"levelo://app?vid=983434e7-b7db-4a47-ba3e-cd485de0f943","ios":"levelo://app?vid=983434e7-b7db-4a47-ba3e-cd485de0f943"},"vehicle_type_id":"4","last_reported":1769089093,"current_range_meters":8000,"station_id":"ce4bgjp2rcd13ifvqbh0","pricing_plan_id":"cebpf4jnsgd1na2vs0mg"},{"bike_id":"a0f898d9-83f1-4ac9-932e-8cf1f6205158","system_id":"levelo_inurba_marseille","lat":43.31224,"lon":5.3686,"is_reserved":false,"is_disabled":false,"rental_uris":{"android":"levelo://app?vid=a0f898d9-83f1-4ac9-932e-8cf1f6205158","ios":"levelo://app?vid=a0f898d9-83f1-4ac9-932e-8cf1f6205158"},"vehicle_type_id":"4","last_reported":1769089093,"current_range_meters":8000,"station_id":"ce4bgl92rcd13ifvqbq0","pricing_plan_id":"cebpf4jnsgd1na2vs0mg"},{"bike_id":"a5fba48c-1c47-46fd-bfa4-4db733d2dc0e","system_id":"levelo_inurba_marseille","lat":43.27982,"lon":5.41665,"is_reserved":false,"is_disabled":false,"rental_uris":{"android":"levelo://app?vid=a5fba48c-1c47-46fd-bfa4-4db733d2dc0e","ios":"levelo://app?vid=a5fba48c-1c47-46fd-bfa4-4db733d2dc0e"},"vehicle_type_id":"4","last_reported":1769089093,"current_range_meters":8000,"station_id":"ce4bho12rcd13ifvqh1g","pricing_plan_id":"cebpf4jnsgd1na2vs0mg"},{"bike_id":"3b364841-63d1-4d4f-bb34-83c89b251a49","system_id":"levelo_inurba_marseille","lat":43.308905,"lon":5.372013,"is_reserved":false,"is_disabled":false,"rental_uris":{"android":"levelo://app?vid=3b364841-63d1-4d4f-bb34-83c89b251a49","ios":"levelo://app?vid=3b364841-63d1-4d4f-bb34-83c89b251a49"},"vehicle_type_id":"4","last_reported":1769089093,"current_range_meters":8000,"station_id":"ce4bguh2rcd13ifvqckg","pricing_plan_id":"cebpf4jnsgd1na2vs0mg"},{"bike_id":"4568df28-8966-47d1-8aff-4132d45a8570","system_id":"levelo_inurba_marseille","lat":43.295556,"lon":5.375182,"is_reserved":false,"is_disabled":false,"rental_uris":{"android":"levelo://app?vid=4568df28-8966-47d1-8aff-4132d45a8570","ios":"levelo://app?vid=4568df28-8966-47d1-8aff-4132d45a8570"},"vehicle_type_id":"4","last_reported":1769089093,"current_range_meters":8000,"station_id":"ce4bgh92rcd13ifvqb50","pricing_plan_id":"cebpf4jnsgd1na2vs0mg"},{"bike_id":"6d8d924d-fbd9-4488-83e7-37fe203f91a1","system_id":"levelo_inurba_marseille","lat":43.29277,"lon":5.40909,"is_reserved":false,"is_disabled":false,"rental_uris":{"android":"levelo://app?vid=6d8d924d-fbd9-4488-83e7-37fe203f91a1","ios":"levelo://app?vid=6d8d924d-fbd9-4488-83e7-37fe203f91a1"},"vehicle_type_id":"4","last_reported":1769089093,"current_range_meters":8000,"station_id":"ce4bh192rcd13ifvqdc0","pricing_plan_id":"cebpf4jnsgd1na2vs0mg"},{"bike_id":"fa026bbf-9c12-43b8-a820-2f2ab3922f54","system_id":"levelo_inurba_marseille","lat":43.30912,"lon":5.36852,"is_reserved":false,"is_disabled":false,"rental_uris":{"android":"levelo://app?vid=fa026bbf-9c12-43b8-a820-2f2ab3922f54","ios":"levelo://app?vid=fa026bbf-9c12-43b8-a820-2f2ab3922f54"},"vehicle_type_id":"4","last_reported":1769089093,"current_range_meters":8000,"station_id":"ce4bgn92rcd13ifvqbvg","pricing_plan_id":"cebpf4jnsgd1na2vs0mg"},{"bike_id":"2fa28398-73c6-40b0-abd2-13b571db7bc0","system_id":"levelo_inurba_marseille","lat":43.26237,"lon":5.37992,"is_reserved":false,"is_disabled":false,"rental_uris":{"android":"levelo://app?vid=2fa28398-73c6-40b0-abd2-13b571db7bc0","ios":"levelo://app?vid=2fa28398-73c6-40b0-abd2-13b571db7bc0"},"vehicle_type_id":"4","last_reported":1769089093,"current_range_meters":8000,"station_id":"","pricing_plan_id":"cebpf4jnsgd1na2vs0mg"},{"bike_id":"2bd7b052-198e-4662-8aa6-61b0cac79738","system_id":"levelo_inurba_marseille","lat":43.272744,"lon":5.390714,"is_reserved":false,"is_disabled":false,"rental_uris":{"android":"levelo://app?vid=2bd7b052-198e-4662-8aa6-61b0cac79738","ios":"levelo://app?vid=2bd7b052-198e-4662-8aa6-61b0cac79738"},"vehicle_type_id":"4","last_reported":1769089093,"current_range_meters":8000,"station_id":"ce4bhgp2rcd13ifvqfe0","pricing_plan_id":"cebpf4jnsgd1na2vs0mg"},{"bike_id":"72448fd2-7a23-4b27-af22-a503c354b594","system_id":"levelo_inurba_marseille","lat":43.2993,"lon":5.37473,"is_reserved":false,"is_disabled":false,"rental_uris":{"android":"levelo://app?vid=72448fd2-7a23-4b27-af22-a503c354b594","ios":"levelo://app?vid=72448fd2-7a23-4b27-af22-a503c354b594"},"vehicle_type_id":"4","last_reported":1769089093,"current_range_meters":8400,"station_id":"ce4bgjh2rcd13ifvqbg0","pricing_plan_id":"cebpf4jnsgd1na2vs0mg"},{"bike_id":"cbd6d55e-5809-4853-9878-dbbf6af6a148","system_id":"levelo_inurba_marseille","lat":43.28899,"lon":5.42536,"is_reserved":false,"is_disabled":false,"rental_uris":{"android":"levelo://app?vid=cbd6d55e-5809-4853-9878-dbbf6af6a148","ios":"levelo://app?vid=cbd6d55e-5809-4853-9878-dbbf6af6a148"},"vehicle_type_id":"4","last_reported":1769089093,"current_range_meters":8400,"station_id":"st_d3b462108ojc7389ooeg","pricing_plan_id":"cebpf4jnsgd1na2vs0mg"},{"bike_id":"6055bb6e-3d5f-4359-bcc3-e96115ee8c1f","system_id":"levelo_inurba_marseille","lat":43.25576,"lon":5.38243,"is_reserved":false,"is_disabled":false,"rental_uris":{"android":"levelo://app?vid=6055bb6e-3d5f-4359-bcc3-e96115ee8c1f","ios":"levelo://app?vid=6055bb6e-3d5f-4359-bcc3-e96115ee8c1f"},"vehicle_type_id":"4","last_reported":1769089093,"current_range_meters":8400,"station_id":"ce4bhih2rcd13ifvqfs0","pricing_plan_id":"cebpf4jnsgd1na2vs0mg"},{"bike_id":"12d65139-8fbd-418b-8523-1b0952363e37","system_id":"levelo_inurba_marseille","lat":43.246576,"lon":5.388795,"is_reserved":false,"is_disabled":false,"rental_uris":{"android":"levelo://app?vid=12d65139-8fbd-418b-8523-1b0952363e37","ios":"levelo://app?vid=12d65139-8fbd-418b-8523-1b0952363e37"},"vehicle_type_id":"4","last_reported":1769089093,"current_range_meters":8400,"station_id":"ce4bhg12rcd13ifvqf60","pricing_plan_id":"cebpf4jnsgd1na2vs0mg"},{"bike_id":"6549449f-af2d-4c5d-818c-80b4739fd829","system_id":"levelo_inurba_marseille","lat":43.29711,"lon":5.37704,"is_reserved":false,"is_disabled":false,"rental_uris":{"android":"levelo://app?vid=6549449f-af2d-4c5d-818c-80b4739fd829","ios":"levelo://app?vid=6549449f-af2d-4c5d-818c-80b4739fd829"},"vehicle_type_id":"4","last_reported":1769089093,"current_range_meters":8400,"station_id":"ce4bgkh2rcd13ifvqbl0","pricing_plan_id":"cebpf4jnsgd1na2vs0mg"},{"bike_id":"a1cf0267-a9c6-4cb7-b49a-598a4cc67209","system_id":"levelo_inurba_marseille","lat":43.23197,"lon":5.35542,"is_reserved":false,"is_disabled":false,"rental_uris":{"android":"levelo://app?vid=a1cf0267-a9c6-4cb7-b49a-598a4cc67209","ios":"levelo://app?vid=a1cf0267-a9c6-4cb7-b49a-598a4cc67209"},"vehicle_type_id":"4","last_reported":1769089093,"current_range_meters":8400,"station_id":"ce4bhu92rcd13ifvqi70","pricing_plan_id":"cebpf4jnsgd1na2vs0mg"},{"bike_id":"cc9f4717-497d-46b4-8770-89f5df0571cd","system_id":"levelo_inurba_marseille","lat":43.24394,"lon":5.37089,"is_reserved":false,"is_disabled":false,"rental_uris":{"android":"levelo://app?vid=cc9f4717-497d-46b4-8770-89f5df0571cd","ios":"levelo://app?vid=cc9f4717-497d-46b4-8770-89f5df0571cd"},"vehicle_type_id":"4","last_reported":1769089093,"current_range_meters":8400,"station_id":"ce4bhhh2rcd13ifvqfk0","pricing_plan_id":"cebpf4jnsgd1na2vs0mg"},{"bike_id":"541d5a44-dde4-426d-8d84-9ca52b8319ea","system_id":"levelo_inurba_marseille","lat":43.32072,"lon":5.41538,"is_reserved":false,"is_disabled":false,"rental_uris":{"android":"levelo://app?vid=541d5a44-dde4-426d-8d84-9ca52b8319ea","ios":"levelo://app?vid=541d5a44-dde4-426d-8d84-9ca52b8319ea"},"vehicle_type_id":"4","last_reported":1769089093,"current_range_meters":8400,"station_id":"ce4bhq92rcd13ifvqhkg","pricing_plan_id":"cebpf4jnsgd1na2vs0mg"},{"bike_id":"983dfa04-9e71-401d-b498-feaefa1c2d24","system_id":"levelo_inurba_marseille","lat":43.27003,"lon":5.3922,"is_reserved":false,"is_disabled":false,"rental_uris":{"android":"levelo://app?vid=983dfa04-9e71-401d-b498-feaefa1c2d24","ios":"levelo://app?vid=983dfa04-9e71-401d-b498-feaefa1c2d24"},"vehicle_type_id":"4","last_reported":1769089093,"current_range_meters":8400,"station_id":"","pricing_plan_id":"cebpf4jnsgd1na2vs0mg"},{"bike_id":"c462c4a3-3f5e-4fd1-8a2f-56615210c468","system_id":"levelo_inurba_marseille","lat":43.258065,"lon":5.385818,"is_reserved":false,"is_disabled":false,"rental_uris":{"android":"levelo://app?vid=c462c4a3-3f5e-4fd1-8a2f-56615210c468","ios":"levelo://app?vid=c462c4a3-3f5e-4fd1-8a2f-56615210c468"},"vehicle_type_id":"4","last_reported":1769089093,"current_range_meters":8400,"station_id":"","pricing_plan_id":"cebpf4jnsgd1na2vs0mg"},{"bike_id":"29ad5b02-8f29-4102-99b2-dc3b5666e6fc","system_id":"levelo_inurba_marseille","lat":43.27927,"lon":5.39578,"is_reserved":false,"is_disabled":false,"rental_uris":{"android":"levelo://app?vid=29ad5b02-8f29-4102-99b2-dc3b5666e6fc","ios":"levelo://app?vid=29ad5b02-8f29-4102-99b2-dc3b5666e6fc"},"vehicle_type_id":"4","last_reported":1769089093,"current_range_meters":8400,"station_id":"ce4bhf92rcd13ifvqf40","pricing_plan_id":"cebpf4jnsgd1na2vs0mg"},{"bike_id":"2403f0bf-de39-4f6c-b1d8-f725bb90dee3","system_id":"levelo_inurba_marseille","lat":43.24172,"lon":5.36377,"is_reserved":false,"is_disabled":false,"rental_uris":{"android":"levelo://app?vid=2403f0bf-de39-4f6c-b1d8-f725bb90dee3","ios":"levelo://app?vid=2403f0bf-de39-4f6c-b1d8-f725bb90dee3"},"vehicle_type_id":"4","last_reported":1769089093,"current_range_meters":8400,"station_id":"cpo36qri1sfpv3e86is0","pricing_plan_id":"cebpf4jnsgd1na2vs0mg"},{"bike_id":"88824d73-5bff-442c-b413-6f648659efb5","system_id":"levelo_inurba_marseille","lat":43.31177,"lon":5.36887,"is_reserved":false,"is_disabled":false,"rental_uris":{"android":"levelo://app?vid=88824d73-5bff-442c-b413-6f648659efb5","ios":"levelo://app?vid=88824d73-5bff-442c-b413-6f648659efb5"},"vehicle_type_id":"4","last_reported":1769089093,"current_range_meters":8400,"station_id":"","pricing_plan_id":"cebpf4jnsgd1na2vs0mg"},{"bike_id":"521f984b-b479-4097-8d0c-0ce22afdc144","system_id":"levelo_inurba_marseille","lat":43.30117,"lon":5.39866,"is_reserved":false,"is_disabled":false,"rental_uris":{"android":"levelo://app?vid=521f984b-b479-4097-8d0c-0ce22afdc144","ios":"levelo://app?vid=521f984b-b479-4097-8d0c-0ce22afdc144"},"vehicle_type_id":"4","last_reported":1769089093,"current_range_meters":8400,"station_id":"ce4bh0h2rcd13ifvqd40","pricing_plan_id":"cebpf4jnsgd1na2vs0mg"},{"bike_id":"83fd25b2-0eb6-4c52-a978-8a8a8a40284a","system_id":"levelo_inurba_marseille","lat":43.26947,"lon":5.386312,"is_reserved":false,"is_disabled":false,"rental_uris":{"android":"levelo://app?vid=83fd25b2-0eb6-4c52-a978-8a8a8a40284a","ios":"levelo://app?vid=83fd25b2-0eb6-4c52-a978-8a8a8a40284a"},"vehicle_type_id":"4","last_reported":1769089093,"current_range_meters":8400,"station_id":"ce4bhh92rcd13ifvqfh0","pricing_plan_id":"cebpf4jnsgd1na2vs0mg"},{"bike_id":"249a4cf7-06f6-4fea-96cc-c9c6b750c37f","system_id":"levelo_inurba_marseille","lat":43.24164,"lon":5.36401,"is_reserved":false,"is_disabled":false,"rental_uris":{"android":"levelo://app?vid=249a4cf7-06f6-4fea-96cc-c9c6b750c37f","ios":"levelo://app?vid=249a4cf7-06f6-4fea-96cc-c9c6b750c37f"},"vehicle_type_id":"4","last_reported":1769089093,"current_range_meters":8400,"station_id":"cpo36qri1sfpv3e86is0","pricing_plan_id":"cebpf4jnsgd1na2vs0mg"},{"bike_id":"48a13fb2-aa96-4e6e-9601-12ca0a4fdb46","system_id":"levelo_inurba_marseille","lat":43.24654,"lon":5.38908,"is_reserved":false,"is_disabled":false,"rental_uris":{"android":"levelo://app?vid=48a13fb2-aa96-4e6e-9601-12ca0a4fdb46","ios":"levelo://app?vid=48a13fb2-aa96-4e6e-9601-12ca0a4fdb46"},"vehicle_type_id":"4","last_reported":1769089093,"current_range_meters":8400,"station_id":"ce4bhg12rcd13ifvqf60","pricing_plan_id":"cebpf4jnsgd1na2vs0mg"},{"bike_id":"ff948bbe-6979-4aa3-b2fb-1276a164e853","system_id":"levelo_inurba_marseille","lat":43.30546,"lon":5.36537,"is_reserved":false,"is_disabled":false,"rental_uris":{"android":"levelo://app?vid=ff948bbe-6979-4aa3-b2fb-1276a164e853","ios":"levelo://app?vid=ff948bbe-6979-4aa3-b2fb-1276a164e853"},"vehicle_type_id":"4","last_reported":1769089093,"current_range_meters":8400,"station_id":"ce4bgs12rcd13ifvqcag","pricing_plan_id":"cebpf4jnsgd1na2vs0mg"},{"bike_id":"267fb2bb-66f3-4c1f-a624-aae9270030c5","system_id":"levelo_inurba_marseille","lat":43.229303,"lon":5.353809,"is_reserved":false,"is_disabled":false,"rental_uris":{"android":"levelo://app?vid=267fb2bb-66f3-4c1f-a624-aae9270030c5","ios":"levelo://app?vid=267fb2bb-66f3-4c1f-a624-aae9270030c5"},"vehicle_type_id":"4","last_reported":1769089093,"current_range_meters":8400,"station_id":"cpo3532slgdg3j2ikp40","pricing_plan_id":"cebpf4jnsgd1na2vs0mg"},{"bike_id":"fb3ff625-62fd-4ae8-9254-8c4981e04e71","system_id":"levelo_inurba_marseille","lat":43.33178,"lon":5.37687,"is_reserved":false,"is_disabled":false,"rental_uris":{"android":"levelo://app?vid=fb3ff625-62fd-4ae8-9254-8c4981e04e71","ios":"levelo://app?vid=fb3ff625-62fd-4ae8-9254-8c4981e04e71"},"vehicle_type_id":"4","last_reported":1769089093,"current_range_meters":8400,"station_id":"st_d46cu089ee8s73dldbu0","pricing_plan_id":"cebpf4jnsgd1na2vs0mg"},{"bike_id":"0b964fe8-fabd-4fbb-b9f2-159cdc4a3097","system_id":"levelo_inurba_marseille","lat":43.2954,"lon":5.39392,"is_reserved":false,"is_disabled":false,"rental_uris":{"android":"levelo://app?vid=0b964fe8-fabd-4fbb-b9f2-159cdc4a3097","ios":"levelo://app?vid=0b964fe8-fabd-4fbb-b9f2-159cdc4a3097"},"vehicle_type_id":"4","last_reported":1769089093,"current_range_meters":8400,"station_id":"ce4bh292rcd13ifvqdf0","pricing_plan_id":"cebpf4jnsgd1na2vs0mg"},{"bike_id":"ac9a53e6-8b03-42d1-9d22-200e9aa358de","system_id":"levelo_inurba_marseille","lat":43.32491,"lon":5.3658,"is_reserved":false,"is_disabled":false,"rental_uris":{"android":"levelo://app?vid=ac9a53e6-8b03-42d1-9d22-200e9aa358de","ios":"levelo://app?vid=ac9a53e6-8b03-42d1-9d22-200e9aa358de"},"vehicle_type_id":"4","last_reported":1769089093,"current_range_meters":8400,"station_id":"ce4bhs12rcd13ifvqhvg","pricing_plan_id":"cebpf4jnsgd1na2vs0mg"},{"bike_id":"67c333ac-c7be-48b0-9e49-ca30d63478ed","system_id":"levelo_inurba_marseille","lat":43.29599,"lon":5.37719,"is_reserved":false,"is_disabled":false,"rental_uris":{"android":"levelo://app?vid=67c333ac-c7be-48b0-9e49-ca30d63478ed","ios":"levelo://app?vid=67c333ac-c7be-48b0-9e49-ca30d63478ed"},"vehicle_type_id":"4","last_reported":1769089093,"current_range_meters":8400,"station_id":"ce4bgi92rcd13ifvqb90","pricing_plan_id":"cebpf4jnsgd1na2vs0mg"},{"bike_id":"dc46bf46-763d-4b7a-9b3b-47e7a09bc6be","system_id":"levelo_inurba_marseille","lat":43.32189,"lon":5.40584,"is_reserved":false,"is_disabled":false,"rental_uris":{"android":"levelo://app?vid=dc46bf46-763d-4b7a-9b3b-47e7a09bc6be","ios":"levelo://app?vid=dc46bf46-763d-4b7a-9b3b-47e7a09bc6be"},"vehicle_type_id":"4","last_reported":1769089093,"current_range_meters":8400,"station_id":"","pricing_plan_id":"cebpf4jnsgd1na2vs0mg"},{"bike_id":"3e2deb9e-e71a-4d11-940d-76cd444019bd","system_id":"levelo_inurba_marseille","lat":43.30118,"lon":5.43112,"is_reserved":false,"is_disabled":false,"rental_uris":{"android":"levelo://app?vid=3e2deb9e-e71a-4d11-940d-76cd444019bd","ios":"levelo://app?vid=3e2deb9e-e71a-4d11-940d-76cd444019bd"},"vehicle_type_id":"4","last_reported":1769089093,"current_range_meters":8800,"station_id":"st_d3js3co5814s73ftftug","pricing_plan_id":"cebpf4jnsgd1na2vs0mg"},{"bike_id":"733d2f54-cd81-4838-963b-331436b0807a","system_id":"levelo_inurba_marseille","lat":43.28151,"lon":5.42629,"is_reserved":false,"is_disabled":false,"rental_uris":{"android":"levelo://app?vid=733d2f54-cd81-4838-963b-331436b0807a","ios":"levelo://app?vid=733d2f54-cd81-4838-963b-331436b0807a"},"vehicle_type_id":"4","last_reported":1769089093,"current_range_meters":8800,"station_id":"ce4bhnh2rcd13ifvqgug","pricing_plan_id":"cebpf4jnsgd1na2vs0mg"},{"bike_id":"1a51c1a6-4125-451d-bdac-9cae5da4a3dc","system_id":"levelo_inurba_marseille","lat":43.28467,"lon":5.38428,"is_reserved":false,"is_disabled":false,"rental_uris":{"android":"levelo://app?vid=1a51c1a6-4125-451d-bdac-9cae5da4a3dc","ios":"levelo://app?vid=1a51c1a6-4125-451d-bdac-9cae5da4a3dc"},"vehicle_type_id":"4","last_reported":1769089093,"current_range_meters":8800,"station_id":"ce4bh512rcd13ifvqe3g","pricing_plan_id":"cebpf4jnsgd1na2vs0mg"},{"bike_id":"fd925f8e-899e-40ec-9287-4e65251eafb1","system_id":"levelo_inurba_marseille","lat":43.26837,"lon":5.38483,"is_reserved":false,"is_disabled":false,"rental_uris":{"android":"levelo://app?vid=fd925f8e-899e-40ec-9287-4e65251eafb1","ios":"levelo://app?vid=fd925f8e-899e-40ec-9287-4e65251eafb1"},"vehicle_type_id":"4","last_reported":1769089093,"current_range_meters":8800,"station_id":"","pricing_plan_id":"cebpf4jnsgd1na2vs0mg"},{"bike_id":"c810b0da-c681-48b0-962c-29a278949d7e","system_id":"levelo_inurba_marseille","lat":43.22945,"lon":5.35377,"is_reserved":false,"is_disabled":false,"rental_uris":{"android":"levelo://app?vid=c810b0da-c681-48b0-962c-29a278949d7e","ios":"levelo://app?vid=c810b0da-c681-48b0-962c-29a278949d7e"},"vehicle_type_id":"4","last_reported":1769089093,"current_range_meters":8800,"station_id":"cpo3532slgdg3j2ikp40","pricing_plan_id":"cebpf4jnsgd1na2vs0mg"},{"bike_id":"9864eb71-e1a9-41e3-a300-f80070833647","system_id":"levelo_inurba_marseille","lat":43.26577,"lon":5.40304,"is_reserved":false,"is_disabled":false,"rental_uris":{"android":"levelo://app?vid=9864eb71-e1a9-41e3-a300-f80070833647","ios":"levelo://app?vid=9864eb71-e1a9-41e3-a300-f80070833647"},"vehicle_type_id":"4","last_reported":1769089093,"current_range_meters":8800,"station_id":"ce4bhmp2rcd13ifvqgng","pricing_plan_id":"cebpf4jnsgd1na2vs0mg"},{"bike_id":"dcaca286-10d8-44fb-a8e8-d4128ccf9b29","system_id":"levelo_inurba_marseille","lat":43.23187,"lon":5.39974,"is_reserved":false,"is_disabled":false,"rental_uris":{"android":"levelo://app?vid=dcaca286-10d8-44fb-a8e8-d4128ccf9b29","ios":"levelo://app?vid=dcaca286-10d8-44fb-a8e8-d4128ccf9b29"},"vehicle_type_id":"4","last_reported":1769089093,"current_range_meters":8800,"station_id":"ce4bhn12rcd13ifvqgqg","pricing_plan_id":"cebpf4jnsgd1na2vs0mg"},{"bike_id":"9bcc74ff-bb21-459b-8c89-b1049e46743c","system_id":"levelo_inurba_marseille","lat":43.2463,"lon":5.43132,"is_reserved":false,"is_disabled":false,"rental_uris":{"android":"levelo://app?vid=9bcc74ff-bb21-459b-8c89-b1049e46743c","ios":"levelo://app?vid=9bcc74ff-bb21-459b-8c89-b1049e46743c"},"vehicle_type_id":"4","last_reported":1769089093,"current_range_meters":8800,"station_id":"st_d2m6c4gdas8pm72e190g","pricing_plan_id":"cebpf4jnsgd1na2vs0mg"},{"bike_id":"a5ca9e7e-cafe-43b0-9883-bce7ab8ae3ac","system_id":"levelo_inurba_marseille","lat":43.26378,"lon":5.41061,"is_reserved":false,"is_disabled":false,"rental_uris":{"android":"levelo://app?vid=a5ca9e7e-cafe-43b0-9883-bce7ab8ae3ac","ios":"levelo://app?vid=a5ca9e7e-cafe-43b0-9883-bce7ab8ae3ac"},"vehicle_type_id":"4","last_reported":1769089093,"current_range_meters":8800,"station_id":"st_d4e5ca6na9uc73bfl5fg","pricing_plan_id":"cebpf4jnsgd1na2vs0mg"},{"bike_id":"40e5e2c7-0e64-4220-a47b-eba55999faf7","system_id":"levelo_inurba_marseille","lat":43.22578,"lon":5.41628,"is_reserved":false,"is_disabled":false,"rental_uris":{"android":"levelo://app?vid=40e5e2c7-0e64-4220-a47b-eba55999faf7","ios":"levelo://app?vid=40e5e2c7-0e64-4220-a47b-eba55999faf7"},"vehicle_type_id":"4","last_reported":1769089093,"current_range_meters":8800,"station_id":"st_d2o4gvlbi1j2169b742g","pricing_plan_id":"cebpf4jnsgd1na2vs0mg"},{"bike_id":"c9c91417-1c93-40bd-ac7d-c76d147f675b","system_id":"levelo_inurba_marseille","lat":43.249981,"lon":5.389318,"is_reserved":false,"is_disabled":false,"rental_uris":{"android":"levelo://app?vid=c9c91417-1c93-40bd-ac7d-c76d147f675b","ios":"levelo://app?vid=c9c91417-1c93-40bd-ac7d-c76d147f675b"},"vehicle_type_id":"4","last_reported":1769089093,"current_range_meters":8800,"station_id":"ce4bhgp2rcd13ifvqfd0","pricing_plan_id":"cebpf4jnsgd1na2vs0mg"},{"bike_id":"0cd30a7b-e23d-4e83-9cdf-26d25a422cc3","system_id":"levelo_inurba_marseille","lat":43.30498,"lon":5.37903,"is_reserved":false,"is_disabled":false,"rental_uris":{"android":"levelo://app?vid=0cd30a7b-e23d-4e83-9cdf-26d25a422cc3","ios":"levelo://app?vid=0cd30a7b-e23d-4e83-9cdf-26d25a422cc3"},"vehicle_type_id":"4","last_reported":1769089093,"current_range_meters":8800,"station_id":"ce4bgup2rcd13ifvqcn0","pricing_plan_id":"cebpf4jnsgd1na2vs0mg"},{"bike_id":"11e3415c-5f3b-4ead-a1ad-e801ec8c2563","system_id":"levelo_inurba_marseille","lat":43.292498,"lon":5.376317,"is_reserved":false,"is_disabled":false,"rental_uris":{"android":"levelo://app?vid=11e3415c-5f3b-4ead-a1ad-e801ec8c2563","ios":"levelo://app?vid=11e3415c-5f3b-4ead-a1ad-e801ec8c2563"},"vehicle_type_id":"4","last_reported":1769089093,"current_range_meters":8800,"station_id":"ce4bgi12rcd13ifvqb80","pricing_plan_id":"cebpf4jnsgd1na2vs0mg"},{"bike_id":"1a89bd23-e4a5-4726-827b-e505cb3f9ed2","system_id":"levelo_inurba_marseille","lat":43.29305,"lon":5.37454,"is_reserved":false,"is_disabled":false,"rental_uris":{"android":"levelo://app?vid=1a89bd23-e4a5-4726-827b-e505cb3f9ed2","ios":"levelo://app?vid=1a89bd23-e4a5-4726-827b-e505cb3f9ed2"},"vehicle_type_id":"4","last_reported":1769089093,"current_range_meters":8800,"station_id":"ce4bgi12rcd13ifvqb70","pricing_plan_id":"cebpf4jnsgd1na2vs0mg"},{"bike_id":"423c7f15-6462-4b7b-819c-8003f9265446","system_id":"levelo_inurba_marseille","lat":43.25004,"lon":5.38926,"is_reserved":false,"is_disabled":false,"rental_uris":{"android":"levelo://app?vid=423c7f15-6462-4b7b-819c-8003f9265446","ios":"levelo://app?vid=423c7f15-6462-4b7b-819c-8003f9265446"},"vehicle_type_id":"4","last_reported":1769089093,"current_range_meters":8800,"station_id":"ce4bhgp2rcd13ifvqfd0","pricing_plan_id":"cebpf4jnsgd1na2vs0mg"},{"bike_id":"7f40ae4d-4a7a-47f5-a031-35d315d02697","system_id":"levelo_inurba_marseille","lat":43.29916,"lon":5.37494,"is_reserved":false,"is_disabled":false,"rental_uris":{"android":"levelo://app?vid=7f40ae4d-4a7a-47f5-a031-35d315d02697","ios":"levelo://app?vid=7f40ae4d-4a7a-47f5-a031-35d315d02697"},"vehicle_type_id":"4","last_reported":1769089093,"current_range_meters":8800,"station_id":"ce4bgjh2rcd13ifvqbg0","pricing_plan_id":"cebpf4jnsgd1na2vs0mg"},{"bike_id":"7a028905-d4e3-48f9-afcb-31b038d44398","system_id":"levelo_inurba_marseille","lat":43.23971,"lon":5.3664,"is_reserved":false,"is_disabled":false,"rental_uris":{"android":"levelo://app?vid=7a028905-d4e3-48f9-afcb-31b038d44398","ios":"levelo://app?vid=7a028905-d4e3-48f9-afcb-31b038d44398"},"vehicle_type_id":"4","last_reported":1769089093,"current_range_meters":8800,"station_id":"ce4bhi12rcd13ifvqfp0","pricing_plan_id":"cebpf4jnsgd1na2vs0mg"},{"bike_id":"f65c6bf0-9c98-4dcc-ada0-6aea0ef1587b","system_id":"levelo_inurba_marseille","lat":43.26964,"lon":5.3867,"is_reserved":false,"is_disabled":false,"rental_uris":{"android":"levelo://app?vid=f65c6bf0-9c98-4dcc-ada0-6aea0ef1587b","ios":"levelo://app?vid=f65c6bf0-9c98-4dcc-ada0-6aea0ef1587b"},"vehicle_type_id":"4","last_reported":1769089093,"current_range_meters":8800,"station_id":"ce4bhh92rcd13ifvqfh0","pricing_plan_id":"cebpf4jnsgd1na2vs0mg"},{"bike_id":"85769ba7-7e14-43db-85b5-49d42466c490","system_id":"levelo_inurba_marseille","lat":43.29602,"lon":5.37717,"is_reserved":false,"is_disabled":false,"rental_uris":{"android":"levelo://app?vid=85769ba7-7e14-43db-85b5-49d42466c490","ios":"levelo://app?vid=85769ba7-7e14-43db-85b5-49d42466c490"},"vehicle_type_id":"4","last_reported":1769089093,"current_range_meters":8800,"station_id":"ce4bgi92rcd13ifvqb90","pricing_plan_id":"cebpf4jnsgd1na2vs0mg"},{"bike_id":"003040f3-3c33-4fcd-ac1b-c3cd1aec2434","system_id":"levelo_inurba_marseille","lat":43.25082,"lon":5.39517,"is_reserved":false,"is_disabled":false,"rental_uris":{"android":"levelo://app?vid=003040f3-3c33-4fcd-ac1b-c3cd1aec2434","ios":"levelo://app?vid=003040f3-3c33-4fcd-ac1b-c3cd1aec2434"},"vehicle_type_id":"4","last_reported":1769089093,"current_range_meters":8800,"station_id":"ce4bhm12rcd13ifvqgkg","pricing_plan_id":"cebpf4jnsgd1na2vs0mg"},{"bike_id":"f7e5687f-5b88-49b1-b71d-a10b1336226b","system_id":"levelo_inurba_marseille","lat":43.29367,"lon":5.37826,"is_reserved":false,"is_disabled":false,"rental_uris":{"android":"levelo://app?vid=f7e5687f-5b88-49b1-b71d-a10b1336226b","ios":"levelo://app?vid=f7e5687f-5b88-49b1-b71d-a10b1336226b"},"vehicle_type_id":"4","last_reported":1769089093,"current_range_meters":8800,"station_id":"ce4bgjh2rcd13ifvqbf0","pricing_plan_id":"cebpf4jnsgd1na2vs0mg"},{"bike_id":"324cd82f-1083-4204-b317-811809b2300e","system_id":"levelo_inurba_marseille","lat":43.29196,"lon":5.37293,"is_reserved":false,"is_disabled":false,"rental_uris":{"android":"levelo://app?vid=324cd82f-1083-4204-b317-811809b2300e","ios":"levelo://app?vid=324cd82f-1083-4204-b317-811809b2300e"},"vehicle_type_id":"4","last_reported":1769089093,"current_range_meters":8800,"station_id":"","pricing_plan_id":"cebpf4jnsgd1na2vs0mg"},{"bike_id":"7a44288c-76ef-42bd-aa63-09fedbfa4f09","system_id":"levelo_inurba_marseille","lat":43.24473,"lon":5.42547,"is_reserved":false,"is_disabled":false,"rental_uris":{"android":"levelo://app?vid=7a44288c-76ef-42bd-aa63-09fedbfa4f09","ios":"levelo://app?vid=7a44288c-76ef-42bd-aa63-09fedbfa4f09"},"vehicle_type_id":"4","last_reported":1769089093,"current_range_meters":8800,"station_id":"st_d4a3vfp97mjs738cd8kg","pricing_plan_id":"cebpf4jnsgd1na2vs0mg"},{"bike_id":"88188b24-2096-4127-ae81-f4888fd46d09","system_id":"levelo_inurba_marseille","lat":43.30471,"lon":5.37906,"is_reserved":false,"is_disabled":false,"rental_uris":{"android":"levelo://app?vid=88188b24-2096-4127-ae81-f4888fd46d09","ios":"levelo://app?vid=88188b24-2096-4127-ae81-f4888fd46d09"},"vehicle_type_id":"4","last_reported":1769089093,"current_range_meters":9200,"station_id":"ce4bgup2rcd13ifvqcn0","pricing_plan_id":"cebpf4jnsgd1na2vs0mg"},{"bike_id":"62e06766-8903-45bc-8550-ff36387ca44a","system_id":"levelo_inurba_marseille","lat":43.30156,"lon":5.38079,"is_reserved":false,"is_disabled":false,"rental_uris":{"android":"levelo://app?vid=62e06766-8903-45bc-8550-ff36387ca44a","ios":"levelo://app?vid=62e06766-8903-45bc-8550-ff36387ca44a"},"vehicle_type_id":"4","last_reported":1769089093,"current_range_meters":9200,"station_id":"ce4bgjp2rcd13ifvqbh0","pricing_plan_id":"cebpf4jnsgd1na2vs0mg"},{"bike_id":"e7976355-0661-4163-9b6b-c42b54da9723","system_id":"levelo_inurba_marseille","lat":43.24547,"lon":5.39518,"is_reserved":false,"is_disabled":false,"rental_uris":{"android":"levelo://app?vid=e7976355-0661-4163-9b6b-c42b54da9723","ios":"levelo://app?vid=e7976355-0661-4163-9b6b-c42b54da9723"},"vehicle_type_id":"4","last_reported":1769089093,"current_range_meters":9200,"station_id":"ce4bhlp2rcd13ifvqgjg","pricing_plan_id":"cebpf4jnsgd1na2vs0mg"},{"bike_id":"46c07e62-b218-4525-89f8-8264de6ed4ba","system_id":"levelo_inurba_marseille","lat":43.27349,"lon":5.39067,"is_reserved":false,"is_disabled":false,"rental_uris":{"android":"levelo://app?vid=46c07e62-b218-4525-89f8-8264de6ed4ba","ios":"levelo://app?vid=46c07e62-b218-4525-89f8-8264de6ed4ba"},"vehicle_type_id":"4","last_reported":1769089093,"current_range_meters":9200,"station_id":"ce4bhgp2rcd13ifvqfe0","pricing_plan_id":"cebpf4jnsgd1na2vs0mg"},{"bike_id":"4289f0cf-d95b-41d5-8ced-ea98ca673e4a","system_id":"levelo_inurba_marseille","lat":43.24668,"lon":5.38155,"is_reserved":false,"is_disabled":false,"rental_uris":{"android":"levelo://app?vid=4289f0cf-d95b-41d5-8ced-ea98ca673e4a","ios":"levelo://app?vid=4289f0cf-d95b-41d5-8ced-ea98ca673e4a"},"vehicle_type_id":"4","last_reported":1769089093,"current_range_meters":9200,"station_id":"ce4bhih2rcd13ifvqfr0","pricing_plan_id":"cebpf4jnsgd1na2vs0mg"},{"bike_id":"41d246f5-59cb-4ae2-830f-3407f26d8555","system_id":"levelo_inurba_marseille","lat":43.30555,"lon":5.36699,"is_reserved":false,"is_disabled":false,"rental_uris":{"android":"levelo://app?vid=41d246f5-59cb-4ae2-830f-3407f26d8555","ios":"levelo://app?vid=41d246f5-59cb-4ae2-830f-3407f26d8555"},"vehicle_type_id":"4","last_reported":1769089093,"current_range_meters":9200,"station_id":"ce4bgrp2rcd13ifvqc9g","pricing_plan_id":"cebpf4jnsgd1na2vs0mg"},{"bike_id":"ac38a438-4179-4ac1-8c09-396dc592af6b","system_id":"levelo_inurba_marseille","lat":43.23178,"lon":5.39962,"is_reserved":false,"is_disabled":false,"rental_uris":{"android":"levelo://app?vid=ac38a438-4179-4ac1-8c09-396dc592af6b","ios":"levelo://app?vid=ac38a438-4179-4ac1-8c09-396dc592af6b"},"vehicle_type_id":"4","last_reported":1769089093,"current_range_meters":9200,"station_id":"ce4bhn12rcd13ifvqgqg","pricing_plan_id":"cebpf4jnsgd1na2vs0mg"},{"bike_id":"03da00cf-fd78-4473-88e3-1d92b5890051","system_id":"levelo_inurba_marseille","lat":43.2467,"lon":5.38152,"is_reserved":false,"is_disabled":false,"rental_uris":{"android":"levelo://app?vid=03da00cf-fd78-4473-88e3-1d92b5890051","ios":"levelo://app?vid=03da00cf-fd78-4473-88e3-1d92b5890051"},"vehicle_type_id":"4","last_reported":1769089093,"current_range_meters":9200,"station_id":"ce4bhih2rcd13ifvqfr0","pricing_plan_id":"cebpf4jnsgd1na2vs0mg"},{"bike_id":"05d6e816-c599-4137-a30a-5127b06dbfc0","system_id":"levelo_inurba_marseille","lat":43.28143,"lon":5.42681,"is_reserved":false,"is_disabled":false,"rental_uris":{"android":"levelo://app?vid=05d6e816-c599-4137-a30a-5127b06dbfc0","ios":"levelo://app?vid=05d6e816-c599-4137-a30a-5127b06dbfc0"},"vehicle_type_id":"4","last_reported":1769089093,"current_range_meters":9200,"station_id":"ce4bhnh2rcd13ifvqgug","pricing_plan_id":"cebpf4jnsgd1na2vs0mg"},{"bike_id":"e5eb27b5-8cd8-4495-8ae8-cfcbea3b123a","system_id":"levelo_inurba_marseille","lat":43.25967,"lon":5.40911,"is_reserved":false,"is_disabled":false,"rental_uris":{"android":"levelo://app?vid=e5eb27b5-8cd8-4495-8ae8-cfcbea3b123a","ios":"levelo://app?vid=e5eb27b5-8cd8-4495-8ae8-cfcbea3b123a"},"vehicle_type_id":"4","last_reported":1769089093,"current_range_meters":9200,"station_id":"ce4bhm92rcd13ifvqglg","pricing_plan_id":"cebpf4jnsgd1na2vs0mg"},{"bike_id":"7ba23323-6ddc-445c-8627-b0bc6c465bc3","system_id":"levelo_inurba_marseille","lat":43.32492,"lon":5.36557,"is_reserved":false,"is_disabled":false,"rental_uris":{"android":"levelo://app?vid=7ba23323-6ddc-445c-8627-b0bc6c465bc3","ios":"levelo://app?vid=7ba23323-6ddc-445c-8627-b0bc6c465bc3"},"vehicle_type_id":"4","last_reported":1769089093,"current_range_meters":9200,"station_id":"ce4bhs12rcd13ifvqhvg","pricing_plan_id":"cebpf4jnsgd1na2vs0mg"},{"bike_id":"d189aaa1-706e-418b-babd-3d9c6b6ccf81","system_id":"levelo_inurba_marseille","lat":43.27544,"lon":5.40932,"is_reserved":false,"is_disabled":false,"rental_uris":{"android":"levelo://app?vid=d189aaa1-706e-418b-babd-3d9c6b6ccf81","ios":"levelo://app?vid=d189aaa1-706e-418b-babd-3d9c6b6ccf81"},"vehicle_type_id":"4","last_reported":1769089093,"current_range_meters":9200,"station_id":"","pricing_plan_id":"cebpf4jnsgd1na2vs0mg"},{"bike_id":"92295e8e-aa68-4e38-8fb7-fb93e0d44651","system_id":"levelo_inurba_marseille","lat":43.23204,"lon":5.35532,"is_reserved":false,"is_disabled":false,"rental_uris":{"android":"levelo://app?vid=92295e8e-aa68-4e38-8fb7-fb93e0d44651","ios":"levelo://app?vid=92295e8e-aa68-4e38-8fb7-fb93e0d44651"},"vehicle_type_id":"4","last_reported":1769089093,"current_range_meters":9200,"station_id":"ce4bhu92rcd13ifvqi70","pricing_plan_id":"cebpf4jnsgd1na2vs0mg"},