{"last_updated":1770658896,"ttl":60,"version":"2.2","data":{"bikes":[{"bike_id":"c905e704-6f56-4fbe-8269-605a142ba243","system_id":"levelo_inurba_marseille","lat":43.24643,"lon":5.38892,"is_reserved":false,"is_disabled":true,"rental_uris":{"android":"levelo://app?vid=c905e704-6f56-4fbe-8269-605a142ba243","ios":"levelo://app?vid=c905e704-6f56-4fbe-8269-605a142ba243"},"vehicle_type_id":"4","last_reported":1770658897,"current_range_meters":2800,"station_id":"ce4bhg12rcd13ifvqf60","pricing_plan_id":"cebpf4jnsgd1na2vs0mg"},{"bike_id":"1efe1a19-fbf0-44a6-870c-a91345e7555b","system_id":"levelo_inurba_marseille","lat":43.337444,"lon":5.374475,"is_reserved":false,"is_disabled":false,"rental_uris":{"android":"levelo://app?vid=1efe1a19-fbf0-44a6-870c-a91345e7555b","ios":"levelo://app?vid=1efe1a19-fbf0-44a6-870c-a91345e7555b"},"vehicle_type_id":"4","last_reported":1770658897,"current_range_meters":2800,"station_id":"","pricing_plan_id":"cebpf4jnsgd1na2vs0mg"},{"bike_id":"08bd2a21-eac7-42af-bb2c-38fd2aecf4ff","system_id":"levelo_inurba_marseille","lat":43.3022,"lon":5.39469,"is_reserved":false,"is_disabled":false,"rental_uris":{"android":"levelo://app?vid=08bd2a21-eac7-42af-bb2c-38fd2aecf4ff","ios":"levelo://app?vid=08bd2a21-eac7-42af-bb2c-38fd2aecf4ff"},"vehicle_type_id":"4","last_reported":1770658897,"current_range_meters":2800,"station_id":"ce4bh0p2rcd13ifvqd70","pricing_plan_id":"cebpf4jnsgd1na2vs0mg"},{"bike_id":"acdff8a4-572b-42ed-b943-0c84bdd87e06","system_id":"levelo_inurba_marseille","lat":43.29879,"lon":5.3891,"is_reserved":false,"is_disabled":false,"rental_uris":{"android":"levelo://app?vid=acdff8a4-572b-42ed-b943-0c84bdd87e06","ios":"levelo://app?vid=acdff8a4-572b-42ed-b943-0c84bdd87e06"},"vehicle_type_id":"4","last_reported":1770658897,"current_range_meters":2800,"station_id":"ce4bh392rcd13ifvqdl0","pricing_plan_id":"cebpf4jnsgd1na2vs0mg"},{"bike_id":"67a261b9-d213-445f-b131-81234bec7673","system_id":"levelo_inurba_marseille","lat":43.22924,"lon":5.3538,"is_reserved":false,"is_disabled":false,"rental_uris":{"android":"levelo://app?vid=67a261b9-d213-445f-b131-81234bec7673","ios":"levelo://app?vid=67a261b9-d213-445f-b131-81234bec7673"},"vehicle_type_id":"4","last_reported":1770658897,"current_range_meters":2800,"station_id":"cpo3532slgdg3j2ikp40","pricing_plan_id":"cebpf4jnsgd1na2vs0mg"},{"bike_id":"442d3514-6080-4e1b-8c33-6ac18aef8c96","system_id":"levelo_inurba_marseille","lat":43.31185,"lon":5.38705,"is_reserved":false,"is_disabled":false,"rental_uris":{"android":"levelo://app?vid=442d3514-6080-4e1b-8c33-6ac18aef8c96","ios":"levelo://app?vid=442d3514-6080-4e1b-8c33-6ac18aef8c96"},"vehicle_type_id":"4","last_reported":1770658897,"current_range_meters":2800,"station_id":"ce4bgv12rcd13ifvqcp0","pricing_plan_id":"cebpf4jnsgd1na2vs0mg"},{"bike_id":"a2f08b7b-3148-4ae3-b1d5-0ad2ed6e132c","system_id":"levelo_inurba_marseille","lat":43.286263,"lon":5.44332,"is_reserved":false,"is_disabled":false,"rental_uris":{"android":"levelo://app?vid=a2f08b7b-3148-4ae3-b1d5-0ad2ed6e132c","ios":"levelo://app?vid=a2f08b7b-3148-4ae3-b1d5-0ad2ed6e132c"},"vehicle_type_id":"4","last_reported":1770658897,"current_range_meters":2800,"station_id":"","pricing_plan_id":"cebpf4jnsgd1na2vs0mg"},{"bike_id":"05280667-4306-4a3c-89fe-64debd7d10a7","system_id":"levelo_inurba_marseille","lat":43.25003,"lon":5.38928,"is_reserved":false,"is_disabled":false,"rental_uris":{"android":"levelo://app?vid=05280667-4306-4a3c-89fe-64debd7d10a7","ios":"levelo://app?vid=05280667-4306-4a3c-89fe-64debd7d10a7"},"vehicle_type_id":"4","last_reported":1770658897,"current_range_meters":2800,"station_id":"ce4bhgp2rcd13ifvqfd0","pricing_plan_id":"cebpf4jnsgd1na2vs0mg"},{"bike_id":"7dd2d399-6383-4a0d-a881-e62efd3ea562","system_id":"levelo_inurba_marseille","lat":43.23196,"lon":5.35553,"is_reserved":false,"is_disabled":false,"rental_uris":{"android":"levelo://app?vid=7dd2d399-6383-4a0d-a881-e62efd3ea562","ios":"levelo://app?vid=7dd2d399-6383-4a0d-a881-e62efd3ea562"},"vehicle_type_id":"4","last_reported":1770658897,"current_range_meters":2800,"station_id":"ce4bhu92rcd13ifvqi70","pricing_plan_id":"cebpf4jnsgd1na2vs0mg"},{"bike_id":"5fdbc733-34d6-4707-a3ba-ed6a58b1ef6e","system_id":"levelo_inurba_marseille","lat":43.30736,"lon":5.42437,"is_reserved":false,"is_disabled":false,"rental_uris":{"android":"levelo://app?vid=5fdbc733-34d6-4707-a3ba-ed6a58b1ef6e","ios":"levelo://app?vid=5fdbc733-34d6-4707-a3ba-ed6a58b1ef6e"},"vehicle_type_id":"4","last_reported":1770658897,"current_range_meters":3200,"station_id":"st_cvj6ca6bvosntc0bfgr0","pricing_plan_id":"cebpf4jnsgd1na2vs0mg"},{"bike_id":"77a82100-2277-4b58-9b15-14c337bb7326","system_id":"levelo_inurba_marseille","lat":43.31359,"lon":5.38501,"is_reserved":false,"is_disabled":false,"rental_uris":{"android":"levelo://app?vid=77a82100-2277-4b58-9b15-14c337bb7326","ios":"levelo://app?vid=77a82100-2277-4b58-9b15-14c337bb7326"},"vehicle_type_id":"4","last_reported":1770658897,"current_range_meters":3200,"station_id":"ce4bgt92rcd13ifvqcf0","pricing_plan_id":"cebpf4jnsgd1na2vs0mg"},{"bike_id":"62468bc0-7c46-4734-a9fc-6c79792208c6","system_id":"levelo_inurba_marseille","lat":43.275629,"lon":5.384192,"is_reserved":false,"is_disabled":false,"rental_uris":{"android":"levelo://app?vid=62468bc0-7c46-4734-a9fc-6c79792208c6","ios":"levelo://app?vid=62468bc0-7c46-4734-a9fc-6c79792208c6"},"vehicle_type_id":"4","last_reported":1770658897,"current_range_meters":3200,"station_id":"ce4bh0h2rcd13ifvqd60","pricing_plan_id":"cebpf4jnsgd1na2vs0mg"},{"bike_id":"eaca9557-fe9a-4434-a101-769f46e9bc51","system_id":"levelo_inurba_marseille","lat":43.2999,"lon":5.37183,"is_reserved":false,"is_disabled":false,"rental_uris":{"android":"levelo://app?vid=eaca9557-fe9a-4434-a101-769f46e9bc51","ios":"levelo://app?vid=eaca9557-fe9a-4434-a101-769f46e9bc51"},"vehicle_type_id":"4","last_reported":1770658897,"current_range_meters":3200,"station_id":"ce4bgr92rcd13ifvqc7g","pricing_plan_id":"cebpf4jnsgd1na2vs0mg"},{"bike_id":"becb79b5-93e2-44f0-a94f-424a8d20f18a","system_id":"levelo_inurba_marseille","lat":43.280022,"lon":5.400068,"is_reserved":false,"is_disabled":false,"rental_uris":{"android":"levelo://app?vid=becb79b5-93e2-44f0-a94f-424a8d20f18a","ios":"levelo://app?vid=becb79b5-93e2-44f0-a94f-424a8d20f18a"},"vehicle_type_id":"4","last_reported":1770658897,"current_range_meters":3200,"station_id":"ce4bho92rcd13ifvqh4g","pricing_plan_id":"cebpf4jnsgd1na2vs0mg"},{"bike_id":"7108cc5b-0ff4-4e83-92d6-fc5d24b750d0","system_id":"levelo_inurba_marseille","lat":43.24069,"lon":5.37769,"is_reserved":false,"is_disabled":false,"rental_uris":{"android":"levelo://app?vid=7108cc5b-0ff4-4e83-92d6-fc5d24b750d0","ios":"levelo://app?vid=7108cc5b-0ff4-4e83-92d6-fc5d24b750d0"},"vehicle_type_id":"4","last_reported":1770658897,"current_range_meters":3200,"station_id":"ce4bhnp2rcd13ifvqgvg","pricing_plan_id":"cebpf4jnsgd1na2vs0mg"},{"bike_id":"53dd74d4-61ee-486c-ba8a-a0cf9f7a2181","system_id":"levelo_inurba_marseille","lat":43.28696,"lon":5.39971,"is_reserved":false,"is_disabled":false,"rental_uris":{"android":"levelo://app?vid=53dd74d4-61ee-486c-ba8a-a0cf9f7a2181","ios":"levelo://app?vid=53dd74d4-61ee-486c-ba8a-a0cf9f7a2181"},"vehicle_type_id":"4","last_reported":1770658897,"current_range_meters":3200,"station_id":"ce4bho92rcd13ifvqh3g","pricing_plan_id":"cebpf4jnsgd1na2vs0mg"},{"bike_id":"4d709cbf-664d-4c17-b38a-633577c7a326","system_id":"levelo_inurba_marseille","lat":43.30946,"lon":5.39038,"is_reserved":false,"is_disabled":false,"rental_uris":{"android":"levelo://app?vid=4d709cbf-664d-4c17-b38a-633577c7a326","ios":"levelo://app?vid=4d709cbf-664d-4c17-b38a-633577c7a326"},"vehicle_type_id":"4","last_reported":1770658897,"current_range_meters":3200,"station_id":"ce4bgup2rcd13ifvqco0","pricing_plan_id":"cebpf4jnsgd1na2vs0mg"},{"bike_id":"a31fc7e8-c033-49bd-b807-7cba43703f2f","system_id":"levelo_inurba_marseille","lat":43.30978,"lon":5.39277,"is_reserved":false,"is_disabled":false,"rental_uris":{"android":"levelo://app?vid=a31fc7e8-c033-49bd-b807-7cba43703f2f","ios":"levelo://app?vid=a31fc7e8-c033-49bd-b807-7cba43703f2f"},"vehicle_type_id":"4","last_reported":1770658897,"current_range_meters":3200,"station_id":"","pricing_plan_id":"cebpf4jnsgd1na2vs0mg"},{"bike_id":"8275bb2a-6cd2-4420-ab99-150ea7d0a3eb","system_id":"levelo_inurba_marseille","lat":43.29855,"lon":5.36271,"is_reserved":false,"is_disabled":false,"rental_uris":{"android":"levelo://app?vid=8275bb2a-6cd2-4420-ab99-150ea7d0a3eb","ios":"levelo://app?vid=8275bb2a-6cd2-4420-ab99-150ea7d0a3eb"},"vehicle_type_id":"4","last_reported":1770658897,"current_range_meters":3200,"station_id":"ce4bgpp2rcd13ifvqc3g","pricing_plan_id":"cebpf4jnsgd1na2vs0mg"},{"bike_id":"0c612153-14d4-45fb-b22f-4c54c18afc81","system_id":"levelo_inurba_marseille","lat":43.295205,"lon":5.394064,"is_reserved":false,"is_disabled":false,"rental_uris":{"android":"levelo://app?vid=0c612153-14d4-45fb-b22f-4c54c18afc81","ios":"levelo://app?vid=0c612153-14d4-45fb-b22f-4c54c18afc81"},"vehicle_type_id":"4","last_reported":1770658897,"current_range_meters":3600,"station_id":"ce4bh292rcd13ifvqdf0","pricing_plan_id":"cebpf4jnsgd1na2vs0mg"},{"bike_id":"6051b31d-701e-49ad-8b8c-d5a67a21069c","system_id":"levelo_inurba_marseille","lat":43.27992,"lon":5.40026,"is_reserved":false,"is_disabled":false,"rental_uris":{"android":"levelo://app?vid=6051b31d-701e-49ad-8b8c-d5a67a21069c","ios":"levelo://app?vid=6051b31d-701e-49ad-8b8c-d5a67a21069c"},"vehicle_type_id":"4","last_reported":1770658897,"current_range_meters":3600,"station_id":"ce4bho92rcd13ifvqh4g","pricing_plan_id":"cebpf4jnsgd1na2vs0mg"},{"bike_id":"fb42dd14-8842-4c1b-bf3c-4ce250e467ea","system_id":"levelo_inurba_marseille","lat":43.257085,"lon":5.411155,"is_reserved":false,"is_disabled":false,"rental_uris":{"android":"levelo://app?vid=fb42dd14-8842-4c1b-bf3c-4ce250e467ea","ios":"levelo://app?vid=fb42dd14-8842-4c1b-bf3c-4ce250e467ea"},"vehicle_type_id":"4","last_reported":1770658897,"current_range_meters":3600,"station_id":"ce4bhkp2rcd13ifvqgd0","pricing_plan_id":"cebpf4jnsgd1na2vs0mg"},{"bike_id":"d5242b4a-769b-48b8-8522-816e7c28d15b","system_id":"levelo_inurba_marseille","lat":43.2621,"lon":5.3746,"is_reserved":false,"is_disabled":false,"rental_uris":{"android":"levelo://app?vid=d5242b4a-769b-48b8-8522-816e7c28d15b","ios":"levelo://app?vid=d5242b4a-769b-48b8-8522-816e7c28d15b"},"vehicle_type_id":"4","last_reported":1770658897,"current_range_meters":3600,"station_id":"ce4bhgp2rcd13ifvqfc0","pricing_plan_id":"cebpf4jnsgd1na2vs0mg"},{"bike_id":"109614e0-2484-43bc-a89c-d157d0d34295","system_id":"levelo_inurba_marseille","lat":43.30103,"lon":5.39071,"is_reserved":false,"is_disabled":false,"rental_uris":{"android":"levelo://app?vid=109614e0-2484-43bc-a89c-d157d0d34295","ios":"levelo://app?vid=109614e0-2484-43bc-a89c-d157d0d34295"},"vehicle_type_id":"4","last_reported":1770658897,"current_range_meters":3600,"station_id":"ce4bh192rcd13ifvqdb0","pricing_plan_id":"cebpf4jnsgd1na2vs0mg"},{"bike_id":"4b6ae7cf-a20c-45bf-93e3-f78d3a6e7a98","system_id":"levelo_inurba_marseille","lat":43.25934,"lon":5.40895,"is_reserved":false,"is_disabled":false,"rental_uris":{"android":"levelo://app?vid=4b6ae7cf-a20c-45bf-93e3-f78d3a6e7a98","ios":"levelo://app?vid=4b6ae7cf-a20c-45bf-93e3-f78d3a6e7a98"},"vehicle_type_id":"4","last_reported":1770658897,"current_range_meters":3600,"station_id":"ce4bhm92rcd13ifvqglg","pricing_plan_id":"cebpf4jnsgd1na2vs0mg"},{"bike_id":"ffcfb0a6-be0d-4d3d-b9ec-3a4698a83e7b","system_id":"levelo_inurba_marseille","lat":43.25944,"lon":5.40918,"is_reserved":false,"is_disabled":false,"rental_uris":{"android":"levelo://app?vid=ffcfb0a6-be0d-4d3d-b9ec-3a4698a83e7b","ios":"levelo://app?vid=ffcfb0a6-be0d-4d3d-b9ec-3a4698a83e7b"},"vehicle_type_id":"4","last_reported":1770658897,"current_range_meters":3600,"station_id":"ce4bhm92rcd13ifvqglg","pricing_plan_id":"cebpf4jnsgd1na2vs0mg"},{"bike_id":"cb4e831c-6025-4234-bd44-dc892f6a6133","system_id":"levelo_inurba_marseille","lat":43.26577,"lon":5.4032,"is_reserved":false,"is_disabled":false,"rental_uris":{"android":"levelo://app?vid=cb4e831c-6025-4234-bd44-dc892f6a6133","ios":"levelo://app?vid=cb4e831c-6025-4234-bd44-dc892f6a6133"},"vehicle_type_id":"4","last_reported":1770658897,"current_range_meters":3600,"station_id":"ce4bhmp2rcd13ifvqgng","pricing_plan_id":"cebpf4jnsgd1na2vs0mg"},{"bike_id":"e9b89b99-d4a7-4b5e-8c73-ed24bbb86aab","system_id":"levelo_inurba_marseille","lat":43.26058,"lon":5.39401,"is_reserved":false,"is_disabled":false,"rental_uris":{"android":"levelo://app?vid=e9b89b99-d4a7-4b5e-8c73-ed24bbb86aab","ios":"levelo://app?vid=e9b89b99-d4a7-4b5e-8c73-ed24bbb86aab"},"vehicle_type_id":"4","last_reported":1770658897,"current_range_meters":3600,"station_id":"ce4bhh92rcd13ifvqfj0","pricing_plan_id":"cebpf4jnsgd1na2vs0mg"},{"bike_id":"5cf7b91e-2a27-4285-971c-aba82a4f405f","system_id":"levelo_inurba_marseille","lat":43.29631,"lon":5.37738,"is_reserved":false,"is_disabled":false,"rental_uris":{"android":"levelo://app?vid=5cf7b91e-2a27-4285-971c-aba82a4f405f","ios":"levelo://app?vid=5cf7b91e-2a27-4285-971c-aba82a4f405f"},"vehicle_type_id":"4","last_reported":1770658897,"current_range_meters":3600,"station_id":"ce4bgi92rcd13ifvqb90","pricing_plan_id":"cebpf4jnsgd1na2vs0mg"},{"bike_id":"80c05c96-a944-4f6f-ac3a-3c6d24f4ef3b","system_id":"levelo_inurba_marseille","lat":43.30948,"lon":5.39046,"is_reserved":false,"is_disabled":false,"rental_uris":{"android":"levelo://app?vid=80c05c96-a944-4f6f-ac3a-3c6d24f4ef3b","ios":"levelo://app?vid=80c05c96-a944-4f6f-ac3a-3c6d24f4ef3b"},"vehicle_type_id":"4","last_reported":1770658897,"current_range_meters":3600,"station_id":"ce4bgup2rcd13ifvqco0","pricing_plan_id":"cebpf4jnsgd1na2vs0mg"},{"bike_id":"eb4f3087-f321-48ae-b659-58b78ed944bf","system_id":"levelo_inurba_marseille","lat":43.26203,"lon":5.37934,"is_reserved":false,"is_disabled":false,"rental_uris":{"android":"levelo://app?vid=eb4f3087-f321-48ae-b659-58b78ed944bf","ios":"levelo://app?vid=eb4f3087-f321-48ae-b659-58b78ed944bf"},"vehicle_type_id":"4","last_reported":1770658897,"current_range_meters":3600,"station_id":"ce4bhjp2rcd13ifvqg90","pricing_plan_id":"cebpf4jnsgd1na2vs0mg"},{"bike_id":"bca426f6-184c-4db8-83d1-66bad5fd12d2","system_id":"levelo_inurba_marseille","lat":43.2848,"lon":5.38427,"is_reserved":false,"is_disabled":false,"rental_uris":{"android":"levelo://app?vid=bca426f6-184c-4db8-83d1-66bad5fd12d2","ios":"levelo://app?vid=bca426f6-184c-4db8-83d1-66bad5fd12d2"},"vehicle_type_id":"4","last_reported":1770658897,"current_range_meters":3600,"station_id":"ce4bh512rcd13ifvqe3g","pricing_plan_id":"cebpf4jnsgd1na2vs0mg"},{"bike_id":"c47f9d06-e2e7-4f1a-9efa-21197e8b1082","system_id":"levelo_inurba_marseille","lat":43.285,"lon":5.38562,"is_reserved":false,"is_disabled":false,"rental_uris":{"android":"levelo://app?vid=c47f9d06-e2e7-4f1a-9efa-21197e8b1082","ios":"levelo://app?vid=c47f9d06-e2e7-4f1a-9efa-21197e8b1082"},"vehicle_type_id":"4","last_reported":1770658897,"current_range_meters":3600,"station_id":"ce4bh8p2rcd13ifvqeb0","pricing_plan_id":"cebpf4jnsgd1na2vs0mg"},{"bike_id":"50c59f61-1fd1-4eb2-bab2-cdbd2b887f2f","system_id":"levelo_inurba_marseille","lat":43.26224,"lon":5.404527,"is_reserved":false,"is_disabled":false,"rental_uris":{"android":"levelo://app?vid=50c59f61-1fd1-4eb2-bab2-cdbd2b887f2f","ios":"levelo://app?vid=50c59f61-1fd1-4eb2-bab2-cdbd2b887f2f"},"vehicle_type_id":"4","last_reported":1770658897,"current_range_meters":4000,"station_id":"ce4bhmh2rcd13ifvqgmg","pricing_plan_id":"cebpf4jnsgd1na2vs0mg"},{"bike_id":"ef6ce157-048a-4fc1-8f31-c823377f5d47","system_id":"levelo_inurba_marseille","lat":43.249505,"lon":5.404876,"is_reserved":false,"is_disabled":false,"rental_uris":{"android":"levelo://app?vid=ef6ce157-048a-4fc1-8f31-c823377f5d47","ios":"levelo://app?vid=ef6ce157-048a-4fc1-8f31-c823377f5d47"},"vehicle_type_id":"4","last_reported":1770658897,"current_range_meters":4000,"station_id":"st_d2ngiaodas8pm72gd1h0","pricing_plan_id":"cebpf4jnsgd1na2vs0mg"},{"bike_id":"986159ad-fe4a-4851-8f0d-f7fd3ec24887","system_id":"levelo_inurba_marseille","lat":43.28474,"lon":5.38415,"is_reserved":false,"is_disabled":false,"rental_uris":{"android":"levelo://app?vid=986159ad-fe4a-4851-8f0d-f7fd3ec24887","ios":"levelo://app?vid=986159ad-fe4a-4851-8f0d-f7fd3ec24887"},"vehicle_type_id":"4","last_reported":1770658897,"current_range_meters":4000,"station_id":"ce4bh512rcd13ifvqe3g","pricing_plan_id":"cebpf4jnsgd1na2vs0mg"},{"bike_id":"81f5a16d-a2f0-4cd2-a5c9-53e69bf4cd2c","system_id":"levelo_inurba_marseille","lat":43.29539,"lon":5.42275,"is_reserved":false,"is_disabled":false,"rental_uris":{"android":"levelo://app?vid=81f5a16d-a2f0-4cd2-a5c9-53e69bf4cd2c","ios":"levelo://app?vid=81f5a16d-a2f0-4cd2-a5c9-53e69bf4cd2c"},"vehicle_type_id":"4","last_reported":1770658897,"current_range_meters":4400,"station_id":"ce4bhph2rcd13ifvqhdg","pricing_plan_id":"cebpf4jnsgd1na2vs0mg"},{"bike_id":"ded75624-1bc3-4275-a536-d876f34410c8","system_id":"levelo_inurba_marseille","lat":43.31181,"lon":5.38722,"is_reserved":false,"is_disabled":false,"rental_uris":{"android":"levelo://app?vid=ded75624-1bc3-4275-a536-d876f34410c8","ios":"levelo://app?vid=ded75624-1bc3-4275-a536-d876f34410c8"},"vehicle_type_id":"4","last_reported":1770658897,"current_range_meters":4400,"station_id":"ce4bgv12rcd13ifvqcp0","pricing_plan_id":"cebpf4jnsgd1na2vs0mg"},{"bike_id":"7793efe0-796a-47b9-b395-f00d6d2ba2f3","system_id":"levelo_inurba_marseille","lat":43.33536,"lon":5.37467,"is_reserved":false,"is_disabled":false,"rental_uris":{"android":"levelo://app?vid=7793efe0-796a-47b9-b395-f00d6d2ba2f3","ios":"levelo://app?vid=7793efe0-796a-47b9-b395-f00d6d2ba2f3"},"vehicle_type_id":"4","last_reported":1770658897,"current_range_meters":4400,"station_id":"st_d46tts09ee8s73dlu43g","pricing_plan_id":"cebpf4jnsgd1na2vs0mg"},{"bike_id":"db1998cd-95a3-4e79-8d30-39cac85db9a9","system_id":"levelo_inurba_marseille","lat":43.29841,"lon":5.36283,"is_reserved":false,"is_disabled":false,"rental_uris":{"android":"levelo://app?vid=db1998cd-95a3-4e79-8d30-39cac85db9a9","ios":"levelo://app?vid=db1998cd-95a3-4e79-8d30-39cac85db9a9"},"vehicle_type_id":"4","last_reported":1770658897,"current_range_meters":4400,"station_id":"ce4bgpp2rcd13ifvqc3g","pricing_plan_id":"cebpf4jnsgd1na2vs0mg"},{"bike_id":"9bb9ade3-ff0f-4b64-8ad2-18e2d2114468","system_id":"levelo_inurba_marseille","lat":43.27206,"lon":5.39182,"is_reserved":false,"is_disabled":false,"rental_uris":{"android":"levelo://app?vid=9bb9ade3-ff0f-4b64-8ad2-18e2d2114468","ios":"levelo://app?vid=9bb9ade3-ff0f-4b64-8ad2-18e2d2114468"},"vehicle_type_id":"4","last_reported":1770658897,"current_range_meters":4400,"station_id":"ce4bhhp2rcd13ifvqfm0","pricing_plan_id":"cebpf4jnsgd1na2vs0mg"},{"bike_id":"6b843a20-637f-4941-8903-eda6c77e13a5","system_id":"levelo_inurba_marseille","lat":43.30594,"lon":5.3936,"is_reserved":false,"is_disabled":false,"rental_uris":{"android":"levelo://app?vid=6b843a20-637f-4941-8903-eda6c77e13a5","ios":"levelo://app?vid=6b843a20-637f-4941-8903-eda6c77e13a5"},"vehicle_type_id":"4","last_reported":1770658897,"current_range_meters":4400,"station_id":"ce4bh0p2rcd13ifvqd80","pricing_plan_id":"cebpf4jnsgd1na2vs0mg"},{"bike_id":"6e033c35-dbfc-4ffc-a036-eedd79c14d36","system_id":"levelo_inurba_marseille","lat":43.217525,"lon":5.346065,"is_reserved":false,"is_disabled":true,"rental_uris":{"android":"levelo://app?vid=6e033c35-dbfc-4ffc-a036-eedd79c14d36","ios":"levelo://app?vid=6e033c35-dbfc-4ffc-a036-eedd79c14d36"},"vehicle_type_id":"4","last_reported":1770658897,"current_range_meters":4400,"station_id":"st_cvj6r9ubvosntc0bgbag","pricing_plan_id":"cebpf4jnsgd1na2vs0mg"},{"bike_id":"cce409e3-e6c0-4194-832c-ffe927c88385","system_id":"levelo_inurba_marseille","lat":43.29553,"lon":5.42295,"is_reserved":false,"is_disabled":false,"rental_uris":{"android":"levelo://app?vid=cce409e3-e6c0-4194-832c-ffe927c88385","ios":"levelo://app?vid=cce409e3-e6c0-4194-832c-ffe927c88385"},"vehicle_type_id":"4","last_reported":1770658897,"current_range_meters":4400,"station_id":"ce4bhph2rcd13ifvqhdg","pricing_plan_id":"cebpf4jnsgd1na2vs0mg"},{"bike_id":"d5e0930a-1a7e-4036-ab37-bee2618d4afd","system_id":"levelo_inurba_marseille","lat":43.29265,"lon":5.38445,"is_reserved":false,"is_disabled":false,"rental_uris":{"android":"levelo://app?vid=d5e0930a-1a7e-4036-ab37-bee2618d4afd","ios":"levelo://app?vid=d5e0930a-1a7e-4036-ab37-bee2618d4afd"},"vehicle_type_id":"4","last_reported":1770658897,"current_range_meters":4400,"station_id":"ce4bh692rcd13ifvqea0","pricing_plan_id":"cebpf4jnsgd1na2vs0mg"},{"bike_id":"a2a22745-56e6-4e97-9cfe-226d0e4c1d76","system_id":"levelo_inurba_marseille","lat":43.2558,"lon":5.3824,"is_reserved":false,"is_disabled":false,"rental_uris":{"android":"levelo://app?vid=a2a22745-56e6-4e97-9cfe-226d0e4c1d76","ios":"levelo://app?vid=a2a22745-56e6-4e97-9cfe-226d0e4c1d76"},"vehicle_type_id":"4","last_reported":1770658897,"current_range_meters":4400,"station_id":"ce4bhih2rcd13ifvqfs0","pricing_plan_id":"cebpf4jnsgd1na2vs0mg"},{"bike_id":"77dfdb07-7c8a-408a-b8b3-78dbf29adf26","system_id":"levelo_inurba_marseille","lat":43.29933,"lon":5.37174,"is_reserved":false,"is_disabled":false,"rental_uris":{"android":"levelo://app?vid=77dfdb07-7c8a-408a-b8b3-78dbf29adf26","ios":"levelo://app?vid=77dfdb07-7c8a-408a-b8b3-78dbf29adf26"},"vehicle_type_id":"4","last_reported":1770658897,"current_range_meters":4400,"station_id":"ce4bgr92rcd13ifvqc7g","pricing_plan_id":"cebpf4jnsgd1na2vs0mg"},{"bike_id":"ae558bf3-c033-4e73-b247-ddf9e0f3fc0e","system_id":"levelo_inurba_marseille","lat":43.27614,"lon":5.36125,"is_reserved":false,"is_disabled":false,"rental_uris":{"android":"levelo://app?vid=ae558bf3-c033-4e73-b247-ddf9e0f3fc0e","ios":"levelo://app?vid=ae558bf3-c033-4e73-b247-ddf9e0f3fc0e"},"vehicle_type_id":"4","last_reported":1770658897,"current_range_meters":4400,"station_id":"ce4bgj92rcd13ifvqbe0","pricing_plan_id":"cebpf4jnsgd1na2vs0mg"},{"bike_id":"5ac5b5f7-9144-41da-a312-1894a00e95c1","system_id":"levelo_inurba_marseille","lat":43.29886,"lon":5.39743,"is_reserved":false,"is_disabled":false,"rental_uris":{"android":"levelo://app?vid=5ac5b5f7-9144-41da-a312-1894a00e95c1","ios":"levelo://app?vid=5ac5b5f7-9144-41da-a312-1894a00e95c1"},"vehicle_type_id":"4","last_reported":1770658897,"current_range_meters":4800,"station_id":"ce4bh0h2rcd13ifvqd50","pricing_plan_id":"cebpf4jnsgd1na2vs0mg"},{"bike_id":"eb4c876b-88dd-43ec-8628-44a384f402f0","system_id":"levelo_inurba_marseille","lat":43.335424,"lon":5.374556,"is_reserved":false,"is_disabled":false,"rental_uris":{"android":"levelo://app?vid=eb4c876b-88dd-43ec-8628-44a384f402f0","ios":"levelo://app?vid=eb4c876b-88dd-43ec-8628-44a384f402f0"},"vehicle_type_id":"4","last_reported":1770658897,"current_range_meters":4800,"station_id":"st_d46tts09ee8s73dlu43g","pricing_plan_id":"cebpf4jnsgd1na2vs0mg"},{"bike_id":"0443e993-9f5a-4259-8c74-9ebdf133e470","system_id":"levelo_inurba_marseille","lat":43.312605,"lon":5.401791,"is_reserved":false,"is_disabled":false,"rental_uris":{"android":"levelo://app?vid=0443e993-9f5a-4259-8c74-9ebdf133e470","ios":"levelo://app?vid=0443e993-9f5a-4259-8c74-9ebdf133e470"},"vehicle_type_id":"4","last_reported":1770658897,"current_range_meters":4800,"station_id":"ce4bh092rcd13ifvqd30","pricing_plan_id":"cebpf4jnsgd1na2vs0mg"},{"bike_id":"9b478dfb-0e51-4dc4-8179-428847e13fec","system_id":"levelo_inurba_marseille","lat":43.30264,"lon":5.4008,"is_reserved":false,"is_disabled":false,"rental_uris":{"android":"levelo://app?vid=9b478dfb-0e51-4dc4-8179-428847e13fec","ios":"levelo://app?vid=9b478dfb-0e51-4dc4-8179-428847e13fec"},"vehicle_type_id":"4","last_reported":1770658897,"current_range_meters":4800,"station_id":"ce4bgvh2rcd13ifvqcs0","pricing_plan_id":"cebpf4jnsgd1na2vs0mg"},{"bike_id":"a4372248-e905-4705-9ead-0032b8211cf4","system_id":"levelo_inurba_marseille","lat":43.29964,"lon":5.38497,"is_reserved":false,"is_disabled":false,"rental_uris":{"android":"levelo://app?vid=a4372248-e905-4705-9ead-0032b8211cf4","ios":"levelo://app?vid=a4372248-e905-4705-9ead-0032b8211cf4"},"vehicle_type_id":"4","last_reported":1770658897,"current_range_meters":4800,"station_id":"ce4bgj92rcd13ifvqbd0","pricing_plan_id":"cebpf4jnsgd1na2vs0mg"},{"bike_id":"6ea905a9-71e6-4b26-8238-9c3380cbddfe","system_id":"levelo_inurba_marseille","lat":43.29027,"lon":5.37562,"is_reserved":false,"is_disabled":false,"rental_uris":{"android":"levelo://app?vid=6ea905a9-71e6-4b26-8238-9c3380cbddfe","ios":"levelo://app?vid=6ea905a9-71e6-4b26-8238-9c3380cbddfe"},"vehicle_type_id":"4","last_reported":1770658897,"current_range_meters":4800,"station_id":"ce4bh692rcd13ifvqe90","pricing_plan_id":"cebpf4jnsgd1na2vs0mg"},{"bike_id":"c9b25750-c08c-4831-a103-7f67ae56469e","system_id":"levelo_inurba_marseille","lat":43.25082,"lon":5.39528,"is_reserved":false,"is_disabled":false,"rental_uris":{"android":"levelo://app?vid=c9b25750-c08c-4831-a103-7f67ae56469e","ios":"levelo://app?vid=c9b25750-c08c-4831-a103-7f67ae56469e"},"vehicle_type_id":"4","last_reported":1770658897,"current_range_meters":4800,"station_id":"ce4bhm12rcd13ifvqgkg","pricing_plan_id":"cebpf4jnsgd1na2vs0mg"},{"bike_id":"9f6686fa-6a64-4fb0-b355-40c440a1d791","system_id":"levelo_inurba_marseille","lat":43.2621,"lon":5.37926,"is_reserved":false,"is_disabled":true,"rental_uris":{"android":"levelo://app?vid=9f6686fa-6a64-4fb0-b355-40c440a1d791","ios":"levelo://app?vid=9f6686fa-6a64-4fb0-b355-40c440a1d791"},"vehicle_type_id":"4","last_reported":1770658897,"current_range_meters":4800,"station_id":"ce4bhjp2rcd13ifvqg90","pricing_plan_id":"cebpf4jnsgd1na2vs0mg"},{"bike_id":"741eb813-4a52-4cce-a94d-c47e673e60bc","system_id":"levelo_inurba_marseille","lat":43.309496,"lon":5.390271,"is_reserved":false,"is_disabled":false,"rental_uris":{"android":"levelo://app?vid=741eb813-4a52-4cce-a94d-c47e673e60bc","ios":"levelo://app?vid=741eb813-4a52-4cce-a94d-c47e673e60bc"},"vehicle_type_id":"4","last_reported":1770658897,"current_range_meters":4800,"station_id":"ce4bgup2rcd13ifvqco0","pricing_plan_id":"cebpf4jnsgd1na2vs0mg"},{"bike_id":"c048af54-0a82-41db-b421-c613a12baf51","system_id":"levelo_inurba_marseille","lat":43.29864,"lon":5.39738,"is_reserved":false,"is_disabled":false,"rental_uris":{"android":"levelo://app?vid=c048af54-0a82-41db-b421-c613a12baf51","ios":"levelo://app?vid=c048af54-0a82-41db-b421-c613a12baf51"},"vehicle_type_id":"4","last_reported":1770658897,"current_range_meters":4800,"station_id":"ce4bh0h2rcd13ifvqd50","pricing_plan_id":"cebpf4jnsgd1na2vs0mg"},{"bike_id":"ac645712-adb7-427c-9a1d-bbc03b4ccac1","system_id":"levelo_inurba_marseille","lat":43.21193,"lon":5.350698,"is_reserved":false,"is_disabled":false,"rental_uris":{"android":"levelo://app?vid=ac645712-adb7-427c-9a1d-bbc03b4ccac1","ios":"levelo://app?vid=ac645712-adb7-427c-9a1d-bbc03b4ccac1"},"vehicle_type_id":"4","last_reported":1770658897,"current_range_meters":4800,"station_id":"st_cvj6sg6p6f1abm77japg","pricing_plan_id":"cebpf4jnsgd1na2vs0mg"},{"bike_id":"40a2490b-1113-4f1b-b8ac-ce8856b247b6","system_id":"levelo_inurba_marseille","lat":43.27949,"lon":5.41054,"is_reserved":false,"is_disabled":false,"rental_uris":{"android":"levelo://app?vid=40a2490b-1113-4f1b-b8ac-ce8856b247b6","ios":"levelo://app?vid=40a2490b-1113-4f1b-b8ac-ce8856b247b6"},"vehicle_type_id":"4","last_reported":1770658897,"current_range_meters":4800,"station_id":"ce4bhnp2rcd13ifvqh0g","pricing_plan_id":"cebpf4jnsgd1na2vs0mg"},{"bike_id":"b2b7765e-1810-41ca-a983-1217cd16114e","system_id":"levelo_inurba_marseille","lat":43.29426,"lon":5.39742,"is_reserved":false,"is_disabled":false,"rental_uris":{"android":"levelo://app?vid=b2b7765e-1810-41ca-a983-1217cd16114e","ios":"levelo://app?vid=b2b7765e-1810-41ca-a983-1217cd16114e"},"vehicle_type_id":"4","last_reported":1770658897,"current_range_meters":4800,"station_id":"ce4bh3h2rcd13ifvqdo0","pricing_plan_id":"cebpf4jnsgd1na2vs0mg"},{"bike_id":"e5e4db5f-15f4-4349-98f2-916263e184db","system_id":"levelo_inurba_marseille","lat":43.27809,"lon":5.40722,"is_reserved":false,"is_disabled":false,"rental_uris":{"android":"levelo://app?vid=e5e4db5f-15f4-4349-98f2-916263e184db","ios":"levelo://app?vid=e5e4db5f-15f4-4349-98f2-916263e184db"},"vehicle_type_id":"4","last_reported":1770658897,"current_range_meters":4800,"station_id":"ce4bhnh2rcd13ifvqgtg","pricing_plan_id":"cebpf4jnsgd1na2vs0mg"},{"bike_id":"70519adb-911c-4120-b6a7-3660c44ac45b","system_id":"levelo_inurba_marseille","lat":43.24733,"lon":5.39278,"is_reserved":false,"is_disabled":false,"rental_uris":{"android":"levelo://app?vid=70519adb-911c-4120-b6a7-3660c44ac45b","ios":"levelo://app?vid=70519adb-911c-4120-b6a7-3660c44ac45b"},"vehicle_type_id":"4","last_reported":1770658897,"current_range_meters":5600,"station_id":"","pricing_plan_id":"cebpf4jnsgd1na2vs0mg"},{"bike_id":"66ef43f3-a670-41f9-a4a5-4f2152575dc3","system_id":"levelo_inurba_marseille","lat":43.27332,"lon":5.39114,"is_reserved":false,"is_disabled":false,"rental_uris":{"android":"levelo://app?vid=66ef43f3-a670-41f9-a4a5-4f2152575dc3","ios":"levelo://app?vid=66ef43f3-a670-41f9-a4a5-4f2152575dc3"},"vehicle_type_id":"4","last_reported":1770658897,"current_range_meters":5600,"station_id":"ce4bhgp2rcd13ifvqfe0","pricing_plan_id":"cebpf4jnsgd1na2vs0mg"},{"bike_id":"6fe4d8f6-8478-47e8-b50c-51f54059e71e","system_id":"levelo_inurba_marseille","lat":43.31054,"lon":5.3717,"is_reserved":false,"is_disabled":false,"rental_uris":{"android":"levelo://app?vid=6fe4d8f6-8478-47e8-b50c-51f54059e71e","ios":"levelo://app?vid=6fe4d8f6-8478-47e8-b50c-51f54059e71e"},"vehicle_type_id":"4","last_reported":1770658897,"current_range_meters":5600,"station_id":"st_d4kl2rp97mjs73e7tdfg","pricing_plan_id":"cebpf4jnsgd1na2vs0mg"},{"bike_id":"707dd2c5-36da-401a-beac-91d3b45ec1bb","system_id":"levelo_inurba_marseille","lat":43.2468,"lon":5.38145,"is_reserved":false,"is_disabled":false,"rental_uris":{"android":"levelo://app?vid=707dd2c5-36da-401a-beac-91d3b45ec1bb","ios":"levelo://app?vid=707dd2c5-36da-401a-beac-91d3b45ec1bb"},"vehicle_type_id":"4","last_reported":1770658897,"current_range_meters":5600,"station_id":"ce4bhih2rcd13ifvqfr0","pricing_plan_id":"cebpf4jnsgd1na2vs0mg"},{"bike_id":"d170295b-b012-4c46-b19c-e51dfc05c763","system_id":"levelo_inurba_marseille","lat":43.31166,"lon":5.38718,"is_reserved":false,"is_disabled":false,"rental_uris":{"android":"levelo://app?vid=d170295b-b012-4c46-b19c-e51dfc05c763","ios":"levelo://app?vid=d170295b-b012-4c46-b19c-e51dfc05c763"},"vehicle_type_id":"4","last_reported":1770658897,"current_range_meters":5600,"station_id":"ce4bgv12rcd13ifvqcp0","pricing_plan_id":"cebpf4jnsgd1na2vs0mg"},{"bike_id":"8c139d21-9d12-4792-a44d-13109cee3e0a","system_id":"levelo_inurba_marseille","lat":43.27012,"lon":5.4199,"is_reserved":false,"is_disabled":false,"rental_uris":{"android":"levelo://app?vid=8c139d21-9d12-4792-a44d-13109cee3e0a","ios":"levelo://app?vid=8c139d21-9d12-4792-a44d-13109cee3e0a"},"vehicle_type_id":"4","last_reported":1770658897,"current_range_meters":5600,"station_id":"","pricing_plan_id":"cebpf4jnsgd1na2vs0mg"},{"bike_id":"1ab54603-eb85-490c-90cb-a450a9e9e1ac","system_id":"levelo_inurba_marseille","lat":43.28713,"lon":5.3795,"is_reserved":false,"is_disabled":false,"rental_uris":{"android":"levelo://app?vid=1ab54603-eb85-490c-90cb-a450a9e9e1ac","ios":"levelo://app?vid=1ab54603-eb85-490c-90cb-a450a9e9e1ac"},"vehicle_type_id":"4","last_reported":1770658897,"current_range_meters":5600,"station_id":"ce4bh9p2rcd13ifvqec0","pricing_plan_id":"cebpf4jnsgd1na2vs0mg"},{"bike_id":"7f82acb8-924f-41f5-9119-b3d7e4dcf745","system_id":"levelo_inurba_marseille","lat":43.24364,"lon":5.37067,"is_reserved":false,"is_disabled":false,"rental_uris":{"android":"levelo://app?vid=7f82acb8-924f-41f5-9119-b3d7e4dcf745","ios":"levelo://app?vid=7f82acb8-924f-41f5-9119-b3d7e4dcf745"},"vehicle_type_id":"4","last_reported":1770658897,"current_range_meters":5600,"station_id":"ce4bhhh2rcd13ifvqfk0","pricing_plan_id":"cebpf4jnsgd1na2vs0mg"},{"bike_id":"b815ae8b-6637-44b6-b494-3f5c37aef172","system_id":"levelo_inurba_marseille","lat":43.24549,"lon":5.39525,"is_reserved":false,"is_disabled":false,"rental_uris":{"android":"levelo://app?vid=b815ae8b-6637-44b6-b494-3f5c37aef172","ios":"levelo://app?vid=b815ae8b-6637-44b6-b494-3f5c37aef172"},"vehicle_type_id":"4","last_reported":1770658897,"current_range_meters":5600,"station_id":"ce4bhlp2rcd13ifvqgjg","pricing_plan_id":"cebpf4jnsgd1na2vs0mg"},{"bike_id":"5aba6095-7643-4143-8b09-182d2f94183c","system_id":"levelo_inurba_marseille","lat":43.29878,"lon":5.36272,"is_reserved":false,"is_disabled":false,"rental_uris":{"android":"levelo://app?vid=5aba6095-7643-4143-8b09-182d2f94183c","ios":"levelo://app?vid=5aba6095-7643-4143-8b09-182d2f94183c"},"vehicle_type_id":"4","last_reported":1770658897,"current_range_meters":6000,"station_id":"ce4bgpp2rcd13ifvqc3g","pricing_plan_id":"cebpf4jnsgd1na2vs0mg"},{"bike_id":"c84e4d83-04e3-449f-9895-86dc4df2d6fd","system_id":"levelo_inurba_marseille","lat":43.28311,"lon":5.39442,"is_reserved":false,"is_disabled":false,"rental_uris":{"android":"levelo://app?vid=c84e4d83-04e3-449f-9895-86dc4df2d6fd","ios":"levelo://app?vid=c84e4d83-04e3-449f-9895-86dc4df2d6fd"},"vehicle_type_id":"4","last_reported":1770658897,"current_range_meters":6000,"station_id":"","pricing_plan_id":"cebpf4jnsgd1na2vs0mg"},{"bike_id":"e261bb0b-89cd-4db4-a981-e239137e6052","system_id":"levelo_inurba_marseille","lat":43.31977,"lon":5.38136,"is_reserved":false,"is_disabled":false,"rental_uris":{"android":"levelo://app?vid=e261bb0b-89cd-4db4-a981-e239137e6052","ios":"levelo://app?vid=e261bb0b-89cd-4db4-a981-e239137e6052"},"vehicle_type_id":"4","last_reported":1770658897,"current_range_meters":6000,"station_id":"ce4bhr12rcd13ifvqhpg","pricing_plan_id":"cebpf4jnsgd1na2vs0mg"},{"bike_id":"d14ace5a-186c-45f9-b6a2-20b407091f63","system_id":"levelo_inurba_marseille","lat":43.31056,"lon":5.38362,"is_reserved":false,"is_disabled":false,"rental_uris":{"android":"levelo://app?vid=d14ace5a-186c-45f9-b6a2-20b407091f63","ios":"levelo://app?vid=d14ace5a-186c-45f9-b6a2-20b407091f63"},"vehicle_type_id":"4","last_reported":1770658897,"current_range_meters":6000,"station_id":"ce4bgv92rcd13ifvqcr0","pricing_plan_id":"cebpf4jnsgd1na2vs0mg"},{"bike_id":"e30b3334-061e-44e7-87aa-ca122a1fda19","system_id":"levelo_inurba_marseille","lat":43.27565,"lon":5.38415,"is_reserved":false,"is_disabled":false,"rental_uris":{"android":"levelo://app?vid=e30b3334-061e-44e7-87aa-ca122a1fda19","ios":"levelo://app?vid=e30b3334-061e-44e7-87aa-ca122a1fda19"},"vehicle_type_id":"4","last_reported":1770658897,"current_range_meters":6000,"station_id":"ce4bhh92rcd13ifvqfi0","pricing_plan_id":"cebpf4jnsgd1na2vs0mg"},{"bike_id":"12368bf8-ae48-4f4a-be21-dae2e49ece3c","system_id":"levelo_inurba_marseille","lat":43.27938,"lon":5.41044,"is_reserved":false,"is_disabled":false,"rental_uris":{"android":"levelo://app?vid=12368bf8-ae48-4f4a-be21-dae2e49ece3c","ios":"levelo://app?vid=12368bf8-ae48-4f4a-be21-dae2e49ece3c"},"vehicle_type_id":"4","last_reported":1770658897,"current_range_meters":6000,"station_id":"ce4bhnp2rcd13ifvqh0g","pricing_plan_id":"cebpf4jnsgd1na2vs0mg"},{"bike_id":"433ad7ef-6849-4732-ad07-f875450250d5","system_id":"levelo_inurba_marseille","lat":43.26808,"lon":5.4027,"is_reserved":false,"is_disabled":false,"rental_uris":{"android":"levelo://app?vid=433ad7ef-6849-4732-ad07-f875450250d5","ios":"levelo://app?vid=433ad7ef-6849-4732-ad07-f875450250d5"},"vehicle_type_id":"4","last_reported":1770658897,"current_range_meters":6000,"station_id":"ce501612rcd8frsf0b60","pricing_plan_id":"cebpf4jnsgd1na2vs0mg"},{"bike_id":"1adcbe6f-803a-426b-a2c4-f29ead84fbe1","system_id":"levelo_inurba_marseille","lat":43.286637,"lon":5.363536,"is_reserved":false,"is_disabled":false,"rental_uris":{"android":"levelo://app?vid=1adcbe6f-803a-426b-a2c4-f29ead84fbe1","ios":"levelo://app?vid=1adcbe6f-803a-426b-a2c4-f29ead84fbe1"},"vehicle_type_id":"4","last_reported":1770658897,"current_range_meters":6000,"station_id":"ce4bhah2rcd13ifvqej0","pricing_plan_id":"cebpf4jnsgd1na2vs0mg"},{"bike_id":"9bb8f078-a09f-4d20-94c1-1d54371a313d","system_id":"levelo_inurba_marseille","lat":43.29581,"lon":5.36737,"is_reserved":false,"is_disabled":false,"rental_uris":{"android":"levelo://app?vid=9bb8f078-a09f-4d20-94c1-1d54371a313d","ios":"levelo://app?vid=9bb8f078-a09f-4d20-94c1-1d54371a313d"},"vehicle_type_id":"4","last_reported":1770658897,"current_range_meters":6000,"station_id":"ce4bgph2rcd13ifvqc2g","pricing_plan_id":"cebpf4jnsgd1na2vs0mg"},{"bike_id":"43c3febf-6c6b-4f86-8774-9f22d317e272","system_id":"levelo_inurba_marseille","lat":43.31086,"lon":5.38361,"is_reserved":false,"is_disabled":false,"rental_uris":{"android":"levelo://app?vid=43c3febf-6c6b-4f86-8774-9f22d317e272","ios":"levelo://app?vid=43c3febf-6c6b-4f86-8774-9f22d317e272"},"vehicle_type_id":"4","last_reported":1770658897,"current_range_meters":6000,"station_id":"ce4bgv92rcd13ifvqcr0","pricing_plan_id":"cebpf4jnsgd1na2vs0mg"},{"bike_id":"5ae0a8e9-44fe-416c-9e89-69c0a3a0a7fc","system_id":"levelo_inurba_marseille","lat":43.28701,"lon":5.38671,"is_reserved":false,"is_disabled":false,"rental_uris":{"android":"levelo://app?vid=5ae0a8e9-44fe-416c-9e89-69c0a3a0a7fc","ios":"levelo://app?vid=5ae0a8e9-44fe-416c-9e89-69c0a3a0a7fc"},"vehicle_type_id":"4","last_reported":1770658897,"current_range_meters":6400,"station_id":"ce4bh492rcd13ifvqdug","pricing_plan_id":"cebpf4jnsgd1na2vs0mg"},{"bike_id":"a8875a14-acfc-4fef-b8a6-2a2eb41f9b0b","system_id":"levelo_inurba_marseille","lat":43.303,"lon":5.36915,"is_reserved":false,"is_disabled":false,"rental_uris":{"android":"levelo://app?vid=a8875a14-acfc-4fef-b8a6-2a2eb41f9b0b","ios":"levelo://app?vid=a8875a14-acfc-4fef-b8a6-2a2eb41f9b0b"},"vehicle_type_id":"4","last_reported":1770658897,"current_range_meters":6400,"station_id":"ce4bgqh2rcd13ifvqc5g","pricing_plan_id":"cebpf4jnsgd1na2vs0mg"},{"bike_id":"ea5b640c-f9cc-4437-aff2-20b9a17b6db1","system_id":"levelo_inurba_marseille","lat":43.259348,"lon":5.409041,"is_reserved":false,"is_disabled":false,"rental_uris":{"android":"levelo://app?vid=ea5b640c-f9cc-4437-aff2-20b9a17b6db1","ios":"levelo://app?vid=ea5b640c-f9cc-4437-aff2-20b9a17b6db1"},"vehicle_type_id":"4","last_reported":1770658897,"current_range_meters":6400,"station_id":"ce4bhm92rcd13ifvqglg","pricing_plan_id":"cebpf4jnsgd1na2vs0mg"},{"bike_id":"161154be-c143-4869-9d67-329ccef8f855","system_id":"levelo_inurba_marseille","lat":43.23965,"lon":5.36637,"is_reserved":false,"is_disabled":false,"rental_uris":{"android":"levelo://app?vid=161154be-c143-4869-9d67-329ccef8f855","ios":"levelo://app?vid=161154be-c143-4869-9d67-329ccef8f855"},"vehicle_type_id":"4","last_reported":1770658897,"current_range_meters":6400,"station_id":"ce4bhi12rcd13ifvqfp0","pricing_plan_id":"cebpf4jnsgd1na2vs0mg"},{"bike_id":"7b23c59a-e91f-4ebf-b287-e184212eaf2b","system_id":"levelo_inurba_marseille","lat":43.24647,"lon":5.38888,"is_reserved":false,"is_disabled":false,"rental_uris":{"android":"levelo://app?vid=7b23c59a-e91f-4ebf-b287-e184212eaf2b","ios":"levelo://app?vid=7b23c59a-e91f-4ebf-b287-e184212eaf2b"},"vehicle_type_id":"4","last_reported":1770658897,"current_range_meters":6400,"station_id":"ce4bhg12rcd13ifvqf60","pricing_plan_id":"cebpf4jnsgd1na2vs0mg"},{"bike_id":"a5acbbd9-5f45-4e0f-9727-2ba8aeddbdbb","system_id":"levelo_inurba_marseille","lat":43.30737,"lon":5.4243,"is_reserved":false,"is_disabled":false,"rental_uris":{"android":"levelo://app?vid=a5acbbd9-5f45-4e0f-9727-2ba8aeddbdbb","ios":"levelo://app?vid=a5acbbd9-5f45-4e0f-9727-2ba8aeddbdbb"},"vehicle_type_id":"4","last_reported":1770658897,"current_range_meters":6400,"station_id":"st_cvj6ca6bvosntc0bfgr0","pricing_plan_id":"cebpf4jnsgd1na2vs0mg"},{"bike_id":"e2c3118e-ecc2-476a-9be9-aafebb10c1c9","system_id":"levelo_inurba_marseille","lat":43.24622,"lon":5.43142,"is_reserved":false,"is_disabled":false,"rental_uris":{"android":"levelo://app?vid=e2c3118e-ecc2-476a-9be9-aafebb10c1c9","ios":"levelo://app?vid=e2c3118e-ecc2-476a-9be9-aafebb10c1c9"},"vehicle_type_id":"4","last_reported":1770658897,"current_range_meters":6400,"station_id":"st_d2m6c4gdas8pm72e190g","pricing_plan_id":"cebpf4jnsgd1na2vs0mg"},{"bike_id":"caf66e2d-43bc-439e-81c0-0d413255a8aa","system_id":"levelo_inurba_marseille","lat":43.29022,"lon":5.38649,"is_reserved":false,"is_disabled":false,"rental_uris":{"android":"levelo://app?vid=caf66e2d-43bc-439e-81c0-0d413255a8aa","ios":"levelo://app?vid=caf66e2d-43bc-439e-81c0-0d413255a8aa"},"vehicle_type_id":"4","last_reported":1770658897,"current_range_meters":6400,"station_id":"ce4bh4p2rcd13ifvqe0g","pricing_plan_id":"cebpf4jnsgd1na2vs0mg"},{"bike_id":"d20f90cf-97b5-4a7f-85bf-627422cd5f1a","system_id":"levelo_inurba_marseille","lat":43.23187,"lon":5.35547,"is_reserved":false,"is_disabled":false,"rental_uris":{"android":"levelo://app?vid=d20f90cf-97b5-4a7f-85bf-627422cd5f1a","ios":"levelo://app?vid=d20f90cf-97b5-4a7f-85bf-627422cd5f1a"},"vehicle_type_id":"4","last_reported":1770658897,"current_range_meters":6400,"station_id":"ce4bhu92rcd13ifvqi70","pricing_plan_id":"cebpf4jnsgd1na2vs0mg"},{"bike_id":"d5d0ae74-54fa-4b09-99f0-8e82e1b973d1","system_id":"levelo_inurba_marseille","lat":43.21745,"lon":5.34611,"is_reserved":false,"is_disabled":false,"rental_uris":{"android":"levelo://app?vid=d5d0ae74-54fa-4b09-99f0-8e82e1b973d1","ios":"levelo://app?vid=d5d0ae74-54fa-4b09-99f0-8e82e1b973d1"},"vehicle_type_id":"4","last_reported":1770658897,"current_range_meters":6400,"station_id":"","pricing_plan_id":"cebpf4jnsgd1na2vs0mg"},{"bike_id":"777f1f50-9ccf-46db-a1bf-cfe765ca1373","system_id":"levelo_inurba_marseille","lat":43.260668,"lon":5.393904,"is_reserved":false,"is_disabled":false,"rental_uris":{"android":"levelo://app?vid=777f1f50-9ccf-46db-a1bf-cfe765ca1373","ios":"levelo://app?vid=777f1f50-9ccf-46db-a1bf-cfe765ca1373"},"vehicle_type_id":"4","last_reported":1770658897,"current_range_meters":6400,"station_id":"ce4bhh92rcd13ifvqfj0","pricing_plan_id":"cebpf4jnsgd1na2vs0mg"},{"bike_id":"2a41a4e7-1277-4985-ba78-22bce5859488","system_id":"levelo_inurba_marseille","lat":43.259516,"lon":5.408991,"is_reserved":false,"is_disabled":false,"rental_uris":{"android":"levelo://app?vid=2a41a4e7-1277-4985-ba78-22bce5859488","ios":"levelo://app?vid=2a41a4e7-1277-4985-ba78-22bce5859488"},"vehicle_type_id":"4","last_reported":1770658897,"current_range_meters":6400,"station_id":"ce4bhm92rcd13ifvqglg","pricing_plan_id":"cebpf4jnsgd1na2vs0mg"},{"bike_id":"c50b88cc-61e5-4bbc-b2cf-70d6f889798b","system_id":"levelo_inurba_marseille","lat":43.26202,"lon":5.37933,"is_reserved":false,"is_disabled":false,"rental_uris":{"android":"levelo://app?vid=c50b88cc-61e5-4bbc-b2cf-70d6f889798b","ios":"levelo://app?vid=c50b88cc-61e5-4bbc-b2cf-70d6f889798b"},"vehicle_type_id":"4","last_reported":1770658897,"current_range_meters":6400,"station_id":"ce4bhjp2rcd13ifvqg90","pricing_plan_id":"cebpf4jnsgd1na2vs0mg"},{"bike_id":"b65a7e72-9e74-4b3f-b167-e422d10fb3a2","system_id":"levelo_inurba_marseille","lat":43.299501,"lon":5.385,"is_reserved":false,"is_disabled":false,"rental_uris":{"android":"levelo://app?vid=b65a7e72-9e74-4b3f-b167-e422d10fb3a2","ios":"levelo://app?vid=b65a7e72-9e74-4b3f-b167-e422d10fb3a2"},"vehicle_type_id":"4","last_reported":1770658897,"current_range_meters":6800,"station_id":"ce4bgj92rcd13ifvqbd0","pricing_plan_id":"cebpf4jnsgd1na2vs0mg"},{"bike_id":"8fbae36f-6659-45c1-9173-f2cc92b8e319","system_id":"levelo_inurba_marseille","lat":43.31894,"lon":5.4072,"is_reserved":false,"is_disabled":false,"rental_uris":{"android":"levelo://app?vid=8fbae36f-6659-45c1-9173-f2cc92b8e319","ios":"levelo://app?vid=8fbae36f-6659-45c1-9173-f2cc92b8e319"},"vehicle_type_id":"4","last_reported":1770658897,"current_range_meters":6800,"station_id":"ce4bhq12rcd13ifvqhig","pricing_plan_id":"cebpf4jnsgd1na2vs0mg"},{"bike_id":"fc830711-c6c4-41fc-8c3c-a2ef4151426a","system_id":"levelo_inurba_marseille","lat":43.26807,"lon":5.40271,"is_reserved":false,"is_disabled":false,"rental_uris":{"android":"levelo://app?vid=fc830711-c6c4-41fc-8c3c-a2ef4151426a","ios":"levelo://app?vid=fc830711-c6c4-41fc-8c3c-a2ef4151426a"},"vehicle_type_id":"4","last_reported":1770658897,"current_range_meters":6800,"station_id":"ce501612rcd8frsf0b60","pricing_plan_id":"cebpf4jnsgd1na2vs0mg"},{"bike_id":"ddac44a2-612d-45ef-8075-93888f85be8d","system_id":"levelo_inurba_marseille","lat":43.30327,"lon":5.40448,"is_reserved":false,"is_disabled":false,"rental_uris":{"android":"levelo://app?vid=ddac44a2-612d-45ef-8075-93888f85be8d","ios":"levelo://app?vid=ddac44a2-612d-45ef-8075-93888f85be8d"},"vehicle_type_id":"4","last_reported":1770658897,"current_range_meters":6800,"station_id":"ce4bh012rcd13ifvqd10","pricing_plan_id":"cebpf4jnsgd1na2vs0mg"},{"bike_id":"e392d9e4-679d-49ea-8209-6cc157225cab","system_id":"levelo_inurba_marseille","lat":43.25094,"lon":5.4035,"is_reserved":false,"is_disabled":false,"rental_uris":{"android":"levelo://app?vid=e392d9e4-679d-49ea-8209-6cc157225cab","ios":"levelo://app?vid=e392d9e4-679d-49ea-8209-6cc157225cab"},"vehicle_type_id":"4","last_reported":1770658897,"current_range_meters":6800,"station_id":"ce4bhlh2rcd13ifvqgig","pricing_plan_id":"cebpf4jnsgd1na2vs0mg"},{"bike_id":"d0279d16-0d20-4ac1-8638-35d9fd030ddf","system_id":"levelo_inurba_marseille","lat":43.27055,"lon":5.40258,"is_reserved":false,"is_disabled":false,"rental_uris":{"android":"levelo://app?vid=d0279d16-0d20-4ac1-8638-35d9fd030ddf","ios":"levelo://app?vid=d0279d16-0d20-4ac1-8638-35d9fd030ddf"},"vehicle_type_id":"4","last_reported":1770658897,"current_range_meters":6800,"station_id":"ce4bhk92rcd13ifvqgc0","pricing_plan_id":"cebpf4jnsgd1na2vs0mg"},{"bike_id":"c0b6c3eb-4055-48c5-be4e-2f3633e2e95f","system_id":"levelo_inurba_marseille","lat":43.22549,"lon":5.41627,"is_reserved":false,"is_disabled":false,"rental_uris":{"android":"levelo://app?vid=c0b6c3eb-4055-48c5-be4e-2f3633e2e95f","ios":"levelo://app?vid=c0b6c3eb-4055-48c5-be4e-2f3633e2e95f"},"vehicle_type_id":"4","last_reported":1770658897,"current_range_meters":6800,"station_id":"st_d2o4gvlbi1j2169b742g","pricing_plan_id":"cebpf4jnsgd1na2vs0mg"},{"bike_id":"bea8774e-054a-4609-897c-603d744c208c","system_id":"levelo_inurba_marseille","lat":43.28927,"lon":5.3665,"is_reserved":false,"is_disabled":false,"rental_uris":{"android":"levelo://app?vid=bea8774e-054a-4609-897c-603d744c208c","ios":"levelo://app?vid=bea8774e-054a-4609-897c-603d744c208c"},"vehicle_type_id":"4","last_reported":1770658897,"current_range_meters":6800,"station_id":"ce4bhap2rcd13ifvqek0","pricing_plan_id":"cebpf4jnsgd1na2vs0mg"},{"bike_id":"8842cd55-8be0-41dc-b44f-b223f5ee8301","system_id":"levelo_inurba_marseille","lat":43.305584,"lon":5.365476,"is_reserved":false,"is_disabled":false,"rental_uris":{"android":"levelo://app?vid=8842cd55-8be0-41dc-b44f-b223f5ee8301","ios":"levelo://app?vid=8842cd55-8be0-41dc-b44f-b223f5ee8301"},"vehicle_type_id":"4","last_reported":1770658897,"current_range_meters":6800,"station_id":"ce4bgs12rcd13ifvqcag","pricing_plan_id":"cebpf4jnsgd1na2vs0mg"},{"bike_id":"4ed74a89-631e-4f3d-9ffb-104dbcec7ce5","system_id":"levelo_inurba_marseille","lat":43.28001,"lon":5.40001,"is_reserved":false,"is_disabled":false,"rental_uris":{"android":"levelo://app?vid=4ed74a89-631e-4f3d-9ffb-104dbcec7ce5","ios":"levelo://app?vid=4ed74a89-631e-4f3d-9ffb-104dbcec7ce5"},"vehicle_type_id":"4","last_reported":1770658897,"current_range_meters":6800,"station_id":"ce4bho92rcd13ifvqh4g","pricing_plan_id":"cebpf4jnsgd1na2vs0mg"},{"bike_id":"e1242b72-e1d7-481b-8195-5c5f6d9a0b11","system_id":"levelo_inurba_marseille","lat":43.246359,"lon":5.431366,"is_reserved":false,"is_disabled":false,"rental_uris":{"android":"levelo://app?vid=e1242b72-e1d7-481b-8195-5c5f6d9a0b11","ios":"levelo://app?vid=e1242b72-e1d7-481b-8195-5c5f6d9a0b11"},"vehicle_type_id":"4","last_reported":1770658897,"current_range_meters":6800,"station_id":"st_d2m6c4gdas8pm72e190g","pricing_plan_id":"cebpf4jnsgd1na2vs0mg"},{"bike_id":"714adb90-f1ac-4859-ab1e-d48f2b2680c0","system_id":"levelo_inurba_marseille","lat":43.24806,"lon":5.37477,"is_reserved":false,"is_disabled":false,"rental_uris":{"android":"levelo://app?vid=714adb90-f1ac-4859-ab1e-d48f2b2680c0","ios":"levelo://app?vid=714adb90-f1ac-4859-ab1e-d48f2b2680c0"},"vehicle_type_id":"4","last_reported":1770658897,"current_range_meters":6800,"station_id":"ce4bhgh2rcd13ifvqfb0","pricing_plan_id":"cebpf4jnsgd1na2vs0mg"},{"bike_id":"c7bbf095-123b-4bee-ad41-9c67326d6c8c","system_id":"levelo_inurba_marseille","lat":43.26232,"lon":5.40451,"is_reserved":false,"is_disabled":false,"rental_uris":{"android":"levelo://app?vid=c7bbf095-123b-4bee-ad41-9c67326d6c8c","ios":"levelo://app?vid=c7bbf095-123b-4bee-ad41-9c67326d6c8c"},"vehicle_type_id":"4","last_reported":1770658897,"current_range_meters":6800,"station_id":"ce4bhmh2rcd13ifvqgmg","pricing_plan_id":"cebpf4jnsgd1na2vs0mg"},{"bike_id":"aa2bf0cd-9661-4d84-8b59-aed68b60696e","system_id":"levelo_inurba_marseille","lat":43.21745,"lon":5.34606,"is_reserved":false,"is_disabled":false,"rental_uris":{"android":"levelo://app?vid=aa2bf0cd-9661-4d84-8b59-aed68b60696e","ios":"levelo://app?vid=aa2bf0cd-9661-4d84-8b59-aed68b60696e"},"vehicle_type_id":"4","last_reported":1770658897,"current_range_meters":6800,"station_id":"st_cvj6r9ubvosntc0bgbag","pricing_plan_id":"cebpf4jnsgd1na2vs0mg"},{"bike_id":"4f801ac8-7e18-4f4e-813d-e2c4b2346d28","system_id":"levelo_inurba_marseille","lat":43.26585,"lon":5.39037,"is_reserved":false,"is_disabled":false,"rental_uris":{"android":"levelo://app?vid=4f801ac8-7e18-4f4e-813d-e2c4b2346d28","ios":"levelo://app?vid=4f801ac8-7e18-4f4e-813d-e2c4b2346d28"},"vehicle_type_id":"4","last_reported":1770658897,"current_range_meters":6800,"station_id":"ce4bhe12rcd13ifvqf30","pricing_plan_id":"cebpf4jnsgd1na2vs0mg"},{"bike_id":"245f3a00-5ae9-48cf-b7da-8774ff9b41ba","system_id":"levelo_inurba_marseille","lat":43.284763,"lon":5.483952,"is_reserved":false,"is_disabled":false,"rental_uris":{"android":"levelo://app?vid=245f3a00-5ae9-48cf-b7da-8774ff9b41ba","ios":"levelo://app?vid=245f3a00-5ae9-48cf-b7da-8774ff9b41ba"},"vehicle_type_id":"4","last_reported":1770658897,"current_range_meters":7200,"station_id":"","pricing_plan_id":"cebpf4jnsgd1na2vs0mg"},{"bike_id":"16a1688f-c2f5-4bf5-96dc-0466fbc0522d","system_id":"levelo_inurba_marseille","lat":43.279656,"lon":5.387009,"is_reserved":false,"is_disabled":false,"rental_uris":{"android":"levelo://app?vid=16a1688f-c2f5-4bf5-96dc-0466fbc0522d","ios":"levelo://app?vid=16a1688f-c2f5-4bf5-96dc-0466fbc0522d"},"vehicle_type_id":"4","last_reported":1770658897,"current_range_meters":7200,"station_id":"ce4bhg12rcd13ifvqf80","pricing_plan_id":"cebpf4jnsgd1na2vs0mg"},{"bike_id":"7d59f1f1-2621-4853-91a8-34ee2eea3bf8","system_id":"levelo_inurba_marseille","lat":43.243894,"lon":5.370886,"is_reserved":false,"is_disabled":false,"rental_uris":{"android":"levelo://app?vid=7d59f1f1-2621-4853-91a8-34ee2eea3bf8","ios":"levelo://app?vid=7d59f1f1-2621-4853-91a8-34ee2eea3bf8"},"vehicle_type_id":"4","last_reported":1770658897,"current_range_meters":7200,"station_id":"ce4bhhh2rcd13ifvqfk0","pricing_plan_id":"cebpf4jnsgd1na2vs0mg"},{"bike_id":"66b8c662-1664-4cba-89a6-3b57c247b22f","system_id":"levelo_inurba_marseille","lat":43.31103,"lon":5.39608,"is_reserved":false,"is_disabled":false,"rental_uris":{"android":"levelo://app?vid=66b8c662-1664-4cba-89a6-3b57c247b22f","ios":"levelo://app?vid=66b8c662-1664-4cba-89a6-3b57c247b22f"},"vehicle_type_id":"4","last_reported":1770658897,"current_range_meters":7200,"station_id":"","pricing_plan_id":"cebpf4jnsgd1na2vs0mg"},{"bike_id":"0460d08b-9eee-490e-a660-bbd5c5041233","system_id":"levelo_inurba_marseille","lat":43.25,"lon":5.38943,"is_reserved":false,"is_disabled":false,"rental_uris":{"android":"levelo://app?vid=0460d08b-9eee-490e-a660-bbd5c5041233","ios":"levelo://app?vid=0460d08b-9eee-490e-a660-bbd5c5041233"},"vehicle_type_id":"4","last_reported":1770658897,"current_range_meters":7200,"station_id":"ce4bhgp2rcd13ifvqfd0","pricing_plan_id":"cebpf4jnsgd1na2vs0mg"},{"bike_id":"db2e5c22-9f82-4c32-b356-f06e3f0ce6ed","system_id":"levelo_inurba_marseille","lat":43.24069,"lon":5.37752,"is_reserved":false,"is_disabled":false,"rental_uris":{"android":"levelo://app?vid=db2e5c22-9f82-4c32-b356-f06e3f0ce6ed","ios":"levelo://app?vid=db2e5c22-9f82-4c32-b356-f06e3f0ce6ed"},"vehicle_type_id":"4","last_reported":1770658897,"current_range_meters":7200,"station_id":"ce4bhnp2rcd13ifvqgvg","pricing_plan_id":"cebpf4jnsgd1na2vs0mg"},{"bike_id":"fe6f8294-65ba-45f1-a4f6-c1ee0f12ef18","system_id":"levelo_inurba_marseille","lat":43.2256,"lon":5.4164,"is_reserved":false,"is_disabled":false,"rental_uris":{"android":"levelo://app?vid=fe6f8294-65ba-45f1-a4f6-c1ee0f12ef18","ios":"levelo://app?vid=fe6f8294-65ba-45f1-a4f6-c1ee0f12ef18"},"vehicle_type_id":"4","last_reported":1770658897,"current_range_meters":7200,"station_id":"st_d2o4gvlbi1j2169b742g","pricing_plan_id":"cebpf4jnsgd1na2vs0mg"},{"bike_id":"d6e0f210-46b5-4d7e-8bfd-97815e82e64a","system_id":"levelo_inurba_marseille","lat":43.28669,"lon":5.363515,"is_reserved":false,"is_disabled":false,"rental_uris":{"android":"levelo://app?vid=d6e0f210-46b5-4d7e-8bfd-97815e82e64a","ios":"levelo://app?vid=d6e0f210-46b5-4d7e-8bfd-97815e82e64a"},"vehicle_type_id":"4","last_reported":1770658897,"current_range_meters":7200,"station_id":"ce4bhah2rcd13ifvqej0","pricing_plan_id":"cebpf4jnsgd1na2vs0mg"},{"bike_id":"e83d9e2f-7571-4d83-99bc-489b34ff4643","system_id":"levelo_inurba_marseille","lat":43.2533,"lon":5.42164,"is_reserved":false,"is_disabled":false,"rental_uris":{"android":"levelo://app?vid=e83d9e2f-7571-4d83-99bc-489b34ff4643","ios":"levelo://app?vid=e83d9e2f-7571-4d83-99bc-489b34ff4643"},"vehicle_type_id":"4","last_reported":1770658897,"current_range_meters":7200,"station_id":"st_d2m65c5bi1j21697t3ng","pricing_plan_id":"cebpf4jnsgd1na2vs0mg"},{"bike_id":"1cb6ee0d-bb55-404e-86d8-7a4dbff2977d","system_id":"levelo_inurba_marseille","lat":43.2657,"lon":5.39014,"is_reserved":false,"is_disabled":false,"rental_uris":{"android":"levelo://app?vid=1cb6ee0d-bb55-404e-86d8-7a4dbff2977d","ios":"levelo://app?vid=1cb6ee0d-bb55-404e-86d8-7a4dbff2977d"},"vehicle_type_id":"4","last_reported":1770658897,"current_range_meters":7200,"station_id":"ce4bhe12rcd13ifvqf30","pricing_plan_id":"cebpf4jnsgd1na2vs0mg"},{"bike_id":"3391746c-36bc-474e-9544-31d43577c23a","system_id":"levelo_inurba_marseille","lat":43.29253,"lon":5.38444,"is_reserved":false,"is_disabled":false,"rental_uris":{"android":"levelo://app?vid=3391746c-36bc-474e-9544-31d43577c23a","ios":"levelo://app?vid=3391746c-36bc-474e-9544-31d43577c23a"},"vehicle_type_id":"4","last_reported":1770658897,"current_range_meters":7200,"station_id":"ce4bh692rcd13ifvqea0","pricing_plan_id":"cebpf4jnsgd1na2vs0mg"},{"bike_id":"91fdd7ab-d339-4963-8616-9757378509a7","system_id":"levelo_inurba_marseille","lat":43.286082,"lon":5.370626,"is_reserved":false,"is_disabled":false,"rental_uris":{"android":"levelo://app?vid=91fdd7ab-d339-4963-8616-9757378509a7","ios":"levelo://app?vid=91fdd7ab-d339-4963-8616-9757378509a7"},"vehicle_type_id":"4","last_reported":1770658897,"current_range_meters":7200,"station_id":"ce4bht12rcd13ifvqi60","pricing_plan_id":"cebpf4jnsgd1na2vs0mg"},{"bike_id":"628a6edd-7c9c-4f62-8062-db3f971950ec","system_id":"levelo_inurba_marseille","lat":43.28952,"lon":5.3641,"is_reserved":false,"is_disabled":false,"rental_uris":{"android":"levelo://app?vid=628a6edd-7c9c-4f62-8062-db3f971950ec","ios":"levelo://app?vid=628a6edd-7c9c-4f62-8062-db3f971950ec"},"vehicle_type_id":"4","last_reported":1770658897,"current_range_meters":7200,"station_id":"ce4bhc92rcd13ifvqetg","pricing_plan_id":"cebpf4jnsgd1na2vs0mg"},{"bike_id":"0c19d373-6eb2-4333-8212-205e194a0e67","system_id":"levelo_inurba_marseille","lat":43.24396,"lon":5.37076,"is_reserved":false,"is_disabled":false,"rental_uris":{"android":"levelo://app?vid=0c19d373-6eb2-4333-8212-205e194a0e67","ios":"levelo://app?vid=0c19d373-6eb2-4333-8212-205e194a0e67"},"vehicle_type_id":"4","last_reported":1770658897,"current_range_meters":7200,"station_id":"ce4bhhh2rcd13ifvqfk0","pricing_plan_id":"cebpf4jnsgd1na2vs0mg"},{"bike_id":"6e043c13-5a31-4e0d-9658-13d292ba1363","system_id":"levelo_inurba_marseille","lat":43.26199,"lon":5.37937,"is_reserved":false,"is_disabled":false,"rental_uris":{"android":"levelo://app?vid=6e043c13-5a31-4e0d-9658-13d292ba1363","ios":"levelo://app?vid=6e043c13-5a31-4e0d-9658-13d292ba1363"},"vehicle_type_id":"4","last_reported":1770658897,"current_range_meters":7200,"station_id":"ce4bhjp2rcd13ifvqg90","pricing_plan_id":"cebpf4jnsgd1na2vs0mg"},{"bike_id":"7e01f57b-ade8-4cc3-81c3-76e88fac1321","system_id":"levelo_inurba_marseille","lat":43.28488,"lon":5.48414,"is_reserved":false,"is_disabled":false,"rental_uris":{"android":"levelo://app?vid=7e01f57b-ade8-4cc3-81c3-76e88fac1321","ios":"levelo://app?vid=7e01f57b-ade8-4cc3-81c3-76e88fac1321"},"vehicle_type_id":"4","last_reported":1770658897,"current_range_meters":7200,"station_id":"st_d3svhcjqgbts73a3dn0g","pricing_plan_id":"cebpf4jnsgd1na2vs0mg"},{"bike_id":"3e1c1a76-0035-4af4-884d-43dbcb7bca0c","system_id":"levelo_inurba_marseille","lat":43.24069,"lon":5.37766,"is_reserved":false,"is_disabled":false,"rental_uris":{"android":"levelo://app?vid=3e1c1a76-0035-4af4-884d-43dbcb7bca0c","ios":"levelo://app?vid=3e1c1a76-0035-4af4-884d-43dbcb7bca0c"},"vehicle_type_id":"4","last_reported":1770658897,"current_range_meters":7200,"station_id":"ce4bhnp2rcd13ifvqgvg","pricing_plan_id":"cebpf4jnsgd1na2vs0mg"},{"bike_id":"ecba058e-d24b-4d87-b6d6-ca7d50108477","system_id":"levelo_inurba_marseille","lat":43.266,"lon":5.39035,"is_reserved":false,"is_disabled":false,"rental_uris":{"android":"levelo://app?vid=ecba058e-d24b-4d87-b6d6-ca7d50108477","ios":"levelo://app?vid=ecba058e-d24b-4d87-b6d6-ca7d50108477"},"vehicle_type_id":"4","last_reported":1770658897,"current_range_meters":7200,"station_id":"ce4bhe12rcd13ifvqf30","pricing_plan_id":"cebpf4jnsgd1na2vs0mg"},{"bike_id":"40ca09fe-7866-480e-ac60-f7b7f539bb36","system_id":"levelo_inurba_marseille","lat":43.2339,"lon":5.41221,"is_reserved":false,"is_disabled":false,"rental_uris":{"android":"levelo://app?vid=40ca09fe-7866-480e-ac60-f7b7f539bb36","ios":"levelo://app?vid=40ca09fe-7866-480e-ac60-f7b7f539bb36"},"vehicle_type_id":"4","last_reported":1770658897,"current_range_meters":7200,"station_id":"","pricing_plan_id":"cebpf4jnsgd1na2vs0mg"},{"bike_id":"9a0a4f5b-d5f2-4be0-a4fa-450256499716","system_id":"levelo_inurba_marseille","lat":43.26982,"lon":5.39892,"is_reserved":false,"is_disabled":false,"rental_uris":{"android":"levelo://app?vid=9a0a4f5b-d5f2-4be0-a4fa-450256499716","ios":"levelo://app?vid=9a0a4f5b-d5f2-4be0-a4fa-450256499716"},"vehicle_type_id":"4","last_reported":1770658897,"current_range_meters":7200,"station_id":"","pricing_plan_id":"cebpf4jnsgd1na2vs0mg"},{"bike_id":"631ca18a-8f45-4674-bb51-5eec2347caad","system_id":"levelo_inurba_marseille","lat":43.24649,"lon":5.38156,"is_reserved":false,"is_disabled":false,"rental_uris":{"android":"levelo://app?vid=631ca18a-8f45-4674-bb51-5eec2347caad","ios":"levelo://app?vid=631ca18a-8f45-4674-bb51-5eec2347caad"},"vehicle_type_id":"4","last_reported":1770658897,"current_range_meters":7200,"station_id":"ce4bhih2rcd13ifvqfr0","pricing_plan_id":"cebpf4jnsgd1na2vs0mg"},{"bike_id":"e33efbdb-b18e-4f91-8d36-86f7ebbbe3be","system_id":"levelo_inurba_marseille","lat":43.29524,"lon":5.39034,"is_reserved":false,"is_disabled":false,"rental_uris":{"android":"levelo://app?vid=e33efbdb-b18e-4f91-8d36-86f7ebbbe3be","ios":"levelo://app?vid=e33efbdb-b18e-4f91-8d36-86f7ebbbe3be"},"vehicle_type_id":"4","last_reported":1770658897,"current_range_meters":7200,"station_id":"ce4bh3p2rcd13ifvqdp0","pricing_plan_id":"cebpf4jnsgd1na2vs0mg"},{"bike_id":"9ed8aed5-a532-46b0-aced-16133eee57c8","system_id":"levelo_inurba_marseille","lat":43.29916,"lon":5.37481,"is_reserved":false,"is_disabled":false,"rental_uris":{"android":"levelo://app?vid=9ed8aed5-a532-46b0-aced-16133eee57c8","ios":"levelo://app?vid=9ed8aed5-a532-46b0-aced-16133eee57c8"},"vehicle_type_id":"4","last_reported":1770658897,"current_range_meters":7200,"station_id":"ce4bgjh2rcd13ifvqbg0","pricing_plan_id":"cebpf4jnsgd1na2vs0mg"},{"bike_id":"54bd52e6-912c-41e4-90a6-85e5c05a7d3d","system_id":"levelo_inurba_marseille","lat":43.2258,"lon":5.41641,"is_reserved":false,"is_disabled":false,"rental_uris":{"android":"levelo://app?vid=54bd52e6-912c-41e4-90a6-85e5c05a7d3d","ios":"levelo://app?vid=54bd52e6-912c-41e4-90a6-85e5c05a7d3d"},"vehicle_type_id":"4","last_reported":1770658897,"current_range_meters":8000,"station_id":"st_d2o4gvlbi1j2169b742g","pricing_plan_id":"cebpf4jnsgd1na2vs0mg"},{"bike_id":"fd158031-c8ec-435b-b315-8360533800f5","system_id":"levelo_inurba_marseille","lat":43.26234,"lon":5.40445,"is_reserved":false,"is_disabled":true,"rental_uris":{"android":"levelo://app?vid=fd158031-c8ec-435b-b315-8360533800f5","ios":"levelo://app?vid=fd158031-c8ec-435b-b315-8360533800f5"},"vehicle_type_id":"4","last_reported":1770658897,"current_range_meters":8000,"station_id":"ce4bhmh2rcd13ifvqgmg","pricing_plan_id":"cebpf4jnsgd1na2vs0mg"},{"bike_id":"a07cd24c-7e73-437e-917a-60bdbc1072fc","system_id":"levelo_inurba_marseille","lat":43.24389,"lon":5.3712,"is_reserved":false,"is_disabled":false,"rental_uris":{"android":"levelo://app?vid=a07cd24c-7e73-437e-917a-60bdbc1072fc","ios":"levelo://app?vid=a07cd24c-7e73-437e-917a-60bdbc1072fc"},"vehicle_type_id":"4","last_reported":1770658897,"current_range_meters":8000,"station_id":"ce4bhhh2rcd13ifvqfk0","pricing_plan_id":"cebpf4jnsgd1na2vs0mg"},{"bike_id":"c5712278-a77a-4bc7-b041-a82fe0534abd","system_id":"levelo_inurba_marseille","lat":43.27624,"lon":5.361073,"is_reserved":false,"is_disabled":false,"rental_uris":{"android":"levelo://app?vid=c5712278-a77a-4bc7-b041-a82fe0534abd","ios":"levelo://app?vid=c5712278-a77a-4bc7-b041-a82fe0534abd"},"vehicle_type_id":"4","last_reported":1770658897,"current_range_meters":8000,"station_id":"ce4bgj92rcd13ifvqbe0","pricing_plan_id":"cebpf4jnsgd1na2vs0mg"},{"bike_id":"f23a5ea8-cccd-472e-abcc-91e4bbd449a7","system_id":"levelo_inurba_marseille","lat":43.303142,"lon":5.369102,"is_reserved":false,"is_disabled":true,"rental_uris":{"android":"levelo://app?vid=f23a5ea8-cccd-472e-abcc-91e4bbd449a7","ios":"levelo://app?vid=f23a5ea8-cccd-472e-abcc-91e4bbd449a7"},"vehicle_type_id":"4","last_reported":1770658897,"current_range_meters":8000,"station_id":"ce4bgqh2rcd13ifvqc5g","pricing_plan_id":"cebpf4jnsgd1na2vs0mg"},{"bike_id":"0d435044-39b2-4402-857a-610b31675306","system_id":"levelo_inurba_marseille","lat":43.31071,"lon":5.37437,"is_reserved":false,"is_disabled":false,"rental_uris":{"android":"levelo://app?vid=0d435044-39b2-4402-857a-610b31675306","ios":"levelo://app?vid=0d435044-39b2-4402-857a-610b31675306"},"vehicle_type_id":"4","last_reported":1770658897,"current_range_meters":8000,"station_id":"","pricing_plan_id":"cebpf4jnsgd1na2vs0mg"},{"bike_id":"8d65ea59-159e-4e8e-8acb-244f43059bc9","system_id":"levelo_inurba_marseille","lat":43.24166,"lon":5.36394,"is_reserved":false,"is_disabled":false,"rental_uris":{"android":"levelo://app?vid=8d65ea59-159e-4e8e-8acb-244f43059bc9","ios":"levelo://app?vid=8d65ea59-159e-4e8e-8acb-244f43059bc9"},"vehicle_type_id":"4","last_reported":1770658897,"current_range_meters":8000,"station_id":"cpo36qri1sfpv3e86is0","pricing_plan_id":"cebpf4jnsgd1na2vs0mg"},{"bike_id":"36ac8fb1-1e6b-4c04-8e8e-9441a471d5f6","system_id":"levelo_inurba_marseille","lat":43.284761,"lon":5.483954,"is_reserved":false,"is_disabled":false,"rental_uris":{"android":"levelo://app?vid=36ac8fb1-1e6b-4c04-8e8e-9441a471d5f6","ios":"levelo://app?vid=36ac8fb1-1e6b-4c04-8e8e-9441a471d5f6"},"vehicle_type_id":"4","last_reported":1770658897,"current_range_meters":8000,"station_id":"","pricing_plan_id":"cebpf4jnsgd1na2vs0mg"},{"bike_id":"044ebb5a-bde4-4786-ae06-83cf89d8e652","system_id":"levelo_inurba_marseille","lat":43.29633,"lon":5.40598,"is_reserved":false,"is_disabled":false,"rental_uris":{"android":"levelo://app?vid=044ebb5a-bde4-4786-ae06-83cf89d8e652","ios":"levelo://app?vid=044ebb5a-bde4-4786-ae06-83cf89d8e652"},"vehicle_type_id":"4","last_reported":1770658897,"current_range_meters":8000,"station_id":"ce4bh0h2rcd13ifvqd60","pricing_plan_id":"cebpf4jnsgd1na2vs0mg"},{"bike_id":"d917330e-8029-461a-95c3-ed551a62a88f","system_id":"levelo_inurba_marseille","lat":43.22561,"lon":5.41631,"is_reserved":false,"is_disabled":false,"rental_uris":{"android":"levelo://app?vid=d917330e-8029-461a-95c3-ed551a62a88f","ios":"levelo://app?vid=d917330e-8029-461a-95c3-ed551a62a88f"},"vehicle_type_id":"4","last_reported":1770658897,"current_range_meters":8000,"station_id":"st_d2o4gvlbi1j2169b742g","pricing_plan_id":"cebpf4jnsgd1na2vs0mg"},{"bike_id":"8f91f29e-0897-43d8-a3cf-8b8240b92337","system_id":"levelo_inurba_marseille","lat":43.29901,"lon":5.43665,"is_reserved":false,"is_disabled":false,"rental_uris":{"android":"levelo://app?vid=8f91f29e-0897-43d8-a3cf-8b8240b92337","ios":"levelo://app?vid=8f91f29e-0897-43d8-a3cf-8b8240b92337"},"vehicle_type_id":"4","last_reported":1770658897,"current_range_meters":8000,"station_id":"ce4bhpp2rcd13ifvqhfg","pricing_plan_id":"cebpf4jnsgd1na2vs0mg"},{"bike_id":"58727422-ac1d-461d-8326-ead3ab6a5bb0","system_id":"levelo_inurba_marseille","lat":43.25844,"lon":5.39894,"is_reserved":false,"is_disabled":false,"rental_uris":{"android":"levelo://app?vid=58727422-ac1d-461d-8326-ead3ab6a5bb0","ios":"levelo://app?vid=58727422-ac1d-461d-8326-ead3ab6a5bb0"},"vehicle_type_id":"4","last_reported":1770658897,"current_range_meters":8000,"station_id":"ce4bhl92rcd13ifvqghg","pricing_plan_id":"cebpf4jnsgd1na2vs0mg"},{"bike_id":"cc3264f7-a3be-4553-8fa5-6bd52a1622a2","system_id":"levelo_inurba_marseille","lat":43.28722,"lon":5.3794,"is_reserved":false,"is_disabled":false,"rental_uris":{"android":"levelo://app?vid=cc3264f7-a3be-4553-8fa5-6bd52a1622a2","ios":"levelo://app?vid=cc3264f7-a3be-4553-8fa5-6bd52a1622a2"},"vehicle_type_id":"4","last_reported":1770658897,"current_range_meters":8000,"station_id":"ce4bh9p2rcd13ifvqec0","pricing_plan_id":"cebpf4jnsgd1na2vs0mg"},{"bike_id":"286b6ff3-cad3-40cc-8457-9f3961da585f","system_id":"levelo_inurba_marseille","lat":43.26019,"lon":5.37561,"is_reserved":false,"is_disabled":false,"rental_uris":{"android":"levelo://app?vid=286b6ff3-cad3-40cc-8457-9f3961da585f","ios":"levelo://app?vid=286b6ff3-cad3-40cc-8457-9f3961da585f"},"vehicle_type_id":"4","last_reported":1770658897,"current_range_meters":8000,"station_id":"ce4bhgh2rcd13ifvqfa0","pricing_plan_id":"cebpf4jnsgd1na2vs0mg"},{"bike_id":"2deb45fa-cb82-48cc-9169-0ddc074570fe","system_id":"levelo_inurba_marseille","lat":43.311602,"lon":5.446758,"is_reserved":false,"is_disabled":false,"rental_uris":{"android":"levelo://app?vid=2deb45fa-cb82-48cc-9169-0ddc074570fe","ios":"levelo://app?vid=2deb45fa-cb82-48cc-9169-0ddc074570fe"},"vehicle_type_id":"4","last_reported":1770658897,"current_range_meters":8000,"station_id":"","pricing_plan_id":"cebpf4jnsgd1na2vs0mg"},{"bike_id":"d6195aeb-2083-4917-b0e4-f18b0ad3a69c","system_id":"levelo_inurba_marseille","lat":43.29901,"lon":5.37472,"is_reserved":false,"is_disabled":false,"rental_uris":{"android":"levelo://app?vid=d6195aeb-2083-4917-b0e4-f18b0ad3a69c","ios":"levelo://app?vid=d6195aeb-2083-4917-b0e4-f18b0ad3a69c"},"vehicle_type_id":"4","last_reported":1770658897,"current_range_meters":8000,"station_id":"ce4bgjh2rcd13ifvqbg0","pricing_plan_id":"cebpf4jnsgd1na2vs0mg"},{"bike_id":"6e79fd0f-9e8e-4459-8240-57d4fd86c647","system_id":"levelo_inurba_marseille","lat":43.29762,"lon":5.38146,"is_reserved":false,"is_disabled":false,"rental_uris":{"android":"levelo://app?vid=6e79fd0f-9e8e-4459-8240-57d4fd86c647","ios":"levelo://app?vid=6e79fd0f-9e8e-4459-8240-57d4fd86c647"},"vehicle_type_id":"4","last_reported":1770658897,"current_range_meters":8000,"station_id":"","pricing_plan_id":"cebpf4jnsgd1na2vs0mg"},{"bike_id":"6316a440-6079-4cd7-8710-8e12c6c0a2b7","system_id":"levelo_inurba_marseille","lat":43.29903,"lon":5.43672,"is_reserved":false,"is_disabled":false,"rental_uris":{"android":"levelo://app?vid=6316a440-6079-4cd7-8710-8e12c6c0a2b7","ios":"levelo://app?vid=6316a440-6079-4cd7-8710-8e12c6c0a2b7"},"vehicle_type_id":"4","last_reported":1770658897,"current_range_meters":8000,"station_id":"ce4bhpp2rcd13ifvqhfg","pricing_plan_id":"cebpf4jnsgd1na2vs0mg"},{"bike_id":"af109b45-02d2-41f8-be4b-42b484fd3394","system_id":"levelo_inurba_marseille","lat":43.298999,"lon":5.436683,"is_reserved":false,"is_disabled":false,"rental_uris":{"android":"levelo://app?vid=af109b45-02d2-41f8-be4b-42b484fd3394","ios":"levelo://app?vid=af109b45-02d2-41f8-be4b-42b484fd3394"},"vehicle_type_id":"4","last_reported":1770658897,"current_range_meters":8000,"station_id":"ce4bhpp2rcd13ifvqhfg","pricing_plan_id":"cebpf4jnsgd1na2vs0mg"},{"bike_id":"e06f08c2-4e8e-42eb-b9b8-56cb1eb82eda","system_id":"levelo_inurba_marseille","lat":43.30197,"lon":5.36635,"is_reserved":false,"is_disabled":false,"rental_uris":{"android":"levelo://app?vid=e06f08c2-4e8e-42eb-b9b8-56cb1eb82eda","ios":"levelo://app?vid=e06f08c2-4e8e-42eb-b9b8-56cb1eb82eda"},"vehicle_type_id":"4","last_reported":1770658897,"current_range_meters":8000,"station_id":"ce4bgrh2rcd13ifvqc8g","pricing_plan_id":"cebpf4jnsgd1na2vs0mg"},{"bike_id":"7f6ef8fc-1579-4912-b00d-edf7547220b9","system_id":"levelo_inurba_marseille","lat":43.27063,"lon":5.42273,"is_reserved":false,"is_disabled":false,"rental_uris":{"android":"levelo://app?vid=7f6ef8fc-1579-4912-b00d-edf7547220b9","ios":"levelo://app?vid=7f6ef8fc-1579-4912-b00d-edf7547220b9"},"vehicle_type_id":"4","last_reported":1770658897,"current_range_meters":8400,"station_id":"ce4bhk92rcd13ifvqgb0","pricing_plan_id":"cebpf4jnsgd1na2vs0mg"},{"bike_id":"1867ef81-cf62-4e81-bfa8-83561c8efb53","system_id":"levelo_inurba_marseille","lat":43.30118,"lon":5.39885,"is_reserved":false,"is_disabled":false,"rental_uris":{"android":"levelo://app?vid=1867ef81-cf62-4e81-bfa8-83561c8efb53","ios":"levelo://app?vid=1867ef81-cf62-4e81-bfa8-83561c8efb53"},"vehicle_type_id":"4","last_reported":1770658897,"current_range_meters":8400,"station_id":"ce4bh0h2rcd13ifvqd40","pricing_plan_id":"cebpf4jnsgd1na2vs0mg"},{"bike_id":"f3d824e5-75b7-4f30-9709-e01495830ce5","system_id":"levelo_inurba_marseille","lat":43.25576,"lon":5.38244,"is_reserved":false,"is_disabled":false,"rental_uris":{"android":"levelo://app?vid=f3d824e5-75b7-4f30-9709-e01495830ce5","ios":"levelo://app?vid=f3d824e5-75b7-4f30-9709-e01495830ce5"},"vehicle_type_id":"4","last_reported":1770658897,"current_range_meters":8400,"station_id":"ce4bhih2rcd13ifvqfs0","pricing_plan_id":"cebpf4jnsgd1na2vs0mg"},{"bike_id":"da8d7686-ef2d-478f-96b6-48f38f076709","system_id":"levelo_inurba_marseille","lat":43.28726,"lon":5.3794,"is_reserved":false,"is_disabled":false,"rental_uris":{"android":"levelo://app?vid=da8d7686-ef2d-478f-96b6-48f38f076709","ios":"levelo://app?vid=da8d7686-ef2d-478f-96b6-48f38f076709"},"vehicle_type_id":"4","last_reported":1770658897,"current_range_meters":8400,"station_id":"ce4bh9p2rcd13ifvqec0","pricing_plan_id":"cebpf4jnsgd1na2vs0mg"},{"bike_id":"83062ade-c076-467d-b125-720c7e101dca","system_id":"levelo_inurba_marseille","lat":43.29606,"lon":5.37742,"is_reserved":false,"is_disabled":true,"rental_uris":{"android":"levelo://app?vid=83062ade-c076-467d-b125-720c7e101dca","ios":"levelo://app?vid=83062ade-c076-467d-b125-720c7e101dca"},"vehicle_type_id":"4","last_reported":1770658897,"current_range_meters":8400,"station_id":"ce4bgi92rcd13ifvqb90","pricing_plan_id":"cebpf4jnsgd1na2vs0mg"},{"bike_id":"1fa76a45-f289-437d-94cc-e8c22daeef5f","system_id":"levelo_inurba_marseille","lat":43.28859,"lon":5.42525,"is_reserved":false,"is_disabled":false,"rental_uris":{"android":"levelo://app?vid=1fa76a45-f289-437d-94cc-e8c22daeef5f","ios":"levelo://app?vid=1fa76a45-f289-437d-94cc-e8c22daeef5f"},"vehicle_type_id":"4","last_reported":1770658897,"current_range_meters":8400,"station_id":"st_d3b462108ojc7389ooeg","pricing_plan_id":"cebpf4jnsgd1na2vs0mg"},{"bike_id":"9fb181e0-356c-4fb2-b132-4ff9032543f8","system_id":"levelo_inurba_marseille","lat":43.28622,"lon":5.35102,"is_reserved":false,"is_disabled":false,"rental_uris":{"android":"levelo://app?vid=9fb181e0-356c-4fb2-b132-4ff9032543f8","ios":"levelo://app?vid=9fb181e0-356c-4fb2-b132-4ff9032543f8"},"vehicle_type_id":"4","last_reported":1770658897,"current_range_meters":8400,"station_id":"ce4bhch2rcd13ifvqeug","pricing_plan_id":"cebpf4jnsgd1na2vs0mg"},{"bike_id":"738ace95-69b5-422f-91a8-940bb61d6675","system_id":"levelo_inurba_marseille","lat":43.32113,"lon":5.36843,"is_reserved":false,"is_disabled":false,"rental_uris":{"android":"levelo://app?vid=738ace95-69b5-422f-91a8-940bb61d6675","ios":"levelo://app?vid=738ace95-69b5-422f-91a8-940bb61d6675"},"vehicle_type_id":"4","last_reported":1770658897,"current_range_meters":8400,"station_id":"","pricing_plan_id":"cebpf4jnsgd1na2vs0mg"},{"bike_id":"33d39168-43b4-4aa2-888d-aa4d04950579","system_id":"levelo_inurba_marseille","lat":43.251277,"lon":5.402967,"is_reserved":false,"is_disabled":false,"rental_uris":{"android":"levelo://app?vid=33d39168-43b4-4aa2-888d-aa4d04950579","ios":"levelo://app?vid=33d39168-43b4-4aa2-888d-aa4d04950579"},"vehicle_type_id":"4","last_reported":1770658897,"current_range_meters":8400,"station_id":"ce4bhlh2rcd13ifvqgig","pricing_plan_id":"cebpf4jnsgd1na2vs0mg"},{"bike_id":"b1429378-b93e-4184-b373-85f0415c9919","system_id":"levelo_inurba_marseille","lat":43.24651,"lon":5.43112,"is_reserved":false,"is_disabled":false,"rental_uris":{"android":"levelo://app?vid=b1429378-b93e-4184-b373-85f0415c9919","ios":"levelo://app?vid=b1429378-b93e-4184-b373-85f0415c9919"},"vehicle_type_id":"4","last_reported":1770658897,"current_range_meters":8400,"station_id":"st_d2m6c4gdas8pm72e190g","pricing_plan_id":"cebpf4jnsgd1na2vs0mg"},{"bike_id":"f62a384c-82ea-406f-b454-65dc89a8251e","system_id":"levelo_inurba_marseille","lat":43.27528,"lon":5.41676,"is_reserved":false,"is_disabled":false,"rental_uris":{"android":"levelo://app?vid=f62a384c-82ea-406f-b454-65dc89a8251e","ios":"levelo://app?vid=f62a384c-82ea-406f-b454-65dc89a8251e"},"vehicle_type_id":"4","last_reported":1770658897,"current_range_meters":8400,"station_id":"","pricing_plan_id":"cebpf4jnsgd1na2vs0mg"},{"bike_id":"8a4fba49-470c-4084-b5be-42d0125481ae","system_id":"levelo_inurba_marseille","lat":43.27948,"lon":5.41049,"is_reserved":false,"is_disabled":false,"rental_uris":{"android":"levelo://app?vid=8a4fba49-470c-4084-b5be-42d0125481ae","ios":"levelo://app?vid=8a4fba49-470c-4084-b5be-42d0125481ae"},"vehicle_type_id":"4","last_reported":1770658897,"current_range_meters":8400,"station_id":"ce4bhnp2rcd13ifvqh0g","pricing_plan_id":"cebpf4jnsgd1na2vs0mg"},{"bike_id":"9181861d-3c4b-4770-b545-363c30923e26","system_id":"levelo_inurba_marseille","lat":43.284807,"lon":5.483937,"is_reserved":false,"is_disabled":false,"rental_uris":{"android":"levelo://app?vid=9181861d-3c4b-4770-b545-363c30923e26","ios":"levelo://app?vid=9181861d-3c4b-4770-b545-363c30923e26"},"vehicle_type_id":"4","last_reported":1770658897,"current_range_meters":8400,"station_id":"st_d3svhcjqgbts73a3dn0g","pricing_plan_id":"cebpf4jnsgd1na2vs0mg"},{"bike_id":"e20506fc-81c8-45aa-af10-6b0aa01b93ce","system_id":"levelo_inurba_marseille","lat":43.25571,"lon":5.38244,"is_reserved":false,"is_disabled":false,"rental_uris":{"android":"levelo://app?vid=e20506fc-81c8-45aa-af10-6b0aa01b93ce","ios":"levelo://app?vid=e20506fc-81c8-45aa-af10-6b0aa01b93ce"},"vehicle_type_id":"4","last_reported":1770658897,"current_range_meters":8400,"station_id":"ce4bhih2rcd13ifvqfs0","pricing_plan_id":"cebpf4jnsgd1na2vs0mg"},{"bike_id":"b6ef09ed-d357-4465-bd2f-ee587e4263cc","system_id":"levelo_inurba_marseille","lat":43.28453,"lon":5.40984,"is_reserved":false,"is_disabled":false,"rental_uris":{"android":"levelo://app?vid=b6ef09ed-d357-4465-bd2f-ee587e4263cc","ios":"levelo://app?vid=b6ef09ed-d357-4465-bd2f-ee587e4263cc"},"vehicle_type_id":"4","last_reported":1770658897,"current_range_meters":8400,"station_id":"","pricing_plan_id":"cebpf4jnsgd1na2vs0mg"},{"bike_id":"74b7a720-3595-446c-bb4f-a4a46ae88586","system_id":"levelo_inurba_marseille","lat":43.28268,"lon":5.3508,"is_reserved":false,"is_disabled":false,"rental_uris":{"android":"levelo://app?vid=74b7a720-3595-446c-bb4f-a4a46ae88586","ios":"levelo://app?vid=74b7a720-3595-446c-bb4f-a4a46ae88586"},"vehicle_type_id":"4","last_reported":1770658897,"current_range_meters":8400,"station_id":"ce4bhbp2rcd13ifvqerg","pricing_plan_id":"cebpf4jnsgd1na2vs0mg"},{"bike_id":"ac74808d-133d-47cc-8ad4-031395f6bb73","system_id":"levelo_inurba_marseille","lat":43.29791,"lon":5.38106,"is_reserved":false,"is_disabled":false,"rental_uris":{"android":"levelo://app?vid=ac74808d-133d-47cc-8ad4-031395f6bb73","ios":"levelo://app?vid=ac74808d-133d-47cc-8ad4-031395f6bb73"},"vehicle_type_id":"4","last_reported":1770658897,"current_range_meters":8400,"station_id":"ce4bgip2rcd13ifvqbb0","pricing_plan_id":"cebpf4jnsgd1na2vs0mg"},{"bike_id":"f1450451-4461-4c11-b967-8147e72832fb","system_id":"levelo_inurba_marseille","lat":43.29852,"lon":5.36276,"is_reserved":false,"is_disabled":false,"rental_uris":{"android":"levelo://app?vid=f1450451-4461-4c11-b967-8147e72832fb","ios":"levelo://app?vid=f1450451-4461-4c11-b967-8147e72832fb"},"vehicle_type_id":"4","last_reported":1770658897,"current_range_meters":8400,"station_id":"ce4bgpp2rcd13ifvqc3g","pricing_plan_id":"cebpf4jnsgd1na2vs0mg"},{"bike_id":"95c180d1-12e9-4e6e-80fe-326238cc4047","system_id":"levelo_inurba_marseille","lat":43.28074,"lon":5.39679,"is_reserved":false,"is_disabled":false,"rental_uris":{"android":"levelo://app?vid=95c180d1-12e9-4e6e-80fe-326238cc4047","ios":"levelo://app?vid=95c180d1-12e9-4e6e-80fe-326238cc4047"},"vehicle_type_id":"4","last_reported":1770658897,"current_range_meters":8400,"station_id":"ce4bho12rcd13ifvqh2g","pricing_plan_id":"cebpf4jnsgd1na2vs0mg"},{"bike_id":"26ea0914-9bb9-4cdf-9bbe-47fca146bd0e","system_id":"levelo_inurba_marseille","lat":43.28688,"lon":5.3865,"is_reserved":false,"is_disabled":false,"rental_uris":{"android":"levelo://app?vid=26ea0914-9bb9-4cdf-9bbe-47fca146bd0e","ios":"levelo://app?vid=26ea0914-9bb9-4cdf-9bbe-47fca146bd0e"},"vehicle_type_id":"4","last_reported":1770658897,"current_range_meters":8400,"station_id":"ce4bh492rcd13ifvqdug","pricing_plan_id":"cebpf4jnsgd1na2vs0mg"},{"bike_id":"dcffb64c-9bea-40cd-a5fe-c7eeb8475cd8","system_id":"levelo_inurba_marseille","lat":43.30298,"lon":5.37705,"is_reserved":false,"is_disabled":true,"rental_uris":{"android":"levelo://app?vid=dcffb64c-9bea-40cd-a5fe-c7eeb8475cd8","ios":"levelo://app?vid=dcffb64c-9bea-40cd-a5fe-c7eeb8475cd8"},"vehicle_type_id":"4","last_reported":1770658897,"current_range_meters":8800,"station_id":"ce4bguh2rcd13ifvqcj0","pricing_plan_id":"cebpf4jnsgd1na2vs0mg"},{"bike_id":"cffc7949-5813-42c8-800b-4f8e9d3fbbd3","system_id":"levelo_inurba_marseille","lat":43.27215,"lon":5.39203,"is_reserved":false,"is_disabled":false,"rental_uris":{"android":"levelo://app?vid=cffc7949-5813-42c8-800b-4f8e9d3fbbd3","ios":"levelo://app?vid=cffc7949-5813-42c8-800b-4f8e9d3fbbd3"},"vehicle_type_id":"4","last_reported":1770658897,"current_range_meters":8800,"station_id":"ce4bhhp2rcd13ifvqfm0","pricing_plan_id":"cebpf4jnsgd1na2vs0mg"},{"bike_id":"4240880d-88bf-48aa-91ea-700e773e4fa1","system_id":"levelo_inurba_marseille","lat":43.25554,"lon":5.38211,"is_reserved":false,"is_disabled":false,"rental_uris":{"android":"levelo://app?vid=4240880d-88bf-48aa-91ea-700e773e4fa1","ios":"levelo://app?vid=4240880d-88bf-48aa-91ea-700e773e4fa1"},"vehicle_type_id":"4","last_reported":1770658897,"current_range_meters":8800,"station_id":"ce4bhih2rcd13ifvqfs0","pricing_plan_id":"cebpf4jnsgd1na2vs0mg"},{"bike_id":"645a31a1-6436-4efa-9619-79ad893cbfa4","system_id":"levelo_inurba_marseille","lat":43.30248,"lon":5.40067,"is_reserved":false,"is_disabled":false,"rental_uris":{"android":"levelo://app?vid=645a31a1-6436-4efa-9619-79ad893cbfa4","ios":"levelo://app?vid=645a31a1-6436-4efa-9619-79ad893cbfa4"},"vehicle_type_id":"4","last_reported":1770658897,"current_range_meters":8800,"station_id":"ce4bgvh2rcd13ifvqcs0","pricing_plan_id":"cebpf4jnsgd1na2vs0mg"},{"bike_id":"81089c31-0f23-400c-91cf-65461521d37b","system_id":"levelo_inurba_marseille","lat":43.25829,"lon":5.39425,"is_reserved":false,"is_disabled":false,"rental_uris":{"android":"levelo://app?vid=81089c31-0f23-400c-91cf-65461521d37b","ios":"levelo://app?vid=81089c31-0f23-400c-91cf-65461521d37b"},"vehicle_type_id":"4","last_reported":1770658897,"current_range_meters":8800,"station_id":"ce4bhip2rcd13ifvqft0","pricing_plan_id":"cebpf4jnsgd1na2vs0mg"},{"bike_id":"654a8c69-e34e-48fa-b792-a1983317de36","system_id":"levelo_inurba_marseille","lat":43.28487,"lon":5.48423,"is_reserved":false,"is_disabled":false,"rental_uris":{"android":"levelo://app?vid=654a8c69-e34e-48fa-b792-a1983317de36","ios":"levelo://app?vid=654a8c69-e34e-48fa-b792-a1983317de36"},"vehicle_type_id":"4","last_reported":1770658897,"current_range_meters":8800,"station_id":"","pricing_plan_id":"cebpf4jnsgd1na2vs0mg"},{"bike_id":"28e12e2b-8761-4192-b123-d50be2220841","system_id":"levelo_inurba_marseille","lat":43.30095,"lon":5.39083,"is_reserved":false,"is_disabled":false,"rental_uris":{"android":"levelo://app?vid=28e12e2b-8761-4192-b123-d50be2220841","ios":"levelo://app?vid=28e12e2b-8761-4192-b123-d50be2220841"},"vehicle_type_id":"4","last_reported":1770658897,"current_range_meters":8800,"station_id":"ce4bh192rcd13ifvqdb0","pricing_plan_id":"cebpf4jnsgd1na2vs0mg"},{"bike_id":"85dd1ff3-48fb-473b-a6b8-2f438c995677","system_id":"levelo_inurba_marseille","lat":43.298986,"lon":5.436693,"is_reserved":false,"is_disabled":false,"rental_uris":{"android":"levelo://app?vid=85dd1ff3-48fb-473b-a6b8-2f438c995677","ios":"levelo://app?vid=85dd1ff3-48fb-473b-a6b8-2f438c995677"},"vehicle_type_id":"4","last_reported":1770658897,"current_range_meters":8800,"station_id":"ce4bhpp2rcd13ifvqhfg","pricing_plan_id":"cebpf4jnsgd1na2vs0mg"},{"bike_id":"05d628e9-781f-4f77-a9a7-087d759ed084","system_id":"levelo_inurba_marseille","lat":43.229629,"lon":5.354075,"is_reserved":false,"is_disabled":false,"rental_uris":{"android":"levelo://app?vid=05d628e9-781f-4f77-a9a7-087d759ed084","ios":"levelo://app?vid=05d628e9-781f-4f77-a9a7-087d759ed084"},"vehicle_type_id":"4","last_reported":1770658897,"current_range_meters":8800,"station_id":"cpo3532slgdg3j2ikp40","pricing_plan_id":"cebpf4jnsgd1na2vs0mg"},{"bike_id":"2bd44504-1f62-4ff3-937f-28169a9c3d6c","system_id":"levelo_inurba_marseille","lat":43.30516,"lon":5.36591,"is_reserved":false,"is_disabled":false,"rental_uris":{"android":"levelo://app?vid=2bd44504-1f62-4ff3-937f-28169a9c3d6c","ios":"levelo://app?vid=2bd44504-1f62-4ff3-937f-28169a9c3d6c"},"vehicle_type_id":"4","last_reported":1770658897,"current_range_meters":8800,"station_id":"","pricing_plan_id":"cebpf4jnsgd1na2vs0mg"},{"bike_id":"ca9291dc-2fbd-4e9a-bca3-8d5eaa0aeec9","system_id":"levelo_inurba_marseille","lat":43.24663,"lon":5.38157,"is_reserved":false,"is_disabled":false,"rental_uris":{"android":"levelo://app?vid=ca9291dc-2fbd-4e9a-bca3-8d5eaa0aeec9","ios":"levelo://app?vid=ca9291dc-2fbd-4e9a-bca3-8d5eaa0aeec9"},"vehicle_type_id":"4","last_reported":1770658897,"current_range_meters":8800,"station_id":"ce4bhih2rcd13ifvqfr0","pricing_plan_id":"cebpf4jnsgd1na2vs0mg"},{"bike_id":"3b5567a6-efa3-498b-ad01-b9c12c6390c4","system_id":"levelo_inurba_marseille","lat":43.317174,"lon":5.424003,"is_reserved":false,"is_disabled":false,"rental_uris":{"android":"levelo://app?vid=3b5567a6-efa3-498b-ad01-b9c12c6390c4","ios":"levelo://app?vid=3b5567a6-efa3-498b-ad01-b9c12c6390c4"},"vehicle_type_id":"4","last_reported":1770658897,"current_range_meters":8800,"station_id":"ce4bhp92rcd13ifvqhbg","pricing_plan_id":"cebpf4jnsgd1na2vs0mg"},{"bike_id":"971b48dd-c7a4-4deb-8d64-56d2c1c381de","system_id":"levelo_inurba_marseille","lat":43.26387,"lon":5.4107,"is_reserved":false,"is_disabled":false,"rental_uris":{"android":"levelo://app?vid=971b48dd-c7a4-4deb-8d64-56d2c1c381de","ios":"levelo://app?vid=971b48dd-c7a4-4deb-8d64-56d2c1c381de"},"vehicle_type_id":"4","last_reported":1770658897,"current_range_meters":8800,"station_id":"st_d4e5ca6na9uc73bfl5fg","pricing_plan_id":"cebpf4jnsgd1na2vs0mg"},{"bike_id":"73db9331-046b-4083-81a1-18617e4d5251","system_id":"levelo_inurba_marseille","lat":43.24169,"lon":5.3639,"is_reserved":false,"is_disabled":false,"rental_uris":{"android":"levelo://app?vid=73db9331-046b-4083-81a1-18617e4d5251","ios":"levelo://app?vid=73db9331-046b-4083-81a1-18617e4d5251"},"vehicle_type_id":"4","last_reported":1770658897,"current_range_meters":8800,"station_id":"cpo36qri1sfpv3e86is0","pricing_plan_id":"cebpf4jnsgd1na2vs0mg"},{"bike_id":"33d9be7f-7f6e-4354-b0ef-01ce80b18449","system_id":"levelo_inurba_marseille","lat":43.23961,"lon":5.36638,"is_reserved":false,"is_disabled":false,"rental_uris":{"android":"levelo://app?vid=33d9be7f-7f6e-4354-b0ef-01ce80b18449","ios":"levelo://app?vid=33d9be7f-7f6e-4354-b0ef-01ce80b18449"},"vehicle_type_id":"4","last_reported":1770658897,"current_range_meters":8800,"station_id":"ce4bhi12rcd13ifvqfp0","pricing_plan_id":"cebpf4jnsgd1na2vs0mg"},{"bike_id":"de3c212d-0fb9-473a-a86c-66f8df44a604","system_id":"levelo_inurba_marseille","lat":43.2466,"lon":5.38146,"is_reserved":false,"is_disabled":false,"rental_uris":{"android":"levelo://app?vid=de3c212d-0fb9-473a-a86c-66f8df44a604","ios":"levelo://app?vid=de3c212d-0fb9-473a-a86c-66f8df44a604"},"vehicle_type_id":"4","last_reported":1770658897,"current_range_meters":8800,"station_id":"ce4bhih2rcd13ifvqfr0","pricing_plan_id":"cebpf4jnsgd1na2vs0mg"},{"bike_id":"f12f6f11-1feb-482e-8dc3-a79b8963e979","system_id":"levelo_inurba_marseille","lat":43.33541,"lon":5.37457,"is_reserved":false,"is_disabled":false,"rental_uris":{"android":"levelo://app?vid=f12f6f11-1feb-482e-8dc3-a79b8963e979","ios":"levelo://app?vid=f12f6f11-1feb-482e-8dc3-a79b8963e979"},"vehicle_type_id":"4","last_reported":1770658897,"current_range_meters":8800,"station_id":"st_d46tts09ee8s73dlu43g","pricing_plan_id":"cebpf4jnsgd1na2vs0mg"},{"bike_id":"80f1981f-1249-452d-81e4-874ba0e63c55","system_id":"levelo_inurba_marseille","lat":43.24181,"lon":5.39726,"is_reserved":false,"is_disabled":false,"rental_uris":{"android":"levelo://app?vid=80f1981f-1249-452d-81e4-874ba0e63c55","ios":"levelo://app?vid=80f1981f-1249-452d-81e4-874ba0e63c55"},"vehicle_type_id":"4","last_reported":1770658897,"current_range_meters":8800,"station_id":"ce4bhn12rcd13ifvqgpg","pricing_plan_id":"cebpf4jnsgd1na2vs0mg"},{"bike_id":"c583560a-77a9-496f-bff4-8abe7a8e3cb2","system_id":"levelo_inurba_marseille","lat":43.30185,"lon":5.36628,"is_reserved":false,"is_disabled":false,"rental_uris":{"android":"levelo://app?vid=c583560a-77a9-496f-bff4-8abe7a8e3cb2","ios":"levelo://app?vid=c583560a-77a9-496f-bff4-8abe7a8e3cb2"},"vehicle_type_id":"4","last_reported":1770658897,"current_range_meters":8800,"station_id":"ce4bgrh2rcd13ifvqc8g","pricing_plan_id":"cebpf4jnsgd1na2vs0mg"},{"bike_id":"30b3134b-ba74-4819-8947-e54b8db9bbcc","system_id":"levelo_inurba_marseille","lat":43.319982,"lon":5.381494,"is_reserved":false,"is_disabled":false,"rental_uris":{"android":"levelo://app?vid=30b3134b-ba74-4819-8947-e54b8db9bbcc","ios":"levelo://app?vid=30b3134b-ba74-4819-8947-e54b8db9bbcc"},"vehicle_type_id":"4","last_reported":1770658897,"current_range_meters":8800,"station_id":"ce4bhr12rcd13ifvqhpg","pricing_plan_id":"cebpf4jnsgd1na2vs0mg"},{"bike_id":"ba05c47e-21f3-46dd-bacf-022f0ac18413","system_id":"levelo_inurba_marseille","lat":43.29265,"lon":5.40897,"is_reserved":false,"is_disabled":false,"rental_uris":{"android":"levelo://app?vid=ba05c47e-21f3-46dd-bacf-022f0ac18413","ios":"levelo://app?vid=ba05c47e-21f3-46dd-bacf-022f0ac18413"},"vehicle_type_id":"4","last_reported":1770658897,"current_range_meters":8800,"station_id":"ce4bh192rcd13ifvqdc0","pricing_plan_id":"cebpf4jnsgd1na2vs0mg"},{"bike_id":"18a5e0f3-321a-4060-9b7f-e4837fe1c89a","system_id":"levelo_inurba_marseille","lat":43.25583,"lon":5.38228,"is_reserved":false,"is_disabled":false,"rental_uris":{"android":"levelo://app?vid=18a5e0f3-321a-4060-9b7f-e4837fe1c89a","ios":"levelo://app?vid=18a5e0f3-321a-4060-9b7f-e4837fe1c89a"},"vehicle_type_id":"4","last_reported":1770658897,"current_range_meters":8800,"station_id":"ce4bhih2rcd13ifvqfs0","pricing_plan_id":"cebpf4jnsgd1na2vs0mg"},{"bike_id":"f3fcdd89-327e-4ac3-a791-371eabd3b54c","system_id":"levelo_inurba_marseille","lat":43.24377,"lon":5.37058,"is_reserved":false,"is_disabled":false,"rental_uris":{"android":"levelo://app?vid=f3fcdd89-327e-4ac3-a791-371eabd3b54c","ios":"levelo://app?vid=f3fcdd89-327e-4ac3-a791-371eabd3b54c"},"vehicle_type_id":"4","last_reported":1770658897,"current_range_meters":8800,"station_id":"ce4bhhh2rcd13ifvqfk0","pricing_plan_id":"cebpf4jnsgd1na2vs0mg"},{"bike_id":"98fe643a-2789-4fb0-9cb9-57bbe23f949f","system_id":"levelo_inurba_marseille","lat":43.28478,"lon":5.48395,"is_reserved":false,"is_disabled":false,"rental_uris":{"android":"levelo://app?vid=98fe643a-2789-4fb0-9cb9-57bbe23f949f","ios":"levelo://app?vid=98fe643a-2789-4fb0-9cb9-57bbe23f949f"},"vehicle_type_id":"4","last_reported":1770658897,"current_range_meters":8800,"station_id":"","pricing_plan_id":"cebpf4jnsgd1na2vs0mg"},{"bike_id":"8c4fa143-5387-41b5-b9e5-5e6155ee3567","system_id":"levelo_inurba_marseille","lat":43.28362,"lon":5.3863,"is_reserved":false,"is_disabled":false,"rental_uris":{"android":"levelo://app?vid=8c4fa143-5387-41b5-b9e5-5e6155ee3567","ios":"levelo://app?vid=8c4fa143-5387-41b5-b9e5-5e6155ee3567"},"vehicle_type_id":"4","last_reported":1770658897,"current_range_meters":8800,"station_id":"ce4bh492rcd13ifvqdvg","pricing_plan_id":"cebpf4jnsgd1na2vs0mg"},{"bike_id":"38d63427-deb9-4a73-ae50-ef8a74bdfa87","system_id":"levelo_inurba_marseille","lat":43.29892,"lon":5.38913,"is_reserved":false,"is_disabled":false,"rental_uris":{"android":"levelo://app?vid=38d63427-deb9-4a73-ae50-ef8a74bdfa87","ios":"levelo://app?vid=38d63427-deb9-4a73-ae50-ef8a74bdfa87"},"vehicle_type_id":"4","last_reported":1770658897,"current_range_meters":8800,"station_id":"ce4bh392rcd13ifvqdl0","pricing_plan_id":"cebpf4jnsgd1na2vs0mg"},{"bike_id":"bfc07130-be47-4eef-8325-e33d6610d729","system_id":"levelo_inurba_marseille","lat":43.301209,"lon":5.431153,"is_reserved":false,"is_disabled":false,"rental_uris":{"android":"levelo://app?vid=bfc07130-be47-4eef-8325-e33d6610d729","ios":"levelo://app?vid=bfc07130-be47-4eef-8325-e33d6610d729"},"vehicle_type_id":"4","last_reported":1770658897,"current_range_meters":9200,"station_id":"st_d3js3co5814s73ftftug","pricing_plan_id":"cebpf4jnsgd1na2vs0mg"},{"bike_id":"b423b145-b1be-4d52-8ca8-7443f22eb4e3","system_id":"levelo_inurba_marseille","lat":43.29179,"lon":5.37144,"is_reserved":false,"is_disabled":false,"rental_uris":{"android":"levelo://app?vid=b423b145-b1be-4d52-8ca8-7443f22eb4e3","ios":"levelo://app?vid=b423b145-b1be-4d52-8ca8-7443f22eb4e3"},"vehicle_type_id":"4","last_reported":1770658897,"current_range_meters":9200,"station_id":"ce4bha92rcd13ifvqeh0","pricing_plan_id":"cebpf4jnsgd1na2vs0mg"},{"bike_id":"3484e444-18af-4a4b-833d-df8748f601a8","system_id":"levelo_inurba_marseille","lat":43.29978,"lon":5.38523,"is_reserved":false,"is_disabled":false,"rental_uris":{"android":"levelo://app?vid=3484e444-18af-4a4b-833d-df8748f601a8","ios":"levelo://app?vid=3484e444-18af-4a4b-833d-df8748f601a8"},"vehicle_type_id":"4","last_reported":1770658897,"current_range_meters":9200,"station_id":"ce4bgj92rcd13ifvqbd0","pricing_plan_id":"cebpf4jnsgd1na2vs0mg"},{"bike_id":"eb988073-8fe7-4bb4-897d-222ac9bc4a1f","system_id":"levelo_inurba_marseille","lat":43.25871,"lon":5.39899,"is_reserved":false,"is_disabled":false,"rental_uris":{"android":"levelo://app?vid=eb988073-8fe7-4bb4-897d-222ac9bc4a1f","ios":"levelo://app?vid=eb988073-8fe7-4bb4-897d-222ac9bc4a1f"},"vehicle_type_id":"4","last_reported":1770658897,"current_range_meters":9200,"station_id":"ce4bhl92rcd13ifvqghg","pricing_plan_id":"cebpf4jnsgd1na2vs0mg"},{"bike_id":"5f7df976-2770-4b0d-bd16-1a5d3e4bd86a","system_id":"levelo_inurba_marseille","lat":43.260294,"lon":5.375411,"is_reserved":false,"is_disabled":false,"rental_uris":{"android":"levelo://app?vid=5f7df976-2770-4b0d-bd16-1a5d3e4bd86a","ios":"levelo://app?vid=5f7df976-2770-4b0d-bd16-1a5d3e4bd86a"},"vehicle_type_id":"4","last_reported":1770658897,"current_range_meters":9200,"station_id":"ce4bhgh2rcd13ifvqfa0","pricing_plan_id":"cebpf4jnsgd1na2vs0mg"},{"bike_id":"a49184a7-524a-45ee-a649-336d42511412","system_id":"levelo_inurba_marseille","lat":43.27925,"lon":5.38705,"is_reserved":false,"is_disabled":false,"rental_uris":{"android":"levelo://app?vid=a49184a7-524a-45ee-a649-336d42511412","ios":"levelo://app?vid=a49184a7-524a-45ee-a649-336d42511412"},"vehicle_type_id":"4","last_reported":1770658897,"current_range_meters":9200,"station_id":"","pricing_plan_id":"cebpf4jnsgd1na2vs0mg"},{"bike_id":"6da7b2c8-ded6-41b1-b326-7acbfdccc073","system_id":"levelo_inurba_marseille","lat":43.296417,"lon":5.380357,"is_reserved":false,"is_disabled":false,"rental_uris":{"android":"levelo://app?vid=6da7b2c8-ded6-41b1-b326-7acbfdccc073","ios":"levelo://app?vid=6da7b2c8-ded6-41b1-b326-7acbfdccc073"},"vehicle_type_id":"4","last_reported":1770658897,"current_range_meters":9200,"station_id":"","pricing_plan_id":"cebpf4jnsgd1na2vs0mg"},{"bike_id":"0e4b7dd1-df8a-4919-8d1a-9562179c8c91","system_id":"levelo_inurba_marseille","lat":43.31656,"lon":5.38974,"is_reserved":false,"is_disabled":false,"rental_uris":{"android":"levelo://app?vid=0e4b7dd1-df8a-4919-8d1a-9562179c8c91","ios":"levelo://app?vid=0e4b7dd1-df8a-4919-8d1a-9562179c8c91"},"vehicle_type_id":"4","last_reported":1770658897,"current_range_meters":9200,"station_id":"","pricing_plan_id":"cebpf4jnsgd1na2vs0mg"},{"bike_id":"8421ab96-057e-4c56-8da9-39ca27ce7356","system_id":"levelo_inurba_marseille","lat":43.299704,"lon":5.413206,"is_reserved":false,"is_disabled":false,"rental_uris":{"android":"levelo://app?vid=8421ab96-057e-4c56-8da9-39ca27ce7356","ios":"levelo://app?vid=8421ab96-057e-4c56-8da9-39ca27ce7356"},"vehicle_type_id":"4","last_reported":1770658897,"current_range_meters":9200,"station_id":"ce4bhp12rcd13ifvqh9g","pricing_plan_id":"cebpf4jnsgd1na2vs0mg"},{"bike_id":"8ee51e79-8a73-4239-8340-e6ef55c03564","system_id":"levelo_inurba_marseille","lat":43.26244,"lon":5.40489,"is_reserved":false,"is_disabled":false,"rental_uris":{"android":"levelo://app?vid=8ee51e79-8a73-4239-8340-e6ef55c03564","ios":"levelo://app?vid=8ee51e79-8a73-4239-8340-e6ef55c03564"},"vehicle_type_id":"4","last_reported":1770658897,"current_range_meters":9200,"station_id":"ce4bhmh2rcd13ifvqgmg","pricing_plan_id":"cebpf4jnsgd1na2vs0mg"},{"bike_id":"adf4da5d-129d-478c-acb0-d09833cd79f1","system_id":"levelo_inurba_marseille","lat":43.28968,"lon":5.37841,"is_reserved":false,"is_disabled":false,"rental_uris":{"android":"levelo://app?vid=adf4da5d-129d-478c-acb0-d09833cd79f1","ios":"levelo://app?vid=adf4da5d-129d-478c-acb0-d09833cd79f1"},"vehicle_type_id":"4","last_reported":1770658897,"current_range_meters":9200,"station_id":"ce4bh9p2rcd13ifvqed0","pricing_plan_id":"cebpf4jnsgd1na2vs0mg"},{"bike_id":"65653ad0-a964-4762-8fd7-873f72cb3e9d","system_id":"levelo_inurba_marseille","lat":43.28716,"lon":5.37945,"is_reserved":false,"is_disabled":false,"rental_uris":{"android":"levelo://app?vid=65653ad0-a964-4762-8fd7-873f72cb3e9d","ios":"levelo://app?vid=65653ad0-a964-4762-8fd7-873f72cb3e9d"},"vehicle_type_id":"4","last_reported":1770658897,"current_range_meters":9200,"station_id":"ce4bh9p2rcd13ifvqec0","pricing_plan_id":"cebpf4jnsgd1na2vs0mg"},{"bike_id":"82c1d0b8-c2bc-4c2d-8c8c-cee1ceff7965","system_id":"levelo_inurba_marseille","lat":43.28673,"lon":5.37947,"is_reserved":false,"is_disabled":false,"rental_uris":{"android":"levelo://app?vid=82c1d0b8-c2bc-4c2d-8c8c-cee1ceff7965","ios":"levelo://app?vid=82c1d0b8-c2bc-4c2d-8c8c-cee1ceff7965"},"vehicle_type_id":"4","last_reported":1770658897,"current_range_meters":9200,"station_id":"","pricing_plan_id":"cebpf4jnsgd1na2vs0mg"},{"bike_id":"3e62a0fd-19ac-4f58-93af-6af710db8a94","system_id":"levelo_inurba_marseille","lat":43.22927,"lon":5.35377,"is_reserved":false,"is_disabled":false,"rental_uris":{"android":"levelo://app?vid=3e62a0fd-19ac-4f58-93af-6af710db8a94","ios":"levelo://app?vid=3e62a0fd-19ac-4f58-93af-6af710db8a94"},"vehicle_type_id":"4","last_reported":1770658897,"current_range_meters":9200,"station_id":"cpo3532slgdg3j2ikp40","pricing_plan_id":"cebpf4jnsgd1na2vs0mg"},{"bike_id":"41489d1d-8f65-4acc-ad4a-a6a8dc9439fd","system_id":"levelo_inurba_marseille","lat":43.29424,"lon":5.41321,"is_reserved":false,"is_disabled":false,"rental_uris":{"android":"levelo://app?vid=41489d1d-8f65-4acc-ad4a-a6a8dc9439fd","ios":"levelo://app?vid=41489d1d-8f65-4acc-ad4a-a6a8dc9439fd"},"vehicle_type_id":"4","last_reported":1770658897,"current_range_meters":9200,"station_id":"","pricing_plan_id":"cebpf4jnsgd1na2vs0mg"},{"bike_id":"39ef9d1f-a875-45a7-9b98-0e6f4cc2b305","system_id":"levelo_inurba_marseille","lat":43.2985,"lon":5.36283,"is_reserved":false,"is_disabled":false,"rental_uris":{"android":"levelo://app?vid=39ef9d1f-a875-45a7-9b98-0e6f4cc2b305","ios":"levelo://app?vid=39ef9d1f-a875-45a7-9b98-0e6f4cc2b305"},"vehicle_type_id":"4","last_reported":1770658897,"current_range_meters":9200,"station_id":"ce4bgpp2rcd13ifvqc3g","pricing_plan_id":"cebpf4jnsgd1na2vs0mg"},{"bike_id":"f50c35da-696d-40d3-b773-5172fe61d62f","system_id":"levelo_inurba_marseille","lat":43.29307,"lon":5.37167,"is_reserved":false,"is_disabled":false,"rental_uris":{"android":"levelo://app?vid=f50c35da-696d-40d3-b773-5172fe61d62f","ios":"levelo://app?vid=f50c35da-696d-40d3-b773-5172fe61d62f"},"vehicle_type_id":"4","last_reported":1770658897,"current_range_meters":9200,"station_id":"ce4bgh92rcd13ifvqb40","pricing_plan_id":"cebpf4jnsgd1na2vs0mg"},{"bike_id":"a948137a-4200-4a90-ae91-35161837f029","system_id":"levelo_inurba_marseille","lat":43.30625,"lon":5.37639,"is_reserved":false,"is_disabled":false,"rental_uris":{"android":"levelo://app?vid=a948137a-4200-4a90-ae91-35161837f029","ios":"levelo://app?vid=a948137a-4200-4a90-ae91-35161837f029"},"vehicle_type_id":"4","last_reported":1770658897,"current_range_meters":9200,"station_id":"","pricing_plan_id":"cebpf4jnsgd1na2vs0mg"},{"bike_id":"0be0624e-e858-42b2-976a-ebf650eac92a","system_id":"levelo_inurba_marseille","lat":43.29844,"lon":5.36275,"is_reserved":false,"is_disabled":false,"rental_uris":{"android":"levelo://app?vid=0be0624e-e858-42b2-976a-ebf650eac92a","ios":"levelo://app?vid=0be0624e-e858-42b2-976a-ebf650eac92a"},"vehicle_type_id":"4","last_reported":1770658897,"current_range_meters":9200,"station_id":"ce4bgpp2rcd13ifvqc3g","pricing_plan_id":"cebpf4jnsgd1na2vs0mg"},{"bike_id":"c16fc924-c29b-4d03-95d5-55bde8479f4b","system_id":"levelo_inurba_marseille","lat":43.29265,"lon":5.38446,"is_reserved":false,"is_disabled":false,"rental_uris":{"android":"levelo://app?vid=c16fc924-c29b-4d03-95d5-55bde8479f4b","ios":"levelo://app?vid=c16fc924-c29b-4d03-95d5-55bde8479f4b"},"vehicle_type_id":"4","last_reported":1770658897,"current_range_meters":9200,"station_id":"ce4bh692rcd13ifvqea0","pricing_plan_id":"cebpf4jnsgd1na2vs0mg"},{"bike_id":"8ae17b81-0000-4570-ac79-fe68f254c27c","system_id":"levelo_inurba_marseille","lat":43.29602,"lon":5.37718,"is_reserved":false,"is_disabled":true,"rental_uris":{"android":"levelo://app?vid=8ae17b81-0000-4570-ac79-fe68f254c27c","ios":"levelo://app?vid=8ae17b81-0000-4570-ac79-fe68f254c27c"},"vehicle_type_id":"4","last_reported":1770658897,"current_range_meters":9600,"station_id":"ce4bgi92rcd13ifvqb90","pricing_plan_id":"cebpf4jnsgd1na2vs0mg"},{"bike_id":"1a25e1d1-3bcf-40b9-9439-9c84e27f8c14","system_id":"levelo_inurba_marseille","lat":43.25117,"lon":5.40309,"is_reserved":false,"is_disabled":false,"rental_uris":{"android":"levelo://app?vid=1a25e1d1-3bcf-40b9-9439-9c84e27f8c14","ios":"levelo://app?vid=1a25e1d1-3bcf-40b9-9439-9c84e27f8c14"},"vehicle_type_id":"4","last_reported":1770658897,"current_range_meters":9600,"station_id":"ce4bhlh2rcd13ifvqgig","pricing_plan_id":"cebpf4jnsgd1na2vs0mg"},