{"last_updated":1733864929,"ttl":60,"version":"2.2","data":{"bikes":[{"bike_id":"20e7158e-c6e0-4a8c-897a-1bb8b5451f5c","system_id":"levelo_inurba_marseille","lat":43.22933,"lon":5.35379,"is_reserved":false,"is_disabled":false,"rental_uris":{"android":"levelo://app?vid=20e7158e-c6e0-4a8c-897a-1bb8b5451f5c","ios":"levelo://app?vid=20e7158e-c6e0-4a8c-897a-1bb8b5451f5c"},"vehicle_type_id":"4","last_reported":1733864930,"current_range_meters":23200,"station_id":"cpo3532slgdg3j2ikp40","pricing_plan_id":"cebpf4jnsgd1na2vs0mg"},{"bike_id":"cd3ea23b-0fc9-4b65-a5ae-f91c4c7dfe85","system_id":"levelo_inurba_marseille","lat":43.28271,"lon":5.35065,"is_reserved":false,"is_disabled":false,"rental_uris":{"android":"levelo://app?vid=cd3ea23b-0fc9-4b65-a5ae-f91c4c7dfe85","ios":"levelo://app?vid=cd3ea23b-0fc9-4b65-a5ae-f91c4c7dfe85"},"vehicle_type_id":"4","last_reported":1733864930,"current_range_meters":39200,"station_id":"ce4bhbp2rcd13ifvqerg","pricing_plan_id":"cebpf4jnsgd1na2vs0mg"},{"bike_id":"9e840671-2878-4845-b8fb-114afd1f4bc9","system_id":"levelo_inurba_marseille","lat":43.26686,"lon":5.38274,"is_reserved":false,"is_disabled":true,"rental_uris":{"android":"levelo://app?vid=9e840671-2878-4845-b8fb-114afd1f4bc9","ios":"levelo://app?vid=9e840671-2878-4845-b8fb-114afd1f4bc9"},"vehicle_type_id":"4","last_reported":1733864930,"current_range_meters":0,"station_id":"ce4bhg92rcd13ifvqf90","pricing_plan_id":"cebpf4jnsgd1na2vs0mg"},{"bike_id":"3ad0663c-aee9-4df0-9c99-413343395955","system_id":"levelo_inurba_marseille","lat":43.29602,"lon":5.3809,"is_reserved":false,"is_disabled":false,"rental_uris":{"android":"levelo://app?vid=3ad0663c-aee9-4df0-9c99-413343395955","ios":"levelo://app?vid=3ad0663c-aee9-4df0-9c99-413343395955"},"vehicle_type_id":"4","last_reported":1733864930,"current_range_meters":38800,"station_id":"ce4bgl12rcd13ifvqbo0","pricing_plan_id":"cebpf4jnsgd1na2vs0mg"},{"bike_id":"8e029eaf-e104-4c5d-858d-6cd39de73d09","system_id":"levelo_inurba_marseille","lat":43.24167,"lon":5.36397,"is_reserved":false,"is_disabled":false,"rental_uris":{"android":"levelo://app?vid=8e029eaf-e104-4c5d-858d-6cd39de73d09","ios":"levelo://app?vid=8e029eaf-e104-4c5d-858d-6cd39de73d09"},"vehicle_type_id":"4","last_reported":1733864930,"current_range_meters":14800,"station_id":"cpo36qri1sfpv3e86is0","pricing_plan_id":"cebpf4jnsgd1na2vs0mg"},{"bike_id":"86eddec9-5ff0-43b3-9837-b45693bf2e9f","system_id":"levelo_inurba_marseille","lat":43.25498,"lon":5.37649,"is_reserved":false,"is_disabled":false,"rental_uris":{"android":"levelo://app?vid=86eddec9-5ff0-43b3-9837-b45693bf2e9f","ios":"levelo://app?vid=86eddec9-5ff0-43b3-9837-b45693bf2e9f"},"vehicle_type_id":"4","last_reported":1733864930,"current_range_meters":9600,"station_id":"ce4bhh12rcd13ifvqff0","pricing_plan_id":"cebpf4jnsgd1na2vs0mg"},{"bike_id":"96d2c3f1-3c2d-486a-9bde-be63e96d0730","system_id":"levelo_inurba_marseille","lat":43.26072,"lon":5.39387,"is_reserved":false,"is_disabled":false,"rental_uris":{"android":"levelo://app?vid=96d2c3f1-3c2d-486a-9bde-be63e96d0730","ios":"levelo://app?vid=96d2c3f1-3c2d-486a-9bde-be63e96d0730"},"vehicle_type_id":"4","last_reported":1733864930,"current_range_meters":32800,"station_id":"ce4bhh92rcd13ifvqfj0","pricing_plan_id":"cebpf4jnsgd1na2vs0mg"},{"bike_id":"f5f06de5-7035-4647-a9e9-5c0bfa25054c","system_id":"levelo_inurba_marseille","lat":43.30301,"lon":5.3922,"is_reserved":false,"is_disabled":false,"rental_uris":{"android":"levelo://app?vid=f5f06de5-7035-4647-a9e9-5c0bfa25054c","ios":"levelo://app?vid=f5f06de5-7035-4647-a9e9-5c0bfa25054c"},"vehicle_type_id":"4","last_reported":1733864930,"current_range_meters":38000,"station_id":"ce4bgkh2rcd13ifvqbk0","pricing_plan_id":"cebpf4jnsgd1na2vs0mg"},{"bike_id":"e0671578-fce1-46a5-b97e-d8531f795cd5","system_id":"levelo_inurba_marseille","lat":43.28711,"lon":5.37945,"is_reserved":false,"is_disabled":true,"rental_uris":{"android":"levelo://app?vid=e0671578-fce1-46a5-b97e-d8531f795cd5","ios":"levelo://app?vid=e0671578-fce1-46a5-b97e-d8531f795cd5"},"vehicle_type_id":"4","last_reported":1733864930,"current_range_meters":0,"station_id":"ce4bh9p2rcd13ifvqec0","pricing_plan_id":"cebpf4jnsgd1na2vs0mg"},{"bike_id":"eb4cb7f5-6708-43d8-9cbb-61ef1ca7111c","system_id":"levelo_inurba_marseille","lat":43.29224,"lon":5.36076,"is_reserved":false,"is_disabled":false,"rental_uris":{"android":"levelo://app?vid=eb4cb7f5-6708-43d8-9cbb-61ef1ca7111c","ios":"levelo://app?vid=eb4cb7f5-6708-43d8-9cbb-61ef1ca7111c"},"vehicle_type_id":"4","last_reported":1733864930,"current_range_meters":19200,"station_id":"ce4bhbh2rcd13ifvqeqg","pricing_plan_id":"cebpf4jnsgd1na2vs0mg"},{"bike_id":"014914cf-eb98-4b5d-8cd3-12a67a219c23","system_id":"levelo_inurba_marseille","lat":43.3361,"lon":5.41017,"is_reserved":false,"is_disabled":true,"rental_uris":{"android":"levelo://app?vid=014914cf-eb98-4b5d-8cd3-12a67a219c23","ios":"levelo://app?vid=014914cf-eb98-4b5d-8cd3-12a67a219c23"},"vehicle_type_id":"4","last_reported":1733864930,"current_range_meters":36800,"station_id":"ce4bhqh2rcd13ifvqhmg","pricing_plan_id":"cebpf4jnsgd1na2vs0mg"},{"bike_id":"f4d45015-cae8-4b91-8472-ef79e4ebbfa8","system_id":"levelo_inurba_marseille","lat":43.29455,"lon":5.4384,"is_reserved":false,"is_disabled":false,"rental_uris":{"android":"levelo://app?vid=f4d45015-cae8-4b91-8472-ef79e4ebbfa8","ios":"levelo://app?vid=f4d45015-cae8-4b91-8472-ef79e4ebbfa8"},"vehicle_type_id":"4","last_reported":1733864930,"current_range_meters":22800,"station_id":"","pricing_plan_id":"cebpf4jnsgd1na2vs0mg"},{"bike_id":"44a7c38c-33e2-4d40-ad1e-151297eb2855","system_id":"levelo_inurba_marseille","lat":43.27996,"lon":5.40011,"is_reserved":false,"is_disabled":false,"rental_uris":{"android":"levelo://app?vid=44a7c38c-33e2-4d40-ad1e-151297eb2855","ios":"levelo://app?vid=44a7c38c-33e2-4d40-ad1e-151297eb2855"},"vehicle_type_id":"4","last_reported":1733864930,"current_range_meters":16000,"station_id":"ce4bho92rcd13ifvqh4g","pricing_plan_id":"cebpf4jnsgd1na2vs0mg"},{"bike_id":"8517ae66-f6ff-4dd6-9d2d-51917863b4c1","system_id":"levelo_inurba_marseille","lat":43.30886,"lon":5.39642,"is_reserved":false,"is_disabled":true,"rental_uris":{"android":"levelo://app?vid=8517ae66-f6ff-4dd6-9d2d-51917863b4c1","ios":"levelo://app?vid=8517ae66-f6ff-4dd6-9d2d-51917863b4c1"},"vehicle_type_id":"4","last_reported":1733864930,"current_range_meters":0,"station_id":"ce4bh012rcd13ifvqcv0","pricing_plan_id":"cebpf4jnsgd1na2vs0mg"},{"bike_id":"8bd642b2-0279-44c7-9ee2-fc3b57332c83","system_id":"levelo_inurba_marseille","lat":43.27455,"lon":5.40073,"is_reserved":false,"is_disabled":true,"rental_uris":{"android":"levelo://app?vid=8bd642b2-0279-44c7-9ee2-fc3b57332c83","ios":"levelo://app?vid=8bd642b2-0279-44c7-9ee2-fc3b57332c83"},"vehicle_type_id":"4","last_reported":1733864930,"current_range_meters":0,"station_id":"","pricing_plan_id":"cebpf4jnsgd1na2vs0mg"},{"bike_id":"59b0b34c-6f92-4349-9ebf-bf641fd76061","system_id":"levelo_inurba_marseille","lat":43.2707,"lon":5.42294,"is_reserved":false,"is_disabled":true,"rental_uris":{"android":"levelo://app?vid=59b0b34c-6f92-4349-9ebf-bf641fd76061","ios":"levelo://app?vid=59b0b34c-6f92-4349-9ebf-bf641fd76061"},"vehicle_type_id":"4","last_reported":1733864930,"current_range_meters":29600,"station_id":"ce4bhk92rcd13ifvqgb0","pricing_plan_id":"cebpf4jnsgd1na2vs0mg"},{"bike_id":"0e97a4f9-9494-4d18-8014-d897be428619","system_id":"levelo_inurba_marseille","lat":43.30592,"lon":5.40168,"is_reserved":false,"is_disabled":false,"rental_uris":{"android":"levelo://app?vid=0e97a4f9-9494-4d18-8014-d897be428619","ios":"levelo://app?vid=0e97a4f9-9494-4d18-8014-d897be428619"},"vehicle_type_id":"4","last_reported":1733864930,"current_range_meters":21600,"station_id":"","pricing_plan_id":"cebpf4jnsgd1na2vs0mg"},{"bike_id":"0aad5a11-03ea-4a8f-ae5e-659145c08a75","system_id":"levelo_inurba_marseille","lat":43.29224,"lon":5.36053,"is_reserved":false,"is_disabled":false,"rental_uris":{"android":"levelo://app?vid=0aad5a11-03ea-4a8f-ae5e-659145c08a75","ios":"levelo://app?vid=0aad5a11-03ea-4a8f-ae5e-659145c08a75"},"vehicle_type_id":"4","last_reported":1733864930,"current_range_meters":15200,"station_id":"ce4bhbh2rcd13ifvqeqg","pricing_plan_id":"cebpf4jnsgd1na2vs0mg"},{"bike_id":"26d10866-2c2a-4274-8b91-473eba9667ed","system_id":"levelo_inurba_marseille","lat":43.29044,"lon":5.35912,"is_reserved":false,"is_disabled":false,"rental_uris":{"android":"levelo://app?vid=26d10866-2c2a-4274-8b91-473eba9667ed","ios":"levelo://app?vid=26d10866-2c2a-4274-8b91-473eba9667ed"},"vehicle_type_id":"4","last_reported":1733864930,"current_range_meters":10800,"station_id":"ce4bha92rcd13ifvqeg0","pricing_plan_id":"cebpf4jnsgd1na2vs0mg"},{"bike_id":"f09914a1-032a-4233-965f-c73f49a269ba","system_id":"levelo_inurba_marseille","lat":43.337444,"lon":5.374475,"is_reserved":false,"is_disabled":true,"rental_uris":{"android":"levelo://app?vid=f09914a1-032a-4233-965f-c73f49a269ba","ios":"levelo://app?vid=f09914a1-032a-4233-965f-c73f49a269ba"},"vehicle_type_id":"4","last_reported":1733864930,"current_range_meters":0,"station_id":"","pricing_plan_id":"cebpf4jnsgd1na2vs0mg"},{"bike_id":"c1d3fdd9-090b-446a-9a55-c32b915bc6d3","system_id":"levelo_inurba_marseille","lat":43.29227,"lon":5.36064,"is_reserved":false,"is_disabled":false,"rental_uris":{"android":"levelo://app?vid=c1d3fdd9-090b-446a-9a55-c32b915bc6d3","ios":"levelo://app?vid=c1d3fdd9-090b-446a-9a55-c32b915bc6d3"},"vehicle_type_id":"4","last_reported":1733864930,"current_range_meters":25600,"station_id":"ce4bhbh2rcd13ifvqeqg","pricing_plan_id":"cebpf4jnsgd1na2vs0mg"},{"bike_id":"4232301f-62cf-4f72-99fa-7b7e52509b87","system_id":"levelo_inurba_marseille","lat":43.337444,"lon":5.374475,"is_reserved":false,"is_disabled":true,"rental_uris":{"android":"levelo://app?vid=4232301f-62cf-4f72-99fa-7b7e52509b87","ios":"levelo://app?vid=4232301f-62cf-4f72-99fa-7b7e52509b87"},"vehicle_type_id":"4","last_reported":1733864930,"current_range_meters":32400,"station_id":"ce4bhoh2rcd13ifvqh5g","pricing_plan_id":"cebpf4jnsgd1na2vs0mg"},{"bike_id":"f6ceca24-19af-4ed8-b20b-dad7699688ae","system_id":"levelo_inurba_marseille","lat":43.324781,"lon":5.365804,"is_reserved":false,"is_disabled":true,"rental_uris":{"android":"levelo://app?vid=f6ceca24-19af-4ed8-b20b-dad7699688ae","ios":"levelo://app?vid=f6ceca24-19af-4ed8-b20b-dad7699688ae"},"vehicle_type_id":"4","last_reported":1733864930,"current_range_meters":22400,"station_id":"ce4bhs12rcd13ifvqhvg","pricing_plan_id":"cebpf4jnsgd1na2vs0mg"},{"bike_id":"a7b350a5-fee3-4ec6-8306-388875022e13","system_id":"levelo_inurba_marseille","lat":43.28942,"lon":5.36641,"is_reserved":false,"is_disabled":false,"rental_uris":{"android":"levelo://app?vid=a7b350a5-fee3-4ec6-8306-388875022e13","ios":"levelo://app?vid=a7b350a5-fee3-4ec6-8306-388875022e13"},"vehicle_type_id":"4","last_reported":1733864930,"current_range_meters":24400,"station_id":"ce4bhap2rcd13ifvqek0","pricing_plan_id":"cebpf4jnsgd1na2vs0mg"},{"bike_id":"364e0f7c-6975-47f5-9773-efb9818b6dca","system_id":"levelo_inurba_marseille","lat":43.307964,"lon":5.435282,"is_reserved":false,"is_disabled":false,"rental_uris":{"android":"levelo://app?vid=364e0f7c-6975-47f5-9773-efb9818b6dca","ios":"levelo://app?vid=364e0f7c-6975-47f5-9773-efb9818b6dca"},"vehicle_type_id":"4","last_reported":1733864930,"current_range_meters":22400,"station_id":"ce4bhph2rcd13ifvqheg","pricing_plan_id":"cebpf4jnsgd1na2vs0mg"},{"bike_id":"56d5a060-025c-47e4-a766-7625b30c6a58","system_id":"levelo_inurba_marseille","lat":43.3117,"lon":5.38719,"is_reserved":false,"is_disabled":false,"rental_uris":{"android":"levelo://app?vid=56d5a060-025c-47e4-a766-7625b30c6a58","ios":"levelo://app?vid=56d5a060-025c-47e4-a766-7625b30c6a58"},"vehicle_type_id":"4","last_reported":1733864930,"current_range_meters":32000,"station_id":"ce4bgv12rcd13ifvqcp0","pricing_plan_id":"cebpf4jnsgd1na2vs0mg"},{"bike_id":"8adc1484-2d31-465e-9e5a-26a9521c7334","system_id":"levelo_inurba_marseille","lat":43.29103,"lon":5.38143,"is_reserved":false,"is_disabled":true,"rental_uris":{"android":"levelo://app?vid=8adc1484-2d31-465e-9e5a-26a9521c7334","ios":"levelo://app?vid=8adc1484-2d31-465e-9e5a-26a9521c7334"},"vehicle_type_id":"4","last_reported":1733864930,"current_range_meters":0,"station_id":"ce4bh512rcd13ifvqe2g","pricing_plan_id":"cebpf4jnsgd1na2vs0mg"},{"bike_id":"ec87a9c5-5c81-4581-95ce-b5e38e26482c","system_id":"levelo_inurba_marseille","lat":43.29201,"lon":5.39331,"is_reserved":false,"is_disabled":false,"rental_uris":{"android":"levelo://app?vid=ec87a9c5-5c81-4581-95ce-b5e38e26482c","ios":"levelo://app?vid=ec87a9c5-5c81-4581-95ce-b5e38e26482c"},"vehicle_type_id":"4","last_reported":1733864930,"current_range_meters":18000,"station_id":"ce4bh8p2rcd13ifvqeb0","pricing_plan_id":"cebpf4jnsgd1na2vs0mg"},{"bike_id":"ef631907-e6ba-4d7a-9367-4e0640d52396","system_id":"levelo_inurba_marseille","lat":43.27999,"lon":5.40007,"is_reserved":false,"is_disabled":false,"rental_uris":{"android":"levelo://app?vid=ef631907-e6ba-4d7a-9367-4e0640d52396","ios":"levelo://app?vid=ef631907-e6ba-4d7a-9367-4e0640d52396"},"vehicle_type_id":"4","last_reported":1733864930,"current_range_meters":20400,"station_id":"ce4bho92rcd13ifvqh4g","pricing_plan_id":"cebpf4jnsgd1na2vs0mg"},{"bike_id":"6547f074-fdd6-40e0-afe2-18e87d9a5a44","system_id":"levelo_inurba_marseille","lat":43.31273,"lon":5.40174,"is_reserved":false,"is_disabled":false,"rental_uris":{"android":"levelo://app?vid=6547f074-fdd6-40e0-afe2-18e87d9a5a44","ios":"levelo://app?vid=6547f074-fdd6-40e0-afe2-18e87d9a5a44"},"vehicle_type_id":"4","last_reported":1733864930,"current_range_meters":38800,"station_id":"ce4bh092rcd13ifvqd30","pricing_plan_id":"cebpf4jnsgd1na2vs0mg"},{"bike_id":"9798a14a-cd61-47ed-aaf1-b8c85e3fdb91","system_id":"levelo_inurba_marseille","lat":43.2894,"lon":5.36631,"is_reserved":false,"is_disabled":true,"rental_uris":{"android":"levelo://app?vid=9798a14a-cd61-47ed-aaf1-b8c85e3fdb91","ios":"levelo://app?vid=9798a14a-cd61-47ed-aaf1-b8c85e3fdb91"},"vehicle_type_id":"4","last_reported":1733864930,"current_range_meters":3600,"station_id":"ce4bhap2rcd13ifvqek0","pricing_plan_id":"cebpf4jnsgd1na2vs0mg"},{"bike_id":"f742d182-a4c1-4ed5-8168-7831b028526b","system_id":"levelo_inurba_marseille","lat":43.323607,"lon":5.388847,"is_reserved":false,"is_disabled":false,"rental_uris":{"android":"levelo://app?vid=f742d182-a4c1-4ed5-8168-7831b028526b","ios":"levelo://app?vid=f742d182-a4c1-4ed5-8168-7831b028526b"},"vehicle_type_id":"4","last_reported":1733864930,"current_range_meters":8000,"station_id":"ce4bhqp2rcd13ifvqhog","pricing_plan_id":"cebpf4jnsgd1na2vs0mg"},{"bike_id":"9f10c2c9-55ec-4460-a121-3f5fecd15570","system_id":"levelo_inurba_marseille","lat":43.31476,"lon":5.37289,"is_reserved":false,"is_disabled":false,"rental_uris":{"android":"levelo://app?vid=9f10c2c9-55ec-4460-a121-3f5fecd15570","ios":"levelo://app?vid=9f10c2c9-55ec-4460-a121-3f5fecd15570"},"vehicle_type_id":"4","last_reported":1733864930,"current_range_meters":32000,"station_id":"ce4bgt12rcd13ifvqcd0","pricing_plan_id":"cebpf4jnsgd1na2vs0mg"},{"bike_id":"6759c756-c36f-4ebb-8466-b04f64ae8da5","system_id":"levelo_inurba_marseille","lat":43.26559,"lon":5.37287,"is_reserved":false,"is_disabled":false,"rental_uris":{"android":"levelo://app?vid=6759c756-c36f-4ebb-8466-b04f64ae8da5","ios":"levelo://app?vid=6759c756-c36f-4ebb-8466-b04f64ae8da5"},"vehicle_type_id":"4","last_reported":1733864930,"current_range_meters":16400,"station_id":"ce4bhg12rcd13ifvqf70","pricing_plan_id":"cebpf4jnsgd1na2vs0mg"},{"bike_id":"63f51a99-e88f-4e4d-b4df-03a3652dc436","system_id":"levelo_inurba_marseille","lat":43.2885,"lon":5.35852,"is_reserved":false,"is_disabled":false,"rental_uris":{"android":"levelo://app?vid=63f51a99-e88f-4e4d-b4df-03a3652dc436","ios":"levelo://app?vid=63f51a99-e88f-4e4d-b4df-03a3652dc436"},"vehicle_type_id":"4","last_reported":1733864930,"current_range_meters":31200,"station_id":"ce4bhb12rcd13ifvqem0","pricing_plan_id":"cebpf4jnsgd1na2vs0mg"},{"bike_id":"f7c82427-9ce1-4fc4-a71d-22b3d3b269c1","system_id":"levelo_inurba_marseille","lat":43.29615,"lon":5.37718,"is_reserved":false,"is_disabled":false,"rental_uris":{"android":"levelo://app?vid=f7c82427-9ce1-4fc4-a71d-22b3d3b269c1","ios":"levelo://app?vid=f7c82427-9ce1-4fc4-a71d-22b3d3b269c1"},"vehicle_type_id":"4","last_reported":1733864930,"current_range_meters":6400,"station_id":"ce4bgi92rcd13ifvqb90","pricing_plan_id":"cebpf4jnsgd1na2vs0mg"},{"bike_id":"a75f2e36-4d15-4ce2-9527-3c1cd13156b5","system_id":"levelo_inurba_marseille","lat":43.27819,"lon":5.40727,"is_reserved":false,"is_disabled":false,"rental_uris":{"android":"levelo://app?vid=a75f2e36-4d15-4ce2-9527-3c1cd13156b5","ios":"levelo://app?vid=a75f2e36-4d15-4ce2-9527-3c1cd13156b5"},"vehicle_type_id":"4","last_reported":1733864930,"current_range_meters":29600,"station_id":"ce4bhnh2rcd13ifvqgtg","pricing_plan_id":"cebpf4jnsgd1na2vs0mg"},{"bike_id":"d7a879f6-0e25-4ad7-a843-848b313ff6c1","system_id":"levelo_inurba_marseille","lat":43.29451,"lon":5.39759,"is_reserved":false,"is_disabled":true,"rental_uris":{"android":"levelo://app?vid=d7a879f6-0e25-4ad7-a843-848b313ff6c1","ios":"levelo://app?vid=d7a879f6-0e25-4ad7-a843-848b313ff6c1"},"vehicle_type_id":"4","last_reported":1733864930,"current_range_meters":38800,"station_id":"ce4bh3h2rcd13ifvqdo0","pricing_plan_id":"cebpf4jnsgd1na2vs0mg"},{"bike_id":"3382ae16-d77d-40d4-ade6-aa3116784e40","system_id":"levelo_inurba_marseille","lat":43.29544,"lon":5.4227,"is_reserved":false,"is_disabled":false,"rental_uris":{"android":"levelo://app?vid=3382ae16-d77d-40d4-ade6-aa3116784e40","ios":"levelo://app?vid=3382ae16-d77d-40d4-ade6-aa3116784e40"},"vehicle_type_id":"4","last_reported":1733864930,"current_range_meters":31200,"station_id":"ce4bhph2rcd13ifvqhdg","pricing_plan_id":"cebpf4jnsgd1na2vs0mg"},{"bike_id":"73981550-2110-4a4d-9d61-5d6c736f17c8","system_id":"levelo_inurba_marseille","lat":43.29571,"lon":5.3998,"is_reserved":false,"is_disabled":false,"rental_uris":{"android":"levelo://app?vid=73981550-2110-4a4d-9d61-5d6c736f17c8","ios":"levelo://app?vid=73981550-2110-4a4d-9d61-5d6c736f17c8"},"vehicle_type_id":"4","last_reported":1733864930,"current_range_meters":38800,"station_id":"ce4bh312rcd13ifvqdj0","pricing_plan_id":"cebpf4jnsgd1na2vs0mg"},{"bike_id":"2f3968e7-9336-4ee4-ba78-8e92c0a818cc","system_id":"levelo_inurba_marseille","lat":43.31322,"lon":5.36647,"is_reserved":false,"is_disabled":true,"rental_uris":{"android":"levelo://app?vid=2f3968e7-9336-4ee4-ba78-8e92c0a818cc","ios":"levelo://app?vid=2f3968e7-9336-4ee4-ba78-8e92c0a818cc"},"vehicle_type_id":"4","last_reported":1733864930,"current_range_meters":0,"station_id":"","pricing_plan_id":"cebpf4jnsgd1na2vs0mg"},{"bike_id":"e4b71c7a-7847-40e2-a428-1a3027941dcf","system_id":"levelo_inurba_marseille","lat":43.27998,"lon":5.40003,"is_reserved":false,"is_disabled":false,"rental_uris":{"android":"levelo://app?vid=e4b71c7a-7847-40e2-a428-1a3027941dcf","ios":"levelo://app?vid=e4b71c7a-7847-40e2-a428-1a3027941dcf"},"vehicle_type_id":"4","last_reported":1733864930,"current_range_meters":8800,"station_id":"ce4bho92rcd13ifvqh4g","pricing_plan_id":"cebpf4jnsgd1na2vs0mg"},{"bike_id":"296ab8cb-e177-4af2-b784-e043c3ebc1c3","system_id":"levelo_inurba_marseille","lat":43.3065,"lon":5.40096,"is_reserved":false,"is_disabled":true,"rental_uris":{"android":"levelo://app?vid=296ab8cb-e177-4af2-b784-e043c3ebc1c3","ios":"levelo://app?vid=296ab8cb-e177-4af2-b784-e043c3ebc1c3"},"vehicle_type_id":"4","last_reported":1733864930,"current_range_meters":0,"station_id":"ce4bh112rcd13ifvqda0","pricing_plan_id":"cebpf4jnsgd1na2vs0mg"},{"bike_id":"75791e08-5163-4396-ab56-c5d4b5cc5ecd","system_id":"levelo_inurba_marseille","lat":43.24392,"lon":5.37062,"is_reserved":false,"is_disabled":false,"rental_uris":{"android":"levelo://app?vid=75791e08-5163-4396-ab56-c5d4b5cc5ecd","ios":"levelo://app?vid=75791e08-5163-4396-ab56-c5d4b5cc5ecd"},"vehicle_type_id":"4","last_reported":1733864930,"current_range_meters":38800,"station_id":"ce4bhhh2rcd13ifvqfk0","pricing_plan_id":"cebpf4jnsgd1na2vs0mg"},{"bike_id":"df4feb1f-9980-495a-9019-b10d3b2deeda","system_id":"levelo_inurba_marseille","lat":43.27993,"lon":5.40016,"is_reserved":false,"is_disabled":true,"rental_uris":{"android":"levelo://app?vid=df4feb1f-9980-495a-9019-b10d3b2deeda","ios":"levelo://app?vid=df4feb1f-9980-495a-9019-b10d3b2deeda"},"vehicle_type_id":"4","last_reported":1733864930,"current_range_meters":2800,"station_id":"ce4bho92rcd13ifvqh4g","pricing_plan_id":"cebpf4jnsgd1na2vs0mg"},{"bike_id":"844bd8d7-c23e-440a-bf42-a0bfecd3f520","system_id":"levelo_inurba_marseille","lat":43.30616,"lon":5.37243,"is_reserved":false,"is_disabled":false,"rental_uris":{"android":"levelo://app?vid=844bd8d7-c23e-440a-bf42-a0bfecd3f520","ios":"levelo://app?vid=844bd8d7-c23e-440a-bf42-a0bfecd3f520"},"vehicle_type_id":"4","last_reported":1733864930,"current_range_meters":16800,"station_id":"ce4bgqh2rcd13ifvqc4g","pricing_plan_id":"cebpf4jnsgd1na2vs0mg"},{"bike_id":"1c10d040-1cf1-4557-92bd-d2dde63bbb3f","system_id":"levelo_inurba_marseille","lat":43.2681,"lon":5.40267,"is_reserved":false,"is_disabled":false,"rental_uris":{"android":"levelo://app?vid=1c10d040-1cf1-4557-92bd-d2dde63bbb3f","ios":"levelo://app?vid=1c10d040-1cf1-4557-92bd-d2dde63bbb3f"},"vehicle_type_id":"4","last_reported":1733864930,"current_range_meters":38800,"station_id":"ce501612rcd8frsf0b60","pricing_plan_id":"cebpf4jnsgd1na2vs0mg"},{"bike_id":"136a5996-58af-4dd5-986a-1172a1da083c","system_id":"levelo_inurba_marseille","lat":43.270539,"lon":5.402653,"is_reserved":false,"is_disabled":false,"rental_uris":{"android":"levelo://app?vid=136a5996-58af-4dd5-986a-1172a1da083c","ios":"levelo://app?vid=136a5996-58af-4dd5-986a-1172a1da083c"},"vehicle_type_id":"4","last_reported":1733864930,"current_range_meters":6800,"station_id":"","pricing_plan_id":"cebpf4jnsgd1na2vs0mg"},{"bike_id":"02b35678-f4a7-4801-8ef2-5a96033c92be","system_id":"levelo_inurba_marseille","lat":43.31076,"lon":5.38343,"is_reserved":false,"is_disabled":false,"rental_uris":{"android":"levelo://app?vid=02b35678-f4a7-4801-8ef2-5a96033c92be","ios":"levelo://app?vid=02b35678-f4a7-4801-8ef2-5a96033c92be"},"vehicle_type_id":"4","last_reported":1733864930,"current_range_meters":33200,"station_id":"ce4bgv92rcd13ifvqcr0","pricing_plan_id":"cebpf4jnsgd1na2vs0mg"},{"bike_id":"f32467db-cf0d-44a5-8115-2d51ee9eff51","system_id":"levelo_inurba_marseille","lat":43.30436,"lon":5.38905,"is_reserved":false,"is_disabled":false,"rental_uris":{"android":"levelo://app?vid=f32467db-cf0d-44a5-8115-2d51ee9eff51","ios":"levelo://app?vid=f32467db-cf0d-44a5-8115-2d51ee9eff51"},"vehicle_type_id":"4","last_reported":1733864930,"current_range_meters":33600,"station_id":"ce4bgk12rcd13ifvqbi0","pricing_plan_id":"cebpf4jnsgd1na2vs0mg"},{"bike_id":"fa5e44b6-fd05-438e-b225-70dfbfd961d6","system_id":"levelo_inurba_marseille","lat":43.29575,"lon":5.38102,"is_reserved":false,"is_disabled":false,"rental_uris":{"android":"levelo://app?vid=fa5e44b6-fd05-438e-b225-70dfbfd961d6","ios":"levelo://app?vid=fa5e44b6-fd05-438e-b225-70dfbfd961d6"},"vehicle_type_id":"4","last_reported":1733864930,"current_range_meters":38000,"station_id":"ce4bgl12rcd13ifvqbo0","pricing_plan_id":"cebpf4jnsgd1na2vs0mg"},{"bike_id":"014cf524-69c6-4b89-b41e-8fb18927cd86","system_id":"levelo_inurba_marseille","lat":43.30793,"lon":5.43519,"is_reserved":false,"is_disabled":false,"rental_uris":{"android":"levelo://app?vid=014cf524-69c6-4b89-b41e-8fb18927cd86","ios":"levelo://app?vid=014cf524-69c6-4b89-b41e-8fb18927cd86"},"vehicle_type_id":"4","last_reported":1733864930,"current_range_meters":24800,"station_id":"ce4bhph2rcd13ifvqheg","pricing_plan_id":"cebpf4jnsgd1na2vs0mg"},{"bike_id":"12add500-ea1f-403d-bb3c-de83ce61c6f3","system_id":"levelo_inurba_marseille","lat":43.28973,"lon":5.36589,"is_reserved":false,"is_disabled":true,"rental_uris":{"android":"levelo://app?vid=12add500-ea1f-403d-bb3c-de83ce61c6f3","ios":"levelo://app?vid=12add500-ea1f-403d-bb3c-de83ce61c6f3"},"vehicle_type_id":"4","last_reported":1733864930,"current_range_meters":34000,"station_id":"ce4bhap2rcd13ifvqek0","pricing_plan_id":"cebpf4jnsgd1na2vs0mg"},{"bike_id":"31b9dc14-975f-4a3e-bcc5-194ee4280d5a","system_id":"levelo_inurba_marseille","lat":43.27997,"lon":5.41662,"is_reserved":false,"is_disabled":false,"rental_uris":{"android":"levelo://app?vid=31b9dc14-975f-4a3e-bcc5-194ee4280d5a","ios":"levelo://app?vid=31b9dc14-975f-4a3e-bcc5-194ee4280d5a"},"vehicle_type_id":"4","last_reported":1733864930,"current_range_meters":36400,"station_id":"ce4bho12rcd13ifvqh1g","pricing_plan_id":"cebpf4jnsgd1na2vs0mg"},{"bike_id":"be45178b-17ee-49ac-b151-4f7e4227bfa2","system_id":"levelo_inurba_marseille","lat":43.28036,"lon":5.3693,"is_reserved":false,"is_disabled":false,"rental_uris":{"android":"levelo://app?vid=be45178b-17ee-49ac-b151-4f7e4227bfa2","ios":"levelo://app?vid=be45178b-17ee-49ac-b151-4f7e4227bfa2"},"vehicle_type_id":"4","last_reported":1733864930,"current_range_meters":4800,"station_id":"ce4bha12rcd13ifvqef0","pricing_plan_id":"cebpf4jnsgd1na2vs0mg"},{"bike_id":"2410b01a-5da7-4d60-be03-4988951089e2","system_id":"levelo_inurba_marseille","lat":43.28106,"lon":5.37834,"is_reserved":false,"is_disabled":false,"rental_uris":{"android":"levelo://app?vid=2410b01a-5da7-4d60-be03-4988951089e2","ios":"levelo://app?vid=2410b01a-5da7-4d60-be03-4988951089e2"},"vehicle_type_id":"4","last_reported":1733864930,"current_range_meters":34000,"station_id":"ce4bha12rcd13ifvqee0","pricing_plan_id":"cebpf4jnsgd1na2vs0mg"},{"bike_id":"15b20b6b-daab-4da2-a228-a8042b0ad8e7","system_id":"levelo_inurba_marseille","lat":43.28853,"lon":5.3586,"is_reserved":false,"is_disabled":false,"rental_uris":{"android":"levelo://app?vid=15b20b6b-daab-4da2-a228-a8042b0ad8e7","ios":"levelo://app?vid=15b20b6b-daab-4da2-a228-a8042b0ad8e7"},"vehicle_type_id":"4","last_reported":1733864930,"current_range_meters":18000,"station_id":"ce4bhb12rcd13ifvqem0","pricing_plan_id":"cebpf4jnsgd1na2vs0mg"},{"bike_id":"ce93eba4-a260-4242-bfd1-eb4a1083d4a6","system_id":"levelo_inurba_marseille","lat":43.27367,"lon":5.36258,"is_reserved":false,"is_disabled":false,"rental_uris":{"android":"levelo://app?vid=ce93eba4-a260-4242-bfd1-eb4a1083d4a6","ios":"levelo://app?vid=ce93eba4-a260-4242-bfd1-eb4a1083d4a6"},"vehicle_type_id":"4","last_reported":1733864930,"current_range_meters":39200,"station_id":"ce4bhbh2rcd13ifvqeo0","pricing_plan_id":"cebpf4jnsgd1na2vs0mg"},{"bike_id":"47c92de8-b6d5-45bb-9b41-090bd82afb07","system_id":"levelo_inurba_marseille","lat":43.30606,"lon":5.37239,"is_reserved":false,"is_disabled":false,"rental_uris":{"android":"levelo://app?vid=47c92de8-b6d5-45bb-9b41-090bd82afb07","ios":"levelo://app?vid=47c92de8-b6d5-45bb-9b41-090bd82afb07"},"vehicle_type_id":"4","last_reported":1733864930,"current_range_meters":15200,"station_id":"ce4bgqh2rcd13ifvqc4g","pricing_plan_id":"cebpf4jnsgd1na2vs0mg"},{"bike_id":"9734b120-c4e4-4325-a738-780027e8da66","system_id":"levelo_inurba_marseille","lat":43.28039,"lon":5.36941,"is_reserved":false,"is_disabled":false,"rental_uris":{"android":"levelo://app?vid=9734b120-c4e4-4325-a738-780027e8da66","ios":"levelo://app?vid=9734b120-c4e4-4325-a738-780027e8da66"},"vehicle_type_id":"4","last_reported":1733864930,"current_range_meters":30800,"station_id":"ce4bha12rcd13ifvqef0","pricing_plan_id":"cebpf4jnsgd1na2vs0mg"},{"bike_id":"c1af07c0-ed11-49c8-aa2e-1104638a28b7","system_id":"levelo_inurba_marseille","lat":43.23065,"lon":5.35501,"is_reserved":false,"is_disabled":false,"rental_uris":{"android":"levelo://app?vid=c1af07c0-ed11-49c8-aa2e-1104638a28b7","ios":"levelo://app?vid=c1af07c0-ed11-49c8-aa2e-1104638a28b7"},"vehicle_type_id":"4","last_reported":1733864930,"current_range_meters":17200,"station_id":"cpo3342slgdg3j2ifvpg","pricing_plan_id":"cebpf4jnsgd1na2vs0mg"},{"bike_id":"62fc8764-a9a2-46fc-b59b-39e0e5007705","system_id":"levelo_inurba_marseille","lat":43.28466,"lon":5.35877,"is_reserved":false,"is_disabled":false,"rental_uris":{"android":"levelo://app?vid=62fc8764-a9a2-46fc-b59b-39e0e5007705","ios":"levelo://app?vid=62fc8764-a9a2-46fc-b59b-39e0e5007705"},"vehicle_type_id":"4","last_reported":1733864930,"current_range_meters":38800,"station_id":"ce4bhah2rcd13ifvqei0","pricing_plan_id":"cebpf4jnsgd1na2vs0mg"},{"bike_id":"22b0df30-82a7-4b9b-96d6-c00313399a42","system_id":"levelo_inurba_marseille","lat":43.29075,"lon":5.37177,"is_reserved":false,"is_disabled":false,"rental_uris":{"android":"levelo://app?vid=22b0df30-82a7-4b9b-96d6-c00313399a42","ios":"levelo://app?vid=22b0df30-82a7-4b9b-96d6-c00313399a42"},"vehicle_type_id":"4","last_reported":1733864930,"current_range_meters":19600,"station_id":"ce4bh5p2rcd13ifvqe4g","pricing_plan_id":"cebpf4jnsgd1na2vs0mg"},{"bike_id":"7d344c9c-169f-43df-a2e8-f6d4868c2684","system_id":"levelo_inurba_marseille","lat":43.3088,"lon":5.39649,"is_reserved":false,"is_disabled":false,"rental_uris":{"android":"levelo://app?vid=7d344c9c-169f-43df-a2e8-f6d4868c2684","ios":"levelo://app?vid=7d344c9c-169f-43df-a2e8-f6d4868c2684"},"vehicle_type_id":"4","last_reported":1733864930,"current_range_meters":14400,"station_id":"ce4bh012rcd13ifvqcv0","pricing_plan_id":"cebpf4jnsgd1na2vs0mg"},{"bike_id":"a9dde08b-6d06-4ebc-b232-3bba2d50b767","system_id":"levelo_inurba_marseille","lat":43.31763,"lon":5.39017,"is_reserved":false,"is_disabled":false,"rental_uris":{"android":"levelo://app?vid=a9dde08b-6d06-4ebc-b232-3bba2d50b767","ios":"levelo://app?vid=a9dde08b-6d06-4ebc-b232-3bba2d50b767"},"vehicle_type_id":"4","last_reported":1733864930,"current_range_meters":36800,"station_id":"ce4bhqp2rcd13ifvqhng","pricing_plan_id":"cebpf4jnsgd1na2vs0mg"},{"bike_id":"dee835e6-f2ba-4a33-9e4b-7ee13e6d35dc","system_id":"levelo_inurba_marseille","lat":43.28616,"lon":5.35102,"is_reserved":false,"is_disabled":false,"rental_uris":{"android":"levelo://app?vid=dee835e6-f2ba-4a33-9e4b-7ee13e6d35dc","ios":"levelo://app?vid=dee835e6-f2ba-4a33-9e4b-7ee13e6d35dc"},"vehicle_type_id":"4","last_reported":1733864930,"current_range_meters":27600,"station_id":"ce4bhch2rcd13ifvqeug","pricing_plan_id":"cebpf4jnsgd1na2vs0mg"},{"bike_id":"6f5aafc4-06b9-4dba-b612-5d926167490b","system_id":"levelo_inurba_marseille","lat":43.32477,"lon":5.36582,"is_reserved":false,"is_disabled":true,"rental_uris":{"android":"levelo://app?vid=6f5aafc4-06b9-4dba-b612-5d926167490b","ios":"levelo://app?vid=6f5aafc4-06b9-4dba-b612-5d926167490b"},"vehicle_type_id":"4","last_reported":1733864930,"current_range_meters":0,"station_id":"ce4bhs12rcd13ifvqhvg","pricing_plan_id":"cebpf4jnsgd1na2vs0mg"},{"bike_id":"ce5eb1cb-a3d2-4292-9267-e6a9b9578787","system_id":"levelo_inurba_marseille","lat":43.31484,"lon":5.37309,"is_reserved":false,"is_disabled":false,"rental_uris":{"android":"levelo://app?vid=ce5eb1cb-a3d2-4292-9267-e6a9b9578787","ios":"levelo://app?vid=ce5eb1cb-a3d2-4292-9267-e6a9b9578787"},"vehicle_type_id":"4","last_reported":1733864930,"current_range_meters":34000,"station_id":"ce4bgt12rcd13ifvqcd0","pricing_plan_id":"cebpf4jnsgd1na2vs0mg"},{"bike_id":"3154b94a-58d8-4e6e-a31e-c7252ba3a659","system_id":"levelo_inurba_marseille","lat":43.30554,"lon":5.3657,"is_reserved":false,"is_disabled":false,"rental_uris":{"android":"levelo://app?vid=3154b94a-58d8-4e6e-a31e-c7252ba3a659","ios":"levelo://app?vid=3154b94a-58d8-4e6e-a31e-c7252ba3a659"},"vehicle_type_id":"4","last_reported":1733864930,"current_range_meters":22800,"station_id":"ce4bgs12rcd13ifvqcag","pricing_plan_id":"cebpf4jnsgd1na2vs0mg"},{"bike_id":"50dfaea5-dd1e-4b6a-8b46-04fa3a7fc504","system_id":"levelo_inurba_marseille","lat":43.29432,"lon":5.39736,"is_reserved":false,"is_disabled":false,"rental_uris":{"android":"levelo://app?vid=50dfaea5-dd1e-4b6a-8b46-04fa3a7fc504","ios":"levelo://app?vid=50dfaea5-dd1e-4b6a-8b46-04fa3a7fc504"},"vehicle_type_id":"4","last_reported":1733864930,"current_range_meters":38000,"station_id":"ce4bh3h2rcd13ifvqdo0","pricing_plan_id":"cebpf4jnsgd1na2vs0mg"},{"bike_id":"192c7215-c928-4138-9a2c-6c048775082a","system_id":"levelo_inurba_marseille","lat":43.25115,"lon":5.4032,"is_reserved":false,"is_disabled":true,"rental_uris":{"android":"levelo://app?vid=192c7215-c928-4138-9a2c-6c048775082a","ios":"levelo://app?vid=192c7215-c928-4138-9a2c-6c048775082a"},"vehicle_type_id":"4","last_reported":1733864930,"current_range_meters":0,"station_id":"ce4bhlh2rcd13ifvqgig","pricing_plan_id":"cebpf4jnsgd1na2vs0mg"},{"bike_id":"74ddbdc3-b082-4f44-a075-38dfc2e6b2cd","system_id":"levelo_inurba_marseille","lat":43.24167,"lon":5.36387,"is_reserved":false,"is_disabled":false,"rental_uris":{"android":"levelo://app?vid=74ddbdc3-b082-4f44-a075-38dfc2e6b2cd","ios":"levelo://app?vid=74ddbdc3-b082-4f44-a075-38dfc2e6b2cd"},"vehicle_type_id":"4","last_reported":1733864930,"current_range_meters":20000,"station_id":"cpo36qri1sfpv3e86is0","pricing_plan_id":"cebpf4jnsgd1na2vs0mg"},{"bike_id":"c686933c-fda6-483a-93e8-899283bfaa69","system_id":"levelo_inurba_marseille","lat":43.33021,"lon":5.39032,"is_reserved":false,"is_disabled":false,"rental_uris":{"android":"levelo://app?vid=c686933c-fda6-483a-93e8-899283bfaa69","ios":"levelo://app?vid=c686933c-fda6-483a-93e8-899283bfaa69"},"vehicle_type_id":"4","last_reported":1733864930,"current_range_meters":6400,"station_id":"ce4bhr92rcd13ifvqhrg","pricing_plan_id":"cebpf4jnsgd1na2vs0mg"},{"bike_id":"627751bc-d2b6-495a-97de-471267d080a6","system_id":"levelo_inurba_marseille","lat":43.30322,"lon":5.40439,"is_reserved":false,"is_disabled":true,"rental_uris":{"android":"levelo://app?vid=627751bc-d2b6-495a-97de-471267d080a6","ios":"levelo://app?vid=627751bc-d2b6-495a-97de-471267d080a6"},"vehicle_type_id":"4","last_reported":1733864930,"current_range_meters":37600,"station_id":"ce4bh012rcd13ifvqd10","pricing_plan_id":"cebpf4jnsgd1na2vs0mg"},{"bike_id":"9cd79aab-6f4c-4919-b570-803a9e8b35c5","system_id":"levelo_inurba_marseille","lat":43.30467,"lon":5.3671,"is_reserved":false,"is_disabled":true,"rental_uris":{"android":"levelo://app?vid=9cd79aab-6f4c-4919-b570-803a9e8b35c5","ios":"levelo://app?vid=9cd79aab-6f4c-4919-b570-803a9e8b35c5"},"vehicle_type_id":"4","last_reported":1733864930,"current_range_meters":22400,"station_id":"","pricing_plan_id":"cebpf4jnsgd1na2vs0mg"},{"bike_id":"1f82461f-4d7d-4d79-876a-a1d9e5ce8b3a","system_id":"levelo_inurba_marseille","lat":43.29222,"lon":5.36076,"is_reserved":false,"is_disabled":false,"rental_uris":{"android":"levelo://app?vid=1f82461f-4d7d-4d79-876a-a1d9e5ce8b3a","ios":"levelo://app?vid=1f82461f-4d7d-4d79-876a-a1d9e5ce8b3a"},"vehicle_type_id":"4","last_reported":1733864930,"current_range_meters":37600,"station_id":"ce4bhbh2rcd13ifvqeqg","pricing_plan_id":"cebpf4jnsgd1na2vs0mg"},{"bike_id":"d4cf4dc8-25ec-4bf6-92cf-917fbe800064","system_id":"levelo_inurba_marseille","lat":43.27003,"lon":5.38762,"is_reserved":false,"is_disabled":false,"rental_uris":{"android":"levelo://app?vid=d4cf4dc8-25ec-4bf6-92cf-917fbe800064","ios":"levelo://app?vid=d4cf4dc8-25ec-4bf6-92cf-917fbe800064"},"vehicle_type_id":"4","last_reported":1733864930,"current_range_meters":8400,"station_id":"","pricing_plan_id":"cebpf4jnsgd1na2vs0mg"},{"bike_id":"911a120c-dd27-409d-b381-ea70ccabfd85","system_id":"levelo_inurba_marseille","lat":43.250946,"lon":5.395219,"is_reserved":false,"is_disabled":true,"rental_uris":{"android":"levelo://app?vid=911a120c-dd27-409d-b381-ea70ccabfd85","ios":"levelo://app?vid=911a120c-dd27-409d-b381-ea70ccabfd85"},"vehicle_type_id":"4","last_reported":1733864930,"current_range_meters":12400,"station_id":"ce4bhm12rcd13ifvqgkg","pricing_plan_id":"cebpf4jnsgd1na2vs0mg"},{"bike_id":"4864fc43-913f-492f-a632-86c0069456e4","system_id":"levelo_inurba_marseille","lat":43.28701,"lon":5.37391,"is_reserved":false,"is_disabled":false,"rental_uris":{"android":"levelo://app?vid=4864fc43-913f-492f-a632-86c0069456e4","ios":"levelo://app?vid=4864fc43-913f-492f-a632-86c0069456e4"},"vehicle_type_id":"4","last_reported":1733864930,"current_range_meters":14400,"station_id":"ce4bh3p2rcd13ifvqdq0","pricing_plan_id":"cebpf4jnsgd1na2vs0mg"},{"bike_id":"91e195df-17b2-4084-bbfe-158bf0cc8cf2","system_id":"levelo_inurba_marseille","lat":43.31171,"lon":5.38726,"is_reserved":false,"is_disabled":false,"rental_uris":{"android":"levelo://app?vid=91e195df-17b2-4084-bbfe-158bf0cc8cf2","ios":"levelo://app?vid=91e195df-17b2-4084-bbfe-158bf0cc8cf2"},"vehicle_type_id":"4","last_reported":1733864930,"current_range_meters":39200,"station_id":"ce4bgv12rcd13ifvqcp0","pricing_plan_id":"cebpf4jnsgd1na2vs0mg"},{"bike_id":"543ffcfa-aa63-4350-88ea-e89f19556564","system_id":"levelo_inurba_marseille","lat":43.27179,"lon":5.40991,"is_reserved":false,"is_disabled":false,"rental_uris":{"android":"levelo://app?vid=543ffcfa-aa63-4350-88ea-e89f19556564","ios":"levelo://app?vid=543ffcfa-aa63-4350-88ea-e89f19556564"},"vehicle_type_id":"4","last_reported":1733864930,"current_range_meters":36800,"station_id":"ce4bhl12rcd13ifvqgf0","pricing_plan_id":"cebpf4jnsgd1na2vs0mg"},{"bike_id":"08dc62c2-38ff-4a75-896a-13a67e624991","system_id":"levelo_inurba_marseille","lat":43.27995,"lon":5.40016,"is_reserved":false,"is_disabled":false,"rental_uris":{"android":"levelo://app?vid=08dc62c2-38ff-4a75-896a-13a67e624991","ios":"levelo://app?vid=08dc62c2-38ff-4a75-896a-13a67e624991"},"vehicle_type_id":"4","last_reported":1733864930,"current_range_meters":31200,"station_id":"ce4bho92rcd13ifvqh4g","pricing_plan_id":"cebpf4jnsgd1na2vs0mg"},{"bike_id":"11e86528-eb6b-4391-86a5-9b1822d069a4","system_id":"levelo_inurba_marseille","lat":43.278805,"lon":5.388003,"is_reserved":false,"is_disabled":true,"rental_uris":{"android":"levelo://app?vid=11e86528-eb6b-4391-86a5-9b1822d069a4","ios":"levelo://app?vid=11e86528-eb6b-4391-86a5-9b1822d069a4"},"vehicle_type_id":"4","last_reported":1733864930,"current_range_meters":0,"station_id":"","pricing_plan_id":"cebpf4jnsgd1na2vs0mg"},{"bike_id":"6cc6805f-c0ca-4585-bdf1-b5a0339762b0","system_id":"levelo_inurba_marseille","lat":43.29027,"lon":5.42744,"is_reserved":false,"is_disabled":true,"rental_uris":{"android":"levelo://app?vid=6cc6805f-c0ca-4585-bdf1-b5a0339762b0","ios":"levelo://app?vid=6cc6805f-c0ca-4585-bdf1-b5a0339762b0"},"vehicle_type_id":"4","last_reported":1733864930,"current_range_meters":0,"station_id":"","pricing_plan_id":"cebpf4jnsgd1na2vs0mg"},{"bike_id":"080c9623-7190-4a88-b14f-4d131f18aefc","system_id":"levelo_inurba_marseille","lat":43.29445,"lon":5.39764,"is_reserved":false,"is_disabled":true,"rental_uris":{"android":"levelo://app?vid=080c9623-7190-4a88-b14f-4d131f18aefc","ios":"levelo://app?vid=080c9623-7190-4a88-b14f-4d131f18aefc"},"vehicle_type_id":"4","last_reported":1733864930,"current_range_meters":6400,"station_id":"ce4bh3h2rcd13ifvqdo0","pricing_plan_id":"cebpf4jnsgd1na2vs0mg"},{"bike_id":"2500a150-3721-4ce9-9c4e-9ba45ad44a38","system_id":"levelo_inurba_marseille","lat":43.2799,"lon":5.40026,"is_reserved":false,"is_disabled":false,"rental_uris":{"android":"levelo://app?vid=2500a150-3721-4ce9-9c4e-9ba45ad44a38","ios":"levelo://app?vid=2500a150-3721-4ce9-9c4e-9ba45ad44a38"},"vehicle_type_id":"4","last_reported":1733864930,"current_range_meters":12400,"station_id":"ce4bho92rcd13ifvqh4g","pricing_plan_id":"cebpf4jnsgd1na2vs0mg"},{"bike_id":"16d26648-3788-416f-9597-e71c7e50efdc","system_id":"levelo_inurba_marseille","lat":43.23191,"lon":5.39995,"is_reserved":false,"is_disabled":false,"rental_uris":{"android":"levelo://app?vid=16d26648-3788-416f-9597-e71c7e50efdc","ios":"levelo://app?vid=16d26648-3788-416f-9597-e71c7e50efdc"},"vehicle_type_id":"4","last_reported":1733864930,"current_range_meters":6800,"station_id":"ce4bhn12rcd13ifvqgqg","pricing_plan_id":"cebpf4jnsgd1na2vs0mg"},{"bike_id":"9f03dca4-237a-49dc-8f4b-3b6a07909c99","system_id":"levelo_inurba_marseille","lat":43.23194,"lon":5.35555,"is_reserved":false,"is_disabled":false,"rental_uris":{"android":"levelo://app?vid=9f03dca4-237a-49dc-8f4b-3b6a07909c99","ios":"levelo://app?vid=9f03dca4-237a-49dc-8f4b-3b6a07909c99"},"vehicle_type_id":"4","last_reported":1733864930,"current_range_meters":36800,"station_id":"ce4bhu92rcd13ifvqi70","pricing_plan_id":"cebpf4jnsgd1na2vs0mg"},{"bike_id":"d0e9b0d9-b932-4d84-83c8-f81795e05f31","system_id":"levelo_inurba_marseille","lat":43.28486,"lon":5.38432,"is_reserved":false,"is_disabled":true,"rental_uris":{"android":"levelo://app?vid=d0e9b0d9-b932-4d84-83c8-f81795e05f31","ios":"levelo://app?vid=d0e9b0d9-b932-4d84-83c8-f81795e05f31"},"vehicle_type_id":"4","last_reported":1733864930,"current_range_meters":1600,"station_id":"ce4bh512rcd13ifvqe3g","pricing_plan_id":"cebpf4jnsgd1na2vs0mg"},{"bike_id":"a74c558a-f390-4af8-8bb6-842fae2b466a","system_id":"levelo_inurba_marseille","lat":43.26555,"lon":5.37289,"is_reserved":false,"is_disabled":false,"rental_uris":{"android":"levelo://app?vid=a74c558a-f390-4af8-8bb6-842fae2b466a","ios":"levelo://app?vid=a74c558a-f390-4af8-8bb6-842fae2b466a"},"vehicle_type_id":"4","last_reported":1733864930,"current_range_meters":26000,"station_id":"ce4bhg12rcd13ifvqf70","pricing_plan_id":"cebpf4jnsgd1na2vs0mg"},{"bike_id":"7ed6ec03-befa-4ef0-bc15-a24e700f0a9a","system_id":"levelo_inurba_marseille","lat":43.2799,"lon":5.40019,"is_reserved":false,"is_disabled":true,"rental_uris":{"android":"levelo://app?vid=7ed6ec03-befa-4ef0-bc15-a24e700f0a9a","ios":"levelo://app?vid=7ed6ec03-befa-4ef0-bc15-a24e700f0a9a"},"vehicle_type_id":"4","last_reported":1733864930,"current_range_meters":0,"station_id":"ce4bho92rcd13ifvqh4g","pricing_plan_id":"cebpf4jnsgd1na2vs0mg"},{"bike_id":"1db8c876-8528-4e0d-94c4-d43e44d9e813","system_id":"levelo_inurba_marseille","lat":43.25822,"lon":5.3943,"is_reserved":false,"is_disabled":false,"rental_uris":{"android":"levelo://app?vid=1db8c876-8528-4e0d-94c4-d43e44d9e813","ios":"levelo://app?vid=1db8c876-8528-4e0d-94c4-d43e44d9e813"},"vehicle_type_id":"4","last_reported":1733864930,"current_range_meters":39200,"station_id":"ce4bhip2rcd13ifvqft0","pricing_plan_id":"cebpf4jnsgd1na2vs0mg"},{"bike_id":"85398a33-1d9c-45cb-b315-115944ebd5da","system_id":"levelo_inurba_marseille","lat":43.29736,"lon":5.38115,"is_reserved":false,"is_disabled":false,"rental_uris":{"android":"levelo://app?vid=85398a33-1d9c-45cb-b315-115944ebd5da","ios":"levelo://app?vid=85398a33-1d9c-45cb-b315-115944ebd5da"},"vehicle_type_id":"4","last_reported":1733864930,"current_range_meters":32800,"station_id":"ce4bgip2rcd13ifvqbb0","pricing_plan_id":"cebpf4jnsgd1na2vs0mg"},{"bike_id":"28ea0dce-b762-446b-970f-f3693c260d20","system_id":"levelo_inurba_marseille","lat":43.2846,"lon":5.35883,"is_reserved":false,"is_disabled":false,"rental_uris":{"android":"levelo://app?vid=28ea0dce-b762-446b-970f-f3693c260d20","ios":"levelo://app?vid=28ea0dce-b762-446b-970f-f3693c260d20"},"vehicle_type_id":"4","last_reported":1733864930,"current_range_meters":28800,"station_id":"ce4bhah2rcd13ifvqei0","pricing_plan_id":"cebpf4jnsgd1na2vs0mg"},{"bike_id":"289ecee8-cfa2-40f3-8e60-953db53acb56","system_id":"levelo_inurba_marseille","lat":43.27667,"lon":5.38943,"is_reserved":false,"is_disabled":false,"rental_uris":{"android":"levelo://app?vid=289ecee8-cfa2-40f3-8e60-953db53acb56","ios":"levelo://app?vid=289ecee8-cfa2-40f3-8e60-953db53acb56"},"vehicle_type_id":"4","last_reported":1733864930,"current_range_meters":33600,"station_id":"ce4bhi12rcd13ifvqfo0","pricing_plan_id":"cebpf4jnsgd1na2vs0mg"},{"bike_id":"40b57be1-ce30-40b9-8655-77f9e22115c7","system_id":"levelo_inurba_marseille","lat":43.29572,"lon":5.39984,"is_reserved":false,"is_disabled":false,"rental_uris":{"android":"levelo://app?vid=40b57be1-ce30-40b9-8655-77f9e22115c7","ios":"levelo://app?vid=40b57be1-ce30-40b9-8655-77f9e22115c7"},"vehicle_type_id":"4","last_reported":1733864930,"current_range_meters":12000,"station_id":"ce4bh312rcd13ifvqdj0","pricing_plan_id":"cebpf4jnsgd1na2vs0mg"},{"bike_id":"361741ff-63e4-455f-a8b0-2a502e3bd360","system_id":"levelo_inurba_marseille","lat":43.29509,"lon":5.39051,"is_reserved":false,"is_disabled":false,"rental_uris":{"android":"levelo://app?vid=361741ff-63e4-455f-a8b0-2a502e3bd360","ios":"levelo://app?vid=361741ff-63e4-455f-a8b0-2a502e3bd360"},"vehicle_type_id":"4","last_reported":1733864930,"current_range_meters":38800,"station_id":"ce4bh3p2rcd13ifvqdp0","pricing_plan_id":"cebpf4jnsgd1na2vs0mg"},{"bike_id":"7af45bb2-5ce8-4482-a56e-11f61f863cb1","system_id":"levelo_inurba_marseille","lat":43.297919,"lon":5.393456,"is_reserved":false,"is_disabled":false,"rental_uris":{"android":"levelo://app?vid=7af45bb2-5ce8-4482-a56e-11f61f863cb1","ios":"levelo://app?vid=7af45bb2-5ce8-4482-a56e-11f61f863cb1"},"vehicle_type_id":"4","last_reported":1733864930,"current_range_meters":18000,"station_id":"chh1huq6cuj3fo74tm60","pricing_plan_id":"cebpf4jnsgd1na2vs0mg"},{"bike_id":"99d053e3-f15d-4180-9dd6-52ee06c97bb5","system_id":"levelo_inurba_marseille","lat":43.29977,"lon":5.38498,"is_reserved":false,"is_disabled":false,"rental_uris":{"android":"levelo://app?vid=99d053e3-f15d-4180-9dd6-52ee06c97bb5","ios":"levelo://app?vid=99d053e3-f15d-4180-9dd6-52ee06c97bb5"},"vehicle_type_id":"4","last_reported":1733864930,"current_range_meters":38800,"station_id":"ce4bgj92rcd13ifvqbd0","pricing_plan_id":"cebpf4jnsgd1na2vs0mg"},{"bike_id":"7841be3f-7f3c-45ce-b65f-847747f6ea6d","system_id":"levelo_inurba_marseille","lat":43.29583,"lon":5.37511,"is_reserved":false,"is_disabled":false,"rental_uris":{"android":"levelo://app?vid=7841be3f-7f3c-45ce-b65f-847747f6ea6d","ios":"levelo://app?vid=7841be3f-7f3c-45ce-b65f-847747f6ea6d"},"vehicle_type_id":"4","last_reported":1733864930,"current_range_meters":32400,"station_id":"ce4bgh92rcd13ifvqb50","pricing_plan_id":"cebpf4jnsgd1na2vs0mg"},{"bike_id":"7105a5e0-57ab-4345-9c88-741eb9d8570a","system_id":"levelo_inurba_marseille","lat":43.28441,"lon":5.39205,"is_reserved":false,"is_disabled":false,"rental_uris":{"android":"levelo://app?vid=7105a5e0-57ab-4345-9c88-741eb9d8570a","ios":"levelo://app?vid=7105a5e0-57ab-4345-9c88-741eb9d8570a"},"vehicle_type_id":"4","last_reported":1733864930,"current_range_meters":38800,"station_id":"ce4bhoh2rcd13ifvqh5g","pricing_plan_id":"cebpf4jnsgd1na2vs0mg"},{"bike_id":"44a3143e-1310-449d-bfee-524f6fc11f3a","system_id":"levelo_inurba_marseille","lat":43.30339,"lon":5.40445,"is_reserved":false,"is_disabled":false,"rental_uris":{"android":"levelo://app?vid=44a3143e-1310-449d-bfee-524f6fc11f3a","ios":"levelo://app?vid=44a3143e-1310-449d-bfee-524f6fc11f3a"},"vehicle_type_id":"4","last_reported":1733864930,"current_range_meters":39200,"station_id":"ce4bh012rcd13ifvqd10","pricing_plan_id":"cebpf4jnsgd1na2vs0mg"},{"bike_id":"b0a46ba0-c8bc-4621-808f-2274c3b3257e","system_id":"levelo_inurba_marseille","lat":43.32292,"lon":5.38282,"is_reserved":false,"is_disabled":false,"rental_uris":{"android":"levelo://app?vid=b0a46ba0-c8bc-4621-808f-2274c3b3257e","ios":"levelo://app?vid=b0a46ba0-c8bc-4621-808f-2274c3b3257e"},"vehicle_type_id":"4","last_reported":1733864930,"current_range_meters":38800,"station_id":"ce4bhr12rcd13ifvqhqg","pricing_plan_id":"cebpf4jnsgd1na2vs0mg"},{"bike_id":"72369e3c-7a31-4199-a732-76fa73093ac4","system_id":"levelo_inurba_marseille","lat":43.31374,"lon":5.36701,"is_reserved":false,"is_disabled":true,"rental_uris":{"android":"levelo://app?vid=72369e3c-7a31-4199-a732-76fa73093ac4","ios":"levelo://app?vid=72369e3c-7a31-4199-a732-76fa73093ac4"},"vehicle_type_id":"4","last_reported":1733864930,"current_range_meters":22400,"station_id":"ce4bgr92rcd13ifvqc6g","pricing_plan_id":"cebpf4jnsgd1na2vs0mg"},{"bike_id":"94fd1857-87a7-465b-8a7a-cc24038b7742","system_id":"levelo_inurba_marseille","lat":43.33028,"lon":5.39045,"is_reserved":false,"is_disabled":false,"rental_uris":{"android":"levelo://app?vid=94fd1857-87a7-465b-8a7a-cc24038b7742","ios":"levelo://app?vid=94fd1857-87a7-465b-8a7a-cc24038b7742"},"vehicle_type_id":"4","last_reported":1733864930,"current_range_meters":30000,"station_id":"ce4bhr92rcd13ifvqhrg","pricing_plan_id":"cebpf4jnsgd1na2vs0mg"},{"bike_id":"7cc83cee-753e-4c8b-a831-a13d265e9e01","system_id":"levelo_inurba_marseille","lat":43.29445,"lon":5.39752,"is_reserved":false,"is_disabled":false,"rental_uris":{"android":"levelo://app?vid=7cc83cee-753e-4c8b-a831-a13d265e9e01","ios":"levelo://app?vid=7cc83cee-753e-4c8b-a831-a13d265e9e01"},"vehicle_type_id":"4","last_reported":1733864930,"current_range_meters":38000,"station_id":"ce4bh3h2rcd13ifvqdo0","pricing_plan_id":"cebpf4jnsgd1na2vs0mg"},{"bike_id":"16710580-c9c3-4b6b-868e-ae98aabd72c1","system_id":"levelo_inurba_marseille","lat":43.29464,"lon":5.38696,"is_reserved":false,"is_disabled":false,"rental_uris":{"android":"levelo://app?vid=16710580-c9c3-4b6b-868e-ae98aabd72c1","ios":"levelo://app?vid=16710580-c9c3-4b6b-868e-ae98aabd72c1"},"vehicle_type_id":"4","last_reported":1733864930,"current_range_meters":5600,"station_id":"","pricing_plan_id":"cebpf4jnsgd1na2vs0mg"},{"bike_id":"1a0232f1-4b5f-4330-917e-477389b86a21","system_id":"levelo_inurba_marseille","lat":43.28577,"lon":5.39502,"is_reserved":false,"is_disabled":false,"rental_uris":{"android":"levelo://app?vid=1a0232f1-4b5f-4330-917e-477389b86a21","ios":"levelo://app?vid=1a0232f1-4b5f-4330-917e-477389b86a21"},"vehicle_type_id":"4","last_reported":1733864930,"current_range_meters":39200,"station_id":"ce4bh292rcd13ifvqdg0","pricing_plan_id":"cebpf4jnsgd1na2vs0mg"},{"bike_id":"c7994383-f96a-46b4-9beb-0b15c03b6c60","system_id":"levelo_inurba_marseille","lat":43.28616,"lon":5.35101,"is_reserved":false,"is_disabled":false,"rental_uris":{"android":"levelo://app?vid=c7994383-f96a-46b4-9beb-0b15c03b6c60","ios":"levelo://app?vid=c7994383-f96a-46b4-9beb-0b15c03b6c60"},"vehicle_type_id":"4","last_reported":1733864930,"current_range_meters":28000,"station_id":"ce4bhch2rcd13ifvqeug","pricing_plan_id":"cebpf4jnsgd1na2vs0mg"},{"bike_id":"2fd72f79-e6aa-48d3-802c-7188995826aa","system_id":"levelo_inurba_marseille","lat":43.32285,"lon":5.38278,"is_reserved":false,"is_disabled":false,"rental_uris":{"android":"levelo://app?vid=2fd72f79-e6aa-48d3-802c-7188995826aa","ios":"levelo://app?vid=2fd72f79-e6aa-48d3-802c-7188995826aa"},"vehicle_type_id":"4","last_reported":1733864930,"current_range_meters":38800,"station_id":"ce4bhr12rcd13ifvqhqg","pricing_plan_id":"cebpf4jnsgd1na2vs0mg"},{"bike_id":"8acbfd76-356a-474f-95dd-872826eb1008","system_id":"levelo_inurba_marseille","lat":43.2873,"lon":5.36092,"is_reserved":false,"is_disabled":false,"rental_uris":{"android":"levelo://app?vid=8acbfd76-356a-474f-95dd-872826eb1008","ios":"levelo://app?vid=8acbfd76-356a-474f-95dd-872826eb1008"},"vehicle_type_id":"4","last_reported":1733864930,"current_range_meters":39200,"station_id":"cki0cbj6b192h4jlfktg","pricing_plan_id":"cebpf4jnsgd1na2vs0mg"},{"bike_id":"c738269d-77c2-4524-a8ce-084a9f31cadb","system_id":"levelo_inurba_marseille","lat":43.26209,"lon":5.37427,"is_reserved":false,"is_disabled":false,"rental_uris":{"android":"levelo://app?vid=c738269d-77c2-4524-a8ce-084a9f31cadb","ios":"levelo://app?vid=c738269d-77c2-4524-a8ce-084a9f31cadb"},"vehicle_type_id":"4","last_reported":1733864930,"current_range_meters":38000,"station_id":"ce4bhgp2rcd13ifvqfc0","pricing_plan_id":"cebpf4jnsgd1na2vs0mg"},{"bike_id":"896d4ccf-3d83-4122-b2f2-1a77a517b0e7","system_id":"levelo_inurba_marseille","lat":43.23966,"lon":5.36651,"is_reserved":false,"is_disabled":false,"rental_uris":{"android":"levelo://app?vid=896d4ccf-3d83-4122-b2f2-1a77a517b0e7","ios":"levelo://app?vid=896d4ccf-3d83-4122-b2f2-1a77a517b0e7"},"vehicle_type_id":"4","last_reported":1733864930,"current_range_meters":38800,"station_id":"ce4bhi12rcd13ifvqfp0","pricing_plan_id":"cebpf4jnsgd1na2vs0mg"},{"bike_id":"5ab05328-df2c-4301-8359-efac20f401a3","system_id":"levelo_inurba_marseille","lat":43.29378,"lon":5.37861,"is_reserved":false,"is_disabled":true,"rental_uris":{"android":"levelo://app?vid=5ab05328-df2c-4301-8359-efac20f401a3","ios":"levelo://app?vid=5ab05328-df2c-4301-8359-efac20f401a3"},"vehicle_type_id":"4","last_reported":1733864930,"current_range_meters":29600,"station_id":"ce4bgjh2rcd13ifvqbf0","pricing_plan_id":"cebpf4jnsgd1na2vs0mg"},{"bike_id":"21e3190b-55c5-411e-936b-986eb1b73bd6","system_id":"levelo_inurba_marseille","lat":43.3064,"lon":5.40095,"is_reserved":false,"is_disabled":false,"rental_uris":{"android":"levelo://app?vid=21e3190b-55c5-411e-936b-986eb1b73bd6","ios":"levelo://app?vid=21e3190b-55c5-411e-936b-986eb1b73bd6"},"vehicle_type_id":"4","last_reported":1733864930,"current_range_meters":38800,"station_id":"ce4bh112rcd13ifvqda0","pricing_plan_id":"cebpf4jnsgd1na2vs0mg"},{"bike_id":"060ad32f-2471-4961-af5f-593a9fd13318","system_id":"levelo_inurba_marseille","lat":43.27566,"lon":5.3841,"is_reserved":false,"is_disabled":true,"rental_uris":{"android":"levelo://app?vid=060ad32f-2471-4961-af5f-593a9fd13318","ios":"levelo://app?vid=060ad32f-2471-4961-af5f-593a9fd13318"},"vehicle_type_id":"4","last_reported":1733864930,"current_range_meters":0,"station_id":"ce4bhh92rcd13ifvqfi0","pricing_plan_id":"cebpf4jnsgd1na2vs0mg"},{"bike_id":"da06a13f-e4bd-4583-aaab-aaaf35e97670","system_id":"levelo_inurba_marseille","lat":43.24657,"lon":5.38896,"is_reserved":false,"is_disabled":false,"rental_uris":{"android":"levelo://app?vid=da06a13f-e4bd-4583-aaab-aaaf35e97670","ios":"levelo://app?vid=da06a13f-e4bd-4583-aaab-aaaf35e97670"},"vehicle_type_id":"4","last_reported":1733864930,"current_range_meters":38800,"station_id":"ce4bhg12rcd13ifvqf60","pricing_plan_id":"cebpf4jnsgd1na2vs0mg"},{"bike_id":"6dc36b28-1864-45d6-80dd-6064b006d860","system_id":"levelo_inurba_marseille","lat":43.30328,"lon":5.40432,"is_reserved":false,"is_disabled":false,"rental_uris":{"android":"levelo://app?vid=6dc36b28-1864-45d6-80dd-6064b006d860","ios":"levelo://app?vid=6dc36b28-1864-45d6-80dd-6064b006d860"},"vehicle_type_id":"4","last_reported":1733864930,"current_range_meters":34000,"station_id":"ce4bh012rcd13ifvqd10","pricing_plan_id":"cebpf4jnsgd1na2vs0mg"},{"bike_id":"b3c5591b-5ccb-49b1-8351-3506fdb656c0","system_id":"levelo_inurba_marseille","lat":43.32296,"lon":5.38278,"is_reserved":false,"is_disabled":false,"rental_uris":{"android":"levelo://app?vid=b3c5591b-5ccb-49b1-8351-3506fdb656c0","ios":"levelo://app?vid=b3c5591b-5ccb-49b1-8351-3506fdb656c0"},"vehicle_type_id":"4","last_reported":1733864930,"current_range_meters":38800,"station_id":"ce4bhr12rcd13ifvqhqg","pricing_plan_id":"cebpf4jnsgd1na2vs0mg"},{"bike_id":"a5f926b9-41d2-4ade-a577-485de9ef83f4","system_id":"levelo_inurba_marseille","lat":43.26026,"lon":5.37549,"is_reserved":false,"is_disabled":false,"rental_uris":{"android":"levelo://app?vid=a5f926b9-41d2-4ade-a577-485de9ef83f4","ios":"levelo://app?vid=a5f926b9-41d2-4ade-a577-485de9ef83f4"},"vehicle_type_id":"4","last_reported":1733864930,"current_range_meters":38000,"station_id":"ce4bhgh2rcd13ifvqfa0","pricing_plan_id":"cebpf4jnsgd1na2vs0mg"},{"bike_id":"33e48884-4b3d-4e17-8bfe-d8ab60a0c6ef","system_id":"levelo_inurba_marseille","lat":43.26053,"lon":5.39371,"is_reserved":false,"is_disabled":true,"rental_uris":{"android":"levelo://app?vid=33e48884-4b3d-4e17-8bfe-d8ab60a0c6ef","ios":"levelo://app?vid=33e48884-4b3d-4e17-8bfe-d8ab60a0c6ef"},"vehicle_type_id":"4","last_reported":1733864930,"current_range_meters":38000,"station_id":"ce4bhh92rcd13ifvqfj0","pricing_plan_id":"cebpf4jnsgd1na2vs0mg"},{"bike_id":"8a541c78-58b4-45d9-94a7-3d8383bc9bce","system_id":"levelo_inurba_marseille","lat":43.29418,"lon":5.3861,"is_reserved":false,"is_disabled":true,"rental_uris":{"android":"levelo://app?vid=8a541c78-58b4-45d9-94a7-3d8383bc9bce","ios":"levelo://app?vid=8a541c78-58b4-45d9-94a7-3d8383bc9bce"},"vehicle_type_id":"4","last_reported":1733864930,"current_range_meters":14800,"station_id":"ce4bh2h2rcd13ifvqdh0","pricing_plan_id":"cebpf4jnsgd1na2vs0mg"},{"bike_id":"ddc3cf62-a354-4232-96fa-54b290a1f3af","system_id":"levelo_inurba_marseille","lat":43.29878,"lon":5.39746,"is_reserved":false,"is_disabled":false,"rental_uris":{"android":"levelo://app?vid=ddc3cf62-a354-4232-96fa-54b290a1f3af","ios":"levelo://app?vid=ddc3cf62-a354-4232-96fa-54b290a1f3af"},"vehicle_type_id":"4","last_reported":1733864930,"current_range_meters":38800,"station_id":"ce4bh0h2rcd13ifvqd50","pricing_plan_id":"cebpf4jnsgd1na2vs0mg"},{"bike_id":"fa57460c-d69f-4b9a-99e7-91f2695d13a4","system_id":"levelo_inurba_marseille","lat":43.30923,"lon":5.4017,"is_reserved":false,"is_disabled":false,"rental_uris":{"android":"levelo://app?vid=fa57460c-d69f-4b9a-99e7-91f2695d13a4","ios":"levelo://app?vid=fa57460c-d69f-4b9a-99e7-91f2695d13a4"},"vehicle_type_id":"4","last_reported":1733864930,"current_range_meters":38800,"station_id":"ce4bgvp2rcd13ifvqct0","pricing_plan_id":"cebpf4jnsgd1na2vs0mg"},{"bike_id":"aa22f6b4-6745-464f-9ff5-3ccde6c815d3","system_id":"levelo_inurba_marseille","lat":43.31076,"lon":5.38368,"is_reserved":false,"is_disabled":false,"rental_uris":{"android":"levelo://app?vid=aa22f6b4-6745-464f-9ff5-3ccde6c815d3","ios":"levelo://app?vid=aa22f6b4-6745-464f-9ff5-3ccde6c815d3"},"vehicle_type_id":"4","last_reported":1733864930,"current_range_meters":37600,"station_id":"ce4bgv92rcd13ifvqcr0","pricing_plan_id":"cebpf4jnsgd1na2vs0mg"},{"bike_id":"b02c24ef-aac5-4dc7-94c4-ee928b33d372","system_id":"levelo_inurba_marseille","lat":43.26027,"lon":5.37549,"is_reserved":false,"is_disabled":false,"rental_uris":{"android":"levelo://app?vid=b02c24ef-aac5-4dc7-94c4-ee928b33d372","ios":"levelo://app?vid=b02c24ef-aac5-4dc7-94c4-ee928b33d372"},"vehicle_type_id":"4","last_reported":1733864930,"current_range_meters":27600,"station_id":"ce4bhgh2rcd13ifvqfa0","pricing_plan_id":"cebpf4jnsgd1na2vs0mg"},{"bike_id":"9e533191-da82-438a-a837-b070786255db","system_id":"levelo_inurba_marseille","lat":43.23971,"lon":5.36636,"is_reserved":false,"is_disabled":false,"rental_uris":{"android":"levelo://app?vid=9e533191-da82-438a-a837-b070786255db","ios":"levelo://app?vid=9e533191-da82-438a-a837-b070786255db"},"vehicle_type_id":"4","last_reported":1733864930,"current_range_meters":38800,"station_id":"ce4bhi12rcd13ifvqfp0","pricing_plan_id":"cebpf4jnsgd1na2vs0mg"},{"bike_id":"c7d6d0e2-5d6c-43d9-9506-3230b6413803","system_id":"levelo_inurba_marseille","lat":43.3153,"lon":5.38031,"is_reserved":false,"is_disabled":false,"rental_uris":{"android":"levelo://app?vid=c7d6d0e2-5d6c-43d9-9506-3230b6413803","ios":"levelo://app?vid=c7d6d0e2-5d6c-43d9-9506-3230b6413803"},"vehicle_type_id":"4","last_reported":1733864930,"current_range_meters":38000,"station_id":"ce4bhsp2rcd13ifvqi50","pricing_plan_id":"cebpf4jnsgd1na2vs0mg"},{"bike_id":"f1e1b83c-6b4c-4d52-9b3f-becfd8274a79","system_id":"levelo_inurba_marseille","lat":43.24988,"lon":5.38935,"is_reserved":false,"is_disabled":false,"rental_uris":{"android":"levelo://app?vid=f1e1b83c-6b4c-4d52-9b3f-becfd8274a79","ios":"levelo://app?vid=f1e1b83c-6b4c-4d52-9b3f-becfd8274a79"},"vehicle_type_id":"4","last_reported":1733864930,"current_range_meters":37600,"station_id":"ce4bhgp2rcd13ifvqfd0","pricing_plan_id":"cebpf4jnsgd1na2vs0mg"},{"bike_id":"d822d752-9852-4a44-8c73-0177217c42f3","system_id":"levelo_inurba_marseille","lat":43.31174,"lon":5.38727,"is_reserved":false,"is_disabled":false,"rental_uris":{"android":"levelo://app?vid=d822d752-9852-4a44-8c73-0177217c42f3","ios":"levelo://app?vid=d822d752-9852-4a44-8c73-0177217c42f3"},"vehicle_type_id":"4","last_reported":1733864930,"current_range_meters":25200,"station_id":"ce4bgv12rcd13ifvqcp0","pricing_plan_id":"cebpf4jnsgd1na2vs0mg"},{"bike_id":"e0251b32-b340-44b9-a685-42a1e27fe71d","system_id":"levelo_inurba_marseille","lat":43.25728,"lon":5.41106,"is_reserved":false,"is_disabled":false,"rental_uris":{"android":"levelo://app?vid=e0251b32-b340-44b9-a685-42a1e27fe71d","ios":"levelo://app?vid=e0251b32-b340-44b9-a685-42a1e27fe71d"},"vehicle_type_id":"4","last_reported":1733864930,"current_range_meters":38800,"station_id":"ce4bhkp2rcd13ifvqgd0","pricing_plan_id":"cebpf4jnsgd1na2vs0mg"},{"bike_id":"feb8df89-ec90-4db2-83c1-1276a81a894e","system_id":"levelo_inurba_marseille","lat":43.29037,"lon":5.3756,"is_reserved":false,"is_disabled":true,"rental_uris":{"android":"levelo://app?vid=feb8df89-ec90-4db2-83c1-1276a81a894e","ios":"levelo://app?vid=feb8df89-ec90-4db2-83c1-1276a81a894e"},"vehicle_type_id":"4","last_reported":1733864930,"current_range_meters":5600,"station_id":"ce4bh692rcd13ifvqe90","pricing_plan_id":"cebpf4jnsgd1na2vs0mg"},{"bike_id":"e776819f-d0c2-4e90-8b6a-72fc3d50c85e","system_id":"levelo_inurba_marseille","lat":43.27076,"lon":5.42283,"is_reserved":false,"is_disabled":false,"rental_uris":{"android":"levelo://app?vid=e776819f-d0c2-4e90-8b6a-72fc3d50c85e","ios":"levelo://app?vid=e776819f-d0c2-4e90-8b6a-72fc3d50c85e"},"vehicle_type_id":"4","last_reported":1733864930,"current_range_meters":39200,"station_id":"ce4bhk92rcd13ifvqgb0","pricing_plan_id":"cebpf4jnsgd1na2vs0mg"},{"bike_id":"ccca5c70-4081-4ecf-aa2a-cd92bf6e79dc","system_id":"levelo_inurba_marseille","lat":43.26056,"lon":5.39401,"is_reserved":false,"is_disabled":false,"rental_uris":{"android":"levelo://app?vid=ccca5c70-4081-4ecf-aa2a-cd92bf6e79dc","ios":"levelo://app?vid=ccca5c70-4081-4ecf-aa2a-cd92bf6e79dc"},"vehicle_type_id":"4","last_reported":1733864930,"current_range_meters":38800,"station_id":"ce4bhh92rcd13ifvqfj0","pricing_plan_id":"cebpf4jnsgd1na2vs0mg"},{"bike_id":"61680714-5fc6-4417-875a-81ade74f79f0","system_id":"levelo_inurba_marseille","lat":43.24664,"lon":5.38153,"is_reserved":false,"is_disabled":false,"rental_uris":{"android":"levelo://app?vid=61680714-5fc6-4417-875a-81ade74f79f0","ios":"levelo://app?vid=61680714-5fc6-4417-875a-81ade74f79f0"},"vehicle_type_id":"4","last_reported":1733864930,"current_range_meters":28400,"station_id":"ce4bhih2rcd13ifvqfr0","pricing_plan_id":"cebpf4jnsgd1na2vs0mg"},{"bike_id":"0cc67691-a5bd-4b9e-9f2f-fed68c75c5ec","system_id":"levelo_inurba_marseille","lat":43.28456,"lon":5.35894,"is_reserved":false,"is_disabled":false,"rental_uris":{"android":"levelo://app?vid=0cc67691-a5bd-4b9e-9f2f-fed68c75c5ec","ios":"levelo://app?vid=0cc67691-a5bd-4b9e-9f2f-fed68c75c5ec"},"vehicle_type_id":"4","last_reported":1733864930,"current_range_meters":38800,"station_id":"ce4bhah2rcd13ifvqei0","pricing_plan_id":"cebpf4jnsgd1na2vs0mg"},{"bike_id":"04a51bf4-3219-493f-985a-0d4f3e27b5ac","system_id":"levelo_inurba_marseille","lat":43.2867,"lon":5.36347,"is_reserved":false,"is_disabled":false,"rental_uris":{"android":"levelo://app?vid=04a51bf4-3219-493f-985a-0d4f3e27b5ac","ios":"levelo://app?vid=04a51bf4-3219-493f-985a-0d4f3e27b5ac"},"vehicle_type_id":"4","last_reported":1733864930,"current_range_meters":12800,"station_id":"ce4bhah2rcd13ifvqej0","pricing_plan_id":"cebpf4jnsgd1na2vs0mg"},{"bike_id":"24038e93-6c8d-4dcb-8949-05294cdd45c2","system_id":"levelo_inurba_marseille","lat":43.26031,"lon":5.3755,"is_reserved":false,"is_disabled":false,"rental_uris":{"android":"levelo://app?vid=24038e93-6c8d-4dcb-8949-05294cdd45c2","ios":"levelo://app?vid=24038e93-6c8d-4dcb-8949-05294cdd45c2"},"vehicle_type_id":"4","last_reported":1733864930,"current_range_meters":38400,"station_id":"ce4bhgh2rcd13ifvqfa0","pricing_plan_id":"cebpf4jnsgd1na2vs0mg"},{"bike_id":"1dc4955e-448d-4691-8b8d-82e1d01f30a0","system_id":"levelo_inurba_marseille","lat":43.29784,"lon":5.3709,"is_reserved":false,"is_disabled":false,"rental_uris":{"android":"levelo://app?vid=1dc4955e-448d-4691-8b8d-82e1d01f30a0","ios":"levelo://app?vid=1dc4955e-448d-4691-8b8d-82e1d01f30a0"},"vehicle_type_id":"4","last_reported":1733864930,"current_range_meters":37600,"station_id":"ce4bgop2rcd13ifvqc1g","pricing_plan_id":"cebpf4jnsgd1na2vs0mg"},{"bike_id":"1b2d4db1-cec0-4376-9abf-f3b964e5dcb7","system_id":"levelo_inurba_marseille","lat":43.23194,"lon":5.35542,"is_reserved":false,"is_disabled":false,"rental_uris":{"android":"levelo://app?vid=1b2d4db1-cec0-4376-9abf-f3b964e5dcb7","ios":"levelo://app?vid=1b2d4db1-cec0-4376-9abf-f3b964e5dcb7"},"vehicle_type_id":"4","last_reported":1733864930,"current_range_meters":38800,"station_id":"ce4bhu92rcd13ifvqi70","pricing_plan_id":"cebpf4jnsgd1na2vs0mg"},{"bike_id":"abe3768a-af77-40ce-9702-940dad3a7b79","system_id":"levelo_inurba_marseille","lat":43.24671,"lon":5.38163,"is_reserved":false,"is_disabled":false,"rental_uris":{"android":"levelo://app?vid=abe3768a-af77-40ce-9702-940dad3a7b79","ios":"levelo://app?vid=abe3768a-af77-40ce-9702-940dad3a7b79"},"vehicle_type_id":"4","last_reported":1733864930,"current_range_meters":36800,"station_id":"ce4bhih2rcd13ifvqfr0","pricing_plan_id":"cebpf4jnsgd1na2vs0mg"},{"bike_id":"ac31c650-ba7f-4f41-8e08-1cf7899c4f87","system_id":"levelo_inurba_marseille","lat":43.28615,"lon":5.35103,"is_reserved":false,"is_disabled":false,"rental_uris":{"android":"levelo://app?vid=ac31c650-ba7f-4f41-8e08-1cf7899c4f87","ios":"levelo://app?vid=ac31c650-ba7f-4f41-8e08-1cf7899c4f87"},"vehicle_type_id":"4","last_reported":1733864930,"current_range_meters":22800,"station_id":"ce4bhch2rcd13ifvqeug","pricing_plan_id":"cebpf4jnsgd1na2vs0mg"},{"bike_id":"50290e6a-0f78-4fdd-a8c0-3fdecfe0ca84","system_id":"levelo_inurba_marseille","lat":43.29553,"lon":5.42292,"is_reserved":false,"is_disabled":false,"rental_uris":{"android":"levelo://app?vid=50290e6a-0f78-4fdd-a8c0-3fdecfe0ca84","ios":"levelo://app?vid=50290e6a-0f78-4fdd-a8c0-3fdecfe0ca84"},"vehicle_type_id":"4","last_reported":1733864930,"current_range_meters":37600,"station_id":"ce4bhph2rcd13ifvqhdg","pricing_plan_id":"cebpf4jnsgd1na2vs0mg"},{"bike_id":"4101516f-475e-4b41-9346-8957208da3e1","system_id":"levelo_inurba_marseille","lat":43.2996,"lon":5.37165,"is_reserved":false,"is_disabled":false,"rental_uris":{"android":"levelo://app?vid=4101516f-475e-4b41-9346-8957208da3e1","ios":"levelo://app?vid=4101516f-475e-4b41-9346-8957208da3e1"},"vehicle_type_id":"4","last_reported":1733864930,"current_range_meters":7200,"station_id":"ce4bgr92rcd13ifvqc7g","pricing_plan_id":"cebpf4jnsgd1na2vs0mg"},{"bike_id":"9f697dbf-8e9e-4438-b2e8-d9e22520d4f1","system_id":"levelo_inurba_marseille","lat":43.29225,"lon":5.36064,"is_reserved":false,"is_disabled":false,"rental_uris":{"android":"levelo://app?vid=9f697dbf-8e9e-4438-b2e8-d9e22520d4f1","ios":"levelo://app?vid=9f697dbf-8e9e-4438-b2e8-d9e22520d4f1"},"vehicle_type_id":"4","last_reported":1733864930,"current_range_meters":10000,"station_id":"ce4bhbh2rcd13ifvqeqg","pricing_plan_id":"cebpf4jnsgd1na2vs0mg"},{"bike_id":"c955d2b5-2c77-4f09-827c-f3f31d701fad","system_id":"levelo_inurba_marseille","lat":43.30322,"lon":5.40438,"is_reserved":false,"is_disabled":false,"rental_uris":{"android":"levelo://app?vid=c955d2b5-2c77-4f09-827c-f3f31d701fad","ios":"levelo://app?vid=c955d2b5-2c77-4f09-827c-f3f31d701fad"},"vehicle_type_id":"4","last_reported":1733864930,"current_range_meters":18800,"station_id":"ce4bh012rcd13ifvqd10","pricing_plan_id":"cebpf4jnsgd1na2vs0mg"},{"bike_id":"68469145-5869-4949-94f0-3ccc825184a3","system_id":"levelo_inurba_marseille","lat":43.28345,"lon":5.38109,"is_reserved":false,"is_disabled":true,"rental_uris":{"android":"levelo://app?vid=68469145-5869-4949-94f0-3ccc825184a3","ios":"levelo://app?vid=68469145-5869-4949-94f0-3ccc825184a3"},"vehicle_type_id":"4","last_reported":1733864930,"current_range_meters":28400,"station_id":"ce4bh412rcd13ifvqdr0","pricing_plan_id":"cebpf4jnsgd1na2vs0mg"},{"bike_id":"93dc6bd7-ccba-49af-836f-f8a3a0580349","system_id":"levelo_inurba_marseille","lat":43.27997,"lon":5.40014,"is_reserved":false,"is_disabled":false,"rental_uris":{"android":"levelo://app?vid=93dc6bd7-ccba-49af-836f-f8a3a0580349","ios":"levelo://app?vid=93dc6bd7-ccba-49af-836f-f8a3a0580349"},"vehicle_type_id":"4","last_reported":1733864930,"current_range_meters":38800,"station_id":"ce4bho92rcd13ifvqh4g","pricing_plan_id":"cebpf4jnsgd1na2vs0mg"},{"bike_id":"e2e5fff8-dab3-4021-a87d-3c7c833d47d1","system_id":"levelo_inurba_marseille","lat":43.26205,"lon":5.37441,"is_reserved":false,"is_disabled":true,"rental_uris":{"android":"levelo://app?vid=e2e5fff8-dab3-4021-a87d-3c7c833d47d1","ios":"levelo://app?vid=e2e5fff8-dab3-4021-a87d-3c7c833d47d1"},"vehicle_type_id":"4","last_reported":1733864930,"current_range_meters":8000,"station_id":"ce4bhgp2rcd13ifvqfc0","pricing_plan_id":"cebpf4jnsgd1na2vs0mg"},{"bike_id":"533bb54e-da84-45e3-b51b-7941252c7ed2","system_id":"levelo_inurba_marseille","lat":43.31499,"lon":5.37312,"is_reserved":false,"is_disabled":false,"rental_uris":{"android":"levelo://app?vid=533bb54e-da84-45e3-b51b-7941252c7ed2","ios":"levelo://app?vid=533bb54e-da84-45e3-b51b-7941252c7ed2"},"vehicle_type_id":"4","last_reported":1733864930,"current_range_meters":38400,"station_id":"ce4bgt12rcd13ifvqcd0","pricing_plan_id":"cebpf4jnsgd1na2vs0mg"},{"bike_id":"dc7a929b-1a22-41cd-a6af-6836d471c1b6","system_id":"levelo_inurba_marseille","lat":43.28851,"lon":5.35859,"is_reserved":false,"is_disabled":false,"rental_uris":{"android":"levelo://app?vid=dc7a929b-1a22-41cd-a6af-6836d471c1b6","ios":"levelo://app?vid=dc7a929b-1a22-41cd-a6af-6836d471c1b6"},"vehicle_type_id":"4","last_reported":1733864930,"current_range_meters":12800,"station_id":"ce4bhb12rcd13ifvqem0","pricing_plan_id":"cebpf4jnsgd1na2vs0mg"},{"bike_id":"75ae6d39-6dc2-49bc-ad9b-72136961811e","system_id":"levelo_inurba_marseille","lat":43.33023,"lon":5.39041,"is_reserved":false,"is_disabled":false,"rental_uris":{"android":"levelo://app?vid=75ae6d39-6dc2-49bc-ad9b-72136961811e","ios":"levelo://app?vid=75ae6d39-6dc2-49bc-ad9b-72136961811e"},"vehicle_type_id":"4","last_reported":1733864930,"current_range_meters":16800,"station_id":"ce4bhr92rcd13ifvqhrg","pricing_plan_id":"cebpf4jnsgd1na2vs0mg"},{"bike_id":"874a3809-50d5-4e80-9c6a-2acc016e95f8","system_id":"levelo_inurba_marseille","lat":43.2796,"lon":5.41037,"is_reserved":false,"is_disabled":false,"rental_uris":{"android":"levelo://app?vid=874a3809-50d5-4e80-9c6a-2acc016e95f8","ios":"levelo://app?vid=874a3809-50d5-4e80-9c6a-2acc016e95f8"},"vehicle_type_id":"4","last_reported":1733864930,"current_range_meters":24400,"station_id":"ce4bhnp2rcd13ifvqh0g","pricing_plan_id":"cebpf4jnsgd1na2vs0mg"},{"bike_id":"89ff4683-020f-42e1-9b5d-f60ac373be8a","system_id":"levelo_inurba_marseille","lat":43.30613,"lon":5.37218,"is_reserved":false,"is_disabled":false,"rental_uris":{"android":"levelo://app?vid=89ff4683-020f-42e1-9b5d-f60ac373be8a","ios":"levelo://app?vid=89ff4683-020f-42e1-9b5d-f60ac373be8a"},"vehicle_type_id":"4","last_reported":1733864930,"current_range_meters":35200,"station_id":"ce4bgqh2rcd13ifvqc4g","pricing_plan_id":"cebpf4jnsgd1na2vs0mg"},{"bike_id":"b213fbb5-a223-4af3-9431-51df2f38ea20","system_id":"levelo_inurba_marseille","lat":43.27211,"lon":5.39183,"is_reserved":false,"is_disabled":true,"rental_uris":{"android":"levelo://app?vid=b213fbb5-a223-4af3-9431-51df2f38ea20","ios":"levelo://app?vid=b213fbb5-a223-4af3-9431-51df2f38ea20"},"vehicle_type_id":"4","last_reported":1733864930,"current_range_meters":1200,"station_id":"ce4bhhp2rcd13ifvqfm0","pricing_plan_id":"cebpf4jnsgd1na2vs0mg"},{"bike_id":"24aee96e-61b0-4202-bc91-3913452ac193","system_id":"levelo_inurba_marseille","lat":43.27997,"lon":5.40013,"is_reserved":false,"is_disabled":false,"rental_uris":{"android":"levelo://app?vid=24aee96e-61b0-4202-bc91-3913452ac193","ios":"levelo://app?vid=24aee96e-61b0-4202-bc91-3913452ac193"},"vehicle_type_id":"4","last_reported":1733864930,"current_range_meters":2800,"station_id":"ce4bho92rcd13ifvqh4g","pricing_plan_id":"cebpf4jnsgd1na2vs0mg"},{"bike_id":"08e46dca-c7ab-473d-8cd7-0439ec94df64","system_id":"levelo_inurba_marseille","lat":43.27204,"lon":5.39191,"is_reserved":false,"is_disabled":true,"rental_uris":{"android":"levelo://app?vid=08e46dca-c7ab-473d-8cd7-0439ec94df64","ios":"levelo://app?vid=08e46dca-c7ab-473d-8cd7-0439ec94df64"},"vehicle_type_id":"4","last_reported":1733864930,"current_range_meters":15200,"station_id":"ce4bhhp2rcd13ifvqfm0","pricing_plan_id":"cebpf4jnsgd1na2vs0mg"},{"bike_id":"d6a9537c-142c-48bf-bc08-4422b852a32b","system_id":"levelo_inurba_marseille","lat":43.30154,"lon":5.39877,"is_reserved":false,"is_disabled":false,"rental_uris":{"android":"levelo://app?vid=d6a9537c-142c-48bf-bc08-4422b852a32b","ios":"levelo://app?vid=d6a9537c-142c-48bf-bc08-4422b852a32b"},"vehicle_type_id":"4","last_reported":1733864930,"current_range_meters":9200,"station_id":"ce4bh0h2rcd13ifvqd40","pricing_plan_id":"cebpf4jnsgd1na2vs0mg"},{"bike_id":"bc53fa51-fa84-469c-8478-c3c1765f2da9","system_id":"levelo_inurba_marseille","lat":43.31374,"lon":5.38495,"is_reserved":false,"is_disabled":false,"rental_uris":{"android":"levelo://app?vid=bc53fa51-fa84-469c-8478-c3c1765f2da9","ios":"levelo://app?vid=bc53fa51-fa84-469c-8478-c3c1765f2da9"},"vehicle_type_id":"4","last_reported":1733864930,"current_range_meters":38800,"station_id":"ce4bgt92rcd13ifvqcf0","pricing_plan_id":"cebpf4jnsgd1na2vs0mg"},{"bike_id":"466c6437-537c-4bf2-b4bd-93b64cc281e7","system_id":"levelo_inurba_marseille","lat":43.27999,"lon":5.40008,"is_reserved":false,"is_disabled":false,"rental_uris":{"android":"levelo://app?vid=466c6437-537c-4bf2-b4bd-93b64cc281e7","ios":"levelo://app?vid=466c6437-537c-4bf2-b4bd-93b64cc281e7"},"vehicle_type_id":"4","last_reported":1733864930,"current_range_meters":8800,"station_id":"ce4bho92rcd13ifvqh4g","pricing_plan_id":"cebpf4jnsgd1na2vs0mg"},{"bike_id":"a5954b2b-bcbf-4373-b6a6-52e6119bb093","system_id":"levelo_inurba_marseille","lat":43.29456,"lon":5.39769,"is_reserved":false,"is_disabled":false,"rental_uris":{"android":"levelo://app?vid=a5954b2b-bcbf-4373-b6a6-52e6119bb093","ios":"levelo://app?vid=a5954b2b-bcbf-4373-b6a6-52e6119bb093"},"vehicle_type_id":"4","last_reported":1733864930,"current_range_meters":10800,"station_id":"ce4bh3h2rcd13ifvqdo0","pricing_plan_id":"cebpf4jnsgd1na2vs0mg"},{"bike_id":"17e9115d-8113-4bca-9428-2e6c563b1c7f","system_id":"levelo_inurba_marseille","lat":43.3106,"lon":5.38342,"is_reserved":false,"is_disabled":false,"rental_uris":{"android":"levelo://app?vid=17e9115d-8113-4bca-9428-2e6c563b1c7f","ios":"levelo://app?vid=17e9115d-8113-4bca-9428-2e6c563b1c7f"},"vehicle_type_id":"4","last_reported":1733864930,"current_range_meters":38800,"station_id":"ce4bgv92rcd13ifvqcr0","pricing_plan_id":"cebpf4jnsgd1na2vs0mg"},{"bike_id":"1798b009-d070-4a48-981c-7e69a8a0d034","system_id":"levelo_inurba_marseille","lat":43.3237,"lon":5.3889,"is_reserved":false,"is_disabled":true,"rental_uris":{"android":"levelo://app?vid=1798b009-d070-4a48-981c-7e69a8a0d034","ios":"levelo://app?vid=1798b009-d070-4a48-981c-7e69a8a0d034"},"vehicle_type_id":"4","last_reported":1733864930,"current_range_meters":0,"station_id":"ce4bhqp2rcd13ifvqhog","pricing_plan_id":"cebpf4jnsgd1na2vs0mg"},{"bike_id":"eb4e32cd-a02d-4e92-a013-1fdc0dd71ccb","system_id":"levelo_inurba_marseille","lat":43.324799,"lon":5.365716,"is_reserved":false,"is_disabled":true,"rental_uris":{"android":"levelo://app?vid=eb4e32cd-a02d-4e92-a013-1fdc0dd71ccb","ios":"levelo://app?vid=eb4e32cd-a02d-4e92-a013-1fdc0dd71ccb"},"vehicle_type_id":"4","last_reported":1733864930,"current_range_meters":0,"station_id":"","pricing_plan_id":"cebpf4jnsgd1na2vs0mg"},{"bike_id":"4a24454f-8f11-4139-a07d-79231199cd33","system_id":"levelo_inurba_marseille","lat":43.243868,"lon":5.370496,"is_reserved":false,"is_disabled":false,"rental_uris":{"android":"levelo://app?vid=4a24454f-8f11-4139-a07d-79231199cd33","ios":"levelo://app?vid=4a24454f-8f11-4139-a07d-79231199cd33"},"vehicle_type_id":"4","last_reported":1733864930,"current_range_meters":28800,"station_id":"ce4bhhh2rcd13ifvqfk0","pricing_plan_id":"cebpf4jnsgd1na2vs0mg"},{"bike_id":"928896f9-930a-4dfa-a7ab-6b63e5b73b70","system_id":"levelo_inurba_marseille","lat":43.31686,"lon":5.40477,"is_reserved":false,"is_disabled":false,"rental_uris":{"android":"levelo://app?vid=928896f9-930a-4dfa-a7ab-6b63e5b73b70","ios":"levelo://app?vid=928896f9-930a-4dfa-a7ab-6b63e5b73b70"},"vehicle_type_id":"4","last_reported":1733864930,"current_range_meters":36400,"station_id":"ce4bh012rcd13ifvqd00","pricing_plan_id":"cebpf4jnsgd1na2vs0mg"},{"bike_id":"d0ae7280-89b1-4b52-84c9-6b95dfda0814","system_id":"levelo_inurba_marseille","lat":43.30887,"lon":5.3964,"is_reserved":false,"is_disabled":false,"rental_uris":{"android":"levelo://app?vid=d0ae7280-89b1-4b52-84c9-6b95dfda0814","ios":"levelo://app?vid=d0ae7280-89b1-4b52-84c9-6b95dfda0814"},"vehicle_type_id":"4","last_reported":1733864930,"current_range_meters":31200,"station_id":"ce4bh012rcd13ifvqcv0","pricing_plan_id":"cebpf4jnsgd1na2vs0mg"},{"bike_id":"c79a44c3-57a2-4768-b6b8-e298d2460a22","system_id":"levelo_inurba_marseille","lat":43.24166,"lon":5.36396,"is_reserved":false,"is_disabled":false,"rental_uris":{"android":"levelo://app?vid=c79a44c3-57a2-4768-b6b8-e298d2460a22","ios":"levelo://app?vid=c79a44c3-57a2-4768-b6b8-e298d2460a22"},"vehicle_type_id":"4","last_reported":1733864930,"current_range_meters":37600,"station_id":"cpo36qri1sfpv3e86is0","pricing_plan_id":"cebpf4jnsgd1na2vs0mg"},{"bike_id":"9d80a548-f609-424a-b271-462289cef155","system_id":"levelo_inurba_marseille","lat":43.23967,"lon":5.3663,"is_reserved":false,"is_disabled":false,"rental_uris":{"android":"levelo://app?vid=9d80a548-f609-424a-b271-462289cef155","ios":"levelo://app?vid=9d80a548-f609-424a-b271-462289cef155"},"vehicle_type_id":"4","last_reported":1733864930,"current_range_meters":24400,"station_id":"ce4bhi12rcd13ifvqfp0","pricing_plan_id":"cebpf4jnsgd1na2vs0mg"},{"bike_id":"abd5938a-0b65-4ce9-b1ac-06db927b8019","system_id":"levelo_inurba_marseille","lat":43.29981,"lon":5.38488,"is_reserved":false,"is_disabled":false,"rental_uris":{"android":"levelo://app?vid=abd5938a-0b65-4ce9-b1ac-06db927b8019","ios":"levelo://app?vid=abd5938a-0b65-4ce9-b1ac-06db927b8019"},"vehicle_type_id":"4","last_reported":1733864930,"current_range_meters":38800,"station_id":"ce4bgj92rcd13ifvqbd0","pricing_plan_id":"cebpf4jnsgd1na2vs0mg"},{"bike_id":"26924fb9-4179-4abe-8b03-e0d47c141d92","system_id":"levelo_inurba_marseille","lat":43.27179,"lon":5.40989,"is_reserved":false,"is_disabled":false,"rental_uris":{"android":"levelo://app?vid=26924fb9-4179-4abe-8b03-e0d47c141d92","ios":"levelo://app?vid=26924fb9-4179-4abe-8b03-e0d47c141d92"},"vehicle_type_id":"4","last_reported":1733864930,"current_range_meters":25200,"station_id":"ce4bhl12rcd13ifvqgf0","pricing_plan_id":"cebpf4jnsgd1na2vs0mg"},{"bike_id":"13413a55-efc9-4e48-bc2b-ad373df4b5d3","system_id":"levelo_inurba_marseille","lat":43.24814,"lon":5.37454,"is_reserved":false,"is_disabled":false,"rental_uris":{"android":"levelo://app?vid=13413a55-efc9-4e48-bc2b-ad373df4b5d3","ios":"levelo://app?vid=13413a55-efc9-4e48-bc2b-ad373df4b5d3"},"vehicle_type_id":"4","last_reported":1733864930,"current_range_meters":22000,"station_id":"ce4bhgh2rcd13ifvqfb0","pricing_plan_id":"cebpf4jnsgd1na2vs0mg"},{"bike_id":"2e51fb70-b1be-4661-b646-3870500c9133","system_id":"levelo_inurba_marseille","lat":43.29932,"lon":5.41332,"is_reserved":false,"is_disabled":false,"rental_uris":{"android":"levelo://app?vid=2e51fb70-b1be-4661-b646-3870500c9133","ios":"levelo://app?vid=2e51fb70-b1be-4661-b646-3870500c9133"},"vehicle_type_id":"4","last_reported":1733864930,"current_range_meters":33200,"station_id":"ce4bhp12rcd13ifvqh9g","pricing_plan_id":"cebpf4jnsgd1na2vs0mg"},{"bike_id":"7bdec345-eeec-47c0-a1aa-d0b0f44ab6d1","system_id":"levelo_inurba_marseille","lat":43.32661,"lon":5.40983,"is_reserved":false,"is_disabled":true,"rental_uris":{"android":"levelo://app?vid=7bdec345-eeec-47c0-a1aa-d0b0f44ab6d1","ios":"levelo://app?vid=7bdec345-eeec-47c0-a1aa-d0b0f44ab6d1"},"vehicle_type_id":"4","last_reported":1733864930,"current_range_meters":37600,"station_id":"ce4bhpp2rcd13ifvqhgg","pricing_plan_id":"cebpf4jnsgd1na2vs0mg"},{"bike_id":"5f84a9fc-4939-4018-8635-659d9891eef7","system_id":"levelo_inurba_marseille","lat":43.25106,"lon":5.40326,"is_reserved":false,"is_disabled":false,"rental_uris":{"android":"levelo://app?vid=5f84a9fc-4939-4018-8635-659d9891eef7","ios":"levelo://app?vid=5f84a9fc-4939-4018-8635-659d9891eef7"},"vehicle_type_id":"4","last_reported":1733864930,"current_range_meters":37600,"station_id":"ce4bhlh2rcd13ifvqgig","pricing_plan_id":"cebpf4jnsgd1na2vs0mg"},{"bike_id":"f86f7e2a-9da2-46ae-ba67-518e13dbcfb7","system_id":"levelo_inurba_marseille","lat":43.27182,"lon":5.40995,"is_reserved":false,"is_disabled":false,"rental_uris":{"android":"levelo://app?vid=f86f7e2a-9da2-46ae-ba67-518e13dbcfb7","ios":"levelo://app?vid=f86f7e2a-9da2-46ae-ba67-518e13dbcfb7"},"vehicle_type_id":"4","last_reported":1733864930,"current_range_meters":38800,"station_id":"ce4bhl12rcd13ifvqgf0","pricing_plan_id":"cebpf4jnsgd1na2vs0mg"},{"bike_id":"df4e2931-1638-4e6a-9ebe-1382ea433b0a","system_id":"levelo_inurba_marseille","lat":43.30263,"lon":5.40075,"is_reserved":false,"is_disabled":false,"rental_uris":{"android":"levelo://app?vid=df4e2931-1638-4e6a-9ebe-1382ea433b0a","ios":"levelo://app?vid=df4e2931-1638-4e6a-9ebe-1382ea433b0a"},"vehicle_type_id":"4","last_reported":1733864930,"current_range_meters":38000,"station_id":"ce4bgvh2rcd13ifvqcs0","pricing_plan_id":"cebpf4jnsgd1na2vs0mg"},{"bike_id":"6b183d9c-fcd9-4c3e-8f0c-f63b7ade2362","system_id":"levelo_inurba_marseille","lat":43.31323,"lon":5.39724,"is_reserved":false,"is_disabled":false,"rental_uris":{"android":"levelo://app?vid=6b183d9c-fcd9-4c3e-8f0c-f63b7ade2362","ios":"levelo://app?vid=6b183d9c-fcd9-4c3e-8f0c-f63b7ade2362"},"vehicle_type_id":"4","last_reported":1733864930,"current_range_meters":30400,"station_id":"ce4bgvp2rcd13ifvqcu0","pricing_plan_id":"cebpf4jnsgd1na2vs0mg"},{"bike_id":"4b9f2e0c-e6c8-41ae-a354-ab0c34618599","system_id":"levelo_inurba_marseille","lat":43.23962,"lon":5.36628,"is_reserved":false,"is_disabled":false,"rental_uris":{"android":"levelo://app?vid=4b9f2e0c-e6c8-41ae-a354-ab0c34618599","ios":"levelo://app?vid=4b9f2e0c-e6c8-41ae-a354-ab0c34618599"},"vehicle_type_id":"4","last_reported":1733864930,"current_range_meters":38800,"station_id":"ce4bhi12rcd13ifvqfp0","pricing_plan_id":"cebpf4jnsgd1na2vs0mg"},{"bike_id":"24181ba8-8457-411d-85d3-7bc96f4747f8","system_id":"levelo_inurba_marseille","lat":43.30886,"lon":5.39647,"is_reserved":false,"is_disabled":false,"rental_uris":{"android":"levelo://app?vid=24181ba8-8457-411d-85d3-7bc96f4747f8","ios":"levelo://app?vid=24181ba8-8457-411d-85d3-7bc96f4747f8"},"vehicle_type_id":"4","last_reported":1733864930,"current_range_meters":28000,"station_id":"ce4bh012rcd13ifvqcv0","pricing_plan_id":"cebpf4jnsgd1na2vs0mg"},{"bike_id":"c2f1c23f-9d36-49a4-9031-542405313737","system_id":"levelo_inurba_marseille","lat":43.30259,"lon":5.40059,"is_reserved":false,"is_disabled":false,"rental_uris":{"android":"levelo://app?vid=c2f1c23f-9d36-49a4-9031-542405313737","ios":"levelo://app?vid=c2f1c23f-9d36-49a4-9031-542405313737"},"vehicle_type_id":"4","last_reported":1733864930,"current_range_meters":38800,"station_id":"ce4bgvh2rcd13ifvqcs0","pricing_plan_id":"cebpf4jnsgd1na2vs0mg"},{"bike_id":"ee894ae6-4440-4436-8cda-0363ef82342a","system_id":"levelo_inurba_marseille","lat":43.29445,"lon":5.39751,"is_reserved":false,"is_disabled":false,"rental_uris":{"android":"levelo://app?vid=ee894ae6-4440-4436-8cda-0363ef82342a","ios":"levelo://app?vid=ee894ae6-4440-4436-8cda-0363ef82342a"},"vehicle_type_id":"4","last_reported":1733864930,"current_range_meters":14400,"station_id":"ce4bh3h2rcd13ifvqdo0","pricing_plan_id":"cebpf4jnsgd1na2vs0mg"},{"bike_id":"2716c6d9-49c9-4433-825b-cf11e670bfe3","system_id":"levelo_inurba_marseille","lat":43.28857,"lon":5.393,"is_reserved":false,"is_disabled":false,"rental_uris":{"android":"levelo://app?vid=2716c6d9-49c9-4433-825b-cf11e670bfe3","ios":"levelo://app?vid=2716c6d9-49c9-4433-825b-cf11e670bfe3"},"vehicle_type_id":"4","last_reported":1733864930,"current_range_meters":38800,"station_id":"ce4bh2p2rcd13ifvqdi0","pricing_plan_id":"cebpf4jnsgd1na2vs0mg"},{"bike_id":"cda007dd-06bb-4a86-b841-00a7ca3fac29","system_id":"levelo_inurba_marseille","lat":43.31756,"lon":5.39028,"is_reserved":false,"is_disabled":false,"rental_uris":{"android":"levelo://app?vid=cda007dd-06bb-4a86-b841-00a7ca3fac29","ios":"levelo://app?vid=cda007dd-06bb-4a86-b841-00a7ca3fac29"},"vehicle_type_id":"4","last_reported":1733864930,"current_range_meters":32000,"station_id":"ce4bhqp2rcd13ifvqhng","pricing_plan_id":"cebpf4jnsgd1na2vs0mg"},{"bike_id":"95d8628d-10b1-47e7-9a42-9b126ec315c6","system_id":"levelo_inurba_marseille","lat":43.2321,"lon":5.35562,"is_reserved":false,"is_disabled":false,"rental_uris":{"android":"levelo://app?vid=95d8628d-10b1-47e7-9a42-9b126ec315c6","ios":"levelo://app?vid=95d8628d-10b1-47e7-9a42-9b126ec315c6"},"vehicle_type_id":"4","last_reported":1733864930,"current_range_meters":22800,"station_id":"ce4bhu92rcd13ifvqi70","pricing_plan_id":"cebpf4jnsgd1na2vs0mg"},{"bike_id":"ff157558-4762-4775-8ebe-d59ef36bd776","system_id":"levelo_inurba_marseille","lat":43.26558,"lon":5.37293,"is_reserved":false,"is_disabled":false,"rental_uris":{"android":"levelo://app?vid=ff157558-4762-4775-8ebe-d59ef36bd776","ios":"levelo://app?vid=ff157558-4762-4775-8ebe-d59ef36bd776"},"vehicle_type_id":"4","last_reported":1733864930,"current_range_meters":12000,"station_id":"ce4bhg12rcd13ifvqf70","pricing_plan_id":"cebpf4jnsgd1na2vs0mg"},{"bike_id":"ebf11412-8f20-4f09-a2fa-4bbb5ad3b254","system_id":"levelo_inurba_marseille","lat":43.3148,"lon":5.37301,"is_reserved":false,"is_disabled":false,"rental_uris":{"android":"levelo://app?vid=ebf11412-8f20-4f09-a2fa-4bbb5ad3b254","ios":"levelo://app?vid=ebf11412-8f20-4f09-a2fa-4bbb5ad3b254"},"vehicle_type_id":"4","last_reported":1733864930,"current_range_meters":38800,"station_id":"ce4bgt12rcd13ifvqcd0","pricing_plan_id":"cebpf4jnsgd1na2vs0mg"},{"bike_id":"6c88932d-00ec-4b60-9546-85018a6b7535","system_id":"levelo_inurba_marseille","lat":43.292537,"lon":5.409113,"is_reserved":false,"is_disabled":false,"rental_uris":{"android":"levelo://app?vid=6c88932d-00ec-4b60-9546-85018a6b7535","ios":"levelo://app?vid=6c88932d-00ec-4b60-9546-85018a6b7535"},"vehicle_type_id":"4","last_reported":1733864930,"current_range_meters":38000,"station_id":"ce4bh192rcd13ifvqdc0","pricing_plan_id":"cebpf4jnsgd1na2vs0mg"},{"bike_id":"d7453a99-a4d8-4211-b595-832110864fc9","system_id":"levelo_inurba_marseille","lat":43.30547,"lon":5.38433,"is_reserved":false,"is_disabled":false,"rental_uris":{"android":"levelo://app?vid=d7453a99-a4d8-4211-b595-832110864fc9","ios":"levelo://app?vid=d7453a99-a4d8-4211-b595-832110864fc9"},"vehicle_type_id":"4","last_reported":1733864930,"current_range_meters":37600,"station_id":"ce4bgg92rcd13ifvqb30","pricing_plan_id":"cebpf4jnsgd1na2vs0mg"},{"bike_id":"570bad79-da0a-4f0e-bd71-fcfb4fde31b3","system_id":"levelo_inurba_marseille","lat":43.23962,"lon":5.36634,"is_reserved":false,"is_disabled":true,"rental_uris":{"android":"levelo://app?vid=570bad79-da0a-4f0e-bd71-fcfb4fde31b3","ios":"levelo://app?vid=570bad79-da0a-4f0e-bd71-fcfb4fde31b3"},"vehicle_type_id":"4","last_reported":1733864930,"current_range_meters":30800,"station_id":"ce4bhi12rcd13ifvqfp0","pricing_plan_id":"cebpf4jnsgd1na2vs0mg"},{"bike_id":"0f20b602-7b45-4989-92b6-4d1c64ab5468","system_id":"levelo_inurba_marseille","lat":43.26554,"lon":5.3729,"is_reserved":false,"is_disabled":false,"rental_uris":{"android":"levelo://app?vid=0f20b602-7b45-4989-92b6-4d1c64ab5468","ios":"levelo://app?vid=0f20b602-7b45-4989-92b6-4d1c64ab5468"},"vehicle_type_id":"4","last_reported":1733864930,"current_range_meters":31200,"station_id":"ce4bhg12rcd13ifvqf70","pricing_plan_id":"cebpf4jnsgd1na2vs0mg"},{"bike_id":"a594951f-0274-4429-b56b-19578d6dff3b","system_id":"levelo_inurba_marseille","lat":43.24663,"lon":5.38165,"is_reserved":false,"is_disabled":false,"rental_uris":{"android":"levelo://app?vid=a594951f-0274-4429-b56b-19578d6dff3b","ios":"levelo://app?vid=a594951f-0274-4429-b56b-19578d6dff3b"},"vehicle_type_id":"4","last_reported":1733864930,"current_range_meters":8800,"station_id":"ce4bhih2rcd13ifvqfr0","pricing_plan_id":"cebpf4jnsgd1na2vs0mg"},{"bike_id":"e7864067-1489-4fd3-808a-56b2e376b2a6","system_id":"levelo_inurba_marseille","lat":43.28001,"lon":5.44181,"is_reserved":false,"is_disabled":false,"rental_uris":{"android":"levelo://app?vid=e7864067-1489-4fd3-808a-56b2e376b2a6","ios":"levelo://app?vid=e7864067-1489-4fd3-808a-56b2e376b2a6"},"vehicle_type_id":"4","last_reported":1733864930,"current_range_meters":28000,"station_id":"","pricing_plan_id":"cebpf4jnsgd1na2vs0mg"},{"bike_id":"27efcad8-e1e6-4e95-a9b5-a7e9501f805a","system_id":"levelo_inurba_marseille","lat":43.31487,"lon":5.372935,"is_reserved":false,"is_disabled":false,"rental_uris":{"android":"levelo://app?vid=27efcad8-e1e6-4e95-a9b5-a7e9501f805a","ios":"levelo://app?vid=27efcad8-e1e6-4e95-a9b5-a7e9501f805a"},"vehicle_type_id":"4","last_reported":1733864930,"current_range_meters":19600,"station_id":"ce4bgt12rcd13ifvqcd0","pricing_plan_id":"cebpf4jnsgd1na2vs0mg"},{"bike_id":"c608fb33-5cb4-45da-8ac1-ef9862264fb7","system_id":"levelo_inurba_marseille","lat":43.31066,"lon":5.3836,"is_reserved":false,"is_disabled":false,"rental_uris":{"android":"levelo://app?vid=c608fb33-5cb4-45da-8ac1-ef9862264fb7","ios":"levelo://app?vid=c608fb33-5cb4-45da-8ac1-ef9862264fb7"},"vehicle_type_id":"4","last_reported":1733864930,"current_range_meters":24800,"station_id":"ce4bgv92rcd13ifvqcr0","pricing_plan_id":"cebpf4jnsgd1na2vs0mg"},{"bike_id":"87790148-1929-4f7d-81e9-bc17b083cc36","system_id":"levelo_inurba_marseille","lat":43.25734,"lon":5.41111,"is_reserved":false,"is_disabled":false,"rental_uris":{"android":"levelo://app?vid=87790148-1929-4f7d-81e9-bc17b083cc36","ios":"levelo://app?vid=87790148-1929-4f7d-81e9-bc17b083cc36"},"vehicle_type_id":"4","last_reported":1733864930,"current_range_meters":38800,"station_id":"ce4bhkp2rcd13ifvqgd0","pricing_plan_id":"cebpf4jnsgd1na2vs0mg"},{"bike_id":"b8e7f883-5b9b-422d-81e9-d00c2442da3b","system_id":"levelo_inurba_marseille","lat":43.23064,"lon":5.35494,"is_reserved":false,"is_disabled":false,"rental_uris":{"android":"levelo://app?vid=b8e7f883-5b9b-422d-81e9-d00c2442da3b","ios":"levelo://app?vid=b8e7f883-5b9b-422d-81e9-d00c2442da3b"},"vehicle_type_id":"4","last_reported":1733864930,"current_range_meters":34800,"station_id":"cpo3342slgdg3j2ifvpg","pricing_plan_id":"cebpf4jnsgd1na2vs0mg"},{"bike_id":"1be019f0-8c92-42a0-983a-3a36c811d170","system_id":"levelo_inurba_marseille","lat":43.30555,"lon":5.38429,"is_reserved":false,"is_disabled":false,"rental_uris":{"android":"levelo://app?vid=1be019f0-8c92-42a0-983a-3a36c811d170","ios":"levelo://app?vid=1be019f0-8c92-42a0-983a-3a36c811d170"},"vehicle_type_id":"4","last_reported":1733864930,"current_range_meters":3200,"station_id":"ce4bgg92rcd13ifvqb30","pricing_plan_id":"cebpf4jnsgd1na2vs0mg"},{"bike_id":"cd1c4fb4-8eac-4868-9420-a9389a6402c9","system_id":"levelo_inurba_marseille","lat":43.28457,"lon":5.35884,"is_reserved":false,"is_disabled":false,"rental_uris":{"android":"levelo://app?vid=cd1c4fb4-8eac-4868-9420-a9389a6402c9","ios":"levelo://app?vid=cd1c4fb4-8eac-4868-9420-a9389a6402c9"},"vehicle_type_id":"4","last_reported":1733864930,"current_range_meters":28400,"station_id":"ce4bhah2rcd13ifvqei0","pricing_plan_id":"cebpf4jnsgd1na2vs0mg"},{"bike_id":"b7c21cd2-254f-4556-bc54-df1e590de785","system_id":"levelo_inurba_marseille","lat":43.30361,"lon":5.41885,"is_reserved":false,"is_disabled":true,"rental_uris":{"android":"levelo://app?vid=b7c21cd2-254f-4556-bc54-df1e590de785","ios":"levelo://app?vid=b7c21cd2-254f-4556-bc54-df1e590de785"},"vehicle_type_id":"4","last_reported":1733864930,"current_range_meters":0,"station_id":"ce4bhop2rcd13ifvqh7g","pricing_plan_id":"cebpf4jnsgd1na2vs0mg"},{"bike_id":"f78f4e7d-a540-4cbd-99d7-83208916456d","system_id":"levelo_inurba_marseille","lat":43.26218,"lon":5.37442,"is_reserved":false,"is_disabled":false,"rental_uris":{"android":"levelo://app?vid=f78f4e7d-a540-4cbd-99d7-83208916456d","ios":"levelo://app?vid=f78f4e7d-a540-4cbd-99d7-83208916456d"},"vehicle_type_id":"4","last_reported":1733864930,"current_range_meters":38800,"station_id":"ce4bhgp2rcd13ifvqfc0","pricing_plan_id":"cebpf4jnsgd1na2vs0mg"},{"bike_id":"aac345db-d41e-475c-a96f-986bffa1163f","system_id":"levelo_inurba_marseille","lat":43.29619,"lon":5.37713,"is_reserved":false,"is_disabled":true,"rental_uris":{"android":"levelo://app?vid=aac345db-d41e-475c-a96f-986bffa1163f","ios":"levelo://app?vid=aac345db-d41e-475c-a96f-986bffa1163f"},"vehicle_type_id":"4","last_reported":1733864930,"current_range_meters":27200,"station_id":"ce4bgi92rcd13ifvqb90","pricing_plan_id":"cebpf4jnsgd1na2vs0mg"},{"bike_id":"d23a8705-e529-47a4-8077-bf556f13b60b","system_id":"levelo_inurba_marseille","lat":43.31487,"lon":5.37272,"is_reserved":false,"is_disabled":false,"rental_uris":{"android":"levelo://app?vid=d23a8705-e529-47a4-8077-bf556f13b60b","ios":"levelo://app?vid=d23a8705-e529-47a4-8077-bf556f13b60b"},"vehicle_type_id":"4","last_reported":1733864930,"current_range_meters":38800,"station_id":"ce4bgt12rcd13ifvqcd0","pricing_plan_id":"cebpf4jnsgd1na2vs0mg"},{"bike_id":"bfb97097-3a23-4ab1-a2e6-94e8ba2624d7","system_id":"levelo_inurba_marseille","lat":43.29545,"lon":5.3905,"is_reserved":false,"is_disabled":false,"rental_uris":{"android":"levelo://app?vid=bfb97097-3a23-4ab1-a2e6-94e8ba2624d7","ios":"levelo://app?vid=bfb97097-3a23-4ab1-a2e6-94e8ba2624d7"},"vehicle_type_id":"4","last_reported":1733864930,"current_range_meters":20400,"station_id":"ce4bh3p2rcd13ifvqdp0","pricing_plan_id":"cebpf4jnsgd1na2vs0mg"},{"bike_id":"a0b44e86-9121-4df3-b62a-0fc9a0d1110c","system_id":"levelo_inurba_marseille","lat":43.23063,"lon":5.35497,"is_reserved":false,"is_disabled":false,"rental_uris":{"android":"levelo://app?vid=a0b44e86-9121-4df3-b62a-0fc9a0d1110c","ios":"levelo://app?vid=a0b44e86-9121-4df3-b62a-0fc9a0d1110c"},"vehicle_type_id":"4","last_reported":1733864930,"current_range_meters":34000,"station_id":"cpo3342slgdg3j2ifvpg","pricing_plan_id":"cebpf4jnsgd1na2vs0mg"},{"bike_id":"9600905b-f4e1-448a-beb4-6da0855b6680","system_id":"levelo_inurba_marseille","lat":43.28934,"lon":5.36626,"is_reserved":false,"is_disabled":false,"rental_uris":{"android":"levelo://app?vid=9600905b-f4e1-448a-beb4-6da0855b6680","ios":"levelo://app?vid=9600905b-f4e1-448a-beb4-6da0855b6680"},"vehicle_type_id":"4","last_reported":1733864930,"current_range_meters":31200,"station_id":"ce4bhap2rcd13ifvqek0","pricing_plan_id":"cebpf4jnsgd1na2vs0mg"},{"bike_id":"462cf08f-da5e-4233-ac29-19efa267eb1e","system_id":"levelo_inurba_marseille","lat":43.31121,"lon":5.37783,"is_reserved":false,"is_disabled":true,"rental_uris":{"android":"levelo://app?vid=462cf08f-da5e-4233-ac29-19efa267eb1e","ios":"levelo://app?vid=462cf08f-da5e-4233-ac29-19efa267eb1e"},"vehicle_type_id":"4","last_reported":1733864930,"current_range_meters":1200,"station_id":"ce4bgt92rcd13ifvqcg0","pricing_plan_id":"cebpf4jnsgd1na2vs0mg"},{"bike_id":"9842e302-60c5-4463-a154-2234e3c29308","system_id":"levelo_inurba_marseille","lat":43.26193,"lon":5.3746,"is_reserved":false,"is_disabled":false,"rental_uris":{"android":"levelo://app?vid=9842e302-60c5-4463-a154-2234e3c29308","ios":"levelo://app?vid=9842e302-60c5-4463-a154-2234e3c29308"},"vehicle_type_id":"4","last_reported":1733864930,"current_range_meters":38400,"station_id":"ce4bhgp2rcd13ifvqfc0","pricing_plan_id":"cebpf4jnsgd1na2vs0mg"},{"bike_id":"acb46a71-118a-47d2-bb1f-ca26ef6a0b56","system_id":"levelo_inurba_marseille","lat":43.2508,"lon":5.39507,"is_reserved":false,"is_disabled":false,"rental_uris":{"android":"levelo://app?vid=acb46a71-118a-47d2-bb1f-ca26ef6a0b56","ios":"levelo://app?vid=acb46a71-118a-47d2-bb1f-ca26ef6a0b56"},"vehicle_type_id":"4","last_reported":1733864930,"current_range_meters":38800,"station_id":"ce4bhm12rcd13ifvqgkg","pricing_plan_id":"cebpf4jnsgd1na2vs0mg"},{"bike_id":"eab7c24e-3533-4637-b397-5e46bc48ccfd","system_id":"levelo_inurba_marseille","lat":43.23159,"lon":5.43695,"is_reserved":false,"is_disabled":true,"rental_uris":{"android":"levelo://app?vid=eab7c24e-3533-4637-b397-5e46bc48ccfd","ios":"levelo://app?vid=eab7c24e-3533-4637-b397-5e46bc48ccfd"},"vehicle_type_id":"4","last_reported":1733864930,"current_range_meters":4000,"station_id":"ce4bhmp2rcd13ifvqgog","pricing_plan_id":"cebpf4jnsgd1na2vs0mg"},{"bike_id":"ff46f7b7-bf8e-4339-90a6-087c02b41ce7","system_id":"levelo_inurba_marseille","lat":43.28664,"lon":5.36354,"is_reserved":false,"is_disabled":false,"rental_uris":{"android":"levelo://app?vid=ff46f7b7-bf8e-4339-90a6-087c02b41ce7","ios":"levelo://app?vid=ff46f7b7-bf8e-4339-90a6-087c02b41ce7"},"vehicle_type_id":"4","last_reported":1733864930,"current_range_meters":34000,"station_id":"ce4bhah2rcd13ifvqej0","pricing_plan_id":"cebpf4jnsgd1na2vs0mg"},{"bike_id":"69e333d6-b2e8-4fd9-8dc4-bce693d62a25","system_id":"levelo_inurba_marseille","lat":43.28853,"lon":5.39331,"is_reserved":false,"is_disabled":false,"rental_uris":{"android":"levelo://app?vid=69e333d6-b2e8-4fd9-8dc4-bce693d62a25","ios":"levelo://app?vid=69e333d6-b2e8-4fd9-8dc4-bce693d62a25"},"vehicle_type_id":"4","last_reported":1733864930,"current_range_meters":38000,"station_id":"ce4bh2p2rcd13ifvqdi0","pricing_plan_id":"cebpf4jnsgd1na2vs0mg"},{"bike_id":"97d58032-523c-44eb-90bb-b2be72ae18e4","system_id":"levelo_inurba_marseille","lat":43.28566,"lon":5.39473,"is_reserved":false,"is_disabled":true,"rental_uris":{"android":"levelo://app?vid=97d58032-523c-44eb-90bb-b2be72ae18e4","ios":"levelo://app?vid=97d58032-523c-44eb-90bb-b2be72ae18e4"},"vehicle_type_id":"4","last_reported":1733864930,"current_range_meters":0,"station_id":"ce4bh292rcd13ifvqdg0","pricing_plan_id":"cebpf4jnsgd1na2vs0mg"},{"bike_id":"be52c543-5169-4365-949a-7ebfc60e54fc","system_id":"levelo_inurba_marseille","lat":43.31318,"lon":5.39693,"is_reserved":false,"is_disabled":false,"rental_uris":{"android":"levelo://app?vid=be52c543-5169-4365-949a-7ebfc60e54fc","ios":"levelo://app?vid=be52c543-5169-4365-949a-7ebfc60e54fc"},"vehicle_type_id":"4","last_reported":1733864930,"current_range_meters":6000,"station_id":"ce4bgvp2rcd13ifvqcu0","pricing_plan_id":"cebpf4jnsgd1na2vs0mg"},{"bike_id":"1bbef0f8-8963-4604-a852-033ad0e236e3","system_id":"levelo_inurba_marseille","lat":43.28465,"lon":5.35889,"is_reserved":false,"is_disabled":false,"rental_uris":{"android":"levelo://app?vid=1bbef0f8-8963-4604-a852-033ad0e236e3","ios":"levelo://app?vid=1bbef0f8-8963-4604-a852-033ad0e236e3"},"vehicle_type_id":"4","last_reported":1733864930,"current_range_meters":37600,"station_id":"ce4bhah2rcd13ifvqei0","pricing_plan_id":"cebpf4jnsgd1na2vs0mg"},{"bike_id":"8f567a2a-d6d5-422b-92fa-3de375d63ca1","system_id":"levelo_inurba_marseille","lat":43.30421,"lon":5.41281,"is_reserved":false,"is_disabled":false,"rental_uris":{"android":"levelo://app?vid=8f567a2a-d6d5-422b-92fa-3de375d63ca1","ios":"levelo://app?vid=8f567a2a-d6d5-422b-92fa-3de375d63ca1"},"vehicle_type_id":"4","last_reported":1733864930,"current_range_meters":14000,"station_id":"ce4bhop2rcd13ifvqh8g","pricing_plan_id":"cebpf4jnsgd1na2vs0mg"},{"bike_id":"962a96b4-3298-40d0-92e0-1b449f02c0fe","system_id":"levelo_inurba_marseille","lat":43.25494,"lon":5.37647,"is_reserved":false,"is_disabled":true,"rental_uris":{"android":"levelo://app?vid=962a96b4-3298-40d0-92e0-1b449f02c0fe","ios":"levelo://app?vid=962a96b4-3298-40d0-92e0-1b449f02c0fe"},"vehicle_type_id":"4","last_reported":1733864930,"current_range_meters":35600,"station_id":"ce4bhh12rcd13ifvqff0","pricing_plan_id":"cebpf4jnsgd1na2vs0mg"},{"bike_id":"b6f1c11b-9746-4076-a0f3-db1ca52f232d","system_id":"levelo_inurba_marseille","lat":43.28734,"lon":5.36085,"is_reserved":false,"is_disabled":false,"rental_uris":{"android":"levelo://app?vid=b6f1c11b-9746-4076-a0f3-db1ca52f232d","ios":"levelo://app?vid=b6f1c11b-9746-4076-a0f3-db1ca52f232d"},"vehicle_type_id":"4","last_reported":1733864930,"current_range_meters":32000,"station_id":"cki0cbj6b192h4jlfktg","pricing_plan_id":"cebpf4jnsgd1na2vs0mg"},{"bike_id":"1cddb37e-2d97-416e-98ad-437aa9a20b17","system_id":"levelo_inurba_marseille","lat":43.29522,"lon":5.37508,"is_reserved":false,"is_disabled":true,"rental_uris":{"android":"levelo://app?vid=1cddb37e-2d97-416e-98ad-437aa9a20b17","ios":"levelo://app?vid=1cddb37e-2d97-416e-98ad-437aa9a20b17"},"vehicle_type_id":"4","last_reported":1733864930,"current_range_meters":25200,"station_id":"ce4bgkp2rcd13ifvqbmg","pricing_plan_id":"cebpf4jnsgd1na2vs0mg"},