{"last_updated":1758521816,"ttl":60,"version":"2.2","data":{"bikes":[{"bike_id":"01d3e4a9-f268-46f6-8ce0-5d5d72d657cc","system_id":"levelo_inurba_marseille","lat":43.292774,"lon":5.368387,"is_reserved":false,"is_disabled":false,"rental_uris":{"android":"levelo://app?vid=01d3e4a9-f268-46f6-8ce0-5d5d72d657cc","ios":"levelo://app?vid=01d3e4a9-f268-46f6-8ce0-5d5d72d657cc"},"vehicle_type_id":"4","last_reported":1758521817,"current_range_meters":2800,"station_id":"","pricing_plan_id":"cebpf4jnsgd1na2vs0mg"},{"bike_id":"2d254921-28a8-4620-a702-c4a0a7cf58ad","system_id":"levelo_inurba_marseille","lat":43.29017,"lon":5.37841,"is_reserved":false,"is_disabled":false,"rental_uris":{"android":"levelo://app?vid=2d254921-28a8-4620-a702-c4a0a7cf58ad","ios":"levelo://app?vid=2d254921-28a8-4620-a702-c4a0a7cf58ad"},"vehicle_type_id":"4","last_reported":1758521817,"current_range_meters":2800,"station_id":"ce4bh9p2rcd13ifvqed0","pricing_plan_id":"cebpf4jnsgd1na2vs0mg"},{"bike_id":"b124bb79-adf4-47df-b190-276324c9ffd9","system_id":"levelo_inurba_marseille","lat":43.301392,"lon":5.387755,"is_reserved":false,"is_disabled":false,"rental_uris":{"android":"levelo://app?vid=b124bb79-adf4-47df-b190-276324c9ffd9","ios":"levelo://app?vid=b124bb79-adf4-47df-b190-276324c9ffd9"},"vehicle_type_id":"4","last_reported":1758521817,"current_range_meters":3200,"station_id":"ce4bghh2rcd13ifvqb60","pricing_plan_id":"cebpf4jnsgd1na2vs0mg"},{"bike_id":"fcb3f6af-c7d4-4ccc-be82-7f951e8865a2","system_id":"levelo_inurba_marseille","lat":43.21194,"lon":5.35089,"is_reserved":false,"is_disabled":false,"rental_uris":{"android":"levelo://app?vid=fcb3f6af-c7d4-4ccc-be82-7f951e8865a2","ios":"levelo://app?vid=fcb3f6af-c7d4-4ccc-be82-7f951e8865a2"},"vehicle_type_id":"4","last_reported":1758521817,"current_range_meters":3600,"station_id":"st_cvj6sg6p6f1abm77japg","pricing_plan_id":"cebpf4jnsgd1na2vs0mg"},{"bike_id":"99971229-968e-49d1-8b40-fb16f40cc05c","system_id":"levelo_inurba_marseille","lat":43.21738,"lon":5.34644,"is_reserved":false,"is_disabled":false,"rental_uris":{"android":"levelo://app?vid=99971229-968e-49d1-8b40-fb16f40cc05c","ios":"levelo://app?vid=99971229-968e-49d1-8b40-fb16f40cc05c"},"vehicle_type_id":"4","last_reported":1758521817,"current_range_meters":3600,"station_id":"st_cvj6r9ubvosntc0bgbag","pricing_plan_id":"cebpf4jnsgd1na2vs0mg"},{"bike_id":"fb995bc5-3894-4487-abcd-e5b9a8d3d3a0","system_id":"levelo_inurba_marseille","lat":43.24276,"lon":5.4026,"is_reserved":false,"is_disabled":false,"rental_uris":{"android":"levelo://app?vid=fb995bc5-3894-4487-abcd-e5b9a8d3d3a0","ios":"levelo://app?vid=fb995bc5-3894-4487-abcd-e5b9a8d3d3a0"},"vehicle_type_id":"4","last_reported":1758521817,"current_range_meters":3600,"station_id":"","pricing_plan_id":"cebpf4jnsgd1na2vs0mg"},{"bike_id":"e6f59a7f-e88f-4d65-bed3-135ed8be6983","system_id":"levelo_inurba_marseille","lat":43.32551,"lon":5.39103,"is_reserved":false,"is_disabled":true,"rental_uris":{"android":"levelo://app?vid=e6f59a7f-e88f-4d65-bed3-135ed8be6983","ios":"levelo://app?vid=e6f59a7f-e88f-4d65-bed3-135ed8be6983"},"vehicle_type_id":"4","last_reported":1758521817,"current_range_meters":3600,"station_id":"","pricing_plan_id":"cebpf4jnsgd1na2vs0mg"},{"bike_id":"c160968f-4e19-4ca1-aa3a-d9079bc58667","system_id":"levelo_inurba_marseille","lat":43.32364,"lon":5.36786,"is_reserved":false,"is_disabled":false,"rental_uris":{"android":"levelo://app?vid=c160968f-4e19-4ca1-aa3a-d9079bc58667","ios":"levelo://app?vid=c160968f-4e19-4ca1-aa3a-d9079bc58667"},"vehicle_type_id":"4","last_reported":1758521817,"current_range_meters":4000,"station_id":"ce4bhsh2rcd13ifvqi2g","pricing_plan_id":"cebpf4jnsgd1na2vs0mg"},{"bike_id":"5b84af94-a4d6-4b46-a63f-085ff5681f73","system_id":"levelo_inurba_marseille","lat":43.21187,"lon":5.35075,"is_reserved":false,"is_disabled":false,"rental_uris":{"android":"levelo://app?vid=5b84af94-a4d6-4b46-a63f-085ff5681f73","ios":"levelo://app?vid=5b84af94-a4d6-4b46-a63f-085ff5681f73"},"vehicle_type_id":"4","last_reported":1758521817,"current_range_meters":4000,"station_id":"st_cvj6sg6p6f1abm77japg","pricing_plan_id":"cebpf4jnsgd1na2vs0mg"},{"bike_id":"617dca4b-4508-4d52-9e62-d583d919ac44","system_id":"levelo_inurba_marseille","lat":43.29737,"lon":5.37116,"is_reserved":false,"is_disabled":false,"rental_uris":{"android":"levelo://app?vid=617dca4b-4508-4d52-9e62-d583d919ac44","ios":"levelo://app?vid=617dca4b-4508-4d52-9e62-d583d919ac44"},"vehicle_type_id":"4","last_reported":1758521817,"current_range_meters":4000,"station_id":"","pricing_plan_id":"cebpf4jnsgd1na2vs0mg"},{"bike_id":"c4706891-6ce1-4440-91ff-a3ecf2ff007e","system_id":"levelo_inurba_marseille","lat":43.26374,"lon":5.40075,"is_reserved":false,"is_disabled":true,"rental_uris":{"android":"levelo://app?vid=c4706891-6ce1-4440-91ff-a3ecf2ff007e","ios":"levelo://app?vid=c4706891-6ce1-4440-91ff-a3ecf2ff007e"},"vehicle_type_id":"4","last_reported":1758521817,"current_range_meters":4400,"station_id":"","pricing_plan_id":"cebpf4jnsgd1na2vs0mg"},{"bike_id":"98e8af00-4b83-49fb-a286-0d2396c92bd0","system_id":"levelo_inurba_marseille","lat":43.30893,"lon":5.368369,"is_reserved":false,"is_disabled":true,"rental_uris":{"android":"levelo://app?vid=98e8af00-4b83-49fb-a286-0d2396c92bd0","ios":"levelo://app?vid=98e8af00-4b83-49fb-a286-0d2396c92bd0"},"vehicle_type_id":"4","last_reported":1758521817,"current_range_meters":4400,"station_id":"ce4bgn92rcd13ifvqbvg","pricing_plan_id":"cebpf4jnsgd1na2vs0mg"},{"bike_id":"67115f0a-62b4-490a-bc57-71f8584aaebf","system_id":"levelo_inurba_marseille","lat":43.24973,"lon":5.42452,"is_reserved":false,"is_disabled":true,"rental_uris":{"android":"levelo://app?vid=67115f0a-62b4-490a-bc57-71f8584aaebf","ios":"levelo://app?vid=67115f0a-62b4-490a-bc57-71f8584aaebf"},"vehicle_type_id":"4","last_reported":1758521817,"current_range_meters":4400,"station_id":"","pricing_plan_id":"cebpf4jnsgd1na2vs0mg"},{"bike_id":"3116075e-fa9b-423b-beef-aeee538d6e30","system_id":"levelo_inurba_marseille","lat":43.21729,"lon":5.34617,"is_reserved":false,"is_disabled":false,"rental_uris":{"android":"levelo://app?vid=3116075e-fa9b-423b-beef-aeee538d6e30","ios":"levelo://app?vid=3116075e-fa9b-423b-beef-aeee538d6e30"},"vehicle_type_id":"4","last_reported":1758521817,"current_range_meters":4800,"station_id":"st_cvj6r9ubvosntc0bgbag","pricing_plan_id":"cebpf4jnsgd1na2vs0mg"},{"bike_id":"80351f56-58ee-4af6-8b92-36eef321644f","system_id":"levelo_inurba_marseille","lat":43.24631,"lon":5.43154,"is_reserved":false,"is_disabled":false,"rental_uris":{"android":"levelo://app?vid=80351f56-58ee-4af6-8b92-36eef321644f","ios":"levelo://app?vid=80351f56-58ee-4af6-8b92-36eef321644f"},"vehicle_type_id":"4","last_reported":1758521817,"current_range_meters":4800,"station_id":"st_d2m6c4gdas8pm72e190g","pricing_plan_id":"cebpf4jnsgd1na2vs0mg"},{"bike_id":"2d799b13-fbd4-451b-a0f5-0b1245b7f4f8","system_id":"levelo_inurba_marseille","lat":43.30375,"lon":5.42486,"is_reserved":false,"is_disabled":false,"rental_uris":{"android":"levelo://app?vid=2d799b13-fbd4-451b-a0f5-0b1245b7f4f8","ios":"levelo://app?vid=2d799b13-fbd4-451b-a0f5-0b1245b7f4f8"},"vehicle_type_id":"4","last_reported":1758521817,"current_range_meters":5600,"station_id":"ce4bhoh2rcd13ifvqh6g","pricing_plan_id":"cebpf4jnsgd1na2vs0mg"},{"bike_id":"6773a7ac-fd2d-4e39-b16e-8aefaafec01e","system_id":"levelo_inurba_marseille","lat":43.29942,"lon":5.36536,"is_reserved":false,"is_disabled":false,"rental_uris":{"android":"levelo://app?vid=6773a7ac-fd2d-4e39-b16e-8aefaafec01e","ios":"levelo://app?vid=6773a7ac-fd2d-4e39-b16e-8aefaafec01e"},"vehicle_type_id":"4","last_reported":1758521817,"current_range_meters":5600,"station_id":"ce4bgm92rcd13ifvqbr0","pricing_plan_id":"cebpf4jnsgd1na2vs0mg"},{"bike_id":"6dc49f8f-31b8-485c-b489-e3fd253e6676","system_id":"levelo_inurba_marseille","lat":43.32663,"lon":5.40989,"is_reserved":false,"is_disabled":true,"rental_uris":{"android":"levelo://app?vid=6dc49f8f-31b8-485c-b489-e3fd253e6676","ios":"levelo://app?vid=6dc49f8f-31b8-485c-b489-e3fd253e6676"},"vehicle_type_id":"4","last_reported":1758521817,"current_range_meters":5600,"station_id":"ce4bhpp2rcd13ifvqhgg","pricing_plan_id":"cebpf4jnsgd1na2vs0mg"},{"bike_id":"38362cf6-1338-4a52-bdcd-995009531363","system_id":"levelo_inurba_marseille","lat":43.25934,"lon":5.40914,"is_reserved":false,"is_disabled":false,"rental_uris":{"android":"levelo://app?vid=38362cf6-1338-4a52-bdcd-995009531363","ios":"levelo://app?vid=38362cf6-1338-4a52-bdcd-995009531363"},"vehicle_type_id":"4","last_reported":1758521817,"current_range_meters":8000,"station_id":"ce4bhm92rcd13ifvqglg","pricing_plan_id":"cebpf4jnsgd1na2vs0mg"},{"bike_id":"cae7e830-90f4-4ab7-81c8-2ab65b424d7f","system_id":"levelo_inurba_marseille","lat":43.324059,"lon":5.391081,"is_reserved":false,"is_disabled":true,"rental_uris":{"android":"levelo://app?vid=cae7e830-90f4-4ab7-81c8-2ab65b424d7f","ios":"levelo://app?vid=cae7e830-90f4-4ab7-81c8-2ab65b424d7f"},"vehicle_type_id":"4","last_reported":1758521817,"current_range_meters":5600,"station_id":"","pricing_plan_id":"cebpf4jnsgd1na2vs0mg"},{"bike_id":"c5e1b7af-fbde-43ce-9501-69db75a2a080","system_id":"levelo_inurba_marseille","lat":43.28715,"lon":5.37933,"is_reserved":false,"is_disabled":false,"rental_uris":{"android":"levelo://app?vid=c5e1b7af-fbde-43ce-9501-69db75a2a080","ios":"levelo://app?vid=c5e1b7af-fbde-43ce-9501-69db75a2a080"},"vehicle_type_id":"4","last_reported":1758521817,"current_range_meters":4800,"station_id":"ce4bh9p2rcd13ifvqec0","pricing_plan_id":"cebpf4jnsgd1na2vs0mg"},{"bike_id":"04ac4072-76af-404d-8a72-a8ffe8ae8fcc","system_id":"levelo_inurba_marseille","lat":43.31074,"lon":5.4015,"is_reserved":false,"is_disabled":true,"rental_uris":{"android":"levelo://app?vid=04ac4072-76af-404d-8a72-a8ffe8ae8fcc","ios":"levelo://app?vid=04ac4072-76af-404d-8a72-a8ffe8ae8fcc"},"vehicle_type_id":"4","last_reported":1758521817,"current_range_meters":6000,"station_id":"","pricing_plan_id":"cebpf4jnsgd1na2vs0mg"},{"bike_id":"de00f33c-57e2-4194-93c9-5c03311e3752","system_id":"levelo_inurba_marseille","lat":43.30464,"lon":5.37899,"is_reserved":false,"is_disabled":false,"rental_uris":{"android":"levelo://app?vid=de00f33c-57e2-4194-93c9-5c03311e3752","ios":"levelo://app?vid=de00f33c-57e2-4194-93c9-5c03311e3752"},"vehicle_type_id":"4","last_reported":1758521817,"current_range_meters":6000,"station_id":"ce4bgup2rcd13ifvqcn0","pricing_plan_id":"cebpf4jnsgd1na2vs0mg"},{"bike_id":"901a7e8a-03f3-4510-8051-e0a31f8192b5","system_id":"levelo_inurba_marseille","lat":43.27499,"lon":5.42448,"is_reserved":false,"is_disabled":false,"rental_uris":{"android":"levelo://app?vid=901a7e8a-03f3-4510-8051-e0a31f8192b5","ios":"levelo://app?vid=901a7e8a-03f3-4510-8051-e0a31f8192b5"},"vehicle_type_id":"4","last_reported":1758521817,"current_range_meters":6000,"station_id":"ce4bhn92rcd13ifvqgrg","pricing_plan_id":"cebpf4jnsgd1na2vs0mg"},{"bike_id":"7e39f761-0fe4-4eb9-8592-5744db05ea96","system_id":"levelo_inurba_marseille","lat":43.30895,"lon":5.37202,"is_reserved":false,"is_disabled":false,"rental_uris":{"android":"levelo://app?vid=7e39f761-0fe4-4eb9-8592-5744db05ea96","ios":"levelo://app?vid=7e39f761-0fe4-4eb9-8592-5744db05ea96"},"vehicle_type_id":"4","last_reported":1758521817,"current_range_meters":6000,"station_id":"ce4bguh2rcd13ifvqckg","pricing_plan_id":"cebpf4jnsgd1na2vs0mg"},{"bike_id":"31c98bd0-85d8-4d75-a026-418c39b8e1bb","system_id":"levelo_inurba_marseille","lat":43.25822,"lon":5.39419,"is_reserved":false,"is_disabled":false,"rental_uris":{"android":"levelo://app?vid=31c98bd0-85d8-4d75-a026-418c39b8e1bb","ios":"levelo://app?vid=31c98bd0-85d8-4d75-a026-418c39b8e1bb"},"vehicle_type_id":"4","last_reported":1758521817,"current_range_meters":6400,"station_id":"ce4bhip2rcd13ifvqft0","pricing_plan_id":"cebpf4jnsgd1na2vs0mg"},{"bike_id":"0f7caa9f-1d1a-40d7-9b4a-2f8720e63681","system_id":"levelo_inurba_marseille","lat":43.30833,"lon":5.37584,"is_reserved":false,"is_disabled":false,"rental_uris":{"android":"levelo://app?vid=0f7caa9f-1d1a-40d7-9b4a-2f8720e63681","ios":"levelo://app?vid=0f7caa9f-1d1a-40d7-9b4a-2f8720e63681"},"vehicle_type_id":"4","last_reported":1758521817,"current_range_meters":6400,"station_id":"","pricing_plan_id":"cebpf4jnsgd1na2vs0mg"},{"bike_id":"78993bff-ff2c-4ac9-a279-8512dd308c5a","system_id":"levelo_inurba_marseille","lat":43.29631,"lon":5.40634,"is_reserved":false,"is_disabled":true,"rental_uris":{"android":"levelo://app?vid=78993bff-ff2c-4ac9-a279-8512dd308c5a","ios":"levelo://app?vid=78993bff-ff2c-4ac9-a279-8512dd308c5a"},"vehicle_type_id":"4","last_reported":1758521817,"current_range_meters":6400,"station_id":"ce4bh0h2rcd13ifvqd60","pricing_plan_id":"cebpf4jnsgd1na2vs0mg"},{"bike_id":"885aa88d-6c48-42d7-b011-074101798782","system_id":"levelo_inurba_marseille","lat":43.29286,"lon":5.40123,"is_reserved":false,"is_disabled":false,"rental_uris":{"android":"levelo://app?vid=885aa88d-6c48-42d7-b011-074101798782","ios":"levelo://app?vid=885aa88d-6c48-42d7-b011-074101798782"},"vehicle_type_id":"4","last_reported":1758521817,"current_range_meters":6000,"station_id":"ce4bh312rcd13ifvqdk0","pricing_plan_id":"cebpf4jnsgd1na2vs0mg"},{"bike_id":"94f6c27e-5333-44b4-9b59-0af82b088729","system_id":"levelo_inurba_marseille","lat":43.28478,"lon":5.38421,"is_reserved":false,"is_disabled":false,"rental_uris":{"android":"levelo://app?vid=94f6c27e-5333-44b4-9b59-0af82b088729","ios":"levelo://app?vid=94f6c27e-5333-44b4-9b59-0af82b088729"},"vehicle_type_id":"4","last_reported":1758521817,"current_range_meters":6400,"station_id":"ce4bh512rcd13ifvqe3g","pricing_plan_id":"cebpf4jnsgd1na2vs0mg"},{"bike_id":"9b2b3000-bdd6-48ea-929e-9ca077445008","system_id":"levelo_inurba_marseille","lat":43.25111,"lon":5.40326,"is_reserved":false,"is_disabled":false,"rental_uris":{"android":"levelo://app?vid=9b2b3000-bdd6-48ea-929e-9ca077445008","ios":"levelo://app?vid=9b2b3000-bdd6-48ea-929e-9ca077445008"},"vehicle_type_id":"4","last_reported":1758521817,"current_range_meters":6400,"station_id":"ce4bhlh2rcd13ifvqgig","pricing_plan_id":"cebpf4jnsgd1na2vs0mg"},{"bike_id":"1d225f1f-0fe1-4b65-a1ca-9003757c8e4c","system_id":"levelo_inurba_marseille","lat":43.26494,"lon":5.39558,"is_reserved":false,"is_disabled":true,"rental_uris":{"android":"levelo://app?vid=1d225f1f-0fe1-4b65-a1ca-9003757c8e4c","ios":"levelo://app?vid=1d225f1f-0fe1-4b65-a1ca-9003757c8e4c"},"vehicle_type_id":"4","last_reported":1758521817,"current_range_meters":6800,"station_id":"ce4bhi12rcd13ifvqfq0","pricing_plan_id":"cebpf4jnsgd1na2vs0mg"},{"bike_id":"2289a0ff-9c3e-4f79-ad38-4b41158d6057","system_id":"levelo_inurba_marseille","lat":43.29878,"lon":5.37901,"is_reserved":false,"is_disabled":false,"rental_uris":{"android":"levelo://app?vid=2289a0ff-9c3e-4f79-ad38-4b41158d6057","ios":"levelo://app?vid=2289a0ff-9c3e-4f79-ad38-4b41158d6057"},"vehicle_type_id":"4","last_reported":1758521817,"current_range_meters":6800,"station_id":"","pricing_plan_id":"cebpf4jnsgd1na2vs0mg"},{"bike_id":"c1843d42-9f15-4235-8c7f-0c60147cb155","system_id":"levelo_inurba_marseille","lat":43.212,"lon":5.35069,"is_reserved":false,"is_disabled":false,"rental_uris":{"android":"levelo://app?vid=c1843d42-9f15-4235-8c7f-0c60147cb155","ios":"levelo://app?vid=c1843d42-9f15-4235-8c7f-0c60147cb155"},"vehicle_type_id":"4","last_reported":1758521817,"current_range_meters":6800,"station_id":"st_cvj6sg6p6f1abm77japg","pricing_plan_id":"cebpf4jnsgd1na2vs0mg"},{"bike_id":"95739b0d-0d84-4045-9136-6e5a8d7c8ba1","system_id":"levelo_inurba_marseille","lat":43.2315,"lon":5.43723,"is_reserved":false,"is_disabled":false,"rental_uris":{"android":"levelo://app?vid=95739b0d-0d84-4045-9136-6e5a8d7c8ba1","ios":"levelo://app?vid=95739b0d-0d84-4045-9136-6e5a8d7c8ba1"},"vehicle_type_id":"4","last_reported":1758521817,"current_range_meters":6800,"station_id":"ce4bhmp2rcd13ifvqgog","pricing_plan_id":"cebpf4jnsgd1na2vs0mg"},{"bike_id":"a07a513e-e5a9-4481-8592-d991379bc662","system_id":"levelo_inurba_marseille","lat":43.337536,"lon":5.374536,"is_reserved":false,"is_disabled":false,"rental_uris":{"android":"levelo://app?vid=a07a513e-e5a9-4481-8592-d991379bc662","ios":"levelo://app?vid=a07a513e-e5a9-4481-8592-d991379bc662"},"vehicle_type_id":"4","last_reported":1758521817,"current_range_meters":6800,"station_id":"","pricing_plan_id":"cebpf4jnsgd1na2vs0mg"},{"bike_id":"4bf1c9cc-254f-48d8-8094-91f09a6c4c10","system_id":"levelo_inurba_marseille","lat":43.286255,"lon":5.35102,"is_reserved":false,"is_disabled":false,"rental_uris":{"android":"levelo://app?vid=4bf1c9cc-254f-48d8-8094-91f09a6c4c10","ios":"levelo://app?vid=4bf1c9cc-254f-48d8-8094-91f09a6c4c10"},"vehicle_type_id":"4","last_reported":1758521817,"current_range_meters":7200,"station_id":"ce4bhch2rcd13ifvqeug","pricing_plan_id":"cebpf4jnsgd1na2vs0mg"},{"bike_id":"1ff39d7b-2539-46bc-b9f5-8104a0a2c0aa","system_id":"levelo_inurba_marseille","lat":43.30601,"lon":5.37286,"is_reserved":false,"is_disabled":false,"rental_uris":{"android":"levelo://app?vid=1ff39d7b-2539-46bc-b9f5-8104a0a2c0aa","ios":"levelo://app?vid=1ff39d7b-2539-46bc-b9f5-8104a0a2c0aa"},"vehicle_type_id":"4","last_reported":1758521817,"current_range_meters":7200,"station_id":"ce4bgqh2rcd13ifvqc4g","pricing_plan_id":"cebpf4jnsgd1na2vs0mg"},{"bike_id":"213f818a-2fc2-423a-8734-2921a1895f7c","system_id":"levelo_inurba_marseille","lat":43.21198,"lon":5.3506,"is_reserved":false,"is_disabled":false,"rental_uris":{"android":"levelo://app?vid=213f818a-2fc2-423a-8734-2921a1895f7c","ios":"levelo://app?vid=213f818a-2fc2-423a-8734-2921a1895f7c"},"vehicle_type_id":"4","last_reported":1758521817,"current_range_meters":8000,"station_id":"st_cvj6sg6p6f1abm77japg","pricing_plan_id":"cebpf4jnsgd1na2vs0mg"},{"bike_id":"8f90c6e9-c2a0-414b-a280-ed01b517d1e8","system_id":"levelo_inurba_marseille","lat":43.21187,"lon":5.35076,"is_reserved":false,"is_disabled":false,"rental_uris":{"android":"levelo://app?vid=8f90c6e9-c2a0-414b-a280-ed01b517d1e8","ios":"levelo://app?vid=8f90c6e9-c2a0-414b-a280-ed01b517d1e8"},"vehicle_type_id":"4","last_reported":1758521817,"current_range_meters":8000,"station_id":"st_cvj6sg6p6f1abm77japg","pricing_plan_id":"cebpf4jnsgd1na2vs0mg"},{"bike_id":"a329363e-972b-428b-836e-51e3b2893c70","system_id":"levelo_inurba_marseille","lat":43.2119,"lon":5.35068,"is_reserved":false,"is_disabled":false,"rental_uris":{"android":"levelo://app?vid=a329363e-972b-428b-836e-51e3b2893c70","ios":"levelo://app?vid=a329363e-972b-428b-836e-51e3b2893c70"},"vehicle_type_id":"4","last_reported":1758521817,"current_range_meters":8000,"station_id":"st_cvj6sg6p6f1abm77japg","pricing_plan_id":"cebpf4jnsgd1na2vs0mg"},{"bike_id":"ec7bab57-a8d5-4c33-a136-8f6102b44091","system_id":"levelo_inurba_marseille","lat":43.29814,"lon":5.38096,"is_reserved":false,"is_disabled":false,"rental_uris":{"android":"levelo://app?vid=ec7bab57-a8d5-4c33-a136-8f6102b44091","ios":"levelo://app?vid=ec7bab57-a8d5-4c33-a136-8f6102b44091"},"vehicle_type_id":"4","last_reported":1758521817,"current_range_meters":8000,"station_id":"ce4bgip2rcd13ifvqbb0","pricing_plan_id":"cebpf4jnsgd1na2vs0mg"},{"bike_id":"55d1bc08-fd54-4a82-afc7-2adcaa7b1c4e","system_id":"levelo_inurba_marseille","lat":43.30029,"lon":5.37697,"is_reserved":false,"is_disabled":false,"rental_uris":{"android":"levelo://app?vid=55d1bc08-fd54-4a82-afc7-2adcaa7b1c4e","ios":"levelo://app?vid=55d1bc08-fd54-4a82-afc7-2adcaa7b1c4e"},"vehicle_type_id":"4","last_reported":1758521817,"current_range_meters":8000,"station_id":"","pricing_plan_id":"cebpf4jnsgd1na2vs0mg"},{"bike_id":"2015c1f2-c286-408a-b930-50d865ce0bb9","system_id":"levelo_inurba_marseille","lat":43.2118,"lon":5.35072,"is_reserved":false,"is_disabled":false,"rental_uris":{"android":"levelo://app?vid=2015c1f2-c286-408a-b930-50d865ce0bb9","ios":"levelo://app?vid=2015c1f2-c286-408a-b930-50d865ce0bb9"},"vehicle_type_id":"4","last_reported":1758521817,"current_range_meters":8000,"station_id":"st_cvj6sg6p6f1abm77japg","pricing_plan_id":"cebpf4jnsgd1na2vs0mg"},{"bike_id":"ae4d5d53-f8cc-434e-ba80-9dcf4c867ed8","system_id":"levelo_inurba_marseille","lat":43.29216,"lon":5.39356,"is_reserved":false,"is_disabled":true,"rental_uris":{"android":"levelo://app?vid=ae4d5d53-f8cc-434e-ba80-9dcf4c867ed8","ios":"levelo://app?vid=ae4d5d53-f8cc-434e-ba80-9dcf4c867ed8"},"vehicle_type_id":"4","last_reported":1758521817,"current_range_meters":8400,"station_id":"ce4bh192rcd13ifvqdd0","pricing_plan_id":"cebpf4jnsgd1na2vs0mg"},{"bike_id":"3b0920c2-b7fa-4892-8cb4-32c9a54ec9a2","system_id":"levelo_inurba_marseille","lat":43.270549,"lon":5.40264,"is_reserved":false,"is_disabled":true,"rental_uris":{"android":"levelo://app?vid=3b0920c2-b7fa-4892-8cb4-32c9a54ec9a2","ios":"levelo://app?vid=3b0920c2-b7fa-4892-8cb4-32c9a54ec9a2"},"vehicle_type_id":"4","last_reported":1758521817,"current_range_meters":8400,"station_id":"ce4bhk92rcd13ifvqgc0","pricing_plan_id":"cebpf4jnsgd1na2vs0mg"},{"bike_id":"e225c4a7-73a4-46e0-b346-c4b2ba08caf6","system_id":"levelo_inurba_marseille","lat":43.30352,"lon":5.41881,"is_reserved":false,"is_disabled":false,"rental_uris":{"android":"levelo://app?vid=e225c4a7-73a4-46e0-b346-c4b2ba08caf6","ios":"levelo://app?vid=e225c4a7-73a4-46e0-b346-c4b2ba08caf6"},"vehicle_type_id":"4","last_reported":1758521817,"current_range_meters":8400,"station_id":"ce4bhop2rcd13ifvqh7g","pricing_plan_id":"cebpf4jnsgd1na2vs0mg"},{"bike_id":"68adab37-f5ad-4072-b58a-fe6c68285ca6","system_id":"levelo_inurba_marseille","lat":43.30617,"lon":5.37664,"is_reserved":false,"is_disabled":false,"rental_uris":{"android":"levelo://app?vid=68adab37-f5ad-4072-b58a-fe6c68285ca6","ios":"levelo://app?vid=68adab37-f5ad-4072-b58a-fe6c68285ca6"},"vehicle_type_id":"4","last_reported":1758521817,"current_range_meters":8400,"station_id":"","pricing_plan_id":"cebpf4jnsgd1na2vs0mg"},{"bike_id":"5319fae8-be79-4d87-b5d0-b333eba32d6a","system_id":"levelo_inurba_marseille","lat":43.21191,"lon":5.35069,"is_reserved":false,"is_disabled":false,"rental_uris":{"android":"levelo://app?vid=5319fae8-be79-4d87-b5d0-b333eba32d6a","ios":"levelo://app?vid=5319fae8-be79-4d87-b5d0-b333eba32d6a"},"vehicle_type_id":"4","last_reported":1758521817,"current_range_meters":8400,"station_id":"st_cvj6sg6p6f1abm77japg","pricing_plan_id":"cebpf4jnsgd1na2vs0mg"},{"bike_id":"19f0f9c2-72d4-444b-9059-97dec332a311","system_id":"levelo_inurba_marseille","lat":43.29629,"lon":5.38112,"is_reserved":false,"is_disabled":false,"rental_uris":{"android":"levelo://app?vid=19f0f9c2-72d4-444b-9059-97dec332a311","ios":"levelo://app?vid=19f0f9c2-72d4-444b-9059-97dec332a311"},"vehicle_type_id":"4","last_reported":1758521817,"current_range_meters":8400,"station_id":"ce4bgl12rcd13ifvqbo0","pricing_plan_id":"cebpf4jnsgd1na2vs0mg"},{"bike_id":"7c34d6dd-bb44-4938-afdf-303a2fa5d41d","system_id":"levelo_inurba_marseille","lat":43.29728,"lon":5.3771,"is_reserved":false,"is_disabled":false,"rental_uris":{"android":"levelo://app?vid=7c34d6dd-bb44-4938-afdf-303a2fa5d41d","ios":"levelo://app?vid=7c34d6dd-bb44-4938-afdf-303a2fa5d41d"},"vehicle_type_id":"4","last_reported":1758521817,"current_range_meters":8000,"station_id":"ce4bgkh2rcd13ifvqbl0","pricing_plan_id":"cebpf4jnsgd1na2vs0mg"},{"bike_id":"ea9c3128-c564-4f4c-8f5d-5027bd504982","system_id":"levelo_inurba_marseille","lat":43.27922,"lon":5.39588,"is_reserved":false,"is_disabled":true,"rental_uris":{"android":"levelo://app?vid=ea9c3128-c564-4f4c-8f5d-5027bd504982","ios":"levelo://app?vid=ea9c3128-c564-4f4c-8f5d-5027bd504982"},"vehicle_type_id":"4","last_reported":1758521817,"current_range_meters":8400,"station_id":"ce4bhf92rcd13ifvqf40","pricing_plan_id":"cebpf4jnsgd1na2vs0mg"},{"bike_id":"2d82061a-a240-43d1-93a6-ab71cf777b3c","system_id":"levelo_inurba_marseille","lat":43.21189,"lon":5.35067,"is_reserved":false,"is_disabled":false,"rental_uris":{"android":"levelo://app?vid=2d82061a-a240-43d1-93a6-ab71cf777b3c","ios":"levelo://app?vid=2d82061a-a240-43d1-93a6-ab71cf777b3c"},"vehicle_type_id":"4","last_reported":1758521817,"current_range_meters":8400,"station_id":"st_cvj6sg6p6f1abm77japg","pricing_plan_id":"cebpf4jnsgd1na2vs0mg"},{"bike_id":"704e442e-a0e6-49ab-b4a5-c0c602207ef4","system_id":"levelo_inurba_marseille","lat":43.24081,"lon":5.37754,"is_reserved":false,"is_disabled":false,"rental_uris":{"android":"levelo://app?vid=704e442e-a0e6-49ab-b4a5-c0c602207ef4","ios":"levelo://app?vid=704e442e-a0e6-49ab-b4a5-c0c602207ef4"},"vehicle_type_id":"4","last_reported":1758521817,"current_range_meters":8800,"station_id":"ce4bhnp2rcd13ifvqgvg","pricing_plan_id":"cebpf4jnsgd1na2vs0mg"},{"bike_id":"5d633773-c86d-4663-ae55-dfb6f9eda023","system_id":"levelo_inurba_marseille","lat":43.2593,"lon":5.40879,"is_reserved":false,"is_disabled":true,"rental_uris":{"android":"levelo://app?vid=5d633773-c86d-4663-ae55-dfb6f9eda023","ios":"levelo://app?vid=5d633773-c86d-4663-ae55-dfb6f9eda023"},"vehicle_type_id":"4","last_reported":1758521817,"current_range_meters":8800,"station_id":"","pricing_plan_id":"cebpf4jnsgd1na2vs0mg"},{"bike_id":"a3a4206e-9698-40c4-99a7-c2a694b15382","system_id":"levelo_inurba_marseille","lat":43.2593,"lon":5.40902,"is_reserved":false,"is_disabled":false,"rental_uris":{"android":"levelo://app?vid=a3a4206e-9698-40c4-99a7-c2a694b15382","ios":"levelo://app?vid=a3a4206e-9698-40c4-99a7-c2a694b15382"},"vehicle_type_id":"4","last_reported":1758521817,"current_range_meters":8800,"station_id":"ce4bhm92rcd13ifvqglg","pricing_plan_id":"cebpf4jnsgd1na2vs0mg"},{"bike_id":"0319c100-5c9c-49b7-9f2a-421506d58186","system_id":"levelo_inurba_marseille","lat":43.31063,"lon":5.40094,"is_reserved":false,"is_disabled":true,"rental_uris":{"android":"levelo://app?vid=0319c100-5c9c-49b7-9f2a-421506d58186","ios":"levelo://app?vid=0319c100-5c9c-49b7-9f2a-421506d58186"},"vehicle_type_id":"4","last_reported":1758521817,"current_range_meters":8800,"station_id":"","pricing_plan_id":"cebpf4jnsgd1na2vs0mg"},{"bike_id":"d27d18e7-7157-4036-a95b-586d1fe9fe1f","system_id":"levelo_inurba_marseille","lat":43.27976,"lon":5.38737,"is_reserved":false,"is_disabled":false,"rental_uris":{"android":"levelo://app?vid=d27d18e7-7157-4036-a95b-586d1fe9fe1f","ios":"levelo://app?vid=d27d18e7-7157-4036-a95b-586d1fe9fe1f"},"vehicle_type_id":"4","last_reported":1758521817,"current_range_meters":8800,"station_id":"ce4bhg12rcd13ifvqf80","pricing_plan_id":"cebpf4jnsgd1na2vs0mg"},{"bike_id":"d801b961-8b0f-429d-9d3e-817010448aec","system_id":"levelo_inurba_marseille","lat":43.337632,"lon":5.374376,"is_reserved":false,"is_disabled":false,"rental_uris":{"android":"levelo://app?vid=d801b961-8b0f-429d-9d3e-817010448aec","ios":"levelo://app?vid=d801b961-8b0f-429d-9d3e-817010448aec"},"vehicle_type_id":"4","last_reported":1758521817,"current_range_meters":9200,"station_id":"","pricing_plan_id":"cebpf4jnsgd1na2vs0mg"},{"bike_id":"3dd99cdb-a70d-4100-b080-1aa59114acfc","system_id":"levelo_inurba_marseille","lat":43.24077,"lon":5.3777,"is_reserved":false,"is_disabled":false,"rental_uris":{"android":"levelo://app?vid=3dd99cdb-a70d-4100-b080-1aa59114acfc","ios":"levelo://app?vid=3dd99cdb-a70d-4100-b080-1aa59114acfc"},"vehicle_type_id":"4","last_reported":1758521817,"current_range_meters":9200,"station_id":"ce4bhnp2rcd13ifvqgvg","pricing_plan_id":"cebpf4jnsgd1na2vs0mg"},{"bike_id":"a1490480-d58c-4d84-acde-e97807b1ad20","system_id":"levelo_inurba_marseille","lat":43.28886,"lon":5.42525,"is_reserved":false,"is_disabled":false,"rental_uris":{"android":"levelo://app?vid=a1490480-d58c-4d84-acde-e97807b1ad20","ios":"levelo://app?vid=a1490480-d58c-4d84-acde-e97807b1ad20"},"vehicle_type_id":"4","last_reported":1758521817,"current_range_meters":9200,"station_id":"","pricing_plan_id":"cebpf4jnsgd1na2vs0mg"},{"bike_id":"394bbc81-dc66-4519-a76d-fc81a65cacf7","system_id":"levelo_inurba_marseille","lat":43.211908,"lon":5.350786,"is_reserved":false,"is_disabled":false,"rental_uris":{"android":"levelo://app?vid=394bbc81-dc66-4519-a76d-fc81a65cacf7","ios":"levelo://app?vid=394bbc81-dc66-4519-a76d-fc81a65cacf7"},"vehicle_type_id":"4","last_reported":1758521817,"current_range_meters":9200,"station_id":"st_cvj6sg6p6f1abm77japg","pricing_plan_id":"cebpf4jnsgd1na2vs0mg"},{"bike_id":"58da75e5-5798-4da9-b8f6-cfeb3034fc46","system_id":"levelo_inurba_marseille","lat":43.34143,"lon":5.40907,"is_reserved":false,"is_disabled":false,"rental_uris":{"android":"levelo://app?vid=58da75e5-5798-4da9-b8f6-cfeb3034fc46","ios":"levelo://app?vid=58da75e5-5798-4da9-b8f6-cfeb3034fc46"},"vehicle_type_id":"4","last_reported":1758521817,"current_range_meters":9200,"station_id":"ce4bhqh2rcd13ifvqhlg","pricing_plan_id":"cebpf4jnsgd1na2vs0mg"},{"bike_id":"19777ccf-0d1e-47f8-a2d8-1d9b6e91fab5","system_id":"levelo_inurba_marseille","lat":43.24078,"lon":5.37759,"is_reserved":false,"is_disabled":false,"rental_uris":{"android":"levelo://app?vid=19777ccf-0d1e-47f8-a2d8-1d9b6e91fab5","ios":"levelo://app?vid=19777ccf-0d1e-47f8-a2d8-1d9b6e91fab5"},"vehicle_type_id":"4","last_reported":1758521817,"current_range_meters":9600,"station_id":"ce4bhnp2rcd13ifvqgvg","pricing_plan_id":"cebpf4jnsgd1na2vs0mg"},{"bike_id":"ac33824d-7bae-4c2f-b575-ff1b4e9af7f5","system_id":"levelo_inurba_marseille","lat":43.30461,"lon":5.37916,"is_reserved":false,"is_disabled":false,"rental_uris":{"android":"levelo://app?vid=ac33824d-7bae-4c2f-b575-ff1b4e9af7f5","ios":"levelo://app?vid=ac33824d-7bae-4c2f-b575-ff1b4e9af7f5"},"vehicle_type_id":"4","last_reported":1758521817,"current_range_meters":9600,"station_id":"ce4bgup2rcd13ifvqcn0","pricing_plan_id":"cebpf4jnsgd1na2vs0mg"},{"bike_id":"a024b826-db01-40bf-b086-44a62a6abed9","system_id":"levelo_inurba_marseille","lat":43.239697,"lon":5.36626,"is_reserved":false,"is_disabled":false,"rental_uris":{"android":"levelo://app?vid=a024b826-db01-40bf-b086-44a62a6abed9","ios":"levelo://app?vid=a024b826-db01-40bf-b086-44a62a6abed9"},"vehicle_type_id":"4","last_reported":1758521817,"current_range_meters":9600,"station_id":"ce4bhi12rcd13ifvqfp0","pricing_plan_id":"cebpf4jnsgd1na2vs0mg"},{"bike_id":"b766d582-d4f0-4f9a-9867-0ae0b8177870","system_id":"levelo_inurba_marseille","lat":43.2119,"lon":5.35075,"is_reserved":false,"is_disabled":false,"rental_uris":{"android":"levelo://app?vid=b766d582-d4f0-4f9a-9867-0ae0b8177870","ios":"levelo://app?vid=b766d582-d4f0-4f9a-9867-0ae0b8177870"},"vehicle_type_id":"4","last_reported":1758521817,"current_range_meters":9600,"station_id":"st_cvj6sg6p6f1abm77japg","pricing_plan_id":"cebpf4jnsgd1na2vs0mg"},{"bike_id":"d2667e4e-8f97-413d-81b1-13a394c6285f","system_id":"levelo_inurba_marseille","lat":43.21769,"lon":5.34614,"is_reserved":false,"is_disabled":true,"rental_uris":{"android":"levelo://app?vid=d2667e4e-8f97-413d-81b1-13a394c6285f","ios":"levelo://app?vid=d2667e4e-8f97-413d-81b1-13a394c6285f"},"vehicle_type_id":"4","last_reported":1758521817,"current_range_meters":9600,"station_id":"st_cvj6r9ubvosntc0bgbag","pricing_plan_id":"cebpf4jnsgd1na2vs0mg"},{"bike_id":"118b6d7e-3328-44e2-ae13-d04071b8c00f","system_id":"levelo_inurba_marseille","lat":43.2119,"lon":5.3508,"is_reserved":false,"is_disabled":false,"rental_uris":{"android":"levelo://app?vid=118b6d7e-3328-44e2-ae13-d04071b8c00f","ios":"levelo://app?vid=118b6d7e-3328-44e2-ae13-d04071b8c00f"},"vehicle_type_id":"4","last_reported":1758521817,"current_range_meters":10000,"station_id":"st_cvj6sg6p6f1abm77japg","pricing_plan_id":"cebpf4jnsgd1na2vs0mg"},{"bike_id":"f581ccb4-ae4a-44ef-9aee-8da2f62ff531","system_id":"levelo_inurba_marseille","lat":43.31244,"lon":5.36824,"is_reserved":false,"is_disabled":false,"rental_uris":{"android":"levelo://app?vid=f581ccb4-ae4a-44ef-9aee-8da2f62ff531","ios":"levelo://app?vid=f581ccb4-ae4a-44ef-9aee-8da2f62ff531"},"vehicle_type_id":"4","last_reported":1758521817,"current_range_meters":10000,"station_id":"ce4bgl92rcd13ifvqbq0","pricing_plan_id":"cebpf4jnsgd1na2vs0mg"},{"bike_id":"2f4ba3c4-d560-4d54-af01-9eafbd4f5950","system_id":"levelo_inurba_marseille","lat":43.24388,"lon":5.37066,"is_reserved":false,"is_disabled":false,"rental_uris":{"android":"levelo://app?vid=2f4ba3c4-d560-4d54-af01-9eafbd4f5950","ios":"levelo://app?vid=2f4ba3c4-d560-4d54-af01-9eafbd4f5950"},"vehicle_type_id":"4","last_reported":1758521817,"current_range_meters":10000,"station_id":"ce4bhhh2rcd13ifvqfk0","pricing_plan_id":"cebpf4jnsgd1na2vs0mg"},{"bike_id":"0e76f295-2c5e-4d7a-b247-071fc8e35308","system_id":"levelo_inurba_marseille","lat":43.2798,"lon":5.41655,"is_reserved":false,"is_disabled":false,"rental_uris":{"android":"levelo://app?vid=0e76f295-2c5e-4d7a-b247-071fc8e35308","ios":"levelo://app?vid=0e76f295-2c5e-4d7a-b247-071fc8e35308"},"vehicle_type_id":"4","last_reported":1758521817,"current_range_meters":10000,"station_id":"ce4bho12rcd13ifvqh1g","pricing_plan_id":"cebpf4jnsgd1na2vs0mg"},{"bike_id":"e86857f8-f405-4657-b145-ec58ed187087","system_id":"levelo_inurba_marseille","lat":43.31484,"lon":5.3881,"is_reserved":false,"is_disabled":false,"rental_uris":{"android":"levelo://app?vid=e86857f8-f405-4657-b145-ec58ed187087","ios":"levelo://app?vid=e86857f8-f405-4657-b145-ec58ed187087"},"vehicle_type_id":"4","last_reported":1758521817,"current_range_meters":10000,"station_id":"ce4bgt92rcd13ifvqcf0","pricing_plan_id":"cebpf4jnsgd1na2vs0mg"},{"bike_id":"27f713b3-407e-45a2-82b2-c28232632275","system_id":"levelo_inurba_marseille","lat":43.318857,"lon":5.407354,"is_reserved":false,"is_disabled":false,"rental_uris":{"android":"levelo://app?vid=27f713b3-407e-45a2-82b2-c28232632275","ios":"levelo://app?vid=27f713b3-407e-45a2-82b2-c28232632275"},"vehicle_type_id":"4","last_reported":1758521817,"current_range_meters":9600,"station_id":"ce4bhq12rcd13ifvqhig","pricing_plan_id":"cebpf4jnsgd1na2vs0mg"},{"bike_id":"75cdae86-aa3c-46f9-92bf-f3662c1063cf","system_id":"levelo_inurba_marseille","lat":43.33722,"lon":5.39177,"is_reserved":false,"is_disabled":false,"rental_uris":{"android":"levelo://app?vid=75cdae86-aa3c-46f9-92bf-f3662c1063cf","ios":"levelo://app?vid=75cdae86-aa3c-46f9-92bf-f3662c1063cf"},"vehicle_type_id":"4","last_reported":1758521817,"current_range_meters":10000,"station_id":"ce4bhr92rcd13ifvqhsg","pricing_plan_id":"cebpf4jnsgd1na2vs0mg"},{"bike_id":"8256c3c5-29e1-4d6d-816d-98492f1b2555","system_id":"levelo_inurba_marseille","lat":43.27504,"lon":5.42454,"is_reserved":false,"is_disabled":false,"rental_uris":{"android":"levelo://app?vid=8256c3c5-29e1-4d6d-816d-98492f1b2555","ios":"levelo://app?vid=8256c3c5-29e1-4d6d-816d-98492f1b2555"},"vehicle_type_id":"4","last_reported":1758521817,"current_range_meters":10000,"station_id":"ce4bhn92rcd13ifvqgrg","pricing_plan_id":"cebpf4jnsgd1na2vs0mg"},{"bike_id":"363d99e5-837c-43c8-abcc-c80ef2e2786a","system_id":"levelo_inurba_marseille","lat":43.2119,"lon":5.35079,"is_reserved":false,"is_disabled":false,"rental_uris":{"android":"levelo://app?vid=363d99e5-837c-43c8-abcc-c80ef2e2786a","ios":"levelo://app?vid=363d99e5-837c-43c8-abcc-c80ef2e2786a"},"vehicle_type_id":"4","last_reported":1758521817,"current_range_meters":10000,"station_id":"st_cvj6sg6p6f1abm77japg","pricing_plan_id":"cebpf4jnsgd1na2vs0mg"},{"bike_id":"a5364c4b-9fbc-4200-9686-1db420406c33","system_id":"levelo_inurba_marseille","lat":43.30401,"lon":5.39721,"is_reserved":false,"is_disabled":true,"rental_uris":{"android":"levelo://app?vid=a5364c4b-9fbc-4200-9686-1db420406c33","ios":"levelo://app?vid=a5364c4b-9fbc-4200-9686-1db420406c33"},"vehicle_type_id":"4","last_reported":1758521817,"current_range_meters":10000,"station_id":"ce4bh092rcd13ifvqd20","pricing_plan_id":"cebpf4jnsgd1na2vs0mg"},{"bike_id":"76bbf107-7ec5-4826-b296-ab629ecd14ab","system_id":"levelo_inurba_marseille","lat":43.29815,"lon":5.42137,"is_reserved":false,"is_disabled":false,"rental_uris":{"android":"levelo://app?vid=76bbf107-7ec5-4826-b296-ab629ecd14ab","ios":"levelo://app?vid=76bbf107-7ec5-4826-b296-ab629ecd14ab"},"vehicle_type_id":"4","last_reported":1758521817,"current_range_meters":10000,"station_id":"","pricing_plan_id":"cebpf4jnsgd1na2vs0mg"},{"bike_id":"0c8a92f3-f5d4-48dc-bbf5-8177c0a48b95","system_id":"levelo_inurba_marseille","lat":43.29656,"lon":5.38151,"is_reserved":false,"is_disabled":false,"rental_uris":{"android":"levelo://app?vid=0c8a92f3-f5d4-48dc-bbf5-8177c0a48b95","ios":"levelo://app?vid=0c8a92f3-f5d4-48dc-bbf5-8177c0a48b95"},"vehicle_type_id":"4","last_reported":1758521817,"current_range_meters":10800,"station_id":"","pricing_plan_id":"cebpf4jnsgd1na2vs0mg"},{"bike_id":"b22bfa05-faa9-4074-a1be-f504ad012798","system_id":"levelo_inurba_marseille","lat":43.31766,"lon":5.38996,"is_reserved":false,"is_disabled":false,"rental_uris":{"android":"levelo://app?vid=b22bfa05-faa9-4074-a1be-f504ad012798","ios":"levelo://app?vid=b22bfa05-faa9-4074-a1be-f504ad012798"},"vehicle_type_id":"4","last_reported":1758521817,"current_range_meters":10800,"station_id":"ce4bhqp2rcd13ifvqhng","pricing_plan_id":"cebpf4jnsgd1na2vs0mg"},{"bike_id":"1398bb8d-3747-4057-8b53-f2d4ef610e89","system_id":"levelo_inurba_marseille","lat":43.30805,"lon":5.43533,"is_reserved":false,"is_disabled":false,"rental_uris":{"android":"levelo://app?vid=1398bb8d-3747-4057-8b53-f2d4ef610e89","ios":"levelo://app?vid=1398bb8d-3747-4057-8b53-f2d4ef610e89"},"vehicle_type_id":"4","last_reported":1758521817,"current_range_meters":10800,"station_id":"ce4bhph2rcd13ifvqheg","pricing_plan_id":"cebpf4jnsgd1na2vs0mg"},{"bike_id":"162483fb-058a-43f7-a272-15e63e78b5bc","system_id":"levelo_inurba_marseille","lat":43.217443,"lon":5.346014,"is_reserved":false,"is_disabled":false,"rental_uris":{"android":"levelo://app?vid=162483fb-058a-43f7-a272-15e63e78b5bc","ios":"levelo://app?vid=162483fb-058a-43f7-a272-15e63e78b5bc"},"vehicle_type_id":"4","last_reported":1758521817,"current_range_meters":10800,"station_id":"st_cvj6r9ubvosntc0bgbag","pricing_plan_id":"cebpf4jnsgd1na2vs0mg"},{"bike_id":"ca7cfd93-60d9-4fda-b2da-28a86ec02074","system_id":"levelo_inurba_marseille","lat":43.33523,"lon":5.36424,"is_reserved":false,"is_disabled":false,"rental_uris":{"android":"levelo://app?vid=ca7cfd93-60d9-4fda-b2da-28a86ec02074","ios":"levelo://app?vid=ca7cfd93-60d9-4fda-b2da-28a86ec02074"},"vehicle_type_id":"4","last_reported":1758521817,"current_range_meters":10800,"station_id":"","pricing_plan_id":"cebpf4jnsgd1na2vs0mg"},{"bike_id":"f7fc52ff-0e3b-44e9-b9b0-36a6f307c4db","system_id":"levelo_inurba_marseille","lat":43.294988,"lon":5.377421,"is_reserved":false,"is_disabled":false,"rental_uris":{"android":"levelo://app?vid=f7fc52ff-0e3b-44e9-b9b0-36a6f307c4db","ios":"levelo://app?vid=f7fc52ff-0e3b-44e9-b9b0-36a6f307c4db"},"vehicle_type_id":"4","last_reported":1758521817,"current_range_meters":10800,"station_id":"ce4bgh92rcd13ifvqb50","pricing_plan_id":"cebpf4jnsgd1na2vs0mg"},{"bike_id":"ead4e7a4-8e9d-4a44-8a3a-67572f7060d5","system_id":"levelo_inurba_marseille","lat":43.23193,"lon":5.35549,"is_reserved":false,"is_disabled":false,"rental_uris":{"android":"levelo://app?vid=ead4e7a4-8e9d-4a44-8a3a-67572f7060d5","ios":"levelo://app?vid=ead4e7a4-8e9d-4a44-8a3a-67572f7060d5"},"vehicle_type_id":"4","last_reported":1758521817,"current_range_meters":10800,"station_id":"ce4bhu92rcd13ifvqi70","pricing_plan_id":"cebpf4jnsgd1na2vs0mg"},{"bike_id":"7c256690-61e0-40e3-b5c0-990572b9ab59","system_id":"levelo_inurba_marseille","lat":43.27209,"lon":5.39177,"is_reserved":false,"is_disabled":false,"rental_uris":{"android":"levelo://app?vid=7c256690-61e0-40e3-b5c0-990572b9ab59","ios":"levelo://app?vid=7c256690-61e0-40e3-b5c0-990572b9ab59"},"vehicle_type_id":"4","last_reported":1758521817,"current_range_meters":11200,"station_id":"ce4bhhp2rcd13ifvqfm0","pricing_plan_id":"cebpf4jnsgd1na2vs0mg"},{"bike_id":"e42080b2-e4ab-48bc-b9cf-cde434b19dd6","system_id":"levelo_inurba_marseille","lat":43.2407,"lon":5.37743,"is_reserved":false,"is_disabled":false,"rental_uris":{"android":"levelo://app?vid=e42080b2-e4ab-48bc-b9cf-cde434b19dd6","ios":"levelo://app?vid=e42080b2-e4ab-48bc-b9cf-cde434b19dd6"},"vehicle_type_id":"4","last_reported":1758521817,"current_range_meters":11200,"station_id":"ce4bhnp2rcd13ifvqgvg","pricing_plan_id":"cebpf4jnsgd1na2vs0mg"},{"bike_id":"9176512c-2cc1-4df2-a8e0-6be514fbcdbf","system_id":"levelo_inurba_marseille","lat":43.33748,"lon":5.37465,"is_reserved":false,"is_disabled":false,"rental_uris":{"android":"levelo://app?vid=9176512c-2cc1-4df2-a8e0-6be514fbcdbf","ios":"levelo://app?vid=9176512c-2cc1-4df2-a8e0-6be514fbcdbf"},"vehicle_type_id":"4","last_reported":1758521817,"current_range_meters":11200,"station_id":"","pricing_plan_id":"cebpf4jnsgd1na2vs0mg"},{"bike_id":"1f5f1aea-0efa-4310-b0af-b5d79f6200fa","system_id":"levelo_inurba_marseille","lat":43.295608,"lon":5.422833,"is_reserved":false,"is_disabled":false,"rental_uris":{"android":"levelo://app?vid=1f5f1aea-0efa-4310-b0af-b5d79f6200fa","ios":"levelo://app?vid=1f5f1aea-0efa-4310-b0af-b5d79f6200fa"},"vehicle_type_id":"4","last_reported":1758521817,"current_range_meters":11200,"station_id":"ce4bhph2rcd13ifvqhdg","pricing_plan_id":"cebpf4jnsgd1na2vs0mg"},{"bike_id":"0402438e-d72b-4870-8e22-17facef5f22b","system_id":"levelo_inurba_marseille","lat":43.29573,"lon":5.39154,"is_reserved":false,"is_disabled":false,"rental_uris":{"android":"levelo://app?vid=0402438e-d72b-4870-8e22-17facef5f22b","ios":"levelo://app?vid=0402438e-d72b-4870-8e22-17facef5f22b"},"vehicle_type_id":"4","last_reported":1758521817,"current_range_meters":11600,"station_id":"","pricing_plan_id":"cebpf4jnsgd1na2vs0mg"},{"bike_id":"ab3ffc48-3b72-4766-9326-6b75f94718d3","system_id":"levelo_inurba_marseille","lat":43.28922,"lon":5.38402,"is_reserved":false,"is_disabled":true,"rental_uris":{"android":"levelo://app?vid=ab3ffc48-3b72-4766-9326-6b75f94718d3","ios":"levelo://app?vid=ab3ffc48-3b72-4766-9326-6b75f94718d3"},"vehicle_type_id":"4","last_reported":1758521817,"current_range_meters":11600,"station_id":"ce4bh612rcd13ifvqe6g","pricing_plan_id":"cebpf4jnsgd1na2vs0mg"},{"bike_id":"d5856bb8-ffbe-4c60-bc2f-17fd57f28c8f","system_id":"levelo_inurba_marseille","lat":43.24663,"lon":5.38164,"is_reserved":false,"is_disabled":false,"rental_uris":{"android":"levelo://app?vid=d5856bb8-ffbe-4c60-bc2f-17fd57f28c8f","ios":"levelo://app?vid=d5856bb8-ffbe-4c60-bc2f-17fd57f28c8f"},"vehicle_type_id":"4","last_reported":1758521817,"current_range_meters":11600,"station_id":"ce4bhih2rcd13ifvqfr0","pricing_plan_id":"cebpf4jnsgd1na2vs0mg"},{"bike_id":"a5798bdb-7416-4a1d-ad57-6276bb6ce748","system_id":"levelo_inurba_marseille","lat":43.27491,"lon":5.42458,"is_reserved":false,"is_disabled":false,"rental_uris":{"android":"levelo://app?vid=a5798bdb-7416-4a1d-ad57-6276bb6ce748","ios":"levelo://app?vid=a5798bdb-7416-4a1d-ad57-6276bb6ce748"},"vehicle_type_id":"4","last_reported":1758521817,"current_range_meters":11600,"station_id":"ce4bhn92rcd13ifvqgrg","pricing_plan_id":"cebpf4jnsgd1na2vs0mg"},{"bike_id":"438ead59-de14-4fa0-a61d-03a70a4122ae","system_id":"levelo_inurba_marseille","lat":43.97285,"lon":4.89134,"is_reserved":false,"is_disabled":true,"rental_uris":{"android":"levelo://app?vid=438ead59-de14-4fa0-a61d-03a70a4122ae","ios":"levelo://app?vid=438ead59-de14-4fa0-a61d-03a70a4122ae"},"vehicle_type_id":"4","last_reported":1758521817,"current_range_meters":11600,"station_id":"","pricing_plan_id":"cebpf4jnsgd1na2vs0mg"},{"bike_id":"6a55d867-d31b-44e4-a1a8-840510716548","system_id":"levelo_inurba_marseille","lat":43.29041,"lon":5.39979,"is_reserved":false,"is_disabled":false,"rental_uris":{"android":"levelo://app?vid=6a55d867-d31b-44e4-a1a8-840510716548","ios":"levelo://app?vid=6a55d867-d31b-44e4-a1a8-840510716548"},"vehicle_type_id":"4","last_reported":1758521817,"current_range_meters":11600,"station_id":"ce4bh392rcd13ifvqdm0","pricing_plan_id":"cebpf4jnsgd1na2vs0mg"},{"bike_id":"b5bdc8cb-3734-4e87-af91-37d09fc28ff6","system_id":"levelo_inurba_marseille","lat":43.26057,"lon":5.39403,"is_reserved":false,"is_disabled":false,"rental_uris":{"android":"levelo://app?vid=b5bdc8cb-3734-4e87-af91-37d09fc28ff6","ios":"levelo://app?vid=b5bdc8cb-3734-4e87-af91-37d09fc28ff6"},"vehicle_type_id":"4","last_reported":1758521817,"current_range_meters":12000,"station_id":"ce4bhh92rcd13ifvqfj0","pricing_plan_id":"cebpf4jnsgd1na2vs0mg"},{"bike_id":"e7f6ec9d-0d28-4bd8-a3da-83f0cd142dce","system_id":"levelo_inurba_marseille","lat":43.290291,"lon":5.386496,"is_reserved":false,"is_disabled":false,"rental_uris":{"android":"levelo://app?vid=e7f6ec9d-0d28-4bd8-a3da-83f0cd142dce","ios":"levelo://app?vid=e7f6ec9d-0d28-4bd8-a3da-83f0cd142dce"},"vehicle_type_id":"4","last_reported":1758521817,"current_range_meters":12000,"station_id":"","pricing_plan_id":"cebpf4jnsgd1na2vs0mg"},{"bike_id":"6be3bd8b-eada-4f83-bfbf-82d34cec3c94","system_id":"levelo_inurba_marseille","lat":43.337691,"lon":5.374378,"is_reserved":false,"is_disabled":false,"rental_uris":{"android":"levelo://app?vid=6be3bd8b-eada-4f83-bfbf-82d34cec3c94","ios":"levelo://app?vid=6be3bd8b-eada-4f83-bfbf-82d34cec3c94"},"vehicle_type_id":"4","last_reported":1758521817,"current_range_meters":12000,"station_id":"","pricing_plan_id":"cebpf4jnsgd1na2vs0mg"},{"bike_id":"d8acbc3b-da34-4f44-a16b-38a2d5340fac","system_id":"levelo_inurba_marseille","lat":43.30479,"lon":5.37908,"is_reserved":false,"is_disabled":false,"rental_uris":{"android":"levelo://app?vid=d8acbc3b-da34-4f44-a16b-38a2d5340fac","ios":"levelo://app?vid=d8acbc3b-da34-4f44-a16b-38a2d5340fac"},"vehicle_type_id":"4","last_reported":1758521817,"current_range_meters":12000,"station_id":"ce4bgup2rcd13ifvqcn0","pricing_plan_id":"cebpf4jnsgd1na2vs0mg"},{"bike_id":"31e1ba1a-f4b0-4377-81aa-27cf4b468137","system_id":"levelo_inurba_marseille","lat":43.30524,"lon":5.3656,"is_reserved":false,"is_disabled":false,"rental_uris":{"android":"levelo://app?vid=31e1ba1a-f4b0-4377-81aa-27cf4b468137","ios":"levelo://app?vid=31e1ba1a-f4b0-4377-81aa-27cf4b468137"},"vehicle_type_id":"4","last_reported":1758521817,"current_range_meters":12400,"station_id":"ce4bgs12rcd13ifvqcag","pricing_plan_id":"cebpf4jnsgd1na2vs0mg"},{"bike_id":"1e0fd49c-ac4b-47b7-af02-10561a312938","system_id":"levelo_inurba_marseille","lat":43.21728,"lon":5.34621,"is_reserved":false,"is_disabled":false,"rental_uris":{"android":"levelo://app?vid=1e0fd49c-ac4b-47b7-af02-10561a312938","ios":"levelo://app?vid=1e0fd49c-ac4b-47b7-af02-10561a312938"},"vehicle_type_id":"4","last_reported":1758521817,"current_range_meters":12400,"station_id":"st_cvj6r9ubvosntc0bgbag","pricing_plan_id":"cebpf4jnsgd1na2vs0mg"},{"bike_id":"14e0ecfc-848e-4179-ac98-8bf6c41189b5","system_id":"levelo_inurba_marseille","lat":43.30284,"lon":5.396613,"is_reserved":false,"is_disabled":false,"rental_uris":{"android":"levelo://app?vid=14e0ecfc-848e-4179-ac98-8bf6c41189b5","ios":"levelo://app?vid=14e0ecfc-848e-4179-ac98-8bf6c41189b5"},"vehicle_type_id":"4","last_reported":1758521817,"current_range_meters":12400,"station_id":"","pricing_plan_id":"cebpf4jnsgd1na2vs0mg"},{"bike_id":"f3805ac9-2ab6-41f8-b374-0887d951860e","system_id":"levelo_inurba_marseille","lat":43.217395,"lon":5.346055,"is_reserved":false,"is_disabled":false,"rental_uris":{"android":"levelo://app?vid=f3805ac9-2ab6-41f8-b374-0887d951860e","ios":"levelo://app?vid=f3805ac9-2ab6-41f8-b374-0887d951860e"},"vehicle_type_id":"4","last_reported":1758521817,"current_range_meters":12400,"station_id":"st_cvj6r9ubvosntc0bgbag","pricing_plan_id":"cebpf4jnsgd1na2vs0mg"},{"bike_id":"b824c348-f370-4592-85e4-505c352c705e","system_id":"levelo_inurba_marseille","lat":43.30374,"lon":5.42486,"is_reserved":false,"is_disabled":false,"rental_uris":{"android":"levelo://app?vid=b824c348-f370-4592-85e4-505c352c705e","ios":"levelo://app?vid=b824c348-f370-4592-85e4-505c352c705e"},"vehicle_type_id":"4","last_reported":1758521817,"current_range_meters":12800,"station_id":"ce4bhoh2rcd13ifvqh6g","pricing_plan_id":"cebpf4jnsgd1na2vs0mg"},{"bike_id":"8adacf04-b51f-4921-9ca0-6da30d4e418b","system_id":"levelo_inurba_marseille","lat":43.31111,"lon":5.37745,"is_reserved":false,"is_disabled":false,"rental_uris":{"android":"levelo://app?vid=8adacf04-b51f-4921-9ca0-6da30d4e418b","ios":"levelo://app?vid=8adacf04-b51f-4921-9ca0-6da30d4e418b"},"vehicle_type_id":"4","last_reported":1758521817,"current_range_meters":12800,"station_id":"ce4bgt92rcd13ifvqcg0","pricing_plan_id":"cebpf4jnsgd1na2vs0mg"},{"bike_id":"ac13538a-02ad-4594-a10c-6f4b2d2f97df","system_id":"levelo_inurba_marseille","lat":43.30787,"lon":5.37643,"is_reserved":false,"is_disabled":false,"rental_uris":{"android":"levelo://app?vid=ac13538a-02ad-4594-a10c-6f4b2d2f97df","ios":"levelo://app?vid=ac13538a-02ad-4594-a10c-6f4b2d2f97df"},"vehicle_type_id":"4","last_reported":1758521817,"current_range_meters":12800,"station_id":"ce4bgv92rcd13ifvqcq0","pricing_plan_id":"cebpf4jnsgd1na2vs0mg"},{"bike_id":"99f2a0d1-a9bb-4a75-ad28-578d9b01c1fc","system_id":"levelo_inurba_marseille","lat":43.30117,"lon":5.38804,"is_reserved":false,"is_disabled":false,"rental_uris":{"android":"levelo://app?vid=99f2a0d1-a9bb-4a75-ad28-578d9b01c1fc","ios":"levelo://app?vid=99f2a0d1-a9bb-4a75-ad28-578d9b01c1fc"},"vehicle_type_id":"4","last_reported":1758521817,"current_range_meters":13600,"station_id":"ce4bghh2rcd13ifvqb60","pricing_plan_id":"cebpf4jnsgd1na2vs0mg"},{"bike_id":"6e462536-3a01-4092-9490-0b0d7831c7b9","system_id":"levelo_inurba_marseille","lat":43.29509,"lon":5.38925,"is_reserved":false,"is_disabled":false,"rental_uris":{"android":"levelo://app?vid=6e462536-3a01-4092-9490-0b0d7831c7b9","ios":"levelo://app?vid=6e462536-3a01-4092-9490-0b0d7831c7b9"},"vehicle_type_id":"4","last_reported":1758521817,"current_range_meters":14000,"station_id":"","pricing_plan_id":"cebpf4jnsgd1na2vs0mg"},{"bike_id":"c46575d3-d222-4081-9970-3a38bb708282","system_id":"levelo_inurba_marseille","lat":43.21741,"lon":5.34601,"is_reserved":false,"is_disabled":false,"rental_uris":{"android":"levelo://app?vid=c46575d3-d222-4081-9970-3a38bb708282","ios":"levelo://app?vid=c46575d3-d222-4081-9970-3a38bb708282"},"vehicle_type_id":"4","last_reported":1758521817,"current_range_meters":13600,"station_id":"st_cvj6r9ubvosntc0bgbag","pricing_plan_id":"cebpf4jnsgd1na2vs0mg"},{"bike_id":"43d57fd4-047e-4ac8-97e5-ec9b96239472","system_id":"levelo_inurba_marseille","lat":43.33123,"lon":5.39726,"is_reserved":false,"is_disabled":false,"rental_uris":{"android":"levelo://app?vid=43d57fd4-047e-4ac8-97e5-ec9b96239472","ios":"levelo://app?vid=43d57fd4-047e-4ac8-97e5-ec9b96239472"},"vehicle_type_id":"4","last_reported":1758521817,"current_range_meters":13600,"station_id":"","pricing_plan_id":"cebpf4jnsgd1na2vs0mg"},{"bike_id":"05b61679-1685-4371-a8b1-56750397289e","system_id":"levelo_inurba_marseille","lat":43.29274,"lon":5.36843,"is_reserved":false,"is_disabled":false,"rental_uris":{"android":"levelo://app?vid=05b61679-1685-4371-a8b1-56750397289e","ios":"levelo://app?vid=05b61679-1685-4371-a8b1-56750397289e"},"vehicle_type_id":"4","last_reported":1758521817,"current_range_meters":13600,"station_id":"ce4bhbp2rcd13ifvqesg","pricing_plan_id":"cebpf4jnsgd1na2vs0mg"},{"bike_id":"d64a3c34-4f58-4a33-9858-96d7eeac0575","system_id":"levelo_inurba_marseille","lat":43.21738,"lon":5.34612,"is_reserved":false,"is_disabled":true,"rental_uris":{"android":"levelo://app?vid=d64a3c34-4f58-4a33-9858-96d7eeac0575","ios":"levelo://app?vid=d64a3c34-4f58-4a33-9858-96d7eeac0575"},"vehicle_type_id":"4","last_reported":1758521817,"current_range_meters":14000,"station_id":"st_cvj6r9ubvosntc0bgbag","pricing_plan_id":"cebpf4jnsgd1na2vs0mg"},{"bike_id":"423aeb91-69f4-4522-916b-76a472005736","system_id":"levelo_inurba_marseille","lat":43.31475,"lon":5.38036,"is_reserved":false,"is_disabled":false,"rental_uris":{"android":"levelo://app?vid=423aeb91-69f4-4522-916b-76a472005736","ios":"levelo://app?vid=423aeb91-69f4-4522-916b-76a472005736"},"vehicle_type_id":"4","last_reported":1758521817,"current_range_meters":14000,"station_id":"","pricing_plan_id":"cebpf4jnsgd1na2vs0mg"},{"bike_id":"6d136214-642f-4d15-9772-10a6de10ad42","system_id":"levelo_inurba_marseille","lat":43.27497,"lon":5.42452,"is_reserved":false,"is_disabled":false,"rental_uris":{"android":"levelo://app?vid=6d136214-642f-4d15-9772-10a6de10ad42","ios":"levelo://app?vid=6d136214-642f-4d15-9772-10a6de10ad42"},"vehicle_type_id":"4","last_reported":1758521817,"current_range_meters":14400,"station_id":"ce4bhn92rcd13ifvqgrg","pricing_plan_id":"cebpf4jnsgd1na2vs0mg"},{"bike_id":"aa615de6-88cf-4553-9e37-2b398204d202","system_id":"levelo_inurba_marseille","lat":43.21188,"lon":5.35059,"is_reserved":false,"is_disabled":false,"rental_uris":{"android":"levelo://app?vid=aa615de6-88cf-4553-9e37-2b398204d202","ios":"levelo://app?vid=aa615de6-88cf-4553-9e37-2b398204d202"},"vehicle_type_id":"4","last_reported":1758521817,"current_range_meters":14400,"station_id":"st_cvj6sg6p6f1abm77japg","pricing_plan_id":"cebpf4jnsgd1na2vs0mg"},{"bike_id":"d1114a25-396a-458c-bb3a-06443865c163","system_id":"levelo_inurba_marseille","lat":43.29776,"lon":5.38126,"is_reserved":false,"is_disabled":true,"rental_uris":{"android":"levelo://app?vid=d1114a25-396a-458c-bb3a-06443865c163","ios":"levelo://app?vid=d1114a25-396a-458c-bb3a-06443865c163"},"vehicle_type_id":"4","last_reported":1758521817,"current_range_meters":14400,"station_id":"ce4bgip2rcd13ifvqbb0","pricing_plan_id":"cebpf4jnsgd1na2vs0mg"},{"bike_id":"51d92c87-aa59-4783-b818-f9c5a7eebd73","system_id":"levelo_inurba_marseille","lat":43.29526,"lon":5.37411,"is_reserved":false,"is_disabled":false,"rental_uris":{"android":"levelo://app?vid=51d92c87-aa59-4783-b818-f9c5a7eebd73","ios":"levelo://app?vid=51d92c87-aa59-4783-b818-f9c5a7eebd73"},"vehicle_type_id":"4","last_reported":1758521817,"current_range_meters":14400,"station_id":"","pricing_plan_id":"cebpf4jnsgd1na2vs0mg"},{"bike_id":"fdc779f7-1df1-49eb-947b-7e5f8d2e169b","system_id":"levelo_inurba_marseille","lat":43.27384,"lon":5.36269,"is_reserved":false,"is_disabled":false,"rental_uris":{"android":"levelo://app?vid=fdc779f7-1df1-49eb-947b-7e5f8d2e169b","ios":"levelo://app?vid=fdc779f7-1df1-49eb-947b-7e5f8d2e169b"},"vehicle_type_id":"4","last_reported":1758521817,"current_range_meters":14400,"station_id":"ce4bhbh2rcd13ifvqeo0","pricing_plan_id":"cebpf4jnsgd1na2vs0mg"},{"bike_id":"40113456-ecc1-473b-8341-841bba6d1740","system_id":"levelo_inurba_marseille","lat":43.28634,"lon":5.3512,"is_reserved":false,"is_disabled":false,"rental_uris":{"android":"levelo://app?vid=40113456-ecc1-473b-8341-841bba6d1740","ios":"levelo://app?vid=40113456-ecc1-473b-8341-841bba6d1740"},"vehicle_type_id":"4","last_reported":1758521817,"current_range_meters":14400,"station_id":"ce4bhch2rcd13ifvqeug","pricing_plan_id":"cebpf4jnsgd1na2vs0mg"},{"bike_id":"2856ea7f-80d3-4041-9a34-8846fb61b455","system_id":"levelo_inurba_marseille","lat":43.285442,"lon":5.387867,"is_reserved":false,"is_disabled":true,"rental_uris":{"android":"levelo://app?vid=2856ea7f-80d3-4041-9a34-8846fb61b455","ios":"levelo://app?vid=2856ea7f-80d3-4041-9a34-8846fb61b455"},"vehicle_type_id":"4","last_reported":1758521817,"current_range_meters":14400,"station_id":"","pricing_plan_id":"cebpf4jnsgd1na2vs0mg"},{"bike_id":"34f32fc0-aa07-4a77-a798-5dff527258f0","system_id":"levelo_inurba_marseille","lat":43.286657,"lon":5.38675,"is_reserved":false,"is_disabled":false,"rental_uris":{"android":"levelo://app?vid=34f32fc0-aa07-4a77-a798-5dff527258f0","ios":"levelo://app?vid=34f32fc0-aa07-4a77-a798-5dff527258f0"},"vehicle_type_id":"4","last_reported":1758521817,"current_range_meters":14400,"station_id":"ce4bh492rcd13ifvqdug","pricing_plan_id":"cebpf4jnsgd1na2vs0mg"},{"bike_id":"049b0910-7772-47de-92f7-3f95d2c2c77f","system_id":"levelo_inurba_marseille","lat":43.29115,"lon":5.44011,"is_reserved":false,"is_disabled":false,"rental_uris":{"android":"levelo://app?vid=049b0910-7772-47de-92f7-3f95d2c2c77f","ios":"levelo://app?vid=049b0910-7772-47de-92f7-3f95d2c2c77f"},"vehicle_type_id":"4","last_reported":1758521817,"current_range_meters":14400,"station_id":"","pricing_plan_id":"cebpf4jnsgd1na2vs0mg"},{"bike_id":"a6740764-f7a3-4256-9bd4-4b46e84d5486","system_id":"levelo_inurba_marseille","lat":43.26564,"lon":5.39009,"is_reserved":false,"is_disabled":false,"rental_uris":{"android":"levelo://app?vid=a6740764-f7a3-4256-9bd4-4b46e84d5486","ios":"levelo://app?vid=a6740764-f7a3-4256-9bd4-4b46e84d5486"},"vehicle_type_id":"4","last_reported":1758521817,"current_range_meters":14400,"station_id":"ce4bhe12rcd13ifvqf30","pricing_plan_id":"cebpf4jnsgd1na2vs0mg"},{"bike_id":"3ed3ffd3-4446-442c-ab85-82ac8c442074","system_id":"levelo_inurba_marseille","lat":43.31114,"lon":5.37765,"is_reserved":false,"is_disabled":false,"rental_uris":{"android":"levelo://app?vid=3ed3ffd3-4446-442c-ab85-82ac8c442074","ios":"levelo://app?vid=3ed3ffd3-4446-442c-ab85-82ac8c442074"},"vehicle_type_id":"4","last_reported":1758521817,"current_range_meters":14800,"station_id":"ce4bgt92rcd13ifvqcg0","pricing_plan_id":"cebpf4jnsgd1na2vs0mg"},{"bike_id":"efe89e27-9e84-475b-857f-f8e46a983c2e","system_id":"levelo_inurba_marseille","lat":43.30805,"lon":5.43522,"is_reserved":false,"is_disabled":false,"rental_uris":{"android":"levelo://app?vid=efe89e27-9e84-475b-857f-f8e46a983c2e","ios":"levelo://app?vid=efe89e27-9e84-475b-857f-f8e46a983c2e"},"vehicle_type_id":"4","last_reported":1758521817,"current_range_meters":14800,"station_id":"ce4bhph2rcd13ifvqheg","pricing_plan_id":"cebpf4jnsgd1na2vs0mg"},{"bike_id":"ae62f458-0d89-4491-b016-86f18534cf69","system_id":"levelo_inurba_marseille","lat":43.275,"lon":5.4247,"is_reserved":false,"is_disabled":false,"rental_uris":{"android":"levelo://app?vid=ae62f458-0d89-4491-b016-86f18534cf69","ios":"levelo://app?vid=ae62f458-0d89-4491-b016-86f18534cf69"},"vehicle_type_id":"4","last_reported":1758521817,"current_range_meters":14800,"station_id":"ce4bhn92rcd13ifvqgrg","pricing_plan_id":"cebpf4jnsgd1na2vs0mg"},{"bike_id":"40af9c97-e433-4d5f-aa67-78d647ee5b4c","system_id":"levelo_inurba_marseille","lat":43.27486,"lon":5.42469,"is_reserved":false,"is_disabled":true,"rental_uris":{"android":"levelo://app?vid=40af9c97-e433-4d5f-aa67-78d647ee5b4c","ios":"levelo://app?vid=40af9c97-e433-4d5f-aa67-78d647ee5b4c"},"vehicle_type_id":"4","last_reported":1758521817,"current_range_meters":15200,"station_id":"ce4bhn92rcd13ifvqgrg","pricing_plan_id":"cebpf4jnsgd1na2vs0mg"},{"bike_id":"cf166d12-9f02-46ba-8d84-f5f253c3bd25","system_id":"levelo_inurba_marseille","lat":43.326379,"lon":5.410482,"is_reserved":false,"is_disabled":false,"rental_uris":{"android":"levelo://app?vid=cf166d12-9f02-46ba-8d84-f5f253c3bd25","ios":"levelo://app?vid=cf166d12-9f02-46ba-8d84-f5f253c3bd25"},"vehicle_type_id":"4","last_reported":1758521817,"current_range_meters":14800,"station_id":"ce4bhpp2rcd13ifvqhgg","pricing_plan_id":"cebpf4jnsgd1na2vs0mg"},{"bike_id":"f19dfb17-2376-43e9-8258-57b17b96e508","system_id":"levelo_inurba_marseille","lat":43.217428,"lon":5.346063,"is_reserved":false,"is_disabled":false,"rental_uris":{"android":"levelo://app?vid=f19dfb17-2376-43e9-8258-57b17b96e508","ios":"levelo://app?vid=f19dfb17-2376-43e9-8258-57b17b96e508"},"vehicle_type_id":"4","last_reported":1758521817,"current_range_meters":15200,"station_id":"st_cvj6r9ubvosntc0bgbag","pricing_plan_id":"cebpf4jnsgd1na2vs0mg"},{"bike_id":"d6a0a318-6873-4643-a43f-1b28ea3f0c55","system_id":"levelo_inurba_marseille","lat":43.31126,"lon":5.3779,"is_reserved":false,"is_disabled":false,"rental_uris":{"android":"levelo://app?vid=d6a0a318-6873-4643-a43f-1b28ea3f0c55","ios":"levelo://app?vid=d6a0a318-6873-4643-a43f-1b28ea3f0c55"},"vehicle_type_id":"4","last_reported":1758521817,"current_range_meters":15200,"station_id":"ce4bgt92rcd13ifvqcg0","pricing_plan_id":"cebpf4jnsgd1na2vs0mg"},{"bike_id":"59d0b603-6832-437f-8633-eeb99e9c4c46","system_id":"levelo_inurba_marseille","lat":43.29727,"lon":5.37693,"is_reserved":false,"is_disabled":false,"rental_uris":{"android":"levelo://app?vid=59d0b603-6832-437f-8633-eeb99e9c4c46","ios":"levelo://app?vid=59d0b603-6832-437f-8633-eeb99e9c4c46"},"vehicle_type_id":"4","last_reported":1758521817,"current_range_meters":15200,"station_id":"ce4bgkh2rcd13ifvqbl0","pricing_plan_id":"cebpf4jnsgd1na2vs0mg"},{"bike_id":"4c45dcf0-0375-4adf-8dd3-12d937c0344d","system_id":"levelo_inurba_marseille","lat":43.30873,"lon":5.37203,"is_reserved":false,"is_disabled":true,"rental_uris":{"android":"levelo://app?vid=4c45dcf0-0375-4adf-8dd3-12d937c0344d","ios":"levelo://app?vid=4c45dcf0-0375-4adf-8dd3-12d937c0344d"},"vehicle_type_id":"4","last_reported":1758521817,"current_range_meters":16000,"station_id":"ce4bguh2rcd13ifvqckg","pricing_plan_id":"cebpf4jnsgd1na2vs0mg"},{"bike_id":"89d932a4-f4b4-4493-8569-31d5f36c94e4","system_id":"levelo_inurba_marseille","lat":43.3033,"lon":5.39214,"is_reserved":false,"is_disabled":false,"rental_uris":{"android":"levelo://app?vid=89d932a4-f4b4-4493-8569-31d5f36c94e4","ios":"levelo://app?vid=89d932a4-f4b4-4493-8569-31d5f36c94e4"},"vehicle_type_id":"4","last_reported":1758521817,"current_range_meters":15200,"station_id":"ce4bgkh2rcd13ifvqbk0","pricing_plan_id":"cebpf4jnsgd1na2vs0mg"},{"bike_id":"5012c91b-a53c-4c5f-901c-26f9fc9d8566","system_id":"levelo_inurba_marseille","lat":43.3111,"lon":5.37771,"is_reserved":false,"is_disabled":false,"rental_uris":{"android":"levelo://app?vid=5012c91b-a53c-4c5f-901c-26f9fc9d8566","ios":"levelo://app?vid=5012c91b-a53c-4c5f-901c-26f9fc9d8566"},"vehicle_type_id":"4","last_reported":1758521817,"current_range_meters":16000,"station_id":"ce4bgt92rcd13ifvqcg0","pricing_plan_id":"cebpf4jnsgd1na2vs0mg"},{"bike_id":"2781df14-3956-4f54-a09d-7a60337bbf4a","system_id":"levelo_inurba_marseille","lat":43.26557,"lon":5.37303,"is_reserved":false,"is_disabled":false,"rental_uris":{"android":"levelo://app?vid=2781df14-3956-4f54-a09d-7a60337bbf4a","ios":"levelo://app?vid=2781df14-3956-4f54-a09d-7a60337bbf4a"},"vehicle_type_id":"4","last_reported":1758521817,"current_range_meters":16000,"station_id":"ce4bhg12rcd13ifvqf70","pricing_plan_id":"cebpf4jnsgd1na2vs0mg"},{"bike_id":"94d430e6-52b3-4d21-80c9-c6dd4519a8fb","system_id":"levelo_inurba_marseille","lat":43.3177,"lon":5.38326,"is_reserved":false,"is_disabled":false,"rental_uris":{"android":"levelo://app?vid=94d430e6-52b3-4d21-80c9-c6dd4519a8fb","ios":"levelo://app?vid=94d430e6-52b3-4d21-80c9-c6dd4519a8fb"},"vehicle_type_id":"4","last_reported":1758521817,"current_range_meters":16000,"station_id":"","pricing_plan_id":"cebpf4jnsgd1na2vs0mg"},{"bike_id":"b339ab2c-7f4e-4f78-b77b-6800a39b2b65","system_id":"levelo_inurba_marseille","lat":43.29035,"lon":5.37552,"is_reserved":false,"is_disabled":true,"rental_uris":{"android":"levelo://app?vid=b339ab2c-7f4e-4f78-b77b-6800a39b2b65","ios":"levelo://app?vid=b339ab2c-7f4e-4f78-b77b-6800a39b2b65"},"vehicle_type_id":"4","last_reported":1758521817,"current_range_meters":16000,"station_id":"ce4bh692rcd13ifvqe90","pricing_plan_id":"cebpf4jnsgd1na2vs0mg"},{"bike_id":"56295902-9704-4494-9aa8-3336f3bcbe53","system_id":"levelo_inurba_marseille","lat":43.27498,"lon":5.4245,"is_reserved":false,"is_disabled":false,"rental_uris":{"android":"levelo://app?vid=56295902-9704-4494-9aa8-3336f3bcbe53","ios":"levelo://app?vid=56295902-9704-4494-9aa8-3336f3bcbe53"},"vehicle_type_id":"4","last_reported":1758521817,"current_range_meters":16000,"station_id":"ce4bhn92rcd13ifvqgrg","pricing_plan_id":"cebpf4jnsgd1na2vs0mg"},{"bike_id":"b2be2404-53eb-4f74-9829-8104df3de106","system_id":"levelo_inurba_marseille","lat":43.3358,"lon":5.35367,"is_reserved":false,"is_disabled":false,"rental_uris":{"android":"levelo://app?vid=b2be2404-53eb-4f74-9829-8104df3de106","ios":"levelo://app?vid=b2be2404-53eb-4f74-9829-8104df3de106"},"vehicle_type_id":"4","last_reported":1758521817,"current_range_meters":16000,"station_id":"","pricing_plan_id":"cebpf4jnsgd1na2vs0mg"},{"bike_id":"5f842832-4ff8-49ff-8ba3-51ff241068df","system_id":"levelo_inurba_marseille","lat":43.27216,"lon":5.39182,"is_reserved":false,"is_disabled":false,"rental_uris":{"android":"levelo://app?vid=5f842832-4ff8-49ff-8ba3-51ff241068df","ios":"levelo://app?vid=5f842832-4ff8-49ff-8ba3-51ff241068df"},"vehicle_type_id":"4","last_reported":1758521817,"current_range_meters":16400,"station_id":"ce4bhhp2rcd13ifvqfm0","pricing_plan_id":"cebpf4jnsgd1na2vs0mg"},{"bike_id":"2bb4ed59-0f02-40d8-bef0-23b4193d06ba","system_id":"levelo_inurba_marseille","lat":43.30159,"lon":5.38102,"is_reserved":false,"is_disabled":false,"rental_uris":{"android":"levelo://app?vid=2bb4ed59-0f02-40d8-bef0-23b4193d06ba","ios":"levelo://app?vid=2bb4ed59-0f02-40d8-bef0-23b4193d06ba"},"vehicle_type_id":"4","last_reported":1758521817,"current_range_meters":16400,"station_id":"ce4bgjp2rcd13ifvqbh0","pricing_plan_id":"cebpf4jnsgd1na2vs0mg"},{"bike_id":"d48e0857-d97b-48e2-b595-2fd7eee474d8","system_id":"levelo_inurba_marseille","lat":43.316751,"lon":5.404799,"is_reserved":false,"is_disabled":false,"rental_uris":{"android":"levelo://app?vid=d48e0857-d97b-48e2-b595-2fd7eee474d8","ios":"levelo://app?vid=d48e0857-d97b-48e2-b595-2fd7eee474d8"},"vehicle_type_id":"4","last_reported":1758521817,"current_range_meters":16400,"station_id":"ce4bh012rcd13ifvqd00","pricing_plan_id":"cebpf4jnsgd1na2vs0mg"},{"bike_id":"ef75d15d-c28a-4fe7-853a-ed887e41d629","system_id":"levelo_inurba_marseille","lat":43.21744,"lon":5.346,"is_reserved":false,"is_disabled":true,"rental_uris":{"android":"levelo://app?vid=ef75d15d-c28a-4fe7-853a-ed887e41d629","ios":"levelo://app?vid=ef75d15d-c28a-4fe7-853a-ed887e41d629"},"vehicle_type_id":"4","last_reported":1758521817,"current_range_meters":16400,"station_id":"st_cvj6r9ubvosntc0bgbag","pricing_plan_id":"cebpf4jnsgd1na2vs0mg"},{"bike_id":"d4352419-6c3c-4908-87c5-5bb9ef3113c8","system_id":"levelo_inurba_marseille","lat":43.2574,"lon":5.4108,"is_reserved":false,"is_disabled":false,"rental_uris":{"android":"levelo://app?vid=d4352419-6c3c-4908-87c5-5bb9ef3113c8","ios":"levelo://app?vid=d4352419-6c3c-4908-87c5-5bb9ef3113c8"},"vehicle_type_id":"4","last_reported":1758521817,"current_range_meters":16400,"station_id":"ce4bhkp2rcd13ifvqgd0","pricing_plan_id":"cebpf4jnsgd1na2vs0mg"},{"bike_id":"15609c4e-f589-422c-9a62-c8d2d4eb92fd","system_id":"levelo_inurba_marseille","lat":43.31049,"lon":5.40113,"is_reserved":false,"is_disabled":false,"rental_uris":{"android":"levelo://app?vid=15609c4e-f589-422c-9a62-c8d2d4eb92fd","ios":"levelo://app?vid=15609c4e-f589-422c-9a62-c8d2d4eb92fd"},"vehicle_type_id":"4","last_reported":1758521817,"current_range_meters":16400,"station_id":"","pricing_plan_id":"cebpf4jnsgd1na2vs0mg"},{"bike_id":"4db55b8c-211f-4a3e-9da9-d7249e4703aa","system_id":"levelo_inurba_marseille","lat":43.28505,"lon":5.37966,"is_reserved":false,"is_disabled":false,"rental_uris":{"android":"levelo://app?vid=4db55b8c-211f-4a3e-9da9-d7249e4703aa","ios":"levelo://app?vid=4db55b8c-211f-4a3e-9da9-d7249e4703aa"},"vehicle_type_id":"4","last_reported":1758521817,"current_range_meters":16400,"station_id":"","pricing_plan_id":"cebpf4jnsgd1na2vs0mg"},{"bike_id":"fc71aad4-0991-4e37-88fe-ccb747a1b9b9","system_id":"levelo_inurba_marseille","lat":43.3149,"lon":5.37294,"is_reserved":false,"is_disabled":false,"rental_uris":{"android":"levelo://app?vid=fc71aad4-0991-4e37-88fe-ccb747a1b9b9","ios":"levelo://app?vid=fc71aad4-0991-4e37-88fe-ccb747a1b9b9"},"vehicle_type_id":"4","last_reported":1758521817,"current_range_meters":16400,"station_id":"ce4bgt12rcd13ifvqcd0","pricing_plan_id":"cebpf4jnsgd1na2vs0mg"},{"bike_id":"edacd4c0-c437-4b07-88fa-85b3ecf300cb","system_id":"levelo_inurba_marseille","lat":43.26563,"lon":5.40335,"is_reserved":false,"is_disabled":false,"rental_uris":{"android":"levelo://app?vid=edacd4c0-c437-4b07-88fa-85b3ecf300cb","ios":"levelo://app?vid=edacd4c0-c437-4b07-88fa-85b3ecf300cb"},"vehicle_type_id":"4","last_reported":1758521817,"current_range_meters":16400,"station_id":"ce4bhmp2rcd13ifvqgng","pricing_plan_id":"cebpf4jnsgd1na2vs0mg"},{"bike_id":"9649c7e2-d949-423f-b3a0-1f8c18bd5e38","system_id":"levelo_inurba_marseille","lat":43.26193,"lon":5.37449,"is_reserved":false,"is_disabled":false,"rental_uris":{"android":"levelo://app?vid=9649c7e2-d949-423f-b3a0-1f8c18bd5e38","ios":"levelo://app?vid=9649c7e2-d949-423f-b3a0-1f8c18bd5e38"},"vehicle_type_id":"4","last_reported":1758521817,"current_range_meters":16400,"station_id":"ce4bhgp2rcd13ifvqfc0","pricing_plan_id":"cebpf4jnsgd1na2vs0mg"},{"bike_id":"df610546-137b-404e-ba22-98446d8c5a3f","system_id":"levelo_inurba_marseille","lat":43.29286,"lon":5.3718,"is_reserved":false,"is_disabled":false,"rental_uris":{"android":"levelo://app?vid=df610546-137b-404e-ba22-98446d8c5a3f","ios":"levelo://app?vid=df610546-137b-404e-ba22-98446d8c5a3f"},"vehicle_type_id":"4","last_reported":1758521817,"current_range_meters":16400,"station_id":"ce4bgh92rcd13ifvqb40","pricing_plan_id":"cebpf4jnsgd1na2vs0mg"},{"bike_id":"8521565e-bfad-404f-83f1-b8e5ea20b12e","system_id":"levelo_inurba_marseille","lat":43.3302,"lon":5.39037,"is_reserved":false,"is_disabled":false,"rental_uris":{"android":"levelo://app?vid=8521565e-bfad-404f-83f1-b8e5ea20b12e","ios":"levelo://app?vid=8521565e-bfad-404f-83f1-b8e5ea20b12e"},"vehicle_type_id":"4","last_reported":1758521817,"current_range_meters":16800,"station_id":"ce4bhr92rcd13ifvqhrg","pricing_plan_id":"cebpf4jnsgd1na2vs0mg"},{"bike_id":"5dd1ca5d-988e-458c-98c9-c4d77546454e","system_id":"levelo_inurba_marseille","lat":43.2814,"lon":5.42651,"is_reserved":false,"is_disabled":false,"rental_uris":{"android":"levelo://app?vid=5dd1ca5d-988e-458c-98c9-c4d77546454e","ios":"levelo://app?vid=5dd1ca5d-988e-458c-98c9-c4d77546454e"},"vehicle_type_id":"4","last_reported":1758521817,"current_range_meters":16800,"station_id":"ce4bhnh2rcd13ifvqgug","pricing_plan_id":"cebpf4jnsgd1na2vs0mg"},{"bike_id":"d18dbcad-30a9-4924-ac70-4a933207667d","system_id":"levelo_inurba_marseille","lat":43.30321,"lon":5.40458,"is_reserved":false,"is_disabled":true,"rental_uris":{"android":"levelo://app?vid=d18dbcad-30a9-4924-ac70-4a933207667d","ios":"levelo://app?vid=d18dbcad-30a9-4924-ac70-4a933207667d"},"vehicle_type_id":"4","last_reported":1758521817,"current_range_meters":16800,"station_id":"ce4bh012rcd13ifvqd10","pricing_plan_id":"cebpf4jnsgd1na2vs0mg"},{"bike_id":"2c07624a-d6f4-4392-823c-f8b11b0313ce","system_id":"levelo_inurba_marseille","lat":43.31136,"lon":5.38442,"is_reserved":false,"is_disabled":false,"rental_uris":{"android":"levelo://app?vid=2c07624a-d6f4-4392-823c-f8b11b0313ce","ios":"levelo://app?vid=2c07624a-d6f4-4392-823c-f8b11b0313ce"},"vehicle_type_id":"4","last_reported":1758521817,"current_range_meters":16800,"station_id":"","pricing_plan_id":"cebpf4jnsgd1na2vs0mg"},{"bike_id":"34072093-f9b6-4017-998e-95b181d82c91","system_id":"levelo_inurba_marseille","lat":43.2946,"lon":5.38815,"is_reserved":false,"is_disabled":false,"rental_uris":{"android":"levelo://app?vid=34072093-f9b6-4017-998e-95b181d82c91","ios":"levelo://app?vid=34072093-f9b6-4017-998e-95b181d82c91"},"vehicle_type_id":"4","last_reported":1758521817,"current_range_meters":16800,"station_id":"","pricing_plan_id":"cebpf4jnsgd1na2vs0mg"},{"bike_id":"abc02627-f0ef-43d1-9183-1385e7d4f633","system_id":"levelo_inurba_marseille","lat":43.26691,"lon":5.38286,"is_reserved":false,"is_disabled":false,"rental_uris":{"android":"levelo://app?vid=abc02627-f0ef-43d1-9183-1385e7d4f633","ios":"levelo://app?vid=abc02627-f0ef-43d1-9183-1385e7d4f633"},"vehicle_type_id":"4","last_reported":1758521817,"current_range_meters":16800,"station_id":"ce4bhg92rcd13ifvqf90","pricing_plan_id":"cebpf4jnsgd1na2vs0mg"},{"bike_id":"206ad1e9-dd50-474c-9d09-9ff38fe1e350","system_id":"levelo_inurba_marseille","lat":43.24166,"lon":5.36394,"is_reserved":false,"is_disabled":false,"rental_uris":{"android":"levelo://app?vid=206ad1e9-dd50-474c-9d09-9ff38fe1e350","ios":"levelo://app?vid=206ad1e9-dd50-474c-9d09-9ff38fe1e350"},"vehicle_type_id":"4","last_reported":1758521817,"current_range_meters":17200,"station_id":"cpo36qri1sfpv3e86is0","pricing_plan_id":"cebpf4jnsgd1na2vs0mg"},{"bike_id":"f2251ea8-5256-4a84-aeaa-47ebf978e4f8","system_id":"levelo_inurba_marseille","lat":43.274903,"lon":5.424555,"is_reserved":false,"is_disabled":false,"rental_uris":{"android":"levelo://app?vid=f2251ea8-5256-4a84-aeaa-47ebf978e4f8","ios":"levelo://app?vid=f2251ea8-5256-4a84-aeaa-47ebf978e4f8"},"vehicle_type_id":"4","last_reported":1758521817,"current_range_meters":17200,"station_id":"ce4bhn92rcd13ifvqgrg","pricing_plan_id":"cebpf4jnsgd1na2vs0mg"},{"bike_id":"c1e05a61-d563-40d7-88ed-812d8fd549da","system_id":"levelo_inurba_marseille","lat":43.21192,"lon":5.35083,"is_reserved":false,"is_disabled":true,"rental_uris":{"android":"levelo://app?vid=c1e05a61-d563-40d7-88ed-812d8fd549da","ios":"levelo://app?vid=c1e05a61-d563-40d7-88ed-812d8fd549da"},"vehicle_type_id":"4","last_reported":1758521817,"current_range_meters":17200,"station_id":"st_cvj6sg6p6f1abm77japg","pricing_plan_id":"cebpf4jnsgd1na2vs0mg"},{"bike_id":"6b0e78fb-e15f-41b1-a191-b4b5ca219d2a","system_id":"levelo_inurba_marseille","lat":43.257308,"lon":5.410921,"is_reserved":false,"is_disabled":false,"rental_uris":{"android":"levelo://app?vid=6b0e78fb-e15f-41b1-a191-b4b5ca219d2a","ios":"levelo://app?vid=6b0e78fb-e15f-41b1-a191-b4b5ca219d2a"},"vehicle_type_id":"4","last_reported":1758521817,"current_range_meters":17200,"station_id":"ce4bhkp2rcd13ifvqgd0","pricing_plan_id":"cebpf4jnsgd1na2vs0mg"},{"bike_id":"0b53635f-f17e-45ad-81c1-5680b91c3102","system_id":"levelo_inurba_marseille","lat":43.32481,"lon":5.36564,"is_reserved":false,"is_disabled":false,"rental_uris":{"android":"levelo://app?vid=0b53635f-f17e-45ad-81c1-5680b91c3102","ios":"levelo://app?vid=0b53635f-f17e-45ad-81c1-5680b91c3102"},"vehicle_type_id":"4","last_reported":1758521817,"current_range_meters":17200,"station_id":"ce4bhs12rcd13ifvqhvg","pricing_plan_id":"cebpf4jnsgd1na2vs0mg"},{"bike_id":"4519ded0-f3b9-42bd-af35-e69456d100e8","system_id":"levelo_inurba_marseille","lat":43.29281,"lon":5.38383,"is_reserved":false,"is_disabled":false,"rental_uris":{"android":"levelo://app?vid=4519ded0-f3b9-42bd-af35-e69456d100e8","ios":"levelo://app?vid=4519ded0-f3b9-42bd-af35-e69456d100e8"},"vehicle_type_id":"4","last_reported":1758521817,"current_range_meters":17200,"station_id":"ce4bh692rcd13ifvqea0","pricing_plan_id":"cebpf4jnsgd1na2vs0mg"},{"bike_id":"2c77148c-45e4-4fcc-9a36-42eea55f56a0","system_id":"levelo_inurba_marseille","lat":43.2658,"lon":5.39013,"is_reserved":false,"is_disabled":false,"rental_uris":{"android":"levelo://app?vid=2c77148c-45e4-4fcc-9a36-42eea55f56a0","ios":"levelo://app?vid=2c77148c-45e4-4fcc-9a36-42eea55f56a0"},"vehicle_type_id":"4","last_reported":1758521817,"current_range_meters":17600,"station_id":"ce4bhe12rcd13ifvqf30","pricing_plan_id":"cebpf4jnsgd1na2vs0mg"},{"bike_id":"3f1aed08-d95b-4adc-a4c7-8b8a9f732818","system_id":"levelo_inurba_marseille","lat":43.25726,"lon":5.41107,"is_reserved":false,"is_disabled":false,"rental_uris":{"android":"levelo://app?vid=3f1aed08-d95b-4adc-a4c7-8b8a9f732818","ios":"levelo://app?vid=3f1aed08-d95b-4adc-a4c7-8b8a9f732818"},"vehicle_type_id":"4","last_reported":1758521817,"current_range_meters":17600,"station_id":"ce4bhkp2rcd13ifvqgd0","pricing_plan_id":"cebpf4jnsgd1na2vs0mg"},{"bike_id":"0577799e-c89c-4f73-87d8-4b1732f1e617","system_id":"levelo_inurba_marseille","lat":43.27502,"lon":5.42447,"is_reserved":false,"is_disabled":false,"rental_uris":{"android":"levelo://app?vid=0577799e-c89c-4f73-87d8-4b1732f1e617","ios":"levelo://app?vid=0577799e-c89c-4f73-87d8-4b1732f1e617"},"vehicle_type_id":"4","last_reported":1758521817,"current_range_meters":17600,"station_id":"ce4bhn92rcd13ifvqgrg","pricing_plan_id":"cebpf4jnsgd1na2vs0mg"},{"bike_id":"af56e422-721b-4da7-a4e0-dc7d2ccf8076","system_id":"levelo_inurba_marseille","lat":43.273735,"lon":5.362451,"is_reserved":false,"is_disabled":false,"rental_uris":{"android":"levelo://app?vid=af56e422-721b-4da7-a4e0-dc7d2ccf8076","ios":"levelo://app?vid=af56e422-721b-4da7-a4e0-dc7d2ccf8076"},"vehicle_type_id":"4","last_reported":1758521817,"current_range_meters":18000,"station_id":"ce4bhbh2rcd13ifvqeo0","pricing_plan_id":"cebpf4jnsgd1na2vs0mg"},{"bike_id":"ecf16511-1e53-4b94-ba3b-7ca6c5730723","system_id":"levelo_inurba_marseille","lat":43.317008,"lon":5.404331,"is_reserved":false,"is_disabled":false,"rental_uris":{"android":"levelo://app?vid=ecf16511-1e53-4b94-ba3b-7ca6c5730723","ios":"levelo://app?vid=ecf16511-1e53-4b94-ba3b-7ca6c5730723"},"vehicle_type_id":"4","last_reported":1758521817,"current_range_meters":18000,"station_id":"ce4bh012rcd13ifvqd00","pricing_plan_id":"cebpf4jnsgd1na2vs0mg"},{"bike_id":"00097665-a835-434a-87df-bc4092c235bd","system_id":"levelo_inurba_marseille","lat":43.30559,"lon":5.36566,"is_reserved":false,"is_disabled":false,"rental_uris":{"android":"levelo://app?vid=00097665-a835-434a-87df-bc4092c235bd","ios":"levelo://app?vid=00097665-a835-434a-87df-bc4092c235bd"},"vehicle_type_id":"4","last_reported":1758521817,"current_range_meters":18000,"station_id":"ce4bgs12rcd13ifvqcag","pricing_plan_id":"cebpf4jnsgd1na2vs0mg"},{"bike_id":"44dcdeec-74c6-4645-82dd-40ab72cbd7cb","system_id":"levelo_inurba_marseille","lat":43.28693,"lon":5.40007,"is_reserved":false,"is_disabled":false,"rental_uris":{"android":"levelo://app?vid=44dcdeec-74c6-4645-82dd-40ab72cbd7cb","ios":"levelo://app?vid=44dcdeec-74c6-4645-82dd-40ab72cbd7cb"},"vehicle_type_id":"4","last_reported":1758521817,"current_range_meters":18000,"station_id":"ce4bho92rcd13ifvqh3g","pricing_plan_id":"cebpf4jnsgd1na2vs0mg"},{"bike_id":"8aa1f4a5-ce10-4dc8-ad09-652566773495","system_id":"levelo_inurba_marseille","lat":43.31291,"lon":5.36866,"is_reserved":false,"is_disabled":true,"rental_uris":{"android":"levelo://app?vid=8aa1f4a5-ce10-4dc8-ad09-652566773495","ios":"levelo://app?vid=8aa1f4a5-ce10-4dc8-ad09-652566773495"},"vehicle_type_id":"4","last_reported":1758521817,"current_range_meters":18000,"station_id":"","pricing_plan_id":"cebpf4jnsgd1na2vs0mg"},{"bike_id":"7fe2e415-de98-40eb-a9fb-e3d19f589608","system_id":"levelo_inurba_marseille","lat":43.23151,"lon":5.43721,"is_reserved":false,"is_disabled":false,"rental_uris":{"android":"levelo://app?vid=7fe2e415-de98-40eb-a9fb-e3d19f589608","ios":"levelo://app?vid=7fe2e415-de98-40eb-a9fb-e3d19f589608"},"vehicle_type_id":"4","last_reported":1758521817,"current_range_meters":18000,"station_id":"ce4bhmp2rcd13ifvqgog","pricing_plan_id":"cebpf4jnsgd1na2vs0mg"},{"bike_id":"305d0e9e-f2a2-4e18-ad02-1d4155ce5863","system_id":"levelo_inurba_marseille","lat":43.27946,"lon":5.4105,"is_reserved":false,"is_disabled":false,"rental_uris":{"android":"levelo://app?vid=305d0e9e-f2a2-4e18-ad02-1d4155ce5863","ios":"levelo://app?vid=305d0e9e-f2a2-4e18-ad02-1d4155ce5863"},"vehicle_type_id":"4","last_reported":1758521817,"current_range_meters":18000,"station_id":"ce4bhnp2rcd13ifvqh0g","pricing_plan_id":"cebpf4jnsgd1na2vs0mg"},{"bike_id":"88af5082-6d78-468c-9de6-74d4fe142d55","system_id":"levelo_inurba_marseille","lat":43.24078,"lon":5.37747,"is_reserved":false,"is_disabled":false,"rental_uris":{"android":"levelo://app?vid=88af5082-6d78-468c-9de6-74d4fe142d55","ios":"levelo://app?vid=88af5082-6d78-468c-9de6-74d4fe142d55"},"vehicle_type_id":"4","last_reported":1758521817,"current_range_meters":18800,"station_id":"ce4bhnp2rcd13ifvqgvg","pricing_plan_id":"cebpf4jnsgd1na2vs0mg"},{"bike_id":"a920a6d7-13f2-4c64-8059-f751cb70f6c5","system_id":"levelo_inurba_marseille","lat":43.28425,"lon":5.35,"is_reserved":false,"is_disabled":false,"rental_uris":{"android":"levelo://app?vid=a920a6d7-13f2-4c64-8059-f751cb70f6c5","ios":"levelo://app?vid=a920a6d7-13f2-4c64-8059-f751cb70f6c5"},"vehicle_type_id":"4","last_reported":1758521817,"current_range_meters":18800,"station_id":"ce4bhbh2rcd13ifvqepg","pricing_plan_id":"cebpf4jnsgd1na2vs0mg"},{"bike_id":"df1dfc6f-ed41-43d8-aa4d-f1e91b76d7fe","system_id":"levelo_inurba_marseille","lat":43.250179,"lon":5.389171,"is_reserved":false,"is_disabled":false,"rental_uris":{"android":"levelo://app?vid=df1dfc6f-ed41-43d8-aa4d-f1e91b76d7fe","ios":"levelo://app?vid=df1dfc6f-ed41-43d8-aa4d-f1e91b76d7fe"},"vehicle_type_id":"4","last_reported":1758521817,"current_range_meters":18800,"station_id":"ce4bhgp2rcd13ifvqfd0","pricing_plan_id":"cebpf4jnsgd1na2vs0mg"},{"bike_id":"0b9e9aff-732c-4cb0-b462-c38a79e02fad","system_id":"levelo_inurba_marseille","lat":43.31745,"lon":5.42382,"is_reserved":false,"is_disabled":false,"rental_uris":{"android":"levelo://app?vid=0b9e9aff-732c-4cb0-b462-c38a79e02fad","ios":"levelo://app?vid=0b9e9aff-732c-4cb0-b462-c38a79e02fad"},"vehicle_type_id":"4","last_reported":1758521817,"current_range_meters":18800,"station_id":"ce4bhp92rcd13ifvqhbg","pricing_plan_id":"cebpf4jnsgd1na2vs0mg"},{"bike_id":"acf120b5-1112-4005-868b-19e4ac3e5ede","system_id":"levelo_inurba_marseille","lat":43.28186,"lon":5.39041,"is_reserved":false,"is_disabled":false,"rental_uris":{"android":"levelo://app?vid=acf120b5-1112-4005-868b-19e4ac3e5ede","ios":"levelo://app?vid=acf120b5-1112-4005-868b-19e4ac3e5ede"},"vehicle_type_id":"4","last_reported":1758521817,"current_range_meters":18800,"station_id":"","pricing_plan_id":"cebpf4jnsgd1na2vs0mg"},{"bike_id":"95e9d25d-8335-4a80-8295-f6922ecdb032","system_id":"levelo_inurba_marseille","lat":43.2319,"lon":5.39975,"is_reserved":false,"is_disabled":false,"rental_uris":{"android":"levelo://app?vid=95e9d25d-8335-4a80-8295-f6922ecdb032","ios":"levelo://app?vid=95e9d25d-8335-4a80-8295-f6922ecdb032"},"vehicle_type_id":"4","last_reported":1758521817,"current_range_meters":18800,"station_id":"ce4bhn12rcd13ifvqgqg","pricing_plan_id":"cebpf4jnsgd1na2vs0mg"},{"bike_id":"b969bb71-9f79-4314-9f54-f66bfad0a82d","system_id":"levelo_inurba_marseille","lat":43.26567,"lon":5.39008,"is_reserved":false,"is_disabled":false,"rental_uris":{"android":"levelo://app?vid=b969bb71-9f79-4314-9f54-f66bfad0a82d","ios":"levelo://app?vid=b969bb71-9f79-4314-9f54-f66bfad0a82d"},"vehicle_type_id":"4","last_reported":1758521817,"current_range_meters":18800,"station_id":"ce4bhe12rcd13ifvqf30","pricing_plan_id":"cebpf4jnsgd1na2vs0mg"},{"bike_id":"2b8a7b75-2ac8-48a2-8531-7901e18dd054","system_id":"levelo_inurba_marseille","lat":43.211906,"lon":5.350694,"is_reserved":false,"is_disabled":false,"rental_uris":{"android":"levelo://app?vid=2b8a7b75-2ac8-48a2-8531-7901e18dd054","ios":"levelo://app?vid=2b8a7b75-2ac8-48a2-8531-7901e18dd054"},"vehicle_type_id":"4","last_reported":1758521817,"current_range_meters":19200,"station_id":"st_cvj6sg6p6f1abm77japg","pricing_plan_id":"cebpf4jnsgd1na2vs0mg"},{"bike_id":"46465b5a-3325-4ff9-8252-fb2f7e9297f5","system_id":"levelo_inurba_marseille","lat":43.31376,"lon":5.36732,"is_reserved":false,"is_disabled":false,"rental_uris":{"android":"levelo://app?vid=46465b5a-3325-4ff9-8252-fb2f7e9297f5","ios":"levelo://app?vid=46465b5a-3325-4ff9-8252-fb2f7e9297f5"},"vehicle_type_id":"4","last_reported":1758521817,"current_range_meters":18800,"station_id":"ce4bgr92rcd13ifvqc6g","pricing_plan_id":"cebpf4jnsgd1na2vs0mg"},{"bike_id":"218652f5-29ed-4bb1-a095-ce2f43ab1fd7","system_id":"levelo_inurba_marseille","lat":43.32122,"lon":5.38849,"is_reserved":false,"is_disabled":false,"rental_uris":{"android":"levelo://app?vid=218652f5-29ed-4bb1-a095-ce2f43ab1fd7","ios":"levelo://app?vid=218652f5-29ed-4bb1-a095-ce2f43ab1fd7"},"vehicle_type_id":"4","last_reported":1758521817,"current_range_meters":19200,"station_id":"","pricing_plan_id":"cebpf4jnsgd1na2vs0mg"},{"bike_id":"de7c8d7b-b3ee-42ce-963b-1856665793bf","system_id":"levelo_inurba_marseille","lat":43.29549,"lon":5.3796,"is_reserved":false,"is_disabled":false,"rental_uris":{"android":"levelo://app?vid=de7c8d7b-b3ee-42ce-963b-1856665793bf","ios":"levelo://app?vid=de7c8d7b-b3ee-42ce-963b-1856665793bf"},"vehicle_type_id":"4","last_reported":1758521817,"current_range_meters":19200,"station_id":"","pricing_plan_id":"cebpf4jnsgd1na2vs0mg"},{"bike_id":"22771988-79d9-41e6-b07f-08cbedd96986","system_id":"levelo_inurba_marseille","lat":43.29911,"lon":5.37485,"is_reserved":false,"is_disabled":false,"rental_uris":{"android":"levelo://app?vid=22771988-79d9-41e6-b07f-08cbedd96986","ios":"levelo://app?vid=22771988-79d9-41e6-b07f-08cbedd96986"},"vehicle_type_id":"4","last_reported":1758521817,"current_range_meters":18800,"station_id":"ce4bgjh2rcd13ifvqbg0","pricing_plan_id":"cebpf4jnsgd1na2vs0mg"},{"bike_id":"7b66edda-d833-4590-91df-a31f85de0bf0","system_id":"levelo_inurba_marseille","lat":43.26227,"lon":5.40447,"is_reserved":false,"is_disabled":false,"rental_uris":{"android":"levelo://app?vid=7b66edda-d833-4590-91df-a31f85de0bf0","ios":"levelo://app?vid=7b66edda-d833-4590-91df-a31f85de0bf0"},"vehicle_type_id":"4","last_reported":1758521817,"current_range_meters":19600,"station_id":"ce4bhmh2rcd13ifvqgmg","pricing_plan_id":"cebpf4jnsgd1na2vs0mg"},{"bike_id":"3e4d38b5-b42a-42e2-874f-3c710e1ace12","system_id":"levelo_inurba_marseille","lat":43.24713,"lon":5.38065,"is_reserved":false,"is_disabled":false,"rental_uris":{"android":"levelo://app?vid=3e4d38b5-b42a-42e2-874f-3c710e1ace12","ios":"levelo://app?vid=3e4d38b5-b42a-42e2-874f-3c710e1ace12"},"vehicle_type_id":"4","last_reported":1758521817,"current_range_meters":19600,"station_id":"ce4bhih2rcd13ifvqfr0","pricing_plan_id":"cebpf4jnsgd1na2vs0mg"},{"bike_id":"906db1ac-7c78-4966-a686-383266a4852a","system_id":"levelo_inurba_marseille","lat":43.31995,"lon":5.38149,"is_reserved":false,"is_disabled":false,"rental_uris":{"android":"levelo://app?vid=906db1ac-7c78-4966-a686-383266a4852a","ios":"levelo://app?vid=906db1ac-7c78-4966-a686-383266a4852a"},"vehicle_type_id":"4","last_reported":1758521817,"current_range_meters":19600,"station_id":"ce4bhr12rcd13ifvqhpg","pricing_plan_id":"cebpf4jnsgd1na2vs0mg"},{"bike_id":"f2da0973-93a2-4288-b946-067612ded66b","system_id":"levelo_inurba_marseille","lat":43.29952,"lon":5.4132,"is_reserved":false,"is_disabled":false,"rental_uris":{"android":"levelo://app?vid=f2da0973-93a2-4288-b946-067612ded66b","ios":"levelo://app?vid=f2da0973-93a2-4288-b946-067612ded66b"},"vehicle_type_id":"4","last_reported":1758521817,"current_range_meters":19600,"station_id":"ce4bhp12rcd13ifvqh9g","pricing_plan_id":"cebpf4jnsgd1na2vs0mg"},{"bike_id":"3a2f0200-19f6-4563-8356-bbb5c698396a","system_id":"levelo_inurba_marseille","lat":43.21758,"lon":5.34628,"is_reserved":false,"is_disabled":false,"rental_uris":{"android":"levelo://app?vid=3a2f0200-19f6-4563-8356-bbb5c698396a","ios":"levelo://app?vid=3a2f0200-19f6-4563-8356-bbb5c698396a"},"vehicle_type_id":"4","last_reported":1758521817,"current_range_meters":19600,"station_id":"","pricing_plan_id":"cebpf4jnsgd1na2vs0mg"},{"bike_id":"7e08e92e-f38d-4bc6-a72c-de784749e416","system_id":"levelo_inurba_marseille","lat":43.24948,"lon":5.40486,"is_reserved":false,"is_disabled":false,"rental_uris":{"android":"levelo://app?vid=7e08e92e-f38d-4bc6-a72c-de784749e416","ios":"levelo://app?vid=7e08e92e-f38d-4bc6-a72c-de784749e416"},"vehicle_type_id":"4","last_reported":1758521817,"current_range_meters":19600,"station_id":"st_d2ngiaodas8pm72gd1h0","pricing_plan_id":"cebpf4jnsgd1na2vs0mg"},{"bike_id":"9ce501d9-2262-4451-8466-f354fba4d35b","system_id":"levelo_inurba_marseille","lat":43.30156,"lon":5.38085,"is_reserved":false,"is_disabled":false,"rental_uris":{"android":"levelo://app?vid=9ce501d9-2262-4451-8466-f354fba4d35b","ios":"levelo://app?vid=9ce501d9-2262-4451-8466-f354fba4d35b"},"vehicle_type_id":"4","last_reported":1758521817,"current_range_meters":19600,"station_id":"ce4bgjp2rcd13ifvqbh0","pricing_plan_id":"cebpf4jnsgd1na2vs0mg"},{"bike_id":"bd47cf90-dae1-450c-8905-8cc0fb67e0ca","system_id":"levelo_inurba_marseille","lat":43.27071,"lon":5.42282,"is_reserved":false,"is_disabled":false,"rental_uris":{"android":"levelo://app?vid=bd47cf90-dae1-450c-8905-8cc0fb67e0ca","ios":"levelo://app?vid=bd47cf90-dae1-450c-8905-8cc0fb67e0ca"},"vehicle_type_id":"4","last_reported":1758521817,"current_range_meters":19600,"station_id":"ce4bhk92rcd13ifvqgb0","pricing_plan_id":"cebpf4jnsgd1na2vs0mg"},{"bike_id":"a02d2af7-809e-4928-a124-6c4d5739a1c0","system_id":"levelo_inurba_marseille","lat":43.30877,"lon":5.37186,"is_reserved":false,"is_disabled":false,"rental_uris":{"android":"levelo://app?vid=a02d2af7-809e-4928-a124-6c4d5739a1c0","ios":"levelo://app?vid=a02d2af7-809e-4928-a124-6c4d5739a1c0"},"vehicle_type_id":"4","last_reported":1758521817,"current_range_meters":20000,"station_id":"ce4bguh2rcd13ifvqckg","pricing_plan_id":"cebpf4jnsgd1na2vs0mg"},{"bike_id":"a6ed3df5-bf59-4df0-979e-8504633ba036","system_id":"levelo_inurba_marseille","lat":43.2867,"lon":5.38661,"is_reserved":false,"is_disabled":false,"rental_uris":{"android":"levelo://app?vid=a6ed3df5-bf59-4df0-979e-8504633ba036","ios":"levelo://app?vid=a6ed3df5-bf59-4df0-979e-8504633ba036"},"vehicle_type_id":"4","last_reported":1758521817,"current_range_meters":20000,"station_id":"ce4bh492rcd13ifvqdug","pricing_plan_id":"cebpf4jnsgd1na2vs0mg"},{"bike_id":"d8b1b982-a963-4a2a-8d3e-c4a634d794da","system_id":"levelo_inurba_marseille","lat":43.28037,"lon":5.35397,"is_reserved":false,"is_disabled":false,"rental_uris":{"android":"levelo://app?vid=d8b1b982-a963-4a2a-8d3e-c4a634d794da","ios":"levelo://app?vid=d8b1b982-a963-4a2a-8d3e-c4a634d794da"},"vehicle_type_id":"4","last_reported":1758521817,"current_range_meters":20000,"station_id":"","pricing_plan_id":"cebpf4jnsgd1na2vs0mg"},{"bike_id":"46de1efc-884f-4c8a-a685-fa19d9a792ae","system_id":"levelo_inurba_marseille","lat":43.23149,"lon":5.4372,"is_reserved":false,"is_disabled":false,"rental_uris":{"android":"levelo://app?vid=46de1efc-884f-4c8a-a685-fa19d9a792ae","ios":"levelo://app?vid=46de1efc-884f-4c8a-a685-fa19d9a792ae"},"vehicle_type_id":"4","last_reported":1758521817,"current_range_meters":20000,"station_id":"ce4bhmp2rcd13ifvqgog","pricing_plan_id":"cebpf4jnsgd1na2vs0mg"},{"bike_id":"b96e61e4-b710-4f74-9b23-2c06031aa266","system_id":"levelo_inurba_marseille","lat":43.22562,"lon":5.41674,"is_reserved":false,"is_disabled":false,"rental_uris":{"android":"levelo://app?vid=b96e61e4-b710-4f74-9b23-2c06031aa266","ios":"levelo://app?vid=b96e61e4-b710-4f74-9b23-2c06031aa266"},"vehicle_type_id":"4","last_reported":1758521817,"current_range_meters":20000,"station_id":"st_d2o4gvlbi1j2169b742g","pricing_plan_id":"cebpf4jnsgd1na2vs0mg"},{"bike_id":"c26158b0-5004-4088-9798-c4b79c65c26d","system_id":"levelo_inurba_marseille","lat":43.3188,"lon":5.38639,"is_reserved":false,"is_disabled":false,"rental_uris":{"android":"levelo://app?vid=c26158b0-5004-4088-9798-c4b79c65c26d","ios":"levelo://app?vid=c26158b0-5004-4088-9798-c4b79c65c26d"},"vehicle_type_id":"4","last_reported":1758521817,"current_range_meters":20000,"station_id":"","pricing_plan_id":"cebpf4jnsgd1na2vs0mg"},{"bike_id":"839276d6-5b78-4a99-829d-a7a4175d44f1","system_id":"levelo_inurba_marseille","lat":43.31212,"lon":5.36834,"is_reserved":false,"is_disabled":false,"rental_uris":{"android":"levelo://app?vid=839276d6-5b78-4a99-829d-a7a4175d44f1","ios":"levelo://app?vid=839276d6-5b78-4a99-829d-a7a4175d44f1"},"vehicle_type_id":"4","last_reported":1758521817,"current_range_meters":19600,"station_id":"ce4bgl92rcd13ifvqbq0","pricing_plan_id":"cebpf4jnsgd1na2vs0mg"},{"bike_id":"419b8645-9d00-46f3-ada4-2e083bac00f3","system_id":"levelo_inurba_marseille","lat":43.27061,"lon":5.40248,"is_reserved":false,"is_disabled":true,"rental_uris":{"android":"levelo://app?vid=419b8645-9d00-46f3-ada4-2e083bac00f3","ios":"levelo://app?vid=419b8645-9d00-46f3-ada4-2e083bac00f3"},"vehicle_type_id":"4","last_reported":1758521817,"current_range_meters":20400,"station_id":"ce4bhk92rcd13ifvqgc0","pricing_plan_id":"cebpf4jnsgd1na2vs0mg"},{"bike_id":"7c0482c3-9253-4d1b-b4f3-be55cdb7721d","system_id":"levelo_inurba_marseille","lat":43.33757,"lon":5.37466,"is_reserved":false,"is_disabled":false,"rental_uris":{"android":"levelo://app?vid=7c0482c3-9253-4d1b-b4f3-be55cdb7721d","ios":"levelo://app?vid=7c0482c3-9253-4d1b-b4f3-be55cdb7721d"},"vehicle_type_id":"4","last_reported":1758521817,"current_range_meters":20400,"station_id":"","pricing_plan_id":"cebpf4jnsgd1na2vs0mg"},{"bike_id":"7d460f69-940c-4b22-987b-ca08eff0276c","system_id":"levelo_inurba_marseille","lat":43.32016,"lon":5.38159,"is_reserved":false,"is_disabled":false,"rental_uris":{"android":"levelo://app?vid=7d460f69-940c-4b22-987b-ca08eff0276c","ios":"levelo://app?vid=7d460f69-940c-4b22-987b-ca08eff0276c"},"vehicle_type_id":"4","last_reported":1758521817,"current_range_meters":20000,"station_id":"ce4bhr12rcd13ifvqhpg","pricing_plan_id":"cebpf4jnsgd1na2vs0mg"},{"bike_id":"8f98f3d1-292b-4f08-a7be-fbfb1f5e56c0","system_id":"levelo_inurba_marseille","lat":43.26069,"lon":5.39417,"is_reserved":false,"is_disabled":false,"rental_uris":{"android":"levelo://app?vid=8f98f3d1-292b-4f08-a7be-fbfb1f5e56c0","ios":"levelo://app?vid=8f98f3d1-292b-4f08-a7be-fbfb1f5e56c0"},"vehicle_type_id":"4","last_reported":1758521817,"current_range_meters":20400,"station_id":"ce4bhh92rcd13ifvqfj0","pricing_plan_id":"cebpf4jnsgd1na2vs0mg"},{"bike_id":"5b3eb6ab-b7ba-40ef-a7b5-47547192a845","system_id":"levelo_inurba_marseille","lat":43.25489,"lon":5.37673,"is_reserved":false,"is_disabled":true,"rental_uris":{"android":"levelo://app?vid=5b3eb6ab-b7ba-40ef-a7b5-47547192a845","ios":"levelo://app?vid=5b3eb6ab-b7ba-40ef-a7b5-47547192a845"},"vehicle_type_id":"4","last_reported":1758521817,"current_range_meters":20400,"station_id":"ce4bhh12rcd13ifvqff0","pricing_plan_id":"cebpf4jnsgd1na2vs0mg"},{"bike_id":"0b012bc9-a1de-4613-94f9-d6eb83b1d977","system_id":"levelo_inurba_marseille","lat":43.29244,"lon":5.38449,"is_reserved":false,"is_disabled":true,"rental_uris":{"android":"levelo://app?vid=0b012bc9-a1de-4613-94f9-d6eb83b1d977","ios":"levelo://app?vid=0b012bc9-a1de-4613-94f9-d6eb83b1d977"},"vehicle_type_id":"4","last_reported":1758521817,"current_range_meters":20400,"station_id":"ce4bh692rcd13ifvqea0","pricing_plan_id":"cebpf4jnsgd1na2vs0mg"},{"bike_id":"c08e28a5-ccc8-4b42-9746-9fa67b3a789e","system_id":"levelo_inurba_marseille","lat":43.24066,"lon":5.37757,"is_reserved":false,"is_disabled":false,"rental_uris":{"android":"levelo://app?vid=c08e28a5-ccc8-4b42-9746-9fa67b3a789e","ios":"levelo://app?vid=c08e28a5-ccc8-4b42-9746-9fa67b3a789e"},"vehicle_type_id":"4","last_reported":1758521817,"current_range_meters":20400,"station_id":"ce4bhnp2rcd13ifvqgvg","pricing_plan_id":"cebpf4jnsgd1na2vs0mg"},{"bike_id":"ca5f3c98-0708-4f5d-9c10-86b26ed20d6e","system_id":"levelo_inurba_marseille","lat":43.29522,"lon":5.37504,"is_reserved":false,"is_disabled":false,"rental_uris":{"android":"levelo://app?vid=ca5f3c98-0708-4f5d-9c10-86b26ed20d6e","ios":"levelo://app?vid=ca5f3c98-0708-4f5d-9c10-86b26ed20d6e"},"vehicle_type_id":"4","last_reported":1758521817,"current_range_meters":20400,"station_id":"ce4bgkp2rcd13ifvqbmg","pricing_plan_id":"cebpf4jnsgd1na2vs0mg"},{"bike_id":"988e14d0-c640-47f5-afbe-7fee0984e278","system_id":"levelo_inurba_marseille","lat":43.29617,"lon":5.37152,"is_reserved":false,"is_disabled":false,"rental_uris":{"android":"levelo://app?vid=988e14d0-c640-47f5-afbe-7fee0984e278","ios":"levelo://app?vid=988e14d0-c640-47f5-afbe-7fee0984e278"},"vehicle_type_id":"4","last_reported":1758521817,"current_range_meters":20400,"station_id":"ce4bgnh2rcd13ifvqc0g","pricing_plan_id":"cebpf4jnsgd1na2vs0mg"},{"bike_id":"fd03c395-cd59-473d-9b9d-82b7fa286d41","system_id":"levelo_inurba_marseille","lat":43.24052,"lon":5.37754,"is_reserved":false,"is_disabled":false,"rental_uris":{"android":"levelo://app?vid=fd03c395-cd59-473d-9b9d-82b7fa286d41","ios":"levelo://app?vid=fd03c395-cd59-473d-9b9d-82b7fa286d41"},"vehicle_type_id":"4","last_reported":1758521817,"current_range_meters":20400,"station_id":"ce4bhnp2rcd13ifvqgvg","pricing_plan_id":"cebpf4jnsgd1na2vs0mg"},{"bike_id":"620438fb-11f0-49cb-b600-78739d113653","system_id":"levelo_inurba_marseille","lat":43.28566,"lon":5.38446,"is_reserved":false,"is_disabled":false,"rental_uris":{"android":"levelo://app?vid=620438fb-11f0-49cb-b600-78739d113653","ios":"levelo://app?vid=620438fb-11f0-49cb-b600-78739d113653"},"vehicle_type_id":"4","last_reported":1758521817,"current_range_meters":20400,"station_id":"","pricing_plan_id":"cebpf4jnsgd1na2vs0mg"},{"bike_id":"43469106-8aaa-4285-89d4-29a3387d12b0","system_id":"levelo_inurba_marseille","lat":43.32539,"lon":5.41439,"is_reserved":false,"is_disabled":false,"rental_uris":{"android":"levelo://app?vid=43469106-8aaa-4285-89d4-29a3387d12b0","ios":"levelo://app?vid=43469106-8aaa-4285-89d4-29a3387d12b0"},"vehicle_type_id":"4","last_reported":1758521817,"current_range_meters":20800,"station_id":"ce4bhq12rcd13ifvqhhg","pricing_plan_id":"cebpf4jnsgd1na2vs0mg"},{"bike_id":"79c41e58-6eb8-41eb-a6eb-140d463cbaca","system_id":"levelo_inurba_marseille","lat":43.3048,"lon":5.37881,"is_reserved":false,"is_disabled":false,"rental_uris":{"android":"levelo://app?vid=79c41e58-6eb8-41eb-a6eb-140d463cbaca","ios":"levelo://app?vid=79c41e58-6eb8-41eb-a6eb-140d463cbaca"},"vehicle_type_id":"4","last_reported":1758521817,"current_range_meters":20800,"station_id":"ce4bgup2rcd13ifvqcn0","pricing_plan_id":"cebpf4jnsgd1na2vs0mg"},{"bike_id":"b5907e37-dccf-4935-b21c-aced876dbc39","system_id":"levelo_inurba_marseille","lat":43.292636,"lon":5.384441,"is_reserved":false,"is_disabled":false,"rental_uris":{"android":"levelo://app?vid=b5907e37-dccf-4935-b21c-aced876dbc39","ios":"levelo://app?vid=b5907e37-dccf-4935-b21c-aced876dbc39"},"vehicle_type_id":"4","last_reported":1758521817,"current_range_meters":20800,"station_id":"","pricing_plan_id":"cebpf4jnsgd1na2vs0mg"},{"bike_id":"06a24bce-028d-4b4a-b4a3-d45296145db5","system_id":"levelo_inurba_marseille","lat":43.28425,"lon":5.34991,"is_reserved":false,"is_disabled":true,"rental_uris":{"android":"levelo://app?vid=06a24bce-028d-4b4a-b4a3-d45296145db5","ios":"levelo://app?vid=06a24bce-028d-4b4a-b4a3-d45296145db5"},"vehicle_type_id":"4","last_reported":1758521817,"current_range_meters":20800,"station_id":"ce4bhch2rcd13ifvqeug","pricing_plan_id":"cebpf4jnsgd1na2vs0mg"},{"bike_id":"381d1ccc-3acc-41fb-aee1-b2c36c8c3e2f","system_id":"levelo_inurba_marseille","lat":43.31221,"lon":5.36833,"is_reserved":false,"is_disabled":false,"rental_uris":{"android":"levelo://app?vid=381d1ccc-3acc-41fb-aee1-b2c36c8c3e2f","ios":"levelo://app?vid=381d1ccc-3acc-41fb-aee1-b2c36c8c3e2f"},"vehicle_type_id":"4","last_reported":1758521817,"current_range_meters":20800,"station_id":"ce4bgl92rcd13ifvqbq0","pricing_plan_id":"cebpf4jnsgd1na2vs0mg"},{"bike_id":"7a251369-6190-499d-a901-e9a1d7e00406","system_id":"levelo_inurba_marseille","lat":43.290373,"lon":5.399616,"is_reserved":false,"is_disabled":false,"rental_uris":{"android":"levelo://app?vid=7a251369-6190-499d-a901-e9a1d7e00406","ios":"levelo://app?vid=7a251369-6190-499d-a901-e9a1d7e00406"},"vehicle_type_id":"4","last_reported":1758521817,"current_range_meters":20800,"station_id":"ce4bh392rcd13ifvqdm0","pricing_plan_id":"cebpf4jnsgd1na2vs0mg"},{"bike_id":"438c23c7-0acd-409c-8b3f-376ca0b26fe4","system_id":"levelo_inurba_marseille","lat":43.28417,"lon":5.34996,"is_reserved":false,"is_disabled":false,"rental_uris":{"android":"levelo://app?vid=438c23c7-0acd-409c-8b3f-376ca0b26fe4","ios":"levelo://app?vid=438c23c7-0acd-409c-8b3f-376ca0b26fe4"},"vehicle_type_id":"4","last_reported":1758521817,"current_range_meters":21600,"station_id":"ce4bhbh2rcd13ifvqepg","pricing_plan_id":"cebpf4jnsgd1na2vs0mg"},{"bike_id":"17629761-37c1-4106-b39a-706925264614","system_id":"levelo_inurba_marseille","lat":43.2707,"lon":5.42282,"is_reserved":false,"is_disabled":false,"rental_uris":{"android":"levelo://app?vid=17629761-37c1-4106-b39a-706925264614","ios":"levelo://app?vid=17629761-37c1-4106-b39a-706925264614"},"vehicle_type_id":"4","last_reported":1758521817,"current_range_meters":21600,"station_id":"ce4bhk92rcd13ifvqgb0","pricing_plan_id":"cebpf4jnsgd1na2vs0mg"},{"bike_id":"6a68175c-617d-48a4-85e1-3893f5de1b60","system_id":"levelo_inurba_marseille","lat":43.24392,"lon":5.37057,"is_reserved":false,"is_disabled":true,"rental_uris":{"android":"levelo://app?vid=6a68175c-617d-48a4-85e1-3893f5de1b60","ios":"levelo://app?vid=6a68175c-617d-48a4-85e1-3893f5de1b60"},"vehicle_type_id":"4","last_reported":1758521817,"current_range_meters":21600,"station_id":"ce4bhhh2rcd13ifvqfk0","pricing_plan_id":"cebpf4jnsgd1na2vs0mg"},{"bike_id":"c454a0cc-c44e-4d6a-b4c8-6762bd4751a2","system_id":"levelo_inurba_marseille","lat":43.25938,"lon":5.40903,"is_reserved":false,"is_disabled":false,"rental_uris":{"android":"levelo://app?vid=c454a0cc-c44e-4d6a-b4c8-6762bd4751a2","ios":"levelo://app?vid=c454a0cc-c44e-4d6a-b4c8-6762bd4751a2"},