{"last_updated":1692447030,"ttl":30,"version":"2.2","data":{"bikes":[{"bike_id":"e3efdaf8-0b12-4dce-937e-5094756ccb5b","system_id":"levelo_inurba_marseille","lat":43.312239,"lon":5.368562,"is_reserved":false,"is_disabled":false,"rental_uris":{"android":"levelo://app?vid=e3efdaf8-0b12-4dce-937e-5094756ccb5b","ios":"levelo://app?vid=e3efdaf8-0b12-4dce-937e-5094756ccb5b"},"vehicle_type_id":"4","last_reported":1692447031,"current_range_meters":30400,"station_id":"ce4bgl92rcd13ifvqbq0","pricing_plan_id":"free"},{"bike_id":"551d0656-3361-4e0c-88ea-5db1254628c5","system_id":"levelo_inurba_marseille","lat":43.312239,"lon":5.368562,"is_reserved":false,"is_disabled":false,"rental_uris":{"android":"levelo://app?vid=551d0656-3361-4e0c-88ea-5db1254628c5","ios":"levelo://app?vid=551d0656-3361-4e0c-88ea-5db1254628c5"},"vehicle_type_id":"4","last_reported":1692447031,"current_range_meters":20000,"station_id":"ce4bgl92rcd13ifvqbq0","pricing_plan_id":"free"},{"bike_id":"f22ca441-4e4e-4660-b824-b2f46943e54d","system_id":"levelo_inurba_marseille","lat":43.312239,"lon":5.368562,"is_reserved":false,"is_disabled":false,"rental_uris":{"android":"levelo://app?vid=f22ca441-4e4e-4660-b824-b2f46943e54d","ios":"levelo://app?vid=f22ca441-4e4e-4660-b824-b2f46943e54d"},"vehicle_type_id":"4","last_reported":1692447031,"current_range_meters":31600,"station_id":"ce4bgl92rcd13ifvqbq0","pricing_plan_id":"free"},{"bike_id":"cc0bddc4-403d-45fc-8b4a-c35198d4741b","system_id":"levelo_inurba_marseille","lat":43.312239,"lon":5.368562,"is_reserved":false,"is_disabled":false,"rental_uris":{"android":"levelo://app?vid=cc0bddc4-403d-45fc-8b4a-c35198d4741b","ios":"levelo://app?vid=cc0bddc4-403d-45fc-8b4a-c35198d4741b"},"vehicle_type_id":"4","last_reported":1692447031,"current_range_meters":31600,"station_id":"ce4bgl92rcd13ifvqbq0","pricing_plan_id":"free"},{"bike_id":"364dc0f9-c722-4a74-bc78-d8f7a5c4f1b7","system_id":"levelo_inurba_marseille","lat":43.312239,"lon":5.368562,"is_reserved":false,"is_disabled":false,"rental_uris":{"android":"levelo://app?vid=364dc0f9-c722-4a74-bc78-d8f7a5c4f1b7","ios":"levelo://app?vid=364dc0f9-c722-4a74-bc78-d8f7a5c4f1b7"},"vehicle_type_id":"4","last_reported":1692447031,"current_range_meters":24000,"station_id":"ce4bgl92rcd13ifvqbq0","pricing_plan_id":"free"},{"bike_id":"d968abd3-56a4-4d70-b2e2-d7ac7ecfa54b","system_id":"levelo_inurba_marseille","lat":43.312239,"lon":5.368562,"is_reserved":false,"is_disabled":false,"rental_uris":{"android":"levelo://app?vid=d968abd3-56a4-4d70-b2e2-d7ac7ecfa54b","ios":"levelo://app?vid=d968abd3-56a4-4d70-b2e2-d7ac7ecfa54b"},"vehicle_type_id":"4","last_reported":1692447031,"current_range_meters":31200,"station_id":"ce4bgl92rcd13ifvqbq0","pricing_plan_id":"free"},{"bike_id":"28e7cf53-575d-41ed-b334-437a597705b5","system_id":"levelo_inurba_marseille","lat":43.312239,"lon":5.368562,"is_reserved":false,"is_disabled":false,"rental_uris":{"android":"levelo://app?vid=28e7cf53-575d-41ed-b334-437a597705b5","ios":"levelo://app?vid=28e7cf53-575d-41ed-b334-437a597705b5"},"vehicle_type_id":"4","last_reported":1692447031,"current_range_meters":28000,"station_id":"ce4bgl92rcd13ifvqbq0","pricing_plan_id":"free"},{"bike_id":"798484b3-d62c-4b6b-8973-f9fadb03d90c","system_id":"levelo_inurba_marseille","lat":43.312239,"lon":5.368562,"is_reserved":false,"is_disabled":false,"rental_uris":{"android":"levelo://app?vid=798484b3-d62c-4b6b-8973-f9fadb03d90c","ios":"levelo://app?vid=798484b3-d62c-4b6b-8973-f9fadb03d90c"},"vehicle_type_id":"4","last_reported":1692447031,"current_range_meters":31600,"station_id":"ce4bgl92rcd13ifvqbq0","pricing_plan_id":"free"},{"bike_id":"bb7e509f-a591-42af-9c77-5d26fdee74e7","system_id":"levelo_inurba_marseille","lat":43.309076,"lon":5.368465,"is_reserved":false,"is_disabled":false,"rental_uris":{"android":"levelo://app?vid=bb7e509f-a591-42af-9c77-5d26fdee74e7","ios":"levelo://app?vid=bb7e509f-a591-42af-9c77-5d26fdee74e7"},"vehicle_type_id":"4","last_reported":1692447031,"current_range_meters":26800,"station_id":"ce4bgn92rcd13ifvqbvg","pricing_plan_id":"free"},{"bike_id":"e3cfbca5-efcf-4fba-a5eb-92affd8ba0db","system_id":"levelo_inurba_marseille","lat":43.309076,"lon":5.368465,"is_reserved":false,"is_disabled":false,"rental_uris":{"android":"levelo://app?vid=e3cfbca5-efcf-4fba-a5eb-92affd8ba0db","ios":"levelo://app?vid=e3cfbca5-efcf-4fba-a5eb-92affd8ba0db"},"vehicle_type_id":"4","last_reported":1692447031,"current_range_meters":29600,"station_id":"ce4bgn92rcd13ifvqbvg","pricing_plan_id":"free"},{"bike_id":"23bfa6bf-5407-483d-907e-56c4758e5443","system_id":"levelo_inurba_marseille","lat":43.30903,"lon":5.36851,"is_reserved":false,"is_disabled":false,"rental_uris":{"android":"levelo://app?vid=23bfa6bf-5407-483d-907e-56c4758e5443","ios":"levelo://app?vid=23bfa6bf-5407-483d-907e-56c4758e5443"},"vehicle_type_id":"4","last_reported":1692447031,"current_range_meters":30800,"station_id":"ce4bgn92rcd13ifvqbvg","pricing_plan_id":"free"},{"bike_id":"9d85e29a-0da5-4f3e-8c18-17fa561f0493","system_id":"levelo_inurba_marseille","lat":43.31501,"lon":5.3731,"is_reserved":false,"is_disabled":false,"rental_uris":{"android":"levelo://app?vid=9d85e29a-0da5-4f3e-8c18-17fa561f0493","ios":"levelo://app?vid=9d85e29a-0da5-4f3e-8c18-17fa561f0493"},"vehicle_type_id":"4","last_reported":1692447031,"current_range_meters":26000,"station_id":"ce4bgt12rcd13ifvqcd0","pricing_plan_id":"free"},{"bike_id":"df0d61d6-6763-4289-9e59-63e6c92307e4","system_id":"levelo_inurba_marseille","lat":43.30558,"lon":5.36528,"is_reserved":false,"is_disabled":false,"rental_uris":{"android":"levelo://app?vid=df0d61d6-6763-4289-9e59-63e6c92307e4","ios":"levelo://app?vid=df0d61d6-6763-4289-9e59-63e6c92307e4"},"vehicle_type_id":"4","last_reported":1692447031,"current_range_meters":26400,"station_id":"ce4bgs12rcd13ifvqcag","pricing_plan_id":"free"},{"bike_id":"13639d10-fff3-43bc-aad2-5e5857fb22de","system_id":"levelo_inurba_marseille","lat":43.30555,"lon":5.36532,"is_reserved":false,"is_disabled":false,"rental_uris":{"android":"levelo://app?vid=13639d10-fff3-43bc-aad2-5e5857fb22de","ios":"levelo://app?vid=13639d10-fff3-43bc-aad2-5e5857fb22de"},"vehicle_type_id":"4","last_reported":1692447031,"current_range_meters":2800,"station_id":"ce4bgs12rcd13ifvqcag","pricing_plan_id":"free"},{"bike_id":"401453cc-31af-4809-a3ef-9342b23dd327","system_id":"levelo_inurba_marseille","lat":43.30542,"lon":5.36702,"is_reserved":false,"is_disabled":false,"rental_uris":{"android":"levelo://app?vid=401453cc-31af-4809-a3ef-9342b23dd327","ios":"levelo://app?vid=401453cc-31af-4809-a3ef-9342b23dd327"},"vehicle_type_id":"4","last_reported":1692447031,"current_range_meters":20000,"station_id":"ce4bgrp2rcd13ifvqc9g","pricing_plan_id":"free"},{"bike_id":"b4469eaf-1e08-4e02-919d-888aa777da6e","system_id":"levelo_inurba_marseille","lat":43.305712,"lon":5.365641,"is_reserved":false,"is_disabled":false,"rental_uris":{"android":"levelo://app?vid=b4469eaf-1e08-4e02-919d-888aa777da6e","ios":"levelo://app?vid=b4469eaf-1e08-4e02-919d-888aa777da6e"},"vehicle_type_id":"4","last_reported":1692447031,"current_range_meters":31200,"station_id":"ce4bgs12rcd13ifvqcag","pricing_plan_id":"free"},{"bike_id":"386ed8e3-b71e-4f68-86af-202c5b76503e","system_id":"levelo_inurba_marseille","lat":43.30535,"lon":5.367,"is_reserved":false,"is_disabled":false,"rental_uris":{"android":"levelo://app?vid=386ed8e3-b71e-4f68-86af-202c5b76503e","ios":"levelo://app?vid=386ed8e3-b71e-4f68-86af-202c5b76503e"},"vehicle_type_id":"4","last_reported":1692447031,"current_range_meters":25600,"station_id":"ce4bgrp2rcd13ifvqc9g","pricing_plan_id":"free"},{"bike_id":"9fbe6e18-d192-44c2-98b5-cafb68b41aa4","system_id":"levelo_inurba_marseille","lat":43.30544,"lon":5.36523,"is_reserved":false,"is_disabled":false,"rental_uris":{"android":"levelo://app?vid=9fbe6e18-d192-44c2-98b5-cafb68b41aa4","ios":"levelo://app?vid=9fbe6e18-d192-44c2-98b5-cafb68b41aa4"},"vehicle_type_id":"4","last_reported":1692447031,"current_range_meters":11600,"station_id":"ce4bgs12rcd13ifvqcag","pricing_plan_id":"free"},{"bike_id":"4b1165a9-70ad-4388-81cb-9aa4c66cd3c8","system_id":"levelo_inurba_marseille","lat":43.305706,"lon":5.365654,"is_reserved":false,"is_disabled":false,"rental_uris":{"android":"levelo://app?vid=4b1165a9-70ad-4388-81cb-9aa4c66cd3c8","ios":"levelo://app?vid=4b1165a9-70ad-4388-81cb-9aa4c66cd3c8"},"vehicle_type_id":"4","last_reported":1692447031,"current_range_meters":31200,"station_id":"ce4bgs12rcd13ifvqcag","pricing_plan_id":"free"},{"bike_id":"55b2af90-19e8-49bf-a241-2be0babe83ec","system_id":"levelo_inurba_marseille","lat":43.305706,"lon":5.365654,"is_reserved":false,"is_disabled":false,"rental_uris":{"android":"levelo://app?vid=55b2af90-19e8-49bf-a241-2be0babe83ec","ios":"levelo://app?vid=55b2af90-19e8-49bf-a241-2be0babe83ec"},"vehicle_type_id":"4","last_reported":1692447031,"current_range_meters":31200,"station_id":"ce4bgs12rcd13ifvqcag","pricing_plan_id":"free"},{"bike_id":"f5b8cff7-ca1a-4f69-92b9-1b95e2ed8fac","system_id":"levelo_inurba_marseille","lat":43.305706,"lon":5.365654,"is_reserved":false,"is_disabled":false,"rental_uris":{"android":"levelo://app?vid=f5b8cff7-ca1a-4f69-92b9-1b95e2ed8fac","ios":"levelo://app?vid=f5b8cff7-ca1a-4f69-92b9-1b95e2ed8fac"},"vehicle_type_id":"4","last_reported":1692447031,"current_range_meters":31200,"station_id":"ce4bgs12rcd13ifvqcag","pricing_plan_id":"free"},{"bike_id":"8ae04ecb-d0f3-4bb9-9aee-10120dacb2a6","system_id":"levelo_inurba_marseille","lat":43.305989,"lon":5.37225,"is_reserved":false,"is_disabled":false,"rental_uris":{"android":"levelo://app?vid=8ae04ecb-d0f3-4bb9-9aee-10120dacb2a6","ios":"levelo://app?vid=8ae04ecb-d0f3-4bb9-9aee-10120dacb2a6"},"vehicle_type_id":"4","last_reported":1692447031,"current_range_meters":29600,"station_id":"ce4bgqh2rcd13ifvqc4g","pricing_plan_id":"free"},{"bike_id":"bacdbe8f-379a-4a56-a20a-144393429943","system_id":"levelo_inurba_marseille","lat":43.305989,"lon":5.37225,"is_reserved":false,"is_disabled":false,"rental_uris":{"android":"levelo://app?vid=bacdbe8f-379a-4a56-a20a-144393429943","ios":"levelo://app?vid=bacdbe8f-379a-4a56-a20a-144393429943"},"vehicle_type_id":"4","last_reported":1692447031,"current_range_meters":21600,"station_id":"ce4bgqh2rcd13ifvqc4g","pricing_plan_id":"free"},{"bike_id":"e9917a8f-3264-4c77-ae28-21a23edece1b","system_id":"levelo_inurba_marseille","lat":43.30601,"lon":5.37224,"is_reserved":false,"is_disabled":false,"rental_uris":{"android":"levelo://app?vid=e9917a8f-3264-4c77-ae28-21a23edece1b","ios":"levelo://app?vid=e9917a8f-3264-4c77-ae28-21a23edece1b"},"vehicle_type_id":"4","last_reported":1692447031,"current_range_meters":8000,"station_id":"","pricing_plan_id":"free"},{"bike_id":"58add67a-c575-4206-958c-a3361907ee84","system_id":"levelo_inurba_marseille","lat":43.254945,"lon":5.376454,"is_reserved":false,"is_disabled":false,"rental_uris":{"android":"levelo://app?vid=58add67a-c575-4206-958c-a3361907ee84","ios":"levelo://app?vid=58add67a-c575-4206-958c-a3361907ee84"},"vehicle_type_id":"4","last_reported":1692447031,"current_range_meters":12400,"station_id":"ce4bhh12rcd13ifvqff0","pricing_plan_id":"free"},{"bike_id":"a0e9ea63-6de7-4cd8-b3cb-5497297ec425","system_id":"levelo_inurba_marseille","lat":43.31117,"lon":5.37766,"is_reserved":false,"is_disabled":false,"rental_uris":{"android":"levelo://app?vid=a0e9ea63-6de7-4cd8-b3cb-5497297ec425","ios":"levelo://app?vid=a0e9ea63-6de7-4cd8-b3cb-5497297ec425"},"vehicle_type_id":"4","last_reported":1692447031,"current_range_meters":25200,"station_id":"ce4bgt92rcd13ifvqcg0","pricing_plan_id":"free"},{"bike_id":"17795b23-def9-4891-a3dc-118b4277a6cf","system_id":"levelo_inurba_marseille","lat":43.307945,"lon":5.376487,"is_reserved":false,"is_disabled":false,"rental_uris":{"android":"levelo://app?vid=17795b23-def9-4891-a3dc-118b4277a6cf","ios":"levelo://app?vid=17795b23-def9-4891-a3dc-118b4277a6cf"},"vehicle_type_id":"4","last_reported":1692447031,"current_range_meters":21200,"station_id":"ce4bgv92rcd13ifvqcq0","pricing_plan_id":"free"},{"bike_id":"e92c44c6-bfb0-45fa-b2fe-a367fd139d46","system_id":"levelo_inurba_marseille","lat":43.31679,"lon":5.37726,"is_reserved":false,"is_disabled":false,"rental_uris":{"android":"levelo://app?vid=e92c44c6-bfb0-45fa-b2fe-a367fd139d46","ios":"levelo://app?vid=e92c44c6-bfb0-45fa-b2fe-a367fd139d46"},"vehicle_type_id":"4","last_reported":1692447031,"current_range_meters":22000,"station_id":"ce4bgth2rcd13ifvqch0","pricing_plan_id":"free"},{"bike_id":"b3e7fc4a-34b4-4d50-9710-6627a115125d","system_id":"levelo_inurba_marseille","lat":43.31697,"lon":5.37744,"is_reserved":false,"is_disabled":false,"rental_uris":{"android":"levelo://app?vid=b3e7fc4a-34b4-4d50-9710-6627a115125d","ios":"levelo://app?vid=b3e7fc4a-34b4-4d50-9710-6627a115125d"},"vehicle_type_id":"4","last_reported":1692447031,"current_range_meters":30000,"station_id":"ce4bgth2rcd13ifvqch0","pricing_plan_id":"free"},{"bike_id":"be1a1168-3478-477d-aece-950ae804857a","system_id":"levelo_inurba_marseille","lat":43.30319,"lon":5.36905,"is_reserved":false,"is_disabled":false,"rental_uris":{"android":"levelo://app?vid=be1a1168-3478-477d-aece-950ae804857a","ios":"levelo://app?vid=be1a1168-3478-477d-aece-950ae804857a"},"vehicle_type_id":"4","last_reported":1692447031,"current_range_meters":14000,"station_id":"ce4bgqh2rcd13ifvqc5g","pricing_plan_id":"free"},{"bike_id":"e3310298-fb10-4c18-ae38-2570af28e985","system_id":"levelo_inurba_marseille","lat":43.315289,"lon":5.380349,"is_reserved":false,"is_disabled":false,"rental_uris":{"android":"levelo://app?vid=e3310298-fb10-4c18-ae38-2570af28e985","ios":"levelo://app?vid=e3310298-fb10-4c18-ae38-2570af28e985"},"vehicle_type_id":"4","last_reported":1692447031,"current_range_meters":800,"station_id":"ce4bhsp2rcd13ifvqi50","pricing_plan_id":"free"},{"bike_id":"79492b2c-b2b0-415e-b3cb-3910a123babf","system_id":"levelo_inurba_marseille","lat":43.315289,"lon":5.380349,"is_reserved":false,"is_disabled":false,"rental_uris":{"android":"levelo://app?vid=79492b2c-b2b0-415e-b3cb-3910a123babf","ios":"levelo://app?vid=79492b2c-b2b0-415e-b3cb-3910a123babf"},"vehicle_type_id":"4","last_reported":1692447031,"current_range_meters":10400,"station_id":"ce4bhsp2rcd13ifvqi50","pricing_plan_id":"free"},{"bike_id":"784dd607-42ba-4c87-aa30-553f0fab1303","system_id":"levelo_inurba_marseille","lat":43.315289,"lon":5.380349,"is_reserved":false,"is_disabled":false,"rental_uris":{"android":"levelo://app?vid=784dd607-42ba-4c87-aa30-553f0fab1303","ios":"levelo://app?vid=784dd607-42ba-4c87-aa30-553f0fab1303"},"vehicle_type_id":"4","last_reported":1692447031,"current_range_meters":14400,"station_id":"ce4bhsp2rcd13ifvqi50","pricing_plan_id":"free"},{"bike_id":"bfd18b81-7891-4c2a-9875-8c3cac67fc01","system_id":"levelo_inurba_marseille","lat":43.3153,"lon":5.38038,"is_reserved":false,"is_disabled":false,"rental_uris":{"android":"levelo://app?vid=bfd18b81-7891-4c2a-9875-8c3cac67fc01","ios":"levelo://app?vid=bfd18b81-7891-4c2a-9875-8c3cac67fc01"},"vehicle_type_id":"4","last_reported":1692447031,"current_range_meters":26800,"station_id":"ce4bhsp2rcd13ifvqi50","pricing_plan_id":"free"},{"bike_id":"a6651547-d993-431a-9bb2-3389a1270c4d","system_id":"levelo_inurba_marseille","lat":43.31528,"lon":5.3804,"is_reserved":false,"is_disabled":false,"rental_uris":{"android":"levelo://app?vid=a6651547-d993-431a-9bb2-3389a1270c4d","ios":"levelo://app?vid=a6651547-d993-431a-9bb2-3389a1270c4d"},"vehicle_type_id":"4","last_reported":1692447031,"current_range_meters":25600,"station_id":"ce4bhsp2rcd13ifvqi50","pricing_plan_id":"free"},{"bike_id":"28b8c7fd-4c88-403f-9814-975b1d0e7007","system_id":"levelo_inurba_marseille","lat":43.315289,"lon":5.380349,"is_reserved":false,"is_disabled":false,"rental_uris":{"android":"levelo://app?vid=28b8c7fd-4c88-403f-9814-975b1d0e7007","ios":"levelo://app?vid=28b8c7fd-4c88-403f-9814-975b1d0e7007"},"vehicle_type_id":"4","last_reported":1692447031,"current_range_meters":25200,"station_id":"ce4bhsp2rcd13ifvqi50","pricing_plan_id":"free"},{"bike_id":"8d5b9b54-67bf-42c5-ac50-200b638e286c","system_id":"levelo_inurba_marseille","lat":43.301939,"lon":5.366286,"is_reserved":false,"is_disabled":false,"rental_uris":{"android":"levelo://app?vid=8d5b9b54-67bf-42c5-ac50-200b638e286c","ios":"levelo://app?vid=8d5b9b54-67bf-42c5-ac50-200b638e286c"},"vehicle_type_id":"4","last_reported":1692447031,"current_range_meters":9600,"station_id":"ce4bgrh2rcd13ifvqc8g","pricing_plan_id":"free"},{"bike_id":"1a3cf3bf-3ef5-4173-ba97-c14174015405","system_id":"levelo_inurba_marseille","lat":43.30187,"lon":5.36593,"is_reserved":false,"is_disabled":false,"rental_uris":{"android":"levelo://app?vid=1a3cf3bf-3ef5-4173-ba97-c14174015405","ios":"levelo://app?vid=1a3cf3bf-3ef5-4173-ba97-c14174015405"},"vehicle_type_id":"4","last_reported":1692447031,"current_range_meters":21600,"station_id":"ce4bgrh2rcd13ifvqc8g","pricing_plan_id":"free"},{"bike_id":"3c2c49a3-3c04-4ff7-b896-bf97715c7e66","system_id":"levelo_inurba_marseille","lat":43.30183,"lon":5.36611,"is_reserved":false,"is_disabled":false,"rental_uris":{"android":"levelo://app?vid=3c2c49a3-3c04-4ff7-b896-bf97715c7e66","ios":"levelo://app?vid=3c2c49a3-3c04-4ff7-b896-bf97715c7e66"},"vehicle_type_id":"4","last_reported":1692447031,"current_range_meters":30800,"station_id":"ce4bgrh2rcd13ifvqc8g","pricing_plan_id":"free"},{"bike_id":"ec4cbe36-a50f-4b0f-a774-509f9d790d4f","system_id":"levelo_inurba_marseille","lat":43.304606,"lon":5.379026,"is_reserved":false,"is_disabled":false,"rental_uris":{"android":"levelo://app?vid=ec4cbe36-a50f-4b0f-a774-509f9d790d4f","ios":"levelo://app?vid=ec4cbe36-a50f-4b0f-a774-509f9d790d4f"},"vehicle_type_id":"4","last_reported":1692447031,"current_range_meters":31200,"station_id":"ce4bgup2rcd13ifvqcn0","pricing_plan_id":"free"},{"bike_id":"9e103dd6-fcd1-4317-b54d-97dccf6dca69","system_id":"levelo_inurba_marseille","lat":43.30467,"lon":5.3791,"is_reserved":false,"is_disabled":false,"rental_uris":{"android":"levelo://app?vid=9e103dd6-fcd1-4317-b54d-97dccf6dca69","ios":"levelo://app?vid=9e103dd6-fcd1-4317-b54d-97dccf6dca69"},"vehicle_type_id":"4","last_reported":1692447031,"current_range_meters":1600,"station_id":"ce4bgup2rcd13ifvqcn0","pricing_plan_id":"free"},{"bike_id":"27f42fd0-2d3f-4f54-ad9b-35cfde011298","system_id":"levelo_inurba_marseille","lat":43.319935,"lon":5.381699,"is_reserved":false,"is_disabled":false,"rental_uris":{"android":"levelo://app?vid=27f42fd0-2d3f-4f54-ad9b-35cfde011298","ios":"levelo://app?vid=27f42fd0-2d3f-4f54-ad9b-35cfde011298"},"vehicle_type_id":"4","last_reported":1692447031,"current_range_meters":24800,"station_id":"ce4bhr12rcd13ifvqhpg","pricing_plan_id":"free"},{"bike_id":"8f9423b6-2f75-4d37-9601-472d76ede970","system_id":"levelo_inurba_marseille","lat":43.31358,"lon":5.38467,"is_reserved":false,"is_disabled":false,"rental_uris":{"android":"levelo://app?vid=8f9423b6-2f75-4d37-9601-472d76ede970","ios":"levelo://app?vid=8f9423b6-2f75-4d37-9601-472d76ede970"},"vehicle_type_id":"4","last_reported":1692447031,"current_range_meters":8000,"station_id":"ce4bgt92rcd13ifvqcf0","pricing_plan_id":"free"},{"bike_id":"27727aee-e5b3-49df-ab58-eabdf38b85c3","system_id":"levelo_inurba_marseille","lat":43.29988,"lon":5.37176,"is_reserved":false,"is_disabled":false,"rental_uris":{"android":"levelo://app?vid=27727aee-e5b3-49df-ab58-eabdf38b85c3","ios":"levelo://app?vid=27727aee-e5b3-49df-ab58-eabdf38b85c3"},"vehicle_type_id":"4","last_reported":1692447031,"current_range_meters":24800,"station_id":"ce4bgr92rcd13ifvqc7g","pricing_plan_id":"free"},{"bike_id":"bfbd4221-dbc7-4730-9737-ec63a390bb89","system_id":"levelo_inurba_marseille","lat":43.29946,"lon":5.36526,"is_reserved":false,"is_disabled":false,"rental_uris":{"android":"levelo://app?vid=bfbd4221-dbc7-4730-9737-ec63a390bb89","ios":"levelo://app?vid=bfbd4221-dbc7-4730-9737-ec63a390bb89"},"vehicle_type_id":"4","last_reported":1692447031,"current_range_meters":29600,"station_id":"ce4bgm92rcd13ifvqbr0","pricing_plan_id":"free"},{"bike_id":"ac155f3d-90c2-4b77-91be-bd9fe84b4e03","system_id":"levelo_inurba_marseille","lat":43.29944,"lon":5.36534,"is_reserved":false,"is_disabled":false,"rental_uris":{"android":"levelo://app?vid=ac155f3d-90c2-4b77-91be-bd9fe84b4e03","ios":"levelo://app?vid=ac155f3d-90c2-4b77-91be-bd9fe84b4e03"},"vehicle_type_id":"4","last_reported":1692447031,"current_range_meters":31200,"station_id":"ce4bgm92rcd13ifvqbr0","pricing_plan_id":"free"},{"bike_id":"67d7a047-ca8e-4d8e-a14a-bb5189cefb30","system_id":"levelo_inurba_marseille","lat":43.29936,"lon":5.3652,"is_reserved":false,"is_disabled":false,"rental_uris":{"android":"levelo://app?vid=67d7a047-ca8e-4d8e-a14a-bb5189cefb30","ios":"levelo://app?vid=67d7a047-ca8e-4d8e-a14a-bb5189cefb30"},"vehicle_type_id":"4","last_reported":1692447031,"current_range_meters":25600,"station_id":"ce4bgm92rcd13ifvqbr0","pricing_plan_id":"free"},{"bike_id":"e9303874-884d-4310-8580-6b255938a2ff","system_id":"levelo_inurba_marseille","lat":43.29932,"lon":5.36547,"is_reserved":false,"is_disabled":false,"rental_uris":{"android":"levelo://app?vid=e9303874-884d-4310-8580-6b255938a2ff","ios":"levelo://app?vid=e9303874-884d-4310-8580-6b255938a2ff"},"vehicle_type_id":"4","last_reported":1692447031,"current_range_meters":9600,"station_id":"ce4bgm92rcd13ifvqbr0","pricing_plan_id":"free"},{"bike_id":"94d448e1-0de9-4e23-a98d-9ba298dcdf84","system_id":"levelo_inurba_marseille","lat":43.29854,"lon":5.36285,"is_reserved":false,"is_disabled":false,"rental_uris":{"android":"levelo://app?vid=94d448e1-0de9-4e23-a98d-9ba298dcdf84","ios":"levelo://app?vid=94d448e1-0de9-4e23-a98d-9ba298dcdf84"},"vehicle_type_id":"4","last_reported":1692447031,"current_range_meters":4400,"station_id":"ce4bgpp2rcd13ifvqc3g","pricing_plan_id":"free"},{"bike_id":"b9ab17a1-2d0e-40b0-816f-8bc157ff8407","system_id":"levelo_inurba_marseille","lat":43.298433,"lon":5.362774,"is_reserved":false,"is_disabled":false,"rental_uris":{"android":"levelo://app?vid=b9ab17a1-2d0e-40b0-816f-8bc157ff8407","ios":"levelo://app?vid=b9ab17a1-2d0e-40b0-816f-8bc157ff8407"},"vehicle_type_id":"4","last_reported":1692447031,"current_range_meters":31200,"station_id":"ce4bgpp2rcd13ifvqc3g","pricing_plan_id":"free"},{"bike_id":"9f4c2e32-a934-4e15-b39b-5a03138820e0","system_id":"levelo_inurba_marseille","lat":43.30538,"lon":5.38425,"is_reserved":false,"is_disabled":false,"rental_uris":{"android":"levelo://app?vid=9f4c2e32-a934-4e15-b39b-5a03138820e0","ios":"levelo://app?vid=9f4c2e32-a934-4e15-b39b-5a03138820e0"},"vehicle_type_id":"4","last_reported":1692447031,"current_range_meters":28800,"station_id":"ce4bgg92rcd13ifvqb30","pricing_plan_id":"free"},{"bike_id":"eb01818b-ed01-40eb-b640-18a5e1bd3121","system_id":"levelo_inurba_marseille","lat":43.29845,"lon":5.36274,"is_reserved":false,"is_disabled":false,"rental_uris":{"android":"levelo://app?vid=eb01818b-ed01-40eb-b640-18a5e1bd3121","ios":"levelo://app?vid=eb01818b-ed01-40eb-b640-18a5e1bd3121"},"vehicle_type_id":"4","last_reported":1692447031,"current_range_meters":31200,"station_id":"ce4bgpp2rcd13ifvqc3g","pricing_plan_id":"free"},{"bike_id":"959e9951-3606-4161-8e15-dfd9be5e68a5","system_id":"levelo_inurba_marseille","lat":43.298433,"lon":5.362774,"is_reserved":false,"is_disabled":false,"rental_uris":{"android":"levelo://app?vid=959e9951-3606-4161-8e15-dfd9be5e68a5","ios":"levelo://app?vid=959e9951-3606-4161-8e15-dfd9be5e68a5"},"vehicle_type_id":"4","last_reported":1692447031,"current_range_meters":31200,"station_id":"ce4bgpp2rcd13ifvqc3g","pricing_plan_id":"free"},{"bike_id":"9d35dfde-9cec-4f48-a56b-44e2449b8f4c","system_id":"levelo_inurba_marseille","lat":43.298433,"lon":5.362774,"is_reserved":false,"is_disabled":false,"rental_uris":{"android":"levelo://app?vid=9d35dfde-9cec-4f48-a56b-44e2449b8f4c","ios":"levelo://app?vid=9d35dfde-9cec-4f48-a56b-44e2449b8f4c"},"vehicle_type_id":"4","last_reported":1692447031,"current_range_meters":28800,"station_id":"ce4bgpp2rcd13ifvqc3g","pricing_plan_id":"free"},{"bike_id":"16bf4e01-8d3f-49ef-9a24-8ca492a322e7","system_id":"levelo_inurba_marseille","lat":43.311722,"lon":5.387247,"is_reserved":false,"is_disabled":false,"rental_uris":{"android":"levelo://app?vid=16bf4e01-8d3f-49ef-9a24-8ca492a322e7","ios":"levelo://app?vid=16bf4e01-8d3f-49ef-9a24-8ca492a322e7"},"vehicle_type_id":"4","last_reported":1692447031,"current_range_meters":20800,"station_id":"ce4bgv12rcd13ifvqcp0","pricing_plan_id":"free"},{"bike_id":"e8ddbae8-2397-42e6-abf5-57c2e62413c3","system_id":"levelo_inurba_marseille","lat":43.311722,"lon":5.387247,"is_reserved":false,"is_disabled":false,"rental_uris":{"android":"levelo://app?vid=e8ddbae8-2397-42e6-abf5-57c2e62413c3","ios":"levelo://app?vid=e8ddbae8-2397-42e6-abf5-57c2e62413c3"},"vehicle_type_id":"4","last_reported":1692447031,"current_range_meters":21600,"station_id":"ce4bgv12rcd13ifvqcp0","pricing_plan_id":"free"},{"bike_id":"6c4f5b16-29fa-49f0-a1ff-3f89b5ff23bb","system_id":"levelo_inurba_marseille","lat":43.311722,"lon":5.387247,"is_reserved":false,"is_disabled":false,"rental_uris":{"android":"levelo://app?vid=6c4f5b16-29fa-49f0-a1ff-3f89b5ff23bb","ios":"levelo://app?vid=6c4f5b16-29fa-49f0-a1ff-3f89b5ff23bb"},"vehicle_type_id":"4","last_reported":1692447031,"current_range_meters":28400,"station_id":"ce4bgv12rcd13ifvqcp0","pricing_plan_id":"free"},{"bike_id":"2970e8a8-c1da-4bc5-b6ee-13ac657effb8","system_id":"levelo_inurba_marseille","lat":43.311722,"lon":5.387247,"is_reserved":false,"is_disabled":false,"rental_uris":{"android":"levelo://app?vid=2970e8a8-c1da-4bc5-b6ee-13ac657effb8","ios":"levelo://app?vid=2970e8a8-c1da-4bc5-b6ee-13ac657effb8"},"vehicle_type_id":"4","last_reported":1692447031,"current_range_meters":8400,"station_id":"ce4bgv12rcd13ifvqcp0","pricing_plan_id":"free"},{"bike_id":"417e1a1a-90e7-462f-8f4d-eff9627ac828","system_id":"levelo_inurba_marseille","lat":43.297774,"lon":5.370875,"is_reserved":false,"is_disabled":false,"rental_uris":{"android":"levelo://app?vid=417e1a1a-90e7-462f-8f4d-eff9627ac828","ios":"levelo://app?vid=417e1a1a-90e7-462f-8f4d-eff9627ac828"},"vehicle_type_id":"4","last_reported":1692447031,"current_range_meters":20800,"station_id":"ce4bgop2rcd13ifvqc1g","pricing_plan_id":"free"},{"bike_id":"dd10da43-d876-4bc9-b5ef-550221210b59","system_id":"levelo_inurba_marseille","lat":43.297774,"lon":5.370875,"is_reserved":false,"is_disabled":false,"rental_uris":{"android":"levelo://app?vid=dd10da43-d876-4bc9-b5ef-550221210b59","ios":"levelo://app?vid=dd10da43-d876-4bc9-b5ef-550221210b59"},"vehicle_type_id":"4","last_reported":1692447031,"current_range_meters":20400,"station_id":"ce4bgop2rcd13ifvqc1g","pricing_plan_id":"free"},{"bike_id":"6f5bd85c-6693-4b73-9328-8fc0e3607be2","system_id":"levelo_inurba_marseille","lat":43.297774,"lon":5.370875,"is_reserved":false,"is_disabled":false,"rental_uris":{"android":"levelo://app?vid=6f5bd85c-6693-4b73-9328-8fc0e3607be2","ios":"levelo://app?vid=6f5bd85c-6693-4b73-9328-8fc0e3607be2"},"vehicle_type_id":"4","last_reported":1692447031,"current_range_meters":23600,"station_id":"ce4bgop2rcd13ifvqc1g","pricing_plan_id":"free"},{"bike_id":"d6441a67-252c-4621-9f65-3cf74cdf4b82","system_id":"levelo_inurba_marseille","lat":43.297774,"lon":5.370875,"is_reserved":false,"is_disabled":false,"rental_uris":{"android":"levelo://app?vid=d6441a67-252c-4621-9f65-3cf74cdf4b82","ios":"levelo://app?vid=d6441a67-252c-4621-9f65-3cf74cdf4b82"},"vehicle_type_id":"4","last_reported":1692447031,"current_range_meters":22000,"station_id":"ce4bgop2rcd13ifvqc1g","pricing_plan_id":"free"},{"bike_id":"f802e555-728c-4d4c-9fe0-cd7fecc4152a","system_id":"levelo_inurba_marseille","lat":43.297774,"lon":5.370875,"is_reserved":false,"is_disabled":false,"rental_uris":{"android":"levelo://app?vid=f802e555-728c-4d4c-9fe0-cd7fecc4152a","ios":"levelo://app?vid=f802e555-728c-4d4c-9fe0-cd7fecc4152a"},"vehicle_type_id":"4","last_reported":1692447031,"current_range_meters":6400,"station_id":"ce4bgop2rcd13ifvqc1g","pricing_plan_id":"free"},{"bike_id":"c5433f32-2762-4cb4-8d68-4ccdf93d0761","system_id":"levelo_inurba_marseille","lat":43.297774,"lon":5.370875,"is_reserved":false,"is_disabled":false,"rental_uris":{"android":"levelo://app?vid=c5433f32-2762-4cb4-8d68-4ccdf93d0761","ios":"levelo://app?vid=c5433f32-2762-4cb4-8d68-4ccdf93d0761"},"vehicle_type_id":"4","last_reported":1692447031,"current_range_meters":10800,"station_id":"ce4bgop2rcd13ifvqc1g","pricing_plan_id":"free"},{"bike_id":"06720bee-9121-48f1-a42d-3ea9978e6c09","system_id":"levelo_inurba_marseille","lat":43.297774,"lon":5.370875,"is_reserved":false,"is_disabled":false,"rental_uris":{"android":"levelo://app?vid=06720bee-9121-48f1-a42d-3ea9978e6c09","ios":"levelo://app?vid=06720bee-9121-48f1-a42d-3ea9978e6c09"},"vehicle_type_id":"4","last_reported":1692447031,"current_range_meters":25600,"station_id":"ce4bgop2rcd13ifvqc1g","pricing_plan_id":"free"},{"bike_id":"1b980555-d968-4010-9e58-8aaa96e9eae0","system_id":"levelo_inurba_marseille","lat":43.32289,"lon":5.38265,"is_reserved":false,"is_disabled":false,"rental_uris":{"android":"levelo://app?vid=1b980555-d968-4010-9e58-8aaa96e9eae0","ios":"levelo://app?vid=1b980555-d968-4010-9e58-8aaa96e9eae0"},"vehicle_type_id":"4","last_reported":1692447031,"current_range_meters":31200,"station_id":"ce4bhr12rcd13ifvqhqg","pricing_plan_id":"free"},{"bike_id":"5b5c8cae-b425-4976-9ba8-5ae205664d6b","system_id":"levelo_inurba_marseille","lat":43.32291,"lon":5.38269,"is_reserved":false,"is_disabled":false,"rental_uris":{"android":"levelo://app?vid=5b5c8cae-b425-4976-9ba8-5ae205664d6b","ios":"levelo://app?vid=5b5c8cae-b425-4976-9ba8-5ae205664d6b"},"vehicle_type_id":"4","last_reported":1692447031,"current_range_meters":19600,"station_id":"ce4bhr12rcd13ifvqhqg","pricing_plan_id":"free"},{"bike_id":"673200d6-9c00-4797-bd65-06254571f6fe","system_id":"levelo_inurba_marseille","lat":43.32288,"lon":5.38274,"is_reserved":false,"is_disabled":false,"rental_uris":{"android":"levelo://app?vid=673200d6-9c00-4797-bd65-06254571f6fe","ios":"levelo://app?vid=673200d6-9c00-4797-bd65-06254571f6fe"},"vehicle_type_id":"4","last_reported":1692447031,"current_range_meters":24000,"station_id":"ce4bhr12rcd13ifvqhqg","pricing_plan_id":"free"},{"bike_id":"5f91fc7d-0833-4a7c-a0d8-21ec0ad5455a","system_id":"levelo_inurba_marseille","lat":43.32294,"lon":5.38268,"is_reserved":false,"is_disabled":false,"rental_uris":{"android":"levelo://app?vid=5f91fc7d-0833-4a7c-a0d8-21ec0ad5455a","ios":"levelo://app?vid=5f91fc7d-0833-4a7c-a0d8-21ec0ad5455a"},"vehicle_type_id":"4","last_reported":1692447031,"current_range_meters":21600,"station_id":"ce4bhr12rcd13ifvqhqg","pricing_plan_id":"free"},{"bike_id":"20066552-063e-4d3e-9e10-e0e8a6d2c838","system_id":"levelo_inurba_marseille","lat":43.32285,"lon":5.38279,"is_reserved":false,"is_disabled":false,"rental_uris":{"android":"levelo://app?vid=20066552-063e-4d3e-9e10-e0e8a6d2c838","ios":"levelo://app?vid=20066552-063e-4d3e-9e10-e0e8a6d2c838"},"vehicle_type_id":"4","last_reported":1692447031,"current_range_meters":30800,"station_id":"ce4bhr12rcd13ifvqhqg","pricing_plan_id":"free"},{"bike_id":"648dadf8-ff22-438c-bfb7-5c83267bdf3f","system_id":"levelo_inurba_marseille","lat":43.32293,"lon":5.38273,"is_reserved":false,"is_disabled":false,"rental_uris":{"android":"levelo://app?vid=648dadf8-ff22-438c-bfb7-5c83267bdf3f","ios":"levelo://app?vid=648dadf8-ff22-438c-bfb7-5c83267bdf3f"},"vehicle_type_id":"4","last_reported":1692447031,"current_range_meters":31200,"station_id":"ce4bhr12rcd13ifvqhqg","pricing_plan_id":"free"},{"bike_id":"5d68969b-f710-470b-9b0e-ca0bb5c0b34e","system_id":"levelo_inurba_marseille","lat":43.297774,"lon":5.370875,"is_reserved":false,"is_disabled":false,"rental_uris":{"android":"levelo://app?vid=5d68969b-f710-470b-9b0e-ca0bb5c0b34e","ios":"levelo://app?vid=5d68969b-f710-470b-9b0e-ca0bb5c0b34e"},"vehicle_type_id":"4","last_reported":1692447031,"current_range_meters":20000,"station_id":"ce4bgop2rcd13ifvqc1g","pricing_plan_id":"free"},{"bike_id":"b9784bc4-a1f4-4e7b-a996-3746dcc4c656","system_id":"levelo_inurba_marseille","lat":43.32292,"lon":5.38282,"is_reserved":false,"is_disabled":false,"rental_uris":{"android":"levelo://app?vid=b9784bc4-a1f4-4e7b-a996-3746dcc4c656","ios":"levelo://app?vid=b9784bc4-a1f4-4e7b-a996-3746dcc4c656"},"vehicle_type_id":"4","last_reported":1692447031,"current_range_meters":10800,"station_id":"ce4bhr12rcd13ifvqhqg","pricing_plan_id":"free"},{"bike_id":"a1f7b084-f437-4e0c-8b20-334f54c48d59","system_id":"levelo_inurba_marseille","lat":43.32295,"lon":5.38279,"is_reserved":false,"is_disabled":false,"rental_uris":{"android":"levelo://app?vid=a1f7b084-f437-4e0c-8b20-334f54c48d59","ios":"levelo://app?vid=a1f7b084-f437-4e0c-8b20-334f54c48d59"},"vehicle_type_id":"4","last_reported":1692447031,"current_range_meters":19600,"station_id":"ce4bhr12rcd13ifvqhqg","pricing_plan_id":"free"},{"bike_id":"6dfc19db-e27d-4bb1-81f9-01c98d1fcdf8","system_id":"levelo_inurba_marseille","lat":43.32827,"lon":5.36684,"is_reserved":false,"is_disabled":false,"rental_uris":{"android":"levelo://app?vid=6dfc19db-e27d-4bb1-81f9-01c98d1fcdf8","ios":"levelo://app?vid=6dfc19db-e27d-4bb1-81f9-01c98d1fcdf8"},"vehicle_type_id":"4","last_reported":1692447031,"current_range_meters":5600,"station_id":"ce4bhs92rcd13ifvqi0g","pricing_plan_id":"free"},{"bike_id":"dfeeac75-820a-4455-804e-e17b713a5fe3","system_id":"levelo_inurba_marseille","lat":43.32832,"lon":5.36685,"is_reserved":false,"is_disabled":false,"rental_uris":{"android":"levelo://app?vid=dfeeac75-820a-4455-804e-e17b713a5fe3","ios":"levelo://app?vid=dfeeac75-820a-4455-804e-e17b713a5fe3"},"vehicle_type_id":"4","last_reported":1692447031,"current_range_meters":2000,"station_id":"ce4bhs92rcd13ifvqi0g","pricing_plan_id":"free"},{"bike_id":"e3a21d07-f446-4608-85be-12a81574bffc","system_id":"levelo_inurba_marseille","lat":43.32832,"lon":5.36674,"is_reserved":false,"is_disabled":false,"rental_uris":{"android":"levelo://app?vid=e3a21d07-f446-4608-85be-12a81574bffc","ios":"levelo://app?vid=e3a21d07-f446-4608-85be-12a81574bffc"},"vehicle_type_id":"4","last_reported":1692447031,"current_range_meters":16800,"station_id":"ce4bhs92rcd13ifvqi0g","pricing_plan_id":"free"},{"bike_id":"39e5c684-2288-4661-81ba-eea1cd4443ac","system_id":"levelo_inurba_marseille","lat":43.297163,"lon":5.365866,"is_reserved":false,"is_disabled":false,"rental_uris":{"android":"levelo://app?vid=39e5c684-2288-4661-81ba-eea1cd4443ac","ios":"levelo://app?vid=39e5c684-2288-4661-81ba-eea1cd4443ac"},"vehicle_type_id":"4","last_reported":1692447031,"current_range_meters":20800,"station_id":"ce4bgn12rcd13ifvqbt0","pricing_plan_id":"free"},{"bike_id":"47abcbda-c335-4bea-8a73-27c9a1025b2c","system_id":"levelo_inurba_marseille","lat":43.297163,"lon":5.365866,"is_reserved":false,"is_disabled":false,"rental_uris":{"android":"levelo://app?vid=47abcbda-c335-4bea-8a73-27c9a1025b2c","ios":"levelo://app?vid=47abcbda-c335-4bea-8a73-27c9a1025b2c"},"vehicle_type_id":"4","last_reported":1692447031,"current_range_meters":21600,"station_id":"ce4bgn12rcd13ifvqbt0","pricing_plan_id":"free"},{"bike_id":"1c274c58-4357-4996-b95f-f7ba3bfb776c","system_id":"levelo_inurba_marseille","lat":43.32834,"lon":5.36681,"is_reserved":false,"is_disabled":false,"rental_uris":{"android":"levelo://app?vid=1c274c58-4357-4996-b95f-f7ba3bfb776c","ios":"levelo://app?vid=1c274c58-4357-4996-b95f-f7ba3bfb776c"},"vehicle_type_id":"4","last_reported":1692447031,"current_range_meters":12400,"station_id":"ce4bhs92rcd13ifvqi0g","pricing_plan_id":"free"},{"bike_id":"d1007c72-0165-4719-b3f6-51f6518284cf","system_id":"levelo_inurba_marseille","lat":43.297163,"lon":5.365866,"is_reserved":false,"is_disabled":false,"rental_uris":{"android":"levelo://app?vid=d1007c72-0165-4719-b3f6-51f6518284cf","ios":"levelo://app?vid=d1007c72-0165-4719-b3f6-51f6518284cf"},"vehicle_type_id":"4","last_reported":1692447031,"current_range_meters":24800,"station_id":"ce4bgn12rcd13ifvqbt0","pricing_plan_id":"free"},{"bike_id":"50889f5a-a21d-40a5-9ba7-41f06036bd91","system_id":"levelo_inurba_marseille","lat":43.297163,"lon":5.365866,"is_reserved":false,"is_disabled":false,"rental_uris":{"android":"levelo://app?vid=50889f5a-a21d-40a5-9ba7-41f06036bd91","ios":"levelo://app?vid=50889f5a-a21d-40a5-9ba7-41f06036bd91"},"vehicle_type_id":"4","last_reported":1692447031,"current_range_meters":30400,"station_id":"ce4bgn12rcd13ifvqbt0","pricing_plan_id":"free"},{"bike_id":"dd789220-e7b5-42c1-b9dc-dc4243148021","system_id":"levelo_inurba_marseille","lat":43.297163,"lon":5.365866,"is_reserved":false,"is_disabled":false,"rental_uris":{"android":"levelo://app?vid=dd789220-e7b5-42c1-b9dc-dc4243148021","ios":"levelo://app?vid=dd789220-e7b5-42c1-b9dc-dc4243148021"},"vehicle_type_id":"4","last_reported":1692447031,"current_range_meters":31200,"station_id":"ce4bgn12rcd13ifvqbt0","pricing_plan_id":"free"},{"bike_id":"df56bd85-298a-412f-8862-e95311e89d0a","system_id":"levelo_inurba_marseille","lat":43.297163,"lon":5.365866,"is_reserved":false,"is_disabled":false,"rental_uris":{"android":"levelo://app?vid=df56bd85-298a-412f-8862-e95311e89d0a","ios":"levelo://app?vid=df56bd85-298a-412f-8862-e95311e89d0a"},"vehicle_type_id":"4","last_reported":1692447031,"current_range_meters":30000,"station_id":"ce4bgn12rcd13ifvqbt0","pricing_plan_id":"free"},{"bike_id":"65428aee-cd08-43e0-b513-083a4bb5b665","system_id":"levelo_inurba_marseille","lat":43.297163,"lon":5.365866,"is_reserved":false,"is_disabled":false,"rental_uris":{"android":"levelo://app?vid=65428aee-cd08-43e0-b513-083a4bb5b665","ios":"levelo://app?vid=65428aee-cd08-43e0-b513-083a4bb5b665"},"vehicle_type_id":"4","last_reported":1692447031,"current_range_meters":31200,"station_id":"ce4bgn12rcd13ifvqbt0","pricing_plan_id":"free"},{"bike_id":"7f5c1f51-04ed-4563-91af-e1a361b4b6eb","system_id":"levelo_inurba_marseille","lat":43.297163,"lon":5.365866,"is_reserved":false,"is_disabled":false,"rental_uris":{"android":"levelo://app?vid=7f5c1f51-04ed-4563-91af-e1a361b4b6eb","ios":"levelo://app?vid=7f5c1f51-04ed-4563-91af-e1a361b4b6eb"},"vehicle_type_id":"4","last_reported":1692447031,"current_range_meters":30800,"station_id":"ce4bgn12rcd13ifvqbt0","pricing_plan_id":"free"},{"bike_id":"bb155e93-116e-494a-9911-2df351c7dae8","system_id":"levelo_inurba_marseille","lat":43.296131,"lon":5.370791,"is_reserved":false,"is_disabled":false,"rental_uris":{"android":"levelo://app?vid=bb155e93-116e-494a-9911-2df351c7dae8","ios":"levelo://app?vid=bb155e93-116e-494a-9911-2df351c7dae8"},"vehicle_type_id":"4","last_reported":1692447031,"current_range_meters":30000,"station_id":"ce4bgnh2rcd13ifvqc0g","pricing_plan_id":"free"},{"bike_id":"25feceae-2eaa-44e9-a10c-9f1c0150dbe5","system_id":"levelo_inurba_marseille","lat":43.296129,"lon":5.370777,"is_reserved":false,"is_disabled":false,"rental_uris":{"android":"levelo://app?vid=25feceae-2eaa-44e9-a10c-9f1c0150dbe5","ios":"levelo://app?vid=25feceae-2eaa-44e9-a10c-9f1c0150dbe5"},"vehicle_type_id":"4","last_reported":1692447031,"current_range_meters":31200,"station_id":"ce4bgnh2rcd13ifvqc0g","pricing_plan_id":"free"},{"bike_id":"91a1bc37-e958-412f-acc4-46714fab8cc9","system_id":"levelo_inurba_marseille","lat":43.29573,"lon":5.367355,"is_reserved":false,"is_disabled":false,"rental_uris":{"android":"levelo://app?vid=91a1bc37-e958-412f-acc4-46714fab8cc9","ios":"levelo://app?vid=91a1bc37-e958-412f-acc4-46714fab8cc9"},"vehicle_type_id":"4","last_reported":1692447031,"current_range_meters":26800,"station_id":"ce4bgph2rcd13ifvqc2g","pricing_plan_id":"free"},{"bike_id":"e0a03283-196a-45d9-b6ab-c62bec1f9ff7","system_id":"levelo_inurba_marseille","lat":43.29573,"lon":5.367355,"is_reserved":false,"is_disabled":false,"rental_uris":{"android":"levelo://app?vid=e0a03283-196a-45d9-b6ab-c62bec1f9ff7","ios":"levelo://app?vid=e0a03283-196a-45d9-b6ab-c62bec1f9ff7"},"vehicle_type_id":"4","last_reported":1692447031,"current_range_meters":17200,"station_id":"ce4bgph2rcd13ifvqc2g","pricing_plan_id":"free"},{"bike_id":"1879bd29-3e7d-4631-be5b-114c9d345f95","system_id":"levelo_inurba_marseille","lat":43.296129,"lon":5.370777,"is_reserved":false,"is_disabled":false,"rental_uris":{"android":"levelo://app?vid=1879bd29-3e7d-4631-be5b-114c9d345f95","ios":"levelo://app?vid=1879bd29-3e7d-4631-be5b-114c9d345f95"},"vehicle_type_id":"4","last_reported":1692447031,"current_range_meters":14800,"station_id":"ce4bgnh2rcd13ifvqc0g","pricing_plan_id":"free"},{"bike_id":"222d9f61-3575-477d-aefe-e4b90afe37c3","system_id":"levelo_inurba_marseille","lat":43.29573,"lon":5.367355,"is_reserved":false,"is_disabled":false,"rental_uris":{"android":"levelo://app?vid=222d9f61-3575-477d-aefe-e4b90afe37c3","ios":"levelo://app?vid=222d9f61-3575-477d-aefe-e4b90afe37c3"},"vehicle_type_id":"4","last_reported":1692447031,"current_range_meters":31200,"station_id":"ce4bgph2rcd13ifvqc2g","pricing_plan_id":"free"},{"bike_id":"b5a83e57-8b2f-4b07-9a35-b3fe59126f48","system_id":"levelo_inurba_marseille","lat":43.29573,"lon":5.367355,"is_reserved":false,"is_disabled":false,"rental_uris":{"android":"levelo://app?vid=b5a83e57-8b2f-4b07-9a35-b3fe59126f48","ios":"levelo://app?vid=b5a83e57-8b2f-4b07-9a35-b3fe59126f48"},"vehicle_type_id":"4","last_reported":1692447031,"current_range_meters":30000,"station_id":"ce4bgph2rcd13ifvqc2g","pricing_plan_id":"free"},{"bike_id":"c4d01bd4-8260-40e0-84d4-1488dcdb5deb","system_id":"levelo_inurba_marseille","lat":43.29573,"lon":5.367355,"is_reserved":false,"is_disabled":false,"rental_uris":{"android":"levelo://app?vid=c4d01bd4-8260-40e0-84d4-1488dcdb5deb","ios":"levelo://app?vid=c4d01bd4-8260-40e0-84d4-1488dcdb5deb"},"vehicle_type_id":"4","last_reported":1692447031,"current_range_meters":29200,"station_id":"ce4bgph2rcd13ifvqc2g","pricing_plan_id":"free"},{"bike_id":"d3139180-8ba9-4c91-b6e4-8baae3c22113","system_id":"levelo_inurba_marseille","lat":43.296131,"lon":5.370773,"is_reserved":false,"is_disabled":false,"rental_uris":{"android":"levelo://app?vid=d3139180-8ba9-4c91-b6e4-8baae3c22113","ios":"levelo://app?vid=d3139180-8ba9-4c91-b6e4-8baae3c22113"},"vehicle_type_id":"4","last_reported":1692447031,"current_range_meters":31200,"station_id":"ce4bgnh2rcd13ifvqc0g","pricing_plan_id":"free"},{"bike_id":"0f7ae3d7-9eac-46f1-aece-27d0627fbb33","system_id":"levelo_inurba_marseille","lat":43.29573,"lon":5.367355,"is_reserved":false,"is_disabled":false,"rental_uris":{"android":"levelo://app?vid=0f7ae3d7-9eac-46f1-aece-27d0627fbb33","ios":"levelo://app?vid=0f7ae3d7-9eac-46f1-aece-27d0627fbb33"},"vehicle_type_id":"4","last_reported":1692447031,"current_range_meters":31600,"station_id":"ce4bgph2rcd13ifvqc2g","pricing_plan_id":"free"},{"bike_id":"78f552f4-4983-4cdc-acf9-de64f318e0e8","system_id":"levelo_inurba_marseille","lat":43.29573,"lon":5.367355,"is_reserved":false,"is_disabled":false,"rental_uris":{"android":"levelo://app?vid=78f552f4-4983-4cdc-acf9-de64f318e0e8","ios":"levelo://app?vid=78f552f4-4983-4cdc-acf9-de64f318e0e8"},"vehicle_type_id":"4","last_reported":1692447031,"current_range_meters":16000,"station_id":"ce4bgph2rcd13ifvqc2g","pricing_plan_id":"free"},{"bike_id":"40aed095-fdad-4d0a-befa-c13239591456","system_id":"levelo_inurba_marseille","lat":43.299028,"lon":5.381509,"is_reserved":false,"is_disabled":false,"rental_uris":{"android":"levelo://app?vid=40aed095-fdad-4d0a-befa-c13239591456","ios":"levelo://app?vid=40aed095-fdad-4d0a-befa-c13239591456"},"vehicle_type_id":"4","last_reported":1692447031,"current_range_meters":26000,"station_id":"ce4bgj12rcd13ifvqbc0","pricing_plan_id":"free"},{"bike_id":"0e246f55-a993-4c01-81e9-0541f2e5fcf7","system_id":"levelo_inurba_marseille","lat":43.299028,"lon":5.381509,"is_reserved":false,"is_disabled":false,"rental_uris":{"android":"levelo://app?vid=0e246f55-a993-4c01-81e9-0541f2e5fcf7","ios":"levelo://app?vid=0e246f55-a993-4c01-81e9-0541f2e5fcf7"},"vehicle_type_id":"4","last_reported":1692447031,"current_range_meters":21600,"station_id":"ce4bgj12rcd13ifvqbc0","pricing_plan_id":"free"},{"bike_id":"79ce07a6-e657-47fb-8e6e-79699c4d99e8","system_id":"levelo_inurba_marseille","lat":43.296935,"lon":5.376544,"is_reserved":false,"is_disabled":false,"rental_uris":{"android":"levelo://app?vid=79ce07a6-e657-47fb-8e6e-79699c4d99e8","ios":"levelo://app?vid=79ce07a6-e657-47fb-8e6e-79699c4d99e8"},"vehicle_type_id":"4","last_reported":1692447031,"current_range_meters":22400,"station_id":"ce4bgkh2rcd13ifvqbl0","pricing_plan_id":"free"},{"bike_id":"e32546dc-9185-484b-aa88-675890070969","system_id":"levelo_inurba_marseille","lat":43.299028,"lon":5.381509,"is_reserved":false,"is_disabled":false,"rental_uris":{"android":"levelo://app?vid=e32546dc-9185-484b-aa88-675890070969","ios":"levelo://app?vid=e32546dc-9185-484b-aa88-675890070969"},"vehicle_type_id":"4","last_reported":1692447031,"current_range_meters":13200,"station_id":"ce4bgj12rcd13ifvqbc0","pricing_plan_id":"free"},{"bike_id":"2f32d7c5-19cf-44e3-a7d4-a6477b45ef6d","system_id":"levelo_inurba_marseille","lat":43.309589,"lon":5.390258,"is_reserved":false,"is_disabled":false,"rental_uris":{"android":"levelo://app?vid=2f32d7c5-19cf-44e3-a7d4-a6477b45ef6d","ios":"levelo://app?vid=2f32d7c5-19cf-44e3-a7d4-a6477b45ef6d"},"vehicle_type_id":"4","last_reported":1692447031,"current_range_meters":26000,"station_id":"ce4bgup2rcd13ifvqco0","pricing_plan_id":"free"},{"bike_id":"93ac3613-9398-4de3-90fe-233c439bdef8","system_id":"levelo_inurba_marseille","lat":43.309589,"lon":5.390258,"is_reserved":false,"is_disabled":false,"rental_uris":{"android":"levelo://app?vid=93ac3613-9398-4de3-90fe-233c439bdef8","ios":"levelo://app?vid=93ac3613-9398-4de3-90fe-233c439bdef8"},"vehicle_type_id":"4","last_reported":1692447031,"current_range_meters":17600,"station_id":"ce4bgup2rcd13ifvqco0","pricing_plan_id":"free"},{"bike_id":"fd3a6f2a-7c40-4f8e-8397-96d0e14473d0","system_id":"levelo_inurba_marseille","lat":43.30955,"lon":5.39052,"is_reserved":false,"is_disabled":false,"rental_uris":{"android":"levelo://app?vid=fd3a6f2a-7c40-4f8e-8397-96d0e14473d0","ios":"levelo://app?vid=fd3a6f2a-7c40-4f8e-8397-96d0e14473d0"},"vehicle_type_id":"4","last_reported":1692447031,"current_range_meters":25600,"station_id":"ce4bgup2rcd13ifvqco0","pricing_plan_id":"free"},{"bike_id":"0b98ad8d-2834-43a9-a4ee-1bd0ca3f53e3","system_id":"levelo_inurba_marseille","lat":43.298037,"lon":5.381066,"is_reserved":false,"is_disabled":false,"rental_uris":{"android":"levelo://app?vid=0b98ad8d-2834-43a9-a4ee-1bd0ca3f53e3","ios":"levelo://app?vid=0b98ad8d-2834-43a9-a4ee-1bd0ca3f53e3"},"vehicle_type_id":"4","last_reported":1692447031,"current_range_meters":18800,"station_id":"ce4bgip2rcd13ifvqbb0","pricing_plan_id":"free"},{"bike_id":"a4df99ce-0488-49dd-a888-94686f562e88","system_id":"levelo_inurba_marseille","lat":43.29579,"lon":5.37519,"is_reserved":false,"is_disabled":false,"rental_uris":{"android":"levelo://app?vid=a4df99ce-0488-49dd-a888-94686f562e88","ios":"levelo://app?vid=a4df99ce-0488-49dd-a888-94686f562e88"},"vehicle_type_id":"4","last_reported":1692447031,"current_range_meters":28800,"station_id":"ce4bgh92rcd13ifvqb50","pricing_plan_id":"free"},{"bike_id":"29e3b446-1e60-4acb-a004-e475b43938fc","system_id":"levelo_inurba_marseille","lat":43.296263,"lon":5.377094,"is_reserved":false,"is_disabled":false,"rental_uris":{"android":"levelo://app?vid=29e3b446-1e60-4acb-a004-e475b43938fc","ios":"levelo://app?vid=29e3b446-1e60-4acb-a004-e475b43938fc"},"vehicle_type_id":"4","last_reported":1692447031,"current_range_meters":31200,"station_id":"ce4bgi92rcd13ifvqb90","pricing_plan_id":"free"},{"bike_id":"142f14a3-2397-4bdc-9383-2629b64ddc60","system_id":"levelo_inurba_marseille","lat":43.296263,"lon":5.377094,"is_reserved":false,"is_disabled":false,"rental_uris":{"android":"levelo://app?vid=142f14a3-2397-4bdc-9383-2629b64ddc60","ios":"levelo://app?vid=142f14a3-2397-4bdc-9383-2629b64ddc60"},"vehicle_type_id":"4","last_reported":1692447031,"current_range_meters":31200,"station_id":"ce4bgi92rcd13ifvqb90","pricing_plan_id":"free"},{"bike_id":"5c7c0099-0864-4ed8-9c73-54efeff5b8b5","system_id":"levelo_inurba_marseille","lat":43.296263,"lon":5.377094,"is_reserved":false,"is_disabled":false,"rental_uris":{"android":"levelo://app?vid=5c7c0099-0864-4ed8-9c73-54efeff5b8b5","ios":"levelo://app?vid=5c7c0099-0864-4ed8-9c73-54efeff5b8b5"},"vehicle_type_id":"4","last_reported":1692447031,"current_range_meters":4000,"station_id":"ce4bgi92rcd13ifvqb90","pricing_plan_id":"free"},{"bike_id":"5a602daf-aaba-49ee-8891-f81a69dd9efd","system_id":"levelo_inurba_marseille","lat":43.295279,"lon":5.375048,"is_reserved":false,"is_disabled":false,"rental_uris":{"android":"levelo://app?vid=5a602daf-aaba-49ee-8891-f81a69dd9efd","ios":"levelo://app?vid=5a602daf-aaba-49ee-8891-f81a69dd9efd"},"vehicle_type_id":"4","last_reported":1692447031,"current_range_meters":30800,"station_id":"ce4bgkp2rcd13ifvqbmg","pricing_plan_id":"free"},{"bike_id":"55f08f4d-333e-4077-9882-16e72e12ddbf","system_id":"levelo_inurba_marseille","lat":43.32362,"lon":5.38884,"is_reserved":false,"is_disabled":false,"rental_uris":{"android":"levelo://app?vid=55f08f4d-333e-4077-9882-16e72e12ddbf","ios":"levelo://app?vid=55f08f4d-333e-4077-9882-16e72e12ddbf"},"vehicle_type_id":"4","last_reported":1692447031,"current_range_meters":28400,"station_id":"ce4bhqp2rcd13ifvqhog","pricing_plan_id":"free"},{"bike_id":"a97f77a2-1520-4bfc-9df0-0f9c62851caa","system_id":"levelo_inurba_marseille","lat":43.32367,"lon":5.3888,"is_reserved":false,"is_disabled":false,"rental_uris":{"android":"levelo://app?vid=a97f77a2-1520-4bfc-9df0-0f9c62851caa","ios":"levelo://app?vid=a97f77a2-1520-4bfc-9df0-0f9c62851caa"},"vehicle_type_id":"4","last_reported":1692447031,"current_range_meters":28800,"station_id":"ce4bhqp2rcd13ifvqhog","pricing_plan_id":"free"},{"bike_id":"21fcea45-e491-4a85-bcbf-bf5cd0b62ccf","system_id":"levelo_inurba_marseille","lat":43.32363,"lon":5.38887,"is_reserved":false,"is_disabled":false,"rental_uris":{"android":"levelo://app?vid=21fcea45-e491-4a85-bcbf-bf5cd0b62ccf","ios":"levelo://app?vid=21fcea45-e491-4a85-bcbf-bf5cd0b62ccf"},"vehicle_type_id":"4","last_reported":1692447031,"current_range_meters":31200,"station_id":"ce4bhqp2rcd13ifvqhog","pricing_plan_id":"free"},{"bike_id":"207f2f90-5396-4fe6-bd95-d438ab16c0b7","system_id":"levelo_inurba_marseille","lat":43.32367,"lon":5.388836,"is_reserved":false,"is_disabled":false,"rental_uris":{"android":"levelo://app?vid=207f2f90-5396-4fe6-bd95-d438ab16c0b7","ios":"levelo://app?vid=207f2f90-5396-4fe6-bd95-d438ab16c0b7"},"vehicle_type_id":"4","last_reported":1692447031,"current_range_meters":30400,"station_id":"ce4bhqp2rcd13ifvqhog","pricing_plan_id":"free"},{"bike_id":"d49c7be8-2f16-4455-8835-7143b891d27c","system_id":"levelo_inurba_marseille","lat":43.32367,"lon":5.388836,"is_reserved":false,"is_disabled":false,"rental_uris":{"android":"levelo://app?vid=d49c7be8-2f16-4455-8835-7143b891d27c","ios":"levelo://app?vid=d49c7be8-2f16-4455-8835-7143b891d27c"},"vehicle_type_id":"4","last_reported":1692447031,"current_range_meters":27200,"station_id":"ce4bhqp2rcd13ifvqhog","pricing_plan_id":"free"},{"bike_id":"03f2098f-b50c-4ca4-a765-8806d474ecf2","system_id":"levelo_inurba_marseille","lat":43.32364,"lon":5.38891,"is_reserved":false,"is_disabled":false,"rental_uris":{"android":"levelo://app?vid=03f2098f-b50c-4ca4-a765-8806d474ecf2","ios":"levelo://app?vid=03f2098f-b50c-4ca4-a765-8806d474ecf2"},"vehicle_type_id":"4","last_reported":1692447031,"current_range_meters":9600,"station_id":"ce4bhqp2rcd13ifvqhog","pricing_plan_id":"free"},{"bike_id":"3ca3f621-3ed1-46b4-b4f6-37a71d187fa3","system_id":"levelo_inurba_marseille","lat":43.32367,"lon":5.388836,"is_reserved":false,"is_disabled":false,"rental_uris":{"android":"levelo://app?vid=3ca3f621-3ed1-46b4-b4f6-37a71d187fa3","ios":"levelo://app?vid=3ca3f621-3ed1-46b4-b4f6-37a71d187fa3"},"vehicle_type_id":"4","last_reported":1692447031,"current_range_meters":27200,"station_id":"ce4bhqp2rcd13ifvqhog","pricing_plan_id":"free"},{"bike_id":"ecb24715-729b-4905-a497-1ddcefbd8f59","system_id":"levelo_inurba_marseille","lat":43.32363,"lon":5.38895,"is_reserved":false,"is_disabled":false,"rental_uris":{"android":"levelo://app?vid=ecb24715-729b-4905-a497-1ddcefbd8f59","ios":"levelo://app?vid=ecb24715-729b-4905-a497-1ddcefbd8f59"},"vehicle_type_id":"4","last_reported":1692447031,"current_range_meters":17200,"station_id":"ce4bhqp2rcd13ifvqhog","pricing_plan_id":"free"},{"bike_id":"0126f869-77bb-4690-a14f-53e2dd9d4689","system_id":"levelo_inurba_marseille","lat":43.32372,"lon":5.38887,"is_reserved":false,"is_disabled":false,"rental_uris":{"android":"levelo://app?vid=0126f869-77bb-4690-a14f-53e2dd9d4689","ios":"levelo://app?vid=0126f869-77bb-4690-a14f-53e2dd9d4689"},"vehicle_type_id":"4","last_reported":1692447031,"current_range_meters":26400,"station_id":"ce4bhqp2rcd13ifvqhog","pricing_plan_id":"free"},{"bike_id":"6b6cba89-d2b8-44bb-8454-5df08cf65f67","system_id":"levelo_inurba_marseille","lat":43.32367,"lon":5.388836,"is_reserved":false,"is_disabled":false,"rental_uris":{"android":"levelo://app?vid=6b6cba89-d2b8-44bb-8454-5df08cf65f67","ios":"levelo://app?vid=6b6cba89-d2b8-44bb-8454-5df08cf65f67"},"vehicle_type_id":"4","last_reported":1692447031,"current_range_meters":13200,"station_id":"ce4bhqp2rcd13ifvqhog","pricing_plan_id":"free"},{"bike_id":"59c512de-e466-4a19-a2d7-10980a0c4f9a","system_id":"levelo_inurba_marseille","lat":43.29601,"lon":5.381084,"is_reserved":false,"is_disabled":false,"rental_uris":{"android":"levelo://app?vid=59c512de-e466-4a19-a2d7-10980a0c4f9a","ios":"levelo://app?vid=59c512de-e466-4a19-a2d7-10980a0c4f9a"},"vehicle_type_id":"4","last_reported":1692447031,"current_range_meters":16800,"station_id":"ce4bgl12rcd13ifvqbo0","pricing_plan_id":"free"},{"bike_id":"e57784fe-2452-4b4e-8bb4-c9b103269c0d","system_id":"levelo_inurba_marseille","lat":43.29602,"lon":5.381084,"is_reserved":false,"is_disabled":false,"rental_uris":{"android":"levelo://app?vid=e57784fe-2452-4b4e-8bb4-c9b103269c0d","ios":"levelo://app?vid=e57784fe-2452-4b4e-8bb4-c9b103269c0d"},"vehicle_type_id":"4","last_reported":1692447031,"current_range_meters":29200,"station_id":"ce4bgl12rcd13ifvqbo0","pricing_plan_id":"free"},{"bike_id":"cc73e835-c9aa-4dd0-888b-4a28bb363ba9","system_id":"levelo_inurba_marseille","lat":43.29602,"lon":5.381084,"is_reserved":false,"is_disabled":false,"rental_uris":{"android":"levelo://app?vid=cc73e835-c9aa-4dd0-888b-4a28bb363ba9","ios":"levelo://app?vid=cc73e835-c9aa-4dd0-888b-4a28bb363ba9"},"vehicle_type_id":"4","last_reported":1692447031,"current_range_meters":31200,"station_id":"ce4bgl12rcd13ifvqbo0","pricing_plan_id":"free"},{"bike_id":"ec35e7f6-6ef5-4fdc-86f6-141193903077","system_id":"levelo_inurba_marseille","lat":43.29307,"lon":5.37169,"is_reserved":false,"is_disabled":false,"rental_uris":{"android":"levelo://app?vid=ec35e7f6-6ef5-4fdc-86f6-141193903077","ios":"levelo://app?vid=ec35e7f6-6ef5-4fdc-86f6-141193903077"},"vehicle_type_id":"4","last_reported":1692447031,"current_range_meters":16400,"station_id":"ce4bgh92rcd13ifvqb40","pricing_plan_id":"free"},{"bike_id":"9eaeb54b-3f5e-4e16-a54f-955e2244d410","system_id":"levelo_inurba_marseille","lat":43.29276,"lon":5.36859,"is_reserved":false,"is_disabled":false,"rental_uris":{"android":"levelo://app?vid=9eaeb54b-3f5e-4e16-a54f-955e2244d410","ios":"levelo://app?vid=9eaeb54b-3f5e-4e16-a54f-955e2244d410"},"vehicle_type_id":"4","last_reported":1692447031,"current_range_meters":12400,"station_id":"ce4bhbp2rcd13ifvqesg","pricing_plan_id":"free"},{"bike_id":"38fef587-7cc5-4800-b069-87b8f296a10a","system_id":"levelo_inurba_marseille","lat":43.293009,"lon":5.374584,"is_reserved":false,"is_disabled":false,"rental_uris":{"android":"levelo://app?vid=38fef587-7cc5-4800-b069-87b8f296a10a","ios":"levelo://app?vid=38fef587-7cc5-4800-b069-87b8f296a10a"},"vehicle_type_id":"4","last_reported":1692447031,"current_range_meters":31200,"station_id":"ce4bgi12rcd13ifvqb70","pricing_plan_id":"free"},{"bike_id":"621a2b3c-45c5-4246-ab58-82bce3f2dcef","system_id":"levelo_inurba_marseille","lat":43.292311,"lon":5.360731,"is_reserved":false,"is_disabled":false,"rental_uris":{"android":"levelo://app?vid=621a2b3c-45c5-4246-ab58-82bce3f2dcef","ios":"levelo://app?vid=621a2b3c-45c5-4246-ab58-82bce3f2dcef"},"vehicle_type_id":"4","last_reported":1692447031,"current_range_meters":23600,"station_id":"ce4bhbh2rcd13ifvqeqg","pricing_plan_id":"free"},{"bike_id":"08c21e66-55ac-4a74-bcde-bc27d477b9ba","system_id":"levelo_inurba_marseille","lat":43.291671,"lon":5.371575,"is_reserved":false,"is_disabled":false,"rental_uris":{"android":"levelo://app?vid=08c21e66-55ac-4a74-bcde-bc27d477b9ba","ios":"levelo://app?vid=08c21e66-55ac-4a74-bcde-bc27d477b9ba"},"vehicle_type_id":"4","last_reported":1692447031,"current_range_meters":28400,"station_id":"ce4bha92rcd13ifvqeh0","pricing_plan_id":"free"},{"bike_id":"fe580781-adb4-4cdf-8957-b565fed2882b","system_id":"levelo_inurba_marseille","lat":43.291671,"lon":5.371575,"is_reserved":false,"is_disabled":false,"rental_uris":{"android":"levelo://app?vid=fe580781-adb4-4cdf-8957-b565fed2882b","ios":"levelo://app?vid=fe580781-adb4-4cdf-8957-b565fed2882b"},"vehicle_type_id":"4","last_reported":1692447031,"current_range_meters":9200,"station_id":"ce4bha92rcd13ifvqeh0","pricing_plan_id":"free"},{"bike_id":"2569490f-f662-48ab-b8ba-be64f8ab6118","system_id":"levelo_inurba_marseille","lat":43.291994,"lon":5.357886,"is_reserved":false,"is_disabled":false,"rental_uris":{"android":"levelo://app?vid=2569490f-f662-48ab-b8ba-be64f8ab6118","ios":"levelo://app?vid=2569490f-f662-48ab-b8ba-be64f8ab6118"},"vehicle_type_id":"4","last_reported":1692447031,"current_range_meters":11600,"station_id":"ce4bhb12rcd13ifvqel0","pricing_plan_id":"free"},{"bike_id":"cabc0fd0-025e-4ffb-adb6-56e85587e8c2","system_id":"levelo_inurba_marseille","lat":43.291994,"lon":5.357886,"is_reserved":false,"is_disabled":false,"rental_uris":{"android":"levelo://app?vid=cabc0fd0-025e-4ffb-adb6-56e85587e8c2","ios":"levelo://app?vid=cabc0fd0-025e-4ffb-adb6-56e85587e8c2"},"vehicle_type_id":"4","last_reported":1692447031,"current_range_meters":3200,"station_id":"ce4bhb12rcd13ifvqel0","pricing_plan_id":"free"},{"bike_id":"8c2bb306-3c83-48d3-bb34-99aa74db7e99","system_id":"levelo_inurba_marseille","lat":43.29124,"lon":5.37183,"is_reserved":false,"is_disabled":false,"rental_uris":{"android":"levelo://app?vid=8c2bb306-3c83-48d3-bb34-99aa74db7e99","ios":"levelo://app?vid=8c2bb306-3c83-48d3-bb34-99aa74db7e99"},"vehicle_type_id":"4","last_reported":1692447031,"current_range_meters":17200,"station_id":"ce4bh5p2rcd13ifvqe4g","pricing_plan_id":"free"},{"bike_id":"ba2de7be-ea9d-430e-9127-0611866251cc","system_id":"levelo_inurba_marseille","lat":43.31335,"lon":5.39696,"is_reserved":false,"is_disabled":false,"rental_uris":{"android":"levelo://app?vid=ba2de7be-ea9d-430e-9127-0611866251cc","ios":"levelo://app?vid=ba2de7be-ea9d-430e-9127-0611866251cc"},"vehicle_type_id":"4","last_reported":1692447031,"current_range_meters":30000,"station_id":"ce4bgvp2rcd13ifvqcu0","pricing_plan_id":"free"},{"bike_id":"9c0b3a9b-0861-4f44-9779-141b2f0cd162","system_id":"levelo_inurba_marseille","lat":43.313291,"lon":5.396838,"is_reserved":false,"is_disabled":false,"rental_uris":{"android":"levelo://app?vid=9c0b3a9b-0861-4f44-9779-141b2f0cd162","ios":"levelo://app?vid=9c0b3a9b-0861-4f44-9779-141b2f0cd162"},"vehicle_type_id":"4","last_reported":1692447031,"current_range_meters":29200,"station_id":"ce4bgvp2rcd13ifvqcu0","pricing_plan_id":"free"},{"bike_id":"9d07c444-4916-4bbb-becf-4f7493fe8767","system_id":"levelo_inurba_marseille","lat":43.309038,"lon":5.396546,"is_reserved":false,"is_disabled":false,"rental_uris":{"android":"levelo://app?vid=9d07c444-4916-4bbb-becf-4f7493fe8767","ios":"levelo://app?vid=9d07c444-4916-4bbb-becf-4f7493fe8767"},"vehicle_type_id":"4","last_reported":1692447031,"current_range_meters":1600,"station_id":"ce4bh012rcd13ifvqcv0","pricing_plan_id":"free"},{"bike_id":"59fbc0df-5b31-4b50-b976-cfe6aece3be2","system_id":"levelo_inurba_marseille","lat":43.31334,"lon":5.39704,"is_reserved":false,"is_disabled":false,"rental_uris":{"android":"levelo://app?vid=59fbc0df-5b31-4b50-b976-cfe6aece3be2","ios":"levelo://app?vid=59fbc0df-5b31-4b50-b976-cfe6aece3be2"},"vehicle_type_id":"4","last_reported":1692447031,"current_range_meters":30400,"station_id":"ce4bgvp2rcd13ifvqcu0","pricing_plan_id":"free"},{"bike_id":"fcaa2147-91ed-4e9d-9d08-10f181279e50","system_id":"levelo_inurba_marseille","lat":43.290797,"lon":5.371782,"is_reserved":false,"is_disabled":false,"rental_uris":{"android":"levelo://app?vid=fcaa2147-91ed-4e9d-9d08-10f181279e50","ios":"levelo://app?vid=fcaa2147-91ed-4e9d-9d08-10f181279e50"},"vehicle_type_id":"4","last_reported":1692447031,"current_range_meters":2800,"station_id":"","pricing_plan_id":"free"},{"bike_id":"932f3bab-515f-4791-9ce8-f1a24041f1ab","system_id":"levelo_inurba_marseille","lat":43.33042,"lon":5.38914,"is_reserved":false,"is_disabled":false,"rental_uris":{"android":"levelo://app?vid=932f3bab-515f-4791-9ce8-f1a24041f1ab","ios":"levelo://app?vid=932f3bab-515f-4791-9ce8-f1a24041f1ab"},"vehicle_type_id":"4","last_reported":1692447031,"current_range_meters":31200,"station_id":"ce4bhr92rcd13ifvqhrg","pricing_plan_id":"free"},{"bike_id":"acab277e-dbd8-4935-b694-ff28529450a1","system_id":"levelo_inurba_marseille","lat":43.290103,"lon":5.356114,"is_reserved":false,"is_disabled":false,"rental_uris":{"android":"levelo://app?vid=acab277e-dbd8-4935-b694-ff28529450a1","ios":"levelo://app?vid=acab277e-dbd8-4935-b694-ff28529450a1"},"vehicle_type_id":"4","last_reported":1692447031,"current_range_meters":19600,"station_id":"ce4bhb92rcd13ifvqen0","pricing_plan_id":"free"},{"bike_id":"151dae30-0eb1-4e79-adc8-1c56285035b9","system_id":"levelo_inurba_marseille","lat":43.33045,"lon":5.38918,"is_reserved":false,"is_disabled":false,"rental_uris":{"android":"levelo://app?vid=151dae30-0eb1-4e79-adc8-1c56285035b9","ios":"levelo://app?vid=151dae30-0eb1-4e79-adc8-1c56285035b9"},"vehicle_type_id":"4","last_reported":1692447031,"current_range_meters":20000,"station_id":"ce4bhr92rcd13ifvqhrg","pricing_plan_id":"free"},{"bike_id":"b2277181-7878-4194-aebd-a2a3903700da","system_id":"levelo_inurba_marseille","lat":43.33046,"lon":5.38918,"is_reserved":false,"is_disabled":false,"rental_uris":{"android":"levelo://app?vid=b2277181-7878-4194-aebd-a2a3903700da","ios":"levelo://app?vid=b2277181-7878-4194-aebd-a2a3903700da"},"vehicle_type_id":"4","last_reported":1692447031,"current_range_meters":5600,"station_id":"ce4bhr92rcd13ifvqhrg","pricing_plan_id":"free"},{"bike_id":"5036c72a-6252-47f4-a9fb-50fd514d506a","system_id":"levelo_inurba_marseille","lat":43.33046,"lon":5.38919,"is_reserved":false,"is_disabled":false,"rental_uris":{"android":"levelo://app?vid=5036c72a-6252-47f4-a9fb-50fd514d506a","ios":"levelo://app?vid=5036c72a-6252-47f4-a9fb-50fd514d506a"},"vehicle_type_id":"4","last_reported":1692447031,"current_range_meters":24800,"station_id":"ce4bhr92rcd13ifvqhrg","pricing_plan_id":"free"},{"bike_id":"4da18c6f-b0f5-43ff-8abf-bb0d0d54a446","system_id":"levelo_inurba_marseille","lat":43.33042,"lon":5.38926,"is_reserved":false,"is_disabled":false,"rental_uris":{"android":"levelo://app?vid=4da18c6f-b0f5-43ff-8abf-bb0d0d54a446","ios":"levelo://app?vid=4da18c6f-b0f5-43ff-8abf-bb0d0d54a446"},"vehicle_type_id":"4","last_reported":1692447031,"current_range_meters":31200,"station_id":"ce4bhr92rcd13ifvqhrg","pricing_plan_id":"free"},{"bike_id":"e5b5e449-d192-4e72-b1e8-c29d44218a15","system_id":"levelo_inurba_marseille","lat":43.290103,"lon":5.356114,"is_reserved":false,"is_disabled":false,"rental_uris":{"android":"levelo://app?vid=e5b5e449-d192-4e72-b1e8-c29d44218a15","ios":"levelo://app?vid=e5b5e449-d192-4e72-b1e8-c29d44218a15"},"vehicle_type_id":"4","last_reported":1692447031,"current_range_meters":24400,"station_id":"ce4bhb92rcd13ifvqen0","pricing_plan_id":"free"},{"bike_id":"a66e5286-6067-4fa9-9db2-08ab4af8ff79","system_id":"levelo_inurba_marseille","lat":43.290104,"lon":5.356111,"is_reserved":false,"is_disabled":false,"rental_uris":{"android":"levelo://app?vid=a66e5286-6067-4fa9-9db2-08ab4af8ff79","ios":"levelo://app?vid=a66e5286-6067-4fa9-9db2-08ab4af8ff79"},"vehicle_type_id":"4","last_reported":1692447031,"current_range_meters":24400,"station_id":"ce4bhb92rcd13ifvqen0","pricing_plan_id":"free"},{"bike_id":"c2b69bac-bda9-4261-b39a-8c335d43eeb9","system_id":"levelo_inurba_marseille","lat":43.33049,"lon":5.38919,"is_reserved":false,"is_disabled":false,"rental_uris":{"android":"levelo://app?vid=c2b69bac-bda9-4261-b39a-8c335d43eeb9","ios":"levelo://app?vid=c2b69bac-bda9-4261-b39a-8c335d43eeb9"},"vehicle_type_id":"4","last_reported":1692447031,"current_range_meters":31200,"station_id":"ce4bhr92rcd13ifvqhrg","pricing_plan_id":"free"},{"bike_id":"de450cac-4370-4660-9455-3e94463307a2","system_id":"levelo_inurba_marseille","lat":43.33047,"lon":5.38923,"is_reserved":false,"is_disabled":false,"rental_uris":{"android":"levelo://app?vid=de450cac-4370-4660-9455-3e94463307a2","ios":"levelo://app?vid=de450cac-4370-4660-9455-3e94463307a2"},"vehicle_type_id":"4","last_reported":1692447031,"current_range_meters":20000,"station_id":"ce4bhr92rcd13ifvqhrg","pricing_plan_id":"free"},{"bike_id":"f56e4e83-e13e-4a37-a6e2-c4e11b5235c8","system_id":"levelo_inurba_marseille","lat":43.290103,"lon":5.356114,"is_reserved":false,"is_disabled":false,"rental_uris":{"android":"levelo://app?vid=f56e4e83-e13e-4a37-a6e2-c4e11b5235c8","ios":"levelo://app?vid=f56e4e83-e13e-4a37-a6e2-c4e11b5235c8"},"vehicle_type_id":"4","last_reported":1692447031,"current_range_meters":27200,"station_id":"ce4bhb92rcd13ifvqen0","pricing_plan_id":"free"},{"bike_id":"78f1a325-e5b4-4a72-bb0e-b29d3285ba24","system_id":"levelo_inurba_marseille","lat":43.290104,"lon":5.356111,"is_reserved":false,"is_disabled":false,"rental_uris":{"android":"levelo://app?vid=78f1a325-e5b4-4a72-bb0e-b29d3285ba24","ios":"levelo://app?vid=78f1a325-e5b4-4a72-bb0e-b29d3285ba24"},"vehicle_type_id":"4","last_reported":1692447031,"current_range_meters":31200,"station_id":"ce4bhb92rcd13ifvqen0","pricing_plan_id":"free"},{"bike_id":"16105e4d-cb4a-4aae-91bb-2ecd41a7406b","system_id":"levelo_inurba_marseille","lat":43.33049,"lon":5.38925,"is_reserved":false,"is_disabled":false,"rental_uris":{"android":"levelo://app?vid=16105e4d-cb4a-4aae-91bb-2ecd41a7406b","ios":"levelo://app?vid=16105e4d-cb4a-4aae-91bb-2ecd41a7406b"},"vehicle_type_id":"4","last_reported":1692447031,"current_range_meters":24800,"station_id":"ce4bhr92rcd13ifvqhrg","pricing_plan_id":"free"},{"bike_id":"a6ac0af9-e995-4574-93d0-c47348a1f1b2","system_id":"levelo_inurba_marseille","lat":43.297815,"lon":5.393548,"is_reserved":false,"is_disabled":false,"rental_uris":{"android":"levelo://app?vid=a6ac0af9-e995-4574-93d0-c47348a1f1b2","ios":"levelo://app?vid=a6ac0af9-e995-4574-93d0-c47348a1f1b2"},"vehicle_type_id":"4","last_reported":1692447031,"current_range_meters":9600,"station_id":"chh1huq6cuj3fo74tm60","pricing_plan_id":"free"},{"bike_id":"de070049-29f7-4c6b-aaf2-ced6ee473ef3","system_id":"levelo_inurba_marseille","lat":43.28856,"lon":5.358371,"is_reserved":false,"is_disabled":false,"rental_uris":{"android":"levelo://app?vid=de070049-29f7-4c6b-aaf2-ced6ee473ef3","ios":"levelo://app?vid=de070049-29f7-4c6b-aaf2-ced6ee473ef3"},"vehicle_type_id":"4","last_reported":1692447031,"current_range_meters":0,"station_id":"ce4bhb12rcd13ifvqem0","pricing_plan_id":"free"},{"bike_id":"6ef938d8-9d7a-453a-b884-b9a89e9fdf0b","system_id":"levelo_inurba_marseille","lat":43.28856,"lon":5.358371,"is_reserved":false,"is_disabled":false,"rental_uris":{"android":"levelo://app?vid=6ef938d8-9d7a-453a-b884-b9a89e9fdf0b","ios":"levelo://app?vid=6ef938d8-9d7a-453a-b884-b9a89e9fdf0b"},"vehicle_type_id":"4","last_reported":1692447031,"current_range_meters":10000,"station_id":"ce4bhb12rcd13ifvqem0","pricing_plan_id":"free"},{"bike_id":"91a7373a-711d-4b95-8604-e348a7b90d3e","system_id":"levelo_inurba_marseille","lat":43.31274,"lon":5.40163,"is_reserved":false,"is_disabled":false,"rental_uris":{"android":"levelo://app?vid=91a7373a-711d-4b95-8604-e348a7b90d3e","ios":"levelo://app?vid=91a7373a-711d-4b95-8604-e348a7b90d3e"},"vehicle_type_id":"4","last_reported":1692447031,"current_range_meters":23200,"station_id":"ce4bh092rcd13ifvqd30","pricing_plan_id":"free"},{"bike_id":"8f605289-f603-47a3-967e-66b22c2709df","system_id":"levelo_inurba_marseille","lat":43.30927,"lon":5.4014,"is_reserved":false,"is_disabled":false,"rental_uris":{"android":"levelo://app?vid=8f605289-f603-47a3-967e-66b22c2709df","ios":"levelo://app?vid=8f605289-f603-47a3-967e-66b22c2709df"},"vehicle_type_id":"4","last_reported":1692447031,"current_range_meters":11200,"station_id":"ce4bgvp2rcd13ifvqct0","pricing_plan_id":"free"},{"bike_id":"9ee9f191-1d74-4fb0-b7b9-b0b4dfd3eca1","system_id":"levelo_inurba_marseille","lat":43.31278,"lon":5.40173,"is_reserved":false,"is_disabled":false,"rental_uris":{"android":"levelo://app?vid=9ee9f191-1d74-4fb0-b7b9-b0b4dfd3eca1","ios":"levelo://app?vid=9ee9f191-1d74-4fb0-b7b9-b0b4dfd3eca1"},"vehicle_type_id":"4","last_reported":1692447031,"current_range_meters":26000,"station_id":"ce4bh092rcd13ifvqd30","pricing_plan_id":"free"},{"bike_id":"8abab05f-5a86-4007-aa8d-f7f9d5c909bd","system_id":"levelo_inurba_marseille","lat":43.3064,"lon":5.40093,"is_reserved":false,"is_disabled":false,"rental_uris":{"android":"levelo://app?vid=8abab05f-5a86-4007-aa8d-f7f9d5c909bd","ios":"levelo://app?vid=8abab05f-5a86-4007-aa8d-f7f9d5c909bd"},"vehicle_type_id":"4","last_reported":1692447031,"current_range_meters":23600,"station_id":"ce4bh112rcd13ifvqda0","pricing_plan_id":"free"},{"bike_id":"cdd123c0-716e-43db-801e-0c031b585e21","system_id":"levelo_inurba_marseille","lat":43.30645,"lon":5.40105,"is_reserved":false,"is_disabled":false,"rental_uris":{"android":"levelo://app?vid=cdd123c0-716e-43db-801e-0c031b585e21","ios":"levelo://app?vid=cdd123c0-716e-43db-801e-0c031b585e21"},"vehicle_type_id":"4","last_reported":1692447031,"current_range_meters":0,"station_id":"ce4bh112rcd13ifvqda0","pricing_plan_id":"free"},{"bike_id":"ab92be7d-f5d4-4ba9-92bf-2a1bd304a669","system_id":"levelo_inurba_marseille","lat":43.286961,"lon":5.373785,"is_reserved":false,"is_disabled":false,"rental_uris":{"android":"levelo://app?vid=ab92be7d-f5d4-4ba9-92bf-2a1bd304a669","ios":"levelo://app?vid=ab92be7d-f5d4-4ba9-92bf-2a1bd304a669"},"vehicle_type_id":"4","last_reported":1692447031,"current_range_meters":29200,"station_id":"ce4bh3p2rcd13ifvqdq0","pricing_plan_id":"free"},{"bike_id":"4ad5c452-ec7e-4324-a6ac-830c332c1ac2","system_id":"levelo_inurba_marseille","lat":43.286961,"lon":5.373785,"is_reserved":false,"is_disabled":false,"rental_uris":{"android":"levelo://app?vid=4ad5c452-ec7e-4324-a6ac-830c332c1ac2","ios":"levelo://app?vid=4ad5c452-ec7e-4324-a6ac-830c332c1ac2"},"vehicle_type_id":"4","last_reported":1692447031,"current_range_meters":23600,"station_id":"ce4bh3p2rcd13ifvqdq0","pricing_plan_id":"free"},{"bike_id":"ea042534-b100-44a3-b669-130c659ff09b","system_id":"levelo_inurba_marseille","lat":43.286961,"lon":5.373785,"is_reserved":false,"is_disabled":false,"rental_uris":{"android":"levelo://app?vid=ea042534-b100-44a3-b669-130c659ff09b","ios":"levelo://app?vid=ea042534-b100-44a3-b669-130c659ff09b"},"vehicle_type_id":"4","last_reported":1692447031,"current_range_meters":14800,"station_id":"ce4bh3p2rcd13ifvqdq0","pricing_plan_id":"free"},{"bike_id":"df5fcc51-6672-49b8-b88e-c85bc088f5fb","system_id":"levelo_inurba_marseille","lat":43.295196,"lon":5.39397,"is_reserved":false,"is_disabled":false,"rental_uris":{"android":"levelo://app?vid=df5fcc51-6672-49b8-b88e-c85bc088f5fb","ios":"levelo://app?vid=df5fcc51-6672-49b8-b88e-c85bc088f5fb"},"vehicle_type_id":"4","last_reported":1692447031,"current_range_meters":28000,"station_id":"ce4bh292rcd13ifvqdf0","pricing_plan_id":"free"},{"bike_id":"43fb072d-c9e7-4838-9f77-f8cf44d80b65","system_id":"levelo_inurba_marseille","lat":43.295196,"lon":5.39397,"is_reserved":false,"is_disabled":false,"rental_uris":{"android":"levelo://app?vid=43fb072d-c9e7-4838-9f77-f8cf44d80b65","ios":"levelo://app?vid=43fb072d-c9e7-4838-9f77-f8cf44d80b65"},"vehicle_type_id":"4","last_reported":1692447031,"current_range_meters":4800,"station_id":"ce4bh292rcd13ifvqdf0","pricing_plan_id":"free"},{"bike_id":"75199276-b705-4ad7-b6a9-49aeaa84628a","system_id":"levelo_inurba_marseille","lat":43.286591,"lon":5.363346,"is_reserved":false,"is_disabled":false,"rental_uris":{"android":"levelo://app?vid=75199276-b705-4ad7-b6a9-49aeaa84628a","ios":"levelo://app?vid=75199276-b705-4ad7-b6a9-49aeaa84628a"},"vehicle_type_id":"4","last_reported":1692447031,"current_range_meters":30400,"station_id":"ce4bhah2rcd13ifvqej0","pricing_plan_id":"free"},{"bike_id":"667e6056-0c37-4192-83fd-995999010fdc","system_id":"levelo_inurba_marseille","lat":43.286961,"lon":5.373785,"is_reserved":false,"is_disabled":false,"rental_uris":{"android":"levelo://app?vid=667e6056-0c37-4192-83fd-995999010fdc","ios":"levelo://app?vid=667e6056-0c37-4192-83fd-995999010fdc"},"vehicle_type_id":"4","last_reported":1692447031,"current_range_meters":7600,"station_id":"ce4bh3p2rcd13ifvqdq0","pricing_plan_id":"free"},{"bike_id":"8aa1cac3-a6fe-4c63-8279-fd4a506c4e92","system_id":"levelo_inurba_marseille","lat":43.286961,"lon":5.373785,"is_reserved":false,"is_disabled":false,"rental_uris":{"android":"levelo://app?vid=8aa1cac3-a6fe-4c63-8279-fd4a506c4e92","ios":"levelo://app?vid=8aa1cac3-a6fe-4c63-8279-fd4a506c4e92"},"vehicle_type_id":"4","last_reported":1692447031,"current_range_meters":28000,"station_id":"ce4bh3p2rcd13ifvqdq0","pricing_plan_id":"free"},{"bike_id":"10d564df-1d48-4aee-9450-a426aee51ec0","system_id":"levelo_inurba_marseille","lat":43.286961,"lon":5.373785,"is_reserved":false,"is_disabled":false,"rental_uris":{"android":"levelo://app?vid=10d564df-1d48-4aee-9450-a426aee51ec0","ios":"levelo://app?vid=10d564df-1d48-4aee-9450-a426aee51ec0"},"vehicle_type_id":"4","last_reported":1692447031,"current_range_meters":26400,"station_id":"ce4bh3p2rcd13ifvqdq0","pricing_plan_id":"free"},{"bike_id":"c2296ec5-fd6b-4d65-b943-175a6d295a61","system_id":"levelo_inurba_marseille","lat":43.286039,"lon":5.370681,"is_reserved":false,"is_disabled":false,"rental_uris":{"android":"levelo://app?vid=c2296ec5-fd6b-4d65-b943-175a6d295a61","ios":"levelo://app?vid=c2296ec5-fd6b-4d65-b943-175a6d295a61"},"vehicle_type_id":"4","last_reported":1692447031,"current_range_meters":29600,"station_id":"ce4bht12rcd13ifvqi60","pricing_plan_id":"free"},{"bike_id":"37444be0-fe51-4bb5-a67b-e381cb4cd4c7","system_id":"levelo_inurba_marseille","lat":43.29034,"lon":5.38655,"is_reserved":false,"is_disabled":false,"rental_uris":{"android":"levelo://app?vid=37444be0-fe51-4bb5-a67b-e381cb4cd4c7","ios":"levelo://app?vid=37444be0-fe51-4bb5-a67b-e381cb4cd4c7"},"vehicle_type_id":"4","last_reported":1692447031,"current_range_meters":24800,"station_id":"ce4bh4p2rcd13ifvqe0g","pricing_plan_id":"free"},{"bike_id":"78e01c24-c00e-42b2-a393-c19b449e1d62","system_id":"levelo_inurba_marseille","lat":43.290345,"lon":5.38646,"is_reserved":false,"is_disabled":false,"rental_uris":{"android":"levelo://app?vid=78e01c24-c00e-42b2-a393-c19b449e1d62","ios":"levelo://app?vid=78e01c24-c00e-42b2-a393-c19b449e1d62"},"vehicle_type_id":"4","last_reported":1692447031,"current_range_meters":30400,"station_id":"ce4bh4p2rcd13ifvqe0g","pricing_plan_id":"free"},{"bike_id":"5336b922-a3c4-483b-a486-cf57deb09003","system_id":"levelo_inurba_marseille","lat":43.290336,"lon":5.386425,"is_reserved":false,"is_disabled":false,"rental_uris":{"android":"levelo://app?vid=5336b922-a3c4-483b-a486-cf57deb09003","ios":"levelo://app?vid=5336b922-a3c4-483b-a486-cf57deb09003"},"vehicle_type_id":"4","last_reported":1692447031,"current_range_meters":0,"station_id":"ce4bh4p2rcd13ifvqe0g","pricing_plan_id":"free"},{"bike_id":"685c7467-26c5-48ad-80f9-d539f6a0e491","system_id":"levelo_inurba_marseille","lat":43.286039,"lon":5.370681,"is_reserved":false,"is_disabled":false,"rental_uris":{"android":"levelo://app?vid=685c7467-26c5-48ad-80f9-d539f6a0e491","ios":"levelo://app?vid=685c7467-26c5-48ad-80f9-d539f6a0e491"},"vehicle_type_id":"4","last_reported":1692447031,"current_range_meters":30800,"station_id":"ce4bht12rcd13ifvqi60","pricing_plan_id":"free"},{"bike_id":"e55725c3-cb82-4d85-b675-b31ed0481490","system_id":"levelo_inurba_marseille","lat":43.286039,"lon":5.370681,"is_reserved":false,"is_disabled":false,"rental_uris":{"android":"levelo://app?vid=e55725c3-cb82-4d85-b675-b31ed0481490","ios":"levelo://app?vid=e55725c3-cb82-4d85-b675-b31ed0481490"},"vehicle_type_id":"4","last_reported":1692447031,"current_range_meters":13200,"station_id":"ce4bht12rcd13ifvqi60","pricing_plan_id":"free"},{"bike_id":"eee7284c-c3ef-408d-b1d3-d69628690570","system_id":"levelo_inurba_marseille","lat":43.287185,"lon":5.379373,"is_reserved":false,"is_disabled":false,"rental_uris":{"android":"levelo://app?vid=eee7284c-c3ef-408d-b1d3-d69628690570","ios":"levelo://app?vid=eee7284c-c3ef-408d-b1d3-d69628690570"},"vehicle_type_id":"4","last_reported":1692447031,"current_range_meters":3600,"station_id":"ce4bh9p2rcd13ifvqec0","pricing_plan_id":"free"},{"bike_id":"7da9e437-1e79-4b5f-9ab0-65254ac17dd7","system_id":"levelo_inurba_marseille","lat":43.31645,"lon":5.40437,"is_reserved":false,"is_disabled":false,"rental_uris":{"android":"levelo://app?vid=7da9e437-1e79-4b5f-9ab0-65254ac17dd7","ios":"levelo://app?vid=7da9e437-1e79-4b5f-9ab0-65254ac17dd7"},"vehicle_type_id":"4","last_reported":1692447031,"current_range_meters":26800,"station_id":"ce4bh012rcd13ifvqd00","pricing_plan_id":"free"},{"bike_id":"f7bd7668-8e41-4acd-8b56-2fb3ca4fdc97","system_id":"levelo_inurba_marseille","lat":43.31643,"lon":5.40438,"is_reserved":false,"is_disabled":false,"rental_uris":{"android":"levelo://app?vid=f7bd7668-8e41-4acd-8b56-2fb3ca4fdc97","ios":"levelo://app?vid=f7bd7668-8e41-4acd-8b56-2fb3ca4fdc97"},"vehicle_type_id":"4","last_reported":1692447031,"current_range_meters":0,"station_id":"ce4bh012rcd13ifvqd00","pricing_plan_id":"free"},{"bike_id":"b4112fee-6797-49b3-b4e3-8091db097395","system_id":"levelo_inurba_marseille","lat":43.291994,"lon":5.392907,"is_reserved":false,"is_disabled":false,"rental_uris":{"android":"levelo://app?vid=b4112fee-6797-49b3-b4e3-8091db097395","ios":"levelo://app?vid=b4112fee-6797-49b3-b4e3-8091db097395"},"vehicle_type_id":"4","last_reported":1692447031,"current_range_meters":26400,"station_id":"ce4bh192rcd13ifvqdd0","pricing_plan_id":"free"},{"bike_id":"a78b8493-2bee-40d8-8fed-0c305e7389bf","system_id":"levelo_inurba_marseille","lat":43.284538,"lon":5.358657,"is_reserved":false,"is_disabled":false,"rental_uris":{"android":"levelo://app?vid=a78b8493-2bee-40d8-8fed-0c305e7389bf","ios":"levelo://app?vid=a78b8493-2bee-40d8-8fed-0c305e7389bf"},"vehicle_type_id":"4","last_reported":1692447031,"current_range_meters":31200,"station_id":"ce4bhah2rcd13ifvqei0","pricing_plan_id":"free"},{"bike_id":"414db08e-ae30-4172-89ee-e0191f6ac874","system_id":"levelo_inurba_marseille","lat":43.284538,"lon":5.358657,"is_reserved":false,"is_disabled":false,"rental_uris":{"android":"levelo://app?vid=414db08e-ae30-4172-89ee-e0191f6ac874","ios":"levelo://app?vid=414db08e-ae30-4172-89ee-e0191f6ac874"},"vehicle_type_id":"4","last_reported":1692447031,"current_range_meters":16000,"station_id":"ce4bhah2rcd13ifvqei0","pricing_plan_id":"free"},{"bike_id":"cc697716-abb2-4af4-94b3-6986aeac68e8","system_id":"levelo_inurba_marseille","lat":43.284534,"lon":5.358662,"is_reserved":false,"is_disabled":false,"rental_uris":{"android":"levelo://app?vid=cc697716-abb2-4af4-94b3-6986aeac68e8","ios":"levelo://app?vid=cc697716-abb2-4af4-94b3-6986aeac68e8"},"vehicle_type_id":"4","last_reported":1692447031,"current_range_meters":29200,"station_id":"ce4bhah2rcd13ifvqei0","pricing_plan_id":"free"},{"bike_id":"5f004f2a-b7e7-426e-8777-6d802c2d4bd6","system_id":"levelo_inurba_marseille","lat":43.284538,"lon":5.358657,"is_reserved":false,"is_disabled":false,"rental_uris":{"android":"levelo://app?vid=5f004f2a-b7e7-426e-8777-6d802c2d4bd6","ios":"levelo://app?vid=5f004f2a-b7e7-426e-8777-6d802c2d4bd6"},"vehicle_type_id":"4","last_reported":1692447031,"current_range_meters":12400,"station_id":"ce4bhah2rcd13ifvqei0","pricing_plan_id":"free"},{"bike_id":"35eec3a1-aa54-4990-8eb4-78e6c0dd24d0","system_id":"levelo_inurba_marseille","lat":43.2862,"lon":5.35102,"is_reserved":false,"is_disabled":false,"rental_uris":{"android":"levelo://app?vid=35eec3a1-aa54-4990-8eb4-78e6c0dd24d0","ios":"levelo://app?vid=35eec3a1-aa54-4990-8eb4-78e6c0dd24d0"},"vehicle_type_id":"4","last_reported":1692447031,"current_range_meters":11200,"station_id":"ce4bhch2rcd13ifvqeug","pricing_plan_id":"free"},{"bike_id":"01c4e035-a59b-4cbb-8947-a23829db9485","system_id":"levelo_inurba_marseille","lat":43.28618,"lon":5.35105,"is_reserved":false,"is_disabled":false,"rental_uris":{"android":"levelo://app?vid=01c4e035-a59b-4cbb-8947-a23829db9485","ios":"levelo://app?vid=01c4e035-a59b-4cbb-8947-a23829db9485"},"vehicle_type_id":"4","last_reported":1692447031,"current_range_meters":16400,"station_id":"ce4bhch2rcd13ifvqeug","pricing_plan_id":"free"},{"bike_id":"8f999b82-cbc2-4b77-92fe-53c3009131df","system_id":"levelo_inurba_marseille","lat":43.28617,"lon":5.35103,"is_reserved":false,"is_disabled":false,"rental_uris":{"android":"levelo://app?vid=8f999b82-cbc2-4b77-92fe-53c3009131df","ios":"levelo://app?vid=8f999b82-cbc2-4b77-92fe-53c3009131df"},"vehicle_type_id":"4","last_reported":1692447031,"current_range_meters":28400,"station_id":"ce4bhch2rcd13ifvqeug","pricing_plan_id":"free"},{"bike_id":"2b28c2fc-7566-4bde-964c-a2cc2861d156","system_id":"levelo_inurba_marseille","lat":43.28612,"lon":5.35114,"is_reserved":false,"is_disabled":false,"rental_uris":{"android":"levelo://app?vid=2b28c2fc-7566-4bde-964c-a2cc2861d156","ios":"levelo://app?vid=2b28c2fc-7566-4bde-964c-a2cc2861d156"},"vehicle_type_id":"4","last_reported":1692447031,"current_range_meters":23200,"station_id":"","pricing_plan_id":"free"},{"bike_id":"2363d3b5-6c15-401a-a59c-ee80bd4af927","system_id":"levelo_inurba_marseille","lat":43.28415,"lon":5.37522,"is_reserved":false,"is_disabled":false,"rental_uris":{"android":"levelo://app?vid=2363d3b5-6c15-401a-a59c-ee80bd4af927","ios":"levelo://app?vid=2363d3b5-6c15-401a-a59c-ee80bd4af927"},"vehicle_type_id":"4","last_reported":1692447031,"current_range_meters":20800,"station_id":"ce4bh412rcd13ifvqds0","pricing_plan_id":"free"},{"bike_id":"f615d31c-d009-4d95-8f32-0244147fd63b","system_id":"levelo_inurba_marseille","lat":43.283998,"lon":5.375062,"is_reserved":false,"is_disabled":false,"rental_uris":{"android":"levelo://app?vid=f615d31c-d009-4d95-8f32-0244147fd63b","ios":"levelo://app?vid=f615d31c-d009-4d95-8f32-0244147fd63b"},"vehicle_type_id":"4","last_reported":1692447031,"current_range_meters":12400,"station_id":"ce4bh412rcd13ifvqds0","pricing_plan_id":"free"},{"bike_id":"0f06d58a-4cf2-41c2-8e7d-16ce874124b5","system_id":"levelo_inurba_marseille","lat":43.283998,"lon":5.375062,"is_reserved":false,"is_disabled":false,"rental_uris":{"android":"levelo://app?vid=0f06d58a-4cf2-41c2-8e7d-16ce874124b5","ios":"levelo://app?vid=0f06d58a-4cf2-41c2-8e7d-16ce874124b5"},"vehicle_type_id":"4","last_reported":1692447031,"current_range_meters":24000,"station_id":"ce4bh412rcd13ifvqds0","pricing_plan_id":"free"},{"bike_id":"43119a07-adfb-4550-b3b2-fa8ba47258a6","system_id":"levelo_inurba_marseille","lat":43.283998,"lon":5.375062,"is_reserved":false,"is_disabled":false,"rental_uris":{"android":"levelo://app?vid=43119a07-adfb-4550-b3b2-fa8ba47258a6","ios":"levelo://app?vid=43119a07-adfb-4550-b3b2-fa8ba47258a6"},"vehicle_type_id":"4","last_reported":1692447031,"current_range_meters":14400,"station_id":"ce4bh412rcd13ifvqds0","pricing_plan_id":"free"},{"bike_id":"f9522b63-f0a4-430e-bdf6-ac5088b797d8","system_id":"levelo_inurba_marseille","lat":43.283998,"lon":5.375062,"is_reserved":false,"is_disabled":false,"rental_uris":{"android":"levelo://app?vid=f9522b63-f0a4-430e-bdf6-ac5088b797d8","ios":"levelo://app?vid=f9522b63-f0a4-430e-bdf6-ac5088b797d8"},"vehicle_type_id":"4","last_reported":1692447031,"current_range_meters":7200,"station_id":"ce4bh412rcd13ifvqds0","pricing_plan_id":"free"},{"bike_id":"9594b04c-d46f-480f-ac6b-2d3bd41ac478","system_id":"levelo_inurba_marseille","lat":43.286039,"lon":5.370681,"is_reserved":false,"is_disabled":false,"rental_uris":{"android":"levelo://app?vid=9594b04c-d46f-480f-ac6b-2d3bd41ac478","ios":"levelo://app?vid=9594b04c-d46f-480f-ac6b-2d3bd41ac478"},"vehicle_type_id":"4","last_reported":1692447031,"current_range_meters":19200,"station_id":"ce4bht12rcd13ifvqi60","pricing_plan_id":"free"},{"bike_id":"fca6cb34-c83f-494a-89ea-e3c4d7e2bcc3","system_id":"levelo_inurba_marseille","lat":43.286595,"lon":5.386795,"is_reserved":false,"is_disabled":false,"rental_uris":{"android":"levelo://app?vid=fca6cb34-c83f-494a-89ea-e3c4d7e2bcc3","ios":"levelo://app?vid=fca6cb34-c83f-494a-89ea-e3c4d7e2bcc3"},"vehicle_type_id":"4","last_reported":1692447031,"current_range_meters":19600,"station_id":"ce4bh492rcd13ifvqdug","pricing_plan_id":"free"},{"bike_id":"8e0ec51e-5c84-4463-be9f-e6b04d2e1037","system_id":"levelo_inurba_marseille","lat":43.31894,"lon":5.40731,"is_reserved":false,"is_disabled":false,"rental_uris":{"android":"levelo://app?vid=8e0ec51e-5c84-4463-be9f-e6b04d2e1037","ios":"levelo://app?vid=8e0ec51e-5c84-4463-be9f-e6b04d2e1037"},"vehicle_type_id":"4","last_reported":1692447031,"current_range_meters":30400,"station_id":"ce4bhq12rcd13ifvqhig","pricing_plan_id":"free"},{"bike_id":"f16291b9-c3f9-44cb-b4a9-a0d6c35fecf9","system_id":"levelo_inurba_marseille","lat":43.31889,"lon":5.40733,"is_reserved":false,"is_disabled":false,"rental_uris":{"android":"levelo://app?vid=f16291b9-c3f9-44cb-b4a9-a0d6c35fecf9","ios":"levelo://app?vid=f16291b9-c3f9-44cb-b4a9-a0d6c35fecf9"},"vehicle_type_id":"4","last_reported":1692447031,"current_range_meters":30400,"station_id":"ce4bhq12rcd13ifvqhig","pricing_plan_id":"free"},{"bike_id":"c83175c1-dc44-41ba-8c30-632824b8a336","system_id":"levelo_inurba_marseille","lat":43.319179,"lon":5.407725,"is_reserved":false,"is_disabled":false,"rental_uris":{"android":"levelo://app?vid=c83175c1-dc44-41ba-8c30-632824b8a336","ios":"levelo://app?vid=c83175c1-dc44-41ba-8c30-632824b8a336"},"vehicle_type_id":"4","last_reported":1692447031,"current_range_meters":27600,"station_id":"ce4bhq12rcd13ifvqhig","pricing_plan_id":"free"},{"bike_id":"3a0a6f4c-0a4a-47ac-bac0-a33380c5e5e6","system_id":"levelo_inurba_marseille","lat":43.31895,"lon":5.40745,"is_reserved":false,"is_disabled":false,"rental_uris":{"android":"levelo://app?vid=3a0a6f4c-0a4a-47ac-bac0-a33380c5e5e6","ios":"levelo://app?vid=3a0a6f4c-0a4a-47ac-bac0-a33380c5e5e6"},"vehicle_type_id":"4","last_reported":1692447031,"current_range_meters":28000,"station_id":"ce4bhq12rcd13ifvqhig","pricing_plan_id":"free"},{"bike_id":"e78bd4e4-c14d-4a01-b72e-65351e2b8a18","system_id":"levelo_inurba_marseille","lat":43.30316,"lon":5.40635,"is_reserved":false,"is_disabled":false,"rental_uris":{"android":"levelo://app?vid=e78bd4e4-c14d-4a01-b72e-65351e2b8a18","ios":"levelo://app?vid=e78bd4e4-c14d-4a01-b72e-65351e2b8a18"},"vehicle_type_id":"4","last_reported":1692447031,"current_range_meters":2400,"station_id":"","pricing_plan_id":"free"},{"bike_id":"72fc020d-a1d4-460a-a3d1-6187a1ea65d2","system_id":"levelo_inurba_marseille","lat":43.33713,"lon":5.39169,"is_reserved":false,"is_disabled":false,"rental_uris":{"android":"levelo://app?vid=72fc020d-a1d4-460a-a3d1-6187a1ea65d2","ios":"levelo://app?vid=72fc020d-a1d4-460a-a3d1-6187a1ea65d2"},"vehicle_type_id":"4","last_reported":1692447031,"current_range_meters":28800,"station_id":"ce4bhr92rcd13ifvqhsg","pricing_plan_id":"free"},{"bike_id":"2b3f06e0-8f2d-4133-9563-f19f57fe46e5","system_id":"levelo_inurba_marseille","lat":43.337168,"lon":5.391825,"is_reserved":false,"is_disabled":false,"rental_uris":{"android":"levelo://app?vid=2b3f06e0-8f2d-4133-9563-f19f57fe46e5","ios":"levelo://app?vid=2b3f06e0-8f2d-4133-9563-f19f57fe46e5"},"vehicle_type_id":"4","last_reported":1692447031,"current_range_meters":11600,"station_id":"ce4bhr92rcd13ifvqhsg","pricing_plan_id":"free"},{"bike_id":"7d2969ab-a065-4a23-b19e-667095d799c9","system_id":"levelo_inurba_marseille","lat":43.33718,"lon":5.39172,"is_reserved":false,"is_disabled":false,"rental_uris":{"android":"levelo://app?vid=7d2969ab-a065-4a23-b19e-667095d799c9","ios":"levelo://app?vid=7d2969ab-a065-4a23-b19e-667095d799c9"},"vehicle_type_id":"4","last_reported":1692447031,"current_range_meters":12000,"station_id":"ce4bhr92rcd13ifvqhsg","pricing_plan_id":"free"},{"bike_id":"17105054-6fd8-493b-b0be-1ed88688055c","system_id":"levelo_inurba_marseille","lat":43.337168,"lon":5.391825,"is_reserved":false,"is_disabled":false,"rental_uris":{"android":"levelo://app?vid=17105054-6fd8-493b-b0be-1ed88688055c","ios":"levelo://app?vid=17105054-6fd8-493b-b0be-1ed88688055c"},"vehicle_type_id":"4","last_reported":1692447031,"current_range_meters":31200,"station_id":"ce4bhr92rcd13ifvqhsg","pricing_plan_id":"free"},{"bike_id":"01f563c5-7ac0-4d44-b1b3-0549f3b949f3","system_id":"levelo_inurba_marseille","lat":43.33714,"lon":5.3918,"is_reserved":false,"is_disabled":false,"rental_uris":{"android":"levelo://app?vid=01f563c5-7ac0-4d44-b1b3-0549f3b949f3","ios":"levelo://app?vid=01f563c5-7ac0-4d44-b1b3-0549f3b949f3"},"vehicle_type_id":"4","last_reported":1692447031,"current_range_meters":30400,"station_id":"ce4bhr92rcd13ifvqhsg","pricing_plan_id":"free"},{"bike_id":"0dda2562-498f-4f90-abfb-f3c666db2d2e","system_id":"levelo_inurba_marseille","lat":43.33724,"lon":5.39172,"is_reserved":false,"is_disabled":false,"rental_uris":{"android":"levelo://app?vid=0dda2562-498f-4f90-abfb-f3c666db2d2e","ios":"levelo://app?vid=0dda2562-498f-4f90-abfb-f3c666db2d2e"},"vehicle_type_id":"4","last_reported":1692447031,"current_range_meters":25200,"station_id":"ce4bhr92rcd13ifvqhsg","pricing_plan_id":"free"},{"bike_id":"c24cecf2-0503-470c-b3d3-fc37f377f710","system_id":"levelo_inurba_marseille","lat":43.33722,"lon":5.39185,"is_reserved":false,"is_disabled":false,"rental_uris":{"android":"levelo://app?vid=c24cecf2-0503-470c-b3d3-fc37f377f710","ios":"levelo://app?vid=c24cecf2-0503-470c-b3d3-fc37f377f710"},"vehicle_type_id":"4","last_reported":1692447031,"current_range_meters":30000,"station_id":"ce4bhr92rcd13ifvqhsg","pricing_plan_id":"free"},{"bike_id":"13c8ff33-a39b-43d5-ba08-92f155d4a21e","system_id":"levelo_inurba_marseille","lat":43.323464,"lon":5.406297,"is_reserved":false,"is_disabled":false,"rental_uris":{"android":"levelo://app?vid=13c8ff33-a39b-43d5-ba08-92f155d4a21e","ios":"levelo://app?vid=13c8ff33-a39b-43d5-ba08-92f155d4a21e"},"vehicle_type_id":"4","last_reported":1692447031,"current_range_meters":31200,"station_id":"ce4bhq92rcd13ifvqhjg","pricing_plan_id":"free"},{"bike_id":"12c0f407-4ac2-49d3-b1e8-783bd26a8644","system_id":"levelo_inurba_marseille","lat":43.33722,"lon":5.39187,"is_reserved":false,"is_disabled":false,"rental_uris":{"android":"levelo://app?vid=12c0f407-4ac2-49d3-b1e8-783bd26a8644","ios":"levelo://app?vid=12c0f407-4ac2-49d3-b1e8-783bd26a8644"},"vehicle_type_id":"4","last_reported":1692447031,"current_range_meters":30000,"station_id":"ce4bhr92rcd13ifvqhsg","pricing_plan_id":"free"},{"bike_id":"186ddf38-a5ca-44a9-9dd3-9bfe2a53544b","system_id":"levelo_inurba_marseille","lat":43.33728,"lon":5.39181,"is_reserved":false,"is_disabled":false,"rental_uris":{"android":"levelo://app?vid=186ddf38-a5ca-44a9-9dd3-9bfe2a53544b","ios":"levelo://app?vid=186ddf38-a5ca-44a9-9dd3-9bfe2a53544b"},"vehicle_type_id":"4","last_reported":1692447031,"current_range_meters":30400,"station_id":"ce4bhr92rcd13ifvqhsg","pricing_plan_id":"free"},{"bike_id":"33aba6b2-5ed1-4e7c-af4c-fff3b257e3e7","system_id":"levelo_inurba_marseille","lat":43.323464,"lon":5.406297,"is_reserved":false,"is_disabled":false,"rental_uris":{"android":"levelo://app?vid=33aba6b2-5ed1-4e7c-af4c-fff3b257e3e7","ios":"levelo://app?vid=33aba6b2-5ed1-4e7c-af4c-fff3b257e3e7"},"vehicle_type_id":"4","last_reported":1692447031,"current_range_meters":31200,"station_id":"ce4bhq92rcd13ifvqhjg","pricing_plan_id":"free"},{"bike_id":"c90c94e3-64fa-45e9-9fee-ad8bf120c218","system_id":"levelo_inurba_marseille","lat":43.337168,"lon":5.391825,"is_reserved":false,"is_disabled":false,"rental_uris":{"android":"levelo://app?vid=c90c94e3-64fa-45e9-9fee-ad8bf120c218","ios":"levelo://app?vid=c90c94e3-64fa-45e9-9fee-ad8bf120c218"},"vehicle_type_id":"4","last_reported":1692447031,"current_range_meters":29200,"station_id":"ce4bhr92rcd13ifvqhsg","pricing_plan_id":"free"},{"bike_id":"02f29c2d-847e-4148-9200-bdb4c19acc46","system_id":"levelo_inurba_marseille","lat":43.33732,"lon":5.39179,"is_reserved":false,"is_disabled":false,"rental_uris":{"android":"levelo://app?vid=02f29c2d-847e-4148-9200-bdb4c19acc46","ios":"levelo://app?vid=02f29c2d-847e-4148-9200-bdb4c19acc46"},"vehicle_type_id":"4","last_reported":1692447031,"current_range_meters":30400,"station_id":"ce4bhr92rcd13ifvqhsg","pricing_plan_id":"free"},{"bike_id":"8bd09c71-02ae-4371-8b55-ce1e7e2bf2df","system_id":"levelo_inurba_marseille","lat":43.33727,"lon":5.3919,"is_reserved":false,"is_disabled":false,"rental_uris":{"android":"levelo://app?vid=8bd09c71-02ae-4371-8b55-ce1e7e2bf2df","ios":"levelo://app?vid=8bd09c71-02ae-4371-8b55-ce1e7e2bf2df"},"vehicle_type_id":"4","last_reported":1692447031,"current_range_meters":30800,"station_id":"ce4bhr92rcd13ifvqhsg","pricing_plan_id":"free"},{"bike_id":"6ac884cc-b74d-40a5-8e3a-f019457ca89a","system_id":"levelo_inurba_marseille","lat":43.323464,"lon":5.406297,"is_reserved":false,"is_disabled":false,"rental_uris":{"android":"levelo://app?vid=6ac884cc-b74d-40a5-8e3a-f019457ca89a","ios":"levelo://app?vid=6ac884cc-b74d-40a5-8e3a-f019457ca89a"},"vehicle_type_id":"4","last_reported":1692447031,"current_range_meters":31200,"station_id":"ce4bhq92rcd13ifvqhjg","pricing_plan_id":"free"},{"bike_id":"c3f1a799-40b8-4098-9115-0b78fcf6eb78","system_id":"levelo_inurba_marseille","lat":43.32344,"lon":5.40623,"is_reserved":false,"is_disabled":false,"rental_uris":{"android":"levelo://app?vid=c3f1a799-40b8-4098-9115-0b78fcf6eb78","ios":"levelo://app?vid=c3f1a799-40b8-4098-9115-0b78fcf6eb78"},"vehicle_type_id":"4","last_reported":1692447031,"current_range_meters":30000,"station_id":"ce4bhq92rcd13ifvqhjg","pricing_plan_id":"free"},{"bike_id":"e45012d8-673a-4bd6-93d3-a427f767a00d","system_id":"levelo_inurba_marseille","lat":43.3373,"lon":5.39187,"is_reserved":false,"is_disabled":false,"rental_uris":{"android":"levelo://app?vid=e45012d8-673a-4bd6-93d3-a427f767a00d","ios":"levelo://app?vid=e45012d8-673a-4bd6-93d3-a427f767a00d"},"vehicle_type_id":"4","last_reported":1692447031,"current_range_meters":28800,"station_id":"ce4bhr92rcd13ifvqhsg","pricing_plan_id":"free"},{"bike_id":"0cbfb6a8-9b06-4430-8280-ebadac27271d","system_id":"levelo_inurba_marseille","lat":43.32345,"lon":5.40624,"is_reserved":false,"is_disabled":false,"rental_uris":{"android":"levelo://app?vid=0cbfb6a8-9b06-4430-8280-ebadac27271d","ios":"levelo://app?vid=0cbfb6a8-9b06-4430-8280-ebadac27271d"},"vehicle_type_id":"4","last_reported":1692447031,"current_range_meters":29200,"station_id":"ce4bhq92rcd13ifvqhjg","pricing_plan_id":"free"},{"bike_id":"6fb36002-bc24-427c-a16e-585470e55deb","system_id":"levelo_inurba_marseille","lat":43.32602,"lon":5.40481,"is_reserved":false,"is_disabled":false,"rental_uris":{"android":"levelo://app?vid=6fb36002-bc24-427c-a16e-585470e55deb","ios":"levelo://app?vid=6fb36002-bc24-427c-a16e-585470e55deb"},"vehicle_type_id":"4","last_reported":1692447031,"current_range_meters":21200,"station_id":"","pricing_plan_id":"free"},{"bike_id":"70163c55-78f5-4f60-ac0f-593ac97775db","system_id":"levelo_inurba_marseille","lat":43.284787,"lon":5.384116,"is_reserved":false,"is_disabled":false,"rental_uris":{"android":"levelo://app?vid=70163c55-78f5-4f60-ac0f-593ac97775db","ios":"levelo://app?vid=70163c55-78f5-4f60-ac0f-593ac97775db"},"vehicle_type_id":"4","last_reported":1692447031,"current_range_meters":5200,"station_id":"ce4bh512rcd13ifvqe3g","pricing_plan_id":"free"},{"bike_id":"eb04754a-2ddb-4c18-b4a9-42875c3b476c","system_id":"levelo_inurba_marseille","lat":43.284787,"lon":5.384116,"is_reserved":false,"is_disabled":false,"rental_uris":{"android":"levelo://app?vid=eb04754a-2ddb-4c18-b4a9-42875c3b476c","ios":"levelo://app?vid=eb04754a-2ddb-4c18-b4a9-42875c3b476c"},"vehicle_type_id":"4","last_reported":1692447031,"current_range_meters":26400,"station_id":"ce4bh512rcd13ifvqe3g","pricing_plan_id":"free"},{"bike_id":"f7483a3e-1dac-4b50-bba4-d9c9eaa0fe8b","system_id":"levelo_inurba_marseille","lat":43.28472,"lon":5.38414,"is_reserved":false,"is_disabled":false,"rental_uris":{"android":"levelo://app?vid=f7483a3e-1dac-4b50-bba4-d9c9eaa0fe8b","ios":"levelo://app?vid=f7483a3e-1dac-4b50-bba4-d9c9eaa0fe8b"},"vehicle_type_id":"4","last_reported":1692447031,"current_range_meters":26800,"station_id":"ce4bh512rcd13ifvqe3g","pricing_plan_id":"free"},{"bike_id":"d903ea15-86a9-44bf-8105-58a236da3786","system_id":"levelo_inurba_marseille","lat":43.284219,"lon":5.3497,"is_reserved":false,"is_disabled":false,"rental_uris":{"android":"levelo://app?vid=d903ea15-86a9-44bf-8105-58a236da3786","ios":"levelo://app?vid=d903ea15-86a9-44bf-8105-58a236da3786"},"vehicle_type_id":"4","last_reported":1692447031,"current_range_meters":24000,"station_id":"ce4bhbh2rcd13ifvqepg","pricing_plan_id":"free"},{"bike_id":"1289af83-c80b-4260-b6a2-4f7490998cfd","system_id":"levelo_inurba_marseille","lat":43.284219,"lon":5.3497,"is_reserved":false,"is_disabled":false,"rental_uris":{"android":"levelo://app?vid=1289af83-c80b-4260-b6a2-4f7490998cfd","ios":"levelo://app?vid=1289af83-c80b-4260-b6a2-4f7490998cfd"},"vehicle_type_id":"4","last_reported":1692447031,"current_range_meters":29200,"station_id":"ce4bhbh2rcd13ifvqepg","pricing_plan_id":"free"},{"bike_id":"11029f8a-7429-4f01-bb03-b8e14837c9db","system_id":"levelo_inurba_marseille","lat":43.284219,"lon":5.3497,"is_reserved":false,"is_disabled":false,"rental_uris":{"android":"levelo://app?vid=11029f8a-7429-4f01-bb03-b8e14837c9db","ios":"levelo://app?vid=11029f8a-7429-4f01-bb03-b8e14837c9db"},"vehicle_type_id":"4","last_reported":1692447031,"current_range_meters":17200,"station_id":"ce4bhbh2rcd13ifvqepg","pricing_plan_id":"free"},{"bike_id":"fbf94f4f-6616-4ec4-bf95-a5062e319425","system_id":"levelo_inurba_marseille","lat":43.28427,"lon":5.34997,"is_reserved":false,"is_disabled":false,"rental_uris":{"android":"levelo://app?vid=fbf94f4f-6616-4ec4-bf95-a5062e319425","ios":"levelo://app?vid=fbf94f4f-6616-4ec4-bf95-a5062e319425"},"vehicle_type_id":"4","last_reported":1692447031,"current_range_meters":31200,"station_id":"ce4bhbh2rcd13ifvqepg","pricing_plan_id":"free"},{"bike_id":"5a456184-5059-40ab-b49d-798f6e30176a","system_id":"levelo_inurba_marseille","lat":43.284219,"lon":5.3497,"is_reserved":false,"is_disabled":false,"rental_uris":{"android":"levelo://app?vid=5a456184-5059-40ab-b49d-798f6e30176a","ios":"levelo://app?vid=5a456184-5059-40ab-b49d-798f6e30176a"},"vehicle_type_id":"4","last_reported":1692447031,"current_range_meters":11600,"station_id":"ce4bhbh2rcd13ifvqepg","pricing_plan_id":"free"},{"bike_id":"376175fe-7047-409d-8bc5-b62cb0313755","system_id":"levelo_inurba_marseille","lat":43.28422,"lon":5.34976,"is_reserved":false,"is_disabled":false,"rental_uris":{"android":"levelo://app?vid=376175fe-7047-409d-8bc5-b62cb0313755","ios":"levelo://app?vid=376175fe-7047-409d-8bc5-b62cb0313755"},"vehicle_type_id":"4","last_reported":1692447031,"current_range_meters":16400,"station_id":"ce4bhbh2rcd13ifvqepg","pricing_plan_id":"free"},{"bike_id":"66185e82-fa2e-44c2-aa7f-cde5fed472d8","system_id":"levelo_inurba_marseille","lat":43.284219,"lon":5.3497,"is_reserved":false,"is_disabled":false,"rental_uris":{"android":"levelo://app?vid=66185e82-fa2e-44c2-aa7f-cde5fed472d8","ios":"levelo://app?vid=66185e82-fa2e-44c2-aa7f-cde5fed472d8"},"vehicle_type_id":"4","last_reported":1692447031,"current_range_meters":20800,"station_id":"ce4bhbh2rcd13ifvqepg","pricing_plan_id":"free"},