{"last_updated":1743257297,"ttl":60,"version":"2.2","data":{"bikes":[{"bike_id":"bcc0f889-1da5-42d2-b400-e7d995ddf58f","system_id":"levelo_inurba_marseille","lat":43.29628,"lon":5.37166,"is_reserved":false,"is_disabled":false,"rental_uris":{"android":"levelo://app?vid=bcc0f889-1da5-42d2-b400-e7d995ddf58f","ios":"levelo://app?vid=bcc0f889-1da5-42d2-b400-e7d995ddf58f"},"vehicle_type_id":"4","last_reported":1743257297,"current_range_meters":2800,"station_id":"ce4bgnh2rcd13ifvqc0g","pricing_plan_id":"cebpf4jnsgd1na2vs0mg"},{"bike_id":"3ef4f8a3-0c00-47b4-a9ca-db6590b133ea","system_id":"levelo_inurba_marseille","lat":43.32662,"lon":5.40994,"is_reserved":false,"is_disabled":false,"rental_uris":{"android":"levelo://app?vid=3ef4f8a3-0c00-47b4-a9ca-db6590b133ea","ios":"levelo://app?vid=3ef4f8a3-0c00-47b4-a9ca-db6590b133ea"},"vehicle_type_id":"4","last_reported":1743257297,"current_range_meters":2000,"station_id":"ce4bhpp2rcd13ifvqhgg","pricing_plan_id":"cebpf4jnsgd1na2vs0mg"},{"bike_id":"58ee8593-8514-4b8c-9030-4181d4ca831c","system_id":"levelo_inurba_marseille","lat":43.28946,"lon":5.3664,"is_reserved":false,"is_disabled":false,"rental_uris":{"android":"levelo://app?vid=58ee8593-8514-4b8c-9030-4181d4ca831c","ios":"levelo://app?vid=58ee8593-8514-4b8c-9030-4181d4ca831c"},"vehicle_type_id":"4","last_reported":1743257297,"current_range_meters":3600,"station_id":"","pricing_plan_id":"cebpf4jnsgd1na2vs0mg"},{"bike_id":"f28a2132-9d11-411c-a599-c4352a550e43","system_id":"levelo_inurba_marseille","lat":43.25499,"lon":5.38664,"is_reserved":false,"is_disabled":false,"rental_uris":{"android":"levelo://app?vid=f28a2132-9d11-411c-a599-c4352a550e43","ios":"levelo://app?vid=f28a2132-9d11-411c-a599-c4352a550e43"},"vehicle_type_id":"4","last_reported":1743257297,"current_range_meters":3600,"station_id":"","pricing_plan_id":"cebpf4jnsgd1na2vs0mg"},{"bike_id":"09043635-3f7c-4219-ad1e-d9cbb7da0147","system_id":"levelo_inurba_marseille","lat":43.2927,"lon":5.40187,"is_reserved":false,"is_disabled":false,"rental_uris":{"android":"levelo://app?vid=09043635-3f7c-4219-ad1e-d9cbb7da0147","ios":"levelo://app?vid=09043635-3f7c-4219-ad1e-d9cbb7da0147"},"vehicle_type_id":"4","last_reported":1743257297,"current_range_meters":3600,"station_id":"","pricing_plan_id":"cebpf4jnsgd1na2vs0mg"},{"bike_id":"b76a3d6c-1af0-4ba6-9900-2c4b9acbf45f","system_id":"levelo_inurba_marseille","lat":43.30146,"lon":5.37414,"is_reserved":false,"is_disabled":false,"rental_uris":{"android":"levelo://app?vid=b76a3d6c-1af0-4ba6-9900-2c4b9acbf45f","ios":"levelo://app?vid=b76a3d6c-1af0-4ba6-9900-2c4b9acbf45f"},"vehicle_type_id":"4","last_reported":1743257297,"current_range_meters":3600,"station_id":"ce4bgs92rcd13ifvqcc0","pricing_plan_id":"cebpf4jnsgd1na2vs0mg"},{"bike_id":"ee2588a0-8a3d-4c56-88e3-6823a90de92d","system_id":"levelo_inurba_marseille","lat":43.28109,"lon":5.38566,"is_reserved":false,"is_disabled":false,"rental_uris":{"android":"levelo://app?vid=ee2588a0-8a3d-4c56-88e3-6823a90de92d","ios":"levelo://app?vid=ee2588a0-8a3d-4c56-88e3-6823a90de92d"},"vehicle_type_id":"4","last_reported":1743257297,"current_range_meters":4400,"station_id":"","pricing_plan_id":"cebpf4jnsgd1na2vs0mg"},{"bike_id":"bf486d29-80ae-43fc-9394-756ed3e2b73e","system_id":"levelo_inurba_marseille","lat":43.279964,"lon":5.400085,"is_reserved":false,"is_disabled":true,"rental_uris":{"android":"levelo://app?vid=bf486d29-80ae-43fc-9394-756ed3e2b73e","ios":"levelo://app?vid=bf486d29-80ae-43fc-9394-756ed3e2b73e"},"vehicle_type_id":"4","last_reported":1743257297,"current_range_meters":4800,"station_id":"ce4bho92rcd13ifvqh4g","pricing_plan_id":"cebpf4jnsgd1na2vs0mg"},{"bike_id":"1deeec2e-47a4-4f06-9316-1d0987be07b8","system_id":"levelo_inurba_marseille","lat":43.27503,"lon":5.42463,"is_reserved":false,"is_disabled":false,"rental_uris":{"android":"levelo://app?vid=1deeec2e-47a4-4f06-9316-1d0987be07b8","ios":"levelo://app?vid=1deeec2e-47a4-4f06-9316-1d0987be07b8"},"vehicle_type_id":"4","last_reported":1743257297,"current_range_meters":4800,"station_id":"ce4bhn92rcd13ifvqgrg","pricing_plan_id":"cebpf4jnsgd1na2vs0mg"},{"bike_id":"16b21b51-adb6-4065-ab29-8469c1afc436","system_id":"levelo_inurba_marseille","lat":43.30535,"lon":5.36516,"is_reserved":false,"is_disabled":false,"rental_uris":{"android":"levelo://app?vid=16b21b51-adb6-4065-ab29-8469c1afc436","ios":"levelo://app?vid=16b21b51-adb6-4065-ab29-8469c1afc436"},"vehicle_type_id":"4","last_reported":1743257297,"current_range_meters":5600,"station_id":"ce4bgs12rcd13ifvqcag","pricing_plan_id":"cebpf4jnsgd1na2vs0mg"},{"bike_id":"d7c9e49f-9da5-4b2e-bae8-8dbfb05890a7","system_id":"levelo_inurba_marseille","lat":43.33344,"lon":5.40126,"is_reserved":false,"is_disabled":false,"rental_uris":{"android":"levelo://app?vid=d7c9e49f-9da5-4b2e-bae8-8dbfb05890a7","ios":"levelo://app?vid=d7c9e49f-9da5-4b2e-bae8-8dbfb05890a7"},"vehicle_type_id":"4","last_reported":1743257297,"current_range_meters":6000,"station_id":"","pricing_plan_id":"cebpf4jnsgd1na2vs0mg"},{"bike_id":"372077d7-6912-4560-8e62-7c1226cc8258","system_id":"levelo_inurba_marseille","lat":43.28,"lon":5.4001,"is_reserved":false,"is_disabled":false,"rental_uris":{"android":"levelo://app?vid=372077d7-6912-4560-8e62-7c1226cc8258","ios":"levelo://app?vid=372077d7-6912-4560-8e62-7c1226cc8258"},"vehicle_type_id":"4","last_reported":1743257297,"current_range_meters":6000,"station_id":"ce4bho92rcd13ifvqh4g","pricing_plan_id":"cebpf4jnsgd1na2vs0mg"},{"bike_id":"4a42ca1e-41e4-4233-a4bb-a180f04564d6","system_id":"levelo_inurba_marseille","lat":43.29169,"lon":5.3713,"is_reserved":false,"is_disabled":true,"rental_uris":{"android":"levelo://app?vid=4a42ca1e-41e4-4233-a4bb-a180f04564d6","ios":"levelo://app?vid=4a42ca1e-41e4-4233-a4bb-a180f04564d6"},"vehicle_type_id":"4","last_reported":1743257297,"current_range_meters":6000,"station_id":"","pricing_plan_id":"cebpf4jnsgd1na2vs0mg"},{"bike_id":"c2818494-39a8-427b-aa77-d7800fde363a","system_id":"levelo_inurba_marseille","lat":43.26205,"lon":5.37913,"is_reserved":false,"is_disabled":false,"rental_uris":{"android":"levelo://app?vid=c2818494-39a8-427b-aa77-d7800fde363a","ios":"levelo://app?vid=c2818494-39a8-427b-aa77-d7800fde363a"},"vehicle_type_id":"4","last_reported":1743257297,"current_range_meters":6000,"station_id":"ce4bhjp2rcd13ifvqg90","pricing_plan_id":"cebpf4jnsgd1na2vs0mg"},{"bike_id":"b8c2608d-3144-4776-9d5e-7ee2a49a8a3c","system_id":"levelo_inurba_marseille","lat":43.27942,"lon":5.41048,"is_reserved":false,"is_disabled":false,"rental_uris":{"android":"levelo://app?vid=b8c2608d-3144-4776-9d5e-7ee2a49a8a3c","ios":"levelo://app?vid=b8c2608d-3144-4776-9d5e-7ee2a49a8a3c"},"vehicle_type_id":"4","last_reported":1743257297,"current_range_meters":6400,"station_id":"ce4bhnp2rcd13ifvqh0g","pricing_plan_id":"cebpf4jnsgd1na2vs0mg"},{"bike_id":"26d2b930-4a56-48d8-aed5-442f2ff0154a","system_id":"levelo_inurba_marseille","lat":43.27563,"lon":5.38423,"is_reserved":false,"is_disabled":false,"rental_uris":{"android":"levelo://app?vid=26d2b930-4a56-48d8-aed5-442f2ff0154a","ios":"levelo://app?vid=26d2b930-4a56-48d8-aed5-442f2ff0154a"},"vehicle_type_id":"4","last_reported":1743257297,"current_range_meters":6400,"station_id":"ce4bhh92rcd13ifvqfi0","pricing_plan_id":"cebpf4jnsgd1na2vs0mg"},{"bike_id":"861ae205-c318-4688-ac53-947993e1b65f","system_id":"levelo_inurba_marseille","lat":43.24165,"lon":5.3639,"is_reserved":false,"is_disabled":false,"rental_uris":{"android":"levelo://app?vid=861ae205-c318-4688-ac53-947993e1b65f","ios":"levelo://app?vid=861ae205-c318-4688-ac53-947993e1b65f"},"vehicle_type_id":"4","last_reported":1743257297,"current_range_meters":6400,"station_id":"cpo36qri1sfpv3e86is0","pricing_plan_id":"cebpf4jnsgd1na2vs0mg"},{"bike_id":"971c92cb-66df-438d-9a85-e63af939e6ff","system_id":"levelo_inurba_marseille","lat":43.28613,"lon":5.35108,"is_reserved":false,"is_disabled":true,"rental_uris":{"android":"levelo://app?vid=971c92cb-66df-438d-9a85-e63af939e6ff","ios":"levelo://app?vid=971c92cb-66df-438d-9a85-e63af939e6ff"},"vehicle_type_id":"4","last_reported":1743257297,"current_range_meters":6400,"station_id":"ce4bhch2rcd13ifvqeug","pricing_plan_id":"cebpf4jnsgd1na2vs0mg"},{"bike_id":"c6b682a7-e903-4363-967f-d69957e8f7ed","system_id":"levelo_inurba_marseille","lat":43.28629,"lon":5.35115,"is_reserved":false,"is_disabled":false,"rental_uris":{"android":"levelo://app?vid=c6b682a7-e903-4363-967f-d69957e8f7ed","ios":"levelo://app?vid=c6b682a7-e903-4363-967f-d69957e8f7ed"},"vehicle_type_id":"4","last_reported":1743257297,"current_range_meters":6400,"station_id":"ce4bhch2rcd13ifvqeug","pricing_plan_id":"cebpf4jnsgd1na2vs0mg"},{"bike_id":"24032ffe-ae67-4ae3-907b-2aab152facd4","system_id":"levelo_inurba_marseille","lat":43.29201,"lon":5.35804,"is_reserved":false,"is_disabled":false,"rental_uris":{"android":"levelo://app?vid=24032ffe-ae67-4ae3-907b-2aab152facd4","ios":"levelo://app?vid=24032ffe-ae67-4ae3-907b-2aab152facd4"},"vehicle_type_id":"4","last_reported":1743257297,"current_range_meters":6400,"station_id":"ce4bhb12rcd13ifvqel0","pricing_plan_id":"cebpf4jnsgd1na2vs0mg"},{"bike_id":"050d458d-cce9-44b3-9d16-b8a5c2076354","system_id":"levelo_inurba_marseille","lat":43.31762,"lon":5.39016,"is_reserved":false,"is_disabled":false,"rental_uris":{"android":"levelo://app?vid=050d458d-cce9-44b3-9d16-b8a5c2076354","ios":"levelo://app?vid=050d458d-cce9-44b3-9d16-b8a5c2076354"},"vehicle_type_id":"4","last_reported":1743257297,"current_range_meters":6400,"station_id":"ce4bhqp2rcd13ifvqhng","pricing_plan_id":"cebpf4jnsgd1na2vs0mg"},{"bike_id":"e68a3cd4-776d-477e-b868-19282e6dc1d7","system_id":"levelo_inurba_marseille","lat":43.30776,"lon":5.37659,"is_reserved":false,"is_disabled":false,"rental_uris":{"android":"levelo://app?vid=e68a3cd4-776d-477e-b868-19282e6dc1d7","ios":"levelo://app?vid=e68a3cd4-776d-477e-b868-19282e6dc1d7"},"vehicle_type_id":"4","last_reported":1743257297,"current_range_meters":6400,"station_id":"ce4bgv92rcd13ifvqcq0","pricing_plan_id":"cebpf4jnsgd1na2vs0mg"},{"bike_id":"1a331a69-e7b0-4d3f-83c5-eac8163c9b6f","system_id":"levelo_inurba_marseille","lat":43.30792,"lon":5.37656,"is_reserved":false,"is_disabled":false,"rental_uris":{"android":"levelo://app?vid=1a331a69-e7b0-4d3f-83c5-eac8163c9b6f","ios":"levelo://app?vid=1a331a69-e7b0-4d3f-83c5-eac8163c9b6f"},"vehicle_type_id":"4","last_reported":1743257297,"current_range_meters":6800,"station_id":"ce4bgv92rcd13ifvqcq0","pricing_plan_id":"cebpf4jnsgd1na2vs0mg"},{"bike_id":"90df0f14-f996-423e-b605-53c2c708242e","system_id":"levelo_inurba_marseille","lat":43.31674,"lon":5.40515,"is_reserved":false,"is_disabled":false,"rental_uris":{"android":"levelo://app?vid=90df0f14-f996-423e-b605-53c2c708242e","ios":"levelo://app?vid=90df0f14-f996-423e-b605-53c2c708242e"},"vehicle_type_id":"4","last_reported":1743257297,"current_range_meters":6800,"station_id":"ce4bh012rcd13ifvqd00","pricing_plan_id":"cebpf4jnsgd1na2vs0mg"},{"bike_id":"87ce5af9-2c3f-4b34-8106-a0bd98c8708b","system_id":"levelo_inurba_marseille","lat":43.27992,"lon":5.40015,"is_reserved":false,"is_disabled":false,"rental_uris":{"android":"levelo://app?vid=87ce5af9-2c3f-4b34-8106-a0bd98c8708b","ios":"levelo://app?vid=87ce5af9-2c3f-4b34-8106-a0bd98c8708b"},"vehicle_type_id":"4","last_reported":1743257297,"current_range_meters":6800,"station_id":"ce4bho92rcd13ifvqh4g","pricing_plan_id":"cebpf4jnsgd1na2vs0mg"},{"bike_id":"225785e8-7f30-4a04-bff8-1e23f5aed572","system_id":"levelo_inurba_marseille","lat":43.2804,"lon":5.36953,"is_reserved":false,"is_disabled":false,"rental_uris":{"android":"levelo://app?vid=225785e8-7f30-4a04-bff8-1e23f5aed572","ios":"levelo://app?vid=225785e8-7f30-4a04-bff8-1e23f5aed572"},"vehicle_type_id":"4","last_reported":1743257297,"current_range_meters":6800,"station_id":"ce4bha12rcd13ifvqef0","pricing_plan_id":"cebpf4jnsgd1na2vs0mg"},{"bike_id":"cb9e2ea5-cb0a-499c-bf99-a773583be23f","system_id":"levelo_inurba_marseille","lat":43.23152,"lon":5.43722,"is_reserved":false,"is_disabled":false,"rental_uris":{"android":"levelo://app?vid=cb9e2ea5-cb0a-499c-bf99-a773583be23f","ios":"levelo://app?vid=cb9e2ea5-cb0a-499c-bf99-a773583be23f"},"vehicle_type_id":"4","last_reported":1743257297,"current_range_meters":6800,"station_id":"ce4bhmp2rcd13ifvqgog","pricing_plan_id":"cebpf4jnsgd1na2vs0mg"},{"bike_id":"9d413904-69b8-4c60-9ddc-e0489e565f70","system_id":"levelo_inurba_marseille","lat":43.28938,"lon":5.36397,"is_reserved":false,"is_disabled":false,"rental_uris":{"android":"levelo://app?vid=9d413904-69b8-4c60-9ddc-e0489e565f70","ios":"levelo://app?vid=9d413904-69b8-4c60-9ddc-e0489e565f70"},"vehicle_type_id":"4","last_reported":1743257297,"current_range_meters":6800,"station_id":"ce4bhc92rcd13ifvqetg","pricing_plan_id":"cebpf4jnsgd1na2vs0mg"},{"bike_id":"ec9fec80-7f08-4f96-b444-6207b416ae2c","system_id":"levelo_inurba_marseille","lat":43.29032,"lon":5.38641,"is_reserved":false,"is_disabled":false,"rental_uris":{"android":"levelo://app?vid=ec9fec80-7f08-4f96-b444-6207b416ae2c","ios":"levelo://app?vid=ec9fec80-7f08-4f96-b444-6207b416ae2c"},"vehicle_type_id":"4","last_reported":1743257297,"current_range_meters":7200,"station_id":"ce4bh4p2rcd13ifvqe0g","pricing_plan_id":"cebpf4jnsgd1na2vs0mg"},{"bike_id":"b9af09b3-bd4b-4a74-87ac-686b9ad59064","system_id":"levelo_inurba_marseille","lat":43.29624,"lon":5.3771,"is_reserved":false,"is_disabled":false,"rental_uris":{"android":"levelo://app?vid=b9af09b3-bd4b-4a74-87ac-686b9ad59064","ios":"levelo://app?vid=b9af09b3-bd4b-4a74-87ac-686b9ad59064"},"vehicle_type_id":"4","last_reported":1743257297,"current_range_meters":7200,"station_id":"ce4bgi92rcd13ifvqb90","pricing_plan_id":"cebpf4jnsgd1na2vs0mg"},{"bike_id":"1ba8cbe1-8c9f-4995-8787-e65709d2d101","system_id":"levelo_inurba_marseille","lat":43.29576,"lon":5.39991,"is_reserved":false,"is_disabled":false,"rental_uris":{"android":"levelo://app?vid=1ba8cbe1-8c9f-4995-8787-e65709d2d101","ios":"levelo://app?vid=1ba8cbe1-8c9f-4995-8787-e65709d2d101"},"vehicle_type_id":"4","last_reported":1743257297,"current_range_meters":7200,"station_id":"ce4bh312rcd13ifvqdj0","pricing_plan_id":"cebpf4jnsgd1na2vs0mg"},{"bike_id":"7e3f21a9-a66f-452c-a43c-3918e8061997","system_id":"levelo_inurba_marseille","lat":43.32096,"lon":5.36808,"is_reserved":false,"is_disabled":false,"rental_uris":{"android":"levelo://app?vid=7e3f21a9-a66f-452c-a43c-3918e8061997","ios":"levelo://app?vid=7e3f21a9-a66f-452c-a43c-3918e8061997"},"vehicle_type_id":"4","last_reported":1743257297,"current_range_meters":7200,"station_id":"ce4bhrh2rcd13ifvqhug","pricing_plan_id":"cebpf4jnsgd1na2vs0mg"},{"bike_id":"d6ae2dac-bcff-421f-8aa6-f2a5b3559285","system_id":"levelo_inurba_marseille","lat":43.26498,"lon":5.39535,"is_reserved":false,"is_disabled":false,"rental_uris":{"android":"levelo://app?vid=d6ae2dac-bcff-421f-8aa6-f2a5b3559285","ios":"levelo://app?vid=d6ae2dac-bcff-421f-8aa6-f2a5b3559285"},"vehicle_type_id":"4","last_reported":1743257297,"current_range_meters":7200,"station_id":"ce4bhi12rcd13ifvqfq0","pricing_plan_id":"cebpf4jnsgd1na2vs0mg"},{"bike_id":"f47eba55-a588-4033-a3dc-992c836c995d","system_id":"levelo_inurba_marseille","lat":43.31702,"lon":5.40514,"is_reserved":false,"is_disabled":false,"rental_uris":{"android":"levelo://app?vid=f47eba55-a588-4033-a3dc-992c836c995d","ios":"levelo://app?vid=f47eba55-a588-4033-a3dc-992c836c995d"},"vehicle_type_id":"4","last_reported":1743257297,"current_range_meters":8000,"station_id":"ce4bh012rcd13ifvqd00","pricing_plan_id":"cebpf4jnsgd1na2vs0mg"},{"bike_id":"3a94c15e-d366-41bf-a8af-7035ce7ddb9e","system_id":"levelo_inurba_marseille","lat":43.27904,"lon":5.38016,"is_reserved":false,"is_disabled":false,"rental_uris":{"android":"levelo://app?vid=3a94c15e-d366-41bf-a8af-7035ce7ddb9e","ios":"levelo://app?vid=3a94c15e-d366-41bf-a8af-7035ce7ddb9e"},"vehicle_type_id":"4","last_reported":1743257297,"current_range_meters":7200,"station_id":"ce4bhf92rcd13ifvqf50","pricing_plan_id":"cebpf4jnsgd1na2vs0mg"},{"bike_id":"4be66ee6-2765-482c-8c47-2f9759238082","system_id":"levelo_inurba_marseille","lat":43.2872,"lon":5.37943,"is_reserved":false,"is_disabled":false,"rental_uris":{"android":"levelo://app?vid=4be66ee6-2765-482c-8c47-2f9759238082","ios":"levelo://app?vid=4be66ee6-2765-482c-8c47-2f9759238082"},"vehicle_type_id":"4","last_reported":1743257297,"current_range_meters":8000,"station_id":"ce4bh9p2rcd13ifvqec0","pricing_plan_id":"cebpf4jnsgd1na2vs0mg"},{"bike_id":"d2fd90f5-bef9-4c9a-bead-edb1dcb449a0","system_id":"levelo_inurba_marseille","lat":43.3134,"lon":5.36721,"is_reserved":false,"is_disabled":false,"rental_uris":{"android":"levelo://app?vid=d2fd90f5-bef9-4c9a-bead-edb1dcb449a0","ios":"levelo://app?vid=d2fd90f5-bef9-4c9a-bead-edb1dcb449a0"},"vehicle_type_id":"4","last_reported":1743257297,"current_range_meters":7200,"station_id":"ce4bgr92rcd13ifvqc6g","pricing_plan_id":"cebpf4jnsgd1na2vs0mg"},{"bike_id":"8b636594-71d4-4082-948c-c3b34a30ba92","system_id":"levelo_inurba_marseille","lat":43.29023,"lon":5.38643,"is_reserved":false,"is_disabled":false,"rental_uris":{"android":"levelo://app?vid=8b636594-71d4-4082-948c-c3b34a30ba92","ios":"levelo://app?vid=8b636594-71d4-4082-948c-c3b34a30ba92"},"vehicle_type_id":"4","last_reported":1743257297,"current_range_meters":8000,"station_id":"ce4bh4p2rcd13ifvqe0g","pricing_plan_id":"cebpf4jnsgd1na2vs0mg"},{"bike_id":"d5ffff0a-47db-470d-a1ce-99a37bfcd090","system_id":"levelo_inurba_marseille","lat":43.28597,"lon":5.35134,"is_reserved":false,"is_disabled":false,"rental_uris":{"android":"levelo://app?vid=d5ffff0a-47db-470d-a1ce-99a37bfcd090","ios":"levelo://app?vid=d5ffff0a-47db-470d-a1ce-99a37bfcd090"},"vehicle_type_id":"4","last_reported":1743257297,"current_range_meters":8000,"station_id":"ce4bhch2rcd13ifvqeug","pricing_plan_id":"cebpf4jnsgd1na2vs0mg"},{"bike_id":"7cb45fac-62b5-4ead-be9c-e53660ce9dfb","system_id":"levelo_inurba_marseille","lat":43.2873,"lon":5.4,"is_reserved":false,"is_disabled":false,"rental_uris":{"android":"levelo://app?vid=7cb45fac-62b5-4ead-be9c-e53660ce9dfb","ios":"levelo://app?vid=7cb45fac-62b5-4ead-be9c-e53660ce9dfb"},"vehicle_type_id":"4","last_reported":1743257297,"current_range_meters":8400,"station_id":"ce4bho92rcd13ifvqh3g","pricing_plan_id":"cebpf4jnsgd1na2vs0mg"},{"bike_id":"1b4e5c48-f3b8-4ca5-9244-3815d3918bd4","system_id":"levelo_inurba_marseille","lat":43.32369,"lon":5.38881,"is_reserved":false,"is_disabled":false,"rental_uris":{"android":"levelo://app?vid=1b4e5c48-f3b8-4ca5-9244-3815d3918bd4","ios":"levelo://app?vid=1b4e5c48-f3b8-4ca5-9244-3815d3918bd4"},"vehicle_type_id":"4","last_reported":1743257297,"current_range_meters":8400,"station_id":"ce4bhqp2rcd13ifvqhog","pricing_plan_id":"cebpf4jnsgd1na2vs0mg"},{"bike_id":"dfac1de6-6032-4915-aa64-5b36d861ed31","system_id":"levelo_inurba_marseille","lat":43.305389,"lon":5.365551,"is_reserved":false,"is_disabled":false,"rental_uris":{"android":"levelo://app?vid=dfac1de6-6032-4915-aa64-5b36d861ed31","ios":"levelo://app?vid=dfac1de6-6032-4915-aa64-5b36d861ed31"},"vehicle_type_id":"4","last_reported":1743257297,"current_range_meters":4400,"station_id":"ce4bgs12rcd13ifvqcag","pricing_plan_id":"cebpf4jnsgd1na2vs0mg"},{"bike_id":"78879d72-d868-43c9-a743-a6ab48dd9b11","system_id":"levelo_inurba_marseille","lat":43.28729,"lon":5.36092,"is_reserved":false,"is_disabled":false,"rental_uris":{"android":"levelo://app?vid=78879d72-d868-43c9-a743-a6ab48dd9b11","ios":"levelo://app?vid=78879d72-d868-43c9-a743-a6ab48dd9b11"},"vehicle_type_id":"4","last_reported":1743257297,"current_range_meters":8400,"station_id":"cki0cbj6b192h4jlfktg","pricing_plan_id":"cebpf4jnsgd1na2vs0mg"},{"bike_id":"6082a6d8-29f3-4441-bd82-d0f95ead75d7","system_id":"levelo_inurba_marseille","lat":43.23197,"lon":5.35538,"is_reserved":false,"is_disabled":false,"rental_uris":{"android":"levelo://app?vid=6082a6d8-29f3-4441-bd82-d0f95ead75d7","ios":"levelo://app?vid=6082a6d8-29f3-4441-bd82-d0f95ead75d7"},"vehicle_type_id":"4","last_reported":1743257297,"current_range_meters":8400,"station_id":"ce4bhu92rcd13ifvqi70","pricing_plan_id":"cebpf4jnsgd1na2vs0mg"},{"bike_id":"676aa410-285a-48fa-832f-41d35fee7288","system_id":"levelo_inurba_marseille","lat":43.29325,"lon":5.36935,"is_reserved":false,"is_disabled":false,"rental_uris":{"android":"levelo://app?vid=676aa410-285a-48fa-832f-41d35fee7288","ios":"levelo://app?vid=676aa410-285a-48fa-832f-41d35fee7288"},"vehicle_type_id":"4","last_reported":1743257297,"current_range_meters":8400,"station_id":"","pricing_plan_id":"cebpf4jnsgd1na2vs0mg"},{"bike_id":"4b2c1881-52bd-4d86-b129-d51cb0d3c821","system_id":"levelo_inurba_marseille","lat":43.29601,"lon":5.38113,"is_reserved":false,"is_disabled":false,"rental_uris":{"android":"levelo://app?vid=4b2c1881-52bd-4d86-b129-d51cb0d3c821","ios":"levelo://app?vid=4b2c1881-52bd-4d86-b129-d51cb0d3c821"},"vehicle_type_id":"4","last_reported":1743257297,"current_range_meters":8400,"station_id":"ce4bgl12rcd13ifvqbo0","pricing_plan_id":"cebpf4jnsgd1na2vs0mg"},{"bike_id":"b5ace6c6-32e3-486d-9744-efb1ce0dfa9d","system_id":"levelo_inurba_marseille","lat":43.28929,"lon":5.37112,"is_reserved":false,"is_disabled":true,"rental_uris":{"android":"levelo://app?vid=b5ace6c6-32e3-486d-9744-efb1ce0dfa9d","ios":"levelo://app?vid=b5ace6c6-32e3-486d-9744-efb1ce0dfa9d"},"vehicle_type_id":"4","last_reported":1743257297,"current_range_meters":8400,"station_id":"","pricing_plan_id":"cebpf4jnsgd1na2vs0mg"},{"bike_id":"f4782c7c-504d-4039-9b8a-78d38ad4a67b","system_id":"levelo_inurba_marseille","lat":43.29421,"lon":5.38625,"is_reserved":false,"is_disabled":false,"rental_uris":{"android":"levelo://app?vid=f4782c7c-504d-4039-9b8a-78d38ad4a67b","ios":"levelo://app?vid=f4782c7c-504d-4039-9b8a-78d38ad4a67b"},"vehicle_type_id":"4","last_reported":1743257297,"current_range_meters":8400,"station_id":"ce4bh2h2rcd13ifvqdh0","pricing_plan_id":"cebpf4jnsgd1na2vs0mg"},{"bike_id":"7c361f57-b0b1-4353-8ff6-65448b7d8ef6","system_id":"levelo_inurba_marseille","lat":43.29634,"lon":5.37162,"is_reserved":false,"is_disabled":false,"rental_uris":{"android":"levelo://app?vid=7c361f57-b0b1-4353-8ff6-65448b7d8ef6","ios":"levelo://app?vid=7c361f57-b0b1-4353-8ff6-65448b7d8ef6"},"vehicle_type_id":"4","last_reported":1743257297,"current_range_meters":8400,"station_id":"ce4bgnh2rcd13ifvqc0g","pricing_plan_id":"cebpf4jnsgd1na2vs0mg"},{"bike_id":"bb238aab-ecce-4d51-ba90-677f93725c94","system_id":"levelo_inurba_marseille","lat":43.34148,"lon":5.40913,"is_reserved":false,"is_disabled":false,"rental_uris":{"android":"levelo://app?vid=bb238aab-ecce-4d51-ba90-677f93725c94","ios":"levelo://app?vid=bb238aab-ecce-4d51-ba90-677f93725c94"},"vehicle_type_id":"4","last_reported":1743257297,"current_range_meters":8400,"station_id":"ce4bhqh2rcd13ifvqhlg","pricing_plan_id":"cebpf4jnsgd1na2vs0mg"},{"bike_id":"87e44580-9c77-4ba7-b85e-f97ccf4f74a7","system_id":"levelo_inurba_marseille","lat":43.265789,"lon":5.39045,"is_reserved":false,"is_disabled":false,"rental_uris":{"android":"levelo://app?vid=87e44580-9c77-4ba7-b85e-f97ccf4f74a7","ios":"levelo://app?vid=87e44580-9c77-4ba7-b85e-f97ccf4f74a7"},"vehicle_type_id":"4","last_reported":1743257297,"current_range_meters":8400,"station_id":"ce4bhe12rcd13ifvqf30","pricing_plan_id":"cebpf4jnsgd1na2vs0mg"},{"bike_id":"043c60ec-2c8f-437a-b307-ea1603541d8f","system_id":"levelo_inurba_marseille","lat":43.28478,"lon":5.38559,"is_reserved":false,"is_disabled":false,"rental_uris":{"android":"levelo://app?vid=043c60ec-2c8f-437a-b307-ea1603541d8f","ios":"levelo://app?vid=043c60ec-2c8f-437a-b307-ea1603541d8f"},"vehicle_type_id":"4","last_reported":1743257297,"current_range_meters":8400,"station_id":"ce4bh8p2rcd13ifvqeb0","pricing_plan_id":"cebpf4jnsgd1na2vs0mg"},{"bike_id":"c8ba5838-dfe0-4188-bf83-e110456d7940","system_id":"levelo_inurba_marseille","lat":43.25577,"lon":5.38231,"is_reserved":false,"is_disabled":false,"rental_uris":{"android":"levelo://app?vid=c8ba5838-dfe0-4188-bf83-e110456d7940","ios":"levelo://app?vid=c8ba5838-dfe0-4188-bf83-e110456d7940"},"vehicle_type_id":"4","last_reported":1743257297,"current_range_meters":8400,"station_id":"ce4bhih2rcd13ifvqfs0","pricing_plan_id":"cebpf4jnsgd1na2vs0mg"},{"bike_id":"983c4c9f-ee1a-4d13-8ce7-bfd36c479f46","system_id":"levelo_inurba_marseille","lat":43.24168,"lon":5.36416,"is_reserved":false,"is_disabled":false,"rental_uris":{"android":"levelo://app?vid=983c4c9f-ee1a-4d13-8ce7-bfd36c479f46","ios":"levelo://app?vid=983c4c9f-ee1a-4d13-8ce7-bfd36c479f46"},"vehicle_type_id":"4","last_reported":1743257297,"current_range_meters":8800,"station_id":"cpo36qri1sfpv3e86is0","pricing_plan_id":"cebpf4jnsgd1na2vs0mg"},{"bike_id":"d110ea9c-afe8-47f1-b008-e66bc6e44a55","system_id":"levelo_inurba_marseille","lat":43.28416,"lon":5.34978,"is_reserved":false,"is_disabled":false,"rental_uris":{"android":"levelo://app?vid=d110ea9c-afe8-47f1-b008-e66bc6e44a55","ios":"levelo://app?vid=d110ea9c-afe8-47f1-b008-e66bc6e44a55"},"vehicle_type_id":"4","last_reported":1743257297,"current_range_meters":8800,"station_id":"ce4bhbh2rcd13ifvqepg","pricing_plan_id":"cebpf4jnsgd1na2vs0mg"},{"bike_id":"3a2e35ff-67f7-42a4-b09b-1fe3ef6e95d8","system_id":"levelo_inurba_marseille","lat":43.22934,"lon":5.35379,"is_reserved":false,"is_disabled":false,"rental_uris":{"android":"levelo://app?vid=3a2e35ff-67f7-42a4-b09b-1fe3ef6e95d8","ios":"levelo://app?vid=3a2e35ff-67f7-42a4-b09b-1fe3ef6e95d8"},"vehicle_type_id":"4","last_reported":1743257297,"current_range_meters":8800,"station_id":"cpo3532slgdg3j2ikp40","pricing_plan_id":"cebpf4jnsgd1na2vs0mg"},{"bike_id":"6f85d16b-6791-421f-9655-2cbde3f9e73b","system_id":"levelo_inurba_marseille","lat":43.27508,"lon":5.42454,"is_reserved":false,"is_disabled":false,"rental_uris":{"android":"levelo://app?vid=6f85d16b-6791-421f-9655-2cbde3f9e73b","ios":"levelo://app?vid=6f85d16b-6791-421f-9655-2cbde3f9e73b"},"vehicle_type_id":"4","last_reported":1743257297,"current_range_meters":8800,"station_id":"ce4bhn92rcd13ifvqgrg","pricing_plan_id":"cebpf4jnsgd1na2vs0mg"},{"bike_id":"1a8ec8fe-cd0f-44f4-9a76-dfc354a60ccc","system_id":"levelo_inurba_marseille","lat":43.23964,"lon":5.3663,"is_reserved":false,"is_disabled":false,"rental_uris":{"android":"levelo://app?vid=1a8ec8fe-cd0f-44f4-9a76-dfc354a60ccc","ios":"levelo://app?vid=1a8ec8fe-cd0f-44f4-9a76-dfc354a60ccc"},"vehicle_type_id":"4","last_reported":1743257297,"current_range_meters":8800,"station_id":"ce4bhi12rcd13ifvqfp0","pricing_plan_id":"cebpf4jnsgd1na2vs0mg"},{"bike_id":"0c7da197-8692-4591-acef-c575297c74b5","system_id":"levelo_inurba_marseille","lat":43.29029,"lon":5.38137,"is_reserved":false,"is_disabled":false,"rental_uris":{"android":"levelo://app?vid=0c7da197-8692-4591-acef-c575297c74b5","ios":"levelo://app?vid=0c7da197-8692-4591-acef-c575297c74b5"},"vehicle_type_id":"4","last_reported":1743257297,"current_range_meters":8800,"station_id":"ce4bh4p2rcd13ifvqe1g","pricing_plan_id":"cebpf4jnsgd1na2vs0mg"},{"bike_id":"d14cdd1e-f0b3-48a5-be5e-77128af69a2d","system_id":"levelo_inurba_marseille","lat":43.28619,"lon":5.35134,"is_reserved":false,"is_disabled":false,"rental_uris":{"android":"levelo://app?vid=d14cdd1e-f0b3-48a5-be5e-77128af69a2d","ios":"levelo://app?vid=d14cdd1e-f0b3-48a5-be5e-77128af69a2d"},"vehicle_type_id":"4","last_reported":1743257297,"current_range_meters":8800,"station_id":"ce4bhch2rcd13ifvqeug","pricing_plan_id":"cebpf4jnsgd1na2vs0mg"},{"bike_id":"e4614adf-59ca-49c9-9f29-fb2629aacd37","system_id":"levelo_inurba_marseille","lat":43.28617,"lon":5.35103,"is_reserved":false,"is_disabled":true,"rental_uris":{"android":"levelo://app?vid=e4614adf-59ca-49c9-9f29-fb2629aacd37","ios":"levelo://app?vid=e4614adf-59ca-49c9-9f29-fb2629aacd37"},"vehicle_type_id":"4","last_reported":1743257297,"current_range_meters":8800,"station_id":"ce4bhch2rcd13ifvqeug","pricing_plan_id":"cebpf4jnsgd1na2vs0mg"},{"bike_id":"86402da5-f9ef-43b6-a281-06ce7c4c3160","system_id":"levelo_inurba_marseille","lat":43.28618,"lon":5.35106,"is_reserved":false,"is_disabled":false,"rental_uris":{"android":"levelo://app?vid=86402da5-f9ef-43b6-a281-06ce7c4c3160","ios":"levelo://app?vid=86402da5-f9ef-43b6-a281-06ce7c4c3160"},"vehicle_type_id":"4","last_reported":1743257297,"current_range_meters":9200,"station_id":"ce4bhch2rcd13ifvqeug","pricing_plan_id":"cebpf4jnsgd1na2vs0mg"},{"bike_id":"8b44f951-e783-4f15-a05f-c6e61aa67cf2","system_id":"levelo_inurba_marseille","lat":43.30434,"lon":5.38882,"is_reserved":false,"is_disabled":false,"rental_uris":{"android":"levelo://app?vid=8b44f951-e783-4f15-a05f-c6e61aa67cf2","ios":"levelo://app?vid=8b44f951-e783-4f15-a05f-c6e61aa67cf2"},"vehicle_type_id":"4","last_reported":1743257297,"current_range_meters":9200,"station_id":"ce4bgk12rcd13ifvqbi0","pricing_plan_id":"cebpf4jnsgd1na2vs0mg"},{"bike_id":"0018b987-2a7a-4a9c-80b2-45a82c3f3de7","system_id":"levelo_inurba_marseille","lat":43.2407,"lon":5.3777,"is_reserved":false,"is_disabled":false,"rental_uris":{"android":"levelo://app?vid=0018b987-2a7a-4a9c-80b2-45a82c3f3de7","ios":"levelo://app?vid=0018b987-2a7a-4a9c-80b2-45a82c3f3de7"},"vehicle_type_id":"4","last_reported":1743257297,"current_range_meters":9200,"station_id":"ce4bhnp2rcd13ifvqgvg","pricing_plan_id":"cebpf4jnsgd1na2vs0mg"},{"bike_id":"3f95773c-5714-403e-b7e4-ca8def34a69d","system_id":"levelo_inurba_marseille","lat":43.28409,"lon":5.34974,"is_reserved":false,"is_disabled":false,"rental_uris":{"android":"levelo://app?vid=3f95773c-5714-403e-b7e4-ca8def34a69d","ios":"levelo://app?vid=3f95773c-5714-403e-b7e4-ca8def34a69d"},"vehicle_type_id":"4","last_reported":1743257297,"current_range_meters":9200,"station_id":"ce4bhbh2rcd13ifvqepg","pricing_plan_id":"cebpf4jnsgd1na2vs0mg"},{"bike_id":"b1ecd358-38ec-4753-8af1-9b87454b444a","system_id":"levelo_inurba_marseille","lat":43.28609,"lon":5.35106,"is_reserved":false,"is_disabled":false,"rental_uris":{"android":"levelo://app?vid=b1ecd358-38ec-4753-8af1-9b87454b444a","ios":"levelo://app?vid=b1ecd358-38ec-4753-8af1-9b87454b444a"},"vehicle_type_id":"4","last_reported":1743257297,"current_range_meters":9200,"station_id":"ce4bhch2rcd13ifvqeug","pricing_plan_id":"cebpf4jnsgd1na2vs0mg"},{"bike_id":"2173b0b5-2e96-4975-a279-f9d4db4edd7f","system_id":"levelo_inurba_marseille","lat":43.30321,"lon":5.40434,"is_reserved":false,"is_disabled":false,"rental_uris":{"android":"levelo://app?vid=2173b0b5-2e96-4975-a279-f9d4db4edd7f","ios":"levelo://app?vid=2173b0b5-2e96-4975-a279-f9d4db4edd7f"},"vehicle_type_id":"4","last_reported":1743257297,"current_range_meters":9200,"station_id":"ce4bh012rcd13ifvqd10","pricing_plan_id":"cebpf4jnsgd1na2vs0mg"},{"bike_id":"980b1b8d-c114-4f00-88f8-a0ddccb8fb71","system_id":"levelo_inurba_marseille","lat":43.28564,"lon":5.35122,"is_reserved":false,"is_disabled":false,"rental_uris":{"android":"levelo://app?vid=980b1b8d-c114-4f00-88f8-a0ddccb8fb71","ios":"levelo://app?vid=980b1b8d-c114-4f00-88f8-a0ddccb8fb71"},"vehicle_type_id":"4","last_reported":1743257297,"current_range_meters":9200,"station_id":"","pricing_plan_id":"cebpf4jnsgd1na2vs0mg"},{"bike_id":"f7a24c9b-d23c-40a3-83cb-9f8f8d282ead","system_id":"levelo_inurba_marseille","lat":43.2927,"lon":5.36847,"is_reserved":false,"is_disabled":false,"rental_uris":{"android":"levelo://app?vid=f7a24c9b-d23c-40a3-83cb-9f8f8d282ead","ios":"levelo://app?vid=f7a24c9b-d23c-40a3-83cb-9f8f8d282ead"},"vehicle_type_id":"4","last_reported":1743257297,"current_range_meters":9200,"station_id":"ce4bhbp2rcd13ifvqesg","pricing_plan_id":"cebpf4jnsgd1na2vs0mg"},{"bike_id":"ec7fad38-eec5-42f3-9551-09fdb84b5ae7","system_id":"levelo_inurba_marseille","lat":43.299115,"lon":5.381508,"is_reserved":false,"is_disabled":false,"rental_uris":{"android":"levelo://app?vid=ec7fad38-eec5-42f3-9551-09fdb84b5ae7","ios":"levelo://app?vid=ec7fad38-eec5-42f3-9551-09fdb84b5ae7"},"vehicle_type_id":"4","last_reported":1743257297,"current_range_meters":8800,"station_id":"ce4bh0h2rcd13ifvqd50","pricing_plan_id":"cebpf4jnsgd1na2vs0mg"},{"bike_id":"af2d613f-1598-4f6c-b6c8-0f2169b865ac","system_id":"levelo_inurba_marseille","lat":43.27119,"lon":5.39254,"is_reserved":false,"is_disabled":false,"rental_uris":{"android":"levelo://app?vid=af2d613f-1598-4f6c-b6c8-0f2169b865ac","ios":"levelo://app?vid=af2d613f-1598-4f6c-b6c8-0f2169b865ac"},"vehicle_type_id":"4","last_reported":1743257297,"current_range_meters":9200,"station_id":"","pricing_plan_id":"cebpf4jnsgd1na2vs0mg"},{"bike_id":"9bd349ae-e847-4d86-a3a7-4656a1832a5d","system_id":"levelo_inurba_marseille","lat":43.29258,"lon":5.37612,"is_reserved":false,"is_disabled":false,"rental_uris":{"android":"levelo://app?vid=9bd349ae-e847-4d86-a3a7-4656a1832a5d","ios":"levelo://app?vid=9bd349ae-e847-4d86-a3a7-4656a1832a5d"},"vehicle_type_id":"4","last_reported":1743257297,"current_range_meters":9600,"station_id":"ce4bgi12rcd13ifvqb80","pricing_plan_id":"cebpf4jnsgd1na2vs0mg"},{"bike_id":"96fa1290-e699-40b9-9109-379d3b77c6fb","system_id":"levelo_inurba_marseille","lat":43.33735,"lon":5.39178,"is_reserved":false,"is_disabled":false,"rental_uris":{"android":"levelo://app?vid=96fa1290-e699-40b9-9109-379d3b77c6fb","ios":"levelo://app?vid=96fa1290-e699-40b9-9109-379d3b77c6fb"},"vehicle_type_id":"4","last_reported":1743257297,"current_range_meters":9600,"station_id":"ce4bhr92rcd13ifvqhsg","pricing_plan_id":"cebpf4jnsgd1na2vs0mg"},{"bike_id":"eaddfac1-0bf4-4f61-8016-0c16cda63728","system_id":"levelo_inurba_marseille","lat":43.29225,"lon":5.36069,"is_reserved":false,"is_disabled":false,"rental_uris":{"android":"levelo://app?vid=eaddfac1-0bf4-4f61-8016-0c16cda63728","ios":"levelo://app?vid=eaddfac1-0bf4-4f61-8016-0c16cda63728"},"vehicle_type_id":"4","last_reported":1743257297,"current_range_meters":9600,"station_id":"ce4bhbh2rcd13ifvqeqg","pricing_plan_id":"cebpf4jnsgd1na2vs0mg"},{"bike_id":"3ebec30b-3321-422a-b912-1c4632fda65e","system_id":"levelo_inurba_marseille","lat":43.25581,"lon":5.38234,"is_reserved":false,"is_disabled":false,"rental_uris":{"android":"levelo://app?vid=3ebec30b-3321-422a-b912-1c4632fda65e","ios":"levelo://app?vid=3ebec30b-3321-422a-b912-1c4632fda65e"},"vehicle_type_id":"4","last_reported":1743257297,"current_range_meters":9600,"station_id":"ce4bhih2rcd13ifvqfs0","pricing_plan_id":"cebpf4jnsgd1na2vs0mg"},{"bike_id":"88e39959-9376-48ac-ba76-c1bc6476f1c0","system_id":"levelo_inurba_marseille","lat":43.29236,"lon":5.3608,"is_reserved":false,"is_disabled":false,"rental_uris":{"android":"levelo://app?vid=88e39959-9376-48ac-ba76-c1bc6476f1c0","ios":"levelo://app?vid=88e39959-9376-48ac-ba76-c1bc6476f1c0"},"vehicle_type_id":"4","last_reported":1743257297,"current_range_meters":9600,"station_id":"ce4bhbh2rcd13ifvqeqg","pricing_plan_id":"cebpf4jnsgd1na2vs0mg"},{"bike_id":"9a1bde27-bb77-4d8c-b5d3-f8f65f6713cc","system_id":"levelo_inurba_marseille","lat":43.30141,"lon":5.38065,"is_reserved":false,"is_disabled":false,"rental_uris":{"android":"levelo://app?vid=9a1bde27-bb77-4d8c-b5d3-f8f65f6713cc","ios":"levelo://app?vid=9a1bde27-bb77-4d8c-b5d3-f8f65f6713cc"},"vehicle_type_id":"4","last_reported":1743257297,"current_range_meters":9200,"station_id":"ce4bgjp2rcd13ifvqbh0","pricing_plan_id":"cebpf4jnsgd1na2vs0mg"},{"bike_id":"4b2323ae-94b8-41f7-9062-4d9bd4bd549e","system_id":"levelo_inurba_marseille","lat":43.24174,"lon":5.36397,"is_reserved":false,"is_disabled":false,"rental_uris":{"android":"levelo://app?vid=4b2323ae-94b8-41f7-9062-4d9bd4bd549e","ios":"levelo://app?vid=4b2323ae-94b8-41f7-9062-4d9bd4bd549e"},"vehicle_type_id":"4","last_reported":1743257297,"current_range_meters":9600,"station_id":"cpo36qri1sfpv3e86is0","pricing_plan_id":"cebpf4jnsgd1na2vs0mg"},{"bike_id":"0e6adb54-9746-46f4-927a-19ae4512ce90","system_id":"levelo_inurba_marseille","lat":43.31757,"lon":5.39015,"is_reserved":false,"is_disabled":false,"rental_uris":{"android":"levelo://app?vid=0e6adb54-9746-46f4-927a-19ae4512ce90","ios":"levelo://app?vid=0e6adb54-9746-46f4-927a-19ae4512ce90"},"vehicle_type_id":"4","last_reported":1743257297,"current_range_meters":9600,"station_id":"ce4bhqp2rcd13ifvqhng","pricing_plan_id":"cebpf4jnsgd1na2vs0mg"},{"bike_id":"2fbca94b-fdf1-4466-8adf-829c79632524","system_id":"levelo_inurba_marseille","lat":43.313704,"lon":5.384876,"is_reserved":false,"is_disabled":false,"rental_uris":{"android":"levelo://app?vid=2fbca94b-fdf1-4466-8adf-829c79632524","ios":"levelo://app?vid=2fbca94b-fdf1-4466-8adf-829c79632524"},"vehicle_type_id":"4","last_reported":1743257297,"current_range_meters":9200,"station_id":"ce4bhgp2rcd13ifvqfe0","pricing_plan_id":"cebpf4jnsgd1na2vs0mg"},{"bike_id":"5db2ae9d-4713-41e8-8a26-ea7822e4f940","system_id":"levelo_inurba_marseille","lat":43.23965,"lon":5.3664,"is_reserved":false,"is_disabled":false,"rental_uris":{"android":"levelo://app?vid=5db2ae9d-4713-41e8-8a26-ea7822e4f940","ios":"levelo://app?vid=5db2ae9d-4713-41e8-8a26-ea7822e4f940"},"vehicle_type_id":"4","last_reported":1743257297,"current_range_meters":9600,"station_id":"ce4bhi12rcd13ifvqfp0","pricing_plan_id":"cebpf4jnsgd1na2vs0mg"},{"bike_id":"4586e23a-2d77-446c-8e8c-a15b6ae5de02","system_id":"levelo_inurba_marseille","lat":43.286,"lon":5.38131,"is_reserved":false,"is_disabled":false,"rental_uris":{"android":"levelo://app?vid=4586e23a-2d77-446c-8e8c-a15b6ae5de02","ios":"levelo://app?vid=4586e23a-2d77-446c-8e8c-a15b6ae5de02"},"vehicle_type_id":"4","last_reported":1743257297,"current_range_meters":9600,"station_id":"","pricing_plan_id":"cebpf4jnsgd1na2vs0mg"},{"bike_id":"46917a89-bf69-4b5e-b03c-efd15eb2994c","system_id":"levelo_inurba_marseille","lat":43.28606,"lon":5.37069,"is_reserved":false,"is_disabled":false,"rental_uris":{"android":"levelo://app?vid=46917a89-bf69-4b5e-b03c-efd15eb2994c","ios":"levelo://app?vid=46917a89-bf69-4b5e-b03c-efd15eb2994c"},"vehicle_type_id":"4","last_reported":1743257297,"current_range_meters":9600,"station_id":"ce4bht12rcd13ifvqi60","pricing_plan_id":"cebpf4jnsgd1na2vs0mg"},{"bike_id":"41ae1e22-064e-4d1a-92ae-d34c65edf54d","system_id":"levelo_inurba_marseille","lat":43.30538,"lon":5.36542,"is_reserved":false,"is_disabled":false,"rental_uris":{"android":"levelo://app?vid=41ae1e22-064e-4d1a-92ae-d34c65edf54d","ios":"levelo://app?vid=41ae1e22-064e-4d1a-92ae-d34c65edf54d"},"vehicle_type_id":"4","last_reported":1743257297,"current_range_meters":9600,"station_id":"ce4bgs12rcd13ifvqcag","pricing_plan_id":"cebpf4jnsgd1na2vs0mg"},{"bike_id":"36dde486-6266-42ce-827b-8ad7ad4efa3e","system_id":"levelo_inurba_marseille","lat":43.30923,"lon":5.4014,"is_reserved":false,"is_disabled":false,"rental_uris":{"android":"levelo://app?vid=36dde486-6266-42ce-827b-8ad7ad4efa3e","ios":"levelo://app?vid=36dde486-6266-42ce-827b-8ad7ad4efa3e"},"vehicle_type_id":"4","last_reported":1743257297,"current_range_meters":9200,"station_id":"ce4bgvp2rcd13ifvqct0","pricing_plan_id":"cebpf4jnsgd1na2vs0mg"},{"bike_id":"3b9e2dbb-dda4-4ed5-8aef-7e67e6437f0d","system_id":"levelo_inurba_marseille","lat":43.33344,"lon":5.40136,"is_reserved":false,"is_disabled":false,"rental_uris":{"android":"levelo://app?vid=3b9e2dbb-dda4-4ed5-8aef-7e67e6437f0d","ios":"levelo://app?vid=3b9e2dbb-dda4-4ed5-8aef-7e67e6437f0d"},"vehicle_type_id":"4","last_reported":1743257297,"current_range_meters":9600,"station_id":"","pricing_plan_id":"cebpf4jnsgd1na2vs0mg"},{"bike_id":"42734d74-78e3-4255-9e64-fa4ef712b287","system_id":"levelo_inurba_marseille","lat":43.29574,"lon":5.37513,"is_reserved":false,"is_disabled":false,"rental_uris":{"android":"levelo://app?vid=42734d74-78e3-4255-9e64-fa4ef712b287","ios":"levelo://app?vid=42734d74-78e3-4255-9e64-fa4ef712b287"},"vehicle_type_id":"4","last_reported":1743257297,"current_range_meters":10000,"station_id":"ce4bgh92rcd13ifvqb50","pricing_plan_id":"cebpf4jnsgd1na2vs0mg"},{"bike_id":"2508ed17-951b-4956-b2d5-355c167384ef","system_id":"levelo_inurba_marseille","lat":43.24662,"lon":5.38165,"is_reserved":false,"is_disabled":false,"rental_uris":{"android":"levelo://app?vid=2508ed17-951b-4956-b2d5-355c167384ef","ios":"levelo://app?vid=2508ed17-951b-4956-b2d5-355c167384ef"},"vehicle_type_id":"4","last_reported":1743257297,"current_range_meters":10000,"station_id":"ce4bhih2rcd13ifvqfr0","pricing_plan_id":"cebpf4jnsgd1na2vs0mg"},{"bike_id":"ab9ea279-9c41-4e77-9558-297915f88b44","system_id":"levelo_inurba_marseille","lat":43.29782,"lon":5.37097,"is_reserved":false,"is_disabled":false,"rental_uris":{"android":"levelo://app?vid=ab9ea279-9c41-4e77-9558-297915f88b44","ios":"levelo://app?vid=ab9ea279-9c41-4e77-9558-297915f88b44"},"vehicle_type_id":"4","last_reported":1743257297,"current_range_meters":10000,"station_id":"ce4bgop2rcd13ifvqc1g","pricing_plan_id":"cebpf4jnsgd1na2vs0mg"},{"bike_id":"c039b3a3-dfc5-4473-9a36-f36cf023147d","system_id":"levelo_inurba_marseille","lat":43.23194,"lon":5.39983,"is_reserved":false,"is_disabled":true,"rental_uris":{"android":"levelo://app?vid=c039b3a3-dfc5-4473-9a36-f36cf023147d","ios":"levelo://app?vid=c039b3a3-dfc5-4473-9a36-f36cf023147d"},"vehicle_type_id":"4","last_reported":1743257297,"current_range_meters":10000,"station_id":"ce4bhn12rcd13ifvqgqg","pricing_plan_id":"cebpf4jnsgd1na2vs0mg"},{"bike_id":"3554961e-fd7d-4e4a-b39f-d13b2cd74872","system_id":"levelo_inurba_marseille","lat":43.29611,"lon":5.38096,"is_reserved":false,"is_disabled":false,"rental_uris":{"android":"levelo://app?vid=3554961e-fd7d-4e4a-b39f-d13b2cd74872","ios":"levelo://app?vid=3554961e-fd7d-4e4a-b39f-d13b2cd74872"},"vehicle_type_id":"4","last_reported":1743257297,"current_range_meters":10000,"station_id":"ce4bgl12rcd13ifvqbo0","pricing_plan_id":"cebpf4jnsgd1na2vs0mg"},{"bike_id":"b8a68e47-c659-4a24-b9bb-0c15fee55d1d","system_id":"levelo_inurba_marseille","lat":43.30244,"lon":5.40054,"is_reserved":false,"is_disabled":false,"rental_uris":{"android":"levelo://app?vid=b8a68e47-c659-4a24-b9bb-0c15fee55d1d","ios":"levelo://app?vid=b8a68e47-c659-4a24-b9bb-0c15fee55d1d"},"vehicle_type_id":"4","last_reported":1743257297,"current_range_meters":9600,"station_id":"ce4bgvh2rcd13ifvqcs0","pricing_plan_id":"cebpf4jnsgd1na2vs0mg"},{"bike_id":"85787c36-d211-4b48-afb8-8d6579e560de","system_id":"levelo_inurba_marseille","lat":43.27208,"lon":5.39183,"is_reserved":false,"is_disabled":false,"rental_uris":{"android":"levelo://app?vid=85787c36-d211-4b48-afb8-8d6579e560de","ios":"levelo://app?vid=85787c36-d211-4b48-afb8-8d6579e560de"},"vehicle_type_id":"4","last_reported":1743257297,"current_range_meters":10800,"station_id":"ce4bhhp2rcd13ifvqfm0","pricing_plan_id":"cebpf4jnsgd1na2vs0mg"},{"bike_id":"24565657-e482-4932-93db-e35fe49c2025","system_id":"levelo_inurba_marseille","lat":43.26683,"lon":5.38274,"is_reserved":false,"is_disabled":false,"rental_uris":{"android":"levelo://app?vid=24565657-e482-4932-93db-e35fe49c2025","ios":"levelo://app?vid=24565657-e482-4932-93db-e35fe49c2025"},"vehicle_type_id":"4","last_reported":1743257297,"current_range_meters":10800,"station_id":"ce4bhg92rcd13ifvqf90","pricing_plan_id":"cebpf4jnsgd1na2vs0mg"},{"bike_id":"34deff7a-8df1-4392-b2b5-03a09d30f60d","system_id":"levelo_inurba_marseille","lat":43.29975,"lon":5.37173,"is_reserved":false,"is_disabled":false,"rental_uris":{"android":"levelo://app?vid=34deff7a-8df1-4392-b2b5-03a09d30f60d","ios":"levelo://app?vid=34deff7a-8df1-4392-b2b5-03a09d30f60d"},"vehicle_type_id":"4","last_reported":1743257297,"current_range_meters":10800,"station_id":"ce4bgr92rcd13ifvqc7g","pricing_plan_id":"cebpf4jnsgd1na2vs0mg"},{"bike_id":"76a67849-e5ed-4fcc-83e7-ffe7c454b000","system_id":"levelo_inurba_marseille","lat":43.29266,"lon":5.38444,"is_reserved":false,"is_disabled":false,"rental_uris":{"android":"levelo://app?vid=76a67849-e5ed-4fcc-83e7-ffe7c454b000","ios":"levelo://app?vid=76a67849-e5ed-4fcc-83e7-ffe7c454b000"},"vehicle_type_id":"4","last_reported":1743257297,"current_range_meters":10800,"station_id":"ce4bh692rcd13ifvqea0","pricing_plan_id":"cebpf4jnsgd1na2vs0mg"},{"bike_id":"1fd10e10-496d-4345-8b66-b85ba9b696a4","system_id":"levelo_inurba_marseille","lat":43.29914,"lon":5.3746,"is_reserved":false,"is_disabled":false,"rental_uris":{"android":"levelo://app?vid=1fd10e10-496d-4345-8b66-b85ba9b696a4","ios":"levelo://app?vid=1fd10e10-496d-4345-8b66-b85ba9b696a4"},"vehicle_type_id":"4","last_reported":1743257297,"current_range_meters":10800,"station_id":"ce4bgjh2rcd13ifvqbg0","pricing_plan_id":"cebpf4jnsgd1na2vs0mg"},{"bike_id":"6938d0ce-f954-4fff-b95b-2d698d38a5d7","system_id":"levelo_inurba_marseille","lat":43.27942,"lon":5.4104,"is_reserved":false,"is_disabled":false,"rental_uris":{"android":"levelo://app?vid=6938d0ce-f954-4fff-b95b-2d698d38a5d7","ios":"levelo://app?vid=6938d0ce-f954-4fff-b95b-2d698d38a5d7"},"vehicle_type_id":"4","last_reported":1743257297,"current_range_meters":10800,"station_id":"ce4bhnp2rcd13ifvqh0g","pricing_plan_id":"cebpf4jnsgd1na2vs0mg"},{"bike_id":"18a7459a-9de6-4413-bb5e-bd445e06b1f8","system_id":"levelo_inurba_marseille","lat":43.29195,"lon":5.35823,"is_reserved":false,"is_disabled":false,"rental_uris":{"android":"levelo://app?vid=18a7459a-9de6-4413-bb5e-bd445e06b1f8","ios":"levelo://app?vid=18a7459a-9de6-4413-bb5e-bd445e06b1f8"},"vehicle_type_id":"4","last_reported":1743257297,"current_range_meters":10800,"station_id":"ce4bhb12rcd13ifvqel0","pricing_plan_id":"cebpf4jnsgd1na2vs0mg"},{"bike_id":"a1b5a514-f0ef-42eb-b1a4-22dd30a86324","system_id":"levelo_inurba_marseille","lat":43.31769,"lon":5.39007,"is_reserved":false,"is_disabled":false,"rental_uris":{"android":"levelo://app?vid=a1b5a514-f0ef-42eb-b1a4-22dd30a86324","ios":"levelo://app?vid=a1b5a514-f0ef-42eb-b1a4-22dd30a86324"},"vehicle_type_id":"4","last_reported":1743257297,"current_range_meters":10800,"station_id":"ce4bhqp2rcd13ifvqhng","pricing_plan_id":"cebpf4jnsgd1na2vs0mg"},{"bike_id":"e77293b9-ede1-41c2-884f-eb187bc81f58","system_id":"levelo_inurba_marseille","lat":43.271718,"lon":5.409981,"is_reserved":false,"is_disabled":false,"rental_uris":{"android":"levelo://app?vid=e77293b9-ede1-41c2-884f-eb187bc81f58","ios":"levelo://app?vid=e77293b9-ede1-41c2-884f-eb187bc81f58"},"vehicle_type_id":"4","last_reported":1743257297,"current_range_meters":10000,"station_id":"ce4bhl12rcd13ifvqgf0","pricing_plan_id":"cebpf4jnsgd1na2vs0mg"},{"bike_id":"908c79a7-5072-454d-94e6-a698936b9848","system_id":"levelo_inurba_marseille","lat":43.29799,"lon":5.38102,"is_reserved":false,"is_disabled":false,"rental_uris":{"android":"levelo://app?vid=908c79a7-5072-454d-94e6-a698936b9848","ios":"levelo://app?vid=908c79a7-5072-454d-94e6-a698936b9848"},"vehicle_type_id":"4","last_reported":1743257297,"current_range_meters":11200,"station_id":"ce4bgip2rcd13ifvqbb0","pricing_plan_id":"cebpf4jnsgd1na2vs0mg"},{"bike_id":"07916ef3-3651-4042-9dbd-b2e593e7eece","system_id":"levelo_inurba_marseille","lat":43.29621,"lon":5.37718,"is_reserved":false,"is_disabled":false,"rental_uris":{"android":"levelo://app?vid=07916ef3-3651-4042-9dbd-b2e593e7eece","ios":"levelo://app?vid=07916ef3-3651-4042-9dbd-b2e593e7eece"},"vehicle_type_id":"4","last_reported":1743257297,"current_range_meters":11200,"station_id":"ce4bgi92rcd13ifvqb90","pricing_plan_id":"cebpf4jnsgd1na2vs0mg"},{"bike_id":"96ac20e8-5840-4579-b371-184ec6253952","system_id":"levelo_inurba_marseille","lat":43.27495,"lon":5.41156,"is_reserved":false,"is_disabled":false,"rental_uris":{"android":"levelo://app?vid=96ac20e8-5840-4579-b371-184ec6253952","ios":"levelo://app?vid=96ac20e8-5840-4579-b371-184ec6253952"},"vehicle_type_id":"4","last_reported":1743257297,"current_range_meters":11200,"station_id":"","pricing_plan_id":"cebpf4jnsgd1na2vs0mg"},{"bike_id":"ead84735-1991-4501-b506-2229ced7058a","system_id":"levelo_inurba_marseille","lat":43.23057,"lon":5.35499,"is_reserved":false,"is_disabled":false,"rental_uris":{"android":"levelo://app?vid=ead84735-1991-4501-b506-2229ced7058a","ios":"levelo://app?vid=ead84735-1991-4501-b506-2229ced7058a"},"vehicle_type_id":"4","last_reported":1743257297,"current_range_meters":11200,"station_id":"cpo3342slgdg3j2ifvpg","pricing_plan_id":"cebpf4jnsgd1na2vs0mg"},{"bike_id":"89b372e0-e34b-4448-a651-9f0d9816c98e","system_id":"levelo_inurba_marseille","lat":43.24172,"lon":5.36397,"is_reserved":false,"is_disabled":false,"rental_uris":{"android":"levelo://app?vid=89b372e0-e34b-4448-a651-9f0d9816c98e","ios":"levelo://app?vid=89b372e0-e34b-4448-a651-9f0d9816c98e"},"vehicle_type_id":"4","last_reported":1743257297,"current_range_meters":11200,"station_id":"cpo36qri1sfpv3e86is0","pricing_plan_id":"cebpf4jnsgd1na2vs0mg"},{"bike_id":"b1e5ad4c-0944-4754-bb31-77d984fa0591","system_id":"levelo_inurba_marseille","lat":43.22938,"lon":5.35385,"is_reserved":false,"is_disabled":false,"rental_uris":{"android":"levelo://app?vid=b1e5ad4c-0944-4754-bb31-77d984fa0591","ios":"levelo://app?vid=b1e5ad4c-0944-4754-bb31-77d984fa0591"},"vehicle_type_id":"4","last_reported":1743257297,"current_range_meters":11200,"station_id":"cpo3532slgdg3j2ikp40","pricing_plan_id":"cebpf4jnsgd1na2vs0mg"},{"bike_id":"609c57b1-61f1-4df6-a6c4-85921ef91e85","system_id":"levelo_inurba_marseille","lat":43.293768,"lon":5.372415,"is_reserved":false,"is_disabled":false,"rental_uris":{"android":"levelo://app?vid=609c57b1-61f1-4df6-a6c4-85921ef91e85","ios":"levelo://app?vid=609c57b1-61f1-4df6-a6c4-85921ef91e85"},"vehicle_type_id":"4","last_reported":1743257297,"current_range_meters":11200,"station_id":"ce4bhb12rcd13ifvqel0","pricing_plan_id":"cebpf4jnsgd1na2vs0mg"},{"bike_id":"c2fea952-c030-4e9b-9778-52d5bfb81b33","system_id":"levelo_inurba_marseille","lat":43.29451,"lon":5.38641,"is_reserved":false,"is_disabled":false,"rental_uris":{"android":"levelo://app?vid=c2fea952-c030-4e9b-9778-52d5bfb81b33","ios":"levelo://app?vid=c2fea952-c030-4e9b-9778-52d5bfb81b33"},"vehicle_type_id":"4","last_reported":1743257297,"current_range_meters":11200,"station_id":"ce4bh2h2rcd13ifvqdh0","pricing_plan_id":"cebpf4jnsgd1na2vs0mg"},{"bike_id":"0b2c3a46-1812-4098-81f2-b85f3b390c4a","system_id":"levelo_inurba_marseille","lat":43.28275,"lon":5.35077,"is_reserved":false,"is_disabled":false,"rental_uris":{"android":"levelo://app?vid=0b2c3a46-1812-4098-81f2-b85f3b390c4a","ios":"levelo://app?vid=0b2c3a46-1812-4098-81f2-b85f3b390c4a"},"vehicle_type_id":"4","last_reported":1743257297,"current_range_meters":11200,"station_id":"ce4bhbp2rcd13ifvqerg","pricing_plan_id":"cebpf4jnsgd1na2vs0mg"},{"bike_id":"8964994f-01e2-49e5-90d2-1dd7115283f3","system_id":"levelo_inurba_marseille","lat":43.23074,"lon":5.35497,"is_reserved":false,"is_disabled":false,"rental_uris":{"android":"levelo://app?vid=8964994f-01e2-49e5-90d2-1dd7115283f3","ios":"levelo://app?vid=8964994f-01e2-49e5-90d2-1dd7115283f3"},"vehicle_type_id":"4","last_reported":1743257297,"current_range_meters":11600,"station_id":"cpo3342slgdg3j2ifvpg","pricing_plan_id":"cebpf4jnsgd1na2vs0mg"},{"bike_id":"d32ae416-cde0-40d2-a98c-0c74e11e8481","system_id":"levelo_inurba_marseille","lat":43.272083,"lon":5.391807,"is_reserved":false,"is_disabled":false,"rental_uris":{"android":"levelo://app?vid=d32ae416-cde0-40d2-a98c-0c74e11e8481","ios":"levelo://app?vid=d32ae416-cde0-40d2-a98c-0c74e11e8481"},"vehicle_type_id":"4","last_reported":1743257297,"current_range_meters":11600,"station_id":"ce4bhhp2rcd13ifvqfm0","pricing_plan_id":"cebpf4jnsgd1na2vs0mg"},{"bike_id":"2436a73b-f0ed-417f-8509-b6e8e009c42a","system_id":"levelo_inurba_marseille","lat":43.23148,"lon":5.43724,"is_reserved":false,"is_disabled":false,"rental_uris":{"android":"levelo://app?vid=2436a73b-f0ed-417f-8509-b6e8e009c42a","ios":"levelo://app?vid=2436a73b-f0ed-417f-8509-b6e8e009c42a"},"vehicle_type_id":"4","last_reported":1743257297,"current_range_meters":11600,"station_id":"ce4bhmp2rcd13ifvqgog","pricing_plan_id":"cebpf4jnsgd1na2vs0mg"},{"bike_id":"3f2bcfca-c616-4059-a95b-b1ee7948eb41","system_id":"levelo_inurba_marseille","lat":43.29874,"lon":5.39747,"is_reserved":false,"is_disabled":false,"rental_uris":{"android":"levelo://app?vid=3f2bcfca-c616-4059-a95b-b1ee7948eb41","ios":"levelo://app?vid=3f2bcfca-c616-4059-a95b-b1ee7948eb41"},"vehicle_type_id":"4","last_reported":1743257297,"current_range_meters":11600,"station_id":"ce4bh0h2rcd13ifvqd50","pricing_plan_id":"cebpf4jnsgd1na2vs0mg"},{"bike_id":"699cb6a9-80bb-4d7b-8f84-b25847471872","system_id":"levelo_inurba_marseille","lat":43.28942,"lon":5.36409,"is_reserved":false,"is_disabled":false,"rental_uris":{"android":"levelo://app?vid=699cb6a9-80bb-4d7b-8f84-b25847471872","ios":"levelo://app?vid=699cb6a9-80bb-4d7b-8f84-b25847471872"},"vehicle_type_id":"4","last_reported":1743257297,"current_range_meters":11600,"station_id":"ce4bhc92rcd13ifvqetg","pricing_plan_id":"cebpf4jnsgd1na2vs0mg"},{"bike_id":"aa2a2b57-8ad0-4e69-9156-9bb10fd5d03a","system_id":"levelo_inurba_marseille","lat":43.2799,"lon":5.40026,"is_reserved":false,"is_disabled":false,"rental_uris":{"android":"levelo://app?vid=aa2a2b57-8ad0-4e69-9156-9bb10fd5d03a","ios":"levelo://app?vid=aa2a2b57-8ad0-4e69-9156-9bb10fd5d03a"},"vehicle_type_id":"4","last_reported":1743257297,"current_range_meters":11600,"station_id":"ce4bho92rcd13ifvqh4g","pricing_plan_id":"cebpf4jnsgd1na2vs0mg"},{"bike_id":"aa8607bb-b5d2-4f91-a082-c4272120a7ed","system_id":"levelo_inurba_marseille","lat":43.289453,"lon":5.363933,"is_reserved":false,"is_disabled":false,"rental_uris":{"android":"levelo://app?vid=aa8607bb-b5d2-4f91-a082-c4272120a7ed","ios":"levelo://app?vid=aa8607bb-b5d2-4f91-a082-c4272120a7ed"},"vehicle_type_id":"4","last_reported":1743257297,"current_range_meters":11600,"station_id":"ce4bhc92rcd13ifvqetg","pricing_plan_id":"cebpf4jnsgd1na2vs0mg"},{"bike_id":"b63bee20-71b5-45ac-921e-b915796e8804","system_id":"levelo_inurba_marseille","lat":43.28857,"lon":5.39302,"is_reserved":false,"is_disabled":false,"rental_uris":{"android":"levelo://app?vid=b63bee20-71b5-45ac-921e-b915796e8804","ios":"levelo://app?vid=b63bee20-71b5-45ac-921e-b915796e8804"},"vehicle_type_id":"4","last_reported":1743257297,"current_range_meters":11200,"station_id":"ce4bh2p2rcd13ifvqdi0","pricing_plan_id":"cebpf4jnsgd1na2vs0mg"},{"bike_id":"d290a990-d4de-4851-8621-e7620d12e174","system_id":"levelo_inurba_marseille","lat":43.32038,"lon":5.41561,"is_reserved":false,"is_disabled":false,"rental_uris":{"android":"levelo://app?vid=d290a990-d4de-4851-8621-e7620d12e174","ios":"levelo://app?vid=d290a990-d4de-4851-8621-e7620d12e174"},"vehicle_type_id":"4","last_reported":1743257297,"current_range_meters":11200,"station_id":"ce4bhq92rcd13ifvqhkg","pricing_plan_id":"cebpf4jnsgd1na2vs0mg"},{"bike_id":"28dee908-33a2-4262-bf58-043f9964f4da","system_id":"levelo_inurba_marseille","lat":43.31371,"lon":5.38494,"is_reserved":false,"is_disabled":false,"rental_uris":{"android":"levelo://app?vid=28dee908-33a2-4262-bf58-043f9964f4da","ios":"levelo://app?vid=28dee908-33a2-4262-bf58-043f9964f4da"},"vehicle_type_id":"4","last_reported":1743257297,"current_range_meters":11600,"station_id":"ce4bgt92rcd13ifvqcf0","pricing_plan_id":"cebpf4jnsgd1na2vs0mg"},{"bike_id":"31412f7c-9de3-4738-84f2-7373a52da760","system_id":"levelo_inurba_marseille","lat":43.26209,"lon":5.37441,"is_reserved":false,"is_disabled":false,"rental_uris":{"android":"levelo://app?vid=31412f7c-9de3-4738-84f2-7373a52da760","ios":"levelo://app?vid=31412f7c-9de3-4738-84f2-7373a52da760"},"vehicle_type_id":"4","last_reported":1743257297,"current_range_meters":12000,"station_id":"ce4bhgp2rcd13ifvqfc0","pricing_plan_id":"cebpf4jnsgd1na2vs0mg"},{"bike_id":"16114874-1624-4cbf-ab92-592fde16a956","system_id":"levelo_inurba_marseille","lat":43.29185,"lon":5.35799,"is_reserved":false,"is_disabled":false,"rental_uris":{"android":"levelo://app?vid=16114874-1624-4cbf-ab92-592fde16a956","ios":"levelo://app?vid=16114874-1624-4cbf-ab92-592fde16a956"},"vehicle_type_id":"4","last_reported":1743257297,"current_range_meters":12000,"station_id":"ce4bhb12rcd13ifvqel0","pricing_plan_id":"cebpf4jnsgd1na2vs0mg"},{"bike_id":"6ca33d69-353c-4e08-9b40-9c79b72e7ee1","system_id":"levelo_inurba_marseille","lat":43.24078,"lon":5.37759,"is_reserved":false,"is_disabled":false,"rental_uris":{"android":"levelo://app?vid=6ca33d69-353c-4e08-9b40-9c79b72e7ee1","ios":"levelo://app?vid=6ca33d69-353c-4e08-9b40-9c79b72e7ee1"},"vehicle_type_id":"4","last_reported":1743257297,"current_range_meters":11600,"station_id":"ce4bhnp2rcd13ifvqgvg","pricing_plan_id":"cebpf4jnsgd1na2vs0mg"},{"bike_id":"cf72e3b6-2c7c-47a5-b098-027316102e31","system_id":"levelo_inurba_marseille","lat":43.28861,"lon":5.39312,"is_reserved":false,"is_disabled":false,"rental_uris":{"android":"levelo://app?vid=cf72e3b6-2c7c-47a5-b098-027316102e31","ios":"levelo://app?vid=cf72e3b6-2c7c-47a5-b098-027316102e31"},"vehicle_type_id":"4","last_reported":1743257297,"current_range_meters":12000,"station_id":"ce4bh2p2rcd13ifvqdi0","pricing_plan_id":"cebpf4jnsgd1na2vs0mg"},{"bike_id":"ffa581ae-d027-40ca-b822-72613b2513ab","system_id":"levelo_inurba_marseille","lat":43.290308,"lon":5.386506,"is_reserved":false,"is_disabled":false,"rental_uris":{"android":"levelo://app?vid=ffa581ae-d027-40ca-b822-72613b2513ab","ios":"levelo://app?vid=ffa581ae-d027-40ca-b822-72613b2513ab"},"vehicle_type_id":"4","last_reported":1743257297,"current_range_meters":12000,"station_id":"ce4bh4p2rcd13ifvqe0g","pricing_plan_id":"cebpf4jnsgd1na2vs0mg"},{"bike_id":"abd3241e-325c-4afb-bdb7-08c1b88e1658","system_id":"levelo_inurba_marseille","lat":43.28848,"lon":5.35846,"is_reserved":false,"is_disabled":false,"rental_uris":{"android":"levelo://app?vid=abd3241e-325c-4afb-bdb7-08c1b88e1658","ios":"levelo://app?vid=abd3241e-325c-4afb-bdb7-08c1b88e1658"},"vehicle_type_id":"4","last_reported":1743257297,"current_range_meters":12000,"station_id":"ce4bhb12rcd13ifvqem0","pricing_plan_id":"cebpf4jnsgd1na2vs0mg"},{"bike_id":"0994bf8a-41e8-48be-b5ae-f95c99f0faa6","system_id":"levelo_inurba_marseille","lat":43.299447,"lon":5.365167,"is_reserved":false,"is_disabled":false,"rental_uris":{"android":"levelo://app?vid=0994bf8a-41e8-48be-b5ae-f95c99f0faa6","ios":"levelo://app?vid=0994bf8a-41e8-48be-b5ae-f95c99f0faa6"},"vehicle_type_id":"4","last_reported":1743257297,"current_range_meters":12000,"station_id":"ce4bgm92rcd13ifvqbr0","pricing_plan_id":"cebpf4jnsgd1na2vs0mg"},{"bike_id":"516eec70-9871-443d-bcef-31d65d51e4f5","system_id":"levelo_inurba_marseille","lat":43.30279,"lon":5.37698,"is_reserved":false,"is_disabled":false,"rental_uris":{"android":"levelo://app?vid=516eec70-9871-443d-bcef-31d65d51e4f5","ios":"levelo://app?vid=516eec70-9871-443d-bcef-31d65d51e4f5"},"vehicle_type_id":"4","last_reported":1743257297,"current_range_meters":12000,"station_id":"ce4bguh2rcd13ifvqcj0","pricing_plan_id":"cebpf4jnsgd1na2vs0mg"},{"bike_id":"acf1e1c3-a629-4c7b-a838-cba3f3b54603","system_id":"levelo_inurba_marseille","lat":43.31856,"lon":5.37626,"is_reserved":false,"is_disabled":false,"rental_uris":{"android":"levelo://app?vid=acf1e1c3-a629-4c7b-a838-cba3f3b54603","ios":"levelo://app?vid=acf1e1c3-a629-4c7b-a838-cba3f3b54603"},"vehicle_type_id":"4","last_reported":1743257297,"current_range_meters":12000,"station_id":"","pricing_plan_id":"cebpf4jnsgd1na2vs0mg"},{"bike_id":"25bb5fbc-8229-4010-b703-31f5ee6ac141","system_id":"levelo_inurba_marseille","lat":43.30617,"lon":5.36583,"is_reserved":false,"is_disabled":false,"rental_uris":{"android":"levelo://app?vid=25bb5fbc-8229-4010-b703-31f5ee6ac141","ios":"levelo://app?vid=25bb5fbc-8229-4010-b703-31f5ee6ac141"},"vehicle_type_id":"4","last_reported":1743257297,"current_range_meters":12400,"station_id":"","pricing_plan_id":"cebpf4jnsgd1na2vs0mg"},{"bike_id":"906b540e-e920-417f-92b5-0ef35349f644","system_id":"levelo_inurba_marseille","lat":43.3153,"lon":5.39692,"is_reserved":false,"is_disabled":false,"rental_uris":{"android":"levelo://app?vid=906b540e-e920-417f-92b5-0ef35349f644","ios":"levelo://app?vid=906b540e-e920-417f-92b5-0ef35349f644"},"vehicle_type_id":"4","last_reported":1743257297,"current_range_meters":12400,"station_id":"","pricing_plan_id":"cebpf4jnsgd1na2vs0mg"},{"bike_id":"747d2bc2-6706-42d9-8381-8fcc8fac62bd","system_id":"levelo_inurba_marseille","lat":43.28599,"lon":5.37085,"is_reserved":false,"is_disabled":true,"rental_uris":{"android":"levelo://app?vid=747d2bc2-6706-42d9-8381-8fcc8fac62bd","ios":"levelo://app?vid=747d2bc2-6706-42d9-8381-8fcc8fac62bd"},"vehicle_type_id":"4","last_reported":1743257297,"current_range_meters":12400,"station_id":"ce4bht12rcd13ifvqi60","pricing_plan_id":"cebpf4jnsgd1na2vs0mg"},{"bike_id":"3ac94ff1-fc84-426f-b155-785886a48287","system_id":"levelo_inurba_marseille","lat":43.260591,"lon":5.394045,"is_reserved":false,"is_disabled":false,"rental_uris":{"android":"levelo://app?vid=3ac94ff1-fc84-426f-b155-785886a48287","ios":"levelo://app?vid=3ac94ff1-fc84-426f-b155-785886a48287"},"vehicle_type_id":"4","last_reported":1743257297,"current_range_meters":12400,"station_id":"ce4bhh92rcd13ifvqfj0","pricing_plan_id":"cebpf4jnsgd1na2vs0mg"},{"bike_id":"76d4ed16-8625-4a14-a5f1-d28ac2574c13","system_id":"levelo_inurba_marseille","lat":43.24548,"lon":5.39541,"is_reserved":false,"is_disabled":false,"rental_uris":{"android":"levelo://app?vid=76d4ed16-8625-4a14-a5f1-d28ac2574c13","ios":"levelo://app?vid=76d4ed16-8625-4a14-a5f1-d28ac2574c13"},"vehicle_type_id":"4","last_reported":1743257297,"current_range_meters":12800,"station_id":"","pricing_plan_id":"cebpf4jnsgd1na2vs0mg"},{"bike_id":"e53fb0b6-4828-47af-a0d0-116bdf650cf4","system_id":"levelo_inurba_marseille","lat":43.26682,"lon":5.38258,"is_reserved":false,"is_disabled":false,"rental_uris":{"android":"levelo://app?vid=e53fb0b6-4828-47af-a0d0-116bdf650cf4","ios":"levelo://app?vid=e53fb0b6-4828-47af-a0d0-116bdf650cf4"},"vehicle_type_id":"4","last_reported":1743257297,"current_range_meters":12800,"station_id":"ce4bhg92rcd13ifvqf90","pricing_plan_id":"cebpf4jnsgd1na2vs0mg"},{"bike_id":"1bf928b2-7ac9-41a7-adcc-77e0f5608510","system_id":"levelo_inurba_marseille","lat":43.32486,"lon":5.36405,"is_reserved":false,"is_disabled":false,"rental_uris":{"android":"levelo://app?vid=1bf928b2-7ac9-41a7-adcc-77e0f5608510","ios":"levelo://app?vid=1bf928b2-7ac9-41a7-adcc-77e0f5608510"},"vehicle_type_id":"4","last_reported":1743257297,"current_range_meters":12800,"station_id":"","pricing_plan_id":"cebpf4jnsgd1na2vs0mg"},{"bike_id":"e6967797-29d0-4947-88e5-61bc42de65df","system_id":"levelo_inurba_marseille","lat":43.28621,"lon":5.35108,"is_reserved":false,"is_disabled":false,"rental_uris":{"android":"levelo://app?vid=e6967797-29d0-4947-88e5-61bc42de65df","ios":"levelo://app?vid=e6967797-29d0-4947-88e5-61bc42de65df"},"vehicle_type_id":"4","last_reported":1743257297,"current_range_meters":12800,"station_id":"ce4bhch2rcd13ifvqeug","pricing_plan_id":"cebpf4jnsgd1na2vs0mg"},{"bike_id":"b4e58fc5-3c14-4693-b426-fba23ebebfa6","system_id":"levelo_inurba_marseille","lat":43.2407,"lon":5.37754,"is_reserved":false,"is_disabled":false,"rental_uris":{"android":"levelo://app?vid=b4e58fc5-3c14-4693-b426-fba23ebebfa6","ios":"levelo://app?vid=b4e58fc5-3c14-4693-b426-fba23ebebfa6"},"vehicle_type_id":"4","last_reported":1743257297,"current_range_meters":12800,"station_id":"ce4bhnp2rcd13ifvqgvg","pricing_plan_id":"cebpf4jnsgd1na2vs0mg"},{"bike_id":"00be0317-17ab-4e44-83e9-4e55c9cffd8f","system_id":"levelo_inurba_marseille","lat":43.23968,"lon":5.36638,"is_reserved":false,"is_disabled":false,"rental_uris":{"android":"levelo://app?vid=00be0317-17ab-4e44-83e9-4e55c9cffd8f","ios":"levelo://app?vid=00be0317-17ab-4e44-83e9-4e55c9cffd8f"},"vehicle_type_id":"4","last_reported":1743257297,"current_range_meters":12800,"station_id":"ce4bhi12rcd13ifvqfp0","pricing_plan_id":"cebpf4jnsgd1na2vs0mg"},{"bike_id":"ef050693-0b63-4f5d-b3c2-f2f3cb20fbbd","system_id":"levelo_inurba_marseille","lat":43.27824,"lon":5.39217,"is_reserved":false,"is_disabled":false,"rental_uris":{"android":"levelo://app?vid=ef050693-0b63-4f5d-b3c2-f2f3cb20fbbd","ios":"levelo://app?vid=ef050693-0b63-4f5d-b3c2-f2f3cb20fbbd"},"vehicle_type_id":"4","last_reported":1743257297,"current_range_meters":12800,"station_id":"ce4bhjp2rcd13ifvqga0","pricing_plan_id":"cebpf4jnsgd1na2vs0mg"},{"bike_id":"1b2f1c4c-108c-4cf1-962f-f6715d445304","system_id":"levelo_inurba_marseille","lat":43.29784,"lon":5.37094,"is_reserved":false,"is_disabled":false,"rental_uris":{"android":"levelo://app?vid=1b2f1c4c-108c-4cf1-962f-f6715d445304","ios":"levelo://app?vid=1b2f1c4c-108c-4cf1-962f-f6715d445304"},"vehicle_type_id":"4","last_reported":1743257297,"current_range_meters":13600,"station_id":"ce4bgop2rcd13ifvqc1g","pricing_plan_id":"cebpf4jnsgd1na2vs0mg"},{"bike_id":"4854182c-5e3b-4312-b39b-614ebdd62b8d","system_id":"levelo_inurba_marseille","lat":43.25936,"lon":5.40908,"is_reserved":false,"is_disabled":false,"rental_uris":{"android":"levelo://app?vid=4854182c-5e3b-4312-b39b-614ebdd62b8d","ios":"levelo://app?vid=4854182c-5e3b-4312-b39b-614ebdd62b8d"},"vehicle_type_id":"4","last_reported":1743257297,"current_range_meters":13600,"station_id":"ce4bhm92rcd13ifvqglg","pricing_plan_id":"cebpf4jnsgd1na2vs0mg"},{"bike_id":"9f50066e-01fa-4519-9f61-8109fe65f5d9","system_id":"levelo_inurba_marseille","lat":43.29717,"lon":5.37109,"is_reserved":false,"is_disabled":false,"rental_uris":{"android":"levelo://app?vid=9f50066e-01fa-4519-9f61-8109fe65f5d9","ios":"levelo://app?vid=9f50066e-01fa-4519-9f61-8109fe65f5d9"},"vehicle_type_id":"4","last_reported":1743257297,"current_range_meters":13600,"station_id":"","pricing_plan_id":"cebpf4jnsgd1na2vs0mg"},{"bike_id":"5a53d0ae-485c-4888-8827-1e6d992be149","system_id":"levelo_inurba_marseille","lat":43.30655,"lon":5.40109,"is_reserved":false,"is_disabled":false,"rental_uris":{"android":"levelo://app?vid=5a53d0ae-485c-4888-8827-1e6d992be149","ios":"levelo://app?vid=5a53d0ae-485c-4888-8827-1e6d992be149"},"vehicle_type_id":"4","last_reported":1743257297,"current_range_meters":13600,"station_id":"ce4bh112rcd13ifvqda0","pricing_plan_id":"cebpf4jnsgd1na2vs0mg"},{"bike_id":"b1a273e5-8d53-40ed-97a9-8ac20b58f8e8","system_id":"levelo_inurba_marseille","lat":43.29604,"lon":5.37705,"is_reserved":false,"is_disabled":false,"rental_uris":{"android":"levelo://app?vid=b1a273e5-8d53-40ed-97a9-8ac20b58f8e8","ios":"levelo://app?vid=b1a273e5-8d53-40ed-97a9-8ac20b58f8e8"},"vehicle_type_id":"4","last_reported":1743257297,"current_range_meters":13600,"station_id":"ce4bgi92rcd13ifvqb90","pricing_plan_id":"cebpf4jnsgd1na2vs0mg"},{"bike_id":"21b7dfed-4bf3-42a6-9071-9b2b5259da3c","system_id":"levelo_inurba_marseille","lat":43.29632,"lon":5.37139,"is_reserved":false,"is_disabled":true,"rental_uris":{"android":"levelo://app?vid=21b7dfed-4bf3-42a6-9071-9b2b5259da3c","ios":"levelo://app?vid=21b7dfed-4bf3-42a6-9071-9b2b5259da3c"},"vehicle_type_id":"4","last_reported":1743257297,"current_range_meters":13600,"station_id":"ce4bgnh2rcd13ifvqc0g","pricing_plan_id":"cebpf4jnsgd1na2vs0mg"},{"bike_id":"2e61c302-024f-4f90-b886-9834de9d366a","system_id":"levelo_inurba_marseille","lat":43.24396,"lon":5.37062,"is_reserved":false,"is_disabled":false,"rental_uris":{"android":"levelo://app?vid=2e61c302-024f-4f90-b886-9834de9d366a","ios":"levelo://app?vid=2e61c302-024f-4f90-b886-9834de9d366a"},"vehicle_type_id":"4","last_reported":1743257297,"current_range_meters":14000,"station_id":"ce4bhhh2rcd13ifvqfk0","pricing_plan_id":"cebpf4jnsgd1na2vs0mg"},{"bike_id":"939fef5b-bbd4-4de2-b4fc-b103e449f9b5","system_id":"levelo_inurba_marseille","lat":43.25399,"lon":5.4186,"is_reserved":false,"is_disabled":false,"rental_uris":{"android":"levelo://app?vid=939fef5b-bbd4-4de2-b4fc-b103e449f9b5","ios":"levelo://app?vid=939fef5b-bbd4-4de2-b4fc-b103e449f9b5"},"vehicle_type_id":"4","last_reported":1743257297,"current_range_meters":14000,"station_id":"","pricing_plan_id":"cebpf4jnsgd1na2vs0mg"},{"bike_id":"129e5c95-f98d-4e8f-9ee9-25f247d31920","system_id":"levelo_inurba_marseille","lat":43.303,"lon":5.39208,"is_reserved":false,"is_disabled":false,"rental_uris":{"android":"levelo://app?vid=129e5c95-f98d-4e8f-9ee9-25f247d31920","ios":"levelo://app?vid=129e5c95-f98d-4e8f-9ee9-25f247d31920"},"vehicle_type_id":"4","last_reported":1743257297,"current_range_meters":14000,"station_id":"ce4bgkh2rcd13ifvqbk0","pricing_plan_id":"cebpf4jnsgd1na2vs0mg"},{"bike_id":"c62b5cfc-4049-4b70-ac0f-15eac1702c10","system_id":"levelo_inurba_marseille","lat":43.28462,"lon":5.35894,"is_reserved":false,"is_disabled":false,"rental_uris":{"android":"levelo://app?vid=c62b5cfc-4049-4b70-ac0f-15eac1702c10","ios":"levelo://app?vid=c62b5cfc-4049-4b70-ac0f-15eac1702c10"},"vehicle_type_id":"4","last_reported":1743257297,"current_range_meters":14000,"station_id":"ce4bhah2rcd13ifvqei0","pricing_plan_id":"cebpf4jnsgd1na2vs0mg"},{"bike_id":"a9b24b71-a145-484e-b31d-3f840799563e","system_id":"levelo_inurba_marseille","lat":43.29847,"lon":5.36286,"is_reserved":false,"is_disabled":false,"rental_uris":{"android":"levelo://app?vid=a9b24b71-a145-484e-b31d-3f840799563e","ios":"levelo://app?vid=a9b24b71-a145-484e-b31d-3f840799563e"},"vehicle_type_id":"4","last_reported":1743257297,"current_range_meters":14000,"station_id":"ce4bgpp2rcd13ifvqc3g","pricing_plan_id":"cebpf4jnsgd1na2vs0mg"},{"bike_id":"f7a85822-1a00-4a2d-b719-d679eb4b535b","system_id":"levelo_inurba_marseille","lat":43.2885,"lon":5.39313,"is_reserved":false,"is_disabled":false,"rental_uris":{"android":"levelo://app?vid=f7a85822-1a00-4a2d-b719-d679eb4b535b","ios":"levelo://app?vid=f7a85822-1a00-4a2d-b719-d679eb4b535b"},"vehicle_type_id":"4","last_reported":1743257297,"current_range_meters":13600,"station_id":"ce4bh2p2rcd13ifvqdi0","pricing_plan_id":"cebpf4jnsgd1na2vs0mg"},{"bike_id":"653ea6de-a177-4007-9cfa-5f3f77e975f6","system_id":"levelo_inurba_marseille","lat":43.24818,"lon":5.37457,"is_reserved":false,"is_disabled":false,"rental_uris":{"android":"levelo://app?vid=653ea6de-a177-4007-9cfa-5f3f77e975f6","ios":"levelo://app?vid=653ea6de-a177-4007-9cfa-5f3f77e975f6"},"vehicle_type_id":"4","last_reported":1743257297,"current_range_meters":14000,"station_id":"ce4bhgh2rcd13ifvqfb0","pricing_plan_id":"cebpf4jnsgd1na2vs0mg"},{"bike_id":"e3dddefa-9a90-402c-a1ed-56d53ccd09d1","system_id":"levelo_inurba_marseille","lat":43.29188,"lon":5.35805,"is_reserved":false,"is_disabled":false,"rental_uris":{"android":"levelo://app?vid=e3dddefa-9a90-402c-a1ed-56d53ccd09d1","ios":"levelo://app?vid=e3dddefa-9a90-402c-a1ed-56d53ccd09d1"},"vehicle_type_id":"4","last_reported":1743257297,"current_range_meters":14400,"station_id":"ce4bhb12rcd13ifvqel0","pricing_plan_id":"cebpf4jnsgd1na2vs0mg"},{"bike_id":"1194d893-debc-41d7-b347-816267570776","system_id":"levelo_inurba_marseille","lat":43.33731,"lon":5.39192,"is_reserved":false,"is_disabled":false,"rental_uris":{"android":"levelo://app?vid=1194d893-debc-41d7-b347-816267570776","ios":"levelo://app?vid=1194d893-debc-41d7-b347-816267570776"},"vehicle_type_id":"4","last_reported":1743257297,"current_range_meters":14400,"station_id":"ce4bhr92rcd13ifvqhsg","pricing_plan_id":"cebpf4jnsgd1na2vs0mg"},{"bike_id":"f98456a1-3c99-4f45-93a5-0a3e759f9fac","system_id":"levelo_inurba_marseille","lat":43.32481,"lon":5.36573,"is_reserved":false,"is_disabled":false,"rental_uris":{"android":"levelo://app?vid=f98456a1-3c99-4f45-93a5-0a3e759f9fac","ios":"levelo://app?vid=f98456a1-3c99-4f45-93a5-0a3e759f9fac"},"vehicle_type_id":"4","last_reported":1743257297,"current_range_meters":14400,"station_id":"ce4bhs12rcd13ifvqhvg","pricing_plan_id":"cebpf4jnsgd1na2vs0mg"},{"bike_id":"fc955607-216b-4c06-bebb-9a9b61d8688e","system_id":"levelo_inurba_marseille","lat":43.28937,"lon":5.36631,"is_reserved":false,"is_disabled":false,"rental_uris":{"android":"levelo://app?vid=fc955607-216b-4c06-bebb-9a9b61d8688e","ios":"levelo://app?vid=fc955607-216b-4c06-bebb-9a9b61d8688e"},"vehicle_type_id":"4","last_reported":1743257297,"current_range_meters":14400,"station_id":"ce4bhap2rcd13ifvqek0","pricing_plan_id":"cebpf4jnsgd1na2vs0mg"},{"bike_id":"e3245b39-7084-448d-84b9-9d040dd2f32b","system_id":"levelo_inurba_marseille","lat":43.29573,"lon":5.37508,"is_reserved":false,"is_disabled":false,"rental_uris":{"android":"levelo://app?vid=e3245b39-7084-448d-84b9-9d040dd2f32b","ios":"levelo://app?vid=e3245b39-7084-448d-84b9-9d040dd2f32b"},"vehicle_type_id":"4","last_reported":1743257297,"current_range_meters":14400,"station_id":"ce4bgh92rcd13ifvqb50","pricing_plan_id":"cebpf4jnsgd1na2vs0mg"},{"bike_id":"a90d481a-7039-457f-a5b9-3dabbed904f5","system_id":"levelo_inurba_marseille","lat":43.27939,"lon":5.41057,"is_reserved":false,"is_disabled":false,"rental_uris":{"android":"levelo://app?vid=a90d481a-7039-457f-a5b9-3dabbed904f5","ios":"levelo://app?vid=a90d481a-7039-457f-a5b9-3dabbed904f5"},"vehicle_type_id":"4","last_reported":1743257297,"current_range_meters":14400,"station_id":"ce4bhnp2rcd13ifvqh0g","pricing_plan_id":"cebpf4jnsgd1na2vs0mg"},{"bike_id":"0e80372d-6bed-4bd2-ac85-aaee13905dab","system_id":"levelo_inurba_marseille","lat":43.30429,"lon":5.38887,"is_reserved":false,"is_disabled":false,"rental_uris":{"android":"levelo://app?vid=0e80372d-6bed-4bd2-ac85-aaee13905dab","ios":"levelo://app?vid=0e80372d-6bed-4bd2-ac85-aaee13905dab"},"vehicle_type_id":"4","last_reported":1743257297,"current_range_meters":14400,"station_id":"ce4bgk12rcd13ifvqbi0","pricing_plan_id":"cebpf4jnsgd1na2vs0mg"},{"bike_id":"3144d3d6-695d-47c2-a158-fe29911c075a","system_id":"levelo_inurba_marseille","lat":43.29968,"lon":5.37173,"is_reserved":false,"is_disabled":false,"rental_uris":{"android":"levelo://app?vid=3144d3d6-695d-47c2-a158-fe29911c075a","ios":"levelo://app?vid=3144d3d6-695d-47c2-a158-fe29911c075a"},"vehicle_type_id":"4","last_reported":1743257297,"current_range_meters":14800,"station_id":"ce4bgr92rcd13ifvqc7g","pricing_plan_id":"cebpf4jnsgd1na2vs0mg"},{"bike_id":"b6c18930-83f3-4e7b-a959-51413652e158","system_id":"levelo_inurba_marseille","lat":43.26682,"lon":5.38272,"is_reserved":false,"is_disabled":false,"rental_uris":{"android":"levelo://app?vid=b6c18930-83f3-4e7b-a959-51413652e158","ios":"levelo://app?vid=b6c18930-83f3-4e7b-a959-51413652e158"},"vehicle_type_id":"4","last_reported":1743257297,"current_range_meters":14800,"station_id":"ce4bhg92rcd13ifvqf90","pricing_plan_id":"cebpf4jnsgd1na2vs0mg"},{"bike_id":"3fc690cc-514e-49af-8c16-561a3329ac3e","system_id":"levelo_inurba_marseille","lat":43.27069,"lon":5.42275,"is_reserved":false,"is_disabled":false,"rental_uris":{"android":"levelo://app?vid=3fc690cc-514e-49af-8c16-561a3329ac3e","ios":"levelo://app?vid=3fc690cc-514e-49af-8c16-561a3329ac3e"},"vehicle_type_id":"4","last_reported":1743257297,"current_range_meters":14800,"station_id":"ce4bhk92rcd13ifvqgb0","pricing_plan_id":"cebpf4jnsgd1na2vs0mg"},{"bike_id":"bd90bf75-9c99-4619-93c2-7a5fd83388b5","system_id":"levelo_inurba_marseille","lat":43.313603,"lon":5.388284,"is_reserved":false,"is_disabled":false,"rental_uris":{"android":"levelo://app?vid=bd90bf75-9c99-4619-93c2-7a5fd83388b5","ios":"levelo://app?vid=bd90bf75-9c99-4619-93c2-7a5fd83388b5"},"vehicle_type_id":"4","last_reported":1743257297,"current_range_meters":15200,"station_id":"ce4bgt92rcd13ifvqcf0","pricing_plan_id":"cebpf4jnsgd1na2vs0mg"},{"bike_id":"296d0da0-4cc4-40ab-acd1-7c240f5eee02","system_id":"levelo_inurba_marseille","lat":43.29727,"lon":5.37692,"is_reserved":false,"is_disabled":false,"rental_uris":{"android":"levelo://app?vid=296d0da0-4cc4-40ab-acd1-7c240f5eee02","ios":"levelo://app?vid=296d0da0-4cc4-40ab-acd1-7c240f5eee02"},"vehicle_type_id":"4","last_reported":1743257297,"current_range_meters":15200,"station_id":"","pricing_plan_id":"cebpf4jnsgd1na2vs0mg"},{"bike_id":"769f648a-3348-41c6-bcad-cfd5080a8737","system_id":"levelo_inurba_marseille","lat":43.30296,"lon":5.39202,"is_reserved":false,"is_disabled":false,"rental_uris":{"android":"levelo://app?vid=769f648a-3348-41c6-bcad-cfd5080a8737","ios":"levelo://app?vid=769f648a-3348-41c6-bcad-cfd5080a8737"},"vehicle_type_id":"4","last_reported":1743257297,"current_range_meters":15200,"station_id":"ce4bgkh2rcd13ifvqbk0","pricing_plan_id":"cebpf4jnsgd1na2vs0mg"},{"bike_id":"ed5a1ae2-fa61-4587-b9a2-42244092b811","system_id":"levelo_inurba_marseille","lat":43.30154,"lon":5.3812,"is_reserved":false,"is_disabled":false,"rental_uris":{"android":"levelo://app?vid=ed5a1ae2-fa61-4587-b9a2-42244092b811","ios":"levelo://app?vid=ed5a1ae2-fa61-4587-b9a2-42244092b811"},"vehicle_type_id":"4","last_reported":1743257297,"current_range_meters":15200,"station_id":"ce4bgjp2rcd13ifvqbh0","pricing_plan_id":"cebpf4jnsgd1na2vs0mg"},{"bike_id":"559dea5e-b1d1-478a-8513-c23ea1a741c1","system_id":"levelo_inurba_marseille","lat":43.28361,"lon":5.38647,"is_reserved":false,"is_disabled":false,"rental_uris":{"android":"levelo://app?vid=559dea5e-b1d1-478a-8513-c23ea1a741c1","ios":"levelo://app?vid=559dea5e-b1d1-478a-8513-c23ea1a741c1"},"vehicle_type_id":"4","last_reported":1743257297,"current_range_meters":15200,"station_id":"ce4bh492rcd13ifvqdvg","pricing_plan_id":"cebpf4jnsgd1na2vs0mg"},{"bike_id":"98579b26-9c15-4dca-8ae6-7d823c3aab07","system_id":"levelo_inurba_marseille","lat":43.29569,"lon":5.37508,"is_reserved":false,"is_disabled":false,"rental_uris":{"android":"levelo://app?vid=98579b26-9c15-4dca-8ae6-7d823c3aab07","ios":"levelo://app?vid=98579b26-9c15-4dca-8ae6-7d823c3aab07"},"vehicle_type_id":"4","last_reported":1743257297,"current_range_meters":15200,"station_id":"ce4bgh92rcd13ifvqb50","pricing_plan_id":"cebpf4jnsgd1na2vs0mg"},{"bike_id":"2a651215-29ff-4da6-821d-6aba547eb86b","system_id":"levelo_inurba_marseille","lat":43.29212,"lon":5.36037,"is_reserved":false,"is_disabled":false,"rental_uris":{"android":"levelo://app?vid=2a651215-29ff-4da6-821d-6aba547eb86b","ios":"levelo://app?vid=2a651215-29ff-4da6-821d-6aba547eb86b"},"vehicle_type_id":"4","last_reported":1743257297,"current_range_meters":15200,"station_id":"ce4bhbh2rcd13ifvqeqg","pricing_plan_id":"cebpf4jnsgd1na2vs0mg"},{"bike_id":"a104ab6c-23d2-4bc9-8525-a85c5320e4d9","system_id":"levelo_inurba_marseille","lat":43.29531,"lon":5.37536,"is_reserved":false,"is_disabled":false,"rental_uris":{"android":"levelo://app?vid=a104ab6c-23d2-4bc9-8525-a85c5320e4d9","ios":"levelo://app?vid=a104ab6c-23d2-4bc9-8525-a85c5320e4d9"},"vehicle_type_id":"4","last_reported":1743257297,"current_range_meters":15200,"station_id":"ce4bgkp2rcd13ifvqbmg","pricing_plan_id":"cebpf4jnsgd1na2vs0mg"},{"bike_id":"b90ea539-cd4c-4e2f-8708-ffa01e215a77","system_id":"levelo_inurba_marseille","lat":43.30433,"lon":5.38896,"is_reserved":false,"is_disabled":false,"rental_uris":{"android":"levelo://app?vid=b90ea539-cd4c-4e2f-8708-ffa01e215a77","ios":"levelo://app?vid=b90ea539-cd4c-4e2f-8708-ffa01e215a77"},"vehicle_type_id":"4","last_reported":1743257297,"current_range_meters":15200,"station_id":"ce4bgk12rcd13ifvqbi0","pricing_plan_id":"cebpf4jnsgd1na2vs0mg"},{"bike_id":"6424590e-6b45-43cf-a5d2-9c72fe589858","system_id":"levelo_inurba_marseille","lat":43.25725,"lon":5.41109,"is_reserved":false,"is_disabled":false,"rental_uris":{"android":"levelo://app?vid=6424590e-6b45-43cf-a5d2-9c72fe589858","ios":"levelo://app?vid=6424590e-6b45-43cf-a5d2-9c72fe589858"},"vehicle_type_id":"4","last_reported":1743257297,"current_range_meters":15200,"station_id":"ce4bhkp2rcd13ifvqgd0","pricing_plan_id":"cebpf4jnsgd1na2vs0mg"},{"bike_id":"7ff20fd8-9e68-4f44-8af6-14373426200c","system_id":"levelo_inurba_marseille","lat":43.23964,"lon":5.36637,"is_reserved":false,"is_disabled":false,"rental_uris":{"android":"levelo://app?vid=7ff20fd8-9e68-4f44-8af6-14373426200c","ios":"levelo://app?vid=7ff20fd8-9e68-4f44-8af6-14373426200c"},"vehicle_type_id":"4","last_reported":1743257297,"current_range_meters":15200,"station_id":"ce4bhi12rcd13ifvqfp0","pricing_plan_id":"cebpf4jnsgd1na2vs0mg"},{"bike_id":"8bcc045e-f28b-442a-a0af-38457b26197c","system_id":"levelo_inurba_marseille","lat":43.24167,"lon":5.36403,"is_reserved":false,"is_disabled":false,"rental_uris":{"android":"levelo://app?vid=8bcc045e-f28b-442a-a0af-38457b26197c","ios":"levelo://app?vid=8bcc045e-f28b-442a-a0af-38457b26197c"},"vehicle_type_id":"4","last_reported":1743257297,"current_range_meters":15200,"station_id":"cpo36qri1sfpv3e86is0","pricing_plan_id":"cebpf4jnsgd1na2vs0mg"},{"bike_id":"d6a6c961-8719-4b97-bee5-436f88fec816","system_id":"levelo_inurba_marseille","lat":43.28857,"lon":5.39293,"is_reserved":false,"is_disabled":false,"rental_uris":{"android":"levelo://app?vid=d6a6c961-8719-4b97-bee5-436f88fec816","ios":"levelo://app?vid=d6a6c961-8719-4b97-bee5-436f88fec816"},"vehicle_type_id":"4","last_reported":1743257297,"current_range_meters":15200,"station_id":"ce4bh2p2rcd13ifvqdi0","pricing_plan_id":"cebpf4jnsgd1na2vs0mg"},{"bike_id":"c4fb15b2-b6c9-4294-89c0-c7e0702ce2ad","system_id":"levelo_inurba_marseille","lat":43.27065,"lon":5.40264,"is_reserved":false,"is_disabled":false,"rental_uris":{"android":"levelo://app?vid=c4fb15b2-b6c9-4294-89c0-c7e0702ce2ad","ios":"levelo://app?vid=c4fb15b2-b6c9-4294-89c0-c7e0702ce2ad"},"vehicle_type_id":"4","last_reported":1743257297,"current_range_meters":16000,"station_id":"ce4bhk92rcd13ifvqgc0","pricing_plan_id":"cebpf4jnsgd1na2vs0mg"},{"bike_id":"01b30980-6fea-409c-a5b2-22ab52e85a66","system_id":"levelo_inurba_marseille","lat":43.29261,"lon":5.37619,"is_reserved":false,"is_disabled":false,"rental_uris":{"android":"levelo://app?vid=01b30980-6fea-409c-a5b2-22ab52e85a66","ios":"levelo://app?vid=01b30980-6fea-409c-a5b2-22ab52e85a66"},"vehicle_type_id":"4","last_reported":1743257297,"current_range_meters":16000,"station_id":"ce4bgi12rcd13ifvqb80","pricing_plan_id":"cebpf4jnsgd1na2vs0mg"},{"bike_id":"e461c282-058d-4d0e-a7d7-55427b9828bb","system_id":"levelo_inurba_marseille","lat":43.29579,"lon":5.37506,"is_reserved":false,"is_disabled":false,"rental_uris":{"android":"levelo://app?vid=e461c282-058d-4d0e-a7d7-55427b9828bb","ios":"levelo://app?vid=e461c282-058d-4d0e-a7d7-55427b9828bb"},"vehicle_type_id":"4","last_reported":1743257297,"current_range_meters":16000,"station_id":"ce4bgh92rcd13ifvqb50","pricing_plan_id":"cebpf4jnsgd1na2vs0mg"},{"bike_id":"ecb7ede7-77b9-414d-b45a-e1d195c7745a","system_id":"levelo_inurba_marseille","lat":43.2925,"lon":5.38452,"is_reserved":false,"is_disabled":false,"rental_uris":{"android":"levelo://app?vid=ecb7ede7-77b9-414d-b45a-e1d195c7745a","ios":"levelo://app?vid=ecb7ede7-77b9-414d-b45a-e1d195c7745a"},"vehicle_type_id":"4","last_reported":1743257297,"current_range_meters":15200,"station_id":"ce4bh692rcd13ifvqea0","pricing_plan_id":"cebpf4jnsgd1na2vs0mg"},{"bike_id":"cccdfc50-9172-4019-9d86-2d339a3ec58f","system_id":"levelo_inurba_marseille","lat":43.24651,"lon":5.38178,"is_reserved":false,"is_disabled":false,"rental_uris":{"android":"levelo://app?vid=cccdfc50-9172-4019-9d86-2d339a3ec58f","ios":"levelo://app?vid=cccdfc50-9172-4019-9d86-2d339a3ec58f"},"vehicle_type_id":"4","last_reported":1743257297,"current_range_meters":16000,"station_id":"ce4bhih2rcd13ifvqfr0","pricing_plan_id":"cebpf4jnsgd1na2vs0mg"},{"bike_id":"827e85c1-a7d5-4df8-a0d4-3cfc0c57b58e","system_id":"levelo_inurba_marseille","lat":43.30131,"lon":5.37427,"is_reserved":false,"is_disabled":false,"rental_uris":{"android":"levelo://app?vid=827e85c1-a7d5-4df8-a0d4-3cfc0c57b58e","ios":"levelo://app?vid=827e85c1-a7d5-4df8-a0d4-3cfc0c57b58e"},"vehicle_type_id":"4","last_reported":1743257297,"current_range_meters":16000,"station_id":"ce4bgs92rcd13ifvqcc0","pricing_plan_id":"cebpf4jnsgd1na2vs0mg"},{"bike_id":"ea212a2c-ebda-4fd3-87a5-afdf194e9b39","system_id":"levelo_inurba_marseille","lat":43.3157,"lon":5.38958,"is_reserved":false,"is_disabled":false,"rental_uris":{"android":"levelo://app?vid=ea212a2c-ebda-4fd3-87a5-afdf194e9b39","ios":"levelo://app?vid=ea212a2c-ebda-4fd3-87a5-afdf194e9b39"},"vehicle_type_id":"4","last_reported":1743257297,"current_range_meters":16000,"station_id":"","pricing_plan_id":"cebpf4jnsgd1na2vs0mg"},{"bike_id":"8c118e09-a3e9-4d1d-9b5c-29a21ba96c6d","system_id":"levelo_inurba_marseille","lat":43.32369,"lon":5.3888,"is_reserved":false,"is_disabled":false,"rental_uris":{"android":"levelo://app?vid=8c118e09-a3e9-4d1d-9b5c-29a21ba96c6d","ios":"levelo://app?vid=8c118e09-a3e9-4d1d-9b5c-29a21ba96c6d"},"vehicle_type_id":"4","last_reported":1743257297,"current_range_meters":16000,"station_id":"ce4bhqp2rcd13ifvqhog","pricing_plan_id":"cebpf4jnsgd1na2vs0mg"},{"bike_id":"3c2d931d-ed9b-4675-bfb4-8e9dec9a2bf0","system_id":"levelo_inurba_marseille","lat":43.24805,"lon":5.37455,"is_reserved":false,"is_disabled":false,"rental_uris":{"android":"levelo://app?vid=3c2d931d-ed9b-4675-bfb4-8e9dec9a2bf0","ios":"levelo://app?vid=3c2d931d-ed9b-4675-bfb4-8e9dec9a2bf0"},"vehicle_type_id":"4","last_reported":1743257297,"current_range_meters":16000,"station_id":"ce4bhgh2rcd13ifvqfb0","pricing_plan_id":"cebpf4jnsgd1na2vs0mg"},{"bike_id":"b495a96e-3e6f-453c-8052-b683e21f1048","system_id":"levelo_inurba_marseille","lat":43.25864,"lon":5.39922,"is_reserved":false,"is_disabled":false,"rental_uris":{"android":"levelo://app?vid=b495a96e-3e6f-453c-8052-b683e21f1048","ios":"levelo://app?vid=b495a96e-3e6f-453c-8052-b683e21f1048"},"vehicle_type_id":"4","last_reported":1743257297,"current_range_meters":16000,"station_id":"ce4bhl92rcd13ifvqghg","pricing_plan_id":"cebpf4jnsgd1na2vs0mg"},{"bike_id":"6302e02b-4f85-435c-9fd0-c8dc9062e591","system_id":"levelo_inurba_marseille","lat":43.29907,"lon":5.38158,"is_reserved":false,"is_disabled":false,"rental_uris":{"android":"levelo://app?vid=6302e02b-4f85-435c-9fd0-c8dc9062e591","ios":"levelo://app?vid=6302e02b-4f85-435c-9fd0-c8dc9062e591"},"vehicle_type_id":"4","last_reported":1743257297,"current_range_meters":16000,"station_id":"ce4bgj12rcd13ifvqbc0","pricing_plan_id":"cebpf4jnsgd1na2vs0mg"},{"bike_id":"004d08b9-0dd3-486c-a459-879ef81a5d68","system_id":"levelo_inurba_marseille","lat":43.30915,"lon":5.36855,"is_reserved":false,"is_disabled":false,"rental_uris":{"android":"levelo://app?vid=004d08b9-0dd3-486c-a459-879ef81a5d68","ios":"levelo://app?vid=004d08b9-0dd3-486c-a459-879ef81a5d68"},"vehicle_type_id":"4","last_reported":1743257297,"current_range_meters":16000,"station_id":"ce4bgn92rcd13ifvqbvg","pricing_plan_id":"cebpf4jnsgd1na2vs0mg"},{"bike_id":"82be5020-df29-4bb6-b821-10f31b9ed89a","system_id":"levelo_inurba_marseille","lat":43.2842,"lon":5.34984,"is_reserved":false,"is_disabled":false,"rental_uris":{"android":"levelo://app?vid=82be5020-df29-4bb6-b821-10f31b9ed89a","ios":"levelo://app?vid=82be5020-df29-4bb6-b821-10f31b9ed89a"},"vehicle_type_id":"4","last_reported":1743257297,"current_range_meters":16000,"station_id":"ce4bhbh2rcd13ifvqepg","pricing_plan_id":"cebpf4jnsgd1na2vs0mg"},{"bike_id":"5248ceee-c0bb-4629-a3ea-17ec819bc745","system_id":"levelo_inurba_marseille","lat":43.24394,"lon":5.3706,"is_reserved":false,"is_disabled":false,"rental_uris":{"android":"levelo://app?vid=5248ceee-c0bb-4629-a3ea-17ec819bc745","ios":"levelo://app?vid=5248ceee-c0bb-4629-a3ea-17ec819bc745"},"vehicle_type_id":"4","last_reported":1743257297,"current_range_meters":16000,"station_id":"ce4bhhh2rcd13ifvqfk0","pricing_plan_id":"cebpf4jnsgd1na2vs0mg"},{"bike_id":"0a9ec2eb-1e79-43a5-ae4d-326ab3ba938e","system_id":"levelo_inurba_marseille","lat":43.28623,"lon":5.35096,"is_reserved":false,"is_disabled":false,"rental_uris":{"android":"levelo://app?vid=0a9ec2eb-1e79-43a5-ae4d-326ab3ba938e","ios":"levelo://app?vid=0a9ec2eb-1e79-43a5-ae4d-326ab3ba938e"},"vehicle_type_id":"4","last_reported":1743257297,"current_range_meters":16000,"station_id":"ce4bhch2rcd13ifvqeug","pricing_plan_id":"cebpf4jnsgd1na2vs0mg"},{"bike_id":"966113b0-dbec-49ee-af6f-fbf11f12506b","system_id":"levelo_inurba_marseille","lat":43.29873,"lon":5.3746,"is_reserved":false,"is_disabled":false,"rental_uris":{"android":"levelo://app?vid=966113b0-dbec-49ee-af6f-fbf11f12506b","ios":"levelo://app?vid=966113b0-dbec-49ee-af6f-fbf11f12506b"},"vehicle_type_id":"4","last_reported":1743257297,"current_range_meters":16000,"station_id":"","pricing_plan_id":"cebpf4jnsgd1na2vs0mg"},{"bike_id":"cefbc506-9244-4dff-ad49-5eb81fb9c319","system_id":"levelo_inurba_marseille","lat":43.28876,"lon":5.3931,"is_reserved":false,"is_disabled":false,"rental_uris":{"android":"levelo://app?vid=cefbc506-9244-4dff-ad49-5eb81fb9c319","ios":"levelo://app?vid=cefbc506-9244-4dff-ad49-5eb81fb9c319"},"vehicle_type_id":"4","last_reported":1743257297,"current_range_meters":15200,"station_id":"ce4bh2p2rcd13ifvqdi0","pricing_plan_id":"cebpf4jnsgd1na2vs0mg"},{"bike_id":"0e9d92a7-df29-43d8-906d-2a51c6561f7d","system_id":"levelo_inurba_marseille","lat":43.284157,"lon":5.349834,"is_reserved":false,"is_disabled":false,"rental_uris":{"android":"levelo://app?vid=0e9d92a7-df29-43d8-906d-2a51c6561f7d","ios":"levelo://app?vid=0e9d92a7-df29-43d8-906d-2a51c6561f7d"},"vehicle_type_id":"4","last_reported":1743257297,"current_range_meters":16000,"station_id":"ce4bhbh2rcd13ifvqepg","pricing_plan_id":"cebpf4jnsgd1na2vs0mg"},{"bike_id":"b27b83ee-bd34-494b-878e-84f69ee4ca06","system_id":"levelo_inurba_marseille","lat":43.29945,"lon":5.3655,"is_reserved":false,"is_disabled":false,"rental_uris":{"android":"levelo://app?vid=b27b83ee-bd34-494b-878e-84f69ee4ca06","ios":"levelo://app?vid=b27b83ee-bd34-494b-878e-84f69ee4ca06"},"vehicle_type_id":"4","last_reported":1743257297,"current_range_meters":16400,"station_id":"ce4bgm92rcd13ifvqbr0","pricing_plan_id":"cebpf4jnsgd1na2vs0mg"},{"bike_id":"3d8ea47c-6510-46dd-9f40-995348467642","system_id":"levelo_inurba_marseille","lat":43.30542,"lon":5.36557,"is_reserved":false,"is_disabled":false,"rental_uris":{"android":"levelo://app?vid=3d8ea47c-6510-46dd-9f40-995348467642","ios":"levelo://app?vid=3d8ea47c-6510-46dd-9f40-995348467642"},"vehicle_type_id":"4","last_reported":1743257297,"current_range_meters":16400,"station_id":"ce4bgs12rcd13ifvqcag","pricing_plan_id":"cebpf4jnsgd1na2vs0mg"},{"bike_id":"9d3c4e41-2531-4fbc-a6ed-104bc8d3f0a4","system_id":"levelo_inurba_marseille","lat":43.287021,"lon":5.373786,"is_reserved":false,"is_disabled":false,"rental_uris":{"android":"levelo://app?vid=9d3c4e41-2531-4fbc-a6ed-104bc8d3f0a4","ios":"levelo://app?vid=9d3c4e41-2531-4fbc-a6ed-104bc8d3f0a4"},"vehicle_type_id":"4","last_reported":1743257297,"current_range_meters":16000,"station_id":"ce4bh3p2rcd13ifvqdq0","pricing_plan_id":"cebpf4jnsgd1na2vs0mg"},{"bike_id":"c5032665-d52e-42f9-bd4d-92be124cdcfc","system_id":"levelo_inurba_marseille","lat":43.26691,"lon":5.38279,"is_reserved":false,"is_disabled":false,"rental_uris":{"android":"levelo://app?vid=c5032665-d52e-42f9-bd4d-92be124cdcfc","ios":"levelo://app?vid=c5032665-d52e-42f9-bd4d-92be124cdcfc"},"vehicle_type_id":"4","last_reported":1743257297,"current_range_meters":16400,"station_id":"ce4bhg92rcd13ifvqf90","pricing_plan_id":"cebpf4jnsgd1na2vs0mg"},{"bike_id":"bfcad82b-6acc-493c-b418-93ec0bae17e4","system_id":"levelo_inurba_marseille","lat":43.32099,"lon":5.36794,"is_reserved":false,"is_disabled":false,"rental_uris":{"android":"levelo://app?vid=bfcad82b-6acc-493c-b418-93ec0bae17e4","ios":"levelo://app?vid=bfcad82b-6acc-493c-b418-93ec0bae17e4"},"vehicle_type_id":"4","last_reported":1743257297,"current_range_meters":16400,"station_id":"ce4bhrh2rcd13ifvqhug","pricing_plan_id":"cebpf4jnsgd1na2vs0mg"},{"bike_id":"59359988-faf5-47a1-b5f8-d319a6e1abfa","system_id":"levelo_inurba_marseille","lat":43.28422,"lon":5.34994,"is_reserved":false,"is_disabled":false,"rental_uris":{"android":"levelo://app?vid=59359988-faf5-47a1-b5f8-d319a6e1abfa","ios":"levelo://app?vid=59359988-faf5-47a1-b5f8-d319a6e1abfa"},"vehicle_type_id":"4","last_reported":1743257297,"current_range_meters":16400,"station_id":"ce4bhbh2rcd13ifvqepg","pricing_plan_id":"cebpf4jnsgd1na2vs0mg"},{"bike_id":"ada3816d-868c-442c-89ae-cf21c54552b3","system_id":"levelo_inurba_marseille","lat":43.28934,"lon":5.3664,"is_reserved":false,"is_disabled":false,"rental_uris":{"android":"levelo://app?vid=ada3816d-868c-442c-89ae-cf21c54552b3","ios":"levelo://app?vid=ada3816d-868c-442c-89ae-cf21c54552b3"},"vehicle_type_id":"4","last_reported":1743257297,"current_range_meters":16400,"station_id":"ce4bhap2rcd13ifvqek0","pricing_plan_id":"cebpf4jnsgd1na2vs0mg"},{"bike_id":"7d7cb2e9-c0be-4eaa-8107-27488e9e0281","system_id":"levelo_inurba_marseille","lat":43.29262,"lon":5.37629,"is_reserved":false,"is_disabled":false,"rental_uris":{"android":"levelo://app?vid=7d7cb2e9-c0be-4eaa-8107-27488e9e0281","ios":"levelo://app?vid=7d7cb2e9-c0be-4eaa-8107-27488e9e0281"},"vehicle_type_id":"4","last_reported":1743257297,"current_range_meters":16400,"station_id":"ce4bgi12rcd13ifvqb80","pricing_plan_id":"cebpf4jnsgd1na2vs0mg"},{"bike_id":"7fcdb0f9-3334-43bd-bbaa-eef4e1209a76","system_id":"levelo_inurba_marseille","lat":43.30323,"lon":5.40449,"is_reserved":false,"is_disabled":false,"rental_uris":{"android":"levelo://app?vid=7fcdb0f9-3334-43bd-bbaa-eef4e1209a76","ios":"levelo://app?vid=7fcdb0f9-3334-43bd-bbaa-eef4e1209a76"},"vehicle_type_id":"4","last_reported":1743257297,"current_range_meters":16400,"station_id":"ce4bh012rcd13ifvqd10","pricing_plan_id":"cebpf4jnsgd1na2vs0mg"},{"bike_id":"0a054900-ac8c-4b77-a7f1-aac9c1d65319","system_id":"levelo_inurba_marseille","lat":43.22931,"lon":5.35378,"is_reserved":false,"is_disabled":false,"rental_uris":{"android":"levelo://app?vid=0a054900-ac8c-4b77-a7f1-aac9c1d65319","ios":"levelo://app?vid=0a054900-ac8c-4b77-a7f1-aac9c1d65319"},"vehicle_type_id":"4","last_reported":1743257297,"current_range_meters":16400,"station_id":"cpo3532slgdg3j2ikp40","pricing_plan_id":"cebpf4jnsgd1na2vs0mg"},{"bike_id":"0812eafb-00ce-4139-b184-a26f5799de21","system_id":"levelo_inurba_marseille","lat":43.27994,"lon":5.40014,"is_reserved":false,"is_disabled":false,"rental_uris":{"android":"levelo://app?vid=0812eafb-00ce-4139-b184-a26f5799de21","ios":"levelo://app?vid=0812eafb-00ce-4139-b184-a26f5799de21"},"vehicle_type_id":"4","last_reported":1743257297,"current_range_meters":16400,"station_id":"ce4bho92rcd13ifvqh4g","pricing_plan_id":"cebpf4jnsgd1na2vs0mg"},{"bike_id":"6ef18dd7-1cb9-4ef6-bfdd-052cde57f183","system_id":"levelo_inurba_marseille","lat":43.32102,"lon":5.36775,"is_reserved":false,"is_disabled":false,"rental_uris":{"android":"levelo://app?vid=6ef18dd7-1cb9-4ef6-bfdd-052cde57f183","ios":"levelo://app?vid=6ef18dd7-1cb9-4ef6-bfdd-052cde57f183"},"vehicle_type_id":"4","last_reported":1743257297,"current_range_meters":16400,"station_id":"ce4bhrh2rcd13ifvqhug","pricing_plan_id":"cebpf4jnsgd1na2vs0mg"},{"bike_id":"dcdd88bd-3b1c-42b1-88af-0d7dbb8c43b7","system_id":"levelo_inurba_marseille","lat":43.30539,"lon":5.36551,"is_reserved":false,"is_disabled":false,"rental_uris":{"android":"levelo://app?vid=dcdd88bd-3b1c-42b1-88af-0d7dbb8c43b7","ios":"levelo://app?vid=dcdd88bd-3b1c-42b1-88af-0d7dbb8c43b7"},"vehicle_type_id":"4","last_reported":1743257297,"current_range_meters":16400,"station_id":"ce4bgs12rcd13ifvqcag","pricing_plan_id":"cebpf4jnsgd1na2vs0mg"},{"bike_id":"275bc6b6-1772-4183-a522-de0f246b39c2","system_id":"levelo_inurba_marseille","lat":43.31541,"lon":5.38806,"is_reserved":false,"is_disabled":false,"rental_uris":{"android":"levelo://app?vid=275bc6b6-1772-4183-a522-de0f246b39c2","ios":"levelo://app?vid=275bc6b6-1772-4183-a522-de0f246b39c2"},"vehicle_type_id":"4","last_reported":1743257297,"current_range_meters":16800,"station_id":"","pricing_plan_id":"cebpf4jnsgd1na2vs0mg"},{"bike_id":"dfbb6260-c784-4592-a1df-1e39e98bfefa","system_id":"levelo_inurba_marseille","lat":43.28415,"lon":5.35003,"is_reserved":false,"is_disabled":false,"rental_uris":{"android":"levelo://app?vid=dfbb6260-c784-4592-a1df-1e39e98bfefa","ios":"levelo://app?vid=dfbb6260-c784-4592-a1df-1e39e98bfefa"},"vehicle_type_id":"4","last_reported":1743257297,"current_range_meters":16800,"station_id":"ce4bhbh2rcd13ifvqepg","pricing_plan_id":"cebpf4jnsgd1na2vs0mg"},{"bike_id":"57574d51-3863-4dfd-a480-3fb0acc908a0","system_id":"levelo_inurba_marseille","lat":43.28617,"lon":5.35107,"is_reserved":false,"is_disabled":false,"rental_uris":{"android":"levelo://app?vid=57574d51-3863-4dfd-a480-3fb0acc908a0","ios":"levelo://app?vid=57574d51-3863-4dfd-a480-3fb0acc908a0"},"vehicle_type_id":"4","last_reported":1743257297,"current_range_meters":16800,"station_id":"ce4bhch2rcd13ifvqeug","pricing_plan_id":"cebpf4jnsgd1na2vs0mg"},{"bike_id":"5f437b8a-0c51-4d79-bb3a-458d3e8aac4b","system_id":"levelo_inurba_marseille","lat":43.28472,"lon":5.38411,"is_reserved":false,"is_disabled":false,"rental_uris":{"android":"levelo://app?vid=5f437b8a-0c51-4d79-bb3a-458d3e8aac4b","ios":"levelo://app?vid=5f437b8a-0c51-4d79-bb3a-458d3e8aac4b"},"vehicle_type_id":"4","last_reported":1743257297,"current_range_meters":16400,"station_id":"ce4bh512rcd13ifvqe3g","pricing_plan_id":"cebpf4jnsgd1na2vs0mg"},{"bike_id":"42bff7fa-dd9e-4749-a411-a28c51a86931","system_id":"levelo_inurba_marseille","lat":43.28939,"lon":5.3964,"is_reserved":false,"is_disabled":false,"rental_uris":{"android":"levelo://app?vid=42bff7fa-dd9e-4749-a411-a28c51a86931","ios":"levelo://app?vid=42bff7fa-dd9e-4749-a411-a28c51a86931"},"vehicle_type_id":"4","last_reported":1743257297,"current_range_meters":16800,"station_id":"ce4bh3h2rcd13ifvqdn0","pricing_plan_id":"cebpf4jnsgd1na2vs0mg"},{"bike_id":"32eafb53-64fd-4e61-a378-eb2a63bb13ac","system_id":"levelo_inurba_marseille","lat":43.29616,"lon":5.37737,"is_reserved":false,"is_disabled":false,"rental_uris":{"android":"levelo://app?vid=32eafb53-64fd-4e61-a378-eb2a63bb13ac","ios":"levelo://app?vid=32eafb53-64fd-4e61-a378-eb2a63bb13ac"},"vehicle_type_id":"4","last_reported":1743257297,"current_range_meters":16800,"station_id":"ce4bgi92rcd13ifvqb90","pricing_plan_id":"cebpf4jnsgd1na2vs0mg"},{"bike_id":"164bc16b-ae49-4f57-ace4-dc82784eaff1","system_id":"levelo_inurba_marseille","lat":43.29868,"lon":5.39764,"is_reserved":false,"is_disabled":false,"rental_uris":{"android":"levelo://app?vid=164bc16b-ae49-4f57-ace4-dc82784eaff1","ios":"levelo://app?vid=164bc16b-ae49-4f57-ace4-dc82784eaff1"},"vehicle_type_id":"4","last_reported":1743257297,"current_range_meters":16800,"station_id":"ce4bh0h2rcd13ifvqd50","pricing_plan_id":"cebpf4jnsgd1na2vs0mg"},{"bike_id":"9805d1d8-e29e-42a0-9d63-f8bc2aea07c1","system_id":"levelo_inurba_marseille","lat":43.29239,"lon":5.36035,"is_reserved":false,"is_disabled":false,"rental_uris":{"android":"levelo://app?vid=9805d1d8-e29e-42a0-9d63-f8bc2aea07c1","ios":"levelo://app?vid=9805d1d8-e29e-42a0-9d63-f8bc2aea07c1"},"vehicle_type_id":"4","last_reported":1743257297,"current_range_meters":17200,"station_id":"ce4bhbh2rcd13ifvqeqg","pricing_plan_id":"cebpf4jnsgd1na2vs0mg"},{"bike_id":"e5466320-8acb-4332-86b8-324583fe3bc2","system_id":"levelo_inurba_marseille","lat":43.29221,"lon":5.36061,"is_reserved":false,"is_disabled":false,"rental_uris":{"android":"levelo://app?vid=e5466320-8acb-4332-86b8-324583fe3bc2","ios":"levelo://app?vid=e5466320-8acb-4332-86b8-324583fe3bc2"},"vehicle_type_id":"4","last_reported":1743257297,"current_range_meters":17200,"station_id":"ce4bhbh2rcd13ifvqeqg","pricing_plan_id":"cebpf4jnsgd1na2vs0mg"},{"bike_id":"76859129-4009-4843-90a4-dc4d2b65271a","system_id":"levelo_inurba_marseille","lat":43.24191,"lon":5.36371,"is_reserved":false,"is_disabled":false,"rental_uris":{"android":"levelo://app?vid=76859129-4009-4843-90a4-dc4d2b65271a","ios":"levelo://app?vid=76859129-4009-4843-90a4-dc4d2b65271a"},"vehicle_type_id":"4","last_reported":1743257297,"current_range_meters":17200,"station_id":"cpo36qri1sfpv3e86is0","pricing_plan_id":"cebpf4jnsgd1na2vs0mg"},{"bike_id":"223d2c57-bff4-4a8e-9764-6b83fed7b36e","system_id":"levelo_inurba_marseille","lat":43.28853,"lon":5.39308,"is_reserved":false,"is_disabled":false,"rental_uris":{"android":"levelo://app?vid=223d2c57-bff4-4a8e-9764-6b83fed7b36e","ios":"levelo://app?vid=223d2c57-bff4-4a8e-9764-6b83fed7b36e"},"vehicle_type_id":"4","last_reported":1743257297,"current_range_meters":17200,"station_id":"ce4bh2p2rcd13ifvqdi0","pricing_plan_id":"cebpf4jnsgd1na2vs0mg"},{"bike_id":"2404fa59-1b04-4b44-913c-a1e5ec7bfeb2","system_id":"levelo_inurba_marseille","lat":43.31483,"lon":5.37304,"is_reserved":false,"is_disabled":false,"rental_uris":{"android":"levelo://app?vid=2404fa59-1b04-4b44-913c-a1e5ec7bfeb2","ios":"levelo://app?vid=2404fa59-1b04-4b44-913c-a1e5ec7bfeb2"},"vehicle_type_id":"4","last_reported":1743257297,"current_range_meters":17200,"station_id":"ce4bgt12rcd13ifvqcd0","pricing_plan_id":"cebpf4jnsgd1na2vs0mg"},{"bike_id":"4f2689ca-f17f-471e-b639-2f7ebd16078d","system_id":"levelo_inurba_marseille","lat":43.30536,"lon":5.38425,"is_reserved":false,"is_disabled":false,"rental_uris":{"android":"levelo://app?vid=4f2689ca-f17f-471e-b639-2f7ebd16078d","ios":"levelo://app?vid=4f2689ca-f17f-471e-b639-2f7ebd16078d"},