{"last_updated":1774027680,"ttl":60,"version":"2.2","data":{"bikes":[{"bike_id":"cf21a704-d1d6-45ac-b508-b7d48f023c9f","system_id":"levelo_inurba_marseille","lat":43.32124,"lon":5.36832,"is_reserved":false,"is_disabled":false,"rental_uris":{"android":"levelo://app?vid=cf21a704-d1d6-45ac-b508-b7d48f023c9f","ios":"levelo://app?vid=cf21a704-d1d6-45ac-b508-b7d48f023c9f"},"vehicle_type_id":"4","last_reported":1774027681,"current_range_meters":2800,"station_id":"","pricing_plan_id":"cebpf4jnsgd1na2vs0mg"},{"bike_id":"0be58df3-7ed5-4e6d-8013-edb0345ef617","system_id":"levelo_inurba_marseille","lat":43.3047,"lon":5.37907,"is_reserved":false,"is_disabled":false,"rental_uris":{"android":"levelo://app?vid=0be58df3-7ed5-4e6d-8013-edb0345ef617","ios":"levelo://app?vid=0be58df3-7ed5-4e6d-8013-edb0345ef617"},"vehicle_type_id":"4","last_reported":1774027681,"current_range_meters":2800,"station_id":"ce4bgup2rcd13ifvqcn0","pricing_plan_id":"cebpf4jnsgd1na2vs0mg"},{"bike_id":"47f75bf7-3ae4-4250-b479-80b517258dd6","system_id":"levelo_inurba_marseille","lat":43.28273,"lon":5.35061,"is_reserved":false,"is_disabled":false,"rental_uris":{"android":"levelo://app?vid=47f75bf7-3ae4-4250-b479-80b517258dd6","ios":"levelo://app?vid=47f75bf7-3ae4-4250-b479-80b517258dd6"},"vehicle_type_id":"4","last_reported":1774027681,"current_range_meters":2800,"station_id":"ce4bhbp2rcd13ifvqerg","pricing_plan_id":"cebpf4jnsgd1na2vs0mg"},{"bike_id":"eb551e0d-1f06-4e77-adfd-57489d6365b9","system_id":"levelo_inurba_marseille","lat":43.28028,"lon":5.36946,"is_reserved":false,"is_disabled":false,"rental_uris":{"android":"levelo://app?vid=eb551e0d-1f06-4e77-adfd-57489d6365b9","ios":"levelo://app?vid=eb551e0d-1f06-4e77-adfd-57489d6365b9"},"vehicle_type_id":"4","last_reported":1774027681,"current_range_meters":2800,"station_id":"ce4bha12rcd13ifvqef0","pricing_plan_id":"cebpf4jnsgd1na2vs0mg"},{"bike_id":"eea93922-603f-4b93-8f09-387673259808","system_id":"levelo_inurba_marseille","lat":43.29227,"lon":5.36073,"is_reserved":false,"is_disabled":false,"rental_uris":{"android":"levelo://app?vid=eea93922-603f-4b93-8f09-387673259808","ios":"levelo://app?vid=eea93922-603f-4b93-8f09-387673259808"},"vehicle_type_id":"4","last_reported":1774027681,"current_range_meters":2800,"station_id":"ce4bhbh2rcd13ifvqeqg","pricing_plan_id":"cebpf4jnsgd1na2vs0mg"},{"bike_id":"dd10efc5-28b9-436a-be78-8011941e89fc","system_id":"levelo_inurba_marseille","lat":43.28447,"lon":5.48469,"is_reserved":false,"is_disabled":false,"rental_uris":{"android":"levelo://app?vid=dd10efc5-28b9-436a-be78-8011941e89fc","ios":"levelo://app?vid=dd10efc5-28b9-436a-be78-8011941e89fc"},"vehicle_type_id":"4","last_reported":1774027681,"current_range_meters":2800,"station_id":"st_d3svhcjqgbts73a3dn0g","pricing_plan_id":"cebpf4jnsgd1na2vs0mg"},{"bike_id":"2ad8cc29-c594-48a7-a007-5c0ee8c6af57","system_id":"levelo_inurba_marseille","lat":43.31172,"lon":5.38718,"is_reserved":false,"is_disabled":false,"rental_uris":{"android":"levelo://app?vid=2ad8cc29-c594-48a7-a007-5c0ee8c6af57","ios":"levelo://app?vid=2ad8cc29-c594-48a7-a007-5c0ee8c6af57"},"vehicle_type_id":"4","last_reported":1774027681,"current_range_meters":2800,"station_id":"ce4bgv12rcd13ifvqcp0","pricing_plan_id":"cebpf4jnsgd1na2vs0mg"},{"bike_id":"299e519b-3b2c-4aa3-9af1-362f343fe8f8","system_id":"levelo_inurba_marseille","lat":43.2378,"lon":5.36631,"is_reserved":false,"is_disabled":false,"rental_uris":{"android":"levelo://app?vid=299e519b-3b2c-4aa3-9af1-362f343fe8f8","ios":"levelo://app?vid=299e519b-3b2c-4aa3-9af1-362f343fe8f8"},"vehicle_type_id":"4","last_reported":1774027681,"current_range_meters":2800,"station_id":"st_d3nk18o9ro0c73en2l3g","pricing_plan_id":"cebpf4jnsgd1na2vs0mg"},{"bike_id":"4c6a4d6a-2427-4c2c-bc2d-a0973ca4e7b9","system_id":"levelo_inurba_marseille","lat":43.28006,"lon":5.41672,"is_reserved":false,"is_disabled":false,"rental_uris":{"android":"levelo://app?vid=4c6a4d6a-2427-4c2c-bc2d-a0973ca4e7b9","ios":"levelo://app?vid=4c6a4d6a-2427-4c2c-bc2d-a0973ca4e7b9"},"vehicle_type_id":"4","last_reported":1774027681,"current_range_meters":2800,"station_id":"ce4bho12rcd13ifvqh1g","pricing_plan_id":"cebpf4jnsgd1na2vs0mg"},{"bike_id":"23c209c6-7d3c-4387-b04a-03a2b9a72d01","system_id":"levelo_inurba_marseille","lat":43.2836,"lon":5.43273,"is_reserved":false,"is_disabled":false,"rental_uris":{"android":"levelo://app?vid=23c209c6-7d3c-4387-b04a-03a2b9a72d01","ios":"levelo://app?vid=23c209c6-7d3c-4387-b04a-03a2b9a72d01"},"vehicle_type_id":"4","last_reported":1774027681,"current_range_meters":2800,"station_id":"","pricing_plan_id":"cebpf4jnsgd1na2vs0mg"},{"bike_id":"06a87194-8bca-40ab-9395-b0c004528d56","system_id":"levelo_inurba_marseille","lat":43.28157,"lon":5.42643,"is_reserved":false,"is_disabled":false,"rental_uris":{"android":"levelo://app?vid=06a87194-8bca-40ab-9395-b0c004528d56","ios":"levelo://app?vid=06a87194-8bca-40ab-9395-b0c004528d56"},"vehicle_type_id":"4","last_reported":1774027681,"current_range_meters":2800,"station_id":"ce4bhnh2rcd13ifvqgug","pricing_plan_id":"cebpf4jnsgd1na2vs0mg"},{"bike_id":"3dc16d9b-426d-476e-b47a-314146de3199","system_id":"levelo_inurba_marseille","lat":43.29532,"lon":5.38549,"is_reserved":false,"is_disabled":false,"rental_uris":{"android":"levelo://app?vid=3dc16d9b-426d-476e-b47a-314146de3199","ios":"levelo://app?vid=3dc16d9b-426d-476e-b47a-314146de3199"},"vehicle_type_id":"4","last_reported":1774027681,"current_range_meters":2800,"station_id":"ce4bgih2rcd13ifvqba0","pricing_plan_id":"cebpf4jnsgd1na2vs0mg"},{"bike_id":"1cd67dd6-29ce-4a02-9eea-7f83104a92d4","system_id":"levelo_inurba_marseille","lat":43.29032,"lon":5.37566,"is_reserved":false,"is_disabled":false,"rental_uris":{"android":"levelo://app?vid=1cd67dd6-29ce-4a02-9eea-7f83104a92d4","ios":"levelo://app?vid=1cd67dd6-29ce-4a02-9eea-7f83104a92d4"},"vehicle_type_id":"4","last_reported":1774027681,"current_range_meters":2800,"station_id":"ce4bh692rcd13ifvqe90","pricing_plan_id":"cebpf4jnsgd1na2vs0mg"},{"bike_id":"20591958-8b2d-4cf2-82a2-2b115b60eeb0","system_id":"levelo_inurba_marseille","lat":43.2862,"lon":5.35105,"is_reserved":false,"is_disabled":false,"rental_uris":{"android":"levelo://app?vid=20591958-8b2d-4cf2-82a2-2b115b60eeb0","ios":"levelo://app?vid=20591958-8b2d-4cf2-82a2-2b115b60eeb0"},"vehicle_type_id":"4","last_reported":1774027681,"current_range_meters":3200,"station_id":"ce4bhch2rcd13ifvqeug","pricing_plan_id":"cebpf4jnsgd1na2vs0mg"},{"bike_id":"8a854e0a-3b9f-471d-80f2-bfadb0595e6b","system_id":"levelo_inurba_marseille","lat":43.31344,"lon":5.37565,"is_reserved":false,"is_disabled":false,"rental_uris":{"android":"levelo://app?vid=8a854e0a-3b9f-471d-80f2-bfadb0595e6b","ios":"levelo://app?vid=8a854e0a-3b9f-471d-80f2-bfadb0595e6b"},"vehicle_type_id":"4","last_reported":1774027681,"current_range_meters":3200,"station_id":"","pricing_plan_id":"cebpf4jnsgd1na2vs0mg"},{"bike_id":"ecceb73a-71dd-4950-bbdb-652d61da8407","system_id":"levelo_inurba_marseille","lat":43.29531,"lon":5.38541,"is_reserved":false,"is_disabled":false,"rental_uris":{"android":"levelo://app?vid=ecceb73a-71dd-4950-bbdb-652d61da8407","ios":"levelo://app?vid=ecceb73a-71dd-4950-bbdb-652d61da8407"},"vehicle_type_id":"4","last_reported":1774027681,"current_range_meters":3200,"station_id":"ce4bgih2rcd13ifvqba0","pricing_plan_id":"cebpf4jnsgd1na2vs0mg"},{"bike_id":"5398a049-40d4-45a5-9567-46e5cc0dcf22","system_id":"levelo_inurba_marseille","lat":43.28931,"lon":5.36644,"is_reserved":false,"is_disabled":false,"rental_uris":{"android":"levelo://app?vid=5398a049-40d4-45a5-9567-46e5cc0dcf22","ios":"levelo://app?vid=5398a049-40d4-45a5-9567-46e5cc0dcf22"},"vehicle_type_id":"4","last_reported":1774027681,"current_range_meters":3200,"station_id":"ce4bhap2rcd13ifvqek0","pricing_plan_id":"cebpf4jnsgd1na2vs0mg"},{"bike_id":"2b29c9a8-f15d-4c2d-8470-f1208d2d4433","system_id":"levelo_inurba_marseille","lat":43.2396,"lon":5.36632,"is_reserved":false,"is_disabled":false,"rental_uris":{"android":"levelo://app?vid=2b29c9a8-f15d-4c2d-8470-f1208d2d4433","ios":"levelo://app?vid=2b29c9a8-f15d-4c2d-8470-f1208d2d4433"},"vehicle_type_id":"4","last_reported":1774027681,"current_range_meters":3200,"station_id":"ce4bhi12rcd13ifvqfp0","pricing_plan_id":"cebpf4jnsgd1na2vs0mg"},{"bike_id":"773b7ad8-e7d0-40e5-9c1d-a512bc074903","system_id":"levelo_inurba_marseille","lat":43.2937,"lon":5.37837,"is_reserved":false,"is_disabled":false,"rental_uris":{"android":"levelo://app?vid=773b7ad8-e7d0-40e5-9c1d-a512bc074903","ios":"levelo://app?vid=773b7ad8-e7d0-40e5-9c1d-a512bc074903"},"vehicle_type_id":"4","last_reported":1774027681,"current_range_meters":3200,"station_id":"ce4bgjh2rcd13ifvqbf0","pricing_plan_id":"cebpf4jnsgd1na2vs0mg"},{"bike_id":"f4db87ce-91db-447b-864c-52c8fbe6c1da","system_id":"levelo_inurba_marseille","lat":43.28841,"lon":5.39304,"is_reserved":false,"is_disabled":false,"rental_uris":{"android":"levelo://app?vid=f4db87ce-91db-447b-864c-52c8fbe6c1da","ios":"levelo://app?vid=f4db87ce-91db-447b-864c-52c8fbe6c1da"},"vehicle_type_id":"4","last_reported":1774027681,"current_range_meters":3200,"station_id":"ce4bh2p2rcd13ifvqdi0","pricing_plan_id":"cebpf4jnsgd1na2vs0mg"},{"bike_id":"3ed4bc13-b22d-44b4-aa6f-19f196c483da","system_id":"levelo_inurba_marseille","lat":43.24173,"lon":5.364,"is_reserved":false,"is_disabled":false,"rental_uris":{"android":"levelo://app?vid=3ed4bc13-b22d-44b4-aa6f-19f196c483da","ios":"levelo://app?vid=3ed4bc13-b22d-44b4-aa6f-19f196c483da"},"vehicle_type_id":"4","last_reported":1774027681,"current_range_meters":3200,"station_id":"cpo36qri1sfpv3e86is0","pricing_plan_id":"cebpf4jnsgd1na2vs0mg"},{"bike_id":"368c9922-f0a4-48aa-a8e4-ec9798de1f1b","system_id":"levelo_inurba_marseille","lat":43.28676,"lon":5.3866,"is_reserved":false,"is_disabled":true,"rental_uris":{"android":"levelo://app?vid=368c9922-f0a4-48aa-a8e4-ec9798de1f1b","ios":"levelo://app?vid=368c9922-f0a4-48aa-a8e4-ec9798de1f1b"},"vehicle_type_id":"4","last_reported":1774027681,"current_range_meters":3200,"station_id":"ce4bh492rcd13ifvqdug","pricing_plan_id":"cebpf4jnsgd1na2vs0mg"},{"bike_id":"a35c806b-9f61-4270-ad16-3e2cf5c5efd2","system_id":"levelo_inurba_marseille","lat":43.26064,"lon":5.39399,"is_reserved":false,"is_disabled":false,"rental_uris":{"android":"levelo://app?vid=a35c806b-9f61-4270-ad16-3e2cf5c5efd2","ios":"levelo://app?vid=a35c806b-9f61-4270-ad16-3e2cf5c5efd2"},"vehicle_type_id":"4","last_reported":1774027681,"current_range_meters":3200,"station_id":"ce4bhh92rcd13ifvqfj0","pricing_plan_id":"cebpf4jnsgd1na2vs0mg"},{"bike_id":"39421cf9-7a72-4fc3-a879-2901ca5d5846","system_id":"levelo_inurba_marseille","lat":43.23795,"lon":5.36644,"is_reserved":false,"is_disabled":false,"rental_uris":{"android":"levelo://app?vid=39421cf9-7a72-4fc3-a879-2901ca5d5846","ios":"levelo://app?vid=39421cf9-7a72-4fc3-a879-2901ca5d5846"},"vehicle_type_id":"4","last_reported":1774027681,"current_range_meters":3200,"station_id":"st_d3nk18o9ro0c73en2l3g","pricing_plan_id":"cebpf4jnsgd1na2vs0mg"},{"bike_id":"d708f254-c31f-45d1-972c-9e4f8ac50835","system_id":"levelo_inurba_marseille","lat":43.25584,"lon":5.38251,"is_reserved":false,"is_disabled":false,"rental_uris":{"android":"levelo://app?vid=d708f254-c31f-45d1-972c-9e4f8ac50835","ios":"levelo://app?vid=d708f254-c31f-45d1-972c-9e4f8ac50835"},"vehicle_type_id":"4","last_reported":1774027681,"current_range_meters":3200,"station_id":"ce4bhih2rcd13ifvqfs0","pricing_plan_id":"cebpf4jnsgd1na2vs0mg"},{"bike_id":"692930df-6ce1-42eb-baeb-4f1bf2f648b0","system_id":"levelo_inurba_marseille","lat":43.28043,"lon":5.36953,"is_reserved":false,"is_disabled":false,"rental_uris":{"android":"levelo://app?vid=692930df-6ce1-42eb-baeb-4f1bf2f648b0","ios":"levelo://app?vid=692930df-6ce1-42eb-baeb-4f1bf2f648b0"},"vehicle_type_id":"4","last_reported":1774027681,"current_range_meters":3200,"station_id":"ce4bha12rcd13ifvqef0","pricing_plan_id":"cebpf4jnsgd1na2vs0mg"},{"bike_id":"f4424e23-f974-453a-a21c-9f9854c1f16f","system_id":"levelo_inurba_marseille","lat":43.25041,"lon":5.37822,"is_reserved":false,"is_disabled":false,"rental_uris":{"android":"levelo://app?vid=f4424e23-f974-453a-a21c-9f9854c1f16f","ios":"levelo://app?vid=f4424e23-f974-453a-a21c-9f9854c1f16f"},"vehicle_type_id":"4","last_reported":1774027681,"current_range_meters":3200,"station_id":"","pricing_plan_id":"cebpf4jnsgd1na2vs0mg"},{"bike_id":"3f9fb310-6fac-4137-b487-279ff0e33710","system_id":"levelo_inurba_marseille","lat":43.26035,"lon":5.37546,"is_reserved":false,"is_disabled":false,"rental_uris":{"android":"levelo://app?vid=3f9fb310-6fac-4137-b487-279ff0e33710","ios":"levelo://app?vid=3f9fb310-6fac-4137-b487-279ff0e33710"},"vehicle_type_id":"4","last_reported":1774027681,"current_range_meters":3600,"station_id":"ce4bhgh2rcd13ifvqfa0","pricing_plan_id":"cebpf4jnsgd1na2vs0mg"},{"bike_id":"ae3653ee-4b50-4f8a-971b-1802190756aa","system_id":"levelo_inurba_marseille","lat":43.28406,"lon":5.35015,"is_reserved":false,"is_disabled":false,"rental_uris":{"android":"levelo://app?vid=ae3653ee-4b50-4f8a-971b-1802190756aa","ios":"levelo://app?vid=ae3653ee-4b50-4f8a-971b-1802190756aa"},"vehicle_type_id":"4","last_reported":1774027681,"current_range_meters":3600,"station_id":"ce4bhbh2rcd13ifvqepg","pricing_plan_id":"cebpf4jnsgd1na2vs0mg"},{"bike_id":"24e02049-7d35-48ad-9eee-757709960f87","system_id":"levelo_inurba_marseille","lat":43.26024,"lon":5.37562,"is_reserved":false,"is_disabled":false,"rental_uris":{"android":"levelo://app?vid=24e02049-7d35-48ad-9eee-757709960f87","ios":"levelo://app?vid=24e02049-7d35-48ad-9eee-757709960f87"},"vehicle_type_id":"4","last_reported":1774027681,"current_range_meters":3600,"station_id":"ce4bhgh2rcd13ifvqfa0","pricing_plan_id":"cebpf4jnsgd1na2vs0mg"},{"bike_id":"903fac39-6530-4adb-a670-2e120e407c6f","system_id":"levelo_inurba_marseille","lat":43.28359,"lon":5.38111,"is_reserved":false,"is_disabled":false,"rental_uris":{"android":"levelo://app?vid=903fac39-6530-4adb-a670-2e120e407c6f","ios":"levelo://app?vid=903fac39-6530-4adb-a670-2e120e407c6f"},"vehicle_type_id":"4","last_reported":1774027681,"current_range_meters":3600,"station_id":"ce4bh412rcd13ifvqdr0","pricing_plan_id":"cebpf4jnsgd1na2vs0mg"},{"bike_id":"2ded58f2-0280-4a10-8f57-74c550f1a570","system_id":"levelo_inurba_marseille","lat":43.28472,"lon":5.38404,"is_reserved":false,"is_disabled":false,"rental_uris":{"android":"levelo://app?vid=2ded58f2-0280-4a10-8f57-74c550f1a570","ios":"levelo://app?vid=2ded58f2-0280-4a10-8f57-74c550f1a570"},"vehicle_type_id":"4","last_reported":1774027681,"current_range_meters":3600,"station_id":"ce4bh512rcd13ifvqe3g","pricing_plan_id":"cebpf4jnsgd1na2vs0mg"},{"bike_id":"d5f7f0bf-c4f5-45e1-bf7d-f4959ca7505e","system_id":"levelo_inurba_marseille","lat":43.24394,"lon":5.37072,"is_reserved":false,"is_disabled":false,"rental_uris":{"android":"levelo://app?vid=d5f7f0bf-c4f5-45e1-bf7d-f4959ca7505e","ios":"levelo://app?vid=d5f7f0bf-c4f5-45e1-bf7d-f4959ca7505e"},"vehicle_type_id":"4","last_reported":1774027681,"current_range_meters":3600,"station_id":"ce4bhhh2rcd13ifvqfk0","pricing_plan_id":"cebpf4jnsgd1na2vs0mg"},{"bike_id":"1d7ff670-e833-45c1-88aa-27c241c158bf","system_id":"levelo_inurba_marseille","lat":43.29231,"lon":5.36075,"is_reserved":false,"is_disabled":false,"rental_uris":{"android":"levelo://app?vid=1d7ff670-e833-45c1-88aa-27c241c158bf","ios":"levelo://app?vid=1d7ff670-e833-45c1-88aa-27c241c158bf"},"vehicle_type_id":"4","last_reported":1774027681,"current_range_meters":3600,"station_id":"ce4bhbh2rcd13ifvqeqg","pricing_plan_id":"cebpf4jnsgd1na2vs0mg"},{"bike_id":"3280eee0-bb7d-40d4-9215-7d63c41ef38a","system_id":"levelo_inurba_marseille","lat":43.29008,"lon":5.35615,"is_reserved":false,"is_disabled":false,"rental_uris":{"android":"levelo://app?vid=3280eee0-bb7d-40d4-9215-7d63c41ef38a","ios":"levelo://app?vid=3280eee0-bb7d-40d4-9215-7d63c41ef38a"},"vehicle_type_id":"4","last_reported":1774027681,"current_range_meters":3600,"station_id":"ce4bhb92rcd13ifvqen0","pricing_plan_id":"cebpf4jnsgd1na2vs0mg"},{"bike_id":"e193d30c-bc14-428c-aa8b-69aacbc22c20","system_id":"levelo_inurba_marseille","lat":43.32065,"lon":5.36857,"is_reserved":false,"is_disabled":false,"rental_uris":{"android":"levelo://app?vid=e193d30c-bc14-428c-aa8b-69aacbc22c20","ios":"levelo://app?vid=e193d30c-bc14-428c-aa8b-69aacbc22c20"},"vehicle_type_id":"4","last_reported":1774027681,"current_range_meters":3600,"station_id":"","pricing_plan_id":"cebpf4jnsgd1na2vs0mg"},{"bike_id":"06ce4f90-d2c1-4cdf-8e92-af4e6c83cb49","system_id":"levelo_inurba_marseille","lat":43.29015,"lon":5.35629,"is_reserved":false,"is_disabled":true,"rental_uris":{"android":"levelo://app?vid=06ce4f90-d2c1-4cdf-8e92-af4e6c83cb49","ios":"levelo://app?vid=06ce4f90-d2c1-4cdf-8e92-af4e6c83cb49"},"vehicle_type_id":"4","last_reported":1774027681,"current_range_meters":3600,"station_id":"ce4bhb92rcd13ifvqen0","pricing_plan_id":"cebpf4jnsgd1na2vs0mg"},{"bike_id":"afc7cd60-273c-48e9-a020-ee66ec81acfb","system_id":"levelo_inurba_marseille","lat":43.29708,"lon":5.36603,"is_reserved":false,"is_disabled":false,"rental_uris":{"android":"levelo://app?vid=afc7cd60-273c-48e9-a020-ee66ec81acfb","ios":"levelo://app?vid=afc7cd60-273c-48e9-a020-ee66ec81acfb"},"vehicle_type_id":"4","last_reported":1774027681,"current_range_meters":3600,"station_id":"ce4bgn12rcd13ifvqbt0","pricing_plan_id":"cebpf4jnsgd1na2vs0mg"},{"bike_id":"6d685847-ceb0-4f79-99f2-cc8153818f13","system_id":"levelo_inurba_marseille","lat":43.27384,"lon":5.36252,"is_reserved":false,"is_disabled":true,"rental_uris":{"android":"levelo://app?vid=6d685847-ceb0-4f79-99f2-cc8153818f13","ios":"levelo://app?vid=6d685847-ceb0-4f79-99f2-cc8153818f13"},"vehicle_type_id":"4","last_reported":1774027681,"current_range_meters":3600,"station_id":"ce4bhbh2rcd13ifvqeo0","pricing_plan_id":"cebpf4jnsgd1na2vs0mg"},{"bike_id":"c0329052-3616-443c-91ec-496696fc7ae3","system_id":"levelo_inurba_marseille","lat":43.31329,"lon":5.39693,"is_reserved":false,"is_disabled":false,"rental_uris":{"android":"levelo://app?vid=c0329052-3616-443c-91ec-496696fc7ae3","ios":"levelo://app?vid=c0329052-3616-443c-91ec-496696fc7ae3"},"vehicle_type_id":"4","last_reported":1774027681,"current_range_meters":3600,"station_id":"ce4bgvp2rcd13ifvqcu0","pricing_plan_id":"cebpf4jnsgd1na2vs0mg"},{"bike_id":"e70eca17-694d-4cf5-8350-9f82058bc766","system_id":"levelo_inurba_marseille","lat":43.307955,"lon":5.381175,"is_reserved":false,"is_disabled":false,"rental_uris":{"android":"levelo://app?vid=e70eca17-694d-4cf5-8350-9f82058bc766","ios":"levelo://app?vid=e70eca17-694d-4cf5-8350-9f82058bc766"},"vehicle_type_id":"4","last_reported":1774027681,"current_range_meters":3600,"station_id":"ce4bgt12rcd13ifvqce0","pricing_plan_id":"cebpf4jnsgd1na2vs0mg"},{"bike_id":"e3d63801-a981-4ccd-b244-a7e2050d66c6","system_id":"levelo_inurba_marseille","lat":43.308441,"lon":5.370288,"is_reserved":false,"is_disabled":false,"rental_uris":{"android":"levelo://app?vid=e3d63801-a981-4ccd-b244-a7e2050d66c6","ios":"levelo://app?vid=e3d63801-a981-4ccd-b244-a7e2050d66c6"},"vehicle_type_id":"4","last_reported":1774027681,"current_range_meters":3600,"station_id":"ce4bhh12rcd13ifvqfg0","pricing_plan_id":"cebpf4jnsgd1na2vs0mg"},{"bike_id":"bebae7b0-c2c6-4b1d-8855-8b06d4443a00","system_id":"levelo_inurba_marseille","lat":43.28491,"lon":5.48393,"is_reserved":false,"is_disabled":false,"rental_uris":{"android":"levelo://app?vid=bebae7b0-c2c6-4b1d-8855-8b06d4443a00","ios":"levelo://app?vid=bebae7b0-c2c6-4b1d-8855-8b06d4443a00"},"vehicle_type_id":"4","last_reported":1774027681,"current_range_meters":3600,"station_id":"st_d3svhcjqgbts73a3dn0g","pricing_plan_id":"cebpf4jnsgd1na2vs0mg"},{"bike_id":"458bee36-4065-46a0-a1cb-8cdb7feae92f","system_id":"levelo_inurba_marseille","lat":43.26774,"lon":5.39465,"is_reserved":false,"is_disabled":false,"rental_uris":{"android":"levelo://app?vid=458bee36-4065-46a0-a1cb-8cdb7feae92f","ios":"levelo://app?vid=458bee36-4065-46a0-a1cb-8cdb7feae92f"},"vehicle_type_id":"4","last_reported":1774027681,"current_range_meters":3600,"station_id":"ce4bhh12rcd13ifvqfg0","pricing_plan_id":"cebpf4jnsgd1na2vs0mg"},{"bike_id":"ec327ac2-9680-48a1-8584-22f43bc41c50","system_id":"levelo_inurba_marseille","lat":43.29263,"lon":5.37642,"is_reserved":false,"is_disabled":true,"rental_uris":{"android":"levelo://app?vid=ec327ac2-9680-48a1-8584-22f43bc41c50","ios":"levelo://app?vid=ec327ac2-9680-48a1-8584-22f43bc41c50"},"vehicle_type_id":"4","last_reported":1774027681,"current_range_meters":3600,"station_id":"ce4bgi12rcd13ifvqb80","pricing_plan_id":"cebpf4jnsgd1na2vs0mg"},{"bike_id":"66be2595-d8a5-40d3-b0b9-334f8fbba844","system_id":"levelo_inurba_marseille","lat":43.24632,"lon":5.43157,"is_reserved":false,"is_disabled":false,"rental_uris":{"android":"levelo://app?vid=66be2595-d8a5-40d3-b0b9-334f8fbba844","ios":"levelo://app?vid=66be2595-d8a5-40d3-b0b9-334f8fbba844"},"vehicle_type_id":"4","last_reported":1774027681,"current_range_meters":4000,"station_id":"","pricing_plan_id":"cebpf4jnsgd1na2vs0mg"},{"bike_id":"52869434-6b38-4314-82f4-5b7c42212461","system_id":"levelo_inurba_marseille","lat":43.29882,"lon":5.38921,"is_reserved":false,"is_disabled":false,"rental_uris":{"android":"levelo://app?vid=52869434-6b38-4314-82f4-5b7c42212461","ios":"levelo://app?vid=52869434-6b38-4314-82f4-5b7c42212461"},"vehicle_type_id":"4","last_reported":1774027681,"current_range_meters":4000,"station_id":"ce4bh392rcd13ifvqdl0","pricing_plan_id":"cebpf4jnsgd1na2vs0mg"},{"bike_id":"27cfd7f2-48c6-4fe4-9d82-e5b76120df75","system_id":"levelo_inurba_marseille","lat":43.29821,"lon":5.4406,"is_reserved":false,"is_disabled":false,"rental_uris":{"android":"levelo://app?vid=27cfd7f2-48c6-4fe4-9d82-e5b76120df75","ios":"levelo://app?vid=27cfd7f2-48c6-4fe4-9d82-e5b76120df75"},"vehicle_type_id":"4","last_reported":1774027681,"current_range_meters":4000,"station_id":"st_d3jp68qikq2c7381ktn0","pricing_plan_id":"cebpf4jnsgd1na2vs0mg"},{"bike_id":"8d28ff17-7920-46eb-a11e-3c3d501fbf53","system_id":"levelo_inurba_marseille","lat":43.28145,"lon":5.42635,"is_reserved":false,"is_disabled":false,"rental_uris":{"android":"levelo://app?vid=8d28ff17-7920-46eb-a11e-3c3d501fbf53","ios":"levelo://app?vid=8d28ff17-7920-46eb-a11e-3c3d501fbf53"},"vehicle_type_id":"4","last_reported":1774027681,"current_range_meters":4000,"station_id":"ce4bhnh2rcd13ifvqgug","pricing_plan_id":"cebpf4jnsgd1na2vs0mg"},{"bike_id":"77e54e57-cfac-45b8-943b-c2667cbdd172","system_id":"levelo_inurba_marseille","lat":43.30534,"lon":5.36561,"is_reserved":false,"is_disabled":false,"rental_uris":{"android":"levelo://app?vid=77e54e57-cfac-45b8-943b-c2667cbdd172","ios":"levelo://app?vid=77e54e57-cfac-45b8-943b-c2667cbdd172"},"vehicle_type_id":"4","last_reported":1774027681,"current_range_meters":4000,"station_id":"ce4bgs12rcd13ifvqcag","pricing_plan_id":"cebpf4jnsgd1na2vs0mg"},{"bike_id":"52f6a6b9-7af9-4956-b458-baf5061e66bf","system_id":"levelo_inurba_marseille","lat":43.23334,"lon":5.4446,"is_reserved":false,"is_disabled":false,"rental_uris":{"android":"levelo://app?vid=52f6a6b9-7af9-4956-b458-baf5061e66bf","ios":"levelo://app?vid=52f6a6b9-7af9-4956-b458-baf5061e66bf"},"vehicle_type_id":"4","last_reported":1774027681,"current_range_meters":4000,"station_id":"","pricing_plan_id":"cebpf4jnsgd1na2vs0mg"},{"bike_id":"347a0133-45d3-4213-ae48-606f4453bbf3","system_id":"levelo_inurba_marseille","lat":43.23058,"lon":5.35489,"is_reserved":false,"is_disabled":false,"rental_uris":{"android":"levelo://app?vid=347a0133-45d3-4213-ae48-606f4453bbf3","ios":"levelo://app?vid=347a0133-45d3-4213-ae48-606f4453bbf3"},"vehicle_type_id":"4","last_reported":1774027681,"current_range_meters":4000,"station_id":"cpo3342slgdg3j2ifvpg","pricing_plan_id":"cebpf4jnsgd1na2vs0mg"},{"bike_id":"71074b2d-5329-4fdc-a17e-0825b31224fb","system_id":"levelo_inurba_marseille","lat":43.29865,"lon":5.39764,"is_reserved":false,"is_disabled":false,"rental_uris":{"android":"levelo://app?vid=71074b2d-5329-4fdc-a17e-0825b31224fb","ios":"levelo://app?vid=71074b2d-5329-4fdc-a17e-0825b31224fb"},"vehicle_type_id":"4","last_reported":1774027681,"current_range_meters":4000,"station_id":"ce4bh0h2rcd13ifvqd50","pricing_plan_id":"cebpf4jnsgd1na2vs0mg"},{"bike_id":"e5e18d51-d281-4feb-b73c-20d80ef4d3b8","system_id":"levelo_inurba_marseille","lat":43.28142,"lon":5.42656,"is_reserved":false,"is_disabled":false,"rental_uris":{"android":"levelo://app?vid=e5e18d51-d281-4feb-b73c-20d80ef4d3b8","ios":"levelo://app?vid=e5e18d51-d281-4feb-b73c-20d80ef4d3b8"},"vehicle_type_id":"4","last_reported":1774027681,"current_range_meters":4000,"station_id":"ce4bhnh2rcd13ifvqgug","pricing_plan_id":"cebpf4jnsgd1na2vs0mg"},{"bike_id":"9fbfdc7a-8398-40b5-b97f-ba1104c7c96f","system_id":"levelo_inurba_marseille","lat":43.23189,"lon":5.35563,"is_reserved":false,"is_disabled":false,"rental_uris":{"android":"levelo://app?vid=9fbfdc7a-8398-40b5-b97f-ba1104c7c96f","ios":"levelo://app?vid=9fbfdc7a-8398-40b5-b97f-ba1104c7c96f"},"vehicle_type_id":"4","last_reported":1774027681,"current_range_meters":4000,"station_id":"ce4bhu92rcd13ifvqi70","pricing_plan_id":"cebpf4jnsgd1na2vs0mg"},{"bike_id":"14e04f51-6012-47f2-a15a-594508b26271","system_id":"levelo_inurba_marseille","lat":43.27474,"lon":5.43679,"is_reserved":false,"is_disabled":false,"rental_uris":{"android":"levelo://app?vid=14e04f51-6012-47f2-a15a-594508b26271","ios":"levelo://app?vid=14e04f51-6012-47f2-a15a-594508b26271"},"vehicle_type_id":"4","last_reported":1774027681,"current_range_meters":4000,"station_id":"ce4bhk92rcd13ifvqgb0","pricing_plan_id":"cebpf4jnsgd1na2vs0mg"},{"bike_id":"4ed43e3a-53f0-4420-9dcd-911a7f52ac42","system_id":"levelo_inurba_marseille","lat":43.30576,"lon":5.39328,"is_reserved":false,"is_disabled":false,"rental_uris":{"android":"levelo://app?vid=4ed43e3a-53f0-4420-9dcd-911a7f52ac42","ios":"levelo://app?vid=4ed43e3a-53f0-4420-9dcd-911a7f52ac42"},"vehicle_type_id":"4","last_reported":1774027681,"current_range_meters":4000,"station_id":"ce4bh0p2rcd13ifvqd80","pricing_plan_id":"cebpf4jnsgd1na2vs0mg"},{"bike_id":"ede7a8d8-0c5f-455e-85eb-0f5b431da4c4","system_id":"levelo_inurba_marseille","lat":43.2848,"lon":5.385679,"is_reserved":false,"is_disabled":false,"rental_uris":{"android":"levelo://app?vid=ede7a8d8-0c5f-455e-85eb-0f5b431da4c4","ios":"levelo://app?vid=ede7a8d8-0c5f-455e-85eb-0f5b431da4c4"},"vehicle_type_id":"4","last_reported":1774027681,"current_range_meters":4000,"station_id":"ce4bh8p2rcd13ifvqeb0","pricing_plan_id":"cebpf4jnsgd1na2vs0mg"},{"bike_id":"744826ba-753a-4ecc-8e5c-e31c07526efd","system_id":"levelo_inurba_marseille","lat":43.27998,"lon":5.41666,"is_reserved":false,"is_disabled":false,"rental_uris":{"android":"levelo://app?vid=744826ba-753a-4ecc-8e5c-e31c07526efd","ios":"levelo://app?vid=744826ba-753a-4ecc-8e5c-e31c07526efd"},"vehicle_type_id":"4","last_reported":1774027681,"current_range_meters":4000,"station_id":"ce4bho12rcd13ifvqh1g","pricing_plan_id":"cebpf4jnsgd1na2vs0mg"},{"bike_id":"0e654315-d6a5-4499-8029-ae7d8c8cbca3","system_id":"levelo_inurba_marseille","lat":43.27367,"lon":5.36231,"is_reserved":false,"is_disabled":false,"rental_uris":{"android":"levelo://app?vid=0e654315-d6a5-4499-8029-ae7d8c8cbca3","ios":"levelo://app?vid=0e654315-d6a5-4499-8029-ae7d8c8cbca3"},"vehicle_type_id":"4","last_reported":1774027681,"current_range_meters":4000,"station_id":"ce4bhbh2rcd13ifvqeo0","pricing_plan_id":"cebpf4jnsgd1na2vs0mg"},{"bike_id":"e5cd0c96-4497-4e14-aca5-6d025635cbbc","system_id":"levelo_inurba_marseille","lat":43.28405,"lon":5.34977,"is_reserved":false,"is_disabled":false,"rental_uris":{"android":"levelo://app?vid=e5cd0c96-4497-4e14-aca5-6d025635cbbc","ios":"levelo://app?vid=e5cd0c96-4497-4e14-aca5-6d025635cbbc"},"vehicle_type_id":"4","last_reported":1774027681,"current_range_meters":4000,"station_id":"ce4bhbh2rcd13ifvqepg","pricing_plan_id":"cebpf4jnsgd1na2vs0mg"},{"bike_id":"c15cbd87-0bf0-40c0-9dd2-5c555c74d15c","system_id":"levelo_inurba_marseille","lat":43.29801,"lon":5.4041,"is_reserved":false,"is_disabled":false,"rental_uris":{"android":"levelo://app?vid=c15cbd87-0bf0-40c0-9dd2-5c555c74d15c","ios":"levelo://app?vid=c15cbd87-0bf0-40c0-9dd2-5c555c74d15c"},"vehicle_type_id":"4","last_reported":1774027681,"current_range_meters":4000,"station_id":"ce4bh112rcd13ifvqd90","pricing_plan_id":"cebpf4jnsgd1na2vs0mg"},{"bike_id":"47a8436c-9b2f-44b6-92e2-20a5fab160f3","system_id":"levelo_inurba_marseille","lat":43.248,"lon":5.37455,"is_reserved":false,"is_disabled":true,"rental_uris":{"android":"levelo://app?vid=47a8436c-9b2f-44b6-92e2-20a5fab160f3","ios":"levelo://app?vid=47a8436c-9b2f-44b6-92e2-20a5fab160f3"},"vehicle_type_id":"4","last_reported":1774027681,"current_range_meters":4000,"station_id":"ce4bhgh2rcd13ifvqfb0","pricing_plan_id":"cebpf4jnsgd1na2vs0mg"},{"bike_id":"21afb19c-42c0-43f3-8492-a7d7208bc4fa","system_id":"levelo_inurba_marseille","lat":43.2862,"lon":5.37084,"is_reserved":false,"is_disabled":false,"rental_uris":{"android":"levelo://app?vid=21afb19c-42c0-43f3-8492-a7d7208bc4fa","ios":"levelo://app?vid=21afb19c-42c0-43f3-8492-a7d7208bc4fa"},"vehicle_type_id":"4","last_reported":1774027681,"current_range_meters":4000,"station_id":"ce4bht12rcd13ifvqi60","pricing_plan_id":"cebpf4jnsgd1na2vs0mg"},{"bike_id":"e4cbbb4c-5466-4033-81d9-1a720e7cec58","system_id":"levelo_inurba_marseille","lat":43.30294,"lon":5.36879,"is_reserved":false,"is_disabled":false,"rental_uris":{"android":"levelo://app?vid=e4cbbb4c-5466-4033-81d9-1a720e7cec58","ios":"levelo://app?vid=e4cbbb4c-5466-4033-81d9-1a720e7cec58"},"vehicle_type_id":"4","last_reported":1774027681,"current_range_meters":4000,"station_id":"ce4bgqh2rcd13ifvqc5g","pricing_plan_id":"cebpf4jnsgd1na2vs0mg"},{"bike_id":"c49672f7-fafb-464c-b6db-ccb2063c4509","system_id":"levelo_inurba_marseille","lat":43.22935,"lon":5.35371,"is_reserved":false,"is_disabled":false,"rental_uris":{"android":"levelo://app?vid=c49672f7-fafb-464c-b6db-ccb2063c4509","ios":"levelo://app?vid=c49672f7-fafb-464c-b6db-ccb2063c4509"},"vehicle_type_id":"4","last_reported":1774027681,"current_range_meters":4000,"station_id":"cpo3532slgdg3j2ikp40","pricing_plan_id":"cebpf4jnsgd1na2vs0mg"},{"bike_id":"6c56adcb-a27e-4c49-acd4-f4c47fdd88f0","system_id":"levelo_inurba_marseille","lat":43.29263,"lon":5.38442,"is_reserved":false,"is_disabled":false,"rental_uris":{"android":"levelo://app?vid=6c56adcb-a27e-4c49-acd4-f4c47fdd88f0","ios":"levelo://app?vid=6c56adcb-a27e-4c49-acd4-f4c47fdd88f0"},"vehicle_type_id":"4","last_reported":1774027681,"current_range_meters":4400,"station_id":"ce4bh692rcd13ifvqea0","pricing_plan_id":"cebpf4jnsgd1na2vs0mg"},{"bike_id":"addd9e53-bfde-4c2f-8c89-4a891b6a7add","system_id":"levelo_inurba_marseille","lat":43.31342,"lon":5.3792,"is_reserved":false,"is_disabled":false,"rental_uris":{"android":"levelo://app?vid=addd9e53-bfde-4c2f-8c89-4a891b6a7add","ios":"levelo://app?vid=addd9e53-bfde-4c2f-8c89-4a891b6a7add"},"vehicle_type_id":"4","last_reported":1774027681,"current_range_meters":4400,"station_id":"","pricing_plan_id":"cebpf4jnsgd1na2vs0mg"},{"bike_id":"c2f01f22-14c1-45c1-a8d8-f0d4bb6c09f2","system_id":"levelo_inurba_marseille","lat":43.28476,"lon":5.3843,"is_reserved":false,"is_disabled":true,"rental_uris":{"android":"levelo://app?vid=c2f01f22-14c1-45c1-a8d8-f0d4bb6c09f2","ios":"levelo://app?vid=c2f01f22-14c1-45c1-a8d8-f0d4bb6c09f2"},"vehicle_type_id":"4","last_reported":1774027681,"current_range_meters":4400,"station_id":"ce4bh512rcd13ifvqe3g","pricing_plan_id":"cebpf4jnsgd1na2vs0mg"},{"bike_id":"6e50a54a-c657-4ef5-9339-4c225154dc0d","system_id":"levelo_inurba_marseille","lat":43.27939,"lon":5.42251,"is_reserved":false,"is_disabled":false,"rental_uris":{"android":"levelo://app?vid=6e50a54a-c657-4ef5-9339-4c225154dc0d","ios":"levelo://app?vid=6e50a54a-c657-4ef5-9339-4c225154dc0d"},"vehicle_type_id":"4","last_reported":1774027681,"current_range_meters":4400,"station_id":"","pricing_plan_id":"cebpf4jnsgd1na2vs0mg"},{"bike_id":"2c7c7421-52a2-42af-bd11-0aaa819aeec1","system_id":"levelo_inurba_marseille","lat":43.30534,"lon":5.36551,"is_reserved":false,"is_disabled":false,"rental_uris":{"android":"levelo://app?vid=2c7c7421-52a2-42af-bd11-0aaa819aeec1","ios":"levelo://app?vid=2c7c7421-52a2-42af-bd11-0aaa819aeec1"},"vehicle_type_id":"4","last_reported":1774027681,"current_range_meters":4400,"station_id":"ce4bgs12rcd13ifvqcag","pricing_plan_id":"cebpf4jnsgd1na2vs0mg"},{"bike_id":"34e2dcba-5182-4296-a617-11eac65b5edb","system_id":"levelo_inurba_marseille","lat":43.29053,"lon":5.37165,"is_reserved":false,"is_disabled":false,"rental_uris":{"android":"levelo://app?vid=34e2dcba-5182-4296-a617-11eac65b5edb","ios":"levelo://app?vid=34e2dcba-5182-4296-a617-11eac65b5edb"},"vehicle_type_id":"4","last_reported":1774027681,"current_range_meters":4400,"station_id":"ce4bh5p2rcd13ifvqe4g","pricing_plan_id":"cebpf4jnsgd1na2vs0mg"},{"bike_id":"6b22e0b9-2fd9-4a11-8262-7ccc49e260c6","system_id":"levelo_inurba_marseille","lat":43.29517,"lon":5.38474,"is_reserved":false,"is_disabled":false,"rental_uris":{"android":"levelo://app?vid=6b22e0b9-2fd9-4a11-8262-7ccc49e260c6","ios":"levelo://app?vid=6b22e0b9-2fd9-4a11-8262-7ccc49e260c6"},"vehicle_type_id":"4","last_reported":1774027681,"current_range_meters":4400,"station_id":"ce4bgih2rcd13ifvqba0","pricing_plan_id":"cebpf4jnsgd1na2vs0mg"},{"bike_id":"e67ea7ab-4578-44fd-98b3-9d1500cce7b5","system_id":"levelo_inurba_marseille","lat":43.27377,"lon":5.36258,"is_reserved":false,"is_disabled":false,"rental_uris":{"android":"levelo://app?vid=e67ea7ab-4578-44fd-98b3-9d1500cce7b5","ios":"levelo://app?vid=e67ea7ab-4578-44fd-98b3-9d1500cce7b5"},"vehicle_type_id":"4","last_reported":1774027681,"current_range_meters":4400,"station_id":"ce4bhbh2rcd13ifvqeo0","pricing_plan_id":"cebpf4jnsgd1na2vs0mg"},{"bike_id":"14bede7e-03fe-49ce-81bc-924daca983b5","system_id":"levelo_inurba_marseille","lat":43.276172,"lon":5.361134,"is_reserved":false,"is_disabled":false,"rental_uris":{"android":"levelo://app?vid=14bede7e-03fe-49ce-81bc-924daca983b5","ios":"levelo://app?vid=14bede7e-03fe-49ce-81bc-924daca983b5"},"vehicle_type_id":"4","last_reported":1774027681,"current_range_meters":4400,"station_id":"ce4bgj92rcd13ifvqbe0","pricing_plan_id":"cebpf4jnsgd1na2vs0mg"},{"bike_id":"9a0dd0c5-2c8a-4fca-8dd7-b5ec5270afe3","system_id":"levelo_inurba_marseille","lat":43.27372,"lon":5.36255,"is_reserved":false,"is_disabled":false,"rental_uris":{"android":"levelo://app?vid=9a0dd0c5-2c8a-4fca-8dd7-b5ec5270afe3","ios":"levelo://app?vid=9a0dd0c5-2c8a-4fca-8dd7-b5ec5270afe3"},"vehicle_type_id":"4","last_reported":1774027681,"current_range_meters":4400,"station_id":"ce4bhbh2rcd13ifvqeo0","pricing_plan_id":"cebpf4jnsgd1na2vs0mg"},{"bike_id":"b3c6ee7e-839e-47ca-8bd1-12618e78dd87","system_id":"levelo_inurba_marseille","lat":43.23984,"lon":5.36587,"is_reserved":false,"is_disabled":false,"rental_uris":{"android":"levelo://app?vid=b3c6ee7e-839e-47ca-8bd1-12618e78dd87","ios":"levelo://app?vid=b3c6ee7e-839e-47ca-8bd1-12618e78dd87"},"vehicle_type_id":"4","last_reported":1774027681,"current_range_meters":4400,"station_id":"ce4bhi12rcd13ifvqfp0","pricing_plan_id":"cebpf4jnsgd1na2vs0mg"},{"bike_id":"d4776486-3084-421f-968a-3d6e49dfba03","system_id":"levelo_inurba_marseille","lat":43.28534,"lon":5.44097,"is_reserved":false,"is_disabled":false,"rental_uris":{"android":"levelo://app?vid=d4776486-3084-421f-968a-3d6e49dfba03","ios":"levelo://app?vid=d4776486-3084-421f-968a-3d6e49dfba03"},"vehicle_type_id":"4","last_reported":1774027681,"current_range_meters":4800,"station_id":"st_d3j3df2ikq2c7380ej80","pricing_plan_id":"cebpf4jnsgd1na2vs0mg"},{"bike_id":"fdfb4c83-bb05-4f48-aa11-e79f7c432cf5","system_id":"levelo_inurba_marseille","lat":43.285412,"lon":5.360052,"is_reserved":false,"is_disabled":false,"rental_uris":{"android":"levelo://app?vid=fdfb4c83-bb05-4f48-aa11-e79f7c432cf5","ios":"levelo://app?vid=fdfb4c83-bb05-4f48-aa11-e79f7c432cf5"},"vehicle_type_id":"4","last_reported":1774027681,"current_range_meters":4800,"station_id":"ce4bhah2rcd13ifvqei0","pricing_plan_id":"cebpf4jnsgd1na2vs0mg"},{"bike_id":"b343f5f8-c1bb-4ce3-a7a6-a6599510fd8f","system_id":"levelo_inurba_marseille","lat":43.28412,"lon":5.34945,"is_reserved":false,"is_disabled":false,"rental_uris":{"android":"levelo://app?vid=b343f5f8-c1bb-4ce3-a7a6-a6599510fd8f","ios":"levelo://app?vid=b343f5f8-c1bb-4ce3-a7a6-a6599510fd8f"},"vehicle_type_id":"4","last_reported":1774027681,"current_range_meters":4800,"station_id":"ce4bhbh2rcd13ifvqepg","pricing_plan_id":"cebpf4jnsgd1na2vs0mg"},{"bike_id":"734a2754-cd5d-40ea-86fc-baae8948acee","system_id":"levelo_inurba_marseille","lat":43.28411,"lon":5.3501,"is_reserved":false,"is_disabled":false,"rental_uris":{"android":"levelo://app?vid=734a2754-cd5d-40ea-86fc-baae8948acee","ios":"levelo://app?vid=734a2754-cd5d-40ea-86fc-baae8948acee"},"vehicle_type_id":"4","last_reported":1774027681,"current_range_meters":4800,"station_id":"ce4bhbh2rcd13ifvqepg","pricing_plan_id":"cebpf4jnsgd1na2vs0mg"},{"bike_id":"83142c46-8e0b-4268-9ede-407205e851c0","system_id":"levelo_inurba_marseille","lat":43.28712,"lon":5.37938,"is_reserved":false,"is_disabled":false,"rental_uris":{"android":"levelo://app?vid=83142c46-8e0b-4268-9ede-407205e851c0","ios":"levelo://app?vid=83142c46-8e0b-4268-9ede-407205e851c0"},"vehicle_type_id":"4","last_reported":1774027681,"current_range_meters":4800,"station_id":"ce4bh9p2rcd13ifvqec0","pricing_plan_id":"cebpf4jnsgd1na2vs0mg"},{"bike_id":"6b596f47-5f2b-41a1-ba8e-cc3c7bac807e","system_id":"levelo_inurba_marseille","lat":43.22936,"lon":5.35384,"is_reserved":false,"is_disabled":false,"rental_uris":{"android":"levelo://app?vid=6b596f47-5f2b-41a1-ba8e-cc3c7bac807e","ios":"levelo://app?vid=6b596f47-5f2b-41a1-ba8e-cc3c7bac807e"},"vehicle_type_id":"4","last_reported":1774027681,"current_range_meters":4800,"station_id":"cpo3532slgdg3j2ikp40","pricing_plan_id":"cebpf4jnsgd1na2vs0mg"},{"bike_id":"d42f31aa-e7a6-4b3c-acfe-d0d0a6a66d17","system_id":"levelo_inurba_marseille","lat":43.285282,"lon":5.385362,"is_reserved":false,"is_disabled":false,"rental_uris":{"android":"levelo://app?vid=d42f31aa-e7a6-4b3c-acfe-d0d0a6a66d17","ios":"levelo://app?vid=d42f31aa-e7a6-4b3c-acfe-d0d0a6a66d17"},"vehicle_type_id":"4","last_reported":1774027681,"current_range_meters":4800,"station_id":"ce4bh8p2rcd13ifvqeb0","pricing_plan_id":"cebpf4jnsgd1na2vs0mg"},{"bike_id":"4ace67ac-b2a5-4f91-ae0a-d62b445cf9e9","system_id":"levelo_inurba_marseille","lat":43.26191,"lon":5.37447,"is_reserved":false,"is_disabled":false,"rental_uris":{"android":"levelo://app?vid=4ace67ac-b2a5-4f91-ae0a-d62b445cf9e9","ios":"levelo://app?vid=4ace67ac-b2a5-4f91-ae0a-d62b445cf9e9"},"vehicle_type_id":"4","last_reported":1774027681,"current_range_meters":4800,"station_id":"ce4bhgp2rcd13ifvqfc0","pricing_plan_id":"cebpf4jnsgd1na2vs0mg"},{"bike_id":"6f418ab3-a76a-4c3e-9c3d-9b78bdc9315e","system_id":"levelo_inurba_marseille","lat":43.27324,"lon":5.39069,"is_reserved":false,"is_disabled":true,"rental_uris":{"android":"levelo://app?vid=6f418ab3-a76a-4c3e-9c3d-9b78bdc9315e","ios":"levelo://app?vid=6f418ab3-a76a-4c3e-9c3d-9b78bdc9315e"},"vehicle_type_id":"4","last_reported":1774027681,"current_range_meters":4800,"station_id":"ce4bhgp2rcd13ifvqfe0","pricing_plan_id":"cebpf4jnsgd1na2vs0mg"},{"bike_id":"5e7b9a09-3ac1-4f98-9aa4-2019151fbf1a","system_id":"levelo_inurba_marseille","lat":43.31997,"lon":5.38148,"is_reserved":false,"is_disabled":false,"rental_uris":{"android":"levelo://app?vid=5e7b9a09-3ac1-4f98-9aa4-2019151fbf1a","ios":"levelo://app?vid=5e7b9a09-3ac1-4f98-9aa4-2019151fbf1a"},"vehicle_type_id":"4","last_reported":1774027681,"current_range_meters":4800,"station_id":"ce4bhr12rcd13ifvqhpg","pricing_plan_id":"cebpf4jnsgd1na2vs0mg"},{"bike_id":"ef447677-7c9b-4d75-bd9b-05d89d73a574","system_id":"levelo_inurba_marseille","lat":43.29886,"lon":5.3887,"is_reserved":false,"is_disabled":false,"rental_uris":{"android":"levelo://app?vid=ef447677-7c9b-4d75-bd9b-05d89d73a574","ios":"levelo://app?vid=ef447677-7c9b-4d75-bd9b-05d89d73a574"},"vehicle_type_id":"4","last_reported":1774027681,"current_range_meters":4800,"station_id":"ce4bh392rcd13ifvqdl0","pricing_plan_id":"cebpf4jnsgd1na2vs0mg"},{"bike_id":"3bcd3f37-7909-4e8a-be03-a9562a2c0e45","system_id":"levelo_inurba_marseille","lat":43.28476,"lon":5.48396,"is_reserved":false,"is_disabled":false,"rental_uris":{"android":"levelo://app?vid=3bcd3f37-7909-4e8a-be03-a9562a2c0e45","ios":"levelo://app?vid=3bcd3f37-7909-4e8a-be03-a9562a2c0e45"},"vehicle_type_id":"4","last_reported":1774027681,"current_range_meters":5600,"station_id":"","pricing_plan_id":"cebpf4jnsgd1na2vs0mg"},{"bike_id":"c403789f-54d1-498d-8a6f-0afb1901503e","system_id":"levelo_inurba_marseille","lat":43.29532,"lon":5.38555,"is_reserved":false,"is_disabled":false,"rental_uris":{"android":"levelo://app?vid=c403789f-54d1-498d-8a6f-0afb1901503e","ios":"levelo://app?vid=c403789f-54d1-498d-8a6f-0afb1901503e"},"vehicle_type_id":"4","last_reported":1774027681,"current_range_meters":5600,"station_id":"ce4bgih2rcd13ifvqba0","pricing_plan_id":"cebpf4jnsgd1na2vs0mg"},{"bike_id":"17ea4e29-56b8-4261-a609-4a0e38afd1a5","system_id":"levelo_inurba_marseille","lat":43.28445,"lon":5.39194,"is_reserved":false,"is_disabled":false,"rental_uris":{"android":"levelo://app?vid=17ea4e29-56b8-4261-a609-4a0e38afd1a5","ios":"levelo://app?vid=17ea4e29-56b8-4261-a609-4a0e38afd1a5"},"vehicle_type_id":"4","last_reported":1774027681,"current_range_meters":5600,"station_id":"ce4bhoh2rcd13ifvqh5g","pricing_plan_id":"cebpf4jnsgd1na2vs0mg"},{"bike_id":"92cd12b5-d4a8-4d66-b59e-97ac46b48abe","system_id":"levelo_inurba_marseille","lat":43.25821,"lon":5.39433,"is_reserved":false,"is_disabled":false,"rental_uris":{"android":"levelo://app?vid=92cd12b5-d4a8-4d66-b59e-97ac46b48abe","ios":"levelo://app?vid=92cd12b5-d4a8-4d66-b59e-97ac46b48abe"},"vehicle_type_id":"4","last_reported":1774027681,"current_range_meters":5600,"station_id":"ce4bhip2rcd13ifvqft0","pricing_plan_id":"cebpf4jnsgd1na2vs0mg"},{"bike_id":"10ced8a1-0004-454c-a343-b116c3880ed6","system_id":"levelo_inurba_marseille","lat":43.32113,"lon":5.3677,"is_reserved":false,"is_disabled":false,"rental_uris":{"android":"levelo://app?vid=10ced8a1-0004-454c-a343-b116c3880ed6","ios":"levelo://app?vid=10ced8a1-0004-454c-a343-b116c3880ed6"},"vehicle_type_id":"4","last_reported":1774027681,"current_range_meters":5600,"station_id":"ce4bhrh2rcd13ifvqhug","pricing_plan_id":"cebpf4jnsgd1na2vs0mg"},{"bike_id":"b9b39284-07b9-4cd0-8077-8e4870ea44e0","system_id":"levelo_inurba_marseille","lat":43.276109,"lon":5.360992,"is_reserved":false,"is_disabled":false,"rental_uris":{"android":"levelo://app?vid=b9b39284-07b9-4cd0-8077-8e4870ea44e0","ios":"levelo://app?vid=b9b39284-07b9-4cd0-8077-8e4870ea44e0"},"vehicle_type_id":"4","last_reported":1774027681,"current_range_meters":5600,"station_id":"ce4bgj92rcd13ifvqbe0","pricing_plan_id":"cebpf4jnsgd1na2vs0mg"},{"bike_id":"e08d225b-8f4a-4ce0-895d-d9f7f842408c","system_id":"levelo_inurba_marseille","lat":43.24163,"lon":5.36416,"is_reserved":false,"is_disabled":false,"rental_uris":{"android":"levelo://app?vid=e08d225b-8f4a-4ce0-895d-d9f7f842408c","ios":"levelo://app?vid=e08d225b-8f4a-4ce0-895d-d9f7f842408c"},"vehicle_type_id":"4","last_reported":1774027681,"current_range_meters":5600,"station_id":"cpo36qri1sfpv3e86is0","pricing_plan_id":"cebpf4jnsgd1na2vs0mg"},{"bike_id":"6d00a18b-b978-4199-8793-f7ad8bf9afd6","system_id":"levelo_inurba_marseille","lat":43.28625,"lon":5.35086,"is_reserved":false,"is_disabled":false,"rental_uris":{"android":"levelo://app?vid=6d00a18b-b978-4199-8793-f7ad8bf9afd6","ios":"levelo://app?vid=6d00a18b-b978-4199-8793-f7ad8bf9afd6"},"vehicle_type_id":"4","last_reported":1774027681,"current_range_meters":5600,"station_id":"ce4bhch2rcd13ifvqeug","pricing_plan_id":"cebpf4jnsgd1na2vs0mg"},{"bike_id":"938f5b2b-699a-47ff-8381-c70adbd93b65","system_id":"levelo_inurba_marseille","lat":43.2976,"lon":5.37163,"is_reserved":false,"is_disabled":true,"rental_uris":{"android":"levelo://app?vid=938f5b2b-699a-47ff-8381-c70adbd93b65","ios":"levelo://app?vid=938f5b2b-699a-47ff-8381-c70adbd93b65"},"vehicle_type_id":"4","last_reported":1774027681,"current_range_meters":5600,"station_id":"","pricing_plan_id":"cebpf4jnsgd1na2vs0mg"},{"bike_id":"502eea07-e6e8-4336-8acf-68c7ded4dec7","system_id":"levelo_inurba_marseille","lat":43.2827,"lon":5.3506,"is_reserved":false,"is_disabled":false,"rental_uris":{"android":"levelo://app?vid=502eea07-e6e8-4336-8acf-68c7ded4dec7","ios":"levelo://app?vid=502eea07-e6e8-4336-8acf-68c7ded4dec7"},"vehicle_type_id":"4","last_reported":1774027681,"current_range_meters":5600,"station_id":"ce4bhbp2rcd13ifvqerg","pricing_plan_id":"cebpf4jnsgd1na2vs0mg"},{"bike_id":"d16b4f5e-9b9d-4635-b7ab-14fa4ff08f4b","system_id":"levelo_inurba_marseille","lat":43.24645,"lon":5.43168,"is_reserved":false,"is_disabled":false,"rental_uris":{"android":"levelo://app?vid=d16b4f5e-9b9d-4635-b7ab-14fa4ff08f4b","ios":"levelo://app?vid=d16b4f5e-9b9d-4635-b7ab-14fa4ff08f4b"},"vehicle_type_id":"4","last_reported":1774027681,"current_range_meters":5600,"station_id":"","pricing_plan_id":"cebpf4jnsgd1na2vs0mg"},{"bike_id":"b07e82f3-a91a-4024-aef7-c2cebaa4f0cf","system_id":"levelo_inurba_marseille","lat":43.29373,"lon":5.3785,"is_reserved":false,"is_disabled":false,"rental_uris":{"android":"levelo://app?vid=b07e82f3-a91a-4024-aef7-c2cebaa4f0cf","ios":"levelo://app?vid=b07e82f3-a91a-4024-aef7-c2cebaa4f0cf"},"vehicle_type_id":"4","last_reported":1774027681,"current_range_meters":6000,"station_id":"ce4bgjh2rcd13ifvqbf0","pricing_plan_id":"cebpf4jnsgd1na2vs0mg"},{"bike_id":"abad8a28-43f1-4cd8-91d2-6a607805055d","system_id":"levelo_inurba_marseille","lat":43.30419,"lon":5.41284,"is_reserved":false,"is_disabled":false,"rental_uris":{"android":"levelo://app?vid=abad8a28-43f1-4cd8-91d2-6a607805055d","ios":"levelo://app?vid=abad8a28-43f1-4cd8-91d2-6a607805055d"},"vehicle_type_id":"4","last_reported":1774027681,"current_range_meters":6000,"station_id":"ce4bhop2rcd13ifvqh8g","pricing_plan_id":"cebpf4jnsgd1na2vs0mg"},{"bike_id":"f33f4f99-7a7b-4626-afe4-571933068399","system_id":"levelo_inurba_marseille","lat":43.29031,"lon":5.3864,"is_reserved":false,"is_disabled":false,"rental_uris":{"android":"levelo://app?vid=f33f4f99-7a7b-4626-afe4-571933068399","ios":"levelo://app?vid=f33f4f99-7a7b-4626-afe4-571933068399"},"vehicle_type_id":"4","last_reported":1774027681,"current_range_meters":6000,"station_id":"ce4bh4p2rcd13ifvqe0g","pricing_plan_id":"cebpf4jnsgd1na2vs0mg"},{"bike_id":"97f89870-e3a2-4acc-b807-3b7fdbf7b741","system_id":"levelo_inurba_marseille","lat":43.26544,"lon":5.37294,"is_reserved":false,"is_disabled":false,"rental_uris":{"android":"levelo://app?vid=97f89870-e3a2-4acc-b807-3b7fdbf7b741","ios":"levelo://app?vid=97f89870-e3a2-4acc-b807-3b7fdbf7b741"},"vehicle_type_id":"4","last_reported":1774027681,"current_range_meters":6000,"station_id":"ce4bhg12rcd13ifvqf70","pricing_plan_id":"cebpf4jnsgd1na2vs0mg"},{"bike_id":"891e0fab-b60c-4be3-ab74-39d00ebc5ba4","system_id":"levelo_inurba_marseille","lat":43.25511,"lon":5.37651,"is_reserved":false,"is_disabled":false,"rental_uris":{"android":"levelo://app?vid=891e0fab-b60c-4be3-ab74-39d00ebc5ba4","ios":"levelo://app?vid=891e0fab-b60c-4be3-ab74-39d00ebc5ba4"},"vehicle_type_id":"4","last_reported":1774027681,"current_range_meters":6000,"station_id":"ce4bhh12rcd13ifvqff0","pricing_plan_id":"cebpf4jnsgd1na2vs0mg"},{"bike_id":"d1883cbe-2a9e-4d1f-976d-38299e5a0b61","system_id":"levelo_inurba_marseille","lat":43.26682,"lon":5.38263,"is_reserved":false,"is_disabled":false,"rental_uris":{"android":"levelo://app?vid=d1883cbe-2a9e-4d1f-976d-38299e5a0b61","ios":"levelo://app?vid=d1883cbe-2a9e-4d1f-976d-38299e5a0b61"},"vehicle_type_id":"4","last_reported":1774027681,"current_range_meters":6000,"station_id":"ce4bhg92rcd13ifvqf90","pricing_plan_id":"cebpf4jnsgd1na2vs0mg"},{"bike_id":"3c76fb79-92b3-4803-a35d-7a9a81d21794","system_id":"levelo_inurba_marseille","lat":43.22938,"lon":5.35383,"is_reserved":false,"is_disabled":false,"rental_uris":{"android":"levelo://app?vid=3c76fb79-92b3-4803-a35d-7a9a81d21794","ios":"levelo://app?vid=3c76fb79-92b3-4803-a35d-7a9a81d21794"},"vehicle_type_id":"4","last_reported":1774027681,"current_range_meters":6000,"station_id":"cpo3532slgdg3j2ikp40","pricing_plan_id":"cebpf4jnsgd1na2vs0mg"},{"bike_id":"c1c1fbb7-e681-4866-9571-d710fc1fdb7c","system_id":"levelo_inurba_marseille","lat":43.28601,"lon":5.351,"is_reserved":false,"is_disabled":false,"rental_uris":{"android":"levelo://app?vid=c1c1fbb7-e681-4866-9571-d710fc1fdb7c","ios":"levelo://app?vid=c1c1fbb7-e681-4866-9571-d710fc1fdb7c"},"vehicle_type_id":"4","last_reported":1774027681,"current_range_meters":6000,"station_id":"ce4bhch2rcd13ifvqeug","pricing_plan_id":"cebpf4jnsgd1na2vs0mg"},{"bike_id":"96064643-01ac-423f-924e-65c396cbdb40","system_id":"levelo_inurba_marseille","lat":43.29515,"lon":5.39055,"is_reserved":false,"is_disabled":false,"rental_uris":{"android":"levelo://app?vid=96064643-01ac-423f-924e-65c396cbdb40","ios":"levelo://app?vid=96064643-01ac-423f-924e-65c396cbdb40"},"vehicle_type_id":"4","last_reported":1774027681,"current_range_meters":6000,"station_id":"ce4bh3p2rcd13ifvqdp0","pricing_plan_id":"cebpf4jnsgd1na2vs0mg"},{"bike_id":"1e57680f-aa24-4364-b93d-05b77abcf021","system_id":"levelo_inurba_marseille","lat":43.28406,"lon":5.34984,"is_reserved":false,"is_disabled":false,"rental_uris":{"android":"levelo://app?vid=1e57680f-aa24-4364-b93d-05b77abcf021","ios":"levelo://app?vid=1e57680f-aa24-4364-b93d-05b77abcf021"},"vehicle_type_id":"4","last_reported":1774027681,"current_range_meters":6000,"station_id":"ce4bhbh2rcd13ifvqepg","pricing_plan_id":"cebpf4jnsgd1na2vs0mg"},{"bike_id":"12118d88-8157-4d76-ad00-12ce3bc20921","system_id":"levelo_inurba_marseille","lat":43.30841,"lon":5.37125,"is_reserved":false,"is_disabled":false,"rental_uris":{"android":"levelo://app?vid=12118d88-8157-4d76-ad00-12ce3bc20921","ios":"levelo://app?vid=12118d88-8157-4d76-ad00-12ce3bc20921"},"vehicle_type_id":"4","last_reported":1774027681,"current_range_meters":6400,"station_id":"","pricing_plan_id":"cebpf4jnsgd1na2vs0mg"},{"bike_id":"ac4ca0f2-f5c2-4c9c-81db-9f7b20e89d0c","system_id":"levelo_inurba_marseille","lat":43.28532,"lon":5.44111,"is_reserved":false,"is_disabled":true,"rental_uris":{"android":"levelo://app?vid=ac4ca0f2-f5c2-4c9c-81db-9f7b20e89d0c","ios":"levelo://app?vid=ac4ca0f2-f5c2-4c9c-81db-9f7b20e89d0c"},"vehicle_type_id":"4","last_reported":1774027681,"current_range_meters":6400,"station_id":"st_d3j3df2ikq2c7380ej80","pricing_plan_id":"cebpf4jnsgd1na2vs0mg"},{"bike_id":"c6b20400-3641-48f3-b609-b110a5527d07","system_id":"levelo_inurba_marseille","lat":43.22565,"lon":5.41626,"is_reserved":false,"is_disabled":false,"rental_uris":{"android":"levelo://app?vid=c6b20400-3641-48f3-b609-b110a5527d07","ios":"levelo://app?vid=c6b20400-3641-48f3-b609-b110a5527d07"},"vehicle_type_id":"4","last_reported":1774027681,"current_range_meters":6400,"station_id":"st_d2o4gvlbi1j2169b742g","pricing_plan_id":"cebpf4jnsgd1na2vs0mg"},{"bike_id":"0264288d-82fa-4432-8751-6c08c0e54bb7","system_id":"levelo_inurba_marseille","lat":43.30277,"lon":5.42499,"is_reserved":false,"is_disabled":false,"rental_uris":{"android":"levelo://app?vid=0264288d-82fa-4432-8751-6c08c0e54bb7","ios":"levelo://app?vid=0264288d-82fa-4432-8751-6c08c0e54bb7"},"vehicle_type_id":"4","last_reported":1774027681,"current_range_meters":6400,"station_id":"","pricing_plan_id":"cebpf4jnsgd1na2vs0mg"},{"bike_id":"ca8f1c9f-5903-4136-bc50-ca0160798cf8","system_id":"levelo_inurba_marseille","lat":43.24178,"lon":5.39703,"is_reserved":false,"is_disabled":false,"rental_uris":{"android":"levelo://app?vid=ca8f1c9f-5903-4136-bc50-ca0160798cf8","ios":"levelo://app?vid=ca8f1c9f-5903-4136-bc50-ca0160798cf8"},"vehicle_type_id":"4","last_reported":1774027681,"current_range_meters":6400,"station_id":"ce4bhn12rcd13ifvqgpg","pricing_plan_id":"cebpf4jnsgd1na2vs0mg"},{"bike_id":"be9b4f06-9d1a-41ee-b10b-9de4e628d9db","system_id":"levelo_inurba_marseille","lat":43.25579,"lon":5.38259,"is_reserved":false,"is_disabled":false,"rental_uris":{"android":"levelo://app?vid=be9b4f06-9d1a-41ee-b10b-9de4e628d9db","ios":"levelo://app?vid=be9b4f06-9d1a-41ee-b10b-9de4e628d9db"},"vehicle_type_id":"4","last_reported":1774027681,"current_range_meters":6400,"station_id":"ce4bhih2rcd13ifvqfs0","pricing_plan_id":"cebpf4jnsgd1na2vs0mg"},{"bike_id":"53ffd145-e808-4874-b669-0ac8a6361161","system_id":"levelo_inurba_marseille","lat":43.24815,"lon":5.37464,"is_reserved":false,"is_disabled":false,"rental_uris":{"android":"levelo://app?vid=53ffd145-e808-4874-b669-0ac8a6361161","ios":"levelo://app?vid=53ffd145-e808-4874-b669-0ac8a6361161"},"vehicle_type_id":"4","last_reported":1774027681,"current_range_meters":6400,"station_id":"ce4bhgh2rcd13ifvqfb0","pricing_plan_id":"cebpf4jnsgd1na2vs0mg"},{"bike_id":"a8bc9316-d87f-47f6-af6e-1291300daadd","system_id":"levelo_inurba_marseille","lat":43.27051,"lon":5.38316,"is_reserved":false,"is_disabled":false,"rental_uris":{"android":"levelo://app?vid=a8bc9316-d87f-47f6-af6e-1291300daadd","ios":"levelo://app?vid=a8bc9316-d87f-47f6-af6e-1291300daadd"},"vehicle_type_id":"4","last_reported":1774027681,"current_range_meters":6400,"station_id":"st_d3n2fo6cfp8s73cte1j0","pricing_plan_id":"cebpf4jnsgd1na2vs0mg"},{"bike_id":"de50110e-45aa-4591-8f94-dfc6a9037041","system_id":"levelo_inurba_marseille","lat":43.28657,"lon":5.36337,"is_reserved":false,"is_disabled":false,"rental_uris":{"android":"levelo://app?vid=de50110e-45aa-4591-8f94-dfc6a9037041","ios":"levelo://app?vid=de50110e-45aa-4591-8f94-dfc6a9037041"},"vehicle_type_id":"4","last_reported":1774027681,"current_range_meters":6400,"station_id":"ce4bhah2rcd13ifvqej0","pricing_plan_id":"cebpf4jnsgd1na2vs0mg"},{"bike_id":"8f1eb561-c409-4697-b4ab-fa6b08a06193","system_id":"levelo_inurba_marseille","lat":43.25114,"lon":5.4032,"is_reserved":false,"is_disabled":false,"rental_uris":{"android":"levelo://app?vid=8f1eb561-c409-4697-b4ab-fa6b08a06193","ios":"levelo://app?vid=8f1eb561-c409-4697-b4ab-fa6b08a06193"},"vehicle_type_id":"4","last_reported":1774027681,"current_range_meters":6400,"station_id":"ce4bhlh2rcd13ifvqgig","pricing_plan_id":"cebpf4jnsgd1na2vs0mg"},{"bike_id":"119d24bc-e3dd-4e47-a0b9-64bbbcc5b1ee","system_id":"levelo_inurba_marseille","lat":43.21739,"lon":5.34622,"is_reserved":false,"is_disabled":true,"rental_uris":{"android":"levelo://app?vid=119d24bc-e3dd-4e47-a0b9-64bbbcc5b1ee","ios":"levelo://app?vid=119d24bc-e3dd-4e47-a0b9-64bbbcc5b1ee"},"vehicle_type_id":"4","last_reported":1774027681,"current_range_meters":6400,"station_id":"st_cvj6r9ubvosntc0bgbag","pricing_plan_id":"cebpf4jnsgd1na2vs0mg"},{"bike_id":"524024ff-907c-4a34-9b32-77839696eb9f","system_id":"levelo_inurba_marseille","lat":43.298661,"lon":5.397316,"is_reserved":false,"is_disabled":false,"rental_uris":{"android":"levelo://app?vid=524024ff-907c-4a34-9b32-77839696eb9f","ios":"levelo://app?vid=524024ff-907c-4a34-9b32-77839696eb9f"},"vehicle_type_id":"4","last_reported":1774027681,"current_range_meters":6400,"station_id":"ce4bh0h2rcd13ifvqd50","pricing_plan_id":"cebpf4jnsgd1na2vs0mg"},{"bike_id":"c48440d7-f4d5-4be3-a842-7dc1a317748e","system_id":"levelo_inurba_marseille","lat":43.33953,"lon":5.35694,"is_reserved":false,"is_disabled":false,"rental_uris":{"android":"levelo://app?vid=c48440d7-f4d5-4be3-a842-7dc1a317748e","ios":"levelo://app?vid=c48440d7-f4d5-4be3-a842-7dc1a317748e"},"vehicle_type_id":"4","last_reported":1774027681,"current_range_meters":6400,"station_id":"","pricing_plan_id":"cebpf4jnsgd1na2vs0mg"},{"bike_id":"24dc1ce5-2db6-421b-869a-69d6f082b300","system_id":"levelo_inurba_marseille","lat":43.29854,"lon":5.36247,"is_reserved":false,"is_disabled":false,"rental_uris":{"android":"levelo://app?vid=24dc1ce5-2db6-421b-869a-69d6f082b300","ios":"levelo://app?vid=24dc1ce5-2db6-421b-869a-69d6f082b300"},"vehicle_type_id":"4","last_reported":1774027681,"current_range_meters":6800,"station_id":"ce4bgpp2rcd13ifvqc3g","pricing_plan_id":"cebpf4jnsgd1na2vs0mg"},{"bike_id":"77e3e22a-593c-417c-99e2-a672ab602fe4","system_id":"levelo_inurba_marseille","lat":43.26034,"lon":5.37549,"is_reserved":false,"is_disabled":false,"rental_uris":{"android":"levelo://app?vid=77e3e22a-593c-417c-99e2-a672ab602fe4","ios":"levelo://app?vid=77e3e22a-593c-417c-99e2-a672ab602fe4"},"vehicle_type_id":"4","last_reported":1774027681,"current_range_meters":6800,"station_id":"ce4bhgh2rcd13ifvqfa0","pricing_plan_id":"cebpf4jnsgd1na2vs0mg"},{"bike_id":"a1a95e22-a23f-4104-8264-9082062bd7a7","system_id":"levelo_inurba_marseille","lat":43.29038,"lon":5.39981,"is_reserved":false,"is_disabled":false,"rental_uris":{"android":"levelo://app?vid=a1a95e22-a23f-4104-8264-9082062bd7a7","ios":"levelo://app?vid=a1a95e22-a23f-4104-8264-9082062bd7a7"},"vehicle_type_id":"4","last_reported":1774027681,"current_range_meters":6800,"station_id":"ce4bh392rcd13ifvqdm0","pricing_plan_id":"cebpf4jnsgd1na2vs0mg"},{"bike_id":"704fb37e-fe84-4e91-bbc5-e249376663a8","system_id":"levelo_inurba_marseille","lat":43.2318,"lon":5.39987,"is_reserved":false,"is_disabled":false,"rental_uris":{"android":"levelo://app?vid=704fb37e-fe84-4e91-bbc5-e249376663a8","ios":"levelo://app?vid=704fb37e-fe84-4e91-bbc5-e249376663a8"},"vehicle_type_id":"4","last_reported":1774027681,"current_range_meters":6800,"station_id":"ce4bhn12rcd13ifvqgqg","pricing_plan_id":"cebpf4jnsgd1na2vs0mg"},{"bike_id":"24c95ac2-e24b-466c-8ff7-3a47bbc7f5f6","system_id":"levelo_inurba_marseille","lat":43.28621,"lon":5.35101,"is_reserved":false,"is_disabled":false,"rental_uris":{"android":"levelo://app?vid=24c95ac2-e24b-466c-8ff7-3a47bbc7f5f6","ios":"levelo://app?vid=24c95ac2-e24b-466c-8ff7-3a47bbc7f5f6"},"vehicle_type_id":"4","last_reported":1774027681,"current_range_meters":6800,"station_id":"ce4bhch2rcd13ifvqeug","pricing_plan_id":"cebpf4jnsgd1na2vs0mg"},{"bike_id":"3e5c7bdb-60ee-4795-a793-9681791a8e87","system_id":"levelo_inurba_marseille","lat":43.2976,"lon":5.42777,"is_reserved":false,"is_disabled":false,"rental_uris":{"android":"levelo://app?vid=3e5c7bdb-60ee-4795-a793-9681791a8e87","ios":"levelo://app?vid=3e5c7bdb-60ee-4795-a793-9681791a8e87"},"vehicle_type_id":"4","last_reported":1774027681,"current_range_meters":6800,"station_id":"st_d3md5207bmas73dh9klg","pricing_plan_id":"cebpf4jnsgd1na2vs0mg"},{"bike_id":"dd74091b-705a-4531-bc39-afff2195d9a1","system_id":"levelo_inurba_marseille","lat":43.24796,"lon":5.37459,"is_reserved":false,"is_disabled":false,"rental_uris":{"android":"levelo://app?vid=dd74091b-705a-4531-bc39-afff2195d9a1","ios":"levelo://app?vid=dd74091b-705a-4531-bc39-afff2195d9a1"},"vehicle_type_id":"4","last_reported":1774027681,"current_range_meters":6800,"station_id":"ce4bhgh2rcd13ifvqfb0","pricing_plan_id":"cebpf4jnsgd1na2vs0mg"},{"bike_id":"02d70cb9-4aa0-4280-bac9-2cf7bff02a3b","system_id":"levelo_inurba_marseille","lat":43.29292,"lon":5.36846,"is_reserved":false,"is_disabled":false,"rental_uris":{"android":"levelo://app?vid=02d70cb9-4aa0-4280-bac9-2cf7bff02a3b","ios":"levelo://app?vid=02d70cb9-4aa0-4280-bac9-2cf7bff02a3b"},"vehicle_type_id":"4","last_reported":1774027681,"current_range_meters":6800,"station_id":"ce4bhbp2rcd13ifvqesg","pricing_plan_id":"cebpf4jnsgd1na2vs0mg"},{"bike_id":"1df1a965-0013-47c1-aa67-c3568d8470ae","system_id":"levelo_inurba_marseille","lat":43.23781,"lon":5.36631,"is_reserved":false,"is_disabled":false,"rental_uris":{"android":"levelo://app?vid=1df1a965-0013-47c1-aa67-c3568d8470ae","ios":"levelo://app?vid=1df1a965-0013-47c1-aa67-c3568d8470ae"},"vehicle_type_id":"4","last_reported":1774027681,"current_range_meters":6800,"station_id":"st_d3nk18o9ro0c73en2l3g","pricing_plan_id":"cebpf4jnsgd1na2vs0mg"},{"bike_id":"1af7d1b7-945b-40d6-bf8c-c3e0388024a6","system_id":"levelo_inurba_marseille","lat":43.30526,"lon":5.36558,"is_reserved":false,"is_disabled":false,"rental_uris":{"android":"levelo://app?vid=1af7d1b7-945b-40d6-bf8c-c3e0388024a6","ios":"levelo://app?vid=1af7d1b7-945b-40d6-bf8c-c3e0388024a6"},"vehicle_type_id":"4","last_reported":1774027681,"current_range_meters":6800,"station_id":"ce4bgs12rcd13ifvqcag","pricing_plan_id":"cebpf4jnsgd1na2vs0mg"},{"bike_id":"31caa62d-cb2c-42fd-aa8e-1e9ca230fd55","system_id":"levelo_inurba_marseille","lat":43.2803,"lon":5.36951,"is_reserved":false,"is_disabled":false,"rental_uris":{"android":"levelo://app?vid=31caa62d-cb2c-42fd-aa8e-1e9ca230fd55","ios":"levelo://app?vid=31caa62d-cb2c-42fd-aa8e-1e9ca230fd55"},"vehicle_type_id":"4","last_reported":1774027681,"current_range_meters":6800,"station_id":"ce4bha12rcd13ifvqef0","pricing_plan_id":"cebpf4jnsgd1na2vs0mg"},{"bike_id":"e85959f7-aab8-4d19-ac13-26323ff962fb","system_id":"levelo_inurba_marseille","lat":43.295959,"lon":5.380969,"is_reserved":false,"is_disabled":false,"rental_uris":{"android":"levelo://app?vid=e85959f7-aab8-4d19-ac13-26323ff962fb","ios":"levelo://app?vid=e85959f7-aab8-4d19-ac13-26323ff962fb"},"vehicle_type_id":"4","last_reported":1774027681,"current_range_meters":6800,"station_id":"ce4bgl12rcd13ifvqbo0","pricing_plan_id":"cebpf4jnsgd1na2vs0mg"},{"bike_id":"e4ff2d3e-1158-4303-8c8a-2f3105995739","system_id":"levelo_inurba_marseille","lat":43.25339,"lon":5.4218,"is_reserved":false,"is_disabled":false,"rental_uris":{"android":"levelo://app?vid=e4ff2d3e-1158-4303-8c8a-2f3105995739","ios":"levelo://app?vid=e4ff2d3e-1158-4303-8c8a-2f3105995739"},"vehicle_type_id":"4","last_reported":1774027681,"current_range_meters":6800,"station_id":"st_d2m65c5bi1j21697t3ng","pricing_plan_id":"cebpf4jnsgd1na2vs0mg"},{"bike_id":"29ceb06a-4df8-4e2a-9dd9-b070e185b37f","system_id":"levelo_inurba_marseille","lat":43.28496,"lon":5.48423,"is_reserved":false,"is_disabled":false,"rental_uris":{"android":"levelo://app?vid=29ceb06a-4df8-4e2a-9dd9-b070e185b37f","ios":"levelo://app?vid=29ceb06a-4df8-4e2a-9dd9-b070e185b37f"},"vehicle_type_id":"4","last_reported":1774027681,"current_range_meters":6800,"station_id":"st_d3svhcjqgbts73a3dn0g","pricing_plan_id":"cebpf4jnsgd1na2vs0mg"},{"bike_id":"938f1765-c7e3-45e4-b477-6e8f856f2dde","system_id":"levelo_inurba_marseille","lat":43.29882,"lon":5.38899,"is_reserved":false,"is_disabled":false,"rental_uris":{"android":"levelo://app?vid=938f1765-c7e3-45e4-b477-6e8f856f2dde","ios":"levelo://app?vid=938f1765-c7e3-45e4-b477-6e8f856f2dde"},"vehicle_type_id":"4","last_reported":1774027681,"current_range_meters":6800,"station_id":"ce4bh392rcd13ifvqdl0","pricing_plan_id":"cebpf4jnsgd1na2vs0mg"},{"bike_id":"c142af26-b83c-4aa3-ab8b-699576493d34","system_id":"levelo_inurba_marseille","lat":43.21209,"lon":5.35072,"is_reserved":false,"is_disabled":true,"rental_uris":{"android":"levelo://app?vid=c142af26-b83c-4aa3-ab8b-699576493d34","ios":"levelo://app?vid=c142af26-b83c-4aa3-ab8b-699576493d34"},"vehicle_type_id":"4","last_reported":1774027681,"current_range_meters":6800,"station_id":"st_cvj6sg6p6f1abm77japg","pricing_plan_id":"cebpf4jnsgd1na2vs0mg"},{"bike_id":"29705345-7a8e-4bdd-8b65-5ba8856c877f","system_id":"levelo_inurba_marseille","lat":43.303,"lon":5.44981,"is_reserved":false,"is_disabled":false,"rental_uris":{"android":"levelo://app?vid=29705345-7a8e-4bdd-8b65-5ba8856c877f","ios":"levelo://app?vid=29705345-7a8e-4bdd-8b65-5ba8856c877f"},"vehicle_type_id":"4","last_reported":1774027681,"current_range_meters":6800,"station_id":"","pricing_plan_id":"cebpf4jnsgd1na2vs0mg"},{"bike_id":"e5eba928-e3a4-441b-9540-937747ee47b9","system_id":"levelo_inurba_marseille","lat":43.22568,"lon":5.41625,"is_reserved":false,"is_disabled":false,"rental_uris":{"android":"levelo://app?vid=e5eba928-e3a4-441b-9540-937747ee47b9","ios":"levelo://app?vid=e5eba928-e3a4-441b-9540-937747ee47b9"},"vehicle_type_id":"4","last_reported":1774027681,"current_range_meters":6800,"station_id":"st_d2o4gvlbi1j2169b742g","pricing_plan_id":"cebpf4jnsgd1na2vs0mg"},{"bike_id":"7e4085b8-d56a-401a-9056-0d97a16df958","system_id":"levelo_inurba_marseille","lat":43.28458,"lon":5.35055,"is_reserved":false,"is_disabled":false,"rental_uris":{"android":"levelo://app?vid=7e4085b8-d56a-401a-9056-0d97a16df958","ios":"levelo://app?vid=7e4085b8-d56a-401a-9056-0d97a16df958"},"vehicle_type_id":"4","last_reported":1774027681,"current_range_meters":6800,"station_id":"","pricing_plan_id":"cebpf4jnsgd1na2vs0mg"},{"bike_id":"06926b7f-4085-4a55-9fa1-c49c9c27e99f","system_id":"levelo_inurba_marseille","lat":43.28474,"lon":5.38562,"is_reserved":false,"is_disabled":false,"rental_uris":{"android":"levelo://app?vid=06926b7f-4085-4a55-9fa1-c49c9c27e99f","ios":"levelo://app?vid=06926b7f-4085-4a55-9fa1-c49c9c27e99f"},"vehicle_type_id":"4","last_reported":1774027681,"current_range_meters":6800,"station_id":"ce4bh8p2rcd13ifvqeb0","pricing_plan_id":"cebpf4jnsgd1na2vs0mg"},{"bike_id":"f328e3b6-a38c-49fe-80e0-c552630893a5","system_id":"levelo_inurba_marseille","lat":43.22926,"lon":5.35372,"is_reserved":false,"is_disabled":false,"rental_uris":{"android":"levelo://app?vid=f328e3b6-a38c-49fe-80e0-c552630893a5","ios":"levelo://app?vid=f328e3b6-a38c-49fe-80e0-c552630893a5"},"vehicle_type_id":"4","last_reported":1774027681,"current_range_meters":7200,"station_id":"cpo3532slgdg3j2ikp40","pricing_plan_id":"cebpf4jnsgd1na2vs0mg"},{"bike_id":"a775511c-9985-4a58-8c4c-775aad7f3e36","system_id":"levelo_inurba_marseille","lat":43.299,"lon":5.43674,"is_reserved":false,"is_disabled":false,"rental_uris":{"android":"levelo://app?vid=a775511c-9985-4a58-8c4c-775aad7f3e36","ios":"levelo://app?vid=a775511c-9985-4a58-8c4c-775aad7f3e36"},"vehicle_type_id":"4","last_reported":1774027681,"current_range_meters":7200,"station_id":"ce4bhpp2rcd13ifvqhfg","pricing_plan_id":"cebpf4jnsgd1na2vs0mg"},{"bike_id":"5c37a49c-ab60-4c11-8a61-6592ff444186","system_id":"levelo_inurba_marseille","lat":43.27908,"lon":5.39175,"is_reserved":false,"is_disabled":false,"rental_uris":{"android":"levelo://app?vid=5c37a49c-ab60-4c11-8a61-6592ff444186","ios":"levelo://app?vid=5c37a49c-ab60-4c11-8a61-6592ff444186"},"vehicle_type_id":"4","last_reported":1774027681,"current_range_meters":7200,"station_id":"","pricing_plan_id":"cebpf4jnsgd1na2vs0mg"},{"bike_id":"75cfcfcb-c78e-4d6c-b20e-3b1bbca7359b","system_id":"levelo_inurba_marseille","lat":43.29194,"lon":5.35803,"is_reserved":false,"is_disabled":false,"rental_uris":{"android":"levelo://app?vid=75cfcfcb-c78e-4d6c-b20e-3b1bbca7359b","ios":"levelo://app?vid=75cfcfcb-c78e-4d6c-b20e-3b1bbca7359b"},"vehicle_type_id":"4","last_reported":1774027681,"current_range_meters":7200,"station_id":"ce4bhb12rcd13ifvqel0","pricing_plan_id":"cebpf4jnsgd1na2vs0mg"},{"bike_id":"3d1a0e9d-61d1-4ee7-a48c-ab81c0ebc9ff","system_id":"levelo_inurba_marseille","lat":43.24999,"lon":5.38933,"is_reserved":false,"is_disabled":false,"rental_uris":{"android":"levelo://app?vid=3d1a0e9d-61d1-4ee7-a48c-ab81c0ebc9ff","ios":"levelo://app?vid=3d1a0e9d-61d1-4ee7-a48c-ab81c0ebc9ff"},"vehicle_type_id":"4","last_reported":1774027681,"current_range_meters":7200,"station_id":"ce4bhgp2rcd13ifvqfd0","pricing_plan_id":"cebpf4jnsgd1na2vs0mg"},{"bike_id":"0cfdbc8d-4487-47be-b7a9-b1e474be5b3d","system_id":"levelo_inurba_marseille","lat":43.29879,"lon":5.39756,"is_reserved":false,"is_disabled":false,"rental_uris":{"android":"levelo://app?vid=0cfdbc8d-4487-47be-b7a9-b1e474be5b3d","ios":"levelo://app?vid=0cfdbc8d-4487-47be-b7a9-b1e474be5b3d"},"vehicle_type_id":"4","last_reported":1774027681,"current_range_meters":7200,"station_id":"ce4bh0h2rcd13ifvqd50","pricing_plan_id":"cebpf4jnsgd1na2vs0mg"},{"bike_id":"2b90210a-753b-4e08-97d9-925c57943e99","system_id":"levelo_inurba_marseille","lat":43.25815,"lon":5.39444,"is_reserved":false,"is_disabled":false,"rental_uris":{"android":"levelo://app?vid=2b90210a-753b-4e08-97d9-925c57943e99","ios":"levelo://app?vid=2b90210a-753b-4e08-97d9-925c57943e99"},"vehicle_type_id":"4","last_reported":1774027681,"current_range_meters":7200,"station_id":"ce4bhip2rcd13ifvqft0","pricing_plan_id":"cebpf4jnsgd1na2vs0mg"},{"bike_id":"102bfffb-ea37-4019-8bcd-d90a260dfe3d","system_id":"levelo_inurba_marseille","lat":43.2841,"lon":5.37515,"is_reserved":false,"is_disabled":false,"rental_uris":{"android":"levelo://app?vid=102bfffb-ea37-4019-8bcd-d90a260dfe3d","ios":"levelo://app?vid=102bfffb-ea37-4019-8bcd-d90a260dfe3d"},"vehicle_type_id":"4","last_reported":1774027681,"current_range_meters":7200,"station_id":"ce4bh412rcd13ifvqds0","pricing_plan_id":"cebpf4jnsgd1na2vs0mg"},{"bike_id":"36e90825-0a4c-4783-80db-abf887e1012e","system_id":"levelo_inurba_marseille","lat":43.24815,"lon":5.37462,"is_reserved":false,"is_disabled":false,"rental_uris":{"android":"levelo://app?vid=36e90825-0a4c-4783-80db-abf887e1012e","ios":"levelo://app?vid=36e90825-0a4c-4783-80db-abf887e1012e"},"vehicle_type_id":"4","last_reported":1774027681,"current_range_meters":7200,"station_id":"ce4bhgh2rcd13ifvqfb0","pricing_plan_id":"cebpf4jnsgd1na2vs0mg"},{"bike_id":"a5047ded-8781-414d-9d00-396ee688cfa7","system_id":"levelo_inurba_marseille","lat":43.2954,"lon":5.38537,"is_reserved":false,"is_disabled":false,"rental_uris":{"android":"levelo://app?vid=a5047ded-8781-414d-9d00-396ee688cfa7","ios":"levelo://app?vid=a5047ded-8781-414d-9d00-396ee688cfa7"},"vehicle_type_id":"4","last_reported":1774027681,"current_range_meters":7200,"station_id":"ce4bgih2rcd13ifvqba0","pricing_plan_id":"cebpf4jnsgd1na2vs0mg"},{"bike_id":"f5c29224-02db-4873-81ce-fdd0ce8262a8","system_id":"levelo_inurba_marseille","lat":43.27912,"lon":5.38006,"is_reserved":false,"is_disabled":false,"rental_uris":{"android":"levelo://app?vid=f5c29224-02db-4873-81ce-fdd0ce8262a8","ios":"levelo://app?vid=f5c29224-02db-4873-81ce-fdd0ce8262a8"},"vehicle_type_id":"4","last_reported":1774027681,"current_range_meters":7200,"station_id":"ce4bhf92rcd13ifvqf50","pricing_plan_id":"cebpf4jnsgd1na2vs0mg"},{"bike_id":"89ad46cf-ad84-4e5e-be57-87ac2cebe69c","system_id":"levelo_inurba_marseille","lat":43.28482,"lon":5.48389,"is_reserved":false,"is_disabled":false,"rental_uris":{"android":"levelo://app?vid=89ad46cf-ad84-4e5e-be57-87ac2cebe69c","ios":"levelo://app?vid=89ad46cf-ad84-4e5e-be57-87ac2cebe69c"},"vehicle_type_id":"4","last_reported":1774027681,"current_range_meters":7200,"station_id":"st_d3svhcjqgbts73a3dn0g","pricing_plan_id":"cebpf4jnsgd1na2vs0mg"},{"bike_id":"f88beddb-d7c4-4148-9f8c-56ddec396a56","system_id":"levelo_inurba_marseille","lat":43.24809,"lon":5.37456,"is_reserved":false,"is_disabled":false,"rental_uris":{"android":"levelo://app?vid=f88beddb-d7c4-4148-9f8c-56ddec396a56","ios":"levelo://app?vid=f88beddb-d7c4-4148-9f8c-56ddec396a56"},"vehicle_type_id":"4","last_reported":1774027681,"current_range_meters":7200,"station_id":"ce4bhgh2rcd13ifvqfb0","pricing_plan_id":"cebpf4jnsgd1na2vs0mg"},{"bike_id":"a27a4bef-6271-4769-a20b-22b27c081ad7","system_id":"levelo_inurba_marseille","lat":43.29757,"lon":5.389317,"is_reserved":false,"is_disabled":false,"rental_uris":{"android":"levelo://app?vid=a27a4bef-6271-4769-a20b-22b27c081ad7","ios":"levelo://app?vid=a27a4bef-6271-4769-a20b-22b27c081ad7"},"vehicle_type_id":"4","last_reported":1774027681,"current_range_meters":7200,"station_id":"ce4bh392rcd13ifvqdl0","pricing_plan_id":"cebpf4jnsgd1na2vs0mg"},{"bike_id":"98b62a6d-97f1-488a-9bbe-90c172d4ab35","system_id":"levelo_inurba_marseille","lat":43.24073,"lon":5.37764,"is_reserved":false,"is_disabled":false,"rental_uris":{"android":"levelo://app?vid=98b62a6d-97f1-488a-9bbe-90c172d4ab35","ios":"levelo://app?vid=98b62a6d-97f1-488a-9bbe-90c172d4ab35"},"vehicle_type_id":"4","last_reported":1774027681,"current_range_meters":7200,"station_id":"ce4bhnp2rcd13ifvqgvg","pricing_plan_id":"cebpf4jnsgd1na2vs0mg"},{"bike_id":"b1302b25-1bd2-467e-8c9d-675860321fb2","system_id":"levelo_inurba_marseille","lat":43.31327,"lon":5.39692,"is_reserved":false,"is_disabled":false,"rental_uris":{"android":"levelo://app?vid=b1302b25-1bd2-467e-8c9d-675860321fb2","ios":"levelo://app?vid=b1302b25-1bd2-467e-8c9d-675860321fb2"},"vehicle_type_id":"4","last_reported":1774027681,"current_range_meters":7200,"station_id":"ce4bgvp2rcd13ifvqcu0","pricing_plan_id":"cebpf4jnsgd1na2vs0mg"},{"bike_id":"e6e680d8-29dc-4936-a62d-c61ace813e6f","system_id":"levelo_inurba_marseille","lat":43.25729,"lon":5.41108,"is_reserved":false,"is_disabled":false,"rental_uris":{"android":"levelo://app?vid=e6e680d8-29dc-4936-a62d-c61ace813e6f","ios":"levelo://app?vid=e6e680d8-29dc-4936-a62d-c61ace813e6f"},"vehicle_type_id":"4","last_reported":1774027681,"current_range_meters":7200,"station_id":"ce4bhkp2rcd13ifvqgd0","pricing_plan_id":"cebpf4jnsgd1na2vs0mg"},{"bike_id":"a1ce7f88-8f8c-48ff-bc8b-8021c61764ea","system_id":"levelo_inurba_marseille","lat":43.33542,"lon":5.37467,"is_reserved":false,"is_disabled":false,"rental_uris":{"android":"levelo://app?vid=a1ce7f88-8f8c-48ff-bc8b-8021c61764ea","ios":"levelo://app?vid=a1ce7f88-8f8c-48ff-bc8b-8021c61764ea"},"vehicle_type_id":"4","last_reported":1774027681,"current_range_meters":7200,"station_id":"st_d46tts09ee8s73dlu43g","pricing_plan_id":"cebpf4jnsgd1na2vs0mg"},{"bike_id":"8bdbbffa-9e53-4e81-9b06-685ccf6a15c9","system_id":"levelo_inurba_marseille","lat":43.28228,"lon":5.39066,"is_reserved":false,"is_disabled":false,"rental_uris":{"android":"levelo://app?vid=8bdbbffa-9e53-4e81-9b06-685ccf6a15c9","ios":"levelo://app?vid=8bdbbffa-9e53-4e81-9b06-685ccf6a15c9"},"vehicle_type_id":"4","last_reported":1774027681,"current_range_meters":8000,"station_id":"ce4bhn92rcd13ifvqgsg","pricing_plan_id":"cebpf4jnsgd1na2vs0mg"},{"bike_id":"9ec1942c-b173-4801-9f27-3e6493805e2b","system_id":"levelo_inurba_marseille","lat":43.24649,"lon":5.38882,"is_reserved":false,"is_disabled":false,"rental_uris":{"android":"levelo://app?vid=9ec1942c-b173-4801-9f27-3e6493805e2b","ios":"levelo://app?vid=9ec1942c-b173-4801-9f27-3e6493805e2b"},"vehicle_type_id":"4","last_reported":1774027681,"current_range_meters":8000,"station_id":"ce4bhg12rcd13ifvqf60","pricing_plan_id":"cebpf4jnsgd1na2vs0mg"},{"bike_id":"96904aa0-8b1e-49ec-9fca-3e4d9909f046","system_id":"levelo_inurba_marseille","lat":43.27007,"lon":5.39934,"is_reserved":false,"is_disabled":false,"rental_uris":{"android":"levelo://app?vid=96904aa0-8b1e-49ec-9fca-3e4d9909f046","ios":"levelo://app?vid=96904aa0-8b1e-49ec-9fca-3e4d9909f046"},"vehicle_type_id":"4","last_reported":1774027681,"current_range_meters":8000,"station_id":"","pricing_plan_id":"cebpf4jnsgd1na2vs0mg"},{"bike_id":"e01d6914-ce98-41a8-9c50-82c615cf10ed","system_id":"levelo_inurba_marseille","lat":43.3073,"lon":5.42448,"is_reserved":false,"is_disabled":false,"rental_uris":{"android":"levelo://app?vid=e01d6914-ce98-41a8-9c50-82c615cf10ed","ios":"levelo://app?vid=e01d6914-ce98-41a8-9c50-82c615cf10ed"},"vehicle_type_id":"4","last_reported":1774027681,"current_range_meters":8000,"station_id":"st_cvj6ca6bvosntc0bfgr0","pricing_plan_id":"cebpf4jnsgd1na2vs0mg"},{"bike_id":"53f48266-4564-420b-96ab-d243233055dc","system_id":"levelo_inurba_marseille","lat":43.28488,"lon":5.48391,"is_reserved":false,"is_disabled":false,"rental_uris":{"android":"levelo://app?vid=53f48266-4564-420b-96ab-d243233055dc","ios":"levelo://app?vid=53f48266-4564-420b-96ab-d243233055dc"},"vehicle_type_id":"4","last_reported":1774027681,"current_range_meters":8000,"station_id":"","pricing_plan_id":"cebpf4jnsgd1na2vs0mg"},{"bike_id":"0e6d80f4-83b1-44d1-a354-5d2dfab840e2","system_id":"levelo_inurba_marseille","lat":43.29009,"lon":5.35605,"is_reserved":false,"is_disabled":false,"rental_uris":{"android":"levelo://app?vid=0e6d80f4-83b1-44d1-a354-5d2dfab840e2","ios":"levelo://app?vid=0e6d80f4-83b1-44d1-a354-5d2dfab840e2"},"vehicle_type_id":"4","last_reported":1774027681,"current_range_meters":8000,"station_id":"ce4bhb92rcd13ifvqen0","pricing_plan_id":"cebpf4jnsgd1na2vs0mg"},{"bike_id":"c55f3fc5-5edf-4ef9-9d84-f8899b074dbb","system_id":"levelo_inurba_marseille","lat":43.28866,"lon":5.42525,"is_reserved":false,"is_disabled":false,"rental_uris":{"android":"levelo://app?vid=c55f3fc5-5edf-4ef9-9d84-f8899b074dbb","ios":"levelo://app?vid=c55f3fc5-5edf-4ef9-9d84-f8899b074dbb"},"vehicle_type_id":"4","last_reported":1774027681,"current_range_meters":8000,"station_id":"","pricing_plan_id":"cebpf4jnsgd1na2vs0mg"},{"bike_id":"56640da4-a6be-4a43-9973-085a6297ede0","system_id":"levelo_inurba_marseille","lat":43.27379,"lon":5.36272,"is_reserved":false,"is_disabled":false,"rental_uris":{"android":"levelo://app?vid=56640da4-a6be-4a43-9973-085a6297ede0","ios":"levelo://app?vid=56640da4-a6be-4a43-9973-085a6297ede0"},"vehicle_type_id":"4","last_reported":1774027681,"current_range_meters":8000,"station_id":"ce4bhbh2rcd13ifvqeo0","pricing_plan_id":"cebpf4jnsgd1na2vs0mg"},{"bike_id":"d71bde9f-18a5-48c4-9e93-a9d8c264ddab","system_id":"levelo_inurba_marseille","lat":43.29221,"lon":5.3608,"is_reserved":false,"is_disabled":false,"rental_uris":{"android":"levelo://app?vid=d71bde9f-18a5-48c4-9e93-a9d8c264ddab","ios":"levelo://app?vid=d71bde9f-18a5-48c4-9e93-a9d8c264ddab"},"vehicle_type_id":"4","last_reported":1774027681,"current_range_meters":8000,"station_id":"ce4bhbh2rcd13ifvqeqg","pricing_plan_id":"cebpf4jnsgd1na2vs0mg"},{"bike_id":"85c010cb-4e28-4ca5-aafe-cc969ef4982e","system_id":"levelo_inurba_marseille","lat":43.30299,"lon":5.36896,"is_reserved":false,"is_disabled":false,"rental_uris":{"android":"levelo://app?vid=85c010cb-4e28-4ca5-aafe-cc969ef4982e","ios":"levelo://app?vid=85c010cb-4e28-4ca5-aafe-cc969ef4982e"},"vehicle_type_id":"4","last_reported":1774027681,"current_range_meters":8000,"station_id":"ce4bgqh2rcd13ifvqc5g","pricing_plan_id":"cebpf4jnsgd1na2vs0mg"},{"bike_id":"5166a6a1-ad9c-4508-a4b7-f571a055f64d","system_id":"levelo_inurba_marseille","lat":43.27322,"lon":5.39075,"is_reserved":false,"is_disabled":false,"rental_uris":{"android":"levelo://app?vid=5166a6a1-ad9c-4508-a4b7-f571a055f64d","ios":"levelo://app?vid=5166a6a1-ad9c-4508-a4b7-f571a055f64d"},"vehicle_type_id":"4","last_reported":1774027681,"current_range_meters":8000,"station_id":"ce4bhgp2rcd13ifvqfe0","pricing_plan_id":"cebpf4jnsgd1na2vs0mg"},{"bike_id":"effc08dd-2359-4134-8281-37411338459f","system_id":"levelo_inurba_marseille","lat":43.28425,"lon":5.35021,"is_reserved":false,"is_disabled":false,"rental_uris":{"android":"levelo://app?vid=effc08dd-2359-4134-8281-37411338459f","ios":"levelo://app?vid=effc08dd-2359-4134-8281-37411338459f"},"vehicle_type_id":"4","last_reported":1774027681,"current_range_meters":8000,"station_id":"ce4bhbh2rcd13ifvqepg","pricing_plan_id":"cebpf4jnsgd1na2vs0mg"},{"bike_id":"7fa64d84-cd92-4f02-a79d-c348b129b15f","system_id":"levelo_inurba_marseille","lat":43.24146,"lon":5.36435,"is_reserved":false,"is_disabled":false,"rental_uris":{"android":"levelo://app?vid=7fa64d84-cd92-4f02-a79d-c348b129b15f","ios":"levelo://app?vid=7fa64d84-cd92-4f02-a79d-c348b129b15f"},"vehicle_type_id":"4","last_reported":1774027681,"current_range_meters":8000,"station_id":"cpo36qri1sfpv3e86is0","pricing_plan_id":"cebpf4jnsgd1na2vs0mg"},{"bike_id":"cf644b4a-b00b-4198-9a69-695c69bc416b","system_id":"levelo_inurba_marseille","lat":43.23075,"lon":5.35532,"is_reserved":false,"is_disabled":false,"rental_uris":{"android":"levelo://app?vid=cf644b4a-b00b-4198-9a69-695c69bc416b","ios":"levelo://app?vid=cf644b4a-b00b-4198-9a69-695c69bc416b"},"vehicle_type_id":"4","last_reported":1774027681,"current_range_meters":8000,"station_id":"cpo3342slgdg3j2ifvpg","pricing_plan_id":"cebpf4jnsgd1na2vs0mg"},{"bike_id":"d08e07a2-5a37-4cdf-83cb-3748cc6782a3","system_id":"levelo_inurba_marseille","lat":43.29629,"lon":5.37147,"is_reserved":false,"is_disabled":false,"rental_uris":{"android":"levelo://app?vid=d08e07a2-5a37-4cdf-83cb-3748cc6782a3","ios":"levelo://app?vid=d08e07a2-5a37-4cdf-83cb-3748cc6782a3"},"vehicle_type_id":"4","last_reported":1774027681,"current_range_meters":8000,"station_id":"ce4bgnh2rcd13ifvqc0g","pricing_plan_id":"cebpf4jnsgd1na2vs0mg"},{"bike_id":"39cb0508-c664-495c-ace3-bac217870deb","system_id":"levelo_inurba_marseille","lat":43.31877,"lon":5.39997,"is_reserved":false,"is_disabled":false,"rental_uris":{"android":"levelo://app?vid=39cb0508-c664-495c-ace3-bac217870deb","ios":"levelo://app?vid=39cb0508-c664-495c-ace3-bac217870deb"},"vehicle_type_id":"4","last_reported":1774027681,"current_range_meters":8000,"station_id":"","pricing_plan_id":"cebpf4jnsgd1na2vs0mg"},{"bike_id":"912e5f30-2e0b-48a9-85db-a984611241c9","system_id":"levelo_inurba_marseille","lat":43.29844,"lon":5.44147,"is_reserved":false,"is_disabled":false,"rental_uris":{"android":"levelo://app?vid=912e5f30-2e0b-48a9-85db-a984611241c9","ios":"levelo://app?vid=912e5f30-2e0b-48a9-85db-a984611241c9"},"vehicle_type_id":"4","last_reported":1774027681,"current_range_meters":8400,"station_id":"","pricing_plan_id":"cebpf4jnsgd1na2vs0mg"},{"bike_id":"e2420c11-4646-4145-aa2e-baedb91a43dc","system_id":"levelo_inurba_marseille","lat":43.32368,"lon":5.36732,"is_reserved":false,"is_disabled":false,"rental_uris":{"android":"levelo://app?vid=e2420c11-4646-4145-aa2e-baedb91a43dc","ios":"levelo://app?vid=e2420c11-4646-4145-aa2e-baedb91a43dc"},"vehicle_type_id":"4","last_reported":1774027681,"current_range_meters":8400,"station_id":"ce4bhsh2rcd13ifvqi2g","pricing_plan_id":"cebpf4jnsgd1na2vs0mg"},{"bike_id":"047ba141-be1a-459b-b4e4-3f69e624e803","system_id":"levelo_inurba_marseille","lat":43.27386,"lon":5.36215,"is_reserved":false,"is_disabled":false,"rental_uris":{"android":"levelo://app?vid=047ba141-be1a-459b-b4e4-3f69e624e803","ios":"levelo://app?vid=047ba141-be1a-459b-b4e4-3f69e624e803"},"vehicle_type_id":"4","last_reported":1774027681,"current_range_meters":8400,"station_id":"","pricing_plan_id":"cebpf4jnsgd1na2vs0mg"},{"bike_id":"060a17fc-c9dc-4a7f-9c4a-c3774a52d50f","system_id":"levelo_inurba_marseille","lat":43.29519,"lon":5.37505,"is_reserved":false,"is_disabled":false,"rental_uris":{"android":"levelo://app?vid=060a17fc-c9dc-4a7f-9c4a-c3774a52d50f","ios":"levelo://app?vid=060a17fc-c9dc-4a7f-9c4a-c3774a52d50f"},"vehicle_type_id":"4","last_reported":1774027681,"current_range_meters":8400,"station_id":"ce4bgkp2rcd13ifvqbmg","pricing_plan_id":"cebpf4jnsgd1na2vs0mg"},{"bike_id":"fcf07af9-6922-462c-9ec8-4dbc02eaf158","system_id":"levelo_inurba_marseille","lat":43.25336,"lon":5.42131,"is_reserved":false,"is_disabled":false,"rental_uris":{"android":"levelo://app?vid=fcf07af9-6922-462c-9ec8-4dbc02eaf158","ios":"levelo://app?vid=fcf07af9-6922-462c-9ec8-4dbc02eaf158"},"vehicle_type_id":"4","last_reported":1774027681,"current_range_meters":8400,"station_id":"st_d2m65c5bi1j21697t3ng","pricing_plan_id":"cebpf4jnsgd1na2vs0mg"},{"bike_id":"f12ce399-1654-48f8-a320-211fcab6582c","system_id":"levelo_inurba_marseille","lat":43.23771,"lon":5.36614,"is_reserved":false,"is_disabled":false,"rental_uris":{"android":"levelo://app?vid=f12ce399-1654-48f8-a320-211fcab6582c","ios":"levelo://app?vid=f12ce399-1654-48f8-a320-211fcab6582c"},"vehicle_type_id":"4","last_reported":1774027681,"current_range_meters":8400,"station_id":"st_d3nk18o9ro0c73en2l3g","pricing_plan_id":"cebpf4jnsgd1na2vs0mg"},{"bike_id":"8648ff3d-a49d-4491-be6c-bab3f9812603","system_id":"levelo_inurba_marseille","lat":43.28291,"lon":5.43837,"is_reserved":false,"is_disabled":false,"rental_uris":{"android":"levelo://app?vid=8648ff3d-a49d-4491-be6c-bab3f9812603","ios":"levelo://app?vid=8648ff3d-a49d-4491-be6c-bab3f9812603"},"vehicle_type_id":"4","last_reported":1774027681,"current_range_meters":8400,"station_id":"","pricing_plan_id":"cebpf4jnsgd1na2vs0mg"},{"bike_id":"eea5b844-b303-4614-bdb0-ae897dd307b5","system_id":"levelo_inurba_marseille","lat":43.24797,"lon":5.37468,"is_reserved":false,"is_disabled":false,"rental_uris":{"android":"levelo://app?vid=eea5b844-b303-4614-bdb0-ae897dd307b5","ios":"levelo://app?vid=eea5b844-b303-4614-bdb0-ae897dd307b5"},"vehicle_type_id":"4","last_reported":1774027681,"current_range_meters":8400,"station_id":"ce4bhgh2rcd13ifvqfb0","pricing_plan_id":"cebpf4jnsgd1na2vs0mg"},{"bike_id":"a8c8307b-e1e9-4950-a785-578e1a82f805","system_id":"levelo_inurba_marseille","lat":43.31261,"lon":5.37819,"is_reserved":false,"is_disabled":false,"rental_uris":{"android":"levelo://app?vid=a8c8307b-e1e9-4950-a785-578e1a82f805","ios":"levelo://app?vid=a8c8307b-e1e9-4950-a785-578e1a82f805"},"vehicle_type_id":"4","last_reported":1774027681,"current_range_meters":8400,"station_id":"","pricing_plan_id":"cebpf4jnsgd1na2vs0mg"},{"bike_id":"962e3e51-db50-4f61-a079-9b1c6a103eb5","system_id":"levelo_inurba_marseille","lat":43.30963,"lon":5.36814,"is_reserved":false,"is_disabled":false,"rental_uris":{"android":"levelo://app?vid=962e3e51-db50-4f61-a079-9b1c6a103eb5","ios":"levelo://app?vid=962e3e51-db50-4f61-a079-9b1c6a103eb5"},"vehicle_type_id":"4","last_reported":1774027681,"current_range_meters":8400,"station_id":"","pricing_plan_id":"cebpf4jnsgd1na2vs0mg"},{"bike_id":"990bbfdd-9e67-4284-9388-82a009f41288","system_id":"levelo_inurba_marseille","lat":43.27374,"lon":5.3627,"is_reserved":false,"is_disabled":false,"rental_uris":{"android":"levelo://app?vid=990bbfdd-9e67-4284-9388-82a009f41288","ios":"levelo://app?vid=990bbfdd-9e67-4284-9388-82a009f41288"},"vehicle_type_id":"4","last_reported":1774027681,"current_range_meters":8400,"station_id":"ce4bhbh2rcd13ifvqeo0","pricing_plan_id":"cebpf4jnsgd1na2vs0mg"},{"bike_id":"7f166c91-9eb1-4dc8-a940-85d8139ad9d9","system_id":"levelo_inurba_marseille","lat":43.23969,"lon":5.3662,"is_reserved":false,"is_disabled":false,"rental_uris":{"android":"levelo://app?vid=7f166c91-9eb1-4dc8-a940-85d8139ad9d9","ios":"levelo://app?vid=7f166c91-9eb1-4dc8-a940-85d8139ad9d9"},"vehicle_type_id":"4","last_reported":1774027681,"current_range_meters":8400,"station_id":"ce4bhi12rcd13ifvqfp0","pricing_plan_id":"cebpf4jnsgd1na2vs0mg"},{"bike_id":"2d9e4754-9b17-40b5-bbeb-5b1c9c5bbe64","system_id":"levelo_inurba_marseille","lat":43.30127,"lon":5.38787,"is_reserved":false,"is_disabled":true,"rental_uris":{"android":"levelo://app?vid=2d9e4754-9b17-40b5-bbeb-5b1c9c5bbe64","ios":"levelo://app?vid=2d9e4754-9b17-40b5-bbeb-5b1c9c5bbe64"},"vehicle_type_id":"4","last_reported":1774027681,"current_range_meters":8400,"station_id":"ce4bghh2rcd13ifvqb60","pricing_plan_id":"cebpf4jnsgd1na2vs0mg"},{"bike_id":"fc5e761f-bc28-4444-8acd-ad20e69b67ce","system_id":"levelo_inurba_marseille","lat":43.26553,"lon":5.37284,"is_reserved":false,"is_disabled":false,"rental_uris":{"android":"levelo://app?vid=fc5e761f-bc28-4444-8acd-ad20e69b67ce","ios":"levelo://app?vid=fc5e761f-bc28-4444-8acd-ad20e69b67ce"},"vehicle_type_id":"4","last_reported":1774027681,"current_range_meters":8400,"station_id":"ce4bhg12rcd13ifvqf70","pricing_plan_id":"cebpf4jnsgd1na2vs0mg"},{"bike_id":"39065d6e-5972-4836-9937-e2df0ea7c225","system_id":"levelo_inurba_marseille","lat":43.27376,"lon":5.36259,"is_reserved":false,"is_disabled":false,"rental_uris":{"android":"levelo://app?vid=39065d6e-5972-4836-9937-e2df0ea7c225","ios":"levelo://app?vid=39065d6e-5972-4836-9937-e2df0ea7c225"},"vehicle_type_id":"4","last_reported":1774027681,"current_range_meters":8400,"station_id":"ce4bhbh2rcd13ifvqeo0","pricing_plan_id":"cebpf4jnsgd1na2vs0mg"},{"bike_id":"6c0b7fb8-6073-4e75-9929-8c0f98ce7feb","system_id":"levelo_inurba_marseille","lat":43.27811,"lon":5.40706,"is_reserved":false,"is_disabled":false,"rental_uris":{"android":"levelo://app?vid=6c0b7fb8-6073-4e75-9929-8c0f98ce7feb","ios":"levelo://app?vid=6c0b7fb8-6073-4e75-9929-8c0f98ce7feb"},"vehicle_type_id":"4","last_reported":1774027681,"current_range_meters":8400,"station_id":"ce4bhnh2rcd13ifvqgtg","pricing_plan_id":"cebpf4jnsgd1na2vs0mg"},{"bike_id":"823cb6ec-0814-4cef-ba8b-4180ca5c983d","system_id":"levelo_inurba_marseille","lat":43.25877,"lon":5.39908,"is_reserved":false,"is_disabled":false,"rental_uris":{"android":"levelo://app?vid=823cb6ec-0814-4cef-ba8b-4180ca5c983d","ios":"levelo://app?vid=823cb6ec-0814-4cef-ba8b-4180ca5c983d"},"vehicle_type_id":"4","last_reported":1774027681,"current_range_meters":8400,"station_id":"ce4bhl92rcd13ifvqghg","pricing_plan_id":"cebpf4jnsgd1na2vs0mg"},{"bike_id":"90247a32-4247-4b67-9184-a764995b5141","system_id":"levelo_inurba_marseille","lat":43.29686,"lon":5.37286,"is_reserved":false,"is_disabled":false,"rental_uris":{"android":"levelo://app?vid=90247a32-4247-4b67-9184-a764995b5141","ios":"levelo://app?vid=90247a32-4247-4b67-9184-a764995b5141"},"vehicle_type_id":"4","last_reported":1774027681,"current_range_meters":8400,"station_id":"ce4bgk12rcd13ifvqbj0","pricing_plan_id":"cebpf4jnsgd1na2vs0mg"},{"bike_id":"0c744d67-74b3-4bed-8fa1-274d8c3afbea","system_id":"levelo_inurba_marseille","lat":43.23772,"lon":5.36607,"is_reserved":false,"is_disabled":false,"rental_uris":{"android":"levelo://app?vid=0c744d67-74b3-4bed-8fa1-274d8c3afbea","ios":"levelo://app?vid=0c744d67-74b3-4bed-8fa1-274d8c3afbea"},"vehicle_type_id":"4","last_reported":1774027681,"current_range_meters":8400,"station_id":"st_d3nk18o9ro0c73en2l3g","pricing_plan_id":"cebpf4jnsgd1na2vs0mg"},{"bike_id":"b2bd4729-29eb-4798-8b22-f476beaaafe4","system_id":"levelo_inurba_marseille","lat":43.28617,"lon":5.35105,"is_reserved":false,"is_disabled":false,"rental_uris":{"android":"levelo://app?vid=b2bd4729-29eb-4798-8b22-f476beaaafe4","ios":"levelo://app?vid=b2bd4729-29eb-4798-8b22-f476beaaafe4"},"vehicle_type_id":"4","last_reported":1774027681,"current_range_meters":8400,"station_id":"ce4bhch2rcd13ifvqeug","pricing_plan_id":"cebpf4jnsgd1na2vs0mg"},{"bike_id":"f73e7ca2-d2a5-41cc-95c1-16ec040970a4","system_id":"levelo_inurba_marseille","lat":43.27373,"lon":5.36262,"is_reserved":false,"is_disabled":false,"rental_uris":{"android":"levelo://app?vid=f73e7ca2-d2a5-41cc-95c1-16ec040970a4","ios":"levelo://app?vid=f73e7ca2-d2a5-41cc-95c1-16ec040970a4"},"vehicle_type_id":"4","last_reported":1774027681,"current_range_meters":8800,"station_id":"ce4bhbh2rcd13ifvqeo0","pricing_plan_id":"cebpf4jnsgd1na2vs0mg"},{"bike_id":"7f69ea73-8aff-462b-a819-a0809de4b8a2","system_id":"levelo_inurba_marseille","lat":43.30555,"lon":5.36517,"is_reserved":false,"is_disabled":false,"rental_uris":{"android":"levelo://app?vid=7f69ea73-8aff-462b-a819-a0809de4b8a2","ios":"levelo://app?vid=7f69ea73-8aff-462b-a819-a0809de4b8a2"},"vehicle_type_id":"4","last_reported":1774027681,"current_range_meters":8800,"station_id":"ce4bgs12rcd13ifvqcag","pricing_plan_id":"cebpf4jnsgd1na2vs0mg"},{"bike_id":"fb8f42b9-5ffe-4c8d-9a33-fe70b9f9ea02","system_id":"levelo_inurba_marseille","lat":43.28619,"lon":5.35112,"is_reserved":false,"is_disabled":false,"rental_uris":{"android":"levelo://app?vid=fb8f42b9-5ffe-4c8d-9a33-fe70b9f9ea02","ios":"levelo://app?vid=fb8f42b9-5ffe-4c8d-9a33-fe70b9f9ea02"},"vehicle_type_id":"4","last_reported":1774027681,"current_range_meters":8800,"station_id":"ce4bhch2rcd13ifvqeug","pricing_plan_id":"cebpf4jnsgd1na2vs0mg"},{"bike_id":"f09eeb52-179c-4a33-a797-49b0619b5e19","system_id":"levelo_inurba_marseille","lat":43.27379,"lon":5.36264,"is_reserved":false,"is_disabled":false,"rental_uris":{"android":"levelo://app?vid=f09eeb52-179c-4a33-a797-49b0619b5e19","ios":"levelo://app?vid=f09eeb52-179c-4a33-a797-49b0619b5e19"},"vehicle_type_id":"4","last_reported":1774027681,"current_range_meters":8800,"station_id":"ce4bhbh2rcd13ifvqeo0","pricing_plan_id":"cebpf4jnsgd1na2vs0mg"},{"bike_id":"8b1ca434-1bac-40e0-a905-303e63e0c8f3","system_id":"levelo_inurba_marseille","lat":43.23188,"lon":5.39987,"is_reserved":false,"is_disabled":false,"rental_uris":{"android":"levelo://app?vid=8b1ca434-1bac-40e0-a905-303e63e0c8f3","ios":"levelo://app?vid=8b1ca434-1bac-40e0-a905-303e63e0c8f3"},"vehicle_type_id":"4","last_reported":1774027681,"current_range_meters":8800,"station_id":"ce4bhn12rcd13ifvqgqg","pricing_plan_id":"cebpf4jnsgd1na2vs0mg"},{"bike_id":"364339c8-d3b1-4652-833c-409d9b2fd6c0","system_id":"levelo_inurba_marseille","lat":43.28002,"lon":5.40001,"is_reserved":false,"is_disabled":false,"rental_uris":{"android":"levelo://app?vid=364339c8-d3b1-4652-833c-409d9b2fd6c0","ios":"levelo://app?vid=364339c8-d3b1-4652-833c-409d9b2fd6c0"},"vehicle_type_id":"4","last_reported":1774027681,"current_range_meters":8800,"station_id":"ce4bho92rcd13ifvqh4g","pricing_plan_id":"cebpf4jnsgd1na2vs0mg"},{"bike_id":"d00ce6b1-d263-4644-9ac8-801c3d34ac19","system_id":"levelo_inurba_marseille","lat":43.22537,"lon":5.41688,"is_reserved":false,"is_disabled":false,"rental_uris":{"android":"levelo://app?vid=d00ce6b1-d263-4644-9ac8-801c3d34ac19","ios":"levelo://app?vid=d00ce6b1-d263-4644-9ac8-801c3d34ac19"},"vehicle_type_id":"4","last_reported":1774027681,"current_range_meters":8800,"station_id":"","pricing_plan_id":"cebpf4jnsgd1na2vs0mg"},{"bike_id":"f3414e99-2d7c-4b03-96db-df8c1c6d3f2b","system_id":"levelo_inurba_marseille","lat":43.28476,"lon":5.48399,"is_reserved":false,"is_disabled":false,"rental_uris":{"android":"levelo://app?vid=f3414e99-2d7c-4b03-96db-df8c1c6d3f2b","ios":"levelo://app?vid=f3414e99-2d7c-4b03-96db-df8c1c6d3f2b"},"vehicle_type_id":"4","last_reported":1774027681,"current_range_meters":8800,"station_id":"","pricing_plan_id":"cebpf4jnsgd1na2vs0mg"},{"bike_id":"ab77a418-345e-453b-bca3-3815a5ee3842","system_id":"levelo_inurba_marseille","lat":43.23212,"lon":5.35574,"is_reserved":false,"is_disabled":false,"rental_uris":{"android":"levelo://app?vid=ab77a418-345e-453b-bca3-3815a5ee3842","ios":"levelo://app?vid=ab77a418-345e-453b-bca3-3815a5ee3842"},"vehicle_type_id":"4","last_reported":1774027681,"current_range_meters":8800,"station_id":"ce4bhu92rcd13ifvqi70","pricing_plan_id":"cebpf4jnsgd1na2vs0mg"},{"bike_id":"f5805e83-87ed-4157-aa55-f5487b79b7bb","system_id":"levelo_inurba_marseille","lat":43.24683,"lon":5.38198,"is_reserved":false,"is_disabled":false,"rental_uris":{"android":"levelo://app?vid=f5805e83-87ed-4157-aa55-f5487b79b7bb","ios":"levelo://app?vid=f5805e83-87ed-4157-aa55-f5487b79b7bb"},"vehicle_type_id":"4","last_reported":1774027681,"current_range_meters":8800,"station_id":"ce4bhih2rcd13ifvqfr0","pricing_plan_id":"cebpf4jnsgd1na2vs0mg"},{"bike_id":"bfa999de-7a32-454a-b31e-f99ace51a3fc","system_id":"levelo_inurba_marseille","lat":43.28484,"lon":5.48396,"is_reserved":false,"is_disabled":false,"rental_uris":{"android":"levelo://app?vid=bfa999de-7a32-454a-b31e-f99ace51a3fc","ios":"levelo://app?vid=bfa999de-7a32-454a-b31e-f99ace51a3fc"},"vehicle_type_id":"4","last_reported":1774027681,"current_range_meters":8800,"station_id":"","pricing_plan_id":"cebpf4jnsgd1na2vs0mg"},{"bike_id":"b3b3bb0b-fb2d-4490-a557-6f80b344e03f","system_id":"levelo_inurba_marseille","lat":43.28937,"lon":5.39627,"is_reserved":false,"is_disabled":true,"rental_uris":{"android":"levelo://app?vid=b3b3bb0b-fb2d-4490-a557-6f80b344e03f","ios":"levelo://app?vid=b3b3bb0b-fb2d-4490-a557-6f80b344e03f"},"vehicle_type_id":"4","last_reported":1774027681,"current_range_meters":8800,"station_id":"ce4bh3h2rcd13ifvqdn0","pricing_plan_id":"cebpf4jnsgd1na2vs0mg"},{"bike_id":"f80242bd-cda9-4de1-a643-4d63093f953c","system_id":"levelo_inurba_marseille","lat":43.29745,"lon":5.42781,"is_reserved":false,"is_disabled":false,"rental_uris":{"android":"levelo://app?vid=f80242bd-cda9-4de1-a643-4d63093f953c","ios":"levelo://app?vid=f80242bd-cda9-4de1-a643-4d63093f953c"},"vehicle_type_id":"4","last_reported":1774027681,"current_range_meters":8800,"station_id":"st_d3md5207bmas73dh9klg","pricing_plan_id":"cebpf4jnsgd1na2vs0mg"},{"bike_id":"15fb4bb8-4c0f-4ee3-a727-89e0f28d0a52","system_id":"levelo_inurba_marseille","lat":43.23779,"lon":5.36624,"is_reserved":false,"is_disabled":false,"rental_uris":{"android":"levelo://app?vid=15fb4bb8-4c0f-4ee3-a727-89e0f28d0a52","ios":"levelo://app?vid=15fb4bb8-4c0f-4ee3-a727-89e0f28d0a52"},"vehicle_type_id":"4","last_reported":1774027681,"current_range_meters":8800,"station_id":"st_d3nk18o9ro0c73en2l3g","pricing_plan_id":"cebpf4jnsgd1na2vs0mg"},{"bike_id":"ffee91b4-e1f4-4cfe-bfbf-9ca7434cffe2","system_id":"levelo_inurba_marseille","lat":43.2741,"lon":5.39355,"is_reserved":false,"is_disabled":true,"rental_uris":{"android":"levelo://app?vid=ffee91b4-e1f4-4cfe-bfbf-9ca7434cffe2","ios":"levelo://app?vid=ffee91b4-e1f4-4cfe-bfbf-9ca7434cffe2"},"vehicle_type_id":"4","last_reported":1774027681,"current_range_meters":8800,"station_id":"ce4bhdp2rcd13ifvqf20","pricing_plan_id":"cebpf4jnsgd1na2vs0mg"},{"bike_id":"36fc4989-377f-4fc1-8783-343f1b4763e8","system_id":"levelo_inurba_marseille","lat":43.28113,"lon":5.37835,"is_reserved":false,"is_disabled":false,"rental_uris":{"android":"levelo://app?vid=36fc4989-377f-4fc1-8783-343f1b4763e8","ios":"levelo://app?vid=36fc4989-377f-4fc1-8783-343f1b4763e8"},"vehicle_type_id":"4","last_reported":1774027681,"current_range_meters":8800,"station_id":"ce4bha12rcd13ifvqee0","pricing_plan_id":"cebpf4jnsgd1na2vs0mg"},{"bike_id":"23fa8ef9-5d55-4dc1-9b24-ded2b871eda2","system_id":"levelo_inurba_marseille","lat":43.24039,"lon":5.377,"is_reserved":false,"is_disabled":false,"rental_uris":{"android":"levelo://app?vid=23fa8ef9-5d55-4dc1-9b24-ded2b871eda2","ios":"levelo://app?vid=23fa8ef9-5d55-4dc1-9b24-ded2b871eda2"},"vehicle_type_id":"4","last_reported":1774027681,"current_range_meters":8800,"station_id":"ce4bhnp2rcd13ifvqgvg","pricing_plan_id":"cebpf4jnsgd1na2vs0mg"},{"bike_id":"485d18ea-0249-4635-98bb-8652152de738","system_id":"levelo_inurba_marseille","lat":43.23787,"lon":5.36631,"is_reserved":false,"is_disabled":false,"rental_uris":{"android":"levelo://app?vid=485d18ea-0249-4635-98bb-8652152de738","ios":"levelo://app?vid=485d18ea-0249-4635-98bb-8652152de738"},"vehicle_type_id":"4","last_reported":1774027681,"current_range_meters":8800,"station_id":"st_d3nk18o9ro0c73en2l3g","pricing_plan_id":"cebpf4jnsgd1na2vs0mg"},{"bike_id":"c7ca3395-61a6-424a-8b4e-14bb7ddfa33a","system_id":"levelo_inurba_marseille","lat":43.30118,"lon":5.38833,"is_reserved":false,"is_disabled":true,"rental_uris":{"android":"levelo://app?vid=c7ca3395-61a6-424a-8b4e-14bb7ddfa33a","ios":"levelo://app?vid=c7ca3395-61a6-424a-8b4e-14bb7ddfa33a"},"vehicle_type_id":"4","last_reported":1774027681,"current_range_meters":8800,"station_id":"ce4bghh2rcd13ifvqb60","pricing_plan_id":"cebpf4jnsgd1na2vs0mg"},{"bike_id":"fa225d4c-b481-4eae-a4d6-4234063591e0","system_id":"levelo_inurba_marseille","lat":43.21205,"lon":5.35096,"is_reserved":false,"is_disabled":false,"rental_uris":{"android":"levelo://app?vid=fa225d4c-b481-4eae-a4d6-4234063591e0","ios":"levelo://app?vid=fa225d4c-b481-4eae-a4d6-4234063591e0"},"vehicle_type_id":"4","last_reported":1774027681,"current_range_meters":8800,"station_id":"st_cvj6sg6p6f1abm77japg","pricing_plan_id":"cebpf4jnsgd1na2vs0mg"},{"bike_id":"38f83e12-5fda-4603-befb-df571f36d446","system_id":"levelo_inurba_marseille","lat":43.24799,"lon":5.37461,"is_reserved":false,"is_disabled":false,"rental_uris":{"android":"levelo://app?vid=38f83e12-5fda-4603-befb-df571f36d446","ios":"levelo://app?vid=38f83e12-5fda-4603-befb-df571f36d446"},"vehicle_type_id":"4","last_reported":1774027681,"current_range_meters":8800,"station_id":"ce4bhgh2rcd13ifvqfb0","pricing_plan_id":"cebpf4jnsgd1na2vs0mg"},{"bike_id":"24fdaff9-83ce-4309-aff7-02830fda3b68","system_id":"levelo_inurba_marseille","lat":43.24654,"lon":5.38164,"is_reserved":false,"is_disabled":false,"rental_uris":{"android":"levelo://app?vid=24fdaff9-83ce-4309-aff7-02830fda3b68","ios":"levelo://app?vid=24fdaff9-83ce-4309-aff7-02830fda3b68"},"vehicle_type_id":"4","last_reported":1774027681,"current_range_meters":8800,"station_id":"ce4bhih2rcd13ifvqfr0","pricing_plan_id":"cebpf4jnsgd1na2vs0mg"},{"bike_id":"43b8509d-5cd5-4ad4-a78e-ac1ca30810cf","system_id":"levelo_inurba_marseille","lat":43.27373,"lon":5.36276,"is_reserved":false,"is_disabled":false,"rental_uris":{"android":"levelo://app?vid=43b8509d-5cd5-4ad4-a78e-ac1ca30810cf","ios":"levelo://app?vid=43b8509d-5cd5-4ad4-a78e-ac1ca30810cf"},"vehicle_type_id":"4","last_reported":1774027681,"current_range_meters":9200,"station_id":"ce4bhbh2rcd13ifvqeo0","pricing_plan_id":"cebpf4jnsgd1na2vs0mg"},{"bike_id":"db6f4cc0-8860-4ee9-91d4-e608e9d8f5e7","system_id":"levelo_inurba_marseille","lat":43.32347,"lon":5.38885,"is_reserved":false,"is_disabled":false,"rental_uris":{"android":"levelo://app?vid=db6f4cc0-8860-4ee9-91d4-e608e9d8f5e7","ios":"levelo://app?vid=db6f4cc0-8860-4ee9-91d4-e608e9d8f5e7"},"vehicle_type_id":"4","last_reported":1774027681,"current_range_meters":9200,"station_id":"ce4bhqp2rcd13ifvqhog","pricing_plan_id":"cebpf4jnsgd1na2vs0mg"},