{"last_updated":1700665667,"ttl":30,"version":"2.2","data":{"bikes":[{"bike_id":"e39ff721-fcdc-4ca2-85d5-e0c00362456e","system_id":"levelo_inurba_marseille","lat":43.31351,"lon":5.367132,"is_reserved":false,"is_disabled":false,"rental_uris":{"android":"levelo://app?vid=e39ff721-fcdc-4ca2-85d5-e0c00362456e","ios":"levelo://app?vid=e39ff721-fcdc-4ca2-85d5-e0c00362456e"},"vehicle_type_id":"4","last_reported":1700665667,"current_range_meters":24800,"station_id":"ce4bgr92rcd13ifvqc6g","pricing_plan_id":"free"},{"bike_id":"3ed95cf9-91c6-4120-b3f4-13c943ca18b3","system_id":"levelo_inurba_marseille","lat":43.313522,"lon":5.367117,"is_reserved":false,"is_disabled":false,"rental_uris":{"android":"levelo://app?vid=3ed95cf9-91c6-4120-b3f4-13c943ca18b3","ios":"levelo://app?vid=3ed95cf9-91c6-4120-b3f4-13c943ca18b3"},"vehicle_type_id":"4","last_reported":1700665667,"current_range_meters":31200,"station_id":"ce4bgr92rcd13ifvqc6g","pricing_plan_id":"free"},{"bike_id":"a29125bf-2348-4167-bfec-ffb53a18c2b5","system_id":"levelo_inurba_marseille","lat":43.312239,"lon":5.368562,"is_reserved":false,"is_disabled":false,"rental_uris":{"android":"levelo://app?vid=a29125bf-2348-4167-bfec-ffb53a18c2b5","ios":"levelo://app?vid=a29125bf-2348-4167-bfec-ffb53a18c2b5"},"vehicle_type_id":"4","last_reported":1700665667,"current_range_meters":12800,"station_id":"ce4bgl92rcd13ifvqbq0","pricing_plan_id":"free"},{"bike_id":"526609d7-f7a2-433f-a683-2fe9efa2e19b","system_id":"levelo_inurba_marseille","lat":43.312239,"lon":5.368562,"is_reserved":false,"is_disabled":false,"rental_uris":{"android":"levelo://app?vid=526609d7-f7a2-433f-a683-2fe9efa2e19b","ios":"levelo://app?vid=526609d7-f7a2-433f-a683-2fe9efa2e19b"},"vehicle_type_id":"4","last_reported":1700665667,"current_range_meters":9600,"station_id":"ce4bgl92rcd13ifvqbq0","pricing_plan_id":"free"},{"bike_id":"eeef4dbc-7602-4f26-b2c1-c3771c9b5dae","system_id":"levelo_inurba_marseille","lat":43.31159,"lon":5.36883,"is_reserved":false,"is_disabled":false,"rental_uris":{"android":"levelo://app?vid=eeef4dbc-7602-4f26-b2c1-c3771c9b5dae","ios":"levelo://app?vid=eeef4dbc-7602-4f26-b2c1-c3771c9b5dae"},"vehicle_type_id":"4","last_reported":1700665667,"current_range_meters":0,"station_id":"","pricing_plan_id":"free"},{"bike_id":"56f8440c-9ccd-497b-94b9-300e0bf6ab3c","system_id":"levelo_inurba_marseille","lat":43.314811,"lon":5.373104,"is_reserved":false,"is_disabled":false,"rental_uris":{"android":"levelo://app?vid=56f8440c-9ccd-497b-94b9-300e0bf6ab3c","ios":"levelo://app?vid=56f8440c-9ccd-497b-94b9-300e0bf6ab3c"},"vehicle_type_id":"4","last_reported":1700665667,"current_range_meters":25200,"station_id":"ce4bgt12rcd13ifvqcd0","pricing_plan_id":"free"},{"bike_id":"e17e91a4-9b20-4116-9f1f-19c1a6c06c32","system_id":"levelo_inurba_marseille","lat":43.314811,"lon":5.373104,"is_reserved":false,"is_disabled":false,"rental_uris":{"android":"levelo://app?vid=e17e91a4-9b20-4116-9f1f-19c1a6c06c32","ios":"levelo://app?vid=e17e91a4-9b20-4116-9f1f-19c1a6c06c32"},"vehicle_type_id":"4","last_reported":1700665667,"current_range_meters":1200,"station_id":"ce4bgt12rcd13ifvqcd0","pricing_plan_id":"free"},{"bike_id":"60de9052-40f3-493f-8d5f-1556c1d002df","system_id":"levelo_inurba_marseille","lat":43.31499,"lon":5.37311,"is_reserved":false,"is_disabled":false,"rental_uris":{"android":"levelo://app?vid=60de9052-40f3-493f-8d5f-1556c1d002df","ios":"levelo://app?vid=60de9052-40f3-493f-8d5f-1556c1d002df"},"vehicle_type_id":"4","last_reported":1700665667,"current_range_meters":28400,"station_id":"ce4bgt12rcd13ifvqcd0","pricing_plan_id":"free"},{"bike_id":"2bc311dc-da0b-403e-8cae-84f8764bc67c","system_id":"levelo_inurba_marseille","lat":43.30679,"lon":5.3679,"is_reserved":false,"is_disabled":false,"rental_uris":{"android":"levelo://app?vid=2bc311dc-da0b-403e-8cae-84f8764bc67c","ios":"levelo://app?vid=2bc311dc-da0b-403e-8cae-84f8764bc67c"},"vehicle_type_id":"4","last_reported":1700665667,"current_range_meters":0,"station_id":"","pricing_plan_id":"free"},{"bike_id":"95583d67-b9fc-4ff1-93fd-5e2fbf3996b7","system_id":"levelo_inurba_marseille","lat":43.31961,"lon":5.3706,"is_reserved":false,"is_disabled":false,"rental_uris":{"android":"levelo://app?vid=95583d67-b9fc-4ff1-93fd-5e2fbf3996b7","ios":"levelo://app?vid=95583d67-b9fc-4ff1-93fd-5e2fbf3996b7"},"vehicle_type_id":"4","last_reported":1700665667,"current_range_meters":0,"station_id":"","pricing_plan_id":"free"},{"bike_id":"8c4d2160-240a-47d3-928a-56e9092f08bd","system_id":"levelo_inurba_marseille","lat":43.30525,"lon":5.36583,"is_reserved":false,"is_disabled":false,"rental_uris":{"android":"levelo://app?vid=8c4d2160-240a-47d3-928a-56e9092f08bd","ios":"levelo://app?vid=8c4d2160-240a-47d3-928a-56e9092f08bd"},"vehicle_type_id":"4","last_reported":1700665667,"current_range_meters":6000,"station_id":"","pricing_plan_id":"free"},{"bike_id":"e34271e9-ecdf-4416-ad0d-bca32c795356","system_id":"levelo_inurba_marseille","lat":43.305706,"lon":5.365654,"is_reserved":false,"is_disabled":false,"rental_uris":{"android":"levelo://app?vid=e34271e9-ecdf-4416-ad0d-bca32c795356","ios":"levelo://app?vid=e34271e9-ecdf-4416-ad0d-bca32c795356"},"vehicle_type_id":"4","last_reported":1700665667,"current_range_meters":8400,"station_id":"ce4bgs12rcd13ifvqcag","pricing_plan_id":"free"},{"bike_id":"a958f64c-645d-4860-b1f4-90dec55fbab9","system_id":"levelo_inurba_marseille","lat":43.311125,"lon":5.377624,"is_reserved":false,"is_disabled":false,"rental_uris":{"android":"levelo://app?vid=a958f64c-645d-4860-b1f4-90dec55fbab9","ios":"levelo://app?vid=a958f64c-645d-4860-b1f4-90dec55fbab9"},"vehicle_type_id":"4","last_reported":1700665667,"current_range_meters":28400,"station_id":"ce4bgt92rcd13ifvqcg0","pricing_plan_id":"free"},{"bike_id":"273825e6-9624-4421-aadb-ec58c872956d","system_id":"levelo_inurba_marseille","lat":43.307945,"lon":5.376487,"is_reserved":false,"is_disabled":false,"rental_uris":{"android":"levelo://app?vid=273825e6-9624-4421-aadb-ec58c872956d","ios":"levelo://app?vid=273825e6-9624-4421-aadb-ec58c872956d"},"vehicle_type_id":"4","last_reported":1700665667,"current_range_meters":29200,"station_id":"ce4bgv92rcd13ifvqcq0","pricing_plan_id":"free"},{"bike_id":"9cd2e327-dd16-4565-a35b-b1d899c0f880","system_id":"levelo_inurba_marseille","lat":43.307945,"lon":5.376487,"is_reserved":false,"is_disabled":false,"rental_uris":{"android":"levelo://app?vid=9cd2e327-dd16-4565-a35b-b1d899c0f880","ios":"levelo://app?vid=9cd2e327-dd16-4565-a35b-b1d899c0f880"},"vehicle_type_id":"4","last_reported":1700665667,"current_range_meters":22000,"station_id":"ce4bgv92rcd13ifvqcq0","pricing_plan_id":"free"},{"bike_id":"51b0c979-18cb-4f54-875c-87272bea9603","system_id":"levelo_inurba_marseille","lat":43.317075,"lon":5.377367,"is_reserved":false,"is_disabled":false,"rental_uris":{"android":"levelo://app?vid=51b0c979-18cb-4f54-875c-87272bea9603","ios":"levelo://app?vid=51b0c979-18cb-4f54-875c-87272bea9603"},"vehicle_type_id":"4","last_reported":1700665667,"current_range_meters":18000,"station_id":"ce4bgth2rcd13ifvqch0","pricing_plan_id":"free"},{"bike_id":"e09d0bd4-96ac-44ba-96a7-8298f55b5927","system_id":"levelo_inurba_marseille","lat":43.31072,"lon":5.37879,"is_reserved":false,"is_disabled":false,"rental_uris":{"android":"levelo://app?vid=e09d0bd4-96ac-44ba-96a7-8298f55b5927","ios":"levelo://app?vid=e09d0bd4-96ac-44ba-96a7-8298f55b5927"},"vehicle_type_id":"4","last_reported":1700665667,"current_range_meters":20400,"station_id":"","pricing_plan_id":"free"},{"bike_id":"a01947ce-d3f1-4178-a24b-0cddef23cdbe","system_id":"levelo_inurba_marseille","lat":43.30318,"lon":5.36632,"is_reserved":false,"is_disabled":false,"rental_uris":{"android":"levelo://app?vid=a01947ce-d3f1-4178-a24b-0cddef23cdbe","ios":"levelo://app?vid=a01947ce-d3f1-4178-a24b-0cddef23cdbe"},"vehicle_type_id":"4","last_reported":1700665667,"current_range_meters":0,"station_id":"","pricing_plan_id":"free"},{"bike_id":"a5400413-db9a-43cb-aeb0-e476734d171a","system_id":"levelo_inurba_marseille","lat":43.30315,"lon":5.3692,"is_reserved":false,"is_disabled":false,"rental_uris":{"android":"levelo://app?vid=a5400413-db9a-43cb-aeb0-e476734d171a","ios":"levelo://app?vid=a5400413-db9a-43cb-aeb0-e476734d171a"},"vehicle_type_id":"4","last_reported":1700665667,"current_range_meters":31200,"station_id":"ce4bgqh2rcd13ifvqc5g","pricing_plan_id":"free"},{"bike_id":"e6f93554-bf2d-4912-873f-b5eb00e17d9c","system_id":"levelo_inurba_marseille","lat":43.301939,"lon":5.366286,"is_reserved":false,"is_disabled":false,"rental_uris":{"android":"levelo://app?vid=e6f93554-bf2d-4912-873f-b5eb00e17d9c","ios":"levelo://app?vid=e6f93554-bf2d-4912-873f-b5eb00e17d9c"},"vehicle_type_id":"4","last_reported":1700665667,"current_range_meters":29600,"station_id":"ce4bgrh2rcd13ifvqc8g","pricing_plan_id":"free"},{"bike_id":"5b61b723-c740-485d-8f2b-3fe7dda1c175","system_id":"levelo_inurba_marseille","lat":43.30823,"lon":5.38142,"is_reserved":false,"is_disabled":false,"rental_uris":{"android":"levelo://app?vid=5b61b723-c740-485d-8f2b-3fe7dda1c175","ios":"levelo://app?vid=5b61b723-c740-485d-8f2b-3fe7dda1c175"},"vehicle_type_id":"4","last_reported":1700665667,"current_range_meters":3600,"station_id":"","pricing_plan_id":"free"},{"bike_id":"0327687b-f51e-4077-bf49-2ec73a6de092","system_id":"levelo_inurba_marseille","lat":43.32233,"lon":5.37561,"is_reserved":false,"is_disabled":false,"rental_uris":{"android":"levelo://app?vid=0327687b-f51e-4077-bf49-2ec73a6de092","ios":"levelo://app?vid=0327687b-f51e-4077-bf49-2ec73a6de092"},"vehicle_type_id":"4","last_reported":1700665667,"current_range_meters":16000,"station_id":"","pricing_plan_id":"free"},{"bike_id":"c9a43a87-4d67-4fef-a7da-eab0efd6b916","system_id":"levelo_inurba_marseille","lat":43.3224,"lon":5.37587,"is_reserved":false,"is_disabled":false,"rental_uris":{"android":"levelo://app?vid=c9a43a87-4d67-4fef-a7da-eab0efd6b916","ios":"levelo://app?vid=c9a43a87-4d67-4fef-a7da-eab0efd6b916"},"vehicle_type_id":"4","last_reported":1700665667,"current_range_meters":21200,"station_id":"","pricing_plan_id":"free"},{"bike_id":"a037806c-504f-410e-8380-5102d23eea79","system_id":"levelo_inurba_marseille","lat":43.324771,"lon":5.36557,"is_reserved":false,"is_disabled":false,"rental_uris":{"android":"levelo://app?vid=a037806c-504f-410e-8380-5102d23eea79","ios":"levelo://app?vid=a037806c-504f-410e-8380-5102d23eea79"},"vehicle_type_id":"4","last_reported":1700665667,"current_range_meters":26000,"station_id":"ce4bhs12rcd13ifvqhvg","pricing_plan_id":"free"},{"bike_id":"afa921fc-ca50-4532-aeb1-1de14ee2fe50","system_id":"levelo_inurba_marseille","lat":43.324809,"lon":5.365578,"is_reserved":false,"is_disabled":false,"rental_uris":{"android":"levelo://app?vid=afa921fc-ca50-4532-aeb1-1de14ee2fe50","ios":"levelo://app?vid=afa921fc-ca50-4532-aeb1-1de14ee2fe50"},"vehicle_type_id":"4","last_reported":1700665667,"current_range_meters":20800,"station_id":"ce4bhs12rcd13ifvqhvg","pricing_plan_id":"free"},{"bike_id":"72470ed4-2cac-43ad-8ffc-e4aeba415c24","system_id":"levelo_inurba_marseille","lat":43.30143,"lon":5.37413,"is_reserved":false,"is_disabled":false,"rental_uris":{"android":"levelo://app?vid=72470ed4-2cac-43ad-8ffc-e4aeba415c24","ios":"levelo://app?vid=72470ed4-2cac-43ad-8ffc-e4aeba415c24"},"vehicle_type_id":"4","last_reported":1700665667,"current_range_meters":0,"station_id":"ce4bgs92rcd13ifvqcc0","pricing_plan_id":"free"},{"bike_id":"e2b7ada1-a22c-4317-8b3f-aa474fa5d790","system_id":"levelo_inurba_marseille","lat":43.30313,"lon":5.37916,"is_reserved":false,"is_disabled":false,"rental_uris":{"android":"levelo://app?vid=e2b7ada1-a22c-4317-8b3f-aa474fa5d790","ios":"levelo://app?vid=e2b7ada1-a22c-4317-8b3f-aa474fa5d790"},"vehicle_type_id":"4","last_reported":1700665667,"current_range_meters":26400,"station_id":"","pricing_plan_id":"free"},{"bike_id":"0721e1cd-e9a6-421b-ba18-3a82da34cdcd","system_id":"levelo_inurba_marseille","lat":43.313571,"lon":5.384829,"is_reserved":false,"is_disabled":false,"rental_uris":{"android":"levelo://app?vid=0721e1cd-e9a6-421b-ba18-3a82da34cdcd","ios":"levelo://app?vid=0721e1cd-e9a6-421b-ba18-3a82da34cdcd"},"vehicle_type_id":"4","last_reported":1700665667,"current_range_meters":26800,"station_id":"ce4bgt92rcd13ifvqcf0","pricing_plan_id":"free"},{"bike_id":"e93bd933-400d-4aaf-8b10-c9a0ef9e2dd1","system_id":"levelo_inurba_marseille","lat":43.299818,"lon":5.371784,"is_reserved":false,"is_disabled":false,"rental_uris":{"android":"levelo://app?vid=e93bd933-400d-4aaf-8b10-c9a0ef9e2dd1","ios":"levelo://app?vid=e93bd933-400d-4aaf-8b10-c9a0ef9e2dd1"},"vehicle_type_id":"4","last_reported":1700665667,"current_range_meters":28800,"station_id":"ce4bgr92rcd13ifvqc7g","pricing_plan_id":"free"},{"bike_id":"e47119e7-de47-4637-95a1-ba6e08bd3bcf","system_id":"levelo_inurba_marseille","lat":43.29977,"lon":5.37184,"is_reserved":false,"is_disabled":false,"rental_uris":{"android":"levelo://app?vid=e47119e7-de47-4637-95a1-ba6e08bd3bcf","ios":"levelo://app?vid=e47119e7-de47-4637-95a1-ba6e08bd3bcf"},"vehicle_type_id":"4","last_reported":1700665667,"current_range_meters":16400,"station_id":"ce4bgr92rcd13ifvqc7g","pricing_plan_id":"free"},{"bike_id":"88b65d00-22fc-41b2-a4ca-c91c9ac9fc03","system_id":"levelo_inurba_marseille","lat":43.299222,"lon":5.365554,"is_reserved":false,"is_disabled":false,"rental_uris":{"android":"levelo://app?vid=88b65d00-22fc-41b2-a4ca-c91c9ac9fc03","ios":"levelo://app?vid=88b65d00-22fc-41b2-a4ca-c91c9ac9fc03"},"vehicle_type_id":"4","last_reported":1700665667,"current_range_meters":4400,"station_id":"ce4bgm92rcd13ifvqbr0","pricing_plan_id":"free"},{"bike_id":"840e727b-6cbe-4e9c-814e-82fca04c9d92","system_id":"levelo_inurba_marseille","lat":43.299177,"lon":5.365497,"is_reserved":false,"is_disabled":false,"rental_uris":{"android":"levelo://app?vid=840e727b-6cbe-4e9c-814e-82fca04c9d92","ios":"levelo://app?vid=840e727b-6cbe-4e9c-814e-82fca04c9d92"},"vehicle_type_id":"4","last_reported":1700665667,"current_range_meters":0,"station_id":"","pricing_plan_id":"free"},{"bike_id":"97542179-68cc-427b-a253-d386d88a1d61","system_id":"levelo_inurba_marseille","lat":43.30066,"lon":5.37556,"is_reserved":false,"is_disabled":false,"rental_uris":{"android":"levelo://app?vid=97542179-68cc-427b-a253-d386d88a1d61","ios":"levelo://app?vid=97542179-68cc-427b-a253-d386d88a1d61"},"vehicle_type_id":"4","last_reported":1700665667,"current_range_meters":11200,"station_id":"","pricing_plan_id":"free"},{"bike_id":"f5830b26-2942-4f2b-9d99-9e978737ec86","system_id":"levelo_inurba_marseille","lat":43.311722,"lon":5.387247,"is_reserved":false,"is_disabled":false,"rental_uris":{"android":"levelo://app?vid=f5830b26-2942-4f2b-9d99-9e978737ec86","ios":"levelo://app?vid=f5830b26-2942-4f2b-9d99-9e978737ec86"},"vehicle_type_id":"4","last_reported":1700665667,"current_range_meters":2000,"station_id":"ce4bgv12rcd13ifvqcp0","pricing_plan_id":"free"},{"bike_id":"638fc49f-3165-4ff7-ab7c-3b9cb60db175","system_id":"levelo_inurba_marseille","lat":43.29914,"lon":5.37494,"is_reserved":false,"is_disabled":false,"rental_uris":{"android":"levelo://app?vid=638fc49f-3165-4ff7-ab7c-3b9cb60db175","ios":"levelo://app?vid=638fc49f-3165-4ff7-ab7c-3b9cb60db175"},"vehicle_type_id":"4","last_reported":1700665667,"current_range_meters":5600,"station_id":"ce4bgjh2rcd13ifvqbg0","pricing_plan_id":"free"},{"bike_id":"913b2869-95df-4ca3-937f-436fb3649d7b","system_id":"levelo_inurba_marseille","lat":43.29785,"lon":5.37096,"is_reserved":false,"is_disabled":false,"rental_uris":{"android":"levelo://app?vid=913b2869-95df-4ca3-937f-436fb3649d7b","ios":"levelo://app?vid=913b2869-95df-4ca3-937f-436fb3649d7b"},"vehicle_type_id":"4","last_reported":1700665667,"current_range_meters":3600,"station_id":"","pricing_plan_id":"free"},{"bike_id":"4782759a-a81f-4de6-ac62-b6640fbc5935","system_id":"levelo_inurba_marseille","lat":43.322872,"lon":5.382756,"is_reserved":false,"is_disabled":false,"rental_uris":{"android":"levelo://app?vid=4782759a-a81f-4de6-ac62-b6640fbc5935","ios":"levelo://app?vid=4782759a-a81f-4de6-ac62-b6640fbc5935"},"vehicle_type_id":"4","last_reported":1700665667,"current_range_meters":26800,"station_id":"ce4bhr12rcd13ifvqhqg","pricing_plan_id":"free"},{"bike_id":"92e10922-a430-4783-af90-54913b915e80","system_id":"levelo_inurba_marseille","lat":43.322872,"lon":5.382756,"is_reserved":false,"is_disabled":false,"rental_uris":{"android":"levelo://app?vid=92e10922-a430-4783-af90-54913b915e80","ios":"levelo://app?vid=92e10922-a430-4783-af90-54913b915e80"},"vehicle_type_id":"4","last_reported":1700665667,"current_range_meters":28400,"station_id":"ce4bhr12rcd13ifvqhqg","pricing_plan_id":"free"},{"bike_id":"48bba8a8-a2cd-4fe4-9444-4aacf9616d68","system_id":"levelo_inurba_marseille","lat":43.297163,"lon":5.365866,"is_reserved":false,"is_disabled":false,"rental_uris":{"android":"levelo://app?vid=48bba8a8-a2cd-4fe4-9444-4aacf9616d68","ios":"levelo://app?vid=48bba8a8-a2cd-4fe4-9444-4aacf9616d68"},"vehicle_type_id":"4","last_reported":1700665667,"current_range_meters":4800,"station_id":"ce4bgn12rcd13ifvqbt0","pricing_plan_id":"free"},{"bike_id":"4d7509f5-9559-42ca-a60d-bef9e80f0981","system_id":"levelo_inurba_marseille","lat":43.299594,"lon":5.379134,"is_reserved":false,"is_disabled":false,"rental_uris":{"android":"levelo://app?vid=4d7509f5-9559-42ca-a60d-bef9e80f0981","ios":"levelo://app?vid=4d7509f5-9559-42ca-a60d-bef9e80f0981"},"vehicle_type_id":"4","last_reported":1700665667,"current_range_meters":0,"station_id":"","pricing_plan_id":"free"},{"bike_id":"4713b0c3-75cc-4e18-b807-666574a923ea","system_id":"levelo_inurba_marseille","lat":43.2968,"lon":5.37291,"is_reserved":false,"is_disabled":false,"rental_uris":{"android":"levelo://app?vid=4713b0c3-75cc-4e18-b807-666574a923ea","ios":"levelo://app?vid=4713b0c3-75cc-4e18-b807-666574a923ea"},"vehicle_type_id":"4","last_reported":1700665667,"current_range_meters":26800,"station_id":"ce4bgk12rcd13ifvqbj0","pricing_plan_id":"free"},{"bike_id":"59491f20-7098-4d67-a529-7d51098f3abb","system_id":"levelo_inurba_marseille","lat":43.29573,"lon":5.367355,"is_reserved":false,"is_disabled":false,"rental_uris":{"android":"levelo://app?vid=59491f20-7098-4d67-a529-7d51098f3abb","ios":"levelo://app?vid=59491f20-7098-4d67-a529-7d51098f3abb"},"vehicle_type_id":"4","last_reported":1700665667,"current_range_meters":22800,"station_id":"ce4bgph2rcd13ifvqc2g","pricing_plan_id":"free"},{"bike_id":"b4b7c500-1874-4bd3-8dc6-e1fefd0ac12c","system_id":"levelo_inurba_marseille","lat":43.29728,"lon":5.37686,"is_reserved":false,"is_disabled":false,"rental_uris":{"android":"levelo://app?vid=b4b7c500-1874-4bd3-8dc6-e1fefd0ac12c","ios":"levelo://app?vid=b4b7c500-1874-4bd3-8dc6-e1fefd0ac12c"},"vehicle_type_id":"4","last_reported":1700665667,"current_range_meters":13600,"station_id":"ce4bgkh2rcd13ifvqbl0","pricing_plan_id":"free"},{"bike_id":"f2e29894-d678-42aa-87e5-1b70dec5c0b1","system_id":"levelo_inurba_marseille","lat":43.29609,"lon":5.36131,"is_reserved":false,"is_disabled":false,"rental_uris":{"android":"levelo://app?vid=f2e29894-d678-42aa-87e5-1b70dec5c0b1","ios":"levelo://app?vid=f2e29894-d678-42aa-87e5-1b70dec5c0b1"},"vehicle_type_id":"4","last_reported":1700665667,"current_range_meters":4000,"station_id":"","pricing_plan_id":"free"},{"bike_id":"63d61457-82ea-4fda-8e19-cf81a9d32e43","system_id":"levelo_inurba_marseille","lat":43.297165,"lon":5.377008,"is_reserved":false,"is_disabled":false,"rental_uris":{"android":"levelo://app?vid=63d61457-82ea-4fda-8e19-cf81a9d32e43","ios":"levelo://app?vid=63d61457-82ea-4fda-8e19-cf81a9d32e43"},"vehicle_type_id":"4","last_reported":1700665667,"current_range_meters":22800,"station_id":"","pricing_plan_id":"free"},{"bike_id":"4fd8aa55-635f-4c41-97c5-5281717cc2d6","system_id":"levelo_inurba_marseille","lat":43.30952,"lon":5.39034,"is_reserved":false,"is_disabled":false,"rental_uris":{"android":"levelo://app?vid=4fd8aa55-635f-4c41-97c5-5281717cc2d6","ios":"levelo://app?vid=4fd8aa55-635f-4c41-97c5-5281717cc2d6"},"vehicle_type_id":"4","last_reported":1700665667,"current_range_meters":1200,"station_id":"ce4bgup2rcd13ifvqco0","pricing_plan_id":"free"},{"bike_id":"9fb402a7-7a41-4473-81d2-1fec663a6035","system_id":"levelo_inurba_marseille","lat":43.305606,"lon":5.388664,"is_reserved":false,"is_disabled":false,"rental_uris":{"android":"levelo://app?vid=9fb402a7-7a41-4473-81d2-1fec663a6035","ios":"levelo://app?vid=9fb402a7-7a41-4473-81d2-1fec663a6035"},"vehicle_type_id":"4","last_reported":1700665667,"current_range_meters":24400,"station_id":"","pricing_plan_id":"free"},{"bike_id":"1cfe2e5f-0785-4653-a100-2f30bb10265a","system_id":"levelo_inurba_marseille","lat":43.309589,"lon":5.390258,"is_reserved":false,"is_disabled":false,"rental_uris":{"android":"levelo://app?vid=1cfe2e5f-0785-4653-a100-2f30bb10265a","ios":"levelo://app?vid=1cfe2e5f-0785-4653-a100-2f30bb10265a"},"vehicle_type_id":"4","last_reported":1700665667,"current_range_meters":7200,"station_id":"ce4bgup2rcd13ifvqco0","pricing_plan_id":"free"},{"bike_id":"e02bc3e3-3077-4894-b102-57108b675029","system_id":"levelo_inurba_marseille","lat":43.309589,"lon":5.390258,"is_reserved":false,"is_disabled":false,"rental_uris":{"android":"levelo://app?vid=e02bc3e3-3077-4894-b102-57108b675029","ios":"levelo://app?vid=e02bc3e3-3077-4894-b102-57108b675029"},"vehicle_type_id":"4","last_reported":1700665667,"current_range_meters":30000,"station_id":"ce4bgup2rcd13ifvqco0","pricing_plan_id":"free"},{"bike_id":"a7d15b85-8980-4da8-9336-cfce72a2f701","system_id":"levelo_inurba_marseille","lat":43.317557,"lon":5.390173,"is_reserved":false,"is_disabled":false,"rental_uris":{"android":"levelo://app?vid=a7d15b85-8980-4da8-9336-cfce72a2f701","ios":"levelo://app?vid=a7d15b85-8980-4da8-9336-cfce72a2f701"},"vehicle_type_id":"4","last_reported":1700665667,"current_range_meters":28400,"station_id":"ce4bhqp2rcd13ifvqhng","pricing_plan_id":"free"},{"bike_id":"8be6c9ea-0330-4bc9-8434-939f58e07f84","system_id":"levelo_inurba_marseille","lat":43.298037,"lon":5.381066,"is_reserved":false,"is_disabled":false,"rental_uris":{"android":"levelo://app?vid=8be6c9ea-0330-4bc9-8434-939f58e07f84","ios":"levelo://app?vid=8be6c9ea-0330-4bc9-8434-939f58e07f84"},"vehicle_type_id":"4","last_reported":1700665667,"current_range_meters":31200,"station_id":"ce4bgip2rcd13ifvqbb0","pricing_plan_id":"free"},{"bike_id":"3059d4c1-3d42-4321-a339-0fea9a03ef82","system_id":"levelo_inurba_marseille","lat":43.328154,"lon":5.380034,"is_reserved":false,"is_disabled":false,"rental_uris":{"android":"levelo://app?vid=3059d4c1-3d42-4321-a339-0fea9a03ef82","ios":"levelo://app?vid=3059d4c1-3d42-4321-a339-0fea9a03ef82"},"vehicle_type_id":"4","last_reported":1700665667,"current_range_meters":0,"station_id":"","pricing_plan_id":"free"},{"bike_id":"aedbec74-a91d-4b7a-8efe-1934cb4705ce","system_id":"levelo_inurba_marseille","lat":43.29568,"lon":5.37543,"is_reserved":false,"is_disabled":false,"rental_uris":{"android":"levelo://app?vid=aedbec74-a91d-4b7a-8efe-1934cb4705ce","ios":"levelo://app?vid=aedbec74-a91d-4b7a-8efe-1934cb4705ce"},"vehicle_type_id":"4","last_reported":1700665667,"current_range_meters":10000,"station_id":"ce4bgh92rcd13ifvqb50","pricing_plan_id":"free"},{"bike_id":"9c01c818-8273-433d-8368-6c8bfc7e8344","system_id":"levelo_inurba_marseille","lat":43.298037,"lon":5.381066,"is_reserved":false,"is_disabled":false,"rental_uris":{"android":"levelo://app?vid=9c01c818-8273-433d-8368-6c8bfc7e8344","ios":"levelo://app?vid=9c01c818-8273-433d-8368-6c8bfc7e8344"},"vehicle_type_id":"4","last_reported":1700665667,"current_range_meters":25200,"station_id":"ce4bgip2rcd13ifvqbb0","pricing_plan_id":"free"},{"bike_id":"dcfd27bf-98c7-4ba0-9c1d-7aa614f0b0c6","system_id":"levelo_inurba_marseille","lat":43.295279,"lon":5.375048,"is_reserved":false,"is_disabled":false,"rental_uris":{"android":"levelo://app?vid=dcfd27bf-98c7-4ba0-9c1d-7aa614f0b0c6","ios":"levelo://app?vid=dcfd27bf-98c7-4ba0-9c1d-7aa614f0b0c6"},"vehicle_type_id":"4","last_reported":1700665667,"current_range_meters":14800,"station_id":"ce4bgkp2rcd13ifvqbmg","pricing_plan_id":"free"},{"bike_id":"020122a8-5359-488f-a097-68039ef9bc9b","system_id":"levelo_inurba_marseille","lat":43.295298,"lon":5.375052,"is_reserved":false,"is_disabled":false,"rental_uris":{"android":"levelo://app?vid=020122a8-5359-488f-a097-68039ef9bc9b","ios":"levelo://app?vid=020122a8-5359-488f-a097-68039ef9bc9b"},"vehicle_type_id":"4","last_reported":1700665667,"current_range_meters":6800,"station_id":"ce4bgkp2rcd13ifvqbmg","pricing_plan_id":"free"},{"bike_id":"289ebad8-3a16-4c54-8685-256e15460e5d","system_id":"levelo_inurba_marseille","lat":43.295279,"lon":5.375048,"is_reserved":false,"is_disabled":false,"rental_uris":{"android":"levelo://app?vid=289ebad8-3a16-4c54-8685-256e15460e5d","ios":"levelo://app?vid=289ebad8-3a16-4c54-8685-256e15460e5d"},"vehicle_type_id":"4","last_reported":1700665667,"current_range_meters":26400,"station_id":"ce4bgkp2rcd13ifvqbmg","pricing_plan_id":"free"},{"bike_id":"33176287-9ce4-4317-964b-bc49f176b8b7","system_id":"levelo_inurba_marseille","lat":43.295279,"lon":5.375048,"is_reserved":false,"is_disabled":false,"rental_uris":{"android":"levelo://app?vid=33176287-9ce4-4317-964b-bc49f176b8b7","ios":"levelo://app?vid=33176287-9ce4-4317-964b-bc49f176b8b7"},"vehicle_type_id":"4","last_reported":1700665667,"current_range_meters":1200,"station_id":"ce4bgkp2rcd13ifvqbmg","pricing_plan_id":"free"},{"bike_id":"6b621983-5e9e-42f7-990d-ad5a093820d2","system_id":"levelo_inurba_marseille","lat":43.293801,"lon":5.363066,"is_reserved":false,"is_disabled":false,"rental_uris":{"android":"levelo://app?vid=6b621983-5e9e-42f7-990d-ad5a093820d2","ios":"levelo://app?vid=6b621983-5e9e-42f7-990d-ad5a093820d2"},"vehicle_type_id":"4","last_reported":1700665667,"current_range_meters":12000,"station_id":"","pricing_plan_id":"free"},{"bike_id":"2b9f52d4-572c-4224-b7f4-9d883019ce26","system_id":"levelo_inurba_marseille","lat":43.32367,"lon":5.388836,"is_reserved":false,"is_disabled":false,"rental_uris":{"android":"levelo://app?vid=2b9f52d4-572c-4224-b7f4-9d883019ce26","ios":"levelo://app?vid=2b9f52d4-572c-4224-b7f4-9d883019ce26"},"vehicle_type_id":"4","last_reported":1700665667,"current_range_meters":10800,"station_id":"ce4bhqp2rcd13ifvqhog","pricing_plan_id":"free"},{"bike_id":"d08f04bf-d1cb-49fb-9aa7-04e7f7676b3c","system_id":"levelo_inurba_marseille","lat":43.323405,"lon":5.389588,"is_reserved":false,"is_disabled":false,"rental_uris":{"android":"levelo://app?vid=d08f04bf-d1cb-49fb-9aa7-04e7f7676b3c","ios":"levelo://app?vid=d08f04bf-d1cb-49fb-9aa7-04e7f7676b3c"},"vehicle_type_id":"4","last_reported":1700665667,"current_range_meters":0,"station_id":"","pricing_plan_id":"free"},{"bike_id":"1c945fa2-1b16-49b0-9d1d-f4a6417b15bf","system_id":"levelo_inurba_marseille","lat":43.293259,"lon":5.371586,"is_reserved":false,"is_disabled":false,"rental_uris":{"android":"levelo://app?vid=1c945fa2-1b16-49b0-9d1d-f4a6417b15bf","ios":"levelo://app?vid=1c945fa2-1b16-49b0-9d1d-f4a6417b15bf"},"vehicle_type_id":"4","last_reported":1700665667,"current_range_meters":13600,"station_id":"ce4bgh92rcd13ifvqb40","pricing_plan_id":"free"},{"bike_id":"c6ca4523-81f9-437d-9102-f634a7cbc6d7","system_id":"levelo_inurba_marseille","lat":43.293259,"lon":5.371586,"is_reserved":false,"is_disabled":false,"rental_uris":{"android":"levelo://app?vid=c6ca4523-81f9-437d-9102-f634a7cbc6d7","ios":"levelo://app?vid=c6ca4523-81f9-437d-9102-f634a7cbc6d7"},"vehicle_type_id":"4","last_reported":1700665667,"current_range_meters":21600,"station_id":"ce4bgh92rcd13ifvqb40","pricing_plan_id":"free"},{"bike_id":"22e2e8b1-7b37-4ec5-a2b1-34d54407ffb7","system_id":"levelo_inurba_marseille","lat":43.292749,"lon":5.368402,"is_reserved":false,"is_disabled":false,"rental_uris":{"android":"levelo://app?vid=22e2e8b1-7b37-4ec5-a2b1-34d54407ffb7","ios":"levelo://app?vid=22e2e8b1-7b37-4ec5-a2b1-34d54407ffb7"},"vehicle_type_id":"4","last_reported":1700665667,"current_range_meters":17200,"station_id":"ce4bhbp2rcd13ifvqesg","pricing_plan_id":"free"},{"bike_id":"b9d714b4-4f03-4027-9c49-bcc861fb6b1a","system_id":"levelo_inurba_marseille","lat":43.293009,"lon":5.374584,"is_reserved":false,"is_disabled":false,"rental_uris":{"android":"levelo://app?vid=b9d714b4-4f03-4027-9c49-bcc861fb6b1a","ios":"levelo://app?vid=b9d714b4-4f03-4027-9c49-bcc861fb6b1a"},"vehicle_type_id":"4","last_reported":1700665667,"current_range_meters":0,"station_id":"ce4bgi12rcd13ifvqb70","pricing_plan_id":"free"},{"bike_id":"e2d8bce5-dca1-4303-9600-76873b4919ec","system_id":"levelo_inurba_marseille","lat":43.2936,"lon":5.37835,"is_reserved":false,"is_disabled":false,"rental_uris":{"android":"levelo://app?vid=e2d8bce5-dca1-4303-9600-76873b4919ec","ios":"levelo://app?vid=e2d8bce5-dca1-4303-9600-76873b4919ec"},"vehicle_type_id":"4","last_reported":1700665667,"current_range_meters":1600,"station_id":"ce4bgjh2rcd13ifvqbf0","pricing_plan_id":"free"},{"bike_id":"f371c439-86d8-453a-af27-87765a16ebf2","system_id":"levelo_inurba_marseille","lat":43.30093,"lon":5.39077,"is_reserved":false,"is_disabled":false,"rental_uris":{"android":"levelo://app?vid=f371c439-86d8-453a-af27-87765a16ebf2","ios":"levelo://app?vid=f371c439-86d8-453a-af27-87765a16ebf2"},"vehicle_type_id":"4","last_reported":1700665667,"current_range_meters":0,"station_id":"ce4bh192rcd13ifvqdb0","pricing_plan_id":"free"},{"bike_id":"55d1122a-47ac-4695-83c9-a7036796ce16","system_id":"levelo_inurba_marseille","lat":43.29867,"lon":5.38907,"is_reserved":false,"is_disabled":false,"rental_uris":{"android":"levelo://app?vid=55d1122a-47ac-4695-83c9-a7036796ce16","ios":"levelo://app?vid=55d1122a-47ac-4695-83c9-a7036796ce16"},"vehicle_type_id":"4","last_reported":1700665667,"current_range_meters":26400,"station_id":"ce4bh392rcd13ifvqdl0","pricing_plan_id":"free"},{"bike_id":"8865d0a3-802f-4181-afbf-1f6f0e6b2e54","system_id":"levelo_inurba_marseille","lat":43.29201,"lon":5.3579,"is_reserved":false,"is_disabled":false,"rental_uris":{"android":"levelo://app?vid=8865d0a3-802f-4181-afbf-1f6f0e6b2e54","ios":"levelo://app?vid=8865d0a3-802f-4181-afbf-1f6f0e6b2e54"},"vehicle_type_id":"4","last_reported":1700665667,"current_range_meters":0,"station_id":"ce4bhb12rcd13ifvqel0","pricing_plan_id":"free"},{"bike_id":"0569a513-048c-41b3-b0cb-e30015b26cb2","system_id":"levelo_inurba_marseille","lat":43.29189,"lon":5.35805,"is_reserved":false,"is_disabled":false,"rental_uris":{"android":"levelo://app?vid=0569a513-048c-41b3-b0cb-e30015b26cb2","ios":"levelo://app?vid=0569a513-048c-41b3-b0cb-e30015b26cb2"},"vehicle_type_id":"4","last_reported":1700665667,"current_range_meters":0,"station_id":"ce4bhb12rcd13ifvqel0","pricing_plan_id":"free"},{"bike_id":"e23a7b9e-e772-4ca4-ab02-3b3c3486a2c6","system_id":"levelo_inurba_marseille","lat":43.313291,"lon":5.396838,"is_reserved":false,"is_disabled":false,"rental_uris":{"android":"levelo://app?vid=e23a7b9e-e772-4ca4-ab02-3b3c3486a2c6","ios":"levelo://app?vid=e23a7b9e-e772-4ca4-ab02-3b3c3486a2c6"},"vehicle_type_id":"4","last_reported":1700665667,"current_range_meters":4000,"station_id":"ce4bgvp2rcd13ifvqcu0","pricing_plan_id":"free"},{"bike_id":"16f6ffa0-a2a1-4c33-95b4-88cf2b34964b","system_id":"levelo_inurba_marseille","lat":43.313291,"lon":5.396838,"is_reserved":false,"is_disabled":false,"rental_uris":{"android":"levelo://app?vid=16f6ffa0-a2a1-4c33-95b4-88cf2b34964b","ios":"levelo://app?vid=16f6ffa0-a2a1-4c33-95b4-88cf2b34964b"},"vehicle_type_id":"4","last_reported":1700665667,"current_range_meters":24400,"station_id":"ce4bgvp2rcd13ifvqcu0","pricing_plan_id":"free"},{"bike_id":"5f01e81e-14be-4823-b7b9-de02762b0e4c","system_id":"levelo_inurba_marseille","lat":43.309038,"lon":5.396546,"is_reserved":false,"is_disabled":false,"rental_uris":{"android":"levelo://app?vid=5f01e81e-14be-4823-b7b9-de02762b0e4c","ios":"levelo://app?vid=5f01e81e-14be-4823-b7b9-de02762b0e4c"},"vehicle_type_id":"4","last_reported":1700665667,"current_range_meters":30000,"station_id":"ce4bh012rcd13ifvqcv0","pricing_plan_id":"free"},{"bike_id":"1d10a1b1-d55f-4279-928a-9c6858f32ca9","system_id":"levelo_inurba_marseille","lat":43.33211,"lon":5.38112,"is_reserved":false,"is_disabled":false,"rental_uris":{"android":"levelo://app?vid=1d10a1b1-d55f-4279-928a-9c6858f32ca9","ios":"levelo://app?vid=1d10a1b1-d55f-4279-928a-9c6858f32ca9"},"vehicle_type_id":"4","last_reported":1700665667,"current_range_meters":3200,"station_id":"","pricing_plan_id":"free"},{"bike_id":"e99206f4-75bd-4224-ba94-9502e7446b96","system_id":"levelo_inurba_marseille","lat":43.308878,"lon":5.396652,"is_reserved":false,"is_disabled":false,"rental_uris":{"android":"levelo://app?vid=e99206f4-75bd-4224-ba94-9502e7446b96","ios":"levelo://app?vid=e99206f4-75bd-4224-ba94-9502e7446b96"},"vehicle_type_id":"4","last_reported":1700665667,"current_range_meters":4800,"station_id":"ce4bh012rcd13ifvqcv0","pricing_plan_id":"free"},{"bike_id":"bfb5fc4e-efbf-4a9c-a252-ae8a9b8b44d5","system_id":"levelo_inurba_marseille","lat":43.29529,"lon":5.385581,"is_reserved":false,"is_disabled":false,"rental_uris":{"android":"levelo://app?vid=bfb5fc4e-efbf-4a9c-a252-ae8a9b8b44d5","ios":"levelo://app?vid=bfb5fc4e-efbf-4a9c-a252-ae8a9b8b44d5"},"vehicle_type_id":"4","last_reported":1700665667,"current_range_meters":0,"station_id":"ce4bgih2rcd13ifvqba0","pricing_plan_id":"free"},{"bike_id":"869b8948-1c0d-4603-a3a9-dfc86a6d707f","system_id":"levelo_inurba_marseille","lat":43.29077,"lon":5.37169,"is_reserved":false,"is_disabled":false,"rental_uris":{"android":"levelo://app?vid=869b8948-1c0d-4603-a3a9-dfc86a6d707f","ios":"levelo://app?vid=869b8948-1c0d-4603-a3a9-dfc86a6d707f"},"vehicle_type_id":"4","last_reported":1700665667,"current_range_meters":4800,"station_id":"ce4bh5p2rcd13ifvqe4g","pricing_plan_id":"free"},{"bike_id":"71c8333d-696a-4b47-9461-1493ccb19932","system_id":"levelo_inurba_marseille","lat":43.290779,"lon":5.371482,"is_reserved":false,"is_disabled":false,"rental_uris":{"android":"levelo://app?vid=71c8333d-696a-4b47-9461-1493ccb19932","ios":"levelo://app?vid=71c8333d-696a-4b47-9461-1493ccb19932"},"vehicle_type_id":"4","last_reported":1700665667,"current_range_meters":26400,"station_id":"ce4bh5p2rcd13ifvqe4g","pricing_plan_id":"free"},{"bike_id":"324ede74-26d3-46fb-8cbe-27474ce17bad","system_id":"levelo_inurba_marseille","lat":43.302008,"lon":5.394694,"is_reserved":false,"is_disabled":false,"rental_uris":{"android":"levelo://app?vid=324ede74-26d3-46fb-8cbe-27474ce17bad","ios":"levelo://app?vid=324ede74-26d3-46fb-8cbe-27474ce17bad"},"vehicle_type_id":"4","last_reported":1700665667,"current_range_meters":0,"station_id":"ce4bh0p2rcd13ifvqd70","pricing_plan_id":"free"},{"bike_id":"8f7c0589-2d89-43a9-939a-68e082ba50f0","system_id":"levelo_inurba_marseille","lat":43.294153,"lon":5.386305,"is_reserved":false,"is_disabled":false,"rental_uris":{"android":"levelo://app?vid=8f7c0589-2d89-43a9-939a-68e082ba50f0","ios":"levelo://app?vid=8f7c0589-2d89-43a9-939a-68e082ba50f0"},"vehicle_type_id":"4","last_reported":1700665667,"current_range_meters":7600,"station_id":"ce4bh2h2rcd13ifvqdh0","pricing_plan_id":"free"},{"bike_id":"12981e06-0631-44cd-a5f1-b5bd66d39550","system_id":"levelo_inurba_marseille","lat":43.294153,"lon":5.386305,"is_reserved":false,"is_disabled":false,"rental_uris":{"android":"levelo://app?vid=12981e06-0631-44cd-a5f1-b5bd66d39550","ios":"levelo://app?vid=12981e06-0631-44cd-a5f1-b5bd66d39550"},"vehicle_type_id":"4","last_reported":1700665667,"current_range_meters":7600,"station_id":"ce4bh2h2rcd13ifvqdh0","pricing_plan_id":"free"},{"bike_id":"ef5e8ec0-0379-4043-8c0e-9dd3f4604954","system_id":"levelo_inurba_marseille","lat":43.289184,"lon":5.366408,"is_reserved":false,"is_disabled":false,"rental_uris":{"android":"levelo://app?vid=ef5e8ec0-0379-4043-8c0e-9dd3f4604954","ios":"levelo://app?vid=ef5e8ec0-0379-4043-8c0e-9dd3f4604954"},"vehicle_type_id":"4","last_reported":1700665667,"current_range_meters":26800,"station_id":"ce4bhap2rcd13ifvqek0","pricing_plan_id":"free"},{"bike_id":"ff98196f-366a-4c94-9853-074e0c8682c3","system_id":"levelo_inurba_marseille","lat":43.304274,"lon":5.397513,"is_reserved":false,"is_disabled":false,"rental_uris":{"android":"levelo://app?vid=ff98196f-366a-4c94-9853-074e0c8682c3","ios":"levelo://app?vid=ff98196f-366a-4c94-9853-074e0c8682c3"},"vehicle_type_id":"4","last_reported":1700665667,"current_range_meters":20400,"station_id":"ce4bh092rcd13ifvqd20","pricing_plan_id":"free"},{"bike_id":"3b4bfb64-84f9-4452-bffb-9b2780fc9a66","system_id":"levelo_inurba_marseille","lat":43.33039,"lon":5.38925,"is_reserved":false,"is_disabled":false,"rental_uris":{"android":"levelo://app?vid=3b4bfb64-84f9-4452-bffb-9b2780fc9a66","ios":"levelo://app?vid=3b4bfb64-84f9-4452-bffb-9b2780fc9a66"},"vehicle_type_id":"4","last_reported":1700665667,"current_range_meters":4400,"station_id":"ce4bhr92rcd13ifvqhrg","pricing_plan_id":"free"},{"bike_id":"36d0c002-6ef0-4e31-8330-071ce7022968","system_id":"levelo_inurba_marseille","lat":43.29102,"lon":5.38157,"is_reserved":false,"is_disabled":false,"rental_uris":{"android":"levelo://app?vid=36d0c002-6ef0-4e31-8330-071ce7022968","ios":"levelo://app?vid=36d0c002-6ef0-4e31-8330-071ce7022968"},"vehicle_type_id":"4","last_reported":1700665667,"current_range_meters":21600,"station_id":"ce4bh512rcd13ifvqe2g","pricing_plan_id":"free"},{"bike_id":"b418ceb6-3f85-45e3-bf61-b6f382782269","system_id":"levelo_inurba_marseille","lat":43.289743,"lon":5.378304,"is_reserved":false,"is_disabled":false,"rental_uris":{"android":"levelo://app?vid=b418ceb6-3f85-45e3-bf61-b6f382782269","ios":"levelo://app?vid=b418ceb6-3f85-45e3-bf61-b6f382782269"},"vehicle_type_id":"4","last_reported":1700665667,"current_range_meters":400,"station_id":"ce4bh9p2rcd13ifvqed0","pricing_plan_id":"free"},{"bike_id":"8f83d310-a2d1-479c-8127-9e8eba43dcbb","system_id":"levelo_inurba_marseille","lat":43.29529,"lon":5.39051,"is_reserved":false,"is_disabled":false,"rental_uris":{"android":"levelo://app?vid=8f83d310-a2d1-479c-8127-9e8eba43dcbb","ios":"levelo://app?vid=8f83d310-a2d1-479c-8127-9e8eba43dcbb"},"vehicle_type_id":"4","last_reported":1700665667,"current_range_meters":20000,"station_id":"ce4bh3p2rcd13ifvqdp0","pricing_plan_id":"free"},{"bike_id":"be3e39eb-7b05-41cc-b742-4012e4bb717c","system_id":"levelo_inurba_marseille","lat":43.295169,"lon":5.390426,"is_reserved":false,"is_disabled":false,"rental_uris":{"android":"levelo://app?vid=be3e39eb-7b05-41cc-b742-4012e4bb717c","ios":"levelo://app?vid=be3e39eb-7b05-41cc-b742-4012e4bb717c"},"vehicle_type_id":"4","last_reported":1700665667,"current_range_meters":17600,"station_id":"ce4bh3p2rcd13ifvqdp0","pricing_plan_id":"free"},{"bike_id":"8b398b32-743e-4bd6-acc0-c5696b93e9eb","system_id":"levelo_inurba_marseille","lat":43.290208,"lon":5.381319,"is_reserved":false,"is_disabled":false,"rental_uris":{"android":"levelo://app?vid=8b398b32-743e-4bd6-acc0-c5696b93e9eb","ios":"levelo://app?vid=8b398b32-743e-4bd6-acc0-c5696b93e9eb"},"vehicle_type_id":"4","last_reported":1700665667,"current_range_meters":0,"station_id":"ce4bh4p2rcd13ifvqe1g","pricing_plan_id":"free"},{"bike_id":"3e3b1064-fd2c-40b1-b00a-9a6a42f90d3c","system_id":"levelo_inurba_marseille","lat":43.28856,"lon":5.358371,"is_reserved":false,"is_disabled":false,"rental_uris":{"android":"levelo://app?vid=3e3b1064-fd2c-40b1-b00a-9a6a42f90d3c","ios":"levelo://app?vid=3e3b1064-fd2c-40b1-b00a-9a6a42f90d3c"},"vehicle_type_id":"4","last_reported":1700665667,"current_range_meters":800,"station_id":"ce4bhb12rcd13ifvqem0","pricing_plan_id":"free"},{"bike_id":"24111552-754c-4fa6-b3d1-f4595082e912","system_id":"levelo_inurba_marseille","lat":43.28856,"lon":5.358371,"is_reserved":false,"is_disabled":false,"rental_uris":{"android":"levelo://app?vid=24111552-754c-4fa6-b3d1-f4595082e912","ios":"levelo://app?vid=24111552-754c-4fa6-b3d1-f4595082e912"},"vehicle_type_id":"4","last_reported":1700665667,"current_range_meters":15200,"station_id":"ce4bhb12rcd13ifvqem0","pricing_plan_id":"free"},{"bike_id":"aad9a792-6976-4183-919a-aef819ff2e25","system_id":"levelo_inurba_marseille","lat":43.31251,"lon":5.40162,"is_reserved":false,"is_disabled":false,"rental_uris":{"android":"levelo://app?vid=aad9a792-6976-4183-919a-aef819ff2e25","ios":"levelo://app?vid=aad9a792-6976-4183-919a-aef819ff2e25"},"vehicle_type_id":"4","last_reported":1700665667,"current_range_meters":0,"station_id":"","pricing_plan_id":"free"},{"bike_id":"a64e2e92-e9f4-47f5-a45e-85e68b98a86a","system_id":"levelo_inurba_marseille","lat":43.33742,"lon":5.37465,"is_reserved":false,"is_disabled":false,"rental_uris":{"android":"levelo://app?vid=a64e2e92-e9f4-47f5-a45e-85e68b98a86a","ios":"levelo://app?vid=a64e2e92-e9f4-47f5-a45e-85e68b98a86a"},"vehicle_type_id":"4","last_reported":1700665667,"current_range_meters":29200,"station_id":"","pricing_plan_id":"free"},{"bike_id":"5ca1769b-9d48-478e-b544-da316599e94d","system_id":"levelo_inurba_marseille","lat":43.3375,"lon":5.37464,"is_reserved":false,"is_disabled":false,"rental_uris":{"android":"levelo://app?vid=5ca1769b-9d48-478e-b544-da316599e94d","ios":"levelo://app?vid=5ca1769b-9d48-478e-b544-da316599e94d"},"vehicle_type_id":"4","last_reported":1700665667,"current_range_meters":24000,"station_id":"","pricing_plan_id":"free"},{"bike_id":"45c50b00-798d-4d73-a32e-8aa52fed9e79","system_id":"levelo_inurba_marseille","lat":43.33755,"lon":5.374424,"is_reserved":false,"is_disabled":false,"rental_uris":{"android":"levelo://app?vid=45c50b00-798d-4d73-a32e-8aa52fed9e79","ios":"levelo://app?vid=45c50b00-798d-4d73-a32e-8aa52fed9e79"},"vehicle_type_id":"4","last_reported":1700665667,"current_range_meters":30000,"station_id":"","pricing_plan_id":"free"},{"bike_id":"25ee5b3a-cc3c-4fea-97c8-44c14f3b26e9","system_id":"levelo_inurba_marseille","lat":43.3375,"lon":5.37489,"is_reserved":false,"is_disabled":false,"rental_uris":{"android":"levelo://app?vid=25ee5b3a-cc3c-4fea-97c8-44c14f3b26e9","ios":"levelo://app?vid=25ee5b3a-cc3c-4fea-97c8-44c14f3b26e9"},"vehicle_type_id":"4","last_reported":1700665667,"current_range_meters":25600,"station_id":"","pricing_plan_id":"free"},{"bike_id":"2af124c1-dce9-4602-9858-04c652106e87","system_id":"levelo_inurba_marseille","lat":43.337609,"lon":5.374544,"is_reserved":false,"is_disabled":false,"rental_uris":{"android":"levelo://app?vid=2af124c1-dce9-4602-9858-04c652106e87","ios":"levelo://app?vid=2af124c1-dce9-4602-9858-04c652106e87"},"vehicle_type_id":"4","last_reported":1700665667,"current_range_meters":28400,"station_id":"","pricing_plan_id":"free"},{"bike_id":"6b64ffb3-5882-4c04-ac6b-c6a9baa631c2","system_id":"levelo_inurba_marseille","lat":43.337631,"lon":5.374538,"is_reserved":false,"is_disabled":false,"rental_uris":{"android":"levelo://app?vid=6b64ffb3-5882-4c04-ac6b-c6a9baa631c2","ios":"levelo://app?vid=6b64ffb3-5882-4c04-ac6b-c6a9baa631c2"},"vehicle_type_id":"4","last_reported":1700665667,"current_range_meters":25200,"station_id":"","pricing_plan_id":"free"},{"bike_id":"0188fc13-c870-432d-9177-5f221a53095e","system_id":"levelo_inurba_marseille","lat":43.30138,"lon":5.39891,"is_reserved":false,"is_disabled":false,"rental_uris":{"android":"levelo://app?vid=0188fc13-c870-432d-9177-5f221a53095e","ios":"levelo://app?vid=0188fc13-c870-432d-9177-5f221a53095e"},"vehicle_type_id":"4","last_reported":1700665667,"current_range_meters":17200,"station_id":"ce4bh0h2rcd13ifvqd40","pricing_plan_id":"free"},{"bike_id":"878262f1-545c-4d30-92d1-8e7e11af82eb","system_id":"levelo_inurba_marseille","lat":43.29869,"lon":5.39728,"is_reserved":false,"is_disabled":false,"rental_uris":{"android":"levelo://app?vid=878262f1-545c-4d30-92d1-8e7e11af82eb","ios":"levelo://app?vid=878262f1-545c-4d30-92d1-8e7e11af82eb"},"vehicle_type_id":"4","last_reported":1700665667,"current_range_meters":25200,"station_id":"","pricing_plan_id":"free"},{"bike_id":"35624104-e824-4a93-b680-3d770429921b","system_id":"levelo_inurba_marseille","lat":43.286591,"lon":5.363346,"is_reserved":false,"is_disabled":false,"rental_uris":{"android":"levelo://app?vid=35624104-e824-4a93-b680-3d770429921b","ios":"levelo://app?vid=35624104-e824-4a93-b680-3d770429921b"},"vehicle_type_id":"4","last_reported":1700665667,"current_range_meters":26000,"station_id":"ce4bhah2rcd13ifvqej0","pricing_plan_id":"free"},{"bike_id":"544a46c5-2f3f-43c3-9150-a67988a82697","system_id":"levelo_inurba_marseille","lat":43.298681,"lon":5.397225,"is_reserved":false,"is_disabled":false,"rental_uris":{"android":"levelo://app?vid=544a46c5-2f3f-43c3-9150-a67988a82697","ios":"levelo://app?vid=544a46c5-2f3f-43c3-9150-a67988a82697"},"vehicle_type_id":"4","last_reported":1700665667,"current_range_meters":25200,"station_id":"ce4bh0h2rcd13ifvqd50","pricing_plan_id":"free"},{"bike_id":"90f3a64d-088c-4a13-bf73-08df9b96a8e3","system_id":"levelo_inurba_marseille","lat":43.28699,"lon":5.37396,"is_reserved":false,"is_disabled":false,"rental_uris":{"android":"levelo://app?vid=90f3a64d-088c-4a13-bf73-08df9b96a8e3","ios":"levelo://app?vid=90f3a64d-088c-4a13-bf73-08df9b96a8e3"},"vehicle_type_id":"4","last_reported":1700665667,"current_range_meters":28400,"station_id":"","pricing_plan_id":"free"},{"bike_id":"f19aba0b-3ae5-476f-a1b9-54eab20d2dd1","system_id":"levelo_inurba_marseille","lat":43.286961,"lon":5.373785,"is_reserved":false,"is_disabled":false,"rental_uris":{"android":"levelo://app?vid=f19aba0b-3ae5-476f-a1b9-54eab20d2dd1","ios":"levelo://app?vid=f19aba0b-3ae5-476f-a1b9-54eab20d2dd1"},"vehicle_type_id":"4","last_reported":1700665667,"current_range_meters":26000,"station_id":"ce4bh3p2rcd13ifvqdq0","pricing_plan_id":"free"},{"bike_id":"af397e96-c185-4a80-b6b2-cf562331bb25","system_id":"levelo_inurba_marseille","lat":43.30581,"lon":5.4019,"is_reserved":false,"is_disabled":false,"rental_uris":{"android":"levelo://app?vid=af397e96-c185-4a80-b6b2-cf562331bb25","ios":"levelo://app?vid=af397e96-c185-4a80-b6b2-cf562331bb25"},"vehicle_type_id":"4","last_reported":1700665667,"current_range_meters":19600,"station_id":"","pricing_plan_id":"free"},{"bike_id":"96f0b79d-a51e-48f3-a8a8-54b0714952ec","system_id":"levelo_inurba_marseille","lat":43.295194,"lon":5.39397,"is_reserved":false,"is_disabled":false,"rental_uris":{"android":"levelo://app?vid=96f0b79d-a51e-48f3-a8a8-54b0714952ec","ios":"levelo://app?vid=96f0b79d-a51e-48f3-a8a8-54b0714952ec"},"vehicle_type_id":"4","last_reported":1700665667,"current_range_meters":0,"station_id":"ce4bh292rcd13ifvqdf0","pricing_plan_id":"free"},{"bike_id":"de85ea9e-2de6-4751-98e2-de838bbc7e39","system_id":"levelo_inurba_marseille","lat":43.286039,"lon":5.370679,"is_reserved":false,"is_disabled":false,"rental_uris":{"android":"levelo://app?vid=de85ea9e-2de6-4751-98e2-de838bbc7e39","ios":"levelo://app?vid=de85ea9e-2de6-4751-98e2-de838bbc7e39"},"vehicle_type_id":"4","last_reported":1700665667,"current_range_meters":27600,"station_id":"ce4bht12rcd13ifvqi60","pricing_plan_id":"free"},{"bike_id":"aa04c2b0-c743-4549-962c-e71f8ea12587","system_id":"levelo_inurba_marseille","lat":43.29196,"lon":5.39327,"is_reserved":false,"is_disabled":false,"rental_uris":{"android":"levelo://app?vid=aa04c2b0-c743-4549-962c-e71f8ea12587","ios":"levelo://app?vid=aa04c2b0-c743-4549-962c-e71f8ea12587"},"vehicle_type_id":"4","last_reported":1700665667,"current_range_meters":5200,"station_id":"ce4bh192rcd13ifvqdd0","pricing_plan_id":"free"},{"bike_id":"e1f0f7b2-e626-440d-bf9b-3bc5e2d922a5","system_id":"levelo_inurba_marseille","lat":43.284538,"lon":5.358657,"is_reserved":false,"is_disabled":false,"rental_uris":{"android":"levelo://app?vid=e1f0f7b2-e626-440d-bf9b-3bc5e2d922a5","ios":"levelo://app?vid=e1f0f7b2-e626-440d-bf9b-3bc5e2d922a5"},"vehicle_type_id":"4","last_reported":1700665667,"current_range_meters":26000,"station_id":"ce4bhah2rcd13ifvqei0","pricing_plan_id":"free"},{"bike_id":"5e4de417-8e03-4960-9a53-73590cd568da","system_id":"levelo_inurba_marseille","lat":43.28464,"lon":5.35888,"is_reserved":false,"is_disabled":false,"rental_uris":{"android":"levelo://app?vid=5e4de417-8e03-4960-9a53-73590cd568da","ios":"levelo://app?vid=5e4de417-8e03-4960-9a53-73590cd568da"},"vehicle_type_id":"4","last_reported":1700665667,"current_range_meters":22800,"station_id":"ce4bhah2rcd13ifvqei0","pricing_plan_id":"free"},{"bike_id":"29749414-ca53-437f-a24a-10ab90128bb5","system_id":"levelo_inurba_marseille","lat":43.284534,"lon":5.358662,"is_reserved":false,"is_disabled":false,"rental_uris":{"android":"levelo://app?vid=29749414-ca53-437f-a24a-10ab90128bb5","ios":"levelo://app?vid=29749414-ca53-437f-a24a-10ab90128bb5"},"vehicle_type_id":"4","last_reported":1700665667,"current_range_meters":31200,"station_id":"ce4bhah2rcd13ifvqei0","pricing_plan_id":"free"},{"bike_id":"d7a8bef3-a0b1-4d76-bec4-d339f1c0d17a","system_id":"levelo_inurba_marseille","lat":43.284606,"lon":5.358944,"is_reserved":false,"is_disabled":false,"rental_uris":{"android":"levelo://app?vid=d7a8bef3-a0b1-4d76-bec4-d339f1c0d17a","ios":"levelo://app?vid=d7a8bef3-a0b1-4d76-bec4-d339f1c0d17a"},"vehicle_type_id":"4","last_reported":1700665667,"current_range_meters":2400,"station_id":"ce4bhah2rcd13ifvqei0","pricing_plan_id":"free"},{"bike_id":"521ed604-e543-4c6a-965a-686ce82c3389","system_id":"levelo_inurba_marseille","lat":43.28459,"lon":5.358912,"is_reserved":false,"is_disabled":false,"rental_uris":{"android":"levelo://app?vid=521ed604-e543-4c6a-965a-686ce82c3389","ios":"levelo://app?vid=521ed604-e543-4c6a-965a-686ce82c3389"},"vehicle_type_id":"4","last_reported":1700665667,"current_range_meters":15200,"station_id":"ce4bhah2rcd13ifvqei0","pricing_plan_id":"free"},{"bike_id":"f9050f56-d05f-4131-9343-6960bf9b3c65","system_id":"levelo_inurba_marseille","lat":43.286146,"lon":5.351083,"is_reserved":false,"is_disabled":false,"rental_uris":{"android":"levelo://app?vid=f9050f56-d05f-4131-9343-6960bf9b3c65","ios":"levelo://app?vid=f9050f56-d05f-4131-9343-6960bf9b3c65"},"vehicle_type_id":"4","last_reported":1700665667,"current_range_meters":22800,"station_id":"ce4bhch2rcd13ifvqeug","pricing_plan_id":"free"},{"bike_id":"cb60b3cb-d691-4ec9-a3ae-ed9f4b58aa70","system_id":"levelo_inurba_marseille","lat":43.285848,"lon":5.350787,"is_reserved":false,"is_disabled":false,"rental_uris":{"android":"levelo://app?vid=cb60b3cb-d691-4ec9-a3ae-ed9f4b58aa70","ios":"levelo://app?vid=cb60b3cb-d691-4ec9-a3ae-ed9f4b58aa70"},"vehicle_type_id":"4","last_reported":1700665667,"current_range_meters":20400,"station_id":"ce4bhch2rcd13ifvqeug","pricing_plan_id":"free"},{"bike_id":"e2284003-4e46-4e0a-93e7-73d05c3666d9","system_id":"levelo_inurba_marseille","lat":43.33191,"lon":5.39703,"is_reserved":false,"is_disabled":false,"rental_uris":{"android":"levelo://app?vid=e2284003-4e46-4e0a-93e7-73d05c3666d9","ios":"levelo://app?vid=e2284003-4e46-4e0a-93e7-73d05c3666d9"},"vehicle_type_id":"4","last_reported":1700665667,"current_range_meters":26400,"station_id":"","pricing_plan_id":"free"},{"bike_id":"36d64785-0be6-4ce0-8e5b-74969e7617b2","system_id":"levelo_inurba_marseille","lat":43.28622,"lon":5.38359,"is_reserved":false,"is_disabled":false,"rental_uris":{"android":"levelo://app?vid=36d64785-0be6-4ce0-8e5b-74969e7617b2","ios":"levelo://app?vid=36d64785-0be6-4ce0-8e5b-74969e7617b2"},"vehicle_type_id":"4","last_reported":1700665667,"current_range_meters":18000,"station_id":"","pricing_plan_id":"free"},{"bike_id":"913dde98-21f1-4591-b058-c8fa33dd97e7","system_id":"levelo_inurba_marseille","lat":43.283998,"lon":5.375062,"is_reserved":false,"is_disabled":false,"rental_uris":{"android":"levelo://app?vid=913dde98-21f1-4591-b058-c8fa33dd97e7","ios":"levelo://app?vid=913dde98-21f1-4591-b058-c8fa33dd97e7"},"vehicle_type_id":"4","last_reported":1700665667,"current_range_meters":26400,"station_id":"ce4bh412rcd13ifvqds0","pricing_plan_id":"free"},{"bike_id":"adbd441f-44c4-4168-877a-9278b4bd7ceb","system_id":"levelo_inurba_marseille","lat":43.33241,"lon":5.398565,"is_reserved":false,"is_disabled":false,"rental_uris":{"android":"levelo://app?vid=adbd441f-44c4-4168-877a-9278b4bd7ceb","ios":"levelo://app?vid=adbd441f-44c4-4168-877a-9278b4bd7ceb"},"vehicle_type_id":"4","last_reported":1700665667,"current_range_meters":18800,"station_id":"","pricing_plan_id":"free"},{"bike_id":"6b6bc7b4-ec8b-4945-b8ab-900398ecbb37","system_id":"levelo_inurba_marseille","lat":43.33717,"lon":5.391857,"is_reserved":false,"is_disabled":false,"rental_uris":{"android":"levelo://app?vid=6b6bc7b4-ec8b-4945-b8ab-900398ecbb37","ios":"levelo://app?vid=6b6bc7b4-ec8b-4945-b8ab-900398ecbb37"},"vehicle_type_id":"4","last_reported":1700665667,"current_range_meters":27200,"station_id":"ce4bhr92rcd13ifvqhsg","pricing_plan_id":"free"},{"bike_id":"f5508b9a-b9d6-4824-bc9e-048971840efb","system_id":"levelo_inurba_marseille","lat":43.2847,"lon":5.3843,"is_reserved":false,"is_disabled":false,"rental_uris":{"android":"levelo://app?vid=f5508b9a-b9d6-4824-bc9e-048971840efb","ios":"levelo://app?vid=f5508b9a-b9d6-4824-bc9e-048971840efb"},"vehicle_type_id":"4","last_reported":1700665667,"current_range_meters":0,"station_id":"ce4bh512rcd13ifvqe3g","pricing_plan_id":"free"},{"bike_id":"b55a9adb-9205-4c12-acae-76201df351b2","system_id":"levelo_inurba_marseille","lat":43.29795,"lon":5.404086,"is_reserved":false,"is_disabled":false,"rental_uris":{"android":"levelo://app?vid=b55a9adb-9205-4c12-acae-76201df351b2","ios":"levelo://app?vid=b55a9adb-9205-4c12-acae-76201df351b2"},"vehicle_type_id":"4","last_reported":1700665667,"current_range_meters":6800,"station_id":"ce4bh112rcd13ifvqd90","pricing_plan_id":"free"},{"bike_id":"001e0089-f3ac-4dac-9570-d64985d1eaac","system_id":"levelo_inurba_marseille","lat":43.284787,"lon":5.384116,"is_reserved":false,"is_disabled":false,"rental_uris":{"android":"levelo://app?vid=001e0089-f3ac-4dac-9570-d64985d1eaac","ios":"levelo://app?vid=001e0089-f3ac-4dac-9570-d64985d1eaac"},"vehicle_type_id":"4","last_reported":1700665667,"current_range_meters":0,"station_id":"ce4bh512rcd13ifvqe3g","pricing_plan_id":"free"},{"bike_id":"f1903a88-8563-4814-b9b6-7d613b698140","system_id":"levelo_inurba_marseille","lat":43.283494,"lon":5.380945,"is_reserved":false,"is_disabled":false,"rental_uris":{"android":"levelo://app?vid=f1903a88-8563-4814-b9b6-7d613b698140","ios":"levelo://app?vid=f1903a88-8563-4814-b9b6-7d613b698140"},"vehicle_type_id":"4","last_reported":1700665667,"current_range_meters":20000,"station_id":"ce4bh412rcd13ifvqdr0","pricing_plan_id":"free"},{"bike_id":"ea24f69d-2ddc-490c-96db-6dfa64fd44eb","system_id":"levelo_inurba_marseille","lat":43.28421,"lon":5.34993,"is_reserved":false,"is_disabled":false,"rental_uris":{"android":"levelo://app?vid=ea24f69d-2ddc-490c-96db-6dfa64fd44eb","ios":"levelo://app?vid=ea24f69d-2ddc-490c-96db-6dfa64fd44eb"},"vehicle_type_id":"4","last_reported":1700665667,"current_range_meters":2800,"station_id":"ce4bhbh2rcd13ifvqepg","pricing_plan_id":"free"},{"bike_id":"4f080985-27ca-4806-bd27-d18e7fa44df9","system_id":"levelo_inurba_marseille","lat":43.28412,"lon":5.34987,"is_reserved":false,"is_disabled":false,"rental_uris":{"android":"levelo://app?vid=4f080985-27ca-4806-bd27-d18e7fa44df9","ios":"levelo://app?vid=4f080985-27ca-4806-bd27-d18e7fa44df9"},"vehicle_type_id":"4","last_reported":1700665667,"current_range_meters":11200,"station_id":"ce4bhbh2rcd13ifvqepg","pricing_plan_id":"free"},{"bike_id":"d655f9fe-8cba-43a3-b063-af829cdfa863","system_id":"levelo_inurba_marseille","lat":43.282744,"lon":5.350533,"is_reserved":false,"is_disabled":false,"rental_uris":{"android":"levelo://app?vid=d655f9fe-8cba-43a3-b063-af829cdfa863","ios":"levelo://app?vid=d655f9fe-8cba-43a3-b063-af829cdfa863"},"vehicle_type_id":"4","last_reported":1700665667,"current_range_meters":18400,"station_id":"ce4bhbp2rcd13ifvqerg","pricing_plan_id":"free"},{"bike_id":"6e6a276a-9c9d-4206-9376-624e020c8852","system_id":"levelo_inurba_marseille","lat":43.280382,"lon":5.369291,"is_reserved":false,"is_disabled":false,"rental_uris":{"android":"levelo://app?vid=6e6a276a-9c9d-4206-9376-624e020c8852","ios":"levelo://app?vid=6e6a276a-9c9d-4206-9376-624e020c8852"},"vehicle_type_id":"4","last_reported":1700665667,"current_range_meters":2800,"station_id":"ce4bha12rcd13ifvqef0","pricing_plan_id":"free"},{"bike_id":"25ea7e35-cc59-4cda-a104-89b4bbcd94f2","system_id":"levelo_inurba_marseille","lat":43.296263,"lon":5.40601,"is_reserved":false,"is_disabled":false,"rental_uris":{"android":"levelo://app?vid=25ea7e35-cc59-4cda-a104-89b4bbcd94f2","ios":"levelo://app?vid=25ea7e35-cc59-4cda-a104-89b4bbcd94f2"},"vehicle_type_id":"4","last_reported":1700665667,"current_range_meters":26000,"station_id":"ce4bh0h2rcd13ifvqd60","pricing_plan_id":"free"},{"bike_id":"52771cfa-a45b-48e3-98ad-fbc5e20b4ec8","system_id":"levelo_inurba_marseille","lat":43.284462,"lon":5.392121,"is_reserved":false,"is_disabled":false,"rental_uris":{"android":"levelo://app?vid=52771cfa-a45b-48e3-98ad-fbc5e20b4ec8","ios":"levelo://app?vid=52771cfa-a45b-48e3-98ad-fbc5e20b4ec8"},"vehicle_type_id":"4","last_reported":1700665667,"current_range_meters":14000,"station_id":"ce4bhoh2rcd13ifvqh5g","pricing_plan_id":"free"},{"bike_id":"f9fbab4a-9574-4412-a076-7195a8d1380d","system_id":"levelo_inurba_marseille","lat":43.284462,"lon":5.392121,"is_reserved":false,"is_disabled":false,"rental_uris":{"android":"levelo://app?vid=f9fbab4a-9574-4412-a076-7195a8d1380d","ios":"levelo://app?vid=f9fbab4a-9574-4412-a076-7195a8d1380d"},"vehicle_type_id":"4","last_reported":1700665667,"current_range_meters":13200,"station_id":"ce4bhoh2rcd13ifvqh5g","pricing_plan_id":"free"},{"bike_id":"2034bcf0-ccb3-4ed3-9ee9-4a44749f5134","system_id":"levelo_inurba_marseille","lat":43.279087,"lon":5.380114,"is_reserved":false,"is_disabled":false,"rental_uris":{"android":"levelo://app?vid=2034bcf0-ccb3-4ed3-9ee9-4a44749f5134","ios":"levelo://app?vid=2034bcf0-ccb3-4ed3-9ee9-4a44749f5134"},"vehicle_type_id":"4","last_reported":1700665667,"current_range_meters":19600,"station_id":"ce4bhf92rcd13ifvqf50","pricing_plan_id":"free"},{"bike_id":"cf7c6503-d761-4e4a-b826-f55f74848caf","system_id":"levelo_inurba_marseille","lat":43.34879,"lon":5.3751,"is_reserved":false,"is_disabled":false,"rental_uris":{"android":"levelo://app?vid=cf7c6503-d761-4e4a-b826-f55f74848caf","ios":"levelo://app?vid=cf7c6503-d761-4e4a-b826-f55f74848caf"},"vehicle_type_id":"4","last_reported":1700665667,"current_range_meters":5200,"station_id":"","pricing_plan_id":"free"},{"bike_id":"987246d1-689b-49e7-8228-ed12e49ea6b8","system_id":"levelo_inurba_marseille","lat":43.292569,"lon":5.409107,"is_reserved":false,"is_disabled":false,"rental_uris":{"android":"levelo://app?vid=987246d1-689b-49e7-8228-ed12e49ea6b8","ios":"levelo://app?vid=987246d1-689b-49e7-8228-ed12e49ea6b8"},"vehicle_type_id":"4","last_reported":1700665667,"current_range_meters":28000,"station_id":"ce4bh192rcd13ifvqdc0","pricing_plan_id":"free"},{"bike_id":"d30d7b47-f6f7-4997-a5f0-82a3728884ed","system_id":"levelo_inurba_marseille","lat":43.32541,"lon":5.41436,"is_reserved":false,"is_disabled":false,"rental_uris":{"android":"levelo://app?vid=d30d7b47-f6f7-4997-a5f0-82a3728884ed","ios":"levelo://app?vid=d30d7b47-f6f7-4997-a5f0-82a3728884ed"},"vehicle_type_id":"4","last_reported":1700665667,"current_range_meters":12000,"station_id":"ce4bhq12rcd13ifvqhhg","pricing_plan_id":"free"},{"bike_id":"de77163f-a48b-430d-80ec-da565dbc3844","system_id":"levelo_inurba_marseille","lat":43.27614,"lon":5.36112,"is_reserved":false,"is_disabled":false,"rental_uris":{"android":"levelo://app?vid=de77163f-a48b-430d-80ec-da565dbc3844","ios":"levelo://app?vid=de77163f-a48b-430d-80ec-da565dbc3844"},"vehicle_type_id":"4","last_reported":1700665667,"current_range_meters":9600,"station_id":"ce4bgj92rcd13ifvqbe0","pricing_plan_id":"free"},{"bike_id":"99b7b3e2-fb47-4e03-b5b8-5bf5b8fd0d6c","system_id":"levelo_inurba_marseille","lat":43.29366,"lon":5.412563,"is_reserved":false,"is_disabled":false,"rental_uris":{"android":"levelo://app?vid=99b7b3e2-fb47-4e03-b5b8-5bf5b8fd0d6c","ios":"levelo://app?vid=99b7b3e2-fb47-4e03-b5b8-5bf5b8fd0d6c"},"vehicle_type_id":"4","last_reported":1700665667,"current_range_meters":0,"station_id":"","pricing_plan_id":"free"},{"bike_id":"e853cfe5-1343-4c4e-b887-246d81a3d3f3","system_id":"levelo_inurba_marseille","lat":43.280784,"lon":5.396622,"is_reserved":false,"is_disabled":false,"rental_uris":{"android":"levelo://app?vid=e853cfe5-1343-4c4e-b887-246d81a3d3f3","ios":"levelo://app?vid=e853cfe5-1343-4c4e-b887-246d81a3d3f3"},"vehicle_type_id":"4","last_reported":1700665667,"current_range_meters":28400,"station_id":"ce4bho12rcd13ifvqh2g","pricing_plan_id":"free"},{"bike_id":"475f7b3a-15f1-4152-ad7a-4d114c5f029c","system_id":"levelo_inurba_marseille","lat":43.280784,"lon":5.396622,"is_reserved":false,"is_disabled":false,"rental_uris":{"android":"levelo://app?vid=475f7b3a-15f1-4152-ad7a-4d114c5f029c","ios":"levelo://app?vid=475f7b3a-15f1-4152-ad7a-4d114c5f029c"},"vehicle_type_id":"4","last_reported":1700665667,"current_range_meters":0,"station_id":"ce4bho12rcd13ifvqh2g","pricing_plan_id":"free"},{"bike_id":"bbab0fa0-9a08-4279-9be9-a58b47a3170d","system_id":"levelo_inurba_marseille","lat":43.28073,"lon":5.39664,"is_reserved":false,"is_disabled":false,"rental_uris":{"android":"levelo://app?vid=bbab0fa0-9a08-4279-9be9-a58b47a3170d","ios":"levelo://app?vid=bbab0fa0-9a08-4279-9be9-a58b47a3170d"},"vehicle_type_id":"4","last_reported":1700665667,"current_range_meters":25200,"station_id":"ce4bho12rcd13ifvqh2g","pricing_plan_id":"free"},{"bike_id":"f92bfe7b-cfd4-43d9-93df-c25dbc3e73e1","system_id":"levelo_inurba_marseille","lat":43.280784,"lon":5.396622,"is_reserved":false,"is_disabled":false,"rental_uris":{"android":"levelo://app?vid=f92bfe7b-cfd4-43d9-93df-c25dbc3e73e1","ios":"levelo://app?vid=f92bfe7b-cfd4-43d9-93df-c25dbc3e73e1"},"vehicle_type_id":"4","last_reported":1700665667,"current_range_meters":16800,"station_id":"ce4bho12rcd13ifvqh2g","pricing_plan_id":"free"},{"bike_id":"4c1e0277-ce6e-4d4c-a4b0-c0645b9210da","system_id":"levelo_inurba_marseille","lat":43.283177,"lon":5.401443,"is_reserved":false,"is_disabled":false,"rental_uris":{"android":"levelo://app?vid=4c1e0277-ce6e-4d4c-a4b0-c0645b9210da","ios":"levelo://app?vid=4c1e0277-ce6e-4d4c-a4b0-c0645b9210da"},"vehicle_type_id":"4","last_reported":1700665667,"current_range_meters":0,"station_id":"","pricing_plan_id":"free"},{"bike_id":"44b0fa31-0056-401c-963d-cdf4dcbada0f","system_id":"levelo_inurba_marseille","lat":43.27373,"lon":5.36256,"is_reserved":false,"is_disabled":false,"rental_uris":{"android":"levelo://app?vid=44b0fa31-0056-401c-963d-cdf4dcbada0f","ios":"levelo://app?vid=44b0fa31-0056-401c-963d-cdf4dcbada0f"},"vehicle_type_id":"4","last_reported":1700665667,"current_range_meters":0,"station_id":"ce4bhbh2rcd13ifvqeo0","pricing_plan_id":"free"},{"bike_id":"205d5176-9004-4410-84bc-b759d2404442","system_id":"levelo_inurba_marseille","lat":43.280092,"lon":5.400236,"is_reserved":false,"is_disabled":false,"rental_uris":{"android":"levelo://app?vid=205d5176-9004-4410-84bc-b759d2404442","ios":"levelo://app?vid=205d5176-9004-4410-84bc-b759d2404442"},"vehicle_type_id":"4","last_reported":1700665667,"current_range_meters":24000,"station_id":"ce4bho92rcd13ifvqh4g","pricing_plan_id":"free"},{"bike_id":"6ba38caf-f67b-4f77-9500-1252b8f10ca3","system_id":"levelo_inurba_marseille","lat":43.317121,"lon":5.423936,"is_reserved":false,"is_disabled":false,"rental_uris":{"android":"levelo://app?vid=6ba38caf-f67b-4f77-9500-1252b8f10ca3","ios":"levelo://app?vid=6ba38caf-f67b-4f77-9500-1252b8f10ca3"},"vehicle_type_id":"4","last_reported":1700665667,"current_range_meters":30400,"station_id":"ce4bhp92rcd13ifvqhbg","pricing_plan_id":"free"},{"bike_id":"0bf682b4-d22f-4110-8ef6-9f58e7544fa6","system_id":"levelo_inurba_marseille","lat":43.310785,"lon":5.424305,"is_reserved":false,"is_disabled":false,"rental_uris":{"android":"levelo://app?vid=0bf682b4-d22f-4110-8ef6-9f58e7544fa6","ios":"levelo://app?vid=0bf682b4-d22f-4110-8ef6-9f58e7544fa6"},"vehicle_type_id":"4","last_reported":1700665667,"current_range_meters":27600,"station_id":"ce4bhp92rcd13ifvqhag","pricing_plan_id":"free"},{"bike_id":"1e8af89d-544b-4330-9099-1a0fc0b5775b","system_id":"levelo_inurba_marseille","lat":43.340804,"lon":5.410219,"is_reserved":false,"is_disabled":false,"rental_uris":{"android":"levelo://app?vid=1e8af89d-544b-4330-9099-1a0fc0b5775b","ios":"levelo://app?vid=1e8af89d-544b-4330-9099-1a0fc0b5775b"},"vehicle_type_id":"4","last_reported":1700665667,"current_range_meters":29200,"station_id":"ce4bhqh2rcd13ifvqhlg","pricing_plan_id":"free"},{"bike_id":"945643fb-32f8-4af4-98e8-f7ec4c238fd9","system_id":"levelo_inurba_marseille","lat":43.274103,"lon":5.394016,"is_reserved":false,"is_disabled":false,"rental_uris":{"android":"levelo://app?vid=945643fb-32f8-4af4-98e8-f7ec4c238fd9","ios":"levelo://app?vid=945643fb-32f8-4af4-98e8-f7ec4c238fd9"},"vehicle_type_id":"4","last_reported":1700665667,"current_range_meters":26800,"station_id":"ce4bhdp2rcd13ifvqf20","pricing_plan_id":"free"},{"bike_id":"ca2e96d4-1621-4be1-aab1-74ffffe5ea6d","system_id":"levelo_inurba_marseille","lat":43.273125,"lon":5.390731,"is_reserved":false,"is_disabled":false,"rental_uris":{"android":"levelo://app?vid=ca2e96d4-1621-4be1-aab1-74ffffe5ea6d","ios":"levelo://app?vid=ca2e96d4-1621-4be1-aab1-74ffffe5ea6d"},"vehicle_type_id":"4","last_reported":1700665667,"current_range_meters":14400,"station_id":"ce4bhgp2rcd13ifvqfe0","pricing_plan_id":"free"},{"bike_id":"14ae0bde-c4a8-4415-987a-be1c184c45c9","system_id":"levelo_inurba_marseille","lat":43.27417,"lon":5.39414,"is_reserved":false,"is_disabled":false,"rental_uris":{"android":"levelo://app?vid=14ae0bde-c4a8-4415-987a-be1c184c45c9","ios":"levelo://app?vid=14ae0bde-c4a8-4415-987a-be1c184c45c9"},"vehicle_type_id":"4","last_reported":1700665667,"current_range_meters":4400,"station_id":"ce4bhdp2rcd13ifvqf20","pricing_plan_id":"free"},{"bike_id":"898cfaee-041d-4f8c-a97e-7f36a4bea2d7","system_id":"levelo_inurba_marseille","lat":43.304096,"lon":5.425385,"is_reserved":false,"is_disabled":false,"rental_uris":{"android":"levelo://app?vid=898cfaee-041d-4f8c-a97e-7f36a4bea2d7","ios":"levelo://app?vid=898cfaee-041d-4f8c-a97e-7f36a4bea2d7"},"vehicle_type_id":"4","last_reported":1700665667,"current_range_meters":1600,"station_id":"ce4bhoh2rcd13ifvqh6g","pricing_plan_id":"free"},{"bike_id":"b0ccd6a8-8e66-40e0-8fe9-27aed4b15dd9","system_id":"levelo_inurba_marseille","lat":43.295511,"lon":5.422926,"is_reserved":false,"is_disabled":false,"rental_uris":{"android":"levelo://app?vid=b0ccd6a8-8e66-40e0-8fe9-27aed4b15dd9","ios":"levelo://app?vid=b0ccd6a8-8e66-40e0-8fe9-27aed4b15dd9"},"vehicle_type_id":"4","last_reported":1700665667,"current_range_meters":20400,"station_id":"ce4bhph2rcd13ifvqhdg","pricing_plan_id":"free"},{"bike_id":"923e5edd-455a-4ad4-b4e4-1f846f207b1f","system_id":"levelo_inurba_marseille","lat":43.295511,"lon":5.422926,"is_reserved":false,"is_disabled":false,"rental_uris":{"android":"levelo://app?vid=923e5edd-455a-4ad4-b4e4-1f846f207b1f","ios":"levelo://app?vid=923e5edd-455a-4ad4-b4e4-1f846f207b1f"},"vehicle_type_id":"4","last_reported":1700665667,"current_range_meters":5200,"station_id":"ce4bhph2rcd13ifvqhdg","pricing_plan_id":"free"},{"bike_id":"5230e6e8-a238-479a-8d4b-b0bc50f78ae9","system_id":"levelo_inurba_marseille","lat":43.272116,"lon":5.391747,"is_reserved":false,"is_disabled":false,"rental_uris":{"android":"levelo://app?vid=5230e6e8-a238-479a-8d4b-b0bc50f78ae9","ios":"levelo://app?vid=5230e6e8-a238-479a-8d4b-b0bc50f78ae9"},"vehicle_type_id":"4","last_reported":1700665667,"current_range_meters":0,"station_id":"ce4bhhp2rcd13ifvqfm0","pricing_plan_id":"free"},{"bike_id":"d0bb53f7-f1b8-4609-a668-27efdac67f66","system_id":"levelo_inurba_marseille","lat":43.27195,"lon":5.39248,"is_reserved":false,"is_disabled":false,"rental_uris":{"android":"levelo://app?vid=d0bb53f7-f1b8-4609-a668-27efdac67f66","ios":"levelo://app?vid=d0bb53f7-f1b8-4609-a668-27efdac67f66"},"vehicle_type_id":"4","last_reported":1700665667,"current_range_meters":0,"station_id":"","pricing_plan_id":"free"},{"bike_id":"e069526a-5383-4fc6-bdb3-9ee6376daeb9","system_id":"levelo_inurba_marseille","lat":43.26997,"lon":5.38769,"is_reserved":false,"is_disabled":false,"rental_uris":{"android":"levelo://app?vid=e069526a-5383-4fc6-bdb3-9ee6376daeb9","ios":"levelo://app?vid=e069526a-5383-4fc6-bdb3-9ee6376daeb9"},"vehicle_type_id":"4","last_reported":1700665667,"current_range_meters":0,"station_id":"","pricing_plan_id":"free"},{"bike_id":"b8f76151-b43a-4e61-ae65-a972d2819964","system_id":"levelo_inurba_marseille","lat":43.278128,"lon":5.407195,"is_reserved":false,"is_disabled":false,"rental_uris":{"android":"levelo://app?vid=b8f76151-b43a-4e61-ae65-a972d2819964","ios":"levelo://app?vid=b8f76151-b43a-4e61-ae65-a972d2819964"},"vehicle_type_id":"4","last_reported":1700665667,"current_range_meters":10400,"station_id":"ce4bhnh2rcd13ifvqgtg","pricing_plan_id":"free"},{"bike_id":"e27fd27a-3bd8-4e47-9516-24ed8bffabcb","system_id":"levelo_inurba_marseille","lat":43.279383,"lon":5.410509,"is_reserved":false,"is_disabled":false,"rental_uris":{"android":"levelo://app?vid=e27fd27a-3bd8-4e47-9516-24ed8bffabcb","ios":"levelo://app?vid=e27fd27a-3bd8-4e47-9516-24ed8bffabcb"},"vehicle_type_id":"4","last_reported":1700665667,"current_range_meters":0,"station_id":"ce4bhnp2rcd13ifvqh0g","pricing_plan_id":"free"},{"bike_id":"bd614c07-c63f-4328-8081-5061d819a21f","system_id":"levelo_inurba_marseille","lat":43.269319,"lon":5.389397,"is_reserved":false,"is_disabled":false,"rental_uris":{"android":"levelo://app?vid=bd614c07-c63f-4328-8081-5061d819a21f","ios":"levelo://app?vid=bd614c07-c63f-4328-8081-5061d819a21f"},"vehicle_type_id":"4","last_reported":1700665667,"current_range_meters":28000,"station_id":"ce4bhhh2rcd13ifvqfl0","pricing_plan_id":"free"},{"bike_id":"abc424ef-b806-44b9-b314-0736cfde0408","system_id":"levelo_inurba_marseille","lat":43.26554,"lon":5.37289,"is_reserved":false,"is_disabled":false,"rental_uris":{"android":"levelo://app?vid=abc424ef-b806-44b9-b314-0736cfde0408","ios":"levelo://app?vid=abc424ef-b806-44b9-b314-0736cfde0408"},"vehicle_type_id":"4","last_reported":1700665667,"current_range_meters":6400,"station_id":"ce4bhg12rcd13ifvqf70","pricing_plan_id":"free"},{"bike_id":"28e8ce00-6b21-4e06-9930-c7c4408cc650","system_id":"levelo_inurba_marseille","lat":43.326174,"lon":5.430584,"is_reserved":false,"is_disabled":false,"rental_uris":{"android":"levelo://app?vid=28e8ce00-6b21-4e06-9930-c7c4408cc650","ios":"levelo://app?vid=28e8ce00-6b21-4e06-9930-c7c4408cc650"},"vehicle_type_id":"4","last_reported":1700665667,"current_range_meters":6400,"station_id":"","pricing_plan_id":"free"},{"bike_id":"82709b43-5bfb-478b-a3c9-847b0f5fac72","system_id":"levelo_inurba_marseille","lat":43.27547,"lon":5.40913,"is_reserved":false,"is_disabled":false,"rental_uris":{"android":"levelo://app?vid=82709b43-5bfb-478b-a3c9-847b0f5fac72","ios":"levelo://app?vid=82709b43-5bfb-478b-a3c9-847b0f5fac72"},"vehicle_type_id":"4","last_reported":1700665667,"current_range_meters":0,"station_id":"","pricing_plan_id":"free"},{"bike_id":"2a85dd6c-8954-47fc-8bc0-be2e74364c1a","system_id":"levelo_inurba_marseille","lat":43.267966,"lon":5.393976,"is_reserved":false,"is_disabled":false,"rental_uris":{"android":"levelo://app?vid=2a85dd6c-8954-47fc-8bc0-be2e74364c1a","ios":"levelo://app?vid=2a85dd6c-8954-47fc-8bc0-be2e74364c1a"},"vehicle_type_id":"4","last_reported":1700665667,"current_range_meters":28400,"station_id":"ce4bhh12rcd13ifvqfg0","pricing_plan_id":"free"},{"bike_id":"17b1fd1e-b84f-437b-be4a-b370f53a71ff","system_id":"levelo_inurba_marseille","lat":43.267966,"lon":5.393976,"is_reserved":false,"is_disabled":false,"rental_uris":{"android":"levelo://app?vid=17b1fd1e-b84f-437b-be4a-b370f53a71ff","ios":"levelo://app?vid=17b1fd1e-b84f-437b-be4a-b370f53a71ff"},"vehicle_type_id":"4","last_reported":1700665667,"current_range_meters":9600,"station_id":"ce4bhh12rcd13ifvqfg0","pricing_plan_id":"free"},{"bike_id":"23d1fbd6-83c4-422f-a9fd-0a764f6bb350","system_id":"levelo_inurba_marseille","lat":43.267966,"lon":5.393976,"is_reserved":false,"is_disabled":false,"rental_uris":{"android":"levelo://app?vid=23d1fbd6-83c4-422f-a9fd-0a764f6bb350","ios":"levelo://app?vid=23d1fbd6-83c4-422f-a9fd-0a764f6bb350"},"vehicle_type_id":"4","last_reported":1700665667,"current_range_meters":18800,"station_id":"ce4bhh12rcd13ifvqfg0","pricing_plan_id":"free"},{"bike_id":"2b5f0b27-ae58-4e9e-bd76-c585f78e8a73","system_id":"levelo_inurba_marseille","lat":43.26386,"lon":5.37454,"is_reserved":false,"is_disabled":false,"rental_uris":{"android":"levelo://app?vid=2b5f0b27-ae58-4e9e-bd76-c585f78e8a73","ios":"levelo://app?vid=2b5f0b27-ae58-4e9e-bd76-c585f78e8a73"},"vehicle_type_id":"4","last_reported":1700665667,"current_range_meters":22000,"station_id":"","pricing_plan_id":"free"},{"bike_id":"ff50d869-c21d-4b2d-b482-790957438485","system_id":"levelo_inurba_marseille","lat":43.265569,"lon":5.390047,"is_reserved":false,"is_disabled":false,"rental_uris":{"android":"levelo://app?vid=ff50d869-c21d-4b2d-b482-790957438485","ios":"levelo://app?vid=ff50d869-c21d-4b2d-b482-790957438485"},"vehicle_type_id":"4","last_reported":1700665667,"current_range_meters":0,"station_id":"ce4bhe12rcd13ifvqf30","pricing_plan_id":"free"},{"bike_id":"f7ab0159-e405-4776-b695-a35e301fafaa","system_id":"levelo_inurba_marseille","lat":43.308051,"lon":5.43527,"is_reserved":false,"is_disabled":false,"rental_uris":{"android":"levelo://app?vid=f7ab0159-e405-4776-b695-a35e301fafaa","ios":"levelo://app?vid=f7ab0159-e405-4776-b695-a35e301fafaa"},"vehicle_type_id":"4","last_reported":1700665667,"current_range_meters":26400,"station_id":"ce4bhph2rcd13ifvqheg","pricing_plan_id":"free"},{"bike_id":"4b3b3f3a-6777-4738-904e-73a48dd6fda3","system_id":"levelo_inurba_marseille","lat":43.26564,"lon":5.39024,"is_reserved":false,"is_disabled":false,"rental_uris":{"android":"levelo://app?vid=4b3b3f3a-6777-4738-904e-73a48dd6fda3","ios":"levelo://app?vid=4b3b3f3a-6777-4738-904e-73a48dd6fda3"},"vehicle_type_id":"4","last_reported":1700665667,"current_range_meters":20800,"station_id":"ce4bhe12rcd13ifvqf30","pricing_plan_id":"free"},{"bike_id":"e18d135a-abac-49c3-adaf-d41e53f36a48","system_id":"levelo_inurba_marseille","lat":43.261782,"lon":5.374515,"is_reserved":false,"is_disabled":false,"rental_uris":{"android":"levelo://app?vid=e18d135a-abac-49c3-adaf-d41e53f36a48","ios":"levelo://app?vid=e18d135a-abac-49c3-adaf-d41e53f36a48"},"vehicle_type_id":"4","last_reported":1700665667,"current_range_meters":0,"station_id":"ce4bhgp2rcd13ifvqfc0","pricing_plan_id":"free"},{"bike_id":"0a38ae67-2074-49af-b47a-63152d20c11f","system_id":"levelo_inurba_marseille","lat":43.317104,"lon":5.436818,"is_reserved":false,"is_disabled":false,"rental_uris":{"android":"levelo://app?vid=0a38ae67-2074-49af-b47a-63152d20c11f","ios":"levelo://app?vid=0a38ae67-2074-49af-b47a-63152d20c11f"},"vehicle_type_id":"4","last_reported":1700665667,"current_range_meters":30400,"station_id":"ce4bhp92rcd13ifvqhcg","pricing_plan_id":"free"},{"bike_id":"3b82961a-435b-4567-824c-2750c81553dc","system_id":"levelo_inurba_marseille","lat":43.261782,"lon":5.374515,"is_reserved":false,"is_disabled":false,"rental_uris":{"android":"levelo://app?vid=3b82961a-435b-4567-824c-2750c81553dc","ios":"levelo://app?vid=3b82961a-435b-4567-824c-2750c81553dc"},"vehicle_type_id":"4","last_reported":1700665667,"current_range_meters":13600,"station_id":"ce4bhgp2rcd13ifvqfc0","pricing_plan_id":"free"},{"bike_id":"bb7b8ca5-4fe9-4891-92ec-47e91fdfd99c","system_id":"levelo_inurba_marseille","lat":43.271388,"lon":5.409269,"is_reserved":false,"is_disabled":false,"rental_uris":{"android":"levelo://app?vid=bb7b8ca5-4fe9-4891-92ec-47e91fdfd99c","ios":"levelo://app?vid=bb7b8ca5-4fe9-4891-92ec-47e91fdfd99c"},"vehicle_type_id":"4","last_reported":1700665667,"current_range_meters":25600,"station_id":"ce4bhl12rcd13ifvqgf0","pricing_plan_id":"free"},{"bike_id":"13bc16c3-bee6-4f15-bc06-e2fa5d131a49","system_id":"levelo_inurba_marseille","lat":43.262012,"lon":5.379307,"is_reserved":false,"is_disabled":false,"rental_uris":{"android":"levelo://app?vid=13bc16c3-bee6-4f15-bc06-e2fa5d131a49","ios":"levelo://app?vid=13bc16c3-bee6-4f15-bc06-e2fa5d131a49"},"vehicle_type_id":"4","last_reported":1700665667,"current_range_meters":17600,"station_id":"ce4bhjp2rcd13ifvqg90","pricing_plan_id":"free"},{"bike_id":"fa422122-0c77-4f4e-ad32-6f779e1606bc","system_id":"levelo_inurba_marseille","lat":43.26804,"lon":5.402709,"is_reserved":false,"is_disabled":false,"rental_uris":{"android":"levelo://app?vid=fa422122-0c77-4f4e-ad32-6f779e1606bc","ios":"levelo://app?vid=fa422122-0c77-4f4e-ad32-6f779e1606bc"},"vehicle_type_id":"4","last_reported":1700665667,"current_range_meters":31200,"station_id":"ce501612rcd8frsf0b60","pricing_plan_id":"free"},{"bike_id":"cb16d7ee-4d8d-44c4-bc7a-142b1234ab63","system_id":"levelo_inurba_marseille","lat":43.31725,"lon":5.43786,"is_reserved":false,"is_disabled":false,"rental_uris":{"android":"levelo://app?vid=cb16d7ee-4d8d-44c4-bc7a-142b1234ab63","ios":"levelo://app?vid=cb16d7ee-4d8d-44c4-bc7a-142b1234ab63"},"vehicle_type_id":"4","last_reported":1700665667,"current_range_meters":2800,"station_id":"","pricing_plan_id":"free"},{"bike_id":"cb70a0a7-a3ba-40be-8f5b-54253a525851","system_id":"levelo_inurba_marseille","lat":43.299006,"lon":5.436851,"is_reserved":false,"is_disabled":false,"rental_uris":{"android":"levelo://app?vid=cb70a0a7-a3ba-40be-8f5b-54253a525851","ios":"levelo://app?vid=cb70a0a7-a3ba-40be-8f5b-54253a525851"},"vehicle_type_id":"4","last_reported":1700665667,"current_range_meters":0,"station_id":"ce4bhpp2rcd13ifvqhfg","pricing_plan_id":"free"},{"bike_id":"5ef97ddd-93d4-47a4-a773-0a8c123cf72b","system_id":"levelo_inurba_marseille","lat":43.260225,"lon":5.375455,"is_reserved":false,"is_disabled":false,"rental_uris":{"android":"levelo://app?vid=5ef97ddd-93d4-47a4-a773-0a8c123cf72b","ios":"levelo://app?vid=5ef97ddd-93d4-47a4-a773-0a8c123cf72b"},"vehicle_type_id":"4","last_reported":1700665667,"current_range_meters":26000,"station_id":"ce4bhgh2rcd13ifvqfa0","pricing_plan_id":"free"},{"bike_id":"32c305fb-49cd-4def-8098-02867fc1ff4f","system_id":"levelo_inurba_marseille","lat":43.281548,"lon":5.42643,"is_reserved":false,"is_disabled":false,"rental_uris":{"android":"levelo://app?vid=32c305fb-49cd-4def-8098-02867fc1ff4f","ios":"levelo://app?vid=32c305fb-49cd-4def-8098-02867fc1ff4f"},"vehicle_type_id":"4","last_reported":1700665667,"current_range_meters":22000,"station_id":"ce4bhnh2rcd13ifvqgug","pricing_plan_id":"free"},{"bike_id":"d42732ee-3d1a-47b1-9598-db3afd7b4663","system_id":"levelo_inurba_marseille","lat":43.354362,"lon":5.417162,"is_reserved":false,"is_disabled":false,"rental_uris":{"android":"levelo://app?vid=d42732ee-3d1a-47b1-9598-db3afd7b4663","ios":"levelo://app?vid=d42732ee-3d1a-47b1-9598-db3afd7b4663"},"vehicle_type_id":"4","last_reported":1700665667,"current_range_meters":26400,"station_id":"","pricing_plan_id":"free"},{"bike_id":"63115342-7f05-43c8-8ed8-9f8f6276d436","system_id":"levelo_inurba_marseille","lat":43.2607,"lon":5.393983,"is_reserved":false,"is_disabled":false,"rental_uris":{"android":"levelo://app?vid=63115342-7f05-43c8-8ed8-9f8f6276d436","ios":"levelo://app?vid=63115342-7f05-43c8-8ed8-9f8f6276d436"},"vehicle_type_id":"4","last_reported":1700665667,"current_range_meters":0,"station_id":"ce4bhh92rcd13ifvqfj0","pricing_plan_id":"free"},{"bike_id":"691cf179-f0f3-4f92-94e3-02bf33ea5014","system_id":"levelo_inurba_marseille","lat":43.26095,"lon":5.39755,"is_reserved":false,"is_disabled":false,"rental_uris":{"android":"levelo://app?vid=691cf179-f0f3-4f92-94e3-02bf33ea5014","ios":"levelo://app?vid=691cf179-f0f3-4f92-94e3-02bf33ea5014"},"vehicle_type_id":"4","last_reported":1700665667,"current_range_meters":19200,"station_id":"ce4bhi12rcd13ifvqfq0","pricing_plan_id":"free"},{"bike_id":"6b188708-9907-4cc6-a7fa-bcdecbd5a74b","system_id":"levelo_inurba_marseille","lat":43.27495,"lon":5.42454,"is_reserved":false,"is_disabled":false,"rental_uris":{"android":"levelo://app?vid=6b188708-9907-4cc6-a7fa-bcdecbd5a74b","ios":"levelo://app?vid=6b188708-9907-4cc6-a7fa-bcdecbd5a74b"},"vehicle_type_id":"4","last_reported":1700665667,"current_range_meters":1600,"station_id":"ce4bhn92rcd13ifvqgrg","pricing_plan_id":"free"},{"bike_id":"cba532af-f586-4c42-b339-415842c8b0f4","system_id":"levelo_inurba_marseille","lat":43.255756,"lon":5.382303,"is_reserved":false,"is_disabled":false,"rental_uris":{"android":"levelo://app?vid=cba532af-f586-4c42-b339-415842c8b0f4","ios":"levelo://app?vid=cba532af-f586-4c42-b339-415842c8b0f4"},"vehicle_type_id":"4","last_reported":1700665667,"current_range_meters":800,"station_id":"ce4bhih2rcd13ifvqfs0","pricing_plan_id":"free"},{"bike_id":"8dad53e6-2027-4d6c-9585-c989660da2e2","system_id":"levelo_inurba_marseille","lat":43.255781,"lon":5.382289,"is_reserved":false,"is_disabled":false,"rental_uris":{"android":"levelo://app?vid=8dad53e6-2027-4d6c-9585-c989660da2e2","ios":"levelo://app?vid=8dad53e6-2027-4d6c-9585-c989660da2e2"},"vehicle_type_id":"4","last_reported":1700665667,"current_range_meters":19600,"station_id":"","pricing_plan_id":"free"},{"bike_id":"6bc9d3f5-47aa-4f75-b9a4-0be3a848535f","system_id":"levelo_inurba_marseille","lat":43.255756,"lon":5.382303,"is_reserved":false,"is_disabled":false,"rental_uris":{"android":"levelo://app?vid=6bc9d3f5-47aa-4f75-b9a4-0be3a848535f","ios":"levelo://app?vid=6bc9d3f5-47aa-4f75-b9a4-0be3a848535f"},"vehicle_type_id":"4","last_reported":1700665667,"current_range_meters":15200,"station_id":"ce4bhih2rcd13ifvqfs0","pricing_plan_id":"free"},{"bike_id":"b71bd49b-53f9-46ec-bf97-d14311dd7f6f","system_id":"levelo_inurba_marseille","lat":43.254947,"lon":5.376454,"is_reserved":false,"is_disabled":false,"rental_uris":{"android":"levelo://app?vid=b71bd49b-53f9-46ec-bf97-d14311dd7f6f","ios":"levelo://app?vid=b71bd49b-53f9-46ec-bf97-d14311dd7f6f"},"vehicle_type_id":"4","last_reported":1700665667,"current_range_meters":21600,"station_id":"ce4bhh12rcd13ifvqff0","pricing_plan_id":"free"},{"bike_id":"d80ade70-d274-422e-a88d-5babacce876d","system_id":"levelo_inurba_marseille","lat":43.254945,"lon":5.376454,"is_reserved":false,"is_disabled":false,"rental_uris":{"android":"levelo://app?vid=d80ade70-d274-422e-a88d-5babacce876d","ios":"levelo://app?vid=d80ade70-d274-422e-a88d-5babacce876d"},"vehicle_type_id":"4","last_reported":1700665667,"current_range_meters":3600,"station_id":"ce4bhh12rcd13ifvqff0","pricing_plan_id":"free"},{"bike_id":"c5d3a005-236a-454f-9da2-42ef48164876","system_id":"levelo_inurba_marseille","lat":43.254945,"lon":5.376454,"is_reserved":false,"is_disabled":false,"rental_uris":{"android":"levelo://app?vid=c5d3a005-236a-454f-9da2-42ef48164876","ios":"levelo://app?vid=c5d3a005-236a-454f-9da2-42ef48164876"},"vehicle_type_id":"4","last_reported":1700665667,"current_range_meters":23200,"station_id":"ce4bhh12rcd13ifvqff0","pricing_plan_id":"free"},{"bike_id":"e0581b22-1690-49e5-80bc-dac9fe782f22","system_id":"levelo_inurba_marseille","lat":43.258658,"lon":5.398935,"is_reserved":false,"is_disabled":false,"rental_uris":{"android":"levelo://app?vid=e0581b22-1690-49e5-80bc-dac9fe782f22","ios":"levelo://app?vid=e0581b22-1690-49e5-80bc-dac9fe782f22"},"vehicle_type_id":"4","last_reported":1700665667,"current_range_meters":10800,"station_id":"ce4bhl92rcd13ifvqghg","pricing_plan_id":"free"},{"bike_id":"f6c75001-6509-4286-8b7d-d98cf0f26601","system_id":"levelo_inurba_marseille","lat":43.258658,"lon":5.398935,"is_reserved":false,"is_disabled":false,"rental_uris":{"android":"levelo://app?vid=f6c75001-6509-4286-8b7d-d98cf0f26601","ios":"levelo://app?vid=f6c75001-6509-4286-8b7d-d98cf0f26601"},"vehicle_type_id":"4","last_reported":1700665667,"current_range_meters":19200,"station_id":"ce4bhl92rcd13ifvqghg","pricing_plan_id":"free"},{"bike_id":"50290bb8-efd3-482d-b021-7495607ee03f","system_id":"levelo_inurba_marseille","lat":43.25858,"lon":5.3991,"is_reserved":false,"is_disabled":false,"rental_uris":{"android":"levelo://app?vid=50290bb8-efd3-482d-b021-7495607ee03f","ios":"levelo://app?vid=50290bb8-efd3-482d-b021-7495607ee03f"},"vehicle_type_id":"4","last_reported":1700665667,"current_range_meters":0,"station_id":"ce4bhl92rcd13ifvqghg","pricing_plan_id":"free"},{"bike_id":"ce1dd411-4d96-4c05-984b-40253993a13a","system_id":"levelo_inurba_marseille","lat":43.259009,"lon":5.40929,"is_reserved":false,"is_disabled":false,"rental_uris":{"android":"levelo://app?vid=ce1dd411-4d96-4c05-984b-40253993a13a","ios":"levelo://app?vid=ce1dd411-4d96-4c05-984b-40253993a13a"},"vehicle_type_id":"4","last_reported":1700665667,"current_range_meters":31200,"station_id":"ce4bhm92rcd13ifvqglg","pricing_plan_id":"free"},{"bike_id":"eedf2e51-beb6-448c-9be8-f02e29717301","system_id":"levelo_inurba_marseille","lat":43.257079,"lon":5.411051,"is_reserved":false,"is_disabled":false,"rental_uris":{"android":"levelo://app?vid=eedf2e51-beb6-448c-9be8-f02e29717301","ios":"levelo://app?vid=eedf2e51-beb6-448c-9be8-f02e29717301"},"vehicle_type_id":"4","last_reported":1700665667,"current_range_meters":31200,"station_id":"ce4bhkp2rcd13ifvqgd0","pricing_plan_id":"free"},{"bike_id":"80b7ea5e-3bb4-4aba-855b-28a8ee236115","system_id":"levelo_inurba_marseille","lat":43.2479,"lon":5.374457,"is_reserved":false,"is_disabled":false,"rental_uris":{"android":"levelo://app?vid=80b7ea5e-3bb4-4aba-855b-28a8ee236115","ios":"levelo://app?vid=80b7ea5e-3bb4-4aba-855b-28a8ee236115"},"vehicle_type_id":"4","last_reported":1700665667,"current_range_meters":22400,"station_id":"ce4bhgh2rcd13ifvqfb0","pricing_plan_id":"free"},{"bike_id":"2e4ed2b1-2b40-448a-b670-10e9b896e51d","system_id":"levelo_inurba_marseille","lat":43.2479,"lon":5.374457,"is_reserved":false,"is_disabled":false,"rental_uris":{"android":"levelo://app?vid=2e4ed2b1-2b40-448a-b670-10e9b896e51d","ios":"levelo://app?vid=2e4ed2b1-2b40-448a-b670-10e9b896e51d"},"vehicle_type_id":"4","last_reported":1700665667,"current_range_meters":14400,"station_id":"ce4bhgh2rcd13ifvqfb0","pricing_plan_id":"free"},{"bike_id":"83c31fe0-6296-486d-908a-6a8b8fa97fc4","system_id":"levelo_inurba_marseille","lat":43.2479,"lon":5.374457,"is_reserved":false,"is_disabled":false,"rental_uris":{"android":"levelo://app?vid=83c31fe0-6296-486d-908a-6a8b8fa97fc4","ios":"levelo://app?vid=83c31fe0-6296-486d-908a-6a8b8fa97fc4"},"vehicle_type_id":"4","last_reported":1700665667,"current_range_meters":28000,"station_id":"ce4bhgh2rcd13ifvqfb0","pricing_plan_id":"free"},{"bike_id":"debcf4bf-ea67-4975-8b6d-2cd238944ab1","system_id":"levelo_inurba_marseille","lat":43.250966,"lon":5.395186,"is_reserved":false,"is_disabled":false,"rental_uris":{"android":"levelo://app?vid=debcf4bf-ea67-4975-8b6d-2cd238944ab1","ios":"levelo://app?vid=debcf4bf-ea67-4975-8b6d-2cd238944ab1"},"vehicle_type_id":"4","last_reported":1700665667,"current_range_meters":8400,"station_id":"ce4bhm12rcd13ifvqgkg","pricing_plan_id":"free"},{"bike_id":"41f5f46b-43c4-43b3-960c-4027b2377a8f","system_id":"levelo_inurba_marseille","lat":43.25102,"lon":5.403214,"is_reserved":false,"is_disabled":false,"rental_uris":{"android":"levelo://app?vid=41f5f46b-43c4-43b3-960c-4027b2377a8f","ios":"levelo://app?vid=41f5f46b-43c4-43b3-960c-4027b2377a8f"},"vehicle_type_id":"4","last_reported":1700665667,"current_range_meters":0,"station_id":"ce4bhlh2rcd13ifvqgig","pricing_plan_id":"free"},{"bike_id":"c765b4f3-419f-48d5-b599-5b16452bbf94","system_id":"levelo_inurba_marseille","lat":43.241077,"lon":5.37721,"is_reserved":false,"is_disabled":false,"rental_uris":{"android":"levelo://app?vid=c765b4f3-419f-48d5-b599-5b16452bbf94","ios":"levelo://app?vid=c765b4f3-419f-48d5-b599-5b16452bbf94"},"vehicle_type_id":"4","last_reported":1700665667,"current_range_meters":11200,"station_id":"ce4bhnp2rcd13ifvqgvg","pricing_plan_id":"free"},{"bike_id":"5a1ba83b-8198-4f26-837c-2fad3ab381eb","system_id":"levelo_inurba_marseille","lat":43.25275,"lon":5.4229,"is_reserved":false,"is_disabled":false,"rental_uris":{"android":"levelo://app?vid=5a1ba83b-8198-4f26-837c-2fad3ab381eb","ios":"levelo://app?vid=5a1ba83b-8198-4f26-837c-2fad3ab381eb"},"vehicle_type_id":"4","last_reported":1700665667,"current_range_meters":5600,"station_id":"","pricing_plan_id":"free"},{"bike_id":"44179302-ba69-43d9-a22d-142ac6bb91e8","system_id":"levelo_inurba_marseille","lat":43.239588,"lon":5.366238,"is_reserved":false,"is_disabled":false,"rental_uris":{"android":"levelo://app?vid=44179302-ba69-43d9-a22d-142ac6bb91e8","ios":"levelo://app?vid=44179302-ba69-43d9-a22d-142ac6bb91e8"},"vehicle_type_id":"4","last_reported":1700665667,"current_range_meters":28800,"station_id":"ce4bhi12rcd13ifvqfp0","pricing_plan_id":"free"},{"bike_id":"cafd1929-e43a-4097-ae7a-9b99bd7c9fc8","system_id":"levelo_inurba_marseille","lat":43.239588,"lon":5.366238,"is_reserved":false,"is_disabled":false,"rental_uris":{"android":"levelo://app?vid=cafd1929-e43a-4097-ae7a-9b99bd7c9fc8","ios":"levelo://app?vid=cafd1929-e43a-4097-ae7a-9b99bd7c9fc8"},"vehicle_type_id":"4","last_reported":1700665667,"current_range_meters":31600,"station_id":"ce4bhi12rcd13ifvqfp0","pricing_plan_id":"free"},{"bike_id":"18de5b84-11a1-42ad-bf5c-85bc97d648bf","system_id":"levelo_inurba_marseille","lat":43.241782,"lon":5.397261,"is_reserved":false,"is_disabled":false,"rental_uris":{"android":"levelo://app?vid=18de5b84-11a1-42ad-bf5c-85bc97d648bf","ios":"levelo://app?vid=18de5b84-11a1-42ad-bf5c-85bc97d648bf"},"vehicle_type_id":"4","last_reported":1700665667,"current_range_meters":5200,"station_id":"ce4bhn12rcd13ifvqgpg","pricing_plan_id":"free"},{"bike_id":"5523d32e-c5f6-4341-8f62-f1132ee06221","system_id":"levelo_inurba_marseille","lat":43.24177,"lon":5.39738,"is_reserved":false,"is_disabled":false,"rental_uris":{"android":"levelo://app?vid=5523d32e-c5f6-4341-8f62-f1132ee06221","ios":"levelo://app?vid=5523d32e-c5f6-4341-8f62-f1132ee06221"},"vehicle_type_id":"4","last_reported":1700665667,"current_range_meters":6000,"station_id":"","pricing_plan_id":"free"},{"bike_id":"76f48143-0fd7-42d0-85b8-80e7fcf987a7","system_id":"levelo_inurba_marseille","lat":43.231919,"lon":5.355532,"is_reserved":false,"is_disabled":false,"rental_uris":{"android":"levelo://app?vid=76f48143-0fd7-42d0-85b8-80e7fcf987a7","ios":"levelo://app?vid=76f48143-0fd7-42d0-85b8-80e7fcf987a7"},"vehicle_type_id":"4","last_reported":1700665667,"current_range_meters":22800,"station_id":"ce4bhu92rcd13ifvqi70","pricing_plan_id":"free"},{"bike_id":"9a7b7e85-a793-4508-92be-696f872af28f","system_id":"levelo_inurba_marseille","lat":43.23194,"lon":5.35555,"is_reserved":false,"is_disabled":false,"rental_uris":{"android":"levelo://app?vid=9a7b7e85-a793-4508-92be-696f872af28f","ios":"levelo://app?vid=9a7b7e85-a793-4508-92be-696f872af28f"},"vehicle_type_id":"4","last_reported":1700665667,"current_range_meters":30400,"station_id":"ce4bhu92rcd13ifvqi70","pricing_plan_id":"free"},{"bike_id":"03510ac4-47fa-408f-8a51-bec4b93cac90","system_id":"levelo_inurba_marseille","lat":43.231923,"lon":5.355545,"is_reserved":false,"is_disabled":false,"rental_uris":{"android":"levelo://app?vid=03510ac4-47fa-408f-8a51-bec4b93cac90","ios":"levelo://app?vid=03510ac4-47fa-408f-8a51-bec4b93cac90"},"vehicle_type_id":"4","last_reported":1700665667,"current_range_meters":30000,"station_id":"ce4bhu92rcd13ifvqi70","pricing_plan_id":"free"},{"bike_id":"a2de7bbb-1b41-441f-a8d5-3f3e61ace3c7","system_id":"levelo_inurba_marseille","lat":43.231919,"lon":5.355532,"is_reserved":false,"is_disabled":false,"rental_uris":{"android":"levelo://app?vid=a2de7bbb-1b41-441f-a8d5-3f3e61ace3c7","ios":"levelo://app?vid=a2de7bbb-1b41-441f-a8d5-3f3e61ace3c7"},"vehicle_type_id":"4","last_reported":1700665667,"current_range_meters":7600,"station_id":"ce4bhu92rcd13ifvqi70","pricing_plan_id":"free"},{"bike_id":"629cdd66-158d-4c28-849c-447b83f6ce32","system_id":"levelo_inurba_marseille","lat":43.231923,"lon":5.355545,"is_reserved":false,"is_disabled":false,"rental_uris":{"android":"levelo://app?vid=629cdd66-158d-4c28-849c-447b83f6ce32","ios":"levelo://app?vid=629cdd66-158d-4c28-849c-447b83f6ce32"},"vehicle_type_id":"4","last_reported":1700665667,"current_range_meters":31200,"station_id":"ce4bhu92rcd13ifvqi70","pricing_plan_id":"free"},{"bike_id":"5ba30ed2-a488-4ec4-b826-6c3802a68950","system_id":"levelo_inurba_marseille","lat":43.23175,"lon":5.35551,"is_reserved":false,"is_disabled":false,"rental_uris":{"android":"levelo://app?vid=5ba30ed2-a488-4ec4-b826-6c3802a68950","ios":"levelo://app?vid=5ba30ed2-a488-4ec4-b826-6c3802a68950"},"vehicle_type_id":"4","last_reported":1700665667,"current_range_meters":22800,"station_id":"ce4bhu92rcd13ifvqi70","pricing_plan_id":"free"},{"bike_id":"71ee296d-dac4-42a1-b1a8-9035189bd274","system_id":"levelo_inurba_marseille","lat":43.231794,"lon":5.400052,"is_reserved":false,"is_disabled":false,"rental_uris":{"android":"levelo://app?vid=71ee296d-dac4-42a1-b1a8-9035189bd274","ios":"levelo://app?vid=71ee296d-dac4-42a1-b1a8-9035189bd274"},"vehicle_type_id":"4","last_reported":1700665667,"current_range_meters":26400,"station_id":"ce4bhn12rcd13ifvqgqg","pricing_plan_id":"free"},{"bike_id":"faa0ca6f-091a-44f2-aa9f-8113f3d96335","system_id":"levelo_inurba_marseille","lat":43.231793,"lon":5.400044,"is_reserved":false,"is_disabled":false,"rental_uris":{"android":"levelo://app?vid=faa0ca6f-091a-44f2-aa9f-8113f3d96335","ios":"levelo://app?vid=faa0ca6f-091a-44f2-aa9f-8113f3d96335"},"vehicle_type_id":"4","last_reported":1700665667,"current_range_meters":31200,"station_id":"ce4bhn12rcd13ifvqgqg","pricing_plan_id":"free"},{"bike_id":"071837c4-f80c-491c-97d6-e86cba736f07","system_id":"levelo_inurba_marseille","lat":43.231794,"lon":5.400052,"is_reserved":false,"is_disabled":false,"rental_uris":{"android":"levelo://app?vid=071837c4-f80c-491c-97d6-e86cba736f07","ios":"levelo://app?vid=071837c4-f80c-491c-97d6-e86cba736f07"},"vehicle_type_id":"4","last_reported":1700665667,"current_range_meters":23600,"station_id":"ce4bhn12rcd13ifvqgqg","pricing_plan_id":"free"},{"bike_id":"ca9fe9a8-c614-4486-8f21-51a781c1530f","system_id":"levelo_inurba_marseille","lat":43.2315,"lon":5.43723,"is_reserved":false,"is_disabled":false,"rental_uris":{"android":"levelo://app?vid=ca9fe9a8-c614-4486-8f21-51a781c1530f","ios":"levelo://app?vid=ca9fe9a8-c614-4486-8f21-51a781c1530f"},"vehicle_type_id":"4","last_reported":1700665667,"current_range_meters":15600,"station_id":"ce4bhmp2rcd13ifvqgog","pricing_plan_id":"free"},{"bike_id":"6c13008a-96a2-4791-bd74-b608ab828ff5","system_id":"levelo_inurba_marseille","lat":43.231562,"lon":5.436933,"is_reserved":false,"is_disabled":false,"rental_uris":{"android":"levelo://app?vid=6c13008a-96a2-4791-bd74-b608ab828ff5","ios":"levelo://app?vid=6c13008a-96a2-4791-bd74-b608ab828ff5"},"vehicle_type_id":"4","last_reported":1700665667,"current_range_meters":31200,"station_id":"ce4bhmp2rcd13ifvqgog","pricing_plan_id":"free"}]}}