{"last_updated":1743305428,"ttl":60,"version":"2.2","data":{"bikes":[{"bike_id":"ef3ab7e4-47aa-4e48-a63f-a437355606eb","system_id":"levelo_inurba_marseille","lat":43.28061,"lon":5.42109,"is_reserved":false,"is_disabled":false,"rental_uris":{"android":"levelo://app?vid=ef3ab7e4-47aa-4e48-a63f-a437355606eb","ios":"levelo://app?vid=ef3ab7e4-47aa-4e48-a63f-a437355606eb"},"vehicle_type_id":"4","last_reported":1743305428,"current_range_meters":3200,"station_id":"","pricing_plan_id":"cebpf4jnsgd1na2vs0mg"},{"bike_id":"3c895042-c22a-456b-b910-53cf43ea7a0a","system_id":"levelo_inurba_marseille","lat":43.28738,"lon":5.38867,"is_reserved":false,"is_disabled":true,"rental_uris":{"android":"levelo://app?vid=3c895042-c22a-456b-b910-53cf43ea7a0a","ios":"levelo://app?vid=3c895042-c22a-456b-b910-53cf43ea7a0a"},"vehicle_type_id":"4","last_reported":1743305428,"current_range_meters":3200,"station_id":"","pricing_plan_id":"cebpf4jnsgd1na2vs0mg"},{"bike_id":"d7c9e49f-9da5-4b2e-bae8-8dbfb05890a7","system_id":"levelo_inurba_marseille","lat":43.33357,"lon":5.40124,"is_reserved":false,"is_disabled":false,"rental_uris":{"android":"levelo://app?vid=d7c9e49f-9da5-4b2e-bae8-8dbfb05890a7","ios":"levelo://app?vid=d7c9e49f-9da5-4b2e-bae8-8dbfb05890a7"},"vehicle_type_id":"4","last_reported":1743305428,"current_range_meters":3600,"station_id":"","pricing_plan_id":"cebpf4jnsgd1na2vs0mg"},{"bike_id":"5035eaaf-4c4b-4740-b3e0-521452716a6f","system_id":"levelo_inurba_marseille","lat":43.2621,"lon":5.37494,"is_reserved":false,"is_disabled":true,"rental_uris":{"android":"levelo://app?vid=5035eaaf-4c4b-4740-b3e0-521452716a6f","ios":"levelo://app?vid=5035eaaf-4c4b-4740-b3e0-521452716a6f"},"vehicle_type_id":"4","last_reported":1743305428,"current_range_meters":3600,"station_id":"ce4bhgp2rcd13ifvqfc0","pricing_plan_id":"cebpf4jnsgd1na2vs0mg"},{"bike_id":"971c92cb-66df-438d-9a85-e63af939e6ff","system_id":"levelo_inurba_marseille","lat":43.28573,"lon":5.35165,"is_reserved":false,"is_disabled":true,"rental_uris":{"android":"levelo://app?vid=971c92cb-66df-438d-9a85-e63af939e6ff","ios":"levelo://app?vid=971c92cb-66df-438d-9a85-e63af939e6ff"},"vehicle_type_id":"4","last_reported":1743305428,"current_range_meters":3600,"station_id":"","pricing_plan_id":"cebpf4jnsgd1na2vs0mg"},{"bike_id":"2d777215-fde2-4eac-83f9-351710712a4c","system_id":"levelo_inurba_marseille","lat":43.27932,"lon":5.4126,"is_reserved":false,"is_disabled":false,"rental_uris":{"android":"levelo://app?vid=2d777215-fde2-4eac-83f9-351710712a4c","ios":"levelo://app?vid=2d777215-fde2-4eac-83f9-351710712a4c"},"vehicle_type_id":"4","last_reported":1743305428,"current_range_meters":3600,"station_id":"","pricing_plan_id":"cebpf4jnsgd1na2vs0mg"},{"bike_id":"b12f6b2c-18f9-4165-8c08-97a9d2c04c06","system_id":"levelo_inurba_marseille","lat":43.30598,"lon":5.37219,"is_reserved":false,"is_disabled":false,"rental_uris":{"android":"levelo://app?vid=b12f6b2c-18f9-4165-8c08-97a9d2c04c06","ios":"levelo://app?vid=b12f6b2c-18f9-4165-8c08-97a9d2c04c06"},"vehicle_type_id":"4","last_reported":1743305428,"current_range_meters":4000,"station_id":"ce4bgqh2rcd13ifvqc4g","pricing_plan_id":"cebpf4jnsgd1na2vs0mg"},{"bike_id":"5a6cc06f-8919-47d0-b546-cc2b1570760b","system_id":"levelo_inurba_marseille","lat":43.30291,"lon":5.36937,"is_reserved":false,"is_disabled":false,"rental_uris":{"android":"levelo://app?vid=5a6cc06f-8919-47d0-b546-cc2b1570760b","ios":"levelo://app?vid=5a6cc06f-8919-47d0-b546-cc2b1570760b"},"vehicle_type_id":"4","last_reported":1743305428,"current_range_meters":4400,"station_id":"ce4bgqh2rcd13ifvqc5g","pricing_plan_id":"cebpf4jnsgd1na2vs0mg"},{"bike_id":"ad9a233d-7fa9-4124-9034-b1a8ddc1c8f3","system_id":"levelo_inurba_marseille","lat":43.23182,"lon":5.39999,"is_reserved":false,"is_disabled":false,"rental_uris":{"android":"levelo://app?vid=ad9a233d-7fa9-4124-9034-b1a8ddc1c8f3","ios":"levelo://app?vid=ad9a233d-7fa9-4124-9034-b1a8ddc1c8f3"},"vehicle_type_id":"4","last_reported":1743305428,"current_range_meters":4400,"station_id":"ce4bhn12rcd13ifvqgqg","pricing_plan_id":"cebpf4jnsgd1na2vs0mg"},{"bike_id":"7402bd79-0fbf-4f8c-ab2f-aee4b69d0601","system_id":"levelo_inurba_marseille","lat":43.27918,"lon":5.39584,"is_reserved":false,"is_disabled":false,"rental_uris":{"android":"levelo://app?vid=7402bd79-0fbf-4f8c-ab2f-aee4b69d0601","ios":"levelo://app?vid=7402bd79-0fbf-4f8c-ab2f-aee4b69d0601"},"vehicle_type_id":"4","last_reported":1743305428,"current_range_meters":4400,"station_id":"ce4bhf92rcd13ifvqf40","pricing_plan_id":"cebpf4jnsgd1na2vs0mg"},{"bike_id":"43d3f610-2ea9-4eda-a4c8-e3f9706bb87c","system_id":"levelo_inurba_marseille","lat":43.30353,"lon":5.3729,"is_reserved":false,"is_disabled":false,"rental_uris":{"android":"levelo://app?vid=43d3f610-2ea9-4eda-a4c8-e3f9706bb87c","ios":"levelo://app?vid=43d3f610-2ea9-4eda-a4c8-e3f9706bb87c"},"vehicle_type_id":"4","last_reported":1743305428,"current_range_meters":4800,"station_id":"","pricing_plan_id":"cebpf4jnsgd1na2vs0mg"},{"bike_id":"6dd02f85-6cf6-46d2-9894-d0d58ed0d569","system_id":"levelo_inurba_marseille","lat":43.30717,"lon":5.42453,"is_reserved":false,"is_disabled":false,"rental_uris":{"android":"levelo://app?vid=6dd02f85-6cf6-46d2-9894-d0d58ed0d569","ios":"levelo://app?vid=6dd02f85-6cf6-46d2-9894-d0d58ed0d569"},"vehicle_type_id":"4","last_reported":1743305428,"current_range_meters":5600,"station_id":"st_cvj6ca6bvosntc0bfgr0","pricing_plan_id":"cebpf4jnsgd1na2vs0mg"},{"bike_id":"c350c816-6c1c-4ad5-864e-04346f512805","system_id":"levelo_inurba_marseille","lat":43.29558,"lon":5.4227,"is_reserved":false,"is_disabled":false,"rental_uris":{"android":"levelo://app?vid=c350c816-6c1c-4ad5-864e-04346f512805","ios":"levelo://app?vid=c350c816-6c1c-4ad5-864e-04346f512805"},"vehicle_type_id":"4","last_reported":1743305428,"current_range_meters":5600,"station_id":"ce4bhph2rcd13ifvqhdg","pricing_plan_id":"cebpf4jnsgd1na2vs0mg"},{"bike_id":"cd2dc4de-70a1-432b-8900-303cf935d2f7","system_id":"levelo_inurba_marseille","lat":43.24807,"lon":5.37447,"is_reserved":false,"is_disabled":false,"rental_uris":{"android":"levelo://app?vid=cd2dc4de-70a1-432b-8900-303cf935d2f7","ios":"levelo://app?vid=cd2dc4de-70a1-432b-8900-303cf935d2f7"},"vehicle_type_id":"4","last_reported":1743305428,"current_range_meters":5600,"station_id":"ce4bhgh2rcd13ifvqfb0","pricing_plan_id":"cebpf4jnsgd1na2vs0mg"},{"bike_id":"6082a6d8-29f3-4441-bd82-d0f95ead75d7","system_id":"levelo_inurba_marseille","lat":43.23195,"lon":5.35553,"is_reserved":false,"is_disabled":false,"rental_uris":{"android":"levelo://app?vid=6082a6d8-29f3-4441-bd82-d0f95ead75d7","ios":"levelo://app?vid=6082a6d8-29f3-4441-bd82-d0f95ead75d7"},"vehicle_type_id":"4","last_reported":1743305428,"current_range_meters":6000,"station_id":"ce4bhu92rcd13ifvqi70","pricing_plan_id":"cebpf4jnsgd1na2vs0mg"},{"bike_id":"d5ffff0a-47db-470d-a1ce-99a37bfcd090","system_id":"levelo_inurba_marseille","lat":43.2867,"lon":5.35065,"is_reserved":false,"is_disabled":false,"rental_uris":{"android":"levelo://app?vid=d5ffff0a-47db-470d-a1ce-99a37bfcd090","ios":"levelo://app?vid=d5ffff0a-47db-470d-a1ce-99a37bfcd090"},"vehicle_type_id":"4","last_reported":1743305428,"current_range_meters":6000,"station_id":"","pricing_plan_id":"cebpf4jnsgd1na2vs0mg"},{"bike_id":"e63ebc96-4cda-4588-aeed-ac1fbc8ba9de","system_id":"levelo_inurba_marseille","lat":43.24799,"lon":5.37456,"is_reserved":false,"is_disabled":false,"rental_uris":{"android":"levelo://app?vid=e63ebc96-4cda-4588-aeed-ac1fbc8ba9de","ios":"levelo://app?vid=e63ebc96-4cda-4588-aeed-ac1fbc8ba9de"},"vehicle_type_id":"4","last_reported":1743305428,"current_range_meters":6000,"station_id":"ce4bhgh2rcd13ifvqfb0","pricing_plan_id":"cebpf4jnsgd1na2vs0mg"},{"bike_id":"4777850e-a840-44f2-a6a5-fd44a1ac41d3","system_id":"levelo_inurba_marseille","lat":43.28713,"lon":5.39988,"is_reserved":false,"is_disabled":true,"rental_uris":{"android":"levelo://app?vid=4777850e-a840-44f2-a6a5-fd44a1ac41d3","ios":"levelo://app?vid=4777850e-a840-44f2-a6a5-fd44a1ac41d3"},"vehicle_type_id":"4","last_reported":1743305428,"current_range_meters":6400,"station_id":"ce4bho92rcd13ifvqh3g","pricing_plan_id":"cebpf4jnsgd1na2vs0mg"},{"bike_id":"983c4c9f-ee1a-4d13-8ce7-bfd36c479f46","system_id":"levelo_inurba_marseille","lat":43.24168,"lon":5.363997,"is_reserved":false,"is_disabled":false,"rental_uris":{"android":"levelo://app?vid=983c4c9f-ee1a-4d13-8ce7-bfd36c479f46","ios":"levelo://app?vid=983c4c9f-ee1a-4d13-8ce7-bfd36c479f46"},"vehicle_type_id":"4","last_reported":1743305428,"current_range_meters":6400,"station_id":"cpo36qri1sfpv3e86is0","pricing_plan_id":"cebpf4jnsgd1na2vs0mg"},{"bike_id":"91a70422-50ce-459e-8e0b-694a33e948e1","system_id":"levelo_inurba_marseille","lat":43.28415,"lon":5.37505,"is_reserved":false,"is_disabled":false,"rental_uris":{"android":"levelo://app?vid=91a70422-50ce-459e-8e0b-694a33e948e1","ios":"levelo://app?vid=91a70422-50ce-459e-8e0b-694a33e948e1"},"vehicle_type_id":"4","last_reported":1743305428,"current_range_meters":6400,"station_id":"ce4bh412rcd13ifvqds0","pricing_plan_id":"cebpf4jnsgd1na2vs0mg"},{"bike_id":"02ab26d1-cda8-4a6e-b5cd-f0b471ba00de","system_id":"levelo_inurba_marseille","lat":43.23144,"lon":5.43675,"is_reserved":false,"is_disabled":false,"rental_uris":{"android":"levelo://app?vid=02ab26d1-cda8-4a6e-b5cd-f0b471ba00de","ios":"levelo://app?vid=02ab26d1-cda8-4a6e-b5cd-f0b471ba00de"},"vehicle_type_id":"4","last_reported":1743305428,"current_range_meters":6400,"station_id":"ce4bhmp2rcd13ifvqgog","pricing_plan_id":"cebpf4jnsgd1na2vs0mg"},{"bike_id":"388e9556-019a-4b4b-8ff4-37bbffabc80a","system_id":"levelo_inurba_marseille","lat":43.31779,"lon":5.39038,"is_reserved":false,"is_disabled":false,"rental_uris":{"android":"levelo://app?vid=388e9556-019a-4b4b-8ff4-37bbffabc80a","ios":"levelo://app?vid=388e9556-019a-4b4b-8ff4-37bbffabc80a"},"vehicle_type_id":"4","last_reported":1743305428,"current_range_meters":6400,"station_id":"ce4bhqp2rcd13ifvqhng","pricing_plan_id":"cebpf4jnsgd1na2vs0mg"},{"bike_id":"0558bc66-2825-46b4-8c35-dfa19eca05b8","system_id":"levelo_inurba_marseille","lat":43.24402,"lon":5.37086,"is_reserved":false,"is_disabled":false,"rental_uris":{"android":"levelo://app?vid=0558bc66-2825-46b4-8c35-dfa19eca05b8","ios":"levelo://app?vid=0558bc66-2825-46b4-8c35-dfa19eca05b8"},"vehicle_type_id":"4","last_reported":1743305428,"current_range_meters":6400,"station_id":"ce4bhhh2rcd13ifvqfk0","pricing_plan_id":"cebpf4jnsgd1na2vs0mg"},{"bike_id":"0f9fc322-7a0f-4e30-9d4f-f42e9d546b3b","system_id":"levelo_inurba_marseille","lat":43.305397,"lon":5.384324,"is_reserved":false,"is_disabled":true,"rental_uris":{"android":"levelo://app?vid=0f9fc322-7a0f-4e30-9d4f-f42e9d546b3b","ios":"levelo://app?vid=0f9fc322-7a0f-4e30-9d4f-f42e9d546b3b"},"vehicle_type_id":"4","last_reported":1743305428,"current_range_meters":6800,"station_id":"ce4bgg92rcd13ifvqb30","pricing_plan_id":"cebpf4jnsgd1na2vs0mg"},{"bike_id":"01fc88c5-2547-40eb-920a-dd733fd4bdf9","system_id":"levelo_inurba_marseille","lat":43.28721,"lon":5.37949,"is_reserved":false,"is_disabled":false,"rental_uris":{"android":"levelo://app?vid=01fc88c5-2547-40eb-920a-dd733fd4bdf9","ios":"levelo://app?vid=01fc88c5-2547-40eb-920a-dd733fd4bdf9"},"vehicle_type_id":"4","last_reported":1743305428,"current_range_meters":6800,"station_id":"ce4bh9p2rcd13ifvqec0","pricing_plan_id":"cebpf4jnsgd1na2vs0mg"},{"bike_id":"d110ea9c-afe8-47f1-b008-e66bc6e44a55","system_id":"levelo_inurba_marseille","lat":43.28438,"lon":5.34982,"is_reserved":false,"is_disabled":false,"rental_uris":{"android":"levelo://app?vid=d110ea9c-afe8-47f1-b008-e66bc6e44a55","ios":"levelo://app?vid=d110ea9c-afe8-47f1-b008-e66bc6e44a55"},"vehicle_type_id":"4","last_reported":1743305428,"current_range_meters":6800,"station_id":"ce4bhbh2rcd13ifvqepg","pricing_plan_id":"cebpf4jnsgd1na2vs0mg"},{"bike_id":"ef465bf1-9392-4211-b499-ecd2bf1a179f","system_id":"levelo_inurba_marseille","lat":43.28105,"lon":5.44155,"is_reserved":false,"is_disabled":false,"rental_uris":{"android":"levelo://app?vid=ef465bf1-9392-4211-b499-ecd2bf1a179f","ios":"levelo://app?vid=ef465bf1-9392-4211-b499-ecd2bf1a179f"},"vehicle_type_id":"4","last_reported":1743305428,"current_range_meters":6800,"station_id":"","pricing_plan_id":"cebpf4jnsgd1na2vs0mg"},{"bike_id":"865a02c7-239d-4c4a-8242-4ce424cbd659","system_id":"levelo_inurba_marseille","lat":43.29838,"lon":5.39716,"is_reserved":false,"is_disabled":false,"rental_uris":{"android":"levelo://app?vid=865a02c7-239d-4c4a-8242-4ce424cbd659","ios":"levelo://app?vid=865a02c7-239d-4c4a-8242-4ce424cbd659"},"vehicle_type_id":"4","last_reported":1743305428,"current_range_meters":6800,"station_id":"ce4bh0h2rcd13ifvqd50","pricing_plan_id":"cebpf4jnsgd1na2vs0mg"},{"bike_id":"b5ace6c6-32e3-486d-9744-efb1ce0dfa9d","system_id":"levelo_inurba_marseille","lat":43.28927,"lon":5.37137,"is_reserved":false,"is_disabled":true,"rental_uris":{"android":"levelo://app?vid=b5ace6c6-32e3-486d-9744-efb1ce0dfa9d","ios":"levelo://app?vid=b5ace6c6-32e3-486d-9744-efb1ce0dfa9d"},"vehicle_type_id":"4","last_reported":1743305428,"current_range_meters":6800,"station_id":"","pricing_plan_id":"cebpf4jnsgd1na2vs0mg"},{"bike_id":"770d6c35-7072-4da4-a3a1-fdf8bc5b0026","system_id":"levelo_inurba_marseille","lat":43.30926,"lon":5.40151,"is_reserved":false,"is_disabled":false,"rental_uris":{"android":"levelo://app?vid=770d6c35-7072-4da4-a3a1-fdf8bc5b0026","ios":"levelo://app?vid=770d6c35-7072-4da4-a3a1-fdf8bc5b0026"},"vehicle_type_id":"4","last_reported":1743305428,"current_range_meters":6800,"station_id":"ce4bgvp2rcd13ifvqct0","pricing_plan_id":"cebpf4jnsgd1na2vs0mg"},{"bike_id":"8d6abdef-27aa-4d1b-9448-656a6296f19d","system_id":"levelo_inurba_marseille","lat":43.24121,"lon":5.39795,"is_reserved":false,"is_disabled":false,"rental_uris":{"android":"levelo://app?vid=8d6abdef-27aa-4d1b-9448-656a6296f19d","ios":"levelo://app?vid=8d6abdef-27aa-4d1b-9448-656a6296f19d"},"vehicle_type_id":"4","last_reported":1743305428,"current_range_meters":6800,"station_id":"ce4bhn12rcd13ifvqgpg","pricing_plan_id":"cebpf4jnsgd1na2vs0mg"},{"bike_id":"d0e312ef-16fe-4ace-a864-6003e49561f0","system_id":"levelo_inurba_marseille","lat":43.323657,"lon":5.388838,"is_reserved":false,"is_disabled":false,"rental_uris":{"android":"levelo://app?vid=d0e312ef-16fe-4ace-a864-6003e49561f0","ios":"levelo://app?vid=d0e312ef-16fe-4ace-a864-6003e49561f0"},"vehicle_type_id":"4","last_reported":1743305428,"current_range_meters":6800,"station_id":"ce4bhqp2rcd13ifvqhog","pricing_plan_id":"cebpf4jnsgd1na2vs0mg"},{"bike_id":"449ef742-4b05-4a15-9c0d-e1bb0d6115fe","system_id":"levelo_inurba_marseille","lat":43.2568,"lon":5.41132,"is_reserved":false,"is_disabled":false,"rental_uris":{"android":"levelo://app?vid=449ef742-4b05-4a15-9c0d-e1bb0d6115fe","ios":"levelo://app?vid=449ef742-4b05-4a15-9c0d-e1bb0d6115fe"},"vehicle_type_id":"4","last_reported":1743305428,"current_range_meters":6800,"station_id":"ce4bhkp2rcd13ifvqgd0","pricing_plan_id":"cebpf4jnsgd1na2vs0mg"},{"bike_id":"86402da5-f9ef-43b6-a281-06ce7c4c3160","system_id":"levelo_inurba_marseille","lat":43.2861,"lon":5.35107,"is_reserved":false,"is_disabled":false,"rental_uris":{"android":"levelo://app?vid=86402da5-f9ef-43b6-a281-06ce7c4c3160","ios":"levelo://app?vid=86402da5-f9ef-43b6-a281-06ce7c4c3160"},"vehicle_type_id":"4","last_reported":1743305428,"current_range_meters":7200,"station_id":"ce4bhch2rcd13ifvqeug","pricing_plan_id":"cebpf4jnsgd1na2vs0mg"},{"bike_id":"9ea13ed7-8b5a-4e9d-8305-3b23254f7a13","system_id":"levelo_inurba_marseille","lat":43.24043,"lon":5.37776,"is_reserved":false,"is_disabled":false,"rental_uris":{"android":"levelo://app?vid=9ea13ed7-8b5a-4e9d-8305-3b23254f7a13","ios":"levelo://app?vid=9ea13ed7-8b5a-4e9d-8305-3b23254f7a13"},"vehicle_type_id":"4","last_reported":1743305428,"current_range_meters":7200,"station_id":"ce4bhnp2rcd13ifvqgvg","pricing_plan_id":"cebpf4jnsgd1na2vs0mg"},{"bike_id":"e6967797-29d0-4947-88e5-61bc42de65df","system_id":"levelo_inurba_marseille","lat":43.28603,"lon":5.35128,"is_reserved":false,"is_disabled":false,"rental_uris":{"android":"levelo://app?vid=e6967797-29d0-4947-88e5-61bc42de65df","ios":"levelo://app?vid=e6967797-29d0-4947-88e5-61bc42de65df"},"vehicle_type_id":"4","last_reported":1743305428,"current_range_meters":7200,"station_id":"ce4bhch2rcd13ifvqeug","pricing_plan_id":"cebpf4jnsgd1na2vs0mg"},{"bike_id":"a36a9ec1-537e-4091-9d7a-dd0444d14e10","system_id":"levelo_inurba_marseille","lat":43.24823,"lon":5.37486,"is_reserved":false,"is_disabled":false,"rental_uris":{"android":"levelo://app?vid=a36a9ec1-537e-4091-9d7a-dd0444d14e10","ios":"levelo://app?vid=a36a9ec1-537e-4091-9d7a-dd0444d14e10"},"vehicle_type_id":"4","last_reported":1743305428,"current_range_meters":7200,"station_id":"ce4bhgh2rcd13ifvqfb0","pricing_plan_id":"cebpf4jnsgd1na2vs0mg"},{"bike_id":"8146fa8a-bb85-41b3-a961-78ddb70e9b3f","system_id":"levelo_inurba_marseille","lat":43.28616,"lon":5.35108,"is_reserved":false,"is_disabled":false,"rental_uris":{"android":"levelo://app?vid=8146fa8a-bb85-41b3-a961-78ddb70e9b3f","ios":"levelo://app?vid=8146fa8a-bb85-41b3-a961-78ddb70e9b3f"},"vehicle_type_id":"4","last_reported":1743305428,"current_range_meters":7200,"station_id":"ce4bhch2rcd13ifvqeug","pricing_plan_id":"cebpf4jnsgd1na2vs0mg"},{"bike_id":"43eb8fb4-930e-43a0-ad9c-3469db80fc50","system_id":"levelo_inurba_marseille","lat":43.24675,"lon":5.38159,"is_reserved":false,"is_disabled":false,"rental_uris":{"android":"levelo://app?vid=43eb8fb4-930e-43a0-ad9c-3469db80fc50","ios":"levelo://app?vid=43eb8fb4-930e-43a0-ad9c-3469db80fc50"},"vehicle_type_id":"4","last_reported":1743305428,"current_range_meters":7200,"station_id":"ce4bhih2rcd13ifvqfr0","pricing_plan_id":"cebpf4jnsgd1na2vs0mg"},{"bike_id":"5e3b321f-3f1a-471d-96ca-3ae7e8f8d5a5","system_id":"levelo_inurba_marseille","lat":43.27602,"lon":5.3612,"is_reserved":false,"is_disabled":false,"rental_uris":{"android":"levelo://app?vid=5e3b321f-3f1a-471d-96ca-3ae7e8f8d5a5","ios":"levelo://app?vid=5e3b321f-3f1a-471d-96ca-3ae7e8f8d5a5"},"vehicle_type_id":"4","last_reported":1743305428,"current_range_meters":7200,"station_id":"ce4bgj92rcd13ifvqbe0","pricing_plan_id":"cebpf4jnsgd1na2vs0mg"},{"bike_id":"e62732a5-16df-4640-96e8-ae00092d708d","system_id":"levelo_inurba_marseille","lat":43.32345,"lon":5.40586,"is_reserved":false,"is_disabled":false,"rental_uris":{"android":"levelo://app?vid=e62732a5-16df-4640-96e8-ae00092d708d","ios":"levelo://app?vid=e62732a5-16df-4640-96e8-ae00092d708d"},"vehicle_type_id":"4","last_reported":1743305428,"current_range_meters":7200,"station_id":"ce4bhq92rcd13ifvqhjg","pricing_plan_id":"cebpf4jnsgd1na2vs0mg"},{"bike_id":"ade0056c-24a5-436b-ac14-0aeaee884a11","system_id":"levelo_inurba_marseille","lat":43.28451,"lon":5.35882,"is_reserved":false,"is_disabled":false,"rental_uris":{"android":"levelo://app?vid=ade0056c-24a5-436b-ac14-0aeaee884a11","ios":"levelo://app?vid=ade0056c-24a5-436b-ac14-0aeaee884a11"},"vehicle_type_id":"4","last_reported":1743305428,"current_range_meters":7200,"station_id":"ce4bhah2rcd13ifvqei0","pricing_plan_id":"cebpf4jnsgd1na2vs0mg"},{"bike_id":"d14cdd1e-f0b3-48a5-be5e-77128af69a2d","system_id":"levelo_inurba_marseille","lat":43.286314,"lon":5.351131,"is_reserved":false,"is_disabled":false,"rental_uris":{"android":"levelo://app?vid=d14cdd1e-f0b3-48a5-be5e-77128af69a2d","ios":"levelo://app?vid=d14cdd1e-f0b3-48a5-be5e-77128af69a2d"},"vehicle_type_id":"4","last_reported":1743305428,"current_range_meters":7200,"station_id":"ce4bhch2rcd13ifvqeug","pricing_plan_id":"cebpf4jnsgd1na2vs0mg"},{"bike_id":"e4614adf-59ca-49c9-9f29-fb2629aacd37","system_id":"levelo_inurba_marseille","lat":43.28629,"lon":5.3507,"is_reserved":false,"is_disabled":false,"rental_uris":{"android":"levelo://app?vid=e4614adf-59ca-49c9-9f29-fb2629aacd37","ios":"levelo://app?vid=e4614adf-59ca-49c9-9f29-fb2629aacd37"},"vehicle_type_id":"4","last_reported":1743305428,"current_range_meters":7200,"station_id":"ce4bhch2rcd13ifvqeug","pricing_plan_id":"cebpf4jnsgd1na2vs0mg"},{"bike_id":"50c044d8-edcd-4b27-afa3-0d401e68b1d2","system_id":"levelo_inurba_marseille","lat":43.32285,"lon":5.38272,"is_reserved":false,"is_disabled":false,"rental_uris":{"android":"levelo://app?vid=50c044d8-edcd-4b27-afa3-0d401e68b1d2","ios":"levelo://app?vid=50c044d8-edcd-4b27-afa3-0d401e68b1d2"},"vehicle_type_id":"4","last_reported":1743305428,"current_range_meters":7200,"station_id":"ce4bhr12rcd13ifvqhqg","pricing_plan_id":"cebpf4jnsgd1na2vs0mg"},{"bike_id":"96fa1290-e699-40b9-9109-379d3b77c6fb","system_id":"levelo_inurba_marseille","lat":43.33788,"lon":5.39106,"is_reserved":false,"is_disabled":false,"rental_uris":{"android":"levelo://app?vid=96fa1290-e699-40b9-9109-379d3b77c6fb","ios":"levelo://app?vid=96fa1290-e699-40b9-9109-379d3b77c6fb"},"vehicle_type_id":"4","last_reported":1743305428,"current_range_meters":8000,"station_id":"","pricing_plan_id":"cebpf4jnsgd1na2vs0mg"},{"bike_id":"b1ecd358-38ec-4753-8af1-9b87454b444a","system_id":"levelo_inurba_marseille","lat":43.286,"lon":5.35119,"is_reserved":false,"is_disabled":false,"rental_uris":{"android":"levelo://app?vid=b1ecd358-38ec-4753-8af1-9b87454b444a","ios":"levelo://app?vid=b1ecd358-38ec-4753-8af1-9b87454b444a"},"vehicle_type_id":"4","last_reported":1743305428,"current_range_meters":8000,"station_id":"ce4bhch2rcd13ifvqeug","pricing_plan_id":"cebpf4jnsgd1na2vs0mg"},{"bike_id":"296d0da0-4cc4-40ab-acd1-7c240f5eee02","system_id":"levelo_inurba_marseille","lat":43.30588,"lon":5.37608,"is_reserved":false,"is_disabled":false,"rental_uris":{"android":"levelo://app?vid=296d0da0-4cc4-40ab-acd1-7c240f5eee02","ios":"levelo://app?vid=296d0da0-4cc4-40ab-acd1-7c240f5eee02"},"vehicle_type_id":"4","last_reported":1743305428,"current_range_meters":8000,"station_id":"","pricing_plan_id":"cebpf4jnsgd1na2vs0mg"},{"bike_id":"1ae36311-d807-4523-ada5-406c4c1af9b6","system_id":"levelo_inurba_marseille","lat":43.29539,"lon":5.39397,"is_reserved":false,"is_disabled":false,"rental_uris":{"android":"levelo://app?vid=1ae36311-d807-4523-ada5-406c4c1af9b6","ios":"levelo://app?vid=1ae36311-d807-4523-ada5-406c4c1af9b6"},"vehicle_type_id":"4","last_reported":1743305428,"current_range_meters":8000,"station_id":"ce4bh292rcd13ifvqdf0","pricing_plan_id":"cebpf4jnsgd1na2vs0mg"},{"bike_id":"4b2323ae-94b8-41f7-9062-4d9bd4bd549e","system_id":"levelo_inurba_marseille","lat":43.2418,"lon":5.36404,"is_reserved":false,"is_disabled":false,"rental_uris":{"android":"levelo://app?vid=4b2323ae-94b8-41f7-9062-4d9bd4bd549e","ios":"levelo://app?vid=4b2323ae-94b8-41f7-9062-4d9bd4bd549e"},"vehicle_type_id":"4","last_reported":1743305428,"current_range_meters":8000,"station_id":"cpo36qri1sfpv3e86is0","pricing_plan_id":"cebpf4jnsgd1na2vs0mg"},{"bike_id":"4586e23a-2d77-446c-8e8c-a15b6ae5de02","system_id":"levelo_inurba_marseille","lat":43.28596,"lon":5.38134,"is_reserved":false,"is_disabled":false,"rental_uris":{"android":"levelo://app?vid=4586e23a-2d77-446c-8e8c-a15b6ae5de02","ios":"levelo://app?vid=4586e23a-2d77-446c-8e8c-a15b6ae5de02"},"vehicle_type_id":"4","last_reported":1743305428,"current_range_meters":8000,"station_id":"","pricing_plan_id":"cebpf4jnsgd1na2vs0mg"},{"bike_id":"1a8ec8fe-cd0f-44f4-9a76-dfc354a60ccc","system_id":"levelo_inurba_marseille","lat":43.23961,"lon":5.36625,"is_reserved":false,"is_disabled":false,"rental_uris":{"android":"levelo://app?vid=1a8ec8fe-cd0f-44f4-9a76-dfc354a60ccc","ios":"levelo://app?vid=1a8ec8fe-cd0f-44f4-9a76-dfc354a60ccc"},"vehicle_type_id":"4","last_reported":1743305428,"current_range_meters":8000,"station_id":"ce4bhi12rcd13ifvqfp0","pricing_plan_id":"cebpf4jnsgd1na2vs0mg"},{"bike_id":"bccdc0c0-20a2-4696-ad74-263cc8bc333c","system_id":"levelo_inurba_marseille","lat":43.28048,"lon":5.36953,"is_reserved":false,"is_disabled":false,"rental_uris":{"android":"levelo://app?vid=bccdc0c0-20a2-4696-ad74-263cc8bc333c","ios":"levelo://app?vid=bccdc0c0-20a2-4696-ad74-263cc8bc333c"},"vehicle_type_id":"4","last_reported":1743305428,"current_range_meters":8000,"station_id":"ce4bha12rcd13ifvqef0","pricing_plan_id":"cebpf4jnsgd1na2vs0mg"},{"bike_id":"a404cc47-c7c5-4491-a548-3557a4928efd","system_id":"levelo_inurba_marseille","lat":43.28284,"lon":5.39147,"is_reserved":false,"is_disabled":false,"rental_uris":{"android":"levelo://app?vid=a404cc47-c7c5-4491-a548-3557a4928efd","ios":"levelo://app?vid=a404cc47-c7c5-4491-a548-3557a4928efd"},"vehicle_type_id":"4","last_reported":1743305428,"current_range_meters":8000,"station_id":"","pricing_plan_id":"cebpf4jnsgd1na2vs0mg"},{"bike_id":"80700160-576f-48bc-93b3-89ae78698118","system_id":"levelo_inurba_marseille","lat":43.25718,"lon":5.41111,"is_reserved":false,"is_disabled":false,"rental_uris":{"android":"levelo://app?vid=80700160-576f-48bc-93b3-89ae78698118","ios":"levelo://app?vid=80700160-576f-48bc-93b3-89ae78698118"},"vehicle_type_id":"4","last_reported":1743305428,"current_range_meters":8000,"station_id":"ce4bhkp2rcd13ifvqgd0","pricing_plan_id":"cebpf4jnsgd1na2vs0mg"},{"bike_id":"3b9e2dbb-dda4-4ed5-8aef-7e67e6437f0d","system_id":"levelo_inurba_marseille","lat":43.33301,"lon":5.40156,"is_reserved":false,"is_disabled":false,"rental_uris":{"android":"levelo://app?vid=3b9e2dbb-dda4-4ed5-8aef-7e67e6437f0d","ios":"levelo://app?vid=3b9e2dbb-dda4-4ed5-8aef-7e67e6437f0d"},"vehicle_type_id":"4","last_reported":1743305428,"current_range_meters":8000,"station_id":"","pricing_plan_id":"cebpf4jnsgd1na2vs0mg"},{"bike_id":"4cc81884-de11-499d-854b-434327af9601","system_id":"levelo_inurba_marseille","lat":43.28659,"lon":5.36339,"is_reserved":false,"is_disabled":false,"rental_uris":{"android":"levelo://app?vid=4cc81884-de11-499d-854b-434327af9601","ios":"levelo://app?vid=4cc81884-de11-499d-854b-434327af9601"},"vehicle_type_id":"4","last_reported":1743305428,"current_range_meters":8000,"station_id":"ce4bhah2rcd13ifvqej0","pricing_plan_id":"cebpf4jnsgd1na2vs0mg"},{"bike_id":"0b1692c5-67c0-4a62-b8cb-04ffe0e0e9eb","system_id":"levelo_inurba_marseille","lat":43.287053,"lon":5.373955,"is_reserved":false,"is_disabled":false,"rental_uris":{"android":"levelo://app?vid=0b1692c5-67c0-4a62-b8cb-04ffe0e0e9eb","ios":"levelo://app?vid=0b1692c5-67c0-4a62-b8cb-04ffe0e0e9eb"},"vehicle_type_id":"4","last_reported":1743305428,"current_range_meters":8400,"station_id":"ce4bh3p2rcd13ifvqdq0","pricing_plan_id":"cebpf4jnsgd1na2vs0mg"},{"bike_id":"0db7fa48-aafe-40b9-92c9-930a237492e0","system_id":"levelo_inurba_marseille","lat":43.31123,"lon":5.36877,"is_reserved":false,"is_disabled":false,"rental_uris":{"android":"levelo://app?vid=0db7fa48-aafe-40b9-92c9-930a237492e0","ios":"levelo://app?vid=0db7fa48-aafe-40b9-92c9-930a237492e0"},"vehicle_type_id":"4","last_reported":1743305428,"current_range_meters":8400,"station_id":"","pricing_plan_id":"cebpf4jnsgd1na2vs0mg"},{"bike_id":"8c0f6e3f-b370-4d64-ac55-96b0ff55a395","system_id":"levelo_inurba_marseille","lat":43.24441,"lon":5.37005,"is_reserved":false,"is_disabled":false,"rental_uris":{"android":"levelo://app?vid=8c0f6e3f-b370-4d64-ac55-96b0ff55a395","ios":"levelo://app?vid=8c0f6e3f-b370-4d64-ac55-96b0ff55a395"},"vehicle_type_id":"4","last_reported":1743305428,"current_range_meters":8400,"station_id":"","pricing_plan_id":"cebpf4jnsgd1na2vs0mg"},{"bike_id":"e13c5804-8cfa-4e19-af0d-8fc5e4ec2833","system_id":"levelo_inurba_marseille","lat":43.31076,"lon":5.38344,"is_reserved":false,"is_disabled":false,"rental_uris":{"android":"levelo://app?vid=e13c5804-8cfa-4e19-af0d-8fc5e4ec2833","ios":"levelo://app?vid=e13c5804-8cfa-4e19-af0d-8fc5e4ec2833"},"vehicle_type_id":"4","last_reported":1743305428,"current_range_meters":8400,"station_id":"ce4bgv92rcd13ifvqcr0","pricing_plan_id":"cebpf4jnsgd1na2vs0mg"},{"bike_id":"f6e780c4-90a9-4c52-bdda-724b78ccf213","system_id":"levelo_inurba_marseille","lat":43.28728,"lon":5.37941,"is_reserved":false,"is_disabled":false,"rental_uris":{"android":"levelo://app?vid=f6e780c4-90a9-4c52-bdda-724b78ccf213","ios":"levelo://app?vid=f6e780c4-90a9-4c52-bdda-724b78ccf213"},"vehicle_type_id":"4","last_reported":1743305428,"current_range_meters":8400,"station_id":"ce4bh9p2rcd13ifvqec0","pricing_plan_id":"cebpf4jnsgd1na2vs0mg"},{"bike_id":"5a3307a6-54ca-44bc-a5fd-ab80751e6464","system_id":"levelo_inurba_marseille","lat":43.23189,"lon":5.39989,"is_reserved":false,"is_disabled":true,"rental_uris":{"android":"levelo://app?vid=5a3307a6-54ca-44bc-a5fd-ab80751e6464","ios":"levelo://app?vid=5a3307a6-54ca-44bc-a5fd-ab80751e6464"},"vehicle_type_id":"4","last_reported":1743305428,"current_range_meters":8400,"station_id":"ce4bhn12rcd13ifvqgqg","pricing_plan_id":"cebpf4jnsgd1na2vs0mg"},{"bike_id":"fd41ed89-11aa-497a-b561-50586ca9ae0d","system_id":"levelo_inurba_marseille","lat":43.29617,"lon":5.40603,"is_reserved":false,"is_disabled":false,"rental_uris":{"android":"levelo://app?vid=fd41ed89-11aa-497a-b561-50586ca9ae0d","ios":"levelo://app?vid=fd41ed89-11aa-497a-b561-50586ca9ae0d"},"vehicle_type_id":"4","last_reported":1743305428,"current_range_meters":8400,"station_id":"ce4bh0h2rcd13ifvqd60","pricing_plan_id":"cebpf4jnsgd1na2vs0mg"},{"bike_id":"b98594d7-8128-4bc2-a9d4-f4c330986c65","system_id":"levelo_inurba_marseille","lat":43.23961,"lon":5.3663,"is_reserved":false,"is_disabled":false,"rental_uris":{"android":"levelo://app?vid=b98594d7-8128-4bc2-a9d4-f4c330986c65","ios":"levelo://app?vid=b98594d7-8128-4bc2-a9d4-f4c330986c65"},"vehicle_type_id":"4","last_reported":1743305428,"current_range_meters":8800,"station_id":"ce4bhi12rcd13ifvqfp0","pricing_plan_id":"cebpf4jnsgd1na2vs0mg"},{"bike_id":"2014ec2d-3dbd-40d7-818b-e9e4b74a24e2","system_id":"levelo_inurba_marseille","lat":43.31325,"lon":5.39692,"is_reserved":false,"is_disabled":false,"rental_uris":{"android":"levelo://app?vid=2014ec2d-3dbd-40d7-818b-e9e4b74a24e2","ios":"levelo://app?vid=2014ec2d-3dbd-40d7-818b-e9e4b74a24e2"},"vehicle_type_id":"4","last_reported":1743305428,"current_range_meters":8800,"station_id":"ce4bgvp2rcd13ifvqcu0","pricing_plan_id":"cebpf4jnsgd1na2vs0mg"},{"bike_id":"97c03575-1a99-42da-ab1d-f359ed466796","system_id":"levelo_inurba_marseille","lat":43.301454,"lon":5.398634,"is_reserved":false,"is_disabled":false,"rental_uris":{"android":"levelo://app?vid=97c03575-1a99-42da-ab1d-f359ed466796","ios":"levelo://app?vid=97c03575-1a99-42da-ab1d-f359ed466796"},"vehicle_type_id":"4","last_reported":1743305428,"current_range_meters":8800,"station_id":"ce4bh0h2rcd13ifvqd40","pricing_plan_id":"cebpf4jnsgd1na2vs0mg"},{"bike_id":"a1b5a514-f0ef-42eb-b1a4-22dd30a86324","system_id":"levelo_inurba_marseille","lat":43.3177,"lon":5.39002,"is_reserved":false,"is_disabled":false,"rental_uris":{"android":"levelo://app?vid=a1b5a514-f0ef-42eb-b1a4-22dd30a86324","ios":"levelo://app?vid=a1b5a514-f0ef-42eb-b1a4-22dd30a86324"},"vehicle_type_id":"4","last_reported":1743305428,"current_range_meters":8800,"station_id":"ce4bhqp2rcd13ifvqhng","pricing_plan_id":"cebpf4jnsgd1na2vs0mg"},{"bike_id":"30d066a4-e674-441e-adfb-bc28e129479b","system_id":"levelo_inurba_marseille","lat":43.29274,"lon":5.36847,"is_reserved":false,"is_disabled":false,"rental_uris":{"android":"levelo://app?vid=30d066a4-e674-441e-adfb-bc28e129479b","ios":"levelo://app?vid=30d066a4-e674-441e-adfb-bc28e129479b"},"vehicle_type_id":"4","last_reported":1743305428,"current_range_meters":9200,"station_id":"ce4bhbp2rcd13ifvqesg","pricing_plan_id":"cebpf4jnsgd1na2vs0mg"},{"bike_id":"a908f285-d3a5-4bf5-8706-ab3f83d2dd08","system_id":"levelo_inurba_marseille","lat":43.28612,"lon":5.35109,"is_reserved":false,"is_disabled":false,"rental_uris":{"android":"levelo://app?vid=a908f285-d3a5-4bf5-8706-ab3f83d2dd08","ios":"levelo://app?vid=a908f285-d3a5-4bf5-8706-ab3f83d2dd08"},"vehicle_type_id":"4","last_reported":1743305428,"current_range_meters":9200,"station_id":"ce4bhch2rcd13ifvqeug","pricing_plan_id":"cebpf4jnsgd1na2vs0mg"},{"bike_id":"49b5a4d5-2ce4-499c-95d5-119862a0acca","system_id":"levelo_inurba_marseille","lat":43.30893,"lon":5.39636,"is_reserved":false,"is_disabled":false,"rental_uris":{"android":"levelo://app?vid=49b5a4d5-2ce4-499c-95d5-119862a0acca","ios":"levelo://app?vid=49b5a4d5-2ce4-499c-95d5-119862a0acca"},"vehicle_type_id":"4","last_reported":1743305428,"current_range_meters":9200,"station_id":"ce4bh012rcd13ifvqcv0","pricing_plan_id":"cebpf4jnsgd1na2vs0mg"},{"bike_id":"9966a88a-dca6-4472-8469-e76b79f2f40b","system_id":"levelo_inurba_marseille","lat":43.30184,"lon":5.36597,"is_reserved":false,"is_disabled":false,"rental_uris":{"android":"levelo://app?vid=9966a88a-dca6-4472-8469-e76b79f2f40b","ios":"levelo://app?vid=9966a88a-dca6-4472-8469-e76b79f2f40b"},"vehicle_type_id":"4","last_reported":1743305428,"current_range_meters":9200,"station_id":"ce4bgrh2rcd13ifvqc8g","pricing_plan_id":"cebpf4jnsgd1na2vs0mg"},{"bike_id":"96ac20e8-5840-4579-b371-184ec6253952","system_id":"levelo_inurba_marseille","lat":43.275018,"lon":5.411495,"is_reserved":false,"is_disabled":false,"rental_uris":{"android":"levelo://app?vid=96ac20e8-5840-4579-b371-184ec6253952","ios":"levelo://app?vid=96ac20e8-5840-4579-b371-184ec6253952"},"vehicle_type_id":"4","last_reported":1743305428,"current_range_meters":9200,"station_id":"","pricing_plan_id":"cebpf4jnsgd1na2vs0mg"},{"bike_id":"f8b97fd5-9566-4b1b-bcbe-5d37c1f690bf","system_id":"levelo_inurba_marseille","lat":43.2893,"lon":5.36631,"is_reserved":false,"is_disabled":false,"rental_uris":{"android":"levelo://app?vid=f8b97fd5-9566-4b1b-bcbe-5d37c1f690bf","ios":"levelo://app?vid=f8b97fd5-9566-4b1b-bcbe-5d37c1f690bf"},"vehicle_type_id":"4","last_reported":1743305428,"current_range_meters":9200,"station_id":"ce4bhap2rcd13ifvqek0","pricing_plan_id":"cebpf4jnsgd1na2vs0mg"},{"bike_id":"ead84735-1991-4501-b506-2229ced7058a","system_id":"levelo_inurba_marseille","lat":43.23036,"lon":5.35504,"is_reserved":false,"is_disabled":false,"rental_uris":{"android":"levelo://app?vid=ead84735-1991-4501-b506-2229ced7058a","ios":"levelo://app?vid=ead84735-1991-4501-b506-2229ced7058a"},"vehicle_type_id":"4","last_reported":1743305428,"current_range_meters":9200,"station_id":"cpo3342slgdg3j2ifvpg","pricing_plan_id":"cebpf4jnsgd1na2vs0mg"},{"bike_id":"89b372e0-e34b-4448-a651-9f0d9816c98e","system_id":"levelo_inurba_marseille","lat":43.24165,"lon":5.36402,"is_reserved":false,"is_disabled":false,"rental_uris":{"android":"levelo://app?vid=89b372e0-e34b-4448-a651-9f0d9816c98e","ios":"levelo://app?vid=89b372e0-e34b-4448-a651-9f0d9816c98e"},"vehicle_type_id":"4","last_reported":1743305428,"current_range_meters":9200,"station_id":"cpo36qri1sfpv3e86is0","pricing_plan_id":"cebpf4jnsgd1na2vs0mg"},{"bike_id":"3f2bcfca-c616-4059-a95b-b1ee7948eb41","system_id":"levelo_inurba_marseille","lat":43.298855,"lon":5.397383,"is_reserved":false,"is_disabled":false,"rental_uris":{"android":"levelo://app?vid=3f2bcfca-c616-4059-a95b-b1ee7948eb41","ios":"levelo://app?vid=3f2bcfca-c616-4059-a95b-b1ee7948eb41"},"vehicle_type_id":"4","last_reported":1743305428,"current_range_meters":9200,"station_id":"ce4bh0h2rcd13ifvqd50","pricing_plan_id":"cebpf4jnsgd1na2vs0mg"},{"bike_id":"0fd25487-4e05-4de4-9b9d-be346d28239c","system_id":"levelo_inurba_marseille","lat":43.31261,"lon":5.40189,"is_reserved":false,"is_disabled":false,"rental_uris":{"android":"levelo://app?vid=0fd25487-4e05-4de4-9b9d-be346d28239c","ios":"levelo://app?vid=0fd25487-4e05-4de4-9b9d-be346d28239c"},"vehicle_type_id":"4","last_reported":1743305428,"current_range_meters":9200,"station_id":"ce4bh092rcd13ifvqd30","pricing_plan_id":"cebpf4jnsgd1na2vs0mg"},{"bike_id":"96131fa3-eae1-4c76-a5ed-3df85de907fa","system_id":"levelo_inurba_marseille","lat":43.29878,"lon":5.39714,"is_reserved":false,"is_disabled":false,"rental_uris":{"android":"levelo://app?vid=96131fa3-eae1-4c76-a5ed-3df85de907fa","ios":"levelo://app?vid=96131fa3-eae1-4c76-a5ed-3df85de907fa"},"vehicle_type_id":"4","last_reported":1743305428,"current_range_meters":9200,"station_id":"ce4bh0h2rcd13ifvqd50","pricing_plan_id":"cebpf4jnsgd1na2vs0mg"},{"bike_id":"5dca16b0-0836-4d29-a112-b6ae5585b009","system_id":"levelo_inurba_marseille","lat":43.28608,"lon":5.35108,"is_reserved":false,"is_disabled":false,"rental_uris":{"android":"levelo://app?vid=5dca16b0-0836-4d29-a112-b6ae5585b009","ios":"levelo://app?vid=5dca16b0-0836-4d29-a112-b6ae5585b009"},"vehicle_type_id":"4","last_reported":1743305428,"current_range_meters":9200,"station_id":"ce4bhch2rcd13ifvqeug","pricing_plan_id":"cebpf4jnsgd1na2vs0mg"},{"bike_id":"d0ed36b4-3c5a-4da6-8fb4-955c321dd03a","system_id":"levelo_inurba_marseille","lat":43.27454,"lon":5.4102,"is_reserved":false,"is_disabled":false,"rental_uris":{"android":"levelo://app?vid=d0ed36b4-3c5a-4da6-8fb4-955c321dd03a","ios":"levelo://app?vid=d0ed36b4-3c5a-4da6-8fb4-955c321dd03a"},"vehicle_type_id":"4","last_reported":1743305428,"current_range_meters":9600,"station_id":"","pricing_plan_id":"cebpf4jnsgd1na2vs0mg"},{"bike_id":"56382eee-a8fa-40dd-bdaa-e22b9db5afbc","system_id":"levelo_inurba_marseille","lat":43.28944,"lon":5.36614,"is_reserved":false,"is_disabled":false,"rental_uris":{"android":"levelo://app?vid=56382eee-a8fa-40dd-bdaa-e22b9db5afbc","ios":"levelo://app?vid=56382eee-a8fa-40dd-bdaa-e22b9db5afbc"},"vehicle_type_id":"4","last_reported":1743305428,"current_range_meters":9600,"station_id":"ce4bhap2rcd13ifvqek0","pricing_plan_id":"cebpf4jnsgd1na2vs0mg"},{"bike_id":"2babefe7-230c-4dd6-abf4-4247c7977333","system_id":"levelo_inurba_marseille","lat":43.30952,"lon":5.4024,"is_reserved":false,"is_disabled":false,"rental_uris":{"android":"levelo://app?vid=2babefe7-230c-4dd6-abf4-4247c7977333","ios":"levelo://app?vid=2babefe7-230c-4dd6-abf4-4247c7977333"},"vehicle_type_id":"4","last_reported":1743305428,"current_range_meters":9600,"station_id":"ce4bgvp2rcd13ifvqct0","pricing_plan_id":"cebpf4jnsgd1na2vs0mg"},{"bike_id":"ac83c8c1-b835-41f6-994e-97455b4e1582","system_id":"levelo_inurba_marseille","lat":43.290384,"lon":5.375703,"is_reserved":false,"is_disabled":false,"rental_uris":{"android":"levelo://app?vid=ac83c8c1-b835-41f6-994e-97455b4e1582","ios":"levelo://app?vid=ac83c8c1-b835-41f6-994e-97455b4e1582"},"vehicle_type_id":"4","last_reported":1743305428,"current_range_meters":9600,"station_id":"ce4bh692rcd13ifvqe90","pricing_plan_id":"cebpf4jnsgd1na2vs0mg"},{"bike_id":"004ed55f-f985-4268-b523-9ed16ba4ea3b","system_id":"levelo_inurba_marseille","lat":43.29265,"lon":5.36857,"is_reserved":false,"is_disabled":true,"rental_uris":{"android":"levelo://app?vid=004ed55f-f985-4268-b523-9ed16ba4ea3b","ios":"levelo://app?vid=004ed55f-f985-4268-b523-9ed16ba4ea3b"},"vehicle_type_id":"4","last_reported":1743305428,"current_range_meters":9600,"station_id":"ce4bhbp2rcd13ifvqesg","pricing_plan_id":"cebpf4jnsgd1na2vs0mg"},{"bike_id":"92bfecbf-789d-4c73-ae76-0e5a1e2a6e8a","system_id":"levelo_inurba_marseille","lat":43.255756,"lon":5.382373,"is_reserved":false,"is_disabled":false,"rental_uris":{"android":"levelo://app?vid=92bfecbf-789d-4c73-ae76-0e5a1e2a6e8a","ios":"levelo://app?vid=92bfecbf-789d-4c73-ae76-0e5a1e2a6e8a"},"vehicle_type_id":"4","last_reported":1743305428,"current_range_meters":9600,"station_id":"ce4bhih2rcd13ifvqfs0","pricing_plan_id":"cebpf4jnsgd1na2vs0mg"},{"bike_id":"92bfe231-1517-47bb-8ba4-94a7113e8089","system_id":"levelo_inurba_marseille","lat":43.23187,"lon":5.35586,"is_reserved":false,"is_disabled":false,"rental_uris":{"android":"levelo://app?vid=92bfe231-1517-47bb-8ba4-94a7113e8089","ios":"levelo://app?vid=92bfe231-1517-47bb-8ba4-94a7113e8089"},"vehicle_type_id":"4","last_reported":1743305428,"current_range_meters":9600,"station_id":"ce4bhu92rcd13ifvqi70","pricing_plan_id":"cebpf4jnsgd1na2vs0mg"},{"bike_id":"488767ae-a52a-41d7-8f9a-e947164469f3","system_id":"levelo_inurba_marseille","lat":43.31624,"lon":5.41652,"is_reserved":false,"is_disabled":true,"rental_uris":{"android":"levelo://app?vid=488767ae-a52a-41d7-8f9a-e947164469f3","ios":"levelo://app?vid=488767ae-a52a-41d7-8f9a-e947164469f3"},"vehicle_type_id":"4","last_reported":1743305428,"current_range_meters":9600,"station_id":"","pricing_plan_id":"cebpf4jnsgd1na2vs0mg"},{"bike_id":"747d2bc2-6706-42d9-8381-8fcc8fac62bd","system_id":"levelo_inurba_marseille","lat":43.28661,"lon":5.36979,"is_reserved":false,"is_disabled":true,"rental_uris":{"android":"levelo://app?vid=747d2bc2-6706-42d9-8381-8fcc8fac62bd","ios":"levelo://app?vid=747d2bc2-6706-42d9-8381-8fcc8fac62bd"},"vehicle_type_id":"4","last_reported":1743305428,"current_range_meters":9600,"station_id":"","pricing_plan_id":"cebpf4jnsgd1na2vs0mg"},{"bike_id":"7699dc8a-14fa-4918-b36a-a478a442365c","system_id":"levelo_inurba_marseille","lat":43.28703,"lon":5.37392,"is_reserved":false,"is_disabled":false,"rental_uris":{"android":"levelo://app?vid=7699dc8a-14fa-4918-b36a-a478a442365c","ios":"levelo://app?vid=7699dc8a-14fa-4918-b36a-a478a442365c"},"vehicle_type_id":"4","last_reported":1743305428,"current_range_meters":9600,"station_id":"ce4bh3p2rcd13ifvqdq0","pricing_plan_id":"cebpf4jnsgd1na2vs0mg"},{"bike_id":"efff04da-c9e4-43ac-af1d-3d2959bd3159","system_id":"levelo_inurba_marseille","lat":43.230663,"lon":5.354929,"is_reserved":false,"is_disabled":false,"rental_uris":{"android":"levelo://app?vid=efff04da-c9e4-43ac-af1d-3d2959bd3159","ios":"levelo://app?vid=efff04da-c9e4-43ac-af1d-3d2959bd3159"},"vehicle_type_id":"4","last_reported":1743305428,"current_range_meters":9600,"station_id":"cpo3342slgdg3j2ifvpg","pricing_plan_id":"cebpf4jnsgd1na2vs0mg"},{"bike_id":"d871a26c-bdd3-4190-ae0c-502f524ad221","system_id":"levelo_inurba_marseille","lat":43.2304,"lon":5.35512,"is_reserved":false,"is_disabled":false,"rental_uris":{"android":"levelo://app?vid=d871a26c-bdd3-4190-ae0c-502f524ad221","ios":"levelo://app?vid=d871a26c-bdd3-4190-ae0c-502f524ad221"},"vehicle_type_id":"4","last_reported":1743305428,"current_range_meters":9600,"station_id":"cpo3342slgdg3j2ifvpg","pricing_plan_id":"cebpf4jnsgd1na2vs0mg"},{"bike_id":"25bb5fbc-8229-4010-b703-31f5ee6ac141","system_id":"levelo_inurba_marseille","lat":43.306266,"lon":5.365938,"is_reserved":false,"is_disabled":false,"rental_uris":{"android":"levelo://app?vid=25bb5fbc-8229-4010-b703-31f5ee6ac141","ios":"levelo://app?vid=25bb5fbc-8229-4010-b703-31f5ee6ac141"},"vehicle_type_id":"4","last_reported":1743305428,"current_range_meters":10000,"station_id":"","pricing_plan_id":"cebpf4jnsgd1na2vs0mg"},{"bike_id":"76d4ed16-8625-4a14-a5f1-d28ac2574c13","system_id":"levelo_inurba_marseille","lat":43.245469,"lon":5.395349,"is_reserved":false,"is_disabled":false,"rental_uris":{"android":"levelo://app?vid=76d4ed16-8625-4a14-a5f1-d28ac2574c13","ios":"levelo://app?vid=76d4ed16-8625-4a14-a5f1-d28ac2574c13"},"vehicle_type_id":"4","last_reported":1743305428,"current_range_meters":10000,"station_id":"","pricing_plan_id":"cebpf4jnsgd1na2vs0mg"},{"bike_id":"7de9dd33-d0eb-4937-8f18-15b92d21ed08","system_id":"levelo_inurba_marseille","lat":43.2582,"lon":5.39431,"is_reserved":false,"is_disabled":false,"rental_uris":{"android":"levelo://app?vid=7de9dd33-d0eb-4937-8f18-15b92d21ed08","ios":"levelo://app?vid=7de9dd33-d0eb-4937-8f18-15b92d21ed08"},"vehicle_type_id":"4","last_reported":1743305428,"current_range_meters":10000,"station_id":"ce4bhip2rcd13ifvqft0","pricing_plan_id":"cebpf4jnsgd1na2vs0mg"},{"bike_id":"9e57ca74-ed45-4da7-894f-d5d0d9f1f893","system_id":"levelo_inurba_marseille","lat":43.30217,"lon":5.39468,"is_reserved":false,"is_disabled":false,"rental_uris":{"android":"levelo://app?vid=9e57ca74-ed45-4da7-894f-d5d0d9f1f893","ios":"levelo://app?vid=9e57ca74-ed45-4da7-894f-d5d0d9f1f893"},"vehicle_type_id":"4","last_reported":1743305428,"current_range_meters":10000,"station_id":"ce4bh0p2rcd13ifvqd70","pricing_plan_id":"cebpf4jnsgd1na2vs0mg"},{"bike_id":"c21459a3-2ffe-4ef6-99f5-3ee1a73df686","system_id":"levelo_inurba_marseille","lat":43.28443,"lon":5.39194,"is_reserved":false,"is_disabled":false,"rental_uris":{"android":"levelo://app?vid=c21459a3-2ffe-4ef6-99f5-3ee1a73df686","ios":"levelo://app?vid=c21459a3-2ffe-4ef6-99f5-3ee1a73df686"},"vehicle_type_id":"4","last_reported":1743305428,"current_range_meters":10000,"station_id":"ce4bhoh2rcd13ifvqh5g","pricing_plan_id":"cebpf4jnsgd1na2vs0mg"},{"bike_id":"c22c38ac-cdc7-4323-bc60-ffc2c0247aa6","system_id":"levelo_inurba_marseille","lat":43.31311,"lon":5.39704,"is_reserved":false,"is_disabled":false,"rental_uris":{"android":"levelo://app?vid=c22c38ac-cdc7-4323-bc60-ffc2c0247aa6","ios":"levelo://app?vid=c22c38ac-cdc7-4323-bc60-ffc2c0247aa6"},"vehicle_type_id":"4","last_reported":1743305428,"current_range_meters":10000,"station_id":"ce4bgvp2rcd13ifvqcu0","pricing_plan_id":"cebpf4jnsgd1na2vs0mg"},{"bike_id":"9e6169ef-5f71-4a72-b3c2-effde3fb2783","system_id":"levelo_inurba_marseille","lat":43.30416,"lon":5.412805,"is_reserved":false,"is_disabled":false,"rental_uris":{"android":"levelo://app?vid=9e6169ef-5f71-4a72-b3c2-effde3fb2783","ios":"levelo://app?vid=9e6169ef-5f71-4a72-b3c2-effde3fb2783"},"vehicle_type_id":"4","last_reported":1743305428,"current_range_meters":10000,"station_id":"ce4bhop2rcd13ifvqh8g","pricing_plan_id":"cebpf4jnsgd1na2vs0mg"},{"bike_id":"fd5a39dd-96b5-442c-99c4-5577adc0b24b","system_id":"levelo_inurba_marseille","lat":43.23177,"lon":5.39984,"is_reserved":false,"is_disabled":false,"rental_uris":{"android":"levelo://app?vid=fd5a39dd-96b5-442c-99c4-5577adc0b24b","ios":"levelo://app?vid=fd5a39dd-96b5-442c-99c4-5577adc0b24b"},"vehicle_type_id":"4","last_reported":1743305428,"current_range_meters":10000,"station_id":"ce4bhn12rcd13ifvqgqg","pricing_plan_id":"cebpf4jnsgd1na2vs0mg"},{"bike_id":"0de4a61d-7cbd-46cd-b57d-5a34b2917f05","system_id":"levelo_inurba_marseille","lat":43.284889,"lon":5.385679,"is_reserved":false,"is_disabled":false,"rental_uris":{"android":"levelo://app?vid=0de4a61d-7cbd-46cd-b57d-5a34b2917f05","ios":"levelo://app?vid=0de4a61d-7cbd-46cd-b57d-5a34b2917f05"},"vehicle_type_id":"4","last_reported":1743305428,"current_range_meters":10000,"station_id":"ce4bh8p2rcd13ifvqeb0","pricing_plan_id":"cebpf4jnsgd1na2vs0mg"},{"bike_id":"8e69e7f9-76b5-4d0a-8b34-45d50fc637f3","system_id":"levelo_inurba_marseille","lat":43.24208,"lon":5.38432,"is_reserved":false,"is_disabled":false,"rental_uris":{"android":"levelo://app?vid=8e69e7f9-76b5-4d0a-8b34-45d50fc637f3","ios":"levelo://app?vid=8e69e7f9-76b5-4d0a-8b34-45d50fc637f3"},"vehicle_type_id":"4","last_reported":1743305428,"current_range_meters":10000,"station_id":"","pricing_plan_id":"cebpf4jnsgd1na2vs0mg"},{"bike_id":"8cf4f201-930c-4d9c-9146-38a1c2c66eff","system_id":"levelo_inurba_marseille","lat":43.28422,"lon":5.34999,"is_reserved":false,"is_disabled":false,"rental_uris":{"android":"levelo://app?vid=8cf4f201-930c-4d9c-9146-38a1c2c66eff","ios":"levelo://app?vid=8cf4f201-930c-4d9c-9146-38a1c2c66eff"},"vehicle_type_id":"4","last_reported":1743305428,"current_range_meters":10000,"station_id":"ce4bhbh2rcd13ifvqepg","pricing_plan_id":"cebpf4jnsgd1na2vs0mg"},{"bike_id":"7b30d470-9209-4d84-9568-3664fac24105","system_id":"levelo_inurba_marseille","lat":43.30883,"lon":5.37194,"is_reserved":false,"is_disabled":false,"rental_uris":{"android":"levelo://app?vid=7b30d470-9209-4d84-9568-3664fac24105","ios":"levelo://app?vid=7b30d470-9209-4d84-9568-3664fac24105"},"vehicle_type_id":"4","last_reported":1743305428,"current_range_meters":10800,"station_id":"ce4bguh2rcd13ifvqckg","pricing_plan_id":"cebpf4jnsgd1na2vs0mg"},{"bike_id":"184094ea-61ab-42ce-9526-c741bc9e525e","system_id":"levelo_inurba_marseille","lat":43.3009,"lon":5.37409,"is_reserved":false,"is_disabled":false,"rental_uris":{"android":"levelo://app?vid=184094ea-61ab-42ce-9526-c741bc9e525e","ios":"levelo://app?vid=184094ea-61ab-42ce-9526-c741bc9e525e"},"vehicle_type_id":"4","last_reported":1743305428,"current_range_meters":10800,"station_id":"ce4bgs92rcd13ifvqcc0","pricing_plan_id":"cebpf4jnsgd1na2vs0mg"},{"bike_id":"1810771d-180c-429a-8a30-334ace6d1fea","system_id":"levelo_inurba_marseille","lat":43.27958,"lon":5.38677,"is_reserved":false,"is_disabled":false,"rental_uris":{"android":"levelo://app?vid=1810771d-180c-429a-8a30-334ace6d1fea","ios":"levelo://app?vid=1810771d-180c-429a-8a30-334ace6d1fea"},"vehicle_type_id":"4","last_reported":1743305428,"current_range_meters":10800,"station_id":"","pricing_plan_id":"cebpf4jnsgd1na2vs0mg"},{"bike_id":"bfc2cb81-5042-44a1-a6a5-e37a7249c860","system_id":"levelo_inurba_marseille","lat":43.299389,"lon":5.385178,"is_reserved":false,"is_disabled":false,"rental_uris":{"android":"levelo://app?vid=bfc2cb81-5042-44a1-a6a5-e37a7249c860","ios":"levelo://app?vid=bfc2cb81-5042-44a1-a6a5-e37a7249c860"},"vehicle_type_id":"4","last_reported":1743305428,"current_range_meters":10800,"station_id":"ce4bgj92rcd13ifvqbd0","pricing_plan_id":"cebpf4jnsgd1na2vs0mg"},{"bike_id":"42bc7b23-0e2f-4d72-b583-40bcdabb28c7","system_id":"levelo_inurba_marseille","lat":43.29543,"lon":5.3738,"is_reserved":false,"is_disabled":false,"rental_uris":{"android":"levelo://app?vid=42bc7b23-0e2f-4d72-b583-40bcdabb28c7","ios":"levelo://app?vid=42bc7b23-0e2f-4d72-b583-40bcdabb28c7"},"vehicle_type_id":"4","last_reported":1743305428,"current_range_meters":10800,"station_id":"","pricing_plan_id":"cebpf4jnsgd1na2vs0mg"},{"bike_id":"e7e272ec-5655-4212-92bf-2cf55a6f2c0e","system_id":"levelo_inurba_marseille","lat":43.3228,"lon":5.38274,"is_reserved":false,"is_disabled":false,"rental_uris":{"android":"levelo://app?vid=e7e272ec-5655-4212-92bf-2cf55a6f2c0e","ios":"levelo://app?vid=e7e272ec-5655-4212-92bf-2cf55a6f2c0e"},"vehicle_type_id":"4","last_reported":1743305428,"current_range_meters":10800,"station_id":"ce4bhr12rcd13ifvqhqg","pricing_plan_id":"cebpf4jnsgd1na2vs0mg"},{"bike_id":"ebf530c5-baf0-4f8b-9740-976f99607fdb","system_id":"levelo_inurba_marseille","lat":43.24177,"lon":5.39729,"is_reserved":false,"is_disabled":false,"rental_uris":{"android":"levelo://app?vid=ebf530c5-baf0-4f8b-9740-976f99607fdb","ios":"levelo://app?vid=ebf530c5-baf0-4f8b-9740-976f99607fdb"},"vehicle_type_id":"4","last_reported":1743305428,"current_range_meters":10800,"station_id":"ce4bhn12rcd13ifvqgpg","pricing_plan_id":"cebpf4jnsgd1na2vs0mg"},{"bike_id":"653ea6de-a177-4007-9cfa-5f3f77e975f6","system_id":"levelo_inurba_marseille","lat":43.24811,"lon":5.37466,"is_reserved":false,"is_disabled":false,"rental_uris":{"android":"levelo://app?vid=653ea6de-a177-4007-9cfa-5f3f77e975f6","ios":"levelo://app?vid=653ea6de-a177-4007-9cfa-5f3f77e975f6"},"vehicle_type_id":"4","last_reported":1743305428,"current_range_meters":10800,"station_id":"ce4bhgh2rcd13ifvqfb0","pricing_plan_id":"cebpf4jnsgd1na2vs0mg"},{"bike_id":"3a0c5bc9-b54e-4426-8ef4-f9c7a26c49cf","system_id":"levelo_inurba_marseille","lat":43.30897,"lon":5.40152,"is_reserved":false,"is_disabled":false,"rental_uris":{"android":"levelo://app?vid=3a0c5bc9-b54e-4426-8ef4-f9c7a26c49cf","ios":"levelo://app?vid=3a0c5bc9-b54e-4426-8ef4-f9c7a26c49cf"},"vehicle_type_id":"4","last_reported":1743305428,"current_range_meters":10800,"station_id":"ce4bgvp2rcd13ifvqct0","pricing_plan_id":"cebpf4jnsgd1na2vs0mg"},{"bike_id":"5347da3b-4766-4b5f-860e-e5fcb38f3a05","system_id":"levelo_inurba_marseille","lat":43.31364,"lon":5.38493,"is_reserved":false,"is_disabled":true,"rental_uris":{"android":"levelo://app?vid=5347da3b-4766-4b5f-860e-e5fcb38f3a05","ios":"levelo://app?vid=5347da3b-4766-4b5f-860e-e5fcb38f3a05"},"vehicle_type_id":"4","last_reported":1743305428,"current_range_meters":10800,"station_id":"ce4bgt92rcd13ifvqcf0","pricing_plan_id":"cebpf4jnsgd1na2vs0mg"},{"bike_id":"71b06318-ccb5-4819-bed3-1d890f104133","system_id":"levelo_inurba_marseille","lat":43.30247,"lon":5.40062,"is_reserved":false,"is_disabled":false,"rental_uris":{"android":"levelo://app?vid=71b06318-ccb5-4819-bed3-1d890f104133","ios":"levelo://app?vid=71b06318-ccb5-4819-bed3-1d890f104133"},"vehicle_type_id":"4","last_reported":1743305428,"current_range_meters":10800,"station_id":"ce4bgvh2rcd13ifvqcs0","pricing_plan_id":"cebpf4jnsgd1na2vs0mg"},{"bike_id":"21b7dfed-4bf3-42a6-9071-9b2b5259da3c","system_id":"levelo_inurba_marseille","lat":43.29609,"lon":5.3714,"is_reserved":false,"is_disabled":true,"rental_uris":{"android":"levelo://app?vid=21b7dfed-4bf3-42a6-9071-9b2b5259da3c","ios":"levelo://app?vid=21b7dfed-4bf3-42a6-9071-9b2b5259da3c"},"vehicle_type_id":"4","last_reported":1743305428,"current_range_meters":10800,"station_id":"ce4bgnh2rcd13ifvqc0g","pricing_plan_id":"cebpf4jnsgd1na2vs0mg"},{"bike_id":"f6925b6c-b8ce-4863-9174-75310d39c7e8","system_id":"levelo_inurba_marseille","lat":43.22915,"lon":5.35366,"is_reserved":false,"is_disabled":false,"rental_uris":{"android":"levelo://app?vid=f6925b6c-b8ce-4863-9174-75310d39c7e8","ios":"levelo://app?vid=f6925b6c-b8ce-4863-9174-75310d39c7e8"},"vehicle_type_id":"4","last_reported":1743305428,"current_range_meters":10800,"station_id":"cpo3532slgdg3j2ikp40","pricing_plan_id":"cebpf4jnsgd1na2vs0mg"},{"bike_id":"a810a8f1-ad12-455f-88f1-3e6b53c9382f","system_id":"levelo_inurba_marseille","lat":43.292254,"lon":5.36046,"is_reserved":false,"is_disabled":false,"rental_uris":{"android":"levelo://app?vid=a810a8f1-ad12-455f-88f1-3e6b53c9382f","ios":"levelo://app?vid=a810a8f1-ad12-455f-88f1-3e6b53c9382f"},"vehicle_type_id":"4","last_reported":1743305428,"current_range_meters":11200,"station_id":"","pricing_plan_id":"cebpf4jnsgd1na2vs0mg"},{"bike_id":"9f50066e-01fa-4519-9f61-8109fe65f5d9","system_id":"levelo_inurba_marseille","lat":43.29754,"lon":5.37145,"is_reserved":false,"is_disabled":false,"rental_uris":{"android":"levelo://app?vid=9f50066e-01fa-4519-9f61-8109fe65f5d9","ios":"levelo://app?vid=9f50066e-01fa-4519-9f61-8109fe65f5d9"},"vehicle_type_id":"4","last_reported":1743305428,"current_range_meters":11200,"station_id":"ce4bgop2rcd13ifvqc1g","pricing_plan_id":"cebpf4jnsgd1na2vs0mg"},{"bike_id":"14c490b6-844b-4566-b5ce-4a1eef9a0745","system_id":"levelo_inurba_marseille","lat":43.27793,"lon":5.40702,"is_reserved":false,"is_disabled":false,"rental_uris":{"android":"levelo://app?vid=14c490b6-844b-4566-b5ce-4a1eef9a0745","ios":"levelo://app?vid=14c490b6-844b-4566-b5ce-4a1eef9a0745"},"vehicle_type_id":"4","last_reported":1743305428,"current_range_meters":11200,"station_id":"ce4bhnh2rcd13ifvqgtg","pricing_plan_id":"cebpf4jnsgd1na2vs0mg"},{"bike_id":"5f24a600-ccb6-47e4-b2c0-25e7ef9e2942","system_id":"levelo_inurba_marseille","lat":43.31081,"lon":5.42435,"is_reserved":false,"is_disabled":false,"rental_uris":{"android":"levelo://app?vid=5f24a600-ccb6-47e4-b2c0-25e7ef9e2942","ios":"levelo://app?vid=5f24a600-ccb6-47e4-b2c0-25e7ef9e2942"},"vehicle_type_id":"4","last_reported":1743305428,"current_range_meters":11200,"station_id":"ce4bhp92rcd13ifvqhag","pricing_plan_id":"cebpf4jnsgd1na2vs0mg"},{"bike_id":"f3a92be8-673b-401f-b821-b8cf9a88891f","system_id":"levelo_inurba_marseille","lat":43.289294,"lon":5.366346,"is_reserved":false,"is_disabled":false,"rental_uris":{"android":"levelo://app?vid=f3a92be8-673b-401f-b821-b8cf9a88891f","ios":"levelo://app?vid=f3a92be8-673b-401f-b821-b8cf9a88891f"},"vehicle_type_id":"4","last_reported":1743305428,"current_range_meters":11200,"station_id":"ce4bhap2rcd13ifvqek0","pricing_plan_id":"cebpf4jnsgd1na2vs0mg"},{"bike_id":"fb5a3640-c2bd-4d5a-a532-631ac7449c3d","system_id":"levelo_inurba_marseille","lat":43.27983,"lon":5.40918,"is_reserved":false,"is_disabled":false,"rental_uris":{"android":"levelo://app?vid=fb5a3640-c2bd-4d5a-a532-631ac7449c3d","ios":"levelo://app?vid=fb5a3640-c2bd-4d5a-a532-631ac7449c3d"},"vehicle_type_id":"4","last_reported":1743305428,"current_range_meters":11200,"station_id":"","pricing_plan_id":"cebpf4jnsgd1na2vs0mg"},{"bike_id":"626d2136-a31c-4224-ba68-9a83c069cd7e","system_id":"levelo_inurba_marseille","lat":43.23181,"lon":5.39977,"is_reserved":false,"is_disabled":false,"rental_uris":{"android":"levelo://app?vid=626d2136-a31c-4224-ba68-9a83c069cd7e","ios":"levelo://app?vid=626d2136-a31c-4224-ba68-9a83c069cd7e"},"vehicle_type_id":"4","last_reported":1743305428,"current_range_meters":11200,"station_id":"ce4bhn12rcd13ifvqgqg","pricing_plan_id":"cebpf4jnsgd1na2vs0mg"},{"bike_id":"0cc92472-d0e4-4683-99ec-a6dc9dd4a34d","system_id":"levelo_inurba_marseille","lat":43.27935,"lon":5.41047,"is_reserved":false,"is_disabled":false,"rental_uris":{"android":"levelo://app?vid=0cc92472-d0e4-4683-99ec-a6dc9dd4a34d","ios":"levelo://app?vid=0cc92472-d0e4-4683-99ec-a6dc9dd4a34d"},"vehicle_type_id":"4","last_reported":1743305428,"current_range_meters":11200,"station_id":"ce4bhnp2rcd13ifvqh0g","pricing_plan_id":"cebpf4jnsgd1na2vs0mg"},{"bike_id":"4acffe49-6242-42f4-bafc-2d3c7e70d53d","system_id":"levelo_inurba_marseille","lat":43.29611,"lon":5.40596,"is_reserved":false,"is_disabled":false,"rental_uris":{"android":"levelo://app?vid=4acffe49-6242-42f4-bafc-2d3c7e70d53d","ios":"levelo://app?vid=4acffe49-6242-42f4-bafc-2d3c7e70d53d"},"vehicle_type_id":"4","last_reported":1743305428,"current_range_meters":11200,"station_id":"ce4bh0h2rcd13ifvqd60","pricing_plan_id":"cebpf4jnsgd1na2vs0mg"},{"bike_id":"7d9cf079-d360-4f0a-90d1-6bb13a2a0550","system_id":"levelo_inurba_marseille","lat":43.31356,"lon":5.38547,"is_reserved":false,"is_disabled":false,"rental_uris":{"android":"levelo://app?vid=7d9cf079-d360-4f0a-90d1-6bb13a2a0550","ios":"levelo://app?vid=7d9cf079-d360-4f0a-90d1-6bb13a2a0550"},"vehicle_type_id":"4","last_reported":1743305428,"current_range_meters":11200,"station_id":"","pricing_plan_id":"cebpf4jnsgd1na2vs0mg"},{"bike_id":"eeca5561-eed2-4d73-a1dd-1171237e7ffa","system_id":"levelo_inurba_marseille","lat":43.27493,"lon":5.42453,"is_reserved":false,"is_disabled":false,"rental_uris":{"android":"levelo://app?vid=eeca5561-eed2-4d73-a1dd-1171237e7ffa","ios":"levelo://app?vid=eeca5561-eed2-4d73-a1dd-1171237e7ffa"},"vehicle_type_id":"4","last_reported":1743305428,"current_range_meters":11600,"station_id":"ce4bhn92rcd13ifvqgrg","pricing_plan_id":"cebpf4jnsgd1na2vs0mg"},{"bike_id":"9c824c75-560a-4b7a-a761-6a75d459c2aa","system_id":"levelo_inurba_marseille","lat":43.26212,"lon":5.37439,"is_reserved":false,"is_disabled":false,"rental_uris":{"android":"levelo://app?vid=9c824c75-560a-4b7a-a761-6a75d459c2aa","ios":"levelo://app?vid=9c824c75-560a-4b7a-a761-6a75d459c2aa"},"vehicle_type_id":"4","last_reported":1743305428,"current_range_meters":11600,"station_id":"ce4bhgp2rcd13ifvqfc0","pricing_plan_id":"cebpf4jnsgd1na2vs0mg"},{"bike_id":"61b93b3e-de2c-498f-9067-20d081913f50","system_id":"levelo_inurba_marseille","lat":43.29177,"lon":5.35818,"is_reserved":false,"is_disabled":false,"rental_uris":{"android":"levelo://app?vid=61b93b3e-de2c-498f-9067-20d081913f50","ios":"levelo://app?vid=61b93b3e-de2c-498f-9067-20d081913f50"},"vehicle_type_id":"4","last_reported":1743305428,"current_range_meters":11600,"station_id":"ce4bhb12rcd13ifvqel0","pricing_plan_id":"cebpf4jnsgd1na2vs0mg"},{"bike_id":"8bcc045e-f28b-442a-a0af-38457b26197c","system_id":"levelo_inurba_marseille","lat":43.241691,"lon":5.363996,"is_reserved":false,"is_disabled":false,"rental_uris":{"android":"levelo://app?vid=8bcc045e-f28b-442a-a0af-38457b26197c","ios":"levelo://app?vid=8bcc045e-f28b-442a-a0af-38457b26197c"},"vehicle_type_id":"4","last_reported":1743305428,"current_range_meters":11600,"station_id":"cpo36qri1sfpv3e86is0","pricing_plan_id":"cebpf4jnsgd1na2vs0mg"},{"bike_id":"2861f50d-7c1b-4253-8cf7-4824b4260319","system_id":"levelo_inurba_marseille","lat":43.283765,"lon":5.386294,"is_reserved":false,"is_disabled":false,"rental_uris":{"android":"levelo://app?vid=2861f50d-7c1b-4253-8cf7-4824b4260319","ios":"levelo://app?vid=2861f50d-7c1b-4253-8cf7-4824b4260319"},"vehicle_type_id":"4","last_reported":1743305428,"current_range_meters":12000,"station_id":"ce4bh492rcd13ifvqdvg","pricing_plan_id":"cebpf4jnsgd1na2vs0mg"},{"bike_id":"8f76027a-87c1-468c-9f93-a7d7f194ac0f","system_id":"levelo_inurba_marseille","lat":43.23205,"lon":5.35542,"is_reserved":false,"is_disabled":false,"rental_uris":{"android":"levelo://app?vid=8f76027a-87c1-468c-9f93-a7d7f194ac0f","ios":"levelo://app?vid=8f76027a-87c1-468c-9f93-a7d7f194ac0f"},"vehicle_type_id":"4","last_reported":1743305428,"current_range_meters":12000,"station_id":"ce4bhu92rcd13ifvqi70","pricing_plan_id":"cebpf4jnsgd1na2vs0mg"},{"bike_id":"787c7258-c69e-43ff-a074-7f72d83ad60e","system_id":"levelo_inurba_marseille","lat":43.28722,"lon":5.37409,"is_reserved":false,"is_disabled":true,"rental_uris":{"android":"levelo://app?vid=787c7258-c69e-43ff-a074-7f72d83ad60e","ios":"levelo://app?vid=787c7258-c69e-43ff-a074-7f72d83ad60e"},"vehicle_type_id":"4","last_reported":1743305428,"current_range_meters":12000,"station_id":"ce4bh3p2rcd13ifvqdq0","pricing_plan_id":"cebpf4jnsgd1na2vs0mg"},{"bike_id":"60a5895b-0fc5-483c-85ae-f59ef653f234","system_id":"levelo_inurba_marseille","lat":43.25477,"lon":5.37674,"is_reserved":false,"is_disabled":false,"rental_uris":{"android":"levelo://app?vid=60a5895b-0fc5-483c-85ae-f59ef653f234","ios":"levelo://app?vid=60a5895b-0fc5-483c-85ae-f59ef653f234"},"vehicle_type_id":"4","last_reported":1743305428,"current_range_meters":12000,"station_id":"ce4bhh12rcd13ifvqff0","pricing_plan_id":"cebpf4jnsgd1na2vs0mg"},{"bike_id":"477a8a0c-d993-469b-a55f-34a2688f7cf6","system_id":"levelo_inurba_marseille","lat":43.27992,"lon":5.41659,"is_reserved":false,"is_disabled":false,"rental_uris":{"android":"levelo://app?vid=477a8a0c-d993-469b-a55f-34a2688f7cf6","ios":"levelo://app?vid=477a8a0c-d993-469b-a55f-34a2688f7cf6"},"vehicle_type_id":"4","last_reported":1743305428,"current_range_meters":12000,"station_id":"ce4bho12rcd13ifvqh1g","pricing_plan_id":"cebpf4jnsgd1na2vs0mg"},{"bike_id":"0e9d92a7-df29-43d8-906d-2a51c6561f7d","system_id":"levelo_inurba_marseille","lat":43.28418,"lon":5.34989,"is_reserved":false,"is_disabled":false,"rental_uris":{"android":"levelo://app?vid=0e9d92a7-df29-43d8-906d-2a51c6561f7d","ios":"levelo://app?vid=0e9d92a7-df29-43d8-906d-2a51c6561f7d"},"vehicle_type_id":"4","last_reported":1743305428,"current_range_meters":12000,"station_id":"ce4bhbh2rcd13ifvqepg","pricing_plan_id":"cebpf4jnsgd1na2vs0mg"},{"bike_id":"5c49fc8b-b573-44cd-9da2-767f8f7a765b","system_id":"levelo_inurba_marseille","lat":43.317607,"lon":5.390168,"is_reserved":false,"is_disabled":false,"rental_uris":{"android":"levelo://app?vid=5c49fc8b-b573-44cd-9da2-767f8f7a765b","ios":"levelo://app?vid=5c49fc8b-b573-44cd-9da2-767f8f7a765b"},"vehicle_type_id":"4","last_reported":1743305428,"current_range_meters":12400,"station_id":"ce4bhqp2rcd13ifvqhng","pricing_plan_id":"cebpf4jnsgd1na2vs0mg"},{"bike_id":"bfcad82b-6acc-493c-b418-93ec0bae17e4","system_id":"levelo_inurba_marseille","lat":43.321,"lon":5.36813,"is_reserved":false,"is_disabled":false,"rental_uris":{"android":"levelo://app?vid=bfcad82b-6acc-493c-b418-93ec0bae17e4","ios":"levelo://app?vid=bfcad82b-6acc-493c-b418-93ec0bae17e4"},"vehicle_type_id":"4","last_reported":1743305428,"current_range_meters":12400,"station_id":"ce4bhrh2rcd13ifvqhug","pricing_plan_id":"cebpf4jnsgd1na2vs0mg"},{"bike_id":"935b76c5-1de4-41eb-a4f9-bcd5c7750693","system_id":"levelo_inurba_marseille","lat":43.31216,"lon":5.36824,"is_reserved":false,"is_disabled":false,"rental_uris":{"android":"levelo://app?vid=935b76c5-1de4-41eb-a4f9-bcd5c7750693","ios":"levelo://app?vid=935b76c5-1de4-41eb-a4f9-bcd5c7750693"},"vehicle_type_id":"4","last_reported":1743305428,"current_range_meters":12400,"station_id":"ce4bgl92rcd13ifvqbq0","pricing_plan_id":"cebpf4jnsgd1na2vs0mg"},{"bike_id":"6ef18dd7-1cb9-4ef6-bfdd-052cde57f183","system_id":"levelo_inurba_marseille","lat":43.32096,"lon":5.36801,"is_reserved":false,"is_disabled":false,"rental_uris":{"android":"levelo://app?vid=6ef18dd7-1cb9-4ef6-bfdd-052cde57f183","ios":"levelo://app?vid=6ef18dd7-1cb9-4ef6-bfdd-052cde57f183"},"vehicle_type_id":"4","last_reported":1743305428,"current_range_meters":12400,"station_id":"ce4bhrh2rcd13ifvqhug","pricing_plan_id":"cebpf4jnsgd1na2vs0mg"},{"bike_id":"5cb8c766-498c-488a-86ec-2317510d9867","system_id":"levelo_inurba_marseille","lat":43.32375,"lon":5.3675,"is_reserved":false,"is_disabled":false,"rental_uris":{"android":"levelo://app?vid=5cb8c766-498c-488a-86ec-2317510d9867","ios":"levelo://app?vid=5cb8c766-498c-488a-86ec-2317510d9867"},"vehicle_type_id":"4","last_reported":1743305428,"current_range_meters":12800,"station_id":"ce4bhsh2rcd13ifvqi2g","pricing_plan_id":"cebpf4jnsgd1na2vs0mg"},{"bike_id":"7e46e322-27d9-4f9d-b1ce-11741eb7c78f","system_id":"levelo_inurba_marseille","lat":43.31773,"lon":5.39007,"is_reserved":false,"is_disabled":false,"rental_uris":{"android":"levelo://app?vid=7e46e322-27d9-4f9d-b1ce-11741eb7c78f","ios":"levelo://app?vid=7e46e322-27d9-4f9d-b1ce-11741eb7c78f"},"vehicle_type_id":"4","last_reported":1743305428,"current_range_meters":12800,"station_id":"ce4bhqp2rcd13ifvqhng","pricing_plan_id":"cebpf4jnsgd1na2vs0mg"},{"bike_id":"82498994-4a36-4b79-835e-f6e29e5c8feb","system_id":"levelo_inurba_marseille","lat":43.23195,"lon":5.35557,"is_reserved":false,"is_disabled":false,"rental_uris":{"android":"levelo://app?vid=82498994-4a36-4b79-835e-f6e29e5c8feb","ios":"levelo://app?vid=82498994-4a36-4b79-835e-f6e29e5c8feb"},"vehicle_type_id":"4","last_reported":1743305428,"current_range_meters":12800,"station_id":"ce4bhu92rcd13ifvqi70","pricing_plan_id":"cebpf4jnsgd1na2vs0mg"},{"bike_id":"eef6f198-30e2-4f80-a632-eacff7db78b9","system_id":"levelo_inurba_marseille","lat":43.30879,"lon":5.39642,"is_reserved":false,"is_disabled":false,"rental_uris":{"android":"levelo://app?vid=eef6f198-30e2-4f80-a632-eacff7db78b9","ios":"levelo://app?vid=eef6f198-30e2-4f80-a632-eacff7db78b9"},"vehicle_type_id":"4","last_reported":1743305428,"current_range_meters":12800,"station_id":"ce4bh012rcd13ifvqcv0","pricing_plan_id":"cebpf4jnsgd1na2vs0mg"},{"bike_id":"59359988-faf5-47a1-b5f8-d319a6e1abfa","system_id":"levelo_inurba_marseille","lat":43.28423,"lon":5.35003,"is_reserved":false,"is_disabled":false,"rental_uris":{"android":"levelo://app?vid=59359988-faf5-47a1-b5f8-d319a6e1abfa","ios":"levelo://app?vid=59359988-faf5-47a1-b5f8-d319a6e1abfa"},"vehicle_type_id":"4","last_reported":1743305428,"current_range_meters":12800,"station_id":"ce4bhbh2rcd13ifvqepg","pricing_plan_id":"cebpf4jnsgd1na2vs0mg"},{"bike_id":"ba362734-34ca-4bcd-8728-cadb040d6152","system_id":"levelo_inurba_marseille","lat":43.24385,"lon":5.37072,"is_reserved":false,"is_disabled":false,"rental_uris":{"android":"levelo://app?vid=ba362734-34ca-4bcd-8728-cadb040d6152","ios":"levelo://app?vid=ba362734-34ca-4bcd-8728-cadb040d6152"},"vehicle_type_id":"4","last_reported":1743305428,"current_range_meters":12800,"station_id":"ce4bhhh2rcd13ifvqfk0","pricing_plan_id":"cebpf4jnsgd1na2vs0mg"},{"bike_id":"823ea277-4675-4c93-906f-e9254970183f","system_id":"levelo_inurba_marseille","lat":43.28707,"lon":5.37926,"is_reserved":false,"is_disabled":false,"rental_uris":{"android":"levelo://app?vid=823ea277-4675-4c93-906f-e9254970183f","ios":"levelo://app?vid=823ea277-4675-4c93-906f-e9254970183f"},"vehicle_type_id":"4","last_reported":1743305428,"current_range_meters":12800,"station_id":"ce4bh9p2rcd13ifvqec0","pricing_plan_id":"cebpf4jnsgd1na2vs0mg"},{"bike_id":"b63eee63-392e-4360-bd35-8f9c5961cdc8","system_id":"levelo_inurba_marseille","lat":43.26015,"lon":5.37543,"is_reserved":false,"is_disabled":false,"rental_uris":{"android":"levelo://app?vid=b63eee63-392e-4360-bd35-8f9c5961cdc8","ios":"levelo://app?vid=b63eee63-392e-4360-bd35-8f9c5961cdc8"},"vehicle_type_id":"4","last_reported":1743305428,"current_range_meters":12800,"station_id":"ce4bhgh2rcd13ifvqfa0","pricing_plan_id":"cebpf4jnsgd1na2vs0mg"},{"bike_id":"b739c9f7-fc64-4adb-af1c-79845bb81462","system_id":"levelo_inurba_marseille","lat":43.31327,"lon":5.39691,"is_reserved":false,"is_disabled":false,"rental_uris":{"android":"levelo://app?vid=b739c9f7-fc64-4adb-af1c-79845bb81462","ios":"levelo://app?vid=b739c9f7-fc64-4adb-af1c-79845bb81462"},"vehicle_type_id":"4","last_reported":1743305428,"current_range_meters":12800,"station_id":"ce4bgvp2rcd13ifvqcu0","pricing_plan_id":"cebpf4jnsgd1na2vs0mg"},{"bike_id":"8e9afe6a-948c-44bd-a1ec-fc4477b65188","system_id":"levelo_inurba_marseille","lat":43.24827,"lon":5.37401,"is_reserved":false,"is_disabled":false,"rental_uris":{"android":"levelo://app?vid=8e9afe6a-948c-44bd-a1ec-fc4477b65188","ios":"levelo://app?vid=8e9afe6a-948c-44bd-a1ec-fc4477b65188"},"vehicle_type_id":"4","last_reported":1743305428,"current_range_meters":12800,"station_id":"","pricing_plan_id":"cebpf4jnsgd1na2vs0mg"},{"bike_id":"b9237059-b33e-4b47-829e-e7b7d4af6dfa","system_id":"levelo_inurba_marseille","lat":43.28727,"lon":5.36087,"is_reserved":false,"is_disabled":false,"rental_uris":{"android":"levelo://app?vid=b9237059-b33e-4b47-829e-e7b7d4af6dfa","ios":"levelo://app?vid=b9237059-b33e-4b47-829e-e7b7d4af6dfa"},"vehicle_type_id":"4","last_reported":1743305428,"current_range_meters":12800,"station_id":"cki0cbj6b192h4jlfktg","pricing_plan_id":"cebpf4jnsgd1na2vs0mg"},{"bike_id":"eb02dc33-a886-4565-978e-dc64b66bd6da","system_id":"levelo_inurba_marseille","lat":43.29799,"lon":5.40414,"is_reserved":false,"is_disabled":false,"rental_uris":{"android":"levelo://app?vid=eb02dc33-a886-4565-978e-dc64b66bd6da","ios":"levelo://app?vid=eb02dc33-a886-4565-978e-dc64b66bd6da"},"vehicle_type_id":"4","last_reported":1743305428,"current_range_meters":13600,"station_id":"ce4bh112rcd13ifvqd90","pricing_plan_id":"cebpf4jnsgd1na2vs0mg"},{"bike_id":"caf91832-bd55-404f-acac-a4c925c76bae","system_id":"levelo_inurba_marseille","lat":43.30901,"lon":5.37197,"is_reserved":false,"is_disabled":false,"rental_uris":{"android":"levelo://app?vid=caf91832-bd55-404f-acac-a4c925c76bae","ios":"levelo://app?vid=caf91832-bd55-404f-acac-a4c925c76bae"},"vehicle_type_id":"4","last_reported":1743305428,"current_range_meters":13600,"station_id":"ce4bguh2rcd13ifvqckg","pricing_plan_id":"cebpf4jnsgd1na2vs0mg"},{"bike_id":"871f3035-10bb-4a28-afa0-18619600e1a6","system_id":"levelo_inurba_marseille","lat":43.29945,"lon":5.365522,"is_reserved":false,"is_disabled":true,"rental_uris":{"android":"levelo://app?vid=871f3035-10bb-4a28-afa0-18619600e1a6","ios":"levelo://app?vid=871f3035-10bb-4a28-afa0-18619600e1a6"},"vehicle_type_id":"4","last_reported":1743305428,"current_range_meters":13600,"station_id":"ce4bgm92rcd13ifvqbr0","pricing_plan_id":"cebpf4jnsgd1na2vs0mg"},{"bike_id":"51f634e3-ac61-4928-9ed6-54eb1e30344e","system_id":"levelo_inurba_marseille","lat":43.296761,"lon":5.372885,"is_reserved":false,"is_disabled":true,"rental_uris":{"android":"levelo://app?vid=51f634e3-ac61-4928-9ed6-54eb1e30344e","ios":"levelo://app?vid=51f634e3-ac61-4928-9ed6-54eb1e30344e"},"vehicle_type_id":"4","last_reported":1743305428,"current_range_meters":13600,"station_id":"ce4bgk12rcd13ifvqbj0","pricing_plan_id":"cebpf4jnsgd1na2vs0mg"},{"bike_id":"799ccde8-5e80-4174-8457-42229912affd","system_id":"levelo_inurba_marseille","lat":43.283829,"lon":5.363189,"is_reserved":false,"is_disabled":false,"rental_uris":{"android":"levelo://app?vid=799ccde8-5e80-4174-8457-42229912affd","ios":"levelo://app?vid=799ccde8-5e80-4174-8457-42229912affd"},"vehicle_type_id":"4","last_reported":1743305428,"current_range_meters":13600,"station_id":"","pricing_plan_id":"cebpf4jnsgd1na2vs0mg"},{"bike_id":"55694635-b48b-4ef4-8e1b-964c89dc7da6","system_id":"levelo_inurba_marseille","lat":43.31247,"lon":5.36838,"is_reserved":false,"is_disabled":false,"rental_uris":{"android":"levelo://app?vid=55694635-b48b-4ef4-8e1b-964c89dc7da6","ios":"levelo://app?vid=55694635-b48b-4ef4-8e1b-964c89dc7da6"},"vehicle_type_id":"4","last_reported":1743305428,"current_range_meters":13600,"station_id":"ce4bgl92rcd13ifvqbq0","pricing_plan_id":"cebpf4jnsgd1na2vs0mg"},{"bike_id":"cb8c9ca5-9083-4e86-9e9f-2bc245af5095","system_id":"levelo_inurba_marseille","lat":43.2841,"lon":5.37517,"is_reserved":false,"is_disabled":true,"rental_uris":{"android":"levelo://app?vid=cb8c9ca5-9083-4e86-9e9f-2bc245af5095","ios":"levelo://app?vid=cb8c9ca5-9083-4e86-9e9f-2bc245af5095"},"vehicle_type_id":"4","last_reported":1743305428,"current_range_meters":13600,"station_id":"ce4bh412rcd13ifvqds0","pricing_plan_id":"cebpf4jnsgd1na2vs0mg"},{"bike_id":"82be5020-df29-4bb6-b821-10f31b9ed89a","system_id":"levelo_inurba_marseille","lat":43.28401,"lon":5.35004,"is_reserved":false,"is_disabled":false,"rental_uris":{"android":"levelo://app?vid=82be5020-df29-4bb6-b821-10f31b9ed89a","ios":"levelo://app?vid=82be5020-df29-4bb6-b821-10f31b9ed89a"},"vehicle_type_id":"4","last_reported":1743305428,"current_range_meters":13600,"station_id":"ce4bhbh2rcd13ifvqepg","pricing_plan_id":"cebpf4jnsgd1na2vs0mg"},{"bike_id":"4cecc92c-55c2-47ad-bd4f-c93295a571e1","system_id":"levelo_inurba_marseille","lat":43.30922,"lon":5.40166,"is_reserved":false,"is_disabled":false,"rental_uris":{"android":"levelo://app?vid=4cecc92c-55c2-47ad-bd4f-c93295a571e1","ios":"levelo://app?vid=4cecc92c-55c2-47ad-bd4f-c93295a571e1"},"vehicle_type_id":"4","last_reported":1743305428,"current_range_meters":13600,"station_id":"ce4bgvp2rcd13ifvqct0","pricing_plan_id":"cebpf4jnsgd1na2vs0mg"},{"bike_id":"f536323a-eaac-4757-bc97-e5f66f238cec","system_id":"levelo_inurba_marseille","lat":43.26806,"lon":5.4026,"is_reserved":false,"is_disabled":false,"rental_uris":{"android":"levelo://app?vid=f536323a-eaac-4757-bc97-e5f66f238cec","ios":"levelo://app?vid=f536323a-eaac-4757-bc97-e5f66f238cec"},"vehicle_type_id":"4","last_reported":1743305428,"current_range_meters":13600,"station_id":"ce501612rcd8frsf0b60","pricing_plan_id":"cebpf4jnsgd1na2vs0mg"},{"bike_id":"f1c9c5ec-eb51-4036-8d49-049cf512a976","system_id":"levelo_inurba_marseille","lat":43.29974,"lon":5.37176,"is_reserved":false,"is_disabled":false,"rental_uris":{"android":"levelo://app?vid=f1c9c5ec-eb51-4036-8d49-049cf512a976","ios":"levelo://app?vid=f1c9c5ec-eb51-4036-8d49-049cf512a976"},"vehicle_type_id":"4","last_reported":1743305428,"current_range_meters":13600,"station_id":"ce4bgr92rcd13ifvqc7g","pricing_plan_id":"cebpf4jnsgd1na2vs0mg"},{"bike_id":"ae8c647a-045a-4b0b-9731-1b4a6fb78bc4","system_id":"levelo_inurba_marseille","lat":43.28695,"lon":5.37931,"is_reserved":false,"is_disabled":false,"rental_uris":{"android":"levelo://app?vid=ae8c647a-045a-4b0b-9731-1b4a6fb78bc4","ios":"levelo://app?vid=ae8c647a-045a-4b0b-9731-1b4a6fb78bc4"},"vehicle_type_id":"4","last_reported":1743305428,"current_range_meters":14000,"station_id":"ce4bh9p2rcd13ifvqec0","pricing_plan_id":"cebpf4jnsgd1na2vs0mg"},{"bike_id":"d657b6c6-9c98-41e1-a011-dd2a714f5f2c","system_id":"levelo_inurba_marseille","lat":43.28447,"lon":5.39191,"is_reserved":false,"is_disabled":false,"rental_uris":{"android":"levelo://app?vid=d657b6c6-9c98-41e1-a011-dd2a714f5f2c","ios":"levelo://app?vid=d657b6c6-9c98-41e1-a011-dd2a714f5f2c"},"vehicle_type_id":"4","last_reported":1743305428,"current_range_meters":14000,"station_id":"ce4bhoh2rcd13ifvqh5g","pricing_plan_id":"cebpf4jnsgd1na2vs0mg"},{"bike_id":"5c5b7fa6-c89a-4a5c-ae9d-68399b480756","system_id":"levelo_inurba_marseille","lat":43.31237,"lon":5.36861,"is_reserved":false,"is_disabled":false,"rental_uris":{"android":"levelo://app?vid=5c5b7fa6-c89a-4a5c-ae9d-68399b480756","ios":"levelo://app?vid=5c5b7fa6-c89a-4a5c-ae9d-68399b480756"},"vehicle_type_id":"4","last_reported":1743305428,"current_range_meters":14000,"station_id":"ce4bgl92rcd13ifvqbq0","pricing_plan_id":"cebpf4jnsgd1na2vs0mg"},{"bike_id":"c67eed27-13e6-4a8f-ab60-752a07a3c412","system_id":"levelo_inurba_marseille","lat":43.31498,"lon":5.37265,"is_reserved":false,"is_disabled":false,"rental_uris":{"android":"levelo://app?vid=c67eed27-13e6-4a8f-ab60-752a07a3c412","ios":"levelo://app?vid=c67eed27-13e6-4a8f-ab60-752a07a3c412"},"vehicle_type_id":"4","last_reported":1743305428,"current_range_meters":14000,"station_id":"ce4bgt12rcd13ifvqcd0","pricing_plan_id":"cebpf4jnsgd1na2vs0mg"},{"bike_id":"4a19bc19-5ecb-4bf4-ae08-464a7381e7ac","system_id":"levelo_inurba_marseille","lat":43.26956,"lon":5.38645,"is_reserved":false,"is_disabled":false,"rental_uris":{"android":"levelo://app?vid=4a19bc19-5ecb-4bf4-ae08-464a7381e7ac","ios":"levelo://app?vid=4a19bc19-5ecb-4bf4-ae08-464a7381e7ac"},"vehicle_type_id":"4","last_reported":1743305428,"current_range_meters":14400,"station_id":"ce4bhh92rcd13ifvqfh0","pricing_plan_id":"cebpf4jnsgd1na2vs0mg"},{"bike_id":"76859129-4009-4843-90a4-dc4d2b65271a","system_id":"levelo_inurba_marseille","lat":43.241845,"lon":5.364014,"is_reserved":false,"is_disabled":false,"rental_uris":{"android":"levelo://app?vid=76859129-4009-4843-90a4-dc4d2b65271a","ios":"levelo://app?vid=76859129-4009-4843-90a4-dc4d2b65271a"},"vehicle_type_id":"4","last_reported":1743305428,"current_range_meters":14400,"station_id":"cpo36qri1sfpv3e86is0","pricing_plan_id":"cebpf4jnsgd1na2vs0mg"},{"bike_id":"6cc51698-172a-48cd-b62b-73bf5b200d2f","system_id":"levelo_inurba_marseille","lat":43.29783,"lon":5.39349,"is_reserved":false,"is_disabled":false,"rental_uris":{"android":"levelo://app?vid=6cc51698-172a-48cd-b62b-73bf5b200d2f","ios":"levelo://app?vid=6cc51698-172a-48cd-b62b-73bf5b200d2f"},"vehicle_type_id":"4","last_reported":1743305428,"current_range_meters":14400,"station_id":"chh1huq6cuj3fo74tm60","pricing_plan_id":"cebpf4jnsgd1na2vs0mg"},{"bike_id":"dc95dc89-88f2-4f39-a4e7-13107791f580","system_id":"levelo_inurba_marseille","lat":43.30351,"lon":5.41876,"is_reserved":false,"is_disabled":false,"rental_uris":{"android":"levelo://app?vid=dc95dc89-88f2-4f39-a4e7-13107791f580","ios":"levelo://app?vid=dc95dc89-88f2-4f39-a4e7-13107791f580"},"vehicle_type_id":"4","last_reported":1743305428,"current_range_meters":14000,"station_id":"ce4bhop2rcd13ifvqh7g","pricing_plan_id":"cebpf4jnsgd1na2vs0mg"},{"bike_id":"49698c41-407a-465d-97f1-c26c470971ec","system_id":"levelo_inurba_marseille","lat":43.2954,"lon":5.39036,"is_reserved":false,"is_disabled":false,"rental_uris":{"android":"levelo://app?vid=49698c41-407a-465d-97f1-c26c470971ec","ios":"levelo://app?vid=49698c41-407a-465d-97f1-c26c470971ec"},"vehicle_type_id":"4","last_reported":1743305428,"current_range_meters":14400,"station_id":"ce4bh3p2rcd13ifvqdp0","pricing_plan_id":"cebpf4jnsgd1na2vs0mg"},{"bike_id":"7a72565a-6717-43eb-8518-2a15c0a83144","system_id":"levelo_inurba_marseille","lat":43.27485,"lon":5.42471,"is_reserved":false,"is_disabled":false,"rental_uris":{"android":"levelo://app?vid=7a72565a-6717-43eb-8518-2a15c0a83144","ios":"levelo://app?vid=7a72565a-6717-43eb-8518-2a15c0a83144"},"vehicle_type_id":"4","last_reported":1743305428,"current_range_meters":14000,"station_id":"ce4bhn92rcd13ifvqgrg","pricing_plan_id":"cebpf4jnsgd1na2vs0mg"},{"bike_id":"e83f7e4f-4957-42cd-8e75-4003a854ff62","system_id":"levelo_inurba_marseille","lat":43.26156,"lon":5.37945,"is_reserved":false,"is_disabled":false,"rental_uris":{"android":"levelo://app?vid=e83f7e4f-4957-42cd-8e75-4003a854ff62","ios":"levelo://app?vid=e83f7e4f-4957-42cd-8e75-4003a854ff62"},"vehicle_type_id":"4","last_reported":1743305428,"current_range_meters":14800,"station_id":"ce4bhjp2rcd13ifvqg90","pricing_plan_id":"cebpf4jnsgd1na2vs0mg"},{"bike_id":"fd516fbf-bc69-4925-ab96-644568b766dc","system_id":"levelo_inurba_marseille","lat":43.3175,"lon":5.3905,"is_reserved":false,"is_disabled":false,"rental_uris":{"android":"levelo://app?vid=fd516fbf-bc69-4925-ab96-644568b766dc","ios":"levelo://app?vid=fd516fbf-bc69-4925-ab96-644568b766dc"},"vehicle_type_id":"4","last_reported":1743305428,"current_range_meters":14800,"station_id":"ce4bhqp2rcd13ifvqhng","pricing_plan_id":"cebpf4jnsgd1na2vs0mg"},{"bike_id":"84afce06-2124-4ee4-95e9-4e1d602c6298","system_id":"levelo_inurba_marseille","lat":43.29186,"lon":5.39322,"is_reserved":false,"is_disabled":false,"rental_uris":{"android":"levelo://app?vid=84afce06-2124-4ee4-95e9-4e1d602c6298","ios":"levelo://app?vid=84afce06-2124-4ee4-95e9-4e1d602c6298"},"vehicle_type_id":"4","last_reported":1743305428,"current_range_meters":14800,"station_id":"ce4bh192rcd13ifvqdd0","pricing_plan_id":"cebpf4jnsgd1na2vs0mg"},{"bike_id":"bf8f06f8-9f7a-4ca6-97ef-3f544d07990e","system_id":"levelo_inurba_marseille","lat":43.29852,"lon":5.39428,"is_reserved":false,"is_disabled":false,"rental_uris":{"android":"levelo://app?vid=bf8f06f8-9f7a-4ca6-97ef-3f544d07990e","ios":"levelo://app?vid=bf8f06f8-9f7a-4ca6-97ef-3f544d07990e"},"vehicle_type_id":"4","last_reported":1743305428,"current_range_meters":14800,"station_id":"","pricing_plan_id":"cebpf4jnsgd1na2vs0mg"},{"bike_id":"b73281d3-4024-4cc2-9467-a02b03434418","system_id":"levelo_inurba_marseille","lat":43.28568,"lon":5.35137,"is_reserved":false,"is_disabled":false,"rental_uris":{"android":"levelo://app?vid=b73281d3-4024-4cc2-9467-a02b03434418","ios":"levelo://app?vid=b73281d3-4024-4cc2-9467-a02b03434418"},"vehicle_type_id":"4","last_reported":1743305428,"current_range_meters":14800,"station_id":"","pricing_plan_id":"cebpf4jnsgd1na2vs0mg"},{"bike_id":"ff86a6f3-3f07-4397-ace0-4b2d8e9c1745","system_id":"levelo_inurba_marseille","lat":43.302557,"lon":5.400658,"is_reserved":false,"is_disabled":false,"rental_uris":{"android":"levelo://app?vid=ff86a6f3-3f07-4397-ace0-4b2d8e9c1745","ios":"levelo://app?vid=ff86a6f3-3f07-4397-ace0-4b2d8e9c1745"},"vehicle_type_id":"4","last_reported":1743305428,"current_range_meters":14800,"station_id":"ce4bgvh2rcd13ifvqcs0","pricing_plan_id":"cebpf4jnsgd1na2vs0mg"},{"bike_id":"608f89be-d8f7-4905-90f4-2fcb81c120d3","system_id":"levelo_inurba_marseille","lat":43.29043,"lon":5.37166,"is_reserved":false,"is_disabled":true,"rental_uris":{"android":"levelo://app?vid=608f89be-d8f7-4905-90f4-2fcb81c120d3","ios":"levelo://app?vid=608f89be-d8f7-4905-90f4-2fcb81c120d3"},"vehicle_type_id":"4","last_reported":1743305428,"current_range_meters":14800,"station_id":"ce4bh5p2rcd13ifvqe4g","pricing_plan_id":"cebpf4jnsgd1na2vs0mg"},{"bike_id":"8800990b-0588-4701-9f9b-d00ff201f1bf","system_id":"levelo_inurba_marseille","lat":43.31762,"lon":5.39022,"is_reserved":false,"is_disabled":false,"rental_uris":{"android":"levelo://app?vid=8800990b-0588-4701-9f9b-d00ff201f1bf","ios":"levelo://app?vid=8800990b-0588-4701-9f9b-d00ff201f1bf"},"vehicle_type_id":"4","last_reported":1743305428,"current_range_meters":15200,"station_id":"ce4bhqp2rcd13ifvqhng","pricing_plan_id":"cebpf4jnsgd1na2vs0mg"},{"bike_id":"bb9e407c-3a72-4f9c-a237-f82b7dae7f68","system_id":"levelo_inurba_marseille","lat":43.27123,"lon":5.39222,"is_reserved":false,"is_disabled":false,"rental_uris":{"android":"levelo://app?vid=bb9e407c-3a72-4f9c-a237-f82b7dae7f68","ios":"levelo://app?vid=bb9e407c-3a72-4f9c-a237-f82b7dae7f68"},"vehicle_type_id":"4","last_reported":1743305428,"current_range_meters":15200,"station_id":"","pricing_plan_id":"cebpf4jnsgd1na2vs0mg"},{"bike_id":"8f4145c4-1bd6-401b-a227-c2c77bf7d7af","system_id":"levelo_inurba_marseille","lat":43.3023,"lon":5.40056,"is_reserved":false,"is_disabled":true,"rental_uris":{"android":"levelo://app?vid=8f4145c4-1bd6-401b-a227-c2c77bf7d7af","ios":"levelo://app?vid=8f4145c4-1bd6-401b-a227-c2c77bf7d7af"},"vehicle_type_id":"4","last_reported":1743305428,"current_range_meters":15200,"station_id":"ce4bgvh2rcd13ifvqcs0","pricing_plan_id":"cebpf4jnsgd1na2vs0mg"},{"bike_id":"d33af3ae-bc40-4777-acfb-c69ad8669c07","system_id":"levelo_inurba_marseille","lat":43.29021,"lon":5.37196,"is_reserved":false,"is_disabled":false,"rental_uris":{"android":"levelo://app?vid=d33af3ae-bc40-4777-acfb-c69ad8669c07","ios":"levelo://app?vid=d33af3ae-bc40-4777-acfb-c69ad8669c07"},"vehicle_type_id":"4","last_reported":1743305428,"current_range_meters":15200,"station_id":"","pricing_plan_id":"cebpf4jnsgd1na2vs0mg"},{"bike_id":"cd9fe94f-2c46-498e-b98e-ca05102383ed","system_id":"levelo_inurba_marseille","lat":43.28717,"lon":5.37931,"is_reserved":false,"is_disabled":false,"rental_uris":{"android":"levelo://app?vid=cd9fe94f-2c46-498e-b98e-ca05102383ed","ios":"levelo://app?vid=cd9fe94f-2c46-498e-b98e-ca05102383ed"},"vehicle_type_id":"4","last_reported":1743305428,"current_range_meters":15200,"station_id":"ce4bh9p2rcd13ifvqec0","pricing_plan_id":"cebpf4jnsgd1na2vs0mg"},{"bike_id":"7f752182-e4ed-42fc-8f04-cfbffe448954","system_id":"levelo_inurba_marseille","lat":43.2871,"lon":5.37936,"is_reserved":false,"is_disabled":false,"rental_uris":{"android":"levelo://app?vid=7f752182-e4ed-42fc-8f04-cfbffe448954","ios":"levelo://app?vid=7f752182-e4ed-42fc-8f04-cfbffe448954"},"vehicle_type_id":"4","last_reported":1743305428,"current_range_meters":16000,"station_id":"ce4bh9p2rcd13ifvqec0","pricing_plan_id":"cebpf4jnsgd1na2vs0mg"},{"bike_id":"12cd2614-5759-4501-9c23-d3351a7cc7df","system_id":"levelo_inurba_marseille","lat":43.30548,"lon":5.384248,"is_reserved":false,"is_disabled":true,"rental_uris":{"android":"levelo://app?vid=12cd2614-5759-4501-9c23-d3351a7cc7df","ios":"levelo://app?vid=12cd2614-5759-4501-9c23-d3351a7cc7df"},"vehicle_type_id":"4","last_reported":1743305428,"current_range_meters":16000,"station_id":"ce4bgg92rcd13ifvqb30","pricing_plan_id":"cebpf4jnsgd1na2vs0mg"},{"bike_id":"7bcef57b-2b32-4033-b8b4-6fd7fe51a930","system_id":"levelo_inurba_marseille","lat":43.28603,"lon":5.35097,"is_reserved":false,"is_disabled":false,"rental_uris":{"android":"levelo://app?vid=7bcef57b-2b32-4033-b8b4-6fd7fe51a930","ios":"levelo://app?vid=7bcef57b-2b32-4033-b8b4-6fd7fe51a930"},"vehicle_type_id":"4","last_reported":1743305428,"current_range_meters":16000,"station_id":"ce4bhch2rcd13ifvqeug","pricing_plan_id":"cebpf4jnsgd1na2vs0mg"},{"bike_id":"a54a5372-c292-48dc-a9bc-4628f4a8b70b","system_id":"levelo_inurba_marseille","lat":43.24378,"lon":5.3708,"is_reserved":false,"is_disabled":false,"rental_uris":{"android":"levelo://app?vid=a54a5372-c292-48dc-a9bc-4628f4a8b70b","ios":"levelo://app?vid=a54a5372-c292-48dc-a9bc-4628f4a8b70b"},"vehicle_type_id":"4","last_reported":1743305428,"current_range_meters":16000,"station_id":"ce4bhhh2rcd13ifvqfk0","pricing_plan_id":"cebpf4jnsgd1na2vs0mg"},{"bike_id":"4b920bc6-3ed6-40c0-a686-121694d9f553","system_id":"levelo_inurba_marseille","lat":43.28931,"lon":5.364,"is_reserved":false,"is_disabled":false,"rental_uris":{"android":"levelo://app?vid=4b920bc6-3ed6-40c0-a686-121694d9f553","ios":"levelo://app?vid=4b920bc6-3ed6-40c0-a686-121694d9f553"},"vehicle_type_id":"4","last_reported":1743305428,"current_range_meters":16000,"station_id":"ce4bhc92rcd13ifvqetg","pricing_plan_id":"cebpf4jnsgd1na2vs0mg"},{"bike_id":"1bc7cd77-9a11-4126-adfa-cfb607e79a31","system_id":"levelo_inurba_marseille","lat":43.26031,"lon":5.37557,"is_reserved":false,"is_disabled":false,"rental_uris":{"android":"levelo://app?vid=1bc7cd77-9a11-4126-adfa-cfb607e79a31","ios":"levelo://app?vid=1bc7cd77-9a11-4126-adfa-cfb607e79a31"},"vehicle_type_id":"4","last_reported":1743305428,"current_range_meters":16000,"station_id":"ce4bhgh2rcd13ifvqfa0","pricing_plan_id":"cebpf4jnsgd1na2vs0mg"},{"bike_id":"0b60b6cc-65bb-4e73-8958-1b351c6fdd96","system_id":"levelo_inurba_marseille","lat":43.32098,"lon":5.36792,"is_reserved":false,"is_disabled":false,"rental_uris":{"android":"levelo://app?vid=0b60b6cc-65bb-4e73-8958-1b351c6fdd96","ios":"levelo://app?vid=0b60b6cc-65bb-4e73-8958-1b351c6fdd96"},"vehicle_type_id":"4","last_reported":1743305428,"current_range_meters":16000,"station_id":"ce4bhrh2rcd13ifvqhug","pricing_plan_id":"cebpf4jnsgd1na2vs0mg"},{"bike_id":"67085084-85a6-45a2-8452-0c83324101d7","system_id":"levelo_inurba_marseille","lat":43.25489,"lon":5.37684,"is_reserved":false,"is_disabled":false,"rental_uris":{"android":"levelo://app?vid=67085084-85a6-45a2-8452-0c83324101d7","ios":"levelo://app?vid=67085084-85a6-45a2-8452-0c83324101d7"},"vehicle_type_id":"4","last_reported":1743305428,"current_range_meters":16400,"station_id":"ce4bhh12rcd13ifvqff0","pricing_plan_id":"cebpf4jnsgd1na2vs0mg"},{"bike_id":"fd077727-cac9-4da1-be78-e3859541690a","system_id":"levelo_inurba_marseille","lat":43.30539,"lon":5.384306,"is_reserved":false,"is_disabled":true,"rental_uris":{"android":"levelo://app?vid=fd077727-cac9-4da1-be78-e3859541690a","ios":"levelo://app?vid=fd077727-cac9-4da1-be78-e3859541690a"},"vehicle_type_id":"4","last_reported":1743305428,"current_range_meters":16400,"station_id":"ce4bgg92rcd13ifvqb30","pricing_plan_id":"cebpf4jnsgd1na2vs0mg"},{"bike_id":"d2bdab8d-508c-4617-a487-d6f2ad6bec6a","system_id":"levelo_inurba_marseille","lat":43.28608,"lon":5.35117,"is_reserved":false,"is_disabled":false,"rental_uris":{"android":"levelo://app?vid=d2bdab8d-508c-4617-a487-d6f2ad6bec6a","ios":"levelo://app?vid=d2bdab8d-508c-4617-a487-d6f2ad6bec6a"},"vehicle_type_id":"4","last_reported":1743305428,"current_range_meters":16400,"station_id":"ce4bhch2rcd13ifvqeug","pricing_plan_id":"cebpf4jnsgd1na2vs0mg"},{"bike_id":"f80b586e-f44c-41b6-b526-a06cd3999ad5","system_id":"levelo_inurba_marseille","lat":43.24073,"lon":5.37793,"is_reserved":false,"is_disabled":false,"rental_uris":{"android":"levelo://app?vid=f80b586e-f44c-41b6-b526-a06cd3999ad5","ios":"levelo://app?vid=f80b586e-f44c-41b6-b526-a06cd3999ad5"},"vehicle_type_id":"4","last_reported":1743305428,"current_range_meters":16400,"station_id":"ce4bhnp2rcd13ifvqgvg","pricing_plan_id":"cebpf4jnsgd1na2vs0mg"},{"bike_id":"64817d54-f960-48ce-91f2-66a2bd11fede","system_id":"levelo_inurba_marseille","lat":43.28409,"lon":5.39217,"is_reserved":false,"is_disabled":false,"rental_uris":{"android":"levelo://app?vid=64817d54-f960-48ce-91f2-66a2bd11fede","ios":"levelo://app?vid=64817d54-f960-48ce-91f2-66a2bd11fede"},"vehicle_type_id":"4","last_reported":1743305428,"current_range_meters":16400,"station_id":"ce4bhoh2rcd13ifvqh5g","pricing_plan_id":"cebpf4jnsgd1na2vs0mg"},{"bike_id":"7d5c27f6-f21d-42ee-bcc9-290c5da6c350","system_id":"levelo_inurba_marseille","lat":43.31244,"lon":5.36847,"is_reserved":false,"is_disabled":false,"rental_uris":{"android":"levelo://app?vid=7d5c27f6-f21d-42ee-bcc9-290c5da6c350","ios":"levelo://app?vid=7d5c27f6-f21d-42ee-bcc9-290c5da6c350"},"vehicle_type_id":"4","last_reported":1743305428,"current_range_meters":16400,"station_id":"ce4bgl92rcd13ifvqbq0","pricing_plan_id":"cebpf4jnsgd1na2vs0mg"},{"bike_id":"f94cd41b-0b52-46ea-a0e0-f4f29f5495e4","system_id":"levelo_inurba_marseille","lat":43.31733,"lon":5.42401,"is_reserved":false,"is_disabled":false,"rental_uris":{"android":"levelo://app?vid=f94cd41b-0b52-46ea-a0e0-f4f29f5495e4","ios":"levelo://app?vid=f94cd41b-0b52-46ea-a0e0-f4f29f5495e4"},"vehicle_type_id":"4","last_reported":1743305428,"current_range_meters":16400,"station_id":"ce4bhp92rcd13ifvqhbg","pricing_plan_id":"cebpf4jnsgd1na2vs0mg"},{"bike_id":"fb0e2782-64d8-47c2-8a78-bad86b5dcc20","system_id":"levelo_inurba_marseille","lat":43.32082,"lon":5.368,"is_reserved":false,"is_disabled":false,"rental_uris":{"android":"levelo://app?vid=fb0e2782-64d8-47c2-8a78-bad86b5dcc20","ios":"levelo://app?vid=fb0e2782-64d8-47c2-8a78-bad86b5dcc20"},"vehicle_type_id":"4","last_reported":1743305428,"current_range_meters":16400,"station_id":"ce4bhrh2rcd13ifvqhug","pricing_plan_id":"cebpf4jnsgd1na2vs0mg"},{"bike_id":"e5e87896-fc79-4739-9748-f5cd1d13e44f","system_id":"levelo_inurba_marseille","lat":43.286199,"lon":5.35098,"is_reserved":false,"is_disabled":false,"rental_uris":{"android":"levelo://app?vid=e5e87896-fc79-4739-9748-f5cd1d13e44f","ios":"levelo://app?vid=e5e87896-fc79-4739-9748-f5cd1d13e44f"},"vehicle_type_id":"4","last_reported":1743305428,"current_range_meters":16400,"station_id":"ce4bhch2rcd13ifvqeug","pricing_plan_id":"cebpf4jnsgd1na2vs0mg"},{"bike_id":"4323b71b-75a4-4344-aa79-0097aefcc021","system_id":"levelo_inurba_marseille","lat":43.28447,"lon":5.3589,"is_reserved":false,"is_disabled":false,"rental_uris":{"android":"levelo://app?vid=4323b71b-75a4-4344-aa79-0097aefcc021","ios":"levelo://app?vid=4323b71b-75a4-4344-aa79-0097aefcc021"},"vehicle_type_id":"4","last_reported":1743305428,"current_range_meters":16400,"station_id":"ce4bhah2rcd13ifvqei0","pricing_plan_id":"cebpf4jnsgd1na2vs0mg"},{"bike_id":"b185afe1-45aa-4bea-b183-90a603b8cfda","system_id":"levelo_inurba_marseille","lat":43.262232,"lon":5.404555,"is_reserved":false,"is_disabled":false,"rental_uris":{"android":"levelo://app?vid=b185afe1-45aa-4bea-b183-90a603b8cfda","ios":"levelo://app?vid=b185afe1-45aa-4bea-b183-90a603b8cfda"},"vehicle_type_id":"4","last_reported":1743305428,"current_range_meters":16800,"station_id":"ce4bhmh2rcd13ifvqgmg","pricing_plan_id":"cebpf4jnsgd1na2vs0mg"},{"bike_id":"f576cb60-7ff4-4eb0-be38-9b8f0381786d","system_id":"levelo_inurba_marseille","lat":43.28303,"lon":5.36331,"is_reserved":false,"is_disabled":false,"rental_uris":{"android":"levelo://app?vid=f576cb60-7ff4-4eb0-be38-9b8f0381786d","ios":"levelo://app?vid=f576cb60-7ff4-4eb0-be38-9b8f0381786d"},"vehicle_type_id":"4","last_reported":1743305428,"current_range_meters":16800,"station_id":"","pricing_plan_id":"cebpf4jnsgd1na2vs0mg"},{"bike_id":"f4aa7984-6e0a-4355-a188-7dfbb140094d","system_id":"levelo_inurba_marseille","lat":43.28137,"lon":5.42633,"is_reserved":false,"is_disabled":false,"rental_uris":{"android":"levelo://app?vid=f4aa7984-6e0a-4355-a188-7dfbb140094d","ios":"levelo://app?vid=f4aa7984-6e0a-4355-a188-7dfbb140094d"},"vehicle_type_id":"4","last_reported":1743305428,"current_range_meters":16800,"station_id":"ce4bhnh2rcd13ifvqgug","pricing_plan_id":"cebpf4jnsgd1na2vs0mg"},{"bike_id":"58eb4411-6876-48b3-98f7-bbd26ed1611c","system_id":"levelo_inurba_marseille","lat":43.2481,"lon":5.37474,"is_reserved":false,"is_disabled":false,"rental_uris":{"android":"levelo://app?vid=58eb4411-6876-48b3-98f7-bbd26ed1611c","ios":"levelo://app?vid=58eb4411-6876-48b3-98f7-bbd26ed1611c"},"vehicle_type_id":"4","last_reported":1743305428,"current_range_meters":16800,"station_id":"ce4bhgh2rcd13ifvqfb0","pricing_plan_id":"cebpf4jnsgd1na2vs0mg"},{"bike_id":"18d5f5fc-724f-4cc3-b787-c3e9421ffca0","system_id":"levelo_inurba_marseille","lat":43.28451,"lon":5.35891,"is_reserved":false,"is_disabled":false,"rental_uris":{"android":"levelo://app?vid=18d5f5fc-724f-4cc3-b787-c3e9421ffca0","ios":"levelo://app?vid=18d5f5fc-724f-4cc3-b787-c3e9421ffca0"},"vehicle_type_id":"4","last_reported":1743305428,"current_range_meters":16800,"station_id":"ce4bhah2rcd13ifvqei0","pricing_plan_id":"cebpf4jnsgd1na2vs0mg"},{"bike_id":"653ad549-fc6a-4bd0-9a7d-9a4ab94dd253","system_id":"levelo_inurba_marseille","lat":43.30918,"lon":5.40161,"is_reserved":false,"is_disabled":false,"rental_uris":{"android":"levelo://app?vid=653ad549-fc6a-4bd0-9a7d-9a4ab94dd253","ios":"levelo://app?vid=653ad549-fc6a-4bd0-9a7d-9a4ab94dd253"},"vehicle_type_id":"4","last_reported":1743305428,"current_range_meters":16800,"station_id":"ce4bgvp2rcd13ifvqct0","pricing_plan_id":"cebpf4jnsgd1na2vs0mg"},{"bike_id":"d62eca4d-aea7-4255-83c8-a8cae4c3d6eb","system_id":"levelo_inurba_marseille","lat":43.2809,"lon":5.37842,"is_reserved":false,"is_disabled":false,"rental_uris":{"android":"levelo://app?vid=d62eca4d-aea7-4255-83c8-a8cae4c3d6eb","ios":"levelo://app?vid=d62eca4d-aea7-4255-83c8-a8cae4c3d6eb"},"vehicle_type_id":"4","last_reported":1743305428,"current_range_meters":16800,"station_id":"ce4bha12rcd13ifvqee0","pricing_plan_id":"cebpf4jnsgd1na2vs0mg"},{"bike_id":"90999d59-def8-4d4d-a0de-1b61966a032f","system_id":"levelo_inurba_marseille","lat":43.240828,"lon":5.377501,"is_reserved":false,"is_disabled":false,"rental_uris":{"android":"levelo://app?vid=90999d59-def8-4d4d-a0de-1b61966a032f","ios":"levelo://app?vid=90999d59-def8-4d4d-a0de-1b61966a032f"},"vehicle_type_id":"4","last_reported":1743305428,"current_range_meters":16800,"station_id":"ce4bhnp2rcd13ifvqgvg","pricing_plan_id":"cebpf4jnsgd1na2vs0mg"},{"bike_id":"3550a36d-3c45-4392-b638-e4bfcd519444","system_id":"levelo_inurba_marseille","lat":43.29899,"lon":5.38142,"is_reserved":false,"is_disabled":true,"rental_uris":{"android":"levelo://app?vid=3550a36d-3c45-4392-b638-e4bfcd519444","ios":"levelo://app?vid=3550a36d-3c45-4392-b638-e4bfcd519444"},"vehicle_type_id":"4","last_reported":1743305428,"current_range_meters":16800,"station_id":"ce4bgj12rcd13ifvqbc0","pricing_plan_id":"cebpf4jnsgd1na2vs0mg"},{"bike_id":"a84445ff-337f-4fd5-9926-fe316147aff5","system_id":"levelo_inurba_marseille","lat":43.30953,"lon":5.40184,"is_reserved":false,"is_disabled":false,"rental_uris":{"android":"levelo://app?vid=a84445ff-337f-4fd5-9926-fe316147aff5","ios":"levelo://app?vid=a84445ff-337f-4fd5-9926-fe316147aff5"},"vehicle_type_id":"4","last_reported":1743305428,"current_range_meters":16800,"station_id":"ce4bgvp2rcd13ifvqct0","pricing_plan_id":"cebpf4jnsgd1na2vs0mg"},{"bike_id":"fad28c04-4ecd-4129-8ff5-3eae8cc8ac17","system_id":"levelo_inurba_marseille","lat":43.30144,"lon":5.39885,"is_reserved":false,"is_disabled":false,"rental_uris":{"android":"levelo://app?vid=fad28c04-4ecd-4129-8ff5-3eae8cc8ac17","ios":"levelo://app?vid=fad28c04-4ecd-4129-8ff5-3eae8cc8ac17"},"vehicle_type_id":"4","last_reported":1743305428,"current_range_meters":17200,"station_id":"ce4bh0h2rcd13ifvqd40","pricing_plan_id":"cebpf4jnsgd1na2vs0mg"},{"bike_id":"9ce7fda9-9c41-431d-981e-34bc5c52cbc3","system_id":"levelo_inurba_marseille","lat":43.28463,"lon":5.35875,"is_reserved":false,"is_disabled":false,"rental_uris":{"android":"levelo://app?vid=9ce7fda9-9c41-431d-981e-34bc5c52cbc3","ios":"levelo://app?vid=9ce7fda9-9c41-431d-981e-34bc5c52cbc3"},"vehicle_type_id":"4","last_reported":1743305428,"current_range_meters":17200,"station_id":"ce4bhah2rcd13ifvqei0","pricing_plan_id":"cebpf4jnsgd1na2vs0mg"},{"bike_id":"131e430a-d7c4-4ab7-8b30-8b099265da49","system_id":"levelo_inurba_marseille","lat":43.3118,"lon":5.3871,"is_reserved":false,"is_disabled":false,"rental_uris":{"android":"levelo://app?vid=131e430a-d7c4-4ab7-8b30-8b099265da49","ios":"levelo://app?vid=131e430a-d7c4-4ab7-8b30-8b099265da49"},"vehicle_type_id":"4","last_reported":1743305428,"current_range_meters":17200,"station_id":"ce4bgv12rcd13ifvqcp0","pricing_plan_id":"cebpf4jnsgd1na2vs0mg"},{"bike_id":"6df628db-af2b-4497-9ad5-cba80b032333","system_id":"levelo_inurba_marseille","lat":43.27782,"lon":5.40747,"is_reserved":false,"is_disabled":false,"rental_uris":{"android":"levelo://app?vid=6df628db-af2b-4497-9ad5-cba80b032333","ios":"levelo://app?vid=6df628db-af2b-4497-9ad5-cba80b032333"},"vehicle_type_id":"4","last_reported":1743305428,"current_range_meters":17200,"station_id":"ce4bhnh2rcd13ifvqgtg","pricing_plan_id":"cebpf4jnsgd1na2vs0mg"},{"bike_id":"2afeb233-a102-41dc-a082-825caf57752f","system_id":"levelo_inurba_marseille","lat":43.2956,"lon":5.42261,"is_reserved":false,"is_disabled":false,"rental_uris":{"android":"levelo://app?vid=2afeb233-a102-41dc-a082-825caf57752f","ios":"levelo://app?vid=2afeb233-a102-41dc-a082-825caf57752f"},"vehicle_type_id":"4","last_reported":1743305428,"current_range_meters":17200,"station_id":"ce4bhph2rcd13ifvqhdg","pricing_plan_id":"cebpf4jnsgd1na2vs0mg"},{"bike_id":"eab4b6d6-ba89-4629-bbdd-71f11d2b55bb","system_id":"levelo_inurba_marseille","lat":43.24377,"lon":5.3707,"is_reserved":false,"is_disabled":false,"rental_uris":{"android":"levelo://app?vid=eab4b6d6-ba89-4629-bbdd-71f11d2b55bb","ios":"levelo://app?vid=eab4b6d6-ba89-4629-bbdd-71f11d2b55bb"},"vehicle_type_id":"4","last_reported":1743305428,"current_range_meters":17200,"station_id":"ce4bhhh2rcd13ifvqfk0","pricing_plan_id":"cebpf4jnsgd1na2vs0mg"},{"bike_id":"f3df6df3-5cb0-438c-80ab-5f2bb15565d6","system_id":"levelo_inurba_marseille","lat":43.279158,"lon":5.395762,"is_reserved":false,"is_disabled":false,"rental_uris":{"android":"levelo://app?vid=f3df6df3-5cb0-438c-80ab-5f2bb15565d6","ios":"levelo://app?vid=f3df6df3-5cb0-438c-80ab-5f2bb15565d6"},"vehicle_type_id":"4","last_reported":1743305428,"current_range_meters":17200,"station_id":"ce4bhf92rcd13ifvqf40","pricing_plan_id":"cebpf4jnsgd1na2vs0mg"},{"bike_id":"bed78b9a-3f22-4480-baea-8469dd94a2e4","system_id":"levelo_inurba_marseille","lat":43.27612,"lon":5.39585,"is_reserved":false,"is_disabled":false,"rental_uris":{"android":"levelo://app?vid=bed78b9a-3f22-4480-baea-8469dd94a2e4","ios":"levelo://app?vid=bed78b9a-3f22-4480-baea-8469dd94a2e4"},"vehicle_type_id":"4","last_reported":1743305428,"current_range_meters":17200,"station_id":"","pricing_plan_id":"cebpf4jnsgd1na2vs0mg"},{"bike_id":"69b50256-db65-42dc-92ba-446ffcf8ca25","system_id":"levelo_inurba_marseille","lat":43.32374,"lon":5.38893,"is_reserved":false,"is_disabled":false,"rental_uris":{"android":"levelo://app?vid=69b50256-db65-42dc-92ba-446ffcf8ca25","ios":"levelo://app?vid=69b50256-db65-42dc-92ba-446ffcf8ca25"},"vehicle_type_id":"4","last_reported":1743305428,"current_range_meters":17600,"station_id":"ce4bhqp2rcd13ifvqhog","pricing_plan_id":"cebpf4jnsgd1na2vs0mg"},