{"last_updated":1735567694,"ttl":60,"version":"2.2","data":{"bikes":[{"bike_id":"20e8066c-f272-4008-aca4-d848bd55cc75","system_id":"levelo_inurba_marseille","lat":43.30795,"lon":5.37654,"is_reserved":false,"is_disabled":false,"rental_uris":{"android":"levelo://app?vid=20e8066c-f272-4008-aca4-d848bd55cc75","ios":"levelo://app?vid=20e8066c-f272-4008-aca4-d848bd55cc75"},"vehicle_type_id":"4","last_reported":1735567694,"current_range_meters":38000,"station_id":"ce4bgv92rcd13ifvqcq0","pricing_plan_id":"cebpf4jnsgd1na2vs0mg"},{"bike_id":"9011fdeb-0f4f-47aa-9d1a-018fecae54d3","system_id":"levelo_inurba_marseille","lat":43.29068,"lon":5.37151,"is_reserved":false,"is_disabled":false,"rental_uris":{"android":"levelo://app?vid=9011fdeb-0f4f-47aa-9d1a-018fecae54d3","ios":"levelo://app?vid=9011fdeb-0f4f-47aa-9d1a-018fecae54d3"},"vehicle_type_id":"4","last_reported":1735567694,"current_range_meters":32000,"station_id":"ce4bh5p2rcd13ifvqe4g","pricing_plan_id":"cebpf4jnsgd1na2vs0mg"},{"bike_id":"b125795f-7d19-4680-a8d6-94e84290827f","system_id":"levelo_inurba_marseille","lat":43.30141,"lon":5.37399,"is_reserved":false,"is_disabled":false,"rental_uris":{"android":"levelo://app?vid=b125795f-7d19-4680-a8d6-94e84290827f","ios":"levelo://app?vid=b125795f-7d19-4680-a8d6-94e84290827f"},"vehicle_type_id":"4","last_reported":1735567694,"current_range_meters":38800,"station_id":"ce4bgs92rcd13ifvqcc0","pricing_plan_id":"cebpf4jnsgd1na2vs0mg"},{"bike_id":"92b731bd-5018-412b-882c-748ea846dc76","system_id":"levelo_inurba_marseille","lat":43.27311,"lon":5.39083,"is_reserved":false,"is_disabled":false,"rental_uris":{"android":"levelo://app?vid=92b731bd-5018-412b-882c-748ea846dc76","ios":"levelo://app?vid=92b731bd-5018-412b-882c-748ea846dc76"},"vehicle_type_id":"4","last_reported":1735567694,"current_range_meters":27200,"station_id":"ce4bhgp2rcd13ifvqfe0","pricing_plan_id":"cebpf4jnsgd1na2vs0mg"},{"bike_id":"b1e3d2fb-39b3-466a-8934-a01b3592fbe9","system_id":"levelo_inurba_marseille","lat":43.29852,"lon":5.36274,"is_reserved":false,"is_disabled":false,"rental_uris":{"android":"levelo://app?vid=b1e3d2fb-39b3-466a-8934-a01b3592fbe9","ios":"levelo://app?vid=b1e3d2fb-39b3-466a-8934-a01b3592fbe9"},"vehicle_type_id":"4","last_reported":1735567694,"current_range_meters":38800,"station_id":"ce4bgpp2rcd13ifvqc3g","pricing_plan_id":"cebpf4jnsgd1na2vs0mg"},{"bike_id":"219b65c7-24b7-4a0f-8b44-4c0a65913822","system_id":"levelo_inurba_marseille","lat":43.27318,"lon":5.39126,"is_reserved":false,"is_disabled":false,"rental_uris":{"android":"levelo://app?vid=219b65c7-24b7-4a0f-8b44-4c0a65913822","ios":"levelo://app?vid=219b65c7-24b7-4a0f-8b44-4c0a65913822"},"vehicle_type_id":"4","last_reported":1735567694,"current_range_meters":28800,"station_id":"ce4bhgp2rcd13ifvqfe0","pricing_plan_id":"cebpf4jnsgd1na2vs0mg"},{"bike_id":"0c4d407c-6cb3-4649-ac2d-959dc9dbd1fc","system_id":"levelo_inurba_marseille","lat":43.27942,"lon":5.4104,"is_reserved":false,"is_disabled":false,"rental_uris":{"android":"levelo://app?vid=0c4d407c-6cb3-4649-ac2d-959dc9dbd1fc","ios":"levelo://app?vid=0c4d407c-6cb3-4649-ac2d-959dc9dbd1fc"},"vehicle_type_id":"4","last_reported":1735567694,"current_range_meters":28000,"station_id":"ce4bhnp2rcd13ifvqh0g","pricing_plan_id":"cebpf4jnsgd1na2vs0mg"},{"bike_id":"08f8e4e3-e711-42f3-aa46-76b6985b3143","system_id":"levelo_inurba_marseille","lat":43.28436,"lon":5.39185,"is_reserved":false,"is_disabled":false,"rental_uris":{"android":"levelo://app?vid=08f8e4e3-e711-42f3-aa46-76b6985b3143","ios":"levelo://app?vid=08f8e4e3-e711-42f3-aa46-76b6985b3143"},"vehicle_type_id":"4","last_reported":1735567694,"current_range_meters":8000,"station_id":"ce4bhoh2rcd13ifvqh5g","pricing_plan_id":"cebpf4jnsgd1na2vs0mg"},{"bike_id":"3991aac2-ec7f-43c8-801f-23e11845f2d6","system_id":"levelo_inurba_marseille","lat":43.28152,"lon":5.42653,"is_reserved":false,"is_disabled":false,"rental_uris":{"android":"levelo://app?vid=3991aac2-ec7f-43c8-801f-23e11845f2d6","ios":"levelo://app?vid=3991aac2-ec7f-43c8-801f-23e11845f2d6"},"vehicle_type_id":"4","last_reported":1735567694,"current_range_meters":37600,"station_id":"ce4bhnh2rcd13ifvqgug","pricing_plan_id":"cebpf4jnsgd1na2vs0mg"},{"bike_id":"6d1fbac3-2ace-405c-b78e-ba4958fa190d","system_id":"levelo_inurba_marseille","lat":43.29623,"lon":5.37171,"is_reserved":false,"is_disabled":false,"rental_uris":{"android":"levelo://app?vid=6d1fbac3-2ace-405c-b78e-ba4958fa190d","ios":"levelo://app?vid=6d1fbac3-2ace-405c-b78e-ba4958fa190d"},"vehicle_type_id":"4","last_reported":1735567694,"current_range_meters":25200,"station_id":"ce4bgnh2rcd13ifvqc0g","pricing_plan_id":"cebpf4jnsgd1na2vs0mg"},{"bike_id":"cec9e18d-3c65-4c89-bfa1-a30d4eb88df0","system_id":"levelo_inurba_marseille","lat":43.30948,"lon":5.40154,"is_reserved":false,"is_disabled":false,"rental_uris":{"android":"levelo://app?vid=cec9e18d-3c65-4c89-bfa1-a30d4eb88df0","ios":"levelo://app?vid=cec9e18d-3c65-4c89-bfa1-a30d4eb88df0"},"vehicle_type_id":"4","last_reported":1735567694,"current_range_meters":38800,"station_id":"ce4bgvp2rcd13ifvqct0","pricing_plan_id":"cebpf4jnsgd1na2vs0mg"},{"bike_id":"3b3d2c75-4195-4f81-af35-afa13ebc8eea","system_id":"levelo_inurba_marseille","lat":43.2738,"lon":5.36243,"is_reserved":false,"is_disabled":true,"rental_uris":{"android":"levelo://app?vid=3b3d2c75-4195-4f81-af35-afa13ebc8eea","ios":"levelo://app?vid=3b3d2c75-4195-4f81-af35-afa13ebc8eea"},"vehicle_type_id":"4","last_reported":1735567694,"current_range_meters":22800,"station_id":"ce4bhbh2rcd13ifvqeo0","pricing_plan_id":"cebpf4jnsgd1na2vs0mg"},{"bike_id":"a1a5f3fe-7f90-4223-b04a-63f973fe01fd","system_id":"levelo_inurba_marseille","lat":43.24076,"lon":5.37754,"is_reserved":false,"is_disabled":false,"rental_uris":{"android":"levelo://app?vid=a1a5f3fe-7f90-4223-b04a-63f973fe01fd","ios":"levelo://app?vid=a1a5f3fe-7f90-4223-b04a-63f973fe01fd"},"vehicle_type_id":"4","last_reported":1735567694,"current_range_meters":11600,"station_id":"ce4bhnp2rcd13ifvqgvg","pricing_plan_id":"cebpf4jnsgd1na2vs0mg"},{"bike_id":"47aa21ed-996e-419e-b04f-b2c7213816e6","system_id":"levelo_inurba_marseille","lat":43.29032,"lon":5.37581,"is_reserved":false,"is_disabled":false,"rental_uris":{"android":"levelo://app?vid=47aa21ed-996e-419e-b04f-b2c7213816e6","ios":"levelo://app?vid=47aa21ed-996e-419e-b04f-b2c7213816e6"},"vehicle_type_id":"4","last_reported":1735567694,"current_range_meters":20800,"station_id":"ce4bh692rcd13ifvqe90","pricing_plan_id":"cebpf4jnsgd1na2vs0mg"},{"bike_id":"99c6b87a-843d-4eac-96f7-03bb3144a23d","system_id":"levelo_inurba_marseille","lat":43.23207,"lon":5.3555,"is_reserved":false,"is_disabled":false,"rental_uris":{"android":"levelo://app?vid=99c6b87a-843d-4eac-96f7-03bb3144a23d","ios":"levelo://app?vid=99c6b87a-843d-4eac-96f7-03bb3144a23d"},"vehicle_type_id":"4","last_reported":1735567694,"current_range_meters":38000,"station_id":"ce4bhu92rcd13ifvqi70","pricing_plan_id":"cebpf4jnsgd1na2vs0mg"},{"bike_id":"4b2d39f3-d5d3-4cb8-a84c-a1c267b615dd","system_id":"levelo_inurba_marseille","lat":43.28272,"lon":5.35073,"is_reserved":false,"is_disabled":true,"rental_uris":{"android":"levelo://app?vid=4b2d39f3-d5d3-4cb8-a84c-a1c267b615dd","ios":"levelo://app?vid=4b2d39f3-d5d3-4cb8-a84c-a1c267b615dd"},"vehicle_type_id":"4","last_reported":1735567694,"current_range_meters":10800,"station_id":"ce4bhbp2rcd13ifvqerg","pricing_plan_id":"cebpf4jnsgd1na2vs0mg"},{"bike_id":"43d70a12-f23b-4eab-80ce-32f6ec951a07","system_id":"levelo_inurba_marseille","lat":43.27998,"lon":5.40026,"is_reserved":false,"is_disabled":false,"rental_uris":{"android":"levelo://app?vid=43d70a12-f23b-4eab-80ce-32f6ec951a07","ios":"levelo://app?vid=43d70a12-f23b-4eab-80ce-32f6ec951a07"},"vehicle_type_id":"4","last_reported":1735567694,"current_range_meters":4800,"station_id":"ce4bho92rcd13ifvqh4g","pricing_plan_id":"cebpf4jnsgd1na2vs0mg"},{"bike_id":"a4b220c0-96b3-4dff-a0e6-c3ae3be6f46b","system_id":"levelo_inurba_marseille","lat":43.29005,"lon":5.35615,"is_reserved":false,"is_disabled":false,"rental_uris":{"android":"levelo://app?vid=a4b220c0-96b3-4dff-a0e6-c3ae3be6f46b","ios":"levelo://app?vid=a4b220c0-96b3-4dff-a0e6-c3ae3be6f46b"},"vehicle_type_id":"4","last_reported":1735567694,"current_range_meters":29600,"station_id":"ce4bhb92rcd13ifvqen0","pricing_plan_id":"cebpf4jnsgd1na2vs0mg"},{"bike_id":"f1c7a22d-ac2e-4471-b583-83a5f465e9b6","system_id":"levelo_inurba_marseille","lat":43.28469,"lon":5.38434,"is_reserved":false,"is_disabled":false,"rental_uris":{"android":"levelo://app?vid=f1c7a22d-ac2e-4471-b583-83a5f465e9b6","ios":"levelo://app?vid=f1c7a22d-ac2e-4471-b583-83a5f465e9b6"},"vehicle_type_id":"4","last_reported":1735567694,"current_range_meters":35600,"station_id":"ce4bh512rcd13ifvqe3g","pricing_plan_id":"cebpf4jnsgd1na2vs0mg"},{"bike_id":"82b46aba-ac6f-4a6f-832b-6a0f2c4cbd2a","system_id":"levelo_inurba_marseille","lat":43.29778,"lon":5.38061,"is_reserved":false,"is_disabled":false,"rental_uris":{"android":"levelo://app?vid=82b46aba-ac6f-4a6f-832b-6a0f2c4cbd2a","ios":"levelo://app?vid=82b46aba-ac6f-4a6f-832b-6a0f2c4cbd2a"},"vehicle_type_id":"4","last_reported":1735567694,"current_range_meters":38000,"station_id":"ce4bgip2rcd13ifvqbb0","pricing_plan_id":"cebpf4jnsgd1na2vs0mg"},{"bike_id":"67aa25b4-b604-4e3d-9eeb-70016d69d38c","system_id":"levelo_inurba_marseille","lat":43.27944,"lon":5.38019,"is_reserved":false,"is_disabled":false,"rental_uris":{"android":"levelo://app?vid=67aa25b4-b604-4e3d-9eeb-70016d69d38c","ios":"levelo://app?vid=67aa25b4-b604-4e3d-9eeb-70016d69d38c"},"vehicle_type_id":"4","last_reported":1735567694,"current_range_meters":30800,"station_id":"ce4bhf92rcd13ifvqf50","pricing_plan_id":"cebpf4jnsgd1na2vs0mg"},{"bike_id":"9f2b9bba-3c4f-44b5-b426-31738094d189","system_id":"levelo_inurba_marseille","lat":43.305238,"lon":5.367187,"is_reserved":false,"is_disabled":false,"rental_uris":{"android":"levelo://app?vid=9f2b9bba-3c4f-44b5-b426-31738094d189","ios":"levelo://app?vid=9f2b9bba-3c4f-44b5-b426-31738094d189"},"vehicle_type_id":"4","last_reported":1735567694,"current_range_meters":29600,"station_id":"ce4bgrp2rcd13ifvqc9g","pricing_plan_id":"cebpf4jnsgd1na2vs0mg"},{"bike_id":"b4d130c6-4fa7-4fa3-83b8-3ae416781279","system_id":"levelo_inurba_marseille","lat":43.2744,"lon":5.39281,"is_reserved":false,"is_disabled":false,"rental_uris":{"android":"levelo://app?vid=b4d130c6-4fa7-4fa3-83b8-3ae416781279","ios":"levelo://app?vid=b4d130c6-4fa7-4fa3-83b8-3ae416781279"},"vehicle_type_id":"4","last_reported":1735567694,"current_range_meters":10000,"station_id":"","pricing_plan_id":"cebpf4jnsgd1na2vs0mg"},{"bike_id":"3ad6c34c-fb37-4ed4-89bc-d07998b58901","system_id":"levelo_inurba_marseille","lat":43.32367,"lon":5.38891,"is_reserved":false,"is_disabled":false,"rental_uris":{"android":"levelo://app?vid=3ad6c34c-fb37-4ed4-89bc-d07998b58901","ios":"levelo://app?vid=3ad6c34c-fb37-4ed4-89bc-d07998b58901"},"vehicle_type_id":"4","last_reported":1735567694,"current_range_meters":28000,"station_id":"ce4bhqp2rcd13ifvqhog","pricing_plan_id":"cebpf4jnsgd1na2vs0mg"},{"bike_id":"8da5d8d5-7736-4902-a2a3-2af73789a5b8","system_id":"levelo_inurba_marseille","lat":43.26555,"lon":5.39036,"is_reserved":false,"is_disabled":false,"rental_uris":{"android":"levelo://app?vid=8da5d8d5-7736-4902-a2a3-2af73789a5b8","ios":"levelo://app?vid=8da5d8d5-7736-4902-a2a3-2af73789a5b8"},"vehicle_type_id":"4","last_reported":1735567694,"current_range_meters":38800,"station_id":"ce4bhe12rcd13ifvqf30","pricing_plan_id":"cebpf4jnsgd1na2vs0mg"},{"bike_id":"ff49d49a-53c3-499a-b296-89a67f332a8a","system_id":"levelo_inurba_marseille","lat":43.24163,"lon":5.36418,"is_reserved":false,"is_disabled":false,"rental_uris":{"android":"levelo://app?vid=ff49d49a-53c3-499a-b296-89a67f332a8a","ios":"levelo://app?vid=ff49d49a-53c3-499a-b296-89a67f332a8a"},"vehicle_type_id":"4","last_reported":1735567694,"current_range_meters":8800,"station_id":"cpo36qri1sfpv3e86is0","pricing_plan_id":"cebpf4jnsgd1na2vs0mg"},{"bike_id":"68ce89d7-2c49-47a3-af51-4cee0b21d337","system_id":"levelo_inurba_marseille","lat":43.27949,"lon":5.38706,"is_reserved":false,"is_disabled":false,"rental_uris":{"android":"levelo://app?vid=68ce89d7-2c49-47a3-af51-4cee0b21d337","ios":"levelo://app?vid=68ce89d7-2c49-47a3-af51-4cee0b21d337"},"vehicle_type_id":"4","last_reported":1735567694,"current_range_meters":38000,"station_id":"ce4bhg12rcd13ifvqf80","pricing_plan_id":"cebpf4jnsgd1na2vs0mg"},{"bike_id":"294c14cb-577f-4c56-859e-2380db7a357a","system_id":"levelo_inurba_marseille","lat":43.23181,"lon":5.43725,"is_reserved":false,"is_disabled":true,"rental_uris":{"android":"levelo://app?vid=294c14cb-577f-4c56-859e-2380db7a357a","ios":"levelo://app?vid=294c14cb-577f-4c56-859e-2380db7a357a"},"vehicle_type_id":"4","last_reported":1735567694,"current_range_meters":1600,"station_id":"ce4bhmp2rcd13ifvqgog","pricing_plan_id":"cebpf4jnsgd1na2vs0mg"},{"bike_id":"b6559458-8701-4796-97db-d8dbe8701181","system_id":"levelo_inurba_marseille","lat":43.27307,"lon":5.39128,"is_reserved":false,"is_disabled":false,"rental_uris":{"android":"levelo://app?vid=b6559458-8701-4796-97db-d8dbe8701181","ios":"levelo://app?vid=b6559458-8701-4796-97db-d8dbe8701181"},"vehicle_type_id":"4","last_reported":1735567694,"current_range_meters":32800,"station_id":"ce4bhgp2rcd13ifvqfe0","pricing_plan_id":"cebpf4jnsgd1na2vs0mg"},{"bike_id":"13f84696-4405-43e0-b0f5-1a61d67abe32","system_id":"levelo_inurba_marseille","lat":43.27821,"lon":5.39206,"is_reserved":false,"is_disabled":false,"rental_uris":{"android":"levelo://app?vid=13f84696-4405-43e0-b0f5-1a61d67abe32","ios":"levelo://app?vid=13f84696-4405-43e0-b0f5-1a61d67abe32"},"vehicle_type_id":"4","last_reported":1735567694,"current_range_meters":18800,"station_id":"ce4bhjp2rcd13ifvqga0","pricing_plan_id":"cebpf4jnsgd1na2vs0mg"},{"bike_id":"8e262267-ba42-4e47-b22a-c75714b04500","system_id":"levelo_inurba_marseille","lat":43.24067,"lon":5.37764,"is_reserved":false,"is_disabled":false,"rental_uris":{"android":"levelo://app?vid=8e262267-ba42-4e47-b22a-c75714b04500","ios":"levelo://app?vid=8e262267-ba42-4e47-b22a-c75714b04500"},"vehicle_type_id":"4","last_reported":1735567694,"current_range_meters":39200,"station_id":"ce4bhnp2rcd13ifvqgvg","pricing_plan_id":"cebpf4jnsgd1na2vs0mg"},{"bike_id":"caab34a4-5264-4b72-a12f-e55159fe93b6","system_id":"levelo_inurba_marseille","lat":43.27071,"lon":5.42279,"is_reserved":false,"is_disabled":false,"rental_uris":{"android":"levelo://app?vid=caab34a4-5264-4b72-a12f-e55159fe93b6","ios":"levelo://app?vid=caab34a4-5264-4b72-a12f-e55159fe93b6"},"vehicle_type_id":"4","last_reported":1735567694,"current_range_meters":19200,"station_id":"ce4bhk92rcd13ifvqgb0","pricing_plan_id":"cebpf4jnsgd1na2vs0mg"},{"bike_id":"d86a61ac-ac4a-4f1b-95a9-369f24a491a0","system_id":"levelo_inurba_marseille","lat":43.23182,"lon":5.39995,"is_reserved":false,"is_disabled":false,"rental_uris":{"android":"levelo://app?vid=d86a61ac-ac4a-4f1b-95a9-369f24a491a0","ios":"levelo://app?vid=d86a61ac-ac4a-4f1b-95a9-369f24a491a0"},"vehicle_type_id":"4","last_reported":1735567694,"current_range_meters":17200,"station_id":"ce4bhn12rcd13ifvqgqg","pricing_plan_id":"cebpf4jnsgd1na2vs0mg"},{"bike_id":"fe302269-000b-46ac-81e4-46edf9df91df","system_id":"levelo_inurba_marseille","lat":43.275717,"lon":5.384331,"is_reserved":false,"is_disabled":false,"rental_uris":{"android":"levelo://app?vid=fe302269-000b-46ac-81e4-46edf9df91df","ios":"levelo://app?vid=fe302269-000b-46ac-81e4-46edf9df91df"},"vehicle_type_id":"4","last_reported":1735567694,"current_range_meters":24800,"station_id":"ce4bhh92rcd13ifvqfi0","pricing_plan_id":"cebpf4jnsgd1na2vs0mg"},{"bike_id":"13fe1bae-d049-481a-8c66-fd974374cb6f","system_id":"levelo_inurba_marseille","lat":43.29571,"lon":5.375,"is_reserved":false,"is_disabled":false,"rental_uris":{"android":"levelo://app?vid=13fe1bae-d049-481a-8c66-fd974374cb6f","ios":"levelo://app?vid=13fe1bae-d049-481a-8c66-fd974374cb6f"},"vehicle_type_id":"4","last_reported":1735567694,"current_range_meters":36400,"station_id":"ce4bgh92rcd13ifvqb50","pricing_plan_id":"cebpf4jnsgd1na2vs0mg"},{"bike_id":"aa866fa0-45d7-43d5-9d66-de3620e20eb0","system_id":"levelo_inurba_marseille","lat":43.32996,"lon":5.39033,"is_reserved":false,"is_disabled":true,"rental_uris":{"android":"levelo://app?vid=aa866fa0-45d7-43d5-9d66-de3620e20eb0","ios":"levelo://app?vid=aa866fa0-45d7-43d5-9d66-de3620e20eb0"},"vehicle_type_id":"4","last_reported":1735567694,"current_range_meters":0,"station_id":"ce4bhr92rcd13ifvqhrg","pricing_plan_id":"cebpf4jnsgd1na2vs0mg"},{"bike_id":"d152dd6e-cd43-46b7-8507-b43af5dc12a1","system_id":"levelo_inurba_marseille","lat":43.28268,"lon":5.35085,"is_reserved":false,"is_disabled":false,"rental_uris":{"android":"levelo://app?vid=d152dd6e-cd43-46b7-8507-b43af5dc12a1","ios":"levelo://app?vid=d152dd6e-cd43-46b7-8507-b43af5dc12a1"},"vehicle_type_id":"4","last_reported":1735567694,"current_range_meters":28000,"station_id":"ce4bhbp2rcd13ifvqerg","pricing_plan_id":"cebpf4jnsgd1na2vs0mg"},{"bike_id":"10328e97-3b3f-42b6-8efd-3406f4be98f7","system_id":"levelo_inurba_marseille","lat":43.28414,"lon":5.34985,"is_reserved":false,"is_disabled":false,"rental_uris":{"android":"levelo://app?vid=10328e97-3b3f-42b6-8efd-3406f4be98f7","ios":"levelo://app?vid=10328e97-3b3f-42b6-8efd-3406f4be98f7"},"vehicle_type_id":"4","last_reported":1735567694,"current_range_meters":35200,"station_id":"ce4bhbh2rcd13ifvqepg","pricing_plan_id":"cebpf4jnsgd1na2vs0mg"},{"bike_id":"e2e5e90e-2e26-4e97-9dde-3d054cc054bd","system_id":"levelo_inurba_marseille","lat":43.23185,"lon":5.39994,"is_reserved":false,"is_disabled":false,"rental_uris":{"android":"levelo://app?vid=e2e5e90e-2e26-4e97-9dde-3d054cc054bd","ios":"levelo://app?vid=e2e5e90e-2e26-4e97-9dde-3d054cc054bd"},"vehicle_type_id":"4","last_reported":1735567694,"current_range_meters":28400,"station_id":"ce4bhn12rcd13ifvqgqg","pricing_plan_id":"cebpf4jnsgd1na2vs0mg"},{"bike_id":"d225e49f-de10-470b-90af-648b3c15cce7","system_id":"levelo_inurba_marseille","lat":43.2573,"lon":5.41105,"is_reserved":false,"is_disabled":false,"rental_uris":{"android":"levelo://app?vid=d225e49f-de10-470b-90af-648b3c15cce7","ios":"levelo://app?vid=d225e49f-de10-470b-90af-648b3c15cce7"},"vehicle_type_id":"4","last_reported":1735567694,"current_range_meters":38800,"station_id":"ce4bhkp2rcd13ifvqgd0","pricing_plan_id":"cebpf4jnsgd1na2vs0mg"},{"bike_id":"8499c959-998d-4486-a511-9d65f0b01fae","system_id":"levelo_inurba_marseille","lat":43.2572,"lon":5.41128,"is_reserved":false,"is_disabled":false,"rental_uris":{"android":"levelo://app?vid=8499c959-998d-4486-a511-9d65f0b01fae","ios":"levelo://app?vid=8499c959-998d-4486-a511-9d65f0b01fae"},"vehicle_type_id":"4","last_reported":1735567694,"current_range_meters":31200,"station_id":"ce4bhkp2rcd13ifvqgd0","pricing_plan_id":"cebpf4jnsgd1na2vs0mg"},{"bike_id":"14c526e1-5037-4934-8226-6240aab7d63f","system_id":"levelo_inurba_marseille","lat":43.27497,"lon":5.42484,"is_reserved":false,"is_disabled":true,"rental_uris":{"android":"levelo://app?vid=14c526e1-5037-4934-8226-6240aab7d63f","ios":"levelo://app?vid=14c526e1-5037-4934-8226-6240aab7d63f"},"vehicle_type_id":"4","last_reported":1735567694,"current_range_meters":2000,"station_id":"ce4bhn92rcd13ifvqgrg","pricing_plan_id":"cebpf4jnsgd1na2vs0mg"},{"bike_id":"c754264e-2257-42b1-89f9-0bf9a740ba42","system_id":"levelo_inurba_marseille","lat":43.27548,"lon":5.38456,"is_reserved":false,"is_disabled":false,"rental_uris":{"android":"levelo://app?vid=c754264e-2257-42b1-89f9-0bf9a740ba42","ios":"levelo://app?vid=c754264e-2257-42b1-89f9-0bf9a740ba42"},"vehicle_type_id":"4","last_reported":1735567694,"current_range_meters":35600,"station_id":"ce4bhh92rcd13ifvqfi0","pricing_plan_id":"cebpf4jnsgd1na2vs0mg"},{"bike_id":"789a4ff9-d968-4f31-af36-a724bc6aea71","system_id":"levelo_inurba_marseille","lat":43.27841,"lon":5.39222,"is_reserved":false,"is_disabled":false,"rental_uris":{"android":"levelo://app?vid=789a4ff9-d968-4f31-af36-a724bc6aea71","ios":"levelo://app?vid=789a4ff9-d968-4f31-af36-a724bc6aea71"},"vehicle_type_id":"4","last_reported":1735567694,"current_range_meters":28800,"station_id":"ce4bhjp2rcd13ifvqga0","pricing_plan_id":"cebpf4jnsgd1na2vs0mg"},{"bike_id":"edaeb765-1f3a-4ef6-bc06-b7260ec353b4","system_id":"levelo_inurba_marseille","lat":43.301573,"lon":5.380955,"is_reserved":false,"is_disabled":false,"rental_uris":{"android":"levelo://app?vid=edaeb765-1f3a-4ef6-bc06-b7260ec353b4","ios":"levelo://app?vid=edaeb765-1f3a-4ef6-bc06-b7260ec353b4"},"vehicle_type_id":"4","last_reported":1735567694,"current_range_meters":30800,"station_id":"ce4bgjp2rcd13ifvqbh0","pricing_plan_id":"cebpf4jnsgd1na2vs0mg"},{"bike_id":"bd2cc453-49ab-4d3b-b8fe-d6a3c9eb9fd0","system_id":"levelo_inurba_marseille","lat":43.30421,"lon":5.39739,"is_reserved":false,"is_disabled":false,"rental_uris":{"android":"levelo://app?vid=bd2cc453-49ab-4d3b-b8fe-d6a3c9eb9fd0","ios":"levelo://app?vid=bd2cc453-49ab-4d3b-b8fe-d6a3c9eb9fd0"},"vehicle_type_id":"4","last_reported":1735567694,"current_range_meters":30000,"station_id":"ce4bh092rcd13ifvqd20","pricing_plan_id":"cebpf4jnsgd1na2vs0mg"},{"bike_id":"a805e307-35f7-4061-8c24-0e26174a46d9","system_id":"levelo_inurba_marseille","lat":43.28472,"lon":5.38428,"is_reserved":false,"is_disabled":false,"rental_uris":{"android":"levelo://app?vid=a805e307-35f7-4061-8c24-0e26174a46d9","ios":"levelo://app?vid=a805e307-35f7-4061-8c24-0e26174a46d9"},"vehicle_type_id":"4","last_reported":1735567694,"current_range_meters":38400,"station_id":"ce4bh512rcd13ifvqe3g","pricing_plan_id":"cebpf4jnsgd1na2vs0mg"},{"bike_id":"9450ce1b-d2ba-417f-919e-b2631ccc4ee8","system_id":"levelo_inurba_marseille","lat":43.29377,"lon":5.37845,"is_reserved":false,"is_disabled":false,"rental_uris":{"android":"levelo://app?vid=9450ce1b-d2ba-417f-919e-b2631ccc4ee8","ios":"levelo://app?vid=9450ce1b-d2ba-417f-919e-b2631ccc4ee8"},"vehicle_type_id":"4","last_reported":1735567694,"current_range_meters":22400,"station_id":"ce4bgjh2rcd13ifvqbf0","pricing_plan_id":"cebpf4jnsgd1na2vs0mg"},{"bike_id":"022ee8df-8b7d-461c-b1b8-61bc2a2ca8ef","system_id":"levelo_inurba_marseille","lat":43.30912,"lon":5.36867,"is_reserved":false,"is_disabled":false,"rental_uris":{"android":"levelo://app?vid=022ee8df-8b7d-461c-b1b8-61bc2a2ca8ef","ios":"levelo://app?vid=022ee8df-8b7d-461c-b1b8-61bc2a2ca8ef"},"vehicle_type_id":"4","last_reported":1735567694,"current_range_meters":38400,"station_id":"ce4bgn92rcd13ifvqbvg","pricing_plan_id":"cebpf4jnsgd1na2vs0mg"},{"bike_id":"3be3f4a0-eaac-4167-8d95-647cacd734ed","system_id":"levelo_inurba_marseille","lat":43.29576,"lon":5.36744,"is_reserved":false,"is_disabled":false,"rental_uris":{"android":"levelo://app?vid=3be3f4a0-eaac-4167-8d95-647cacd734ed","ios":"levelo://app?vid=3be3f4a0-eaac-4167-8d95-647cacd734ed"},"vehicle_type_id":"4","last_reported":1735567694,"current_range_meters":38800,"station_id":"ce4bgph2rcd13ifvqc2g","pricing_plan_id":"cebpf4jnsgd1na2vs0mg"},{"bike_id":"7f310e7a-2a24-4675-a39a-5860be1c8a87","system_id":"levelo_inurba_marseille","lat":43.27441,"lon":5.39427,"is_reserved":false,"is_disabled":false,"rental_uris":{"android":"levelo://app?vid=7f310e7a-2a24-4675-a39a-5860be1c8a87","ios":"levelo://app?vid=7f310e7a-2a24-4675-a39a-5860be1c8a87"},"vehicle_type_id":"4","last_reported":1735567694,"current_range_meters":10000,"station_id":"ce4bhdp2rcd13ifvqf20","pricing_plan_id":"cebpf4jnsgd1na2vs0mg"},{"bike_id":"5897f7d8-d786-47c8-96a0-2c453bad544c","system_id":"levelo_inurba_marseille","lat":43.281,"lon":5.37853,"is_reserved":false,"is_disabled":false,"rental_uris":{"android":"levelo://app?vid=5897f7d8-d786-47c8-96a0-2c453bad544c","ios":"levelo://app?vid=5897f7d8-d786-47c8-96a0-2c453bad544c"},"vehicle_type_id":"4","last_reported":1735567694,"current_range_meters":14400,"station_id":"ce4bha12rcd13ifvqee0","pricing_plan_id":"cebpf4jnsgd1na2vs0mg"},{"bike_id":"e72c6d65-0b04-411e-bf0f-f72d15cad0d7","system_id":"levelo_inurba_marseille","lat":43.33732,"lon":5.39188,"is_reserved":false,"is_disabled":false,"rental_uris":{"android":"levelo://app?vid=e72c6d65-0b04-411e-bf0f-f72d15cad0d7","ios":"levelo://app?vid=e72c6d65-0b04-411e-bf0f-f72d15cad0d7"},"vehicle_type_id":"4","last_reported":1735567694,"current_range_meters":38800,"station_id":"ce4bhr92rcd13ifvqhsg","pricing_plan_id":"cebpf4jnsgd1na2vs0mg"},{"bike_id":"bb026ccd-d3aa-4c00-a992-d9f20432a24e","system_id":"levelo_inurba_marseille","lat":43.27657,"lon":5.3893,"is_reserved":false,"is_disabled":false,"rental_uris":{"android":"levelo://app?vid=bb026ccd-d3aa-4c00-a992-d9f20432a24e","ios":"levelo://app?vid=bb026ccd-d3aa-4c00-a992-d9f20432a24e"},"vehicle_type_id":"4","last_reported":1735567694,"current_range_meters":35600,"station_id":"ce4bhi12rcd13ifvqfo0","pricing_plan_id":"cebpf4jnsgd1na2vs0mg"},{"bike_id":"933c8d37-a9f0-435c-95e3-2e41d02ff883","system_id":"levelo_inurba_marseille","lat":43.25496,"lon":5.37649,"is_reserved":false,"is_disabled":false,"rental_uris":{"android":"levelo://app?vid=933c8d37-a9f0-435c-95e3-2e41d02ff883","ios":"levelo://app?vid=933c8d37-a9f0-435c-95e3-2e41d02ff883"},"vehicle_type_id":"4","last_reported":1735567694,"current_range_meters":30400,"station_id":"ce4bhh12rcd13ifvqff0","pricing_plan_id":"cebpf4jnsgd1na2vs0mg"},{"bike_id":"52821f80-86b1-40fc-9656-db3d03641f0b","system_id":"levelo_inurba_marseille","lat":43.29631,"lon":5.37191,"is_reserved":false,"is_disabled":false,"rental_uris":{"android":"levelo://app?vid=52821f80-86b1-40fc-9656-db3d03641f0b","ios":"levelo://app?vid=52821f80-86b1-40fc-9656-db3d03641f0b"},"vehicle_type_id":"4","last_reported":1735567694,"current_range_meters":39200,"station_id":"ce4bgnh2rcd13ifvqc0g","pricing_plan_id":"cebpf4jnsgd1na2vs0mg"},{"bike_id":"2fdeab75-c3c7-44e1-8744-5eb7e97729bb","system_id":"levelo_inurba_marseille","lat":43.32108,"lon":5.36793,"is_reserved":false,"is_disabled":false,"rental_uris":{"android":"levelo://app?vid=2fdeab75-c3c7-44e1-8744-5eb7e97729bb","ios":"levelo://app?vid=2fdeab75-c3c7-44e1-8744-5eb7e97729bb"},"vehicle_type_id":"4","last_reported":1735567694,"current_range_meters":36800,"station_id":"ce4bhrh2rcd13ifvqhug","pricing_plan_id":"cebpf4jnsgd1na2vs0mg"},{"bike_id":"931b1634-ff1b-468a-b5c6-459a7a66dd49","system_id":"levelo_inurba_marseille","lat":43.29028,"lon":5.38652,"is_reserved":false,"is_disabled":true,"rental_uris":{"android":"levelo://app?vid=931b1634-ff1b-468a-b5c6-459a7a66dd49","ios":"levelo://app?vid=931b1634-ff1b-468a-b5c6-459a7a66dd49"},"vehicle_type_id":"4","last_reported":1735567694,"current_range_meters":35200,"station_id":"ce4bh4p2rcd13ifvqe0g","pricing_plan_id":"cebpf4jnsgd1na2vs0mg"},{"bike_id":"40d33d5a-b0d6-4ca7-b92a-5a5e00a2e584","system_id":"levelo_inurba_marseille","lat":43.27289,"lon":5.39137,"is_reserved":false,"is_disabled":false,"rental_uris":{"android":"levelo://app?vid=40d33d5a-b0d6-4ca7-b92a-5a5e00a2e584","ios":"levelo://app?vid=40d33d5a-b0d6-4ca7-b92a-5a5e00a2e584"},"vehicle_type_id":"4","last_reported":1735567694,"current_range_meters":39200,"station_id":"ce4bhgp2rcd13ifvqfe0","pricing_plan_id":"cebpf4jnsgd1na2vs0mg"},{"bike_id":"6182e5fb-ff5d-457f-a251-8271ee797dae","system_id":"levelo_inurba_marseille","lat":43.27056,"lon":5.40259,"is_reserved":false,"is_disabled":false,"rental_uris":{"android":"levelo://app?vid=6182e5fb-ff5d-457f-a251-8271ee797dae","ios":"levelo://app?vid=6182e5fb-ff5d-457f-a251-8271ee797dae"},"vehicle_type_id":"4","last_reported":1735567694,"current_range_meters":28000,"station_id":"ce4bhk92rcd13ifvqgc0","pricing_plan_id":"cebpf4jnsgd1na2vs0mg"},{"bike_id":"57103b12-06fc-494b-9a1a-1903f8f245d5","system_id":"levelo_inurba_marseille","lat":43.27994,"lon":5.4166,"is_reserved":false,"is_disabled":false,"rental_uris":{"android":"levelo://app?vid=57103b12-06fc-494b-9a1a-1903f8f245d5","ios":"levelo://app?vid=57103b12-06fc-494b-9a1a-1903f8f245d5"},"vehicle_type_id":"4","last_reported":1735567694,"current_range_meters":11600,"station_id":"ce4bho12rcd13ifvqh1g","pricing_plan_id":"cebpf4jnsgd1na2vs0mg"},{"bike_id":"c93a8900-340a-4a6d-ac3e-8882057837af","system_id":"levelo_inurba_marseille","lat":43.27382,"lon":5.36261,"is_reserved":false,"is_disabled":false,"rental_uris":{"android":"levelo://app?vid=c93a8900-340a-4a6d-ac3e-8882057837af","ios":"levelo://app?vid=c93a8900-340a-4a6d-ac3e-8882057837af"},"vehicle_type_id":"4","last_reported":1735567694,"current_range_meters":31200,"station_id":"ce4bhbh2rcd13ifvqeo0","pricing_plan_id":"cebpf4jnsgd1na2vs0mg"},{"bike_id":"d9d97985-8792-47a3-ab8c-09980f6a9900","system_id":"levelo_inurba_marseille","lat":43.29545,"lon":5.375,"is_reserved":false,"is_disabled":false,"rental_uris":{"android":"levelo://app?vid=d9d97985-8792-47a3-ab8c-09980f6a9900","ios":"levelo://app?vid=d9d97985-8792-47a3-ab8c-09980f6a9900"},"vehicle_type_id":"4","last_reported":1735567694,"current_range_meters":37600,"station_id":"ce4bgkp2rcd13ifvqbmg","pricing_plan_id":"cebpf4jnsgd1na2vs0mg"},{"bike_id":"83310ad3-fbb5-4627-b582-b83795a3b32f","system_id":"levelo_inurba_marseille","lat":43.2935,"lon":5.37835,"is_reserved":false,"is_disabled":false,"rental_uris":{"android":"levelo://app?vid=83310ad3-fbb5-4627-b582-b83795a3b32f","ios":"levelo://app?vid=83310ad3-fbb5-4627-b582-b83795a3b32f"},"vehicle_type_id":"4","last_reported":1735567694,"current_range_meters":36000,"station_id":"ce4bgjh2rcd13ifvqbf0","pricing_plan_id":"cebpf4jnsgd1na2vs0mg"},{"bike_id":"0264fc9d-678e-4f71-a245-17e31abd426e","system_id":"levelo_inurba_marseille","lat":43.29603,"lon":5.37719,"is_reserved":false,"is_disabled":false,"rental_uris":{"android":"levelo://app?vid=0264fc9d-678e-4f71-a245-17e31abd426e","ios":"levelo://app?vid=0264fc9d-678e-4f71-a245-17e31abd426e"},"vehicle_type_id":"4","last_reported":1735567694,"current_range_meters":17200,"station_id":"ce4bgi92rcd13ifvqb90","pricing_plan_id":"cebpf4jnsgd1na2vs0mg"},{"bike_id":"c8c7da2f-8c1e-42c0-8bab-047558bbc6dc","system_id":"levelo_inurba_marseille","lat":43.337444,"lon":5.374475,"is_reserved":false,"is_disabled":false,"rental_uris":{"android":"levelo://app?vid=c8c7da2f-8c1e-42c0-8bab-047558bbc6dc","ios":"levelo://app?vid=c8c7da2f-8c1e-42c0-8bab-047558bbc6dc"},"vehicle_type_id":"4","last_reported":1735567694,"current_range_meters":23200,"station_id":"","pricing_plan_id":"cebpf4jnsgd1na2vs0mg"},{"bike_id":"14c11fb9-caa0-4e31-80e1-6eab38509593","system_id":"levelo_inurba_marseille","lat":43.26205,"lon":5.37923,"is_reserved":false,"is_disabled":false,"rental_uris":{"android":"levelo://app?vid=14c11fb9-caa0-4e31-80e1-6eab38509593","ios":"levelo://app?vid=14c11fb9-caa0-4e31-80e1-6eab38509593"},"vehicle_type_id":"4","last_reported":1735567694,"current_range_meters":38800,"station_id":"ce4bhjp2rcd13ifvqg90","pricing_plan_id":"cebpf4jnsgd1na2vs0mg"},{"bike_id":"482b0b80-c53d-4d05-aa82-218b22575b6c","system_id":"levelo_inurba_marseille","lat":43.23165,"lon":5.43721,"is_reserved":false,"is_disabled":true,"rental_uris":{"android":"levelo://app?vid=482b0b80-c53d-4d05-aa82-218b22575b6c","ios":"levelo://app?vid=482b0b80-c53d-4d05-aa82-218b22575b6c"},"vehicle_type_id":"4","last_reported":1735567694,"current_range_meters":34800,"station_id":"ce4bhmp2rcd13ifvqgog","pricing_plan_id":"cebpf4jnsgd1na2vs0mg"},{"bike_id":"9a716e5d-f84a-4446-8deb-b518e6295159","system_id":"levelo_inurba_marseille","lat":43.337444,"lon":5.374475,"is_reserved":false,"is_disabled":false,"rental_uris":{"android":"levelo://app?vid=9a716e5d-f84a-4446-8deb-b518e6295159","ios":"levelo://app?vid=9a716e5d-f84a-4446-8deb-b518e6295159"},"vehicle_type_id":"4","last_reported":1735567694,"current_range_meters":10000,"station_id":"","pricing_plan_id":"cebpf4jnsgd1na2vs0mg"},{"bike_id":"00de8129-4291-4c93-95db-aefe1ebc8078","system_id":"levelo_inurba_marseille","lat":43.29619,"lon":5.37158,"is_reserved":false,"is_disabled":false,"rental_uris":{"android":"levelo://app?vid=00de8129-4291-4c93-95db-aefe1ebc8078","ios":"levelo://app?vid=00de8129-4291-4c93-95db-aefe1ebc8078"},"vehicle_type_id":"4","last_reported":1735567694,"current_range_meters":35200,"station_id":"ce4bgnh2rcd13ifvqc0g","pricing_plan_id":"cebpf4jnsgd1na2vs0mg"},{"bike_id":"fca493fc-197d-4af5-b303-37832bceba66","system_id":"levelo_inurba_marseille","lat":43.28991,"lon":5.37826,"is_reserved":false,"is_disabled":false,"rental_uris":{"android":"levelo://app?vid=fca493fc-197d-4af5-b303-37832bceba66","ios":"levelo://app?vid=fca493fc-197d-4af5-b303-37832bceba66"},"vehicle_type_id":"4","last_reported":1735567694,"current_range_meters":28000,"station_id":"ce4bh9p2rcd13ifvqed0","pricing_plan_id":"cebpf4jnsgd1na2vs0mg"},{"bike_id":"930f7ce6-e931-48ed-acea-dde57f1887ce","system_id":"levelo_inurba_marseille","lat":43.32097,"lon":5.36794,"is_reserved":false,"is_disabled":false,"rental_uris":{"android":"levelo://app?vid=930f7ce6-e931-48ed-acea-dde57f1887ce","ios":"levelo://app?vid=930f7ce6-e931-48ed-acea-dde57f1887ce"},"vehicle_type_id":"4","last_reported":1735567694,"current_range_meters":38000,"station_id":"ce4bhrh2rcd13ifvqhug","pricing_plan_id":"cebpf4jnsgd1na2vs0mg"},{"bike_id":"5d2018aa-7074-4fb0-bd19-46c785b0343c","system_id":"levelo_inurba_marseille","lat":43.27943,"lon":5.41044,"is_reserved":false,"is_disabled":false,"rental_uris":{"android":"levelo://app?vid=5d2018aa-7074-4fb0-bd19-46c785b0343c","ios":"levelo://app?vid=5d2018aa-7074-4fb0-bd19-46c785b0343c"},"vehicle_type_id":"4","last_reported":1735567694,"current_range_meters":6400,"station_id":"ce4bhnp2rcd13ifvqh0g","pricing_plan_id":"cebpf4jnsgd1na2vs0mg"},{"bike_id":"c21a444e-c313-43de-8930-8781fd633a42","system_id":"levelo_inurba_marseille","lat":43.23062,"lon":5.3549,"is_reserved":false,"is_disabled":false,"rental_uris":{"android":"levelo://app?vid=c21a444e-c313-43de-8930-8781fd633a42","ios":"levelo://app?vid=c21a444e-c313-43de-8930-8781fd633a42"},"vehicle_type_id":"4","last_reported":1735567694,"current_range_meters":38800,"station_id":"cpo3342slgdg3j2ifvpg","pricing_plan_id":"cebpf4jnsgd1na2vs0mg"},{"bike_id":"bc81e100-77c3-482d-b418-a4f2bd3d5bf6","system_id":"levelo_inurba_marseille","lat":43.30152,"lon":5.38081,"is_reserved":false,"is_disabled":false,"rental_uris":{"android":"levelo://app?vid=bc81e100-77c3-482d-b418-a4f2bd3d5bf6","ios":"levelo://app?vid=bc81e100-77c3-482d-b418-a4f2bd3d5bf6"},"vehicle_type_id":"4","last_reported":1735567694,"current_range_meters":36400,"station_id":"ce4bgjp2rcd13ifvqbh0","pricing_plan_id":"cebpf4jnsgd1na2vs0mg"},{"bike_id":"857e731f-9747-4e99-8531-5484607712fb","system_id":"levelo_inurba_marseille","lat":43.29004,"lon":5.35607,"is_reserved":false,"is_disabled":false,"rental_uris":{"android":"levelo://app?vid=857e731f-9747-4e99-8531-5484607712fb","ios":"levelo://app?vid=857e731f-9747-4e99-8531-5484607712fb"},"vehicle_type_id":"4","last_reported":1735567694,"current_range_meters":8400,"station_id":"ce4bhb92rcd13ifvqen0","pricing_plan_id":"cebpf4jnsgd1na2vs0mg"},{"bike_id":"3606dbac-9e8c-4c78-9b2b-559a77cb6f6c","system_id":"levelo_inurba_marseille","lat":43.28462,"lon":5.35887,"is_reserved":false,"is_disabled":false,"rental_uris":{"android":"levelo://app?vid=3606dbac-9e8c-4c78-9b2b-559a77cb6f6c","ios":"levelo://app?vid=3606dbac-9e8c-4c78-9b2b-559a77cb6f6c"},"vehicle_type_id":"4","last_reported":1735567694,"current_range_meters":19200,"station_id":"ce4bhah2rcd13ifvqei0","pricing_plan_id":"cebpf4jnsgd1na2vs0mg"},{"bike_id":"216a1752-6291-4cd2-944a-f00d197e33eb","system_id":"levelo_inurba_marseille","lat":43.28451,"lon":5.35874,"is_reserved":false,"is_disabled":false,"rental_uris":{"android":"levelo://app?vid=216a1752-6291-4cd2-944a-f00d197e33eb","ios":"levelo://app?vid=216a1752-6291-4cd2-944a-f00d197e33eb"},"vehicle_type_id":"4","last_reported":1735567694,"current_range_meters":8400,"station_id":"ce4bhah2rcd13ifvqei0","pricing_plan_id":"cebpf4jnsgd1na2vs0mg"},{"bike_id":"42795d47-d62f-4f29-b59e-6d69fc9e7f52","system_id":"levelo_inurba_marseille","lat":43.30879,"lon":5.37195,"is_reserved":false,"is_disabled":false,"rental_uris":{"android":"levelo://app?vid=42795d47-d62f-4f29-b59e-6d69fc9e7f52","ios":"levelo://app?vid=42795d47-d62f-4f29-b59e-6d69fc9e7f52"},"vehicle_type_id":"4","last_reported":1735567694,"current_range_meters":38800,"station_id":"ce4bguh2rcd13ifvqckg","pricing_plan_id":"cebpf4jnsgd1na2vs0mg"},{"bike_id":"9fa91a67-dbf8-4a99-ab48-bde4b091de84","system_id":"levelo_inurba_marseille","lat":43.337444,"lon":5.374475,"is_reserved":false,"is_disabled":false,"rental_uris":{"android":"levelo://app?vid=9fa91a67-dbf8-4a99-ab48-bde4b091de84","ios":"levelo://app?vid=9fa91a67-dbf8-4a99-ab48-bde4b091de84"},"vehicle_type_id":"4","last_reported":1735567694,"current_range_meters":12800,"station_id":"","pricing_plan_id":"cebpf4jnsgd1na2vs0mg"},{"bike_id":"db407435-b2b4-4d68-8d1d-4736937f75f4","system_id":"levelo_inurba_marseille","lat":43.27369,"lon":5.36245,"is_reserved":false,"is_disabled":true,"rental_uris":{"android":"levelo://app?vid=db407435-b2b4-4d68-8d1d-4736937f75f4","ios":"levelo://app?vid=db407435-b2b4-4d68-8d1d-4736937f75f4"},"vehicle_type_id":"4","last_reported":1735567694,"current_range_meters":0,"station_id":"ce4bhbh2rcd13ifvqeo0","pricing_plan_id":"cebpf4jnsgd1na2vs0mg"},{"bike_id":"d124b3fa-f3a5-4c6d-bebc-2f7ad1a1004e","system_id":"levelo_inurba_marseille","lat":43.2695,"lon":5.38646,"is_reserved":false,"is_disabled":false,"rental_uris":{"android":"levelo://app?vid=d124b3fa-f3a5-4c6d-bebc-2f7ad1a1004e","ios":"levelo://app?vid=d124b3fa-f3a5-4c6d-bebc-2f7ad1a1004e"},"vehicle_type_id":"4","last_reported":1735567694,"current_range_meters":38000,"station_id":"ce4bhh92rcd13ifvqfh0","pricing_plan_id":"cebpf4jnsgd1na2vs0mg"},{"bike_id":"ec5d0c56-2c7f-428f-a6d9-17d57eccdf90","system_id":"levelo_inurba_marseille","lat":43.23204,"lon":5.35545,"is_reserved":false,"is_disabled":false,"rental_uris":{"android":"levelo://app?vid=ec5d0c56-2c7f-428f-a6d9-17d57eccdf90","ios":"levelo://app?vid=ec5d0c56-2c7f-428f-a6d9-17d57eccdf90"},"vehicle_type_id":"4","last_reported":1735567694,"current_range_meters":19200,"station_id":"ce4bhu92rcd13ifvqi70","pricing_plan_id":"cebpf4jnsgd1na2vs0mg"},{"bike_id":"d062f8ed-af3b-4810-b7fb-e25f0dbd8c07","system_id":"levelo_inurba_marseille","lat":43.30671,"lon":5.36865,"is_reserved":false,"is_disabled":false,"rental_uris":{"android":"levelo://app?vid=d062f8ed-af3b-4810-b7fb-e25f0dbd8c07","ios":"levelo://app?vid=d062f8ed-af3b-4810-b7fb-e25f0dbd8c07"},"vehicle_type_id":"4","last_reported":1735567694,"current_range_meters":19600,"station_id":"","pricing_plan_id":"cebpf4jnsgd1na2vs0mg"},{"bike_id":"9f70dc23-753f-4308-b283-f58cd06517a9","system_id":"levelo_inurba_marseille","lat":43.2873,"lon":5.3609,"is_reserved":false,"is_disabled":false,"rental_uris":{"android":"levelo://app?vid=9f70dc23-753f-4308-b283-f58cd06517a9","ios":"levelo://app?vid=9f70dc23-753f-4308-b283-f58cd06517a9"},"vehicle_type_id":"4","last_reported":1735567694,"current_range_meters":28400,"station_id":"cki0cbj6b192h4jlfktg","pricing_plan_id":"cebpf4jnsgd1na2vs0mg"},{"bike_id":"d6205c4d-3834-4ed3-974d-2d1144189ec2","system_id":"levelo_inurba_marseille","lat":43.25719,"lon":5.41111,"is_reserved":false,"is_disabled":false,"rental_uris":{"android":"levelo://app?vid=d6205c4d-3834-4ed3-974d-2d1144189ec2","ios":"levelo://app?vid=d6205c4d-3834-4ed3-974d-2d1144189ec2"},"vehicle_type_id":"4","last_reported":1735567694,"current_range_meters":28000,"station_id":"ce4bhkp2rcd13ifvqgd0","pricing_plan_id":"cebpf4jnsgd1na2vs0mg"},{"bike_id":"ff66aa45-e448-4c65-a72d-556dc025d6df","system_id":"levelo_inurba_marseille","lat":43.293014,"lon":5.369294,"is_reserved":false,"is_disabled":false,"rental_uris":{"android":"levelo://app?vid=ff66aa45-e448-4c65-a72d-556dc025d6df","ios":"levelo://app?vid=ff66aa45-e448-4c65-a72d-556dc025d6df"},"vehicle_type_id":"4","last_reported":1735567694,"current_range_meters":20400,"station_id":"ce4bhc92rcd13ifvqetg","pricing_plan_id":"cebpf4jnsgd1na2vs0mg"},{"bike_id":"805b146d-680f-4010-8a1d-979f727ac65c","system_id":"levelo_inurba_marseille","lat":43.31358,"lon":5.36738,"is_reserved":false,"is_disabled":false,"rental_uris":{"android":"levelo://app?vid=805b146d-680f-4010-8a1d-979f727ac65c","ios":"levelo://app?vid=805b146d-680f-4010-8a1d-979f727ac65c"},"vehicle_type_id":"4","last_reported":1735567694,"current_range_meters":24800,"station_id":"ce4bgr92rcd13ifvqc6g","pricing_plan_id":"cebpf4jnsgd1na2vs0mg"},{"bike_id":"2a1b35da-daea-4a1d-a941-20b6a3a8bd98","system_id":"levelo_inurba_marseille","lat":43.29271,"lon":5.36853,"is_reserved":false,"is_disabled":false,"rental_uris":{"android":"levelo://app?vid=2a1b35da-daea-4a1d-a941-20b6a3a8bd98","ios":"levelo://app?vid=2a1b35da-daea-4a1d-a941-20b6a3a8bd98"},"vehicle_type_id":"4","last_reported":1735567694,"current_range_meters":36800,"station_id":"ce4bhbp2rcd13ifvqesg","pricing_plan_id":"cebpf4jnsgd1na2vs0mg"},{"bike_id":"32afc6cc-1544-4f88-ab5c-34496cc35b04","system_id":"levelo_inurba_marseille","lat":43.230604,"lon":5.354914,"is_reserved":false,"is_disabled":false,"rental_uris":{"android":"levelo://app?vid=32afc6cc-1544-4f88-ab5c-34496cc35b04","ios":"levelo://app?vid=32afc6cc-1544-4f88-ab5c-34496cc35b04"},"vehicle_type_id":"4","last_reported":1735567694,"current_range_meters":22000,"station_id":"cpo3342slgdg3j2ifvpg","pricing_plan_id":"cebpf4jnsgd1na2vs0mg"},{"bike_id":"ff27b50e-e127-48ea-a99c-ced35aad3637","system_id":"levelo_inurba_marseille","lat":43.27818,"lon":5.40704,"is_reserved":false,"is_disabled":false,"rental_uris":{"android":"levelo://app?vid=ff27b50e-e127-48ea-a99c-ced35aad3637","ios":"levelo://app?vid=ff27b50e-e127-48ea-a99c-ced35aad3637"},"vehicle_type_id":"4","last_reported":1735567694,"current_range_meters":30400,"station_id":"ce4bhnh2rcd13ifvqgtg","pricing_plan_id":"cebpf4jnsgd1na2vs0mg"},{"bike_id":"909f440c-cb07-4e90-ae06-2fd800ec689a","system_id":"levelo_inurba_marseille","lat":43.28477,"lon":5.38551,"is_reserved":false,"is_disabled":false,"rental_uris":{"android":"levelo://app?vid=909f440c-cb07-4e90-ae06-2fd800ec689a","ios":"levelo://app?vid=909f440c-cb07-4e90-ae06-2fd800ec689a"},"vehicle_type_id":"4","last_reported":1735567694,"current_range_meters":39200,"station_id":"ce4bh8p2rcd13ifvqeb0","pricing_plan_id":"cebpf4jnsgd1na2vs0mg"},{"bike_id":"3ac6afb2-eeca-4495-ae50-ead30fba6adf","system_id":"levelo_inurba_marseille","lat":43.29617,"lon":5.37745,"is_reserved":false,"is_disabled":false,"rental_uris":{"android":"levelo://app?vid=3ac6afb2-eeca-4495-ae50-ead30fba6adf","ios":"levelo://app?vid=3ac6afb2-eeca-4495-ae50-ead30fba6adf"},"vehicle_type_id":"4","last_reported":1735567694,"current_range_meters":12800,"station_id":"ce4bgi92rcd13ifvqb90","pricing_plan_id":"cebpf4jnsgd1na2vs0mg"},{"bike_id":"0e596710-30f6-45b6-a748-be48fa2c0a3a","system_id":"levelo_inurba_marseille","lat":43.30539,"lon":5.36706,"is_reserved":false,"is_disabled":false,"rental_uris":{"android":"levelo://app?vid=0e596710-30f6-45b6-a748-be48fa2c0a3a","ios":"levelo://app?vid=0e596710-30f6-45b6-a748-be48fa2c0a3a"},"vehicle_type_id":"4","last_reported":1735567694,"current_range_meters":22400,"station_id":"ce4bgrp2rcd13ifvqc9g","pricing_plan_id":"cebpf4jnsgd1na2vs0mg"},{"bike_id":"2c154034-0bf1-46d1-99fe-0d3d110739bc","system_id":"levelo_inurba_marseille","lat":43.2849,"lon":5.38419,"is_reserved":false,"is_disabled":false,"rental_uris":{"android":"levelo://app?vid=2c154034-0bf1-46d1-99fe-0d3d110739bc","ios":"levelo://app?vid=2c154034-0bf1-46d1-99fe-0d3d110739bc"},"vehicle_type_id":"4","last_reported":1735567694,"current_range_meters":38000,"station_id":"ce4bh512rcd13ifvqe3g","pricing_plan_id":"cebpf4jnsgd1na2vs0mg"},{"bike_id":"e61353e2-2dae-45f9-b439-da7bf73dd979","system_id":"levelo_inurba_marseille","lat":43.29007,"lon":5.35613,"is_reserved":false,"is_disabled":false,"rental_uris":{"android":"levelo://app?vid=e61353e2-2dae-45f9-b439-da7bf73dd979","ios":"levelo://app?vid=e61353e2-2dae-45f9-b439-da7bf73dd979"},"vehicle_type_id":"4","last_reported":1735567694,"current_range_meters":37600,"station_id":"ce4bhb92rcd13ifvqen0","pricing_plan_id":"cebpf4jnsgd1na2vs0mg"},{"bike_id":"c555ca4c-11f1-431d-8a50-f4a1100f526d","system_id":"levelo_inurba_marseille","lat":43.30876,"lon":5.37206,"is_reserved":false,"is_disabled":false,"rental_uris":{"android":"levelo://app?vid=c555ca4c-11f1-431d-8a50-f4a1100f526d","ios":"levelo://app?vid=c555ca4c-11f1-431d-8a50-f4a1100f526d"},"vehicle_type_id":"4","last_reported":1735567694,"current_range_meters":16800,"station_id":"ce4bguh2rcd13ifvqckg","pricing_plan_id":"cebpf4jnsgd1na2vs0mg"},{"bike_id":"fafee940-bb5c-40a2-b27e-b4883261f360","system_id":"levelo_inurba_marseille","lat":43.24181,"lon":5.39732,"is_reserved":false,"is_disabled":false,"rental_uris":{"android":"levelo://app?vid=fafee940-bb5c-40a2-b27e-b4883261f360","ios":"levelo://app?vid=fafee940-bb5c-40a2-b27e-b4883261f360"},"vehicle_type_id":"4","last_reported":1735567694,"current_range_meters":5600,"station_id":"ce4bhn12rcd13ifvqgpg","pricing_plan_id":"cebpf4jnsgd1na2vs0mg"},{"bike_id":"022d826a-d31d-48ef-b07e-f8dd0ceaa746","system_id":"levelo_inurba_marseille","lat":43.25014,"lon":5.3893,"is_reserved":false,"is_disabled":false,"rental_uris":{"android":"levelo://app?vid=022d826a-d31d-48ef-b07e-f8dd0ceaa746","ios":"levelo://app?vid=022d826a-d31d-48ef-b07e-f8dd0ceaa746"},"vehicle_type_id":"4","last_reported":1735567694,"current_range_meters":38800,"station_id":"ce4bhgp2rcd13ifvqfd0","pricing_plan_id":"cebpf4jnsgd1na2vs0mg"},{"bike_id":"6defd805-bcda-47ac-97e6-01438677277b","system_id":"levelo_inurba_marseille","lat":43.31186,"lon":5.36845,"is_reserved":false,"is_disabled":false,"rental_uris":{"android":"levelo://app?vid=6defd805-bcda-47ac-97e6-01438677277b","ios":"levelo://app?vid=6defd805-bcda-47ac-97e6-01438677277b"},"vehicle_type_id":"4","last_reported":1735567694,"current_range_meters":38800,"station_id":"ce4bgl92rcd13ifvqbq0","pricing_plan_id":"cebpf4jnsgd1na2vs0mg"},{"bike_id":"ef2b8e0d-f459-42fc-b0fa-07fcd6e1bc1a","system_id":"levelo_inurba_marseille","lat":43.2731,"lon":5.39117,"is_reserved":false,"is_disabled":false,"rental_uris":{"android":"levelo://app?vid=ef2b8e0d-f459-42fc-b0fa-07fcd6e1bc1a","ios":"levelo://app?vid=ef2b8e0d-f459-42fc-b0fa-07fcd6e1bc1a"},"vehicle_type_id":"4","last_reported":1735567694,"current_range_meters":38800,"station_id":"ce4bhgp2rcd13ifvqfe0","pricing_plan_id":"cebpf4jnsgd1na2vs0mg"},{"bike_id":"be296b0a-dbed-453c-9891-c857454e2bf1","system_id":"levelo_inurba_marseille","lat":43.24076,"lon":5.37761,"is_reserved":false,"is_disabled":false,"rental_uris":{"android":"levelo://app?vid=be296b0a-dbed-453c-9891-c857454e2bf1","ios":"levelo://app?vid=be296b0a-dbed-453c-9891-c857454e2bf1"},"vehicle_type_id":"4","last_reported":1735567694,"current_range_meters":15200,"station_id":"ce4bhnp2rcd13ifvqgvg","pricing_plan_id":"cebpf4jnsgd1na2vs0mg"},{"bike_id":"3c15cb18-b4c3-4ae9-84d6-645280f6d717","system_id":"levelo_inurba_marseille","lat":43.24806,"lon":5.37455,"is_reserved":false,"is_disabled":false,"rental_uris":{"android":"levelo://app?vid=3c15cb18-b4c3-4ae9-84d6-645280f6d717","ios":"levelo://app?vid=3c15cb18-b4c3-4ae9-84d6-645280f6d717"},"vehicle_type_id":"4","last_reported":1735567694,"current_range_meters":22000,"station_id":"ce4bhgh2rcd13ifvqfb0","pricing_plan_id":"cebpf4jnsgd1na2vs0mg"},{"bike_id":"4ebba5cb-5c68-4e3e-ad19-e86b558df96e","system_id":"levelo_inurba_marseille","lat":43.29582,"lon":5.37721,"is_reserved":false,"is_disabled":false,"rental_uris":{"android":"levelo://app?vid=4ebba5cb-5c68-4e3e-ad19-e86b558df96e","ios":"levelo://app?vid=4ebba5cb-5c68-4e3e-ad19-e86b558df96e"},"vehicle_type_id":"4","last_reported":1735567694,"current_range_meters":19200,"station_id":"ce4bgi92rcd13ifvqb90","pricing_plan_id":"cebpf4jnsgd1na2vs0mg"},{"bike_id":"356fd92d-e963-40e6-b40e-58fc72ac9553","system_id":"levelo_inurba_marseille","lat":43.32096,"lon":5.36803,"is_reserved":false,"is_disabled":false,"rental_uris":{"android":"levelo://app?vid=356fd92d-e963-40e6-b40e-58fc72ac9553","ios":"levelo://app?vid=356fd92d-e963-40e6-b40e-58fc72ac9553"},"vehicle_type_id":"4","last_reported":1735567694,"current_range_meters":32800,"station_id":"ce4bhrh2rcd13ifvqhug","pricing_plan_id":"cebpf4jnsgd1na2vs0mg"},{"bike_id":"12b64bf2-4ce1-4146-af5b-eb3b72f8d5ae","system_id":"levelo_inurba_marseille","lat":43.25727,"lon":5.41108,"is_reserved":false,"is_disabled":false,"rental_uris":{"android":"levelo://app?vid=12b64bf2-4ce1-4146-af5b-eb3b72f8d5ae","ios":"levelo://app?vid=12b64bf2-4ce1-4146-af5b-eb3b72f8d5ae"},"vehicle_type_id":"4","last_reported":1735567694,"current_range_meters":38800,"station_id":"ce4bhkp2rcd13ifvqgd0","pricing_plan_id":"cebpf4jnsgd1na2vs0mg"},{"bike_id":"f6c3569e-efa4-4a1c-b75b-94ded8df3e64","system_id":"levelo_inurba_marseille","lat":43.27937,"lon":5.38696,"is_reserved":false,"is_disabled":false,"rental_uris":{"android":"levelo://app?vid=f6c3569e-efa4-4a1c-b75b-94ded8df3e64","ios":"levelo://app?vid=f6c3569e-efa4-4a1c-b75b-94ded8df3e64"},"vehicle_type_id":"4","last_reported":1735567694,"current_range_meters":36800,"station_id":"","pricing_plan_id":"cebpf4jnsgd1na2vs0mg"},{"bike_id":"817fe9b7-915b-4bba-967f-6ea369e5db67","system_id":"levelo_inurba_marseille","lat":43.26945,"lon":5.38646,"is_reserved":false,"is_disabled":false,"rental_uris":{"android":"levelo://app?vid=817fe9b7-915b-4bba-967f-6ea369e5db67","ios":"levelo://app?vid=817fe9b7-915b-4bba-967f-6ea369e5db67"},"vehicle_type_id":"4","last_reported":1735567694,"current_range_meters":27200,"station_id":"ce4bhh92rcd13ifvqfh0","pricing_plan_id":"cebpf4jnsgd1na2vs0mg"},{"bike_id":"5b0aed25-3a00-480b-8943-84ac3074319e","system_id":"levelo_inurba_marseille","lat":43.29712,"lon":5.3659,"is_reserved":false,"is_disabled":false,"rental_uris":{"android":"levelo://app?vid=5b0aed25-3a00-480b-8943-84ac3074319e","ios":"levelo://app?vid=5b0aed25-3a00-480b-8943-84ac3074319e"},"vehicle_type_id":"4","last_reported":1735567694,"current_range_meters":38800,"station_id":"ce4bgn12rcd13ifvqbt0","pricing_plan_id":"cebpf4jnsgd1na2vs0mg"},{"bike_id":"cbad41e3-cae3-4016-bec9-81045a974dff","system_id":"levelo_inurba_marseille","lat":43.29605,"lon":5.37735,"is_reserved":false,"is_disabled":false,"rental_uris":{"android":"levelo://app?vid=cbad41e3-cae3-4016-bec9-81045a974dff","ios":"levelo://app?vid=cbad41e3-cae3-4016-bec9-81045a974dff"},"vehicle_type_id":"4","last_reported":1735567694,"current_range_meters":36000,"station_id":"ce4bgi92rcd13ifvqb90","pricing_plan_id":"cebpf4jnsgd1na2vs0mg"},{"bike_id":"c95a0b40-0953-488c-a108-b3297657d742","system_id":"levelo_inurba_marseille","lat":43.29784,"lon":5.3811,"is_reserved":false,"is_disabled":true,"rental_uris":{"android":"levelo://app?vid=c95a0b40-0953-488c-a108-b3297657d742","ios":"levelo://app?vid=c95a0b40-0953-488c-a108-b3297657d742"},"vehicle_type_id":"4","last_reported":1735567694,"current_range_meters":33200,"station_id":"ce4bgip2rcd13ifvqbb0","pricing_plan_id":"cebpf4jnsgd1na2vs0mg"},{"bike_id":"80a92a9b-3285-426b-91cf-07d379966c6b","system_id":"levelo_inurba_marseille","lat":43.26691,"lon":5.38275,"is_reserved":false,"is_disabled":false,"rental_uris":{"android":"levelo://app?vid=80a92a9b-3285-426b-91cf-07d379966c6b","ios":"levelo://app?vid=80a92a9b-3285-426b-91cf-07d379966c6b"},"vehicle_type_id":"4","last_reported":1735567694,"current_range_meters":36000,"station_id":"ce4bhg92rcd13ifvqf90","pricing_plan_id":"cebpf4jnsgd1na2vs0mg"},{"bike_id":"272e4175-fcb2-4a70-ba33-28c9346e73b7","system_id":"levelo_inurba_marseille","lat":43.27909,"lon":5.39602,"is_reserved":false,"is_disabled":true,"rental_uris":{"android":"levelo://app?vid=272e4175-fcb2-4a70-ba33-28c9346e73b7","ios":"levelo://app?vid=272e4175-fcb2-4a70-ba33-28c9346e73b7"},"vehicle_type_id":"4","last_reported":1735567694,"current_range_meters":0,"station_id":"ce4bhf92rcd13ifvqf40","pricing_plan_id":"cebpf4jnsgd1na2vs0mg"},{"bike_id":"7fe6e02c-a028-4b5e-9375-4c772c306e62","system_id":"levelo_inurba_marseille","lat":43.30608,"lon":5.37242,"is_reserved":false,"is_disabled":false,"rental_uris":{"android":"levelo://app?vid=7fe6e02c-a028-4b5e-9375-4c772c306e62","ios":"levelo://app?vid=7fe6e02c-a028-4b5e-9375-4c772c306e62"},"vehicle_type_id":"4","last_reported":1735567694,"current_range_meters":32400,"station_id":"ce4bgqh2rcd13ifvqc4g","pricing_plan_id":"cebpf4jnsgd1na2vs0mg"},{"bike_id":"f086f494-f5fd-4a10-bc96-d0482edb5710","system_id":"levelo_inurba_marseille","lat":43.3093,"lon":5.40159,"is_reserved":false,"is_disabled":false,"rental_uris":{"android":"levelo://app?vid=f086f494-f5fd-4a10-bc96-d0482edb5710","ios":"levelo://app?vid=f086f494-f5fd-4a10-bc96-d0482edb5710"},"vehicle_type_id":"4","last_reported":1735567694,"current_range_meters":28400,"station_id":"ce4bgvp2rcd13ifvqct0","pricing_plan_id":"cebpf4jnsgd1na2vs0mg"},{"bike_id":"5c0b7a7b-f04a-447c-9212-a6781000158b","system_id":"levelo_inurba_marseille","lat":43.27979,"lon":5.38746,"is_reserved":false,"is_disabled":false,"rental_uris":{"android":"levelo://app?vid=5c0b7a7b-f04a-447c-9212-a6781000158b","ios":"levelo://app?vid=5c0b7a7b-f04a-447c-9212-a6781000158b"},"vehicle_type_id":"4","last_reported":1735567694,"current_range_meters":22400,"station_id":"ce4bhg12rcd13ifvqf80","pricing_plan_id":"cebpf4jnsgd1na2vs0mg"},{"bike_id":"e70ce8bb-674e-436b-ab6d-79ca756c291a","system_id":"levelo_inurba_marseille","lat":43.25728,"lon":5.41112,"is_reserved":false,"is_disabled":false,"rental_uris":{"android":"levelo://app?vid=e70ce8bb-674e-436b-ab6d-79ca756c291a","ios":"levelo://app?vid=e70ce8bb-674e-436b-ab6d-79ca756c291a"},"vehicle_type_id":"4","last_reported":1735567694,"current_range_meters":27200,"station_id":"ce4bhkp2rcd13ifvqgd0","pricing_plan_id":"cebpf4jnsgd1na2vs0mg"},{"bike_id":"a1088787-f6cd-447d-b004-3e4d7d9490d9","system_id":"levelo_inurba_marseille","lat":43.359317,"lon":5.347281,"is_reserved":false,"is_disabled":false,"rental_uris":{"android":"levelo://app?vid=a1088787-f6cd-447d-b004-3e4d7d9490d9","ios":"levelo://app?vid=a1088787-f6cd-447d-b004-3e4d7d9490d9"},"vehicle_type_id":"4","last_reported":1735567694,"current_range_meters":4800,"station_id":"ce4bhph2rcd13ifvqhdg","pricing_plan_id":"cebpf4jnsgd1na2vs0mg"},{"bike_id":"baa83f51-8f0b-4c7c-a94b-7b75db52cd7e","system_id":"levelo_inurba_marseille","lat":43.29009,"lon":5.37554,"is_reserved":false,"is_disabled":false,"rental_uris":{"android":"levelo://app?vid=baa83f51-8f0b-4c7c-a94b-7b75db52cd7e","ios":"levelo://app?vid=baa83f51-8f0b-4c7c-a94b-7b75db52cd7e"},"vehicle_type_id":"4","last_reported":1735567694,"current_range_meters":29600,"station_id":"ce4bh692rcd13ifvqe90","pricing_plan_id":"cebpf4jnsgd1na2vs0mg"},{"bike_id":"35142cb1-da84-4465-a902-1b70f5829b31","system_id":"levelo_inurba_marseille","lat":43.25736,"lon":5.41102,"is_reserved":false,"is_disabled":false,"rental_uris":{"android":"levelo://app?vid=35142cb1-da84-4465-a902-1b70f5829b31","ios":"levelo://app?vid=35142cb1-da84-4465-a902-1b70f5829b31"},"vehicle_type_id":"4","last_reported":1735567694,"current_range_meters":35600,"station_id":"ce4bhkp2rcd13ifvqgd0","pricing_plan_id":"cebpf4jnsgd1na2vs0mg"},{"bike_id":"0997d834-2404-4253-93ea-581b65ac86ce","system_id":"levelo_inurba_marseille","lat":43.23155,"lon":5.43714,"is_reserved":false,"is_disabled":false,"rental_uris":{"android":"levelo://app?vid=0997d834-2404-4253-93ea-581b65ac86ce","ios":"levelo://app?vid=0997d834-2404-4253-93ea-581b65ac86ce"},"vehicle_type_id":"4","last_reported":1735567694,"current_range_meters":7200,"station_id":"ce4bhmp2rcd13ifvqgog","pricing_plan_id":"cebpf4jnsgd1na2vs0mg"},{"bike_id":"f5997a88-606e-48c9-933e-041b10894cea","system_id":"levelo_inurba_marseille","lat":43.27067,"lon":5.4228,"is_reserved":false,"is_disabled":false,"rental_uris":{"android":"levelo://app?vid=f5997a88-606e-48c9-933e-041b10894cea","ios":"levelo://app?vid=f5997a88-606e-48c9-933e-041b10894cea"},"vehicle_type_id":"4","last_reported":1735567694,"current_range_meters":28800,"station_id":"ce4bhk92rcd13ifvqgb0","pricing_plan_id":"cebpf4jnsgd1na2vs0mg"},{"bike_id":"fc0b3bf8-65df-44b7-8333-cabe97ef9a6c","system_id":"levelo_inurba_marseille","lat":43.25716,"lon":5.41116,"is_reserved":false,"is_disabled":false,"rental_uris":{"android":"levelo://app?vid=fc0b3bf8-65df-44b7-8333-cabe97ef9a6c","ios":"levelo://app?vid=fc0b3bf8-65df-44b7-8333-cabe97ef9a6c"},"vehicle_type_id":"4","last_reported":1735567694,"current_range_meters":38800,"station_id":"ce4bhkp2rcd13ifvqgd0","pricing_plan_id":"cebpf4jnsgd1na2vs0mg"},{"bike_id":"b38eadd0-3599-4a64-b483-8eb96b611967","system_id":"levelo_inurba_marseille","lat":43.28033,"lon":5.36948,"is_reserved":false,"is_disabled":false,"rental_uris":{"android":"levelo://app?vid=b38eadd0-3599-4a64-b483-8eb96b611967","ios":"levelo://app?vid=b38eadd0-3599-4a64-b483-8eb96b611967"},"vehicle_type_id":"4","last_reported":1735567694,"current_range_meters":28800,"station_id":"ce4bha12rcd13ifvqef0","pricing_plan_id":"cebpf4jnsgd1na2vs0mg"},{"bike_id":"ef3ee808-0d32-4318-a10b-a0093755c44b","system_id":"levelo_inurba_marseille","lat":43.24173,"lon":5.39742,"is_reserved":false,"is_disabled":false,"rental_uris":{"android":"levelo://app?vid=ef3ee808-0d32-4318-a10b-a0093755c44b","ios":"levelo://app?vid=ef3ee808-0d32-4318-a10b-a0093755c44b"},"vehicle_type_id":"4","last_reported":1735567694,"current_range_meters":25200,"station_id":"ce4bhn12rcd13ifvqgpg","pricing_plan_id":"cebpf4jnsgd1na2vs0mg"},{"bike_id":"79a9cc94-882c-4645-897a-abb5a5249316","system_id":"levelo_inurba_marseille","lat":43.337444,"lon":5.374475,"is_reserved":false,"is_disabled":false,"rental_uris":{"android":"levelo://app?vid=79a9cc94-882c-4645-897a-abb5a5249316","ios":"levelo://app?vid=79a9cc94-882c-4645-897a-abb5a5249316"},"vehicle_type_id":"4","last_reported":1735567694,"current_range_meters":35600,"station_id":"","pricing_plan_id":"cebpf4jnsgd1na2vs0mg"},{"bike_id":"2a9d7a3d-ed04-4099-8d1e-1a84e81c9b52","system_id":"levelo_inurba_marseille","lat":43.24388,"lon":5.37061,"is_reserved":false,"is_disabled":false,"rental_uris":{"android":"levelo://app?vid=2a9d7a3d-ed04-4099-8d1e-1a84e81c9b52","ios":"levelo://app?vid=2a9d7a3d-ed04-4099-8d1e-1a84e81c9b52"},"vehicle_type_id":"4","last_reported":1735567694,"current_range_meters":38400,"station_id":"ce4bhhh2rcd13ifvqfk0","pricing_plan_id":"cebpf4jnsgd1na2vs0mg"},{"bike_id":"261ac97a-609d-40ca-886d-01705c712fe3","system_id":"levelo_inurba_marseille","lat":43.28474,"lon":5.38556,"is_reserved":false,"is_disabled":false,"rental_uris":{"android":"levelo://app?vid=261ac97a-609d-40ca-886d-01705c712fe3","ios":"levelo://app?vid=261ac97a-609d-40ca-886d-01705c712fe3"},"vehicle_type_id":"4","last_reported":1735567694,"current_range_meters":38000,"station_id":"ce4bh8p2rcd13ifvqeb0","pricing_plan_id":"cebpf4jnsgd1na2vs0mg"},{"bike_id":"0c85ca13-031c-4199-ad79-f9b475e982aa","system_id":"levelo_inurba_marseille","lat":43.28033,"lon":5.36949,"is_reserved":false,"is_disabled":false,"rental_uris":{"android":"levelo://app?vid=0c85ca13-031c-4199-ad79-f9b475e982aa","ios":"levelo://app?vid=0c85ca13-031c-4199-ad79-f9b475e982aa"},"vehicle_type_id":"4","last_reported":1735567694,"current_range_meters":38400,"station_id":"ce4bha12rcd13ifvqef0","pricing_plan_id":"cebpf4jnsgd1na2vs0mg"},{"bike_id":"94c11055-c5e4-4101-936a-ff207f3fe9b3","system_id":"levelo_inurba_marseille","lat":43.29028,"lon":5.38131,"is_reserved":false,"is_disabled":false,"rental_uris":{"android":"levelo://app?vid=94c11055-c5e4-4101-936a-ff207f3fe9b3","ios":"levelo://app?vid=94c11055-c5e4-4101-936a-ff207f3fe9b3"},"vehicle_type_id":"4","last_reported":1735567694,"current_range_meters":20000,"station_id":"ce4bh4p2rcd13ifvqe1g","pricing_plan_id":"cebpf4jnsgd1na2vs0mg"},{"bike_id":"b1c0ee8d-93e8-4cc8-82d6-c539d877336e","system_id":"levelo_inurba_marseille","lat":43.24388,"lon":5.37053,"is_reserved":false,"is_disabled":false,"rental_uris":{"android":"levelo://app?vid=b1c0ee8d-93e8-4cc8-82d6-c539d877336e","ios":"levelo://app?vid=b1c0ee8d-93e8-4cc8-82d6-c539d877336e"},"vehicle_type_id":"4","last_reported":1735567694,"current_range_meters":38800,"station_id":"ce4bhhh2rcd13ifvqfk0","pricing_plan_id":"cebpf4jnsgd1na2vs0mg"},{"bike_id":"3f188f7c-a5c4-44f4-9bc3-999d2a09a56e","system_id":"levelo_inurba_marseille","lat":43.27551,"lon":5.38427,"is_reserved":false,"is_disabled":true,"rental_uris":{"android":"levelo://app?vid=3f188f7c-a5c4-44f4-9bc3-999d2a09a56e","ios":"levelo://app?vid=3f188f7c-a5c4-44f4-9bc3-999d2a09a56e"},"vehicle_type_id":"4","last_reported":1735567694,"current_range_meters":800,"station_id":"ce4bhh92rcd13ifvqfi0","pricing_plan_id":"cebpf4jnsgd1na2vs0mg"},{"bike_id":"5d2b3a9e-8410-4d12-9cfa-8971ed496122","system_id":"levelo_inurba_marseille","lat":43.29271,"lon":5.36851,"is_reserved":false,"is_disabled":false,"rental_uris":{"android":"levelo://app?vid=5d2b3a9e-8410-4d12-9cfa-8971ed496122","ios":"levelo://app?vid=5d2b3a9e-8410-4d12-9cfa-8971ed496122"},"vehicle_type_id":"4","last_reported":1735567694,"current_range_meters":9200,"station_id":"ce4bhbp2rcd13ifvqesg","pricing_plan_id":"cebpf4jnsgd1na2vs0mg"},{"bike_id":"56731e3e-7f36-4713-a4bd-24b5ee5d43d3","system_id":"levelo_inurba_marseille","lat":43.28042,"lon":5.36942,"is_reserved":false,"is_disabled":true,"rental_uris":{"android":"levelo://app?vid=56731e3e-7f36-4713-a4bd-24b5ee5d43d3","ios":"levelo://app?vid=56731e3e-7f36-4713-a4bd-24b5ee5d43d3"},"vehicle_type_id":"4","last_reported":1735567694,"current_range_meters":0,"station_id":"ce4bha12rcd13ifvqef0","pricing_plan_id":"cebpf4jnsgd1na2vs0mg"},{"bike_id":"5737f50c-7647-4928-8c04-d75aea34bf76","system_id":"levelo_inurba_marseille","lat":43.29185,"lon":5.35808,"is_reserved":false,"is_disabled":false,"rental_uris":{"android":"levelo://app?vid=5737f50c-7647-4928-8c04-d75aea34bf76","ios":"levelo://app?vid=5737f50c-7647-4928-8c04-d75aea34bf76"},"vehicle_type_id":"4","last_reported":1735567694,"current_range_meters":34800,"station_id":"ce4bhb12rcd13ifvqel0","pricing_plan_id":"cebpf4jnsgd1na2vs0mg"},{"bike_id":"dd708212-6c95-4591-b555-43b33b8da7f5","system_id":"levelo_inurba_marseille","lat":43.25734,"lon":5.41106,"is_reserved":false,"is_disabled":false,"rental_uris":{"android":"levelo://app?vid=dd708212-6c95-4591-b555-43b33b8da7f5","ios":"levelo://app?vid=dd708212-6c95-4591-b555-43b33b8da7f5"},"vehicle_type_id":"4","last_reported":1735567694,"current_range_meters":34000,"station_id":"ce4bhkp2rcd13ifvqgd0","pricing_plan_id":"cebpf4jnsgd1na2vs0mg"},{"bike_id":"ce870000-0b9d-4b44-bb6a-0c0895f51458","system_id":"levelo_inurba_marseille","lat":43.29918,"lon":5.37473,"is_reserved":false,"is_disabled":false,"rental_uris":{"android":"levelo://app?vid=ce870000-0b9d-4b44-bb6a-0c0895f51458","ios":"levelo://app?vid=ce870000-0b9d-4b44-bb6a-0c0895f51458"},"vehicle_type_id":"4","last_reported":1735567694,"current_range_meters":38800,"station_id":"ce4bgjh2rcd13ifvqbg0","pricing_plan_id":"cebpf4jnsgd1na2vs0mg"},{"bike_id":"299d264c-fd0b-4c1d-83d6-4d6e8aa30546","system_id":"levelo_inurba_marseille","lat":43.29546,"lon":5.42284,"is_reserved":false,"is_disabled":false,"rental_uris":{"android":"levelo://app?vid=299d264c-fd0b-4c1d-83d6-4d6e8aa30546","ios":"levelo://app?vid=299d264c-fd0b-4c1d-83d6-4d6e8aa30546"},"vehicle_type_id":"4","last_reported":1735567694,"current_range_meters":13600,"station_id":"ce4bhph2rcd13ifvqhdg","pricing_plan_id":"cebpf4jnsgd1na2vs0mg"},{"bike_id":"cd68a672-533e-4c5e-8b9d-ac8f24d8a645","system_id":"levelo_inurba_marseille","lat":43.31741,"lon":5.39021,"is_reserved":false,"is_disabled":false,"rental_uris":{"android":"levelo://app?vid=cd68a672-533e-4c5e-8b9d-ac8f24d8a645","ios":"levelo://app?vid=cd68a672-533e-4c5e-8b9d-ac8f24d8a645"},"vehicle_type_id":"4","last_reported":1735567694,"current_range_meters":38800,"station_id":"ce4bhqp2rcd13ifvqhng","pricing_plan_id":"cebpf4jnsgd1na2vs0mg"},{"bike_id":"e555ad93-cd95-4da1-802c-025329f1e590","system_id":"levelo_inurba_marseille","lat":43.23052,"lon":5.35489,"is_reserved":false,"is_disabled":false,"rental_uris":{"android":"levelo://app?vid=e555ad93-cd95-4da1-802c-025329f1e590","ios":"levelo://app?vid=e555ad93-cd95-4da1-802c-025329f1e590"},"vehicle_type_id":"4","last_reported":1735567694,"current_range_meters":25600,"station_id":"cpo3342slgdg3j2ifvpg","pricing_plan_id":"cebpf4jnsgd1na2vs0mg"},{"bike_id":"6babd99e-1202-47be-9117-89d2e58f7d9a","system_id":"levelo_inurba_marseille","lat":43.31368,"lon":5.38498,"is_reserved":false,"is_disabled":false,"rental_uris":{"android":"levelo://app?vid=6babd99e-1202-47be-9117-89d2e58f7d9a","ios":"levelo://app?vid=6babd99e-1202-47be-9117-89d2e58f7d9a"},"vehicle_type_id":"4","last_reported":1735567694,"current_range_meters":7200,"station_id":"ce4bgt92rcd13ifvqcf0","pricing_plan_id":"cebpf4jnsgd1na2vs0mg"},{"bike_id":"3a624cf6-1e7d-4731-8278-e821209a8530","system_id":"levelo_inurba_marseille","lat":43.2417,"lon":5.3972,"is_reserved":false,"is_disabled":false,"rental_uris":{"android":"levelo://app?vid=3a624cf6-1e7d-4731-8278-e821209a8530","ios":"levelo://app?vid=3a624cf6-1e7d-4731-8278-e821209a8530"},"vehicle_type_id":"4","last_reported":1735567694,"current_range_meters":38800,"station_id":"ce4bhn12rcd13ifvqgpg","pricing_plan_id":"cebpf4jnsgd1na2vs0mg"},{"bike_id":"a2dfaa5b-c1ad-4316-ae45-cf62c09c30b3","system_id":"levelo_inurba_marseille","lat":43.32112,"lon":5.36781,"is_reserved":false,"is_disabled":false,"rental_uris":{"android":"levelo://app?vid=a2dfaa5b-c1ad-4316-ae45-cf62c09c30b3","ios":"levelo://app?vid=a2dfaa5b-c1ad-4316-ae45-cf62c09c30b3"},"vehicle_type_id":"4","last_reported":1735567694,"current_range_meters":12000,"station_id":"ce4bhrh2rcd13ifvqhug","pricing_plan_id":"cebpf4jnsgd1na2vs0mg"},{"bike_id":"5f8ee9c5-4e33-43ee-b8aa-ac908ba0aac5","system_id":"levelo_inurba_marseille","lat":43.27499,"lon":5.42456,"is_reserved":false,"is_disabled":false,"rental_uris":{"android":"levelo://app?vid=5f8ee9c5-4e33-43ee-b8aa-ac908ba0aac5","ios":"levelo://app?vid=5f8ee9c5-4e33-43ee-b8aa-ac908ba0aac5"},"vehicle_type_id":"4","last_reported":1735567694,"current_range_meters":19600,"station_id":"ce4bhn92rcd13ifvqgrg","pricing_plan_id":"cebpf4jnsgd1na2vs0mg"},{"bike_id":"2e06f365-55c6-4526-ae5c-8420539b1207","system_id":"levelo_inurba_marseille","lat":43.28355,"lon":5.381028,"is_reserved":false,"is_disabled":false,"rental_uris":{"android":"levelo://app?vid=2e06f365-55c6-4526-ae5c-8420539b1207","ios":"levelo://app?vid=2e06f365-55c6-4526-ae5c-8420539b1207"},"vehicle_type_id":"4","last_reported":1735567694,"current_range_meters":38800,"station_id":"ce4bh412rcd13ifvqdr0","pricing_plan_id":"cebpf4jnsgd1na2vs0mg"},{"bike_id":"e77e8f08-1231-450d-95ed-34f32d3a513b","system_id":"levelo_inurba_marseille","lat":43.23373,"lon":5.37366,"is_reserved":false,"is_disabled":false,"rental_uris":{"android":"levelo://app?vid=e77e8f08-1231-450d-95ed-34f32d3a513b","ios":"levelo://app?vid=e77e8f08-1231-450d-95ed-34f32d3a513b"},"vehicle_type_id":"4","last_reported":1735567694,"current_range_meters":19200,"station_id":"","pricing_plan_id":"cebpf4jnsgd1na2vs0mg"},{"bike_id":"f84e0a68-bf0a-4ee5-b7ea-154330e0c995","system_id":"levelo_inurba_marseille","lat":43.28605,"lon":5.3705,"is_reserved":false,"is_disabled":false,"rental_uris":{"android":"levelo://app?vid=f84e0a68-bf0a-4ee5-b7ea-154330e0c995","ios":"levelo://app?vid=f84e0a68-bf0a-4ee5-b7ea-154330e0c995"},"vehicle_type_id":"4","last_reported":1735567694,"current_range_meters":16800,"station_id":"ce4bht12rcd13ifvqi60","pricing_plan_id":"cebpf4jnsgd1na2vs0mg"},{"bike_id":"db32cf0d-643f-4166-93d9-c2dd42363683","system_id":"levelo_inurba_marseille","lat":43.30312,"lon":5.36907,"is_reserved":false,"is_disabled":false,"rental_uris":{"android":"levelo://app?vid=db32cf0d-643f-4166-93d9-c2dd42363683","ios":"levelo://app?vid=db32cf0d-643f-4166-93d9-c2dd42363683"},"vehicle_type_id":"4","last_reported":1735567694,"current_range_meters":31200,"station_id":"ce4bgqh2rcd13ifvqc5g","pricing_plan_id":"cebpf4jnsgd1na2vs0mg"},{"bike_id":"70efe251-eb1d-4a5d-8b0e-97b8e945752f","system_id":"levelo_inurba_marseille","lat":43.28159,"lon":5.42639,"is_reserved":false,"is_disabled":false,"rental_uris":{"android":"levelo://app?vid=70efe251-eb1d-4a5d-8b0e-97b8e945752f","ios":"levelo://app?vid=70efe251-eb1d-4a5d-8b0e-97b8e945752f"},"vehicle_type_id":"4","last_reported":1735567694,"current_range_meters":32400,"station_id":"ce4bhnh2rcd13ifvqgug","pricing_plan_id":"cebpf4jnsgd1na2vs0mg"},{"bike_id":"5d22d4f6-c5a9-4ef2-8663-0ea09a357db3","system_id":"levelo_inurba_marseille","lat":43.27208,"lon":5.39184,"is_reserved":false,"is_disabled":false,"rental_uris":{"android":"levelo://app?vid=5d22d4f6-c5a9-4ef2-8663-0ea09a357db3","ios":"levelo://app?vid=5d22d4f6-c5a9-4ef2-8663-0ea09a357db3"},"vehicle_type_id":"4","last_reported":1735567694,"current_range_meters":39200,"station_id":"ce4bhhp2rcd13ifvqfm0","pricing_plan_id":"cebpf4jnsgd1na2vs0mg"},{"bike_id":"1d3ff329-f840-4a21-beb9-bdffc8997bf2","system_id":"levelo_inurba_marseille","lat":43.2971,"lon":5.37702,"is_reserved":false,"is_disabled":false,"rental_uris":{"android":"levelo://app?vid=1d3ff329-f840-4a21-beb9-bdffc8997bf2","ios":"levelo://app?vid=1d3ff329-f840-4a21-beb9-bdffc8997bf2"},"vehicle_type_id":"4","last_reported":1735567694,"current_range_meters":39200,"station_id":"ce4bgkh2rcd13ifvqbl0","pricing_plan_id":"cebpf4jnsgd1na2vs0mg"},{"bike_id":"5367a292-5564-4681-91cd-97babb89fc00","system_id":"levelo_inurba_marseille","lat":43.229183,"lon":5.353891,"is_reserved":false,"is_disabled":false,"rental_uris":{"android":"levelo://app?vid=5367a292-5564-4681-91cd-97babb89fc00","ios":"levelo://app?vid=5367a292-5564-4681-91cd-97babb89fc00"},"vehicle_type_id":"4","last_reported":1735567694,"current_range_meters":32400,"station_id":"cpo3532slgdg3j2ikp40","pricing_plan_id":"cebpf4jnsgd1na2vs0mg"},{"bike_id":"07e0d40e-75ff-42f1-a3ab-cde599342e31","system_id":"levelo_inurba_marseille","lat":43.284743,"lon":5.384178,"is_reserved":false,"is_disabled":false,"rental_uris":{"android":"levelo://app?vid=07e0d40e-75ff-42f1-a3ab-cde599342e31","ios":"levelo://app?vid=07e0d40e-75ff-42f1-a3ab-cde599342e31"},"vehicle_type_id":"4","last_reported":1735567694,"current_range_meters":30400,"station_id":"ce4bhc92rcd13ifvqetg","pricing_plan_id":"cebpf4jnsgd1na2vs0mg"},{"bike_id":"0483d5a5-12c2-4b90-8e6c-47d6d5a4b82c","system_id":"levelo_inurba_marseille","lat":43.25823,"lon":5.3943,"is_reserved":false,"is_disabled":false,"rental_uris":{"android":"levelo://app?vid=0483d5a5-12c2-4b90-8e6c-47d6d5a4b82c","ios":"levelo://app?vid=0483d5a5-12c2-4b90-8e6c-47d6d5a4b82c"},"vehicle_type_id":"4","last_reported":1735567694,"current_range_meters":11200,"station_id":"ce4bhip2rcd13ifvqft0","pricing_plan_id":"cebpf4jnsgd1na2vs0mg"},{"bike_id":"1541baea-e8e6-4e14-ba62-4f643b020a4b","system_id":"levelo_inurba_marseille","lat":43.28272,"lon":5.35065,"is_reserved":false,"is_disabled":false,"rental_uris":{"android":"levelo://app?vid=1541baea-e8e6-4e14-ba62-4f643b020a4b","ios":"levelo://app?vid=1541baea-e8e6-4e14-ba62-4f643b020a4b"},"vehicle_type_id":"4","last_reported":1735567694,"current_range_meters":35600,"station_id":"ce4bhbp2rcd13ifvqerg","pricing_plan_id":"cebpf4jnsgd1na2vs0mg"},{"bike_id":"a9071ff0-a0cd-4d62-8959-8dfc643c257e","system_id":"levelo_inurba_marseille","lat":43.30142,"lon":5.39883,"is_reserved":false,"is_disabled":false,"rental_uris":{"android":"levelo://app?vid=a9071ff0-a0cd-4d62-8959-8dfc643c257e","ios":"levelo://app?vid=a9071ff0-a0cd-4d62-8959-8dfc643c257e"},"vehicle_type_id":"4","last_reported":1735567694,"current_range_meters":39200,"station_id":"ce4bh0h2rcd13ifvqd40","pricing_plan_id":"cebpf4jnsgd1na2vs0mg"},{"bike_id":"7c0ace64-49ff-46c5-99ef-7fa4db85a49e","system_id":"levelo_inurba_marseille","lat":43.32365,"lon":5.36763,"is_reserved":false,"is_disabled":false,"rental_uris":{"android":"levelo://app?vid=7c0ace64-49ff-46c5-99ef-7fa4db85a49e","ios":"levelo://app?vid=7c0ace64-49ff-46c5-99ef-7fa4db85a49e"},"vehicle_type_id":"4","last_reported":1735567694,"current_range_meters":14000,"station_id":"ce4bhsh2rcd13ifvqi2g","pricing_plan_id":"cebpf4jnsgd1na2vs0mg"},{"bike_id":"41c5531c-7353-4548-b4ca-1200a29e6889","system_id":"levelo_inurba_marseille","lat":43.26215,"lon":5.37443,"is_reserved":false,"is_disabled":false,"rental_uris":{"android":"levelo://app?vid=41c5531c-7353-4548-b4ca-1200a29e6889","ios":"levelo://app?vid=41c5531c-7353-4548-b4ca-1200a29e6889"},"vehicle_type_id":"4","last_reported":1735567694,"current_range_meters":14800,"station_id":"ce4bhgp2rcd13ifvqfc0","pricing_plan_id":"cebpf4jnsgd1na2vs0mg"},{"bike_id":"94d38955-21a2-4852-a963-0a3cc1374e49","system_id":"levelo_inurba_marseille","lat":43.23192,"lon":5.35546,"is_reserved":false,"is_disabled":false,"rental_uris":{"android":"levelo://app?vid=94d38955-21a2-4852-a963-0a3cc1374e49","ios":"levelo://app?vid=94d38955-21a2-4852-a963-0a3cc1374e49"},"vehicle_type_id":"4","last_reported":1735567694,"current_range_meters":21600,"station_id":"ce4bhu92rcd13ifvqi70","pricing_plan_id":"cebpf4jnsgd1na2vs0mg"},{"bike_id":"762eee89-44e2-4cdd-9e32-2717ce3a4d97","system_id":"levelo_inurba_marseille","lat":43.30793,"lon":5.38157,"is_reserved":false,"is_disabled":false,"rental_uris":{"android":"levelo://app?vid=762eee89-44e2-4cdd-9e32-2717ce3a4d97","ios":"levelo://app?vid=762eee89-44e2-4cdd-9e32-2717ce3a4d97"},"vehicle_type_id":"4","last_reported":1735567694,"current_range_meters":35200,"station_id":"ce4bgt12rcd13ifvqce0","pricing_plan_id":"cebpf4jnsgd1na2vs0mg"},{"bike_id":"450de7c6-68ca-4a47-8685-03d1b8b10383","system_id":"levelo_inurba_marseille","lat":43.29992,"lon":5.37201,"is_reserved":false,"is_disabled":false,"rental_uris":{"android":"levelo://app?vid=450de7c6-68ca-4a47-8685-03d1b8b10383","ios":"levelo://app?vid=450de7c6-68ca-4a47-8685-03d1b8b10383"},"vehicle_type_id":"4","last_reported":1735567694,"current_range_meters":39200,"station_id":"ce4bgr92rcd13ifvqc7g","pricing_plan_id":"cebpf4jnsgd1na2vs0mg"},{"bike_id":"647d23b8-4e7c-4423-a02a-d60eef618897","system_id":"levelo_inurba_marseille","lat":43.27824,"lon":5.40693,"is_reserved":false,"is_disabled":false,"rental_uris":{"android":"levelo://app?vid=647d23b8-4e7c-4423-a02a-d60eef618897","ios":"levelo://app?vid=647d23b8-4e7c-4423-a02a-d60eef618897"},"vehicle_type_id":"4","last_reported":1735567694,"current_range_meters":26800,"station_id":"ce4bhnh2rcd13ifvqgtg","pricing_plan_id":"cebpf4jnsgd1na2vs0mg"},{"bike_id":"aa69bead-b8b5-4dba-80df-f49b114faf07","system_id":"levelo_inurba_marseille","lat":43.305361,"lon":5.384265,"is_reserved":false,"is_disabled":false,"rental_uris":{"android":"levelo://app?vid=aa69bead-b8b5-4dba-80df-f49b114faf07","ios":"levelo://app?vid=aa69bead-b8b5-4dba-80df-f49b114faf07"},"vehicle_type_id":"4","last_reported":1735567694,"current_range_meters":38000,"station_id":"ce4bgg92rcd13ifvqb30","pricing_plan_id":"cebpf4jnsgd1na2vs0mg"},{"bike_id":"179f7c7e-cf60-4979-b064-1b4336e1db8c","system_id":"levelo_inurba_marseille","lat":43.27811,"lon":5.39213,"is_reserved":false,"is_disabled":false,"rental_uris":{"android":"levelo://app?vid=179f7c7e-cf60-4979-b064-1b4336e1db8c","ios":"levelo://app?vid=179f7c7e-cf60-4979-b064-1b4336e1db8c"},"vehicle_type_id":"4","last_reported":1735567694,"current_range_meters":5600,"station_id":"ce4bhjp2rcd13ifvqga0","pricing_plan_id":"cebpf4jnsgd1na2vs0mg"},{"bike_id":"2e19126c-44cf-40bf-a549-dc01e1a05272","system_id":"levelo_inurba_marseille","lat":43.28427,"lon":5.37524,"is_reserved":false,"is_disabled":false,"rental_uris":{"android":"levelo://app?vid=2e19126c-44cf-40bf-a549-dc01e1a05272","ios":"levelo://app?vid=2e19126c-44cf-40bf-a549-dc01e1a05272"},"vehicle_type_id":"4","last_reported":1735567694,"current_range_meters":10800,"station_id":"ce4bh412rcd13ifvqds0","pricing_plan_id":"cebpf4jnsgd1na2vs0mg"},{"bike_id":"caa372f6-57cd-46be-b1b6-e4b6f7913495","system_id":"levelo_inurba_marseille","lat":43.31187,"lon":5.36845,"is_reserved":false,"is_disabled":false,"rental_uris":{"android":"levelo://app?vid=caa372f6-57cd-46be-b1b6-e4b6f7913495","ios":"levelo://app?vid=caa372f6-57cd-46be-b1b6-e4b6f7913495"},"vehicle_type_id":"4","last_reported":1735567694,"current_range_meters":23200,"station_id":"ce4bgl92rcd13ifvqbq0","pricing_plan_id":"cebpf4jnsgd1na2vs0mg"},{"bike_id":"8d197623-433a-4c9c-a656-63e56f209eb2","system_id":"levelo_inurba_marseille","lat":43.26202,"lon":5.37466,"is_reserved":false,"is_disabled":false,"rental_uris":{"android":"levelo://app?vid=8d197623-433a-4c9c-a656-63e56f209eb2","ios":"levelo://app?vid=8d197623-433a-4c9c-a656-63e56f209eb2"},"vehicle_type_id":"4","last_reported":1735567694,"current_range_meters":37600,"station_id":"ce4bhgp2rcd13ifvqfc0","pricing_plan_id":"cebpf4jnsgd1na2vs0mg"},{"bike_id":"6738fea7-4d7f-4847-a917-9282dbf6500c","system_id":"levelo_inurba_marseille","lat":43.29603,"lon":5.37734,"is_reserved":false,"is_disabled":false,"rental_uris":{"android":"levelo://app?vid=6738fea7-4d7f-4847-a917-9282dbf6500c","ios":"levelo://app?vid=6738fea7-4d7f-4847-a917-9282dbf6500c"},"vehicle_type_id":"4","last_reported":1735567694,"current_range_meters":12800,"station_id":"ce4bgi92rcd13ifvqb90","pricing_plan_id":"cebpf4jnsgd1na2vs0mg"},{"bike_id":"27bfa55e-0951-4587-9bd9-ec22efcce4a4","system_id":"levelo_inurba_marseille","lat":43.29164,"lon":5.3716,"is_reserved":false,"is_disabled":false,"rental_uris":{"android":"levelo://app?vid=27bfa55e-0951-4587-9bd9-ec22efcce4a4","ios":"levelo://app?vid=27bfa55e-0951-4587-9bd9-ec22efcce4a4"},"vehicle_type_id":"4","last_reported":1735567694,"current_range_meters":39200,"station_id":"ce4bha92rcd13ifvqeh0","pricing_plan_id":"cebpf4jnsgd1na2vs0mg"},{"bike_id":"dac94ecf-3203-4c89-acc0-21c14e979588","system_id":"levelo_inurba_marseille","lat":43.26685,"lon":5.38278,"is_reserved":false,"is_disabled":false,"rental_uris":{"android":"levelo://app?vid=dac94ecf-3203-4c89-acc0-21c14e979588","ios":"levelo://app?vid=dac94ecf-3203-4c89-acc0-21c14e979588"},"vehicle_type_id":"4","last_reported":1735567694,"current_range_meters":22000,"station_id":"ce4bhg92rcd13ifvqf90","pricing_plan_id":"cebpf4jnsgd1na2vs0mg"},{"bike_id":"91bb292a-df5c-4dce-bd7e-6647a12df4cd","system_id":"levelo_inurba_marseille","lat":43.26946,"lon":5.38678,"is_reserved":false,"is_disabled":false,"rental_uris":{"android":"levelo://app?vid=91bb292a-df5c-4dce-bd7e-6647a12df4cd","ios":"levelo://app?vid=91bb292a-df5c-4dce-bd7e-6647a12df4cd"},"vehicle_type_id":"4","last_reported":1735567694,"current_range_meters":38800,"station_id":"ce4bhh92rcd13ifvqfh0","pricing_plan_id":"cebpf4jnsgd1na2vs0mg"},{"bike_id":"dae442df-0334-4a2a-8901-28b38cfe10c7","system_id":"levelo_inurba_marseille","lat":43.23162,"lon":5.4371,"is_reserved":false,"is_disabled":false,"rental_uris":{"android":"levelo://app?vid=dae442df-0334-4a2a-8901-28b38cfe10c7","ios":"levelo://app?vid=dae442df-0334-4a2a-8901-28b38cfe10c7"},"vehicle_type_id":"4","last_reported":1735567694,"current_range_meters":36400,"station_id":"ce4bhmp2rcd13ifvqgog","pricing_plan_id":"cebpf4jnsgd1na2vs0mg"},{"bike_id":"9c42c59a-a990-48ee-91ac-32ebebcaabf5","system_id":"levelo_inurba_marseille","lat":43.27551,"lon":5.38436,"is_reserved":false,"is_disabled":false,"rental_uris":{"android":"levelo://app?vid=9c42c59a-a990-48ee-91ac-32ebebcaabf5","ios":"levelo://app?vid=9c42c59a-a990-48ee-91ac-32ebebcaabf5"},"vehicle_type_id":"4","last_reported":1735567694,"current_range_meters":39200,"station_id":"ce4bhh92rcd13ifvqfi0","pricing_plan_id":"cebpf4jnsgd1na2vs0mg"},{"bike_id":"14348531-e2c5-4669-8e8d-22780e655465","system_id":"levelo_inurba_marseille","lat":43.25817,"lon":5.39414,"is_reserved":false,"is_disabled":false,"rental_uris":{"android":"levelo://app?vid=14348531-e2c5-4669-8e8d-22780e655465","ios":"levelo://app?vid=14348531-e2c5-4669-8e8d-22780e655465"},"vehicle_type_id":"4","last_reported":1735567694,"current_range_meters":25600,"station_id":"ce4bhip2rcd13ifvqft0","pricing_plan_id":"cebpf4jnsgd1na2vs0mg"},{"bike_id":"d03c46bd-d8c1-4904-b26d-3530eab9a1ec","system_id":"levelo_inurba_marseille","lat":43.26065,"lon":5.39398,"is_reserved":false,"is_disabled":false,"rental_uris":{"android":"levelo://app?vid=d03c46bd-d8c1-4904-b26d-3530eab9a1ec","ios":"levelo://app?vid=d03c46bd-d8c1-4904-b26d-3530eab9a1ec"},"vehicle_type_id":"4","last_reported":1735567694,"current_range_meters":23200,"station_id":"ce4bhh92rcd13ifvqfj0","pricing_plan_id":"cebpf4jnsgd1na2vs0mg"},{"bike_id":"b7fd34d2-a34c-4dfc-87aa-9a94f35fd521","system_id":"levelo_inurba_marseille","lat":43.28459,"lon":5.35882,"is_reserved":false,"is_disabled":false,"rental_uris":{"android":"levelo://app?vid=b7fd34d2-a34c-4dfc-87aa-9a94f35fd521","ios":"levelo://app?vid=b7fd34d2-a34c-4dfc-87aa-9a94f35fd521"},"vehicle_type_id":"4","last_reported":1735567694,"current_range_meters":28400,"station_id":"ce4bhah2rcd13ifvqei0","pricing_plan_id":"cebpf4jnsgd1na2vs0mg"},{"bike_id":"75dc5286-2b42-480c-a2e5-7d3284d2674e","system_id":"levelo_inurba_marseille","lat":43.28417,"lon":5.34989,"is_reserved":false,"is_disabled":false,"rental_uris":{"android":"levelo://app?vid=75dc5286-2b42-480c-a2e5-7d3284d2674e","ios":"levelo://app?vid=75dc5286-2b42-480c-a2e5-7d3284d2674e"},"vehicle_type_id":"4","last_reported":1735567694,"current_range_meters":38400,"station_id":"ce4bhbh2rcd13ifvqepg","pricing_plan_id":"cebpf4jnsgd1na2vs0mg"},{"bike_id":"b8e2e3d4-597b-4721-a36a-769f7d940844","system_id":"levelo_inurba_marseille","lat":43.26551,"lon":5.42091,"is_reserved":false,"is_disabled":false,"rental_uris":{"android":"levelo://app?vid=b8e2e3d4-597b-4721-a36a-769f7d940844","ios":"levelo://app?vid=b8e2e3d4-597b-4721-a36a-769f7d940844"},"vehicle_type_id":"4","last_reported":1735567694,"current_range_meters":24400,"station_id":"","pricing_plan_id":"cebpf4jnsgd1na2vs0mg"},{"bike_id":"ddaa2fb9-dbb8-4086-8c94-de0ff251173c","system_id":"levelo_inurba_marseille","lat":43.27829,"lon":5.39215,"is_reserved":false,"is_disabled":false,"rental_uris":{"android":"levelo://app?vid=ddaa2fb9-dbb8-4086-8c94-de0ff251173c","ios":"levelo://app?vid=ddaa2fb9-dbb8-4086-8c94-de0ff251173c"},"vehicle_type_id":"4","last_reported":1735567694,"current_range_meters":38800,"station_id":"ce4bhjp2rcd13ifvqga0","pricing_plan_id":"cebpf4jnsgd1na2vs0mg"},{"bike_id":"5e57eef6-8100-463f-8b9f-a736bec4d03f","system_id":"levelo_inurba_marseille","lat":43.26946,"lon":5.38642,"is_reserved":false,"is_disabled":false,"rental_uris":{"android":"levelo://app?vid=5e57eef6-8100-463f-8b9f-a736bec4d03f","ios":"levelo://app?vid=5e57eef6-8100-463f-8b9f-a736bec4d03f"},"vehicle_type_id":"4","last_reported":1735567694,"current_range_meters":39200,"station_id":"ce4bhh92rcd13ifvqfh0","pricing_plan_id":"cebpf4jnsgd1na2vs0mg"},{"bike_id":"8dd810d9-8260-427e-bb70-1ec78807c5f8","system_id":"levelo_inurba_marseille","lat":43.28358,"lon":5.38639,"is_reserved":false,"is_disabled":false,"rental_uris":{"android":"levelo://app?vid=8dd810d9-8260-427e-bb70-1ec78807c5f8","ios":"levelo://app?vid=8dd810d9-8260-427e-bb70-1ec78807c5f8"},"vehicle_type_id":"4","last_reported":1735567694,"current_range_meters":26000,"station_id":"ce4bh492rcd13ifvqdvg","pricing_plan_id":"cebpf4jnsgd1na2vs0mg"},{"bike_id":"5c2def8a-2c65-42c6-ac07-783ced93d820","system_id":"levelo_inurba_marseille","lat":43.30606,"lon":5.37214,"is_reserved":false,"is_disabled":false,"rental_uris":{"android":"levelo://app?vid=5c2def8a-2c65-42c6-ac07-783ced93d820","ios":"levelo://app?vid=5c2def8a-2c65-42c6-ac07-783ced93d820"},"vehicle_type_id":"4","last_reported":1735567694,"current_range_meters":30000,"station_id":"ce4bgqh2rcd13ifvqc4g","pricing_plan_id":"cebpf4jnsgd1na2vs0mg"},{"bike_id":"4bb75e55-263b-4f00-8036-5d9fe1a445cf","system_id":"levelo_inurba_marseille","lat":43.27067,"lon":5.40259,"is_reserved":false,"is_disabled":false,"rental_uris":{"android":"levelo://app?vid=4bb75e55-263b-4f00-8036-5d9fe1a445cf","ios":"levelo://app?vid=4bb75e55-263b-4f00-8036-5d9fe1a445cf"},"vehicle_type_id":"4","last_reported":1735567694,"current_range_meters":38400,"station_id":"ce4bhk92rcd13ifvqgc0","pricing_plan_id":"cebpf4jnsgd1na2vs0mg"},{"bike_id":"4ccf6920-84bf-476d-9251-3c32481fde35","system_id":"levelo_inurba_marseille","lat":43.26689,"lon":5.38277,"is_reserved":false,"is_disabled":false,"rental_uris":{"android":"levelo://app?vid=4ccf6920-84bf-476d-9251-3c32481fde35","ios":"levelo://app?vid=4ccf6920-84bf-476d-9251-3c32481fde35"},"vehicle_type_id":"4","last_reported":1735567694,"current_range_meters":19200,"station_id":"ce4bhg92rcd13ifvqf90","pricing_plan_id":"cebpf4jnsgd1na2vs0mg"},{"bike_id":"ad69da91-2121-4f28-803c-5623f1854bee","system_id":"levelo_inurba_marseille","lat":43.28377,"lon":5.38669,"is_reserved":false,"is_disabled":false,"rental_uris":{"android":"levelo://app?vid=ad69da91-2121-4f28-803c-5623f1854bee","ios":"levelo://app?vid=ad69da91-2121-4f28-803c-5623f1854bee"},"vehicle_type_id":"4","last_reported":1735567694,"current_range_meters":38800,"station_id":"ce4bh492rcd13ifvqdvg","pricing_plan_id":"cebpf4jnsgd1na2vs0mg"},{"bike_id":"fe17c963-ee96-4f5b-8f42-7842d71e406c","system_id":"levelo_inurba_marseille","lat":43.25736,"lon":5.41126,"is_reserved":false,"is_disabled":false,"rental_uris":{"android":"levelo://app?vid=fe17c963-ee96-4f5b-8f42-7842d71e406c","ios":"levelo://app?vid=fe17c963-ee96-4f5b-8f42-7842d71e406c"},"vehicle_type_id":"4","last_reported":1735567694,"current_range_meters":17600,"station_id":"ce4bhkp2rcd13ifvqgd0","pricing_plan_id":"cebpf4jnsgd1na2vs0mg"},{"bike_id":"836a2fdc-5c7f-4eaf-8248-358a78ee4601","system_id":"levelo_inurba_marseille","lat":43.2621,"lon":5.37462,"is_reserved":false,"is_disabled":false,"rental_uris":{"android":"levelo://app?vid=836a2fdc-5c7f-4eaf-8248-358a78ee4601","ios":"levelo://app?vid=836a2fdc-5c7f-4eaf-8248-358a78ee4601"},"vehicle_type_id":"4","last_reported":1735567694,"current_range_meters":24400,"station_id":"ce4bhgp2rcd13ifvqfc0","pricing_plan_id":"cebpf4jnsgd1na2vs0mg"},{"bike_id":"3e09f37a-c256-4c56-93f3-2d3e33869821","system_id":"levelo_inurba_marseille","lat":43.28417,"lon":5.34999,"is_reserved":false,"is_disabled":false,"rental_uris":{"android":"levelo://app?vid=3e09f37a-c256-4c56-93f3-2d3e33869821","ios":"levelo://app?vid=3e09f37a-c256-4c56-93f3-2d3e33869821"},"vehicle_type_id":"4","last_reported":1735567694,"current_range_meters":18000,"station_id":"ce4bhbh2rcd13ifvqepg","pricing_plan_id":"cebpf4jnsgd1na2vs0mg"},{"bike_id":"b8feb562-9ac0-4974-8ba7-4af547dd85da","system_id":"levelo_inurba_marseille","lat":43.26046,"lon":5.39404,"is_reserved":false,"is_disabled":false,"rental_uris":{"android":"levelo://app?vid=b8feb562-9ac0-4974-8ba7-4af547dd85da","ios":"levelo://app?vid=b8feb562-9ac0-4974-8ba7-4af547dd85da"},"vehicle_type_id":"4","last_reported":1735567694,"current_range_meters":38800,"station_id":"ce4bhh92rcd13ifvqfj0","pricing_plan_id":"cebpf4jnsgd1na2vs0mg"},{"bike_id":"46012680-f776-4d27-8d45-4bb31fb9dc2b","system_id":"levelo_inurba_marseille","lat":43.2306,"lon":5.35493,"is_reserved":false,"is_disabled":false,"rental_uris":{"android":"levelo://app?vid=46012680-f776-4d27-8d45-4bb31fb9dc2b","ios":"levelo://app?vid=46012680-f776-4d27-8d45-4bb31fb9dc2b"},"vehicle_type_id":"4","last_reported":1735567694,"current_range_meters":38800,"station_id":"cpo3342slgdg3j2ifvpg","pricing_plan_id":"cebpf4jnsgd1na2vs0mg"},{"bike_id":"5e4ee43e-d1df-498a-adb1-9acc3504492d","system_id":"levelo_inurba_marseille","lat":43.30913,"lon":5.36841,"is_reserved":false,"is_disabled":false,"rental_uris":{"android":"levelo://app?vid=5e4ee43e-d1df-498a-adb1-9acc3504492d","ios":"levelo://app?vid=5e4ee43e-d1df-498a-adb1-9acc3504492d"},"vehicle_type_id":"4","last_reported":1735567694,"current_range_meters":5600,"station_id":"ce4bgn92rcd13ifvqbvg","pricing_plan_id":"cebpf4jnsgd1na2vs0mg"},{"bike_id":"abfd25fc-c655-439b-8597-04a124918241","system_id":"levelo_inurba_marseille","lat":43.29778,"lon":5.38113,"is_reserved":false,"is_disabled":true,"rental_uris":{"android":"levelo://app?vid=abfd25fc-c655-439b-8597-04a124918241","ios":"levelo://app?vid=abfd25fc-c655-439b-8597-04a124918241"},"vehicle_type_id":"4","last_reported":1735567694,"current_range_meters":38800,"station_id":"ce4bgip2rcd13ifvqbb0","pricing_plan_id":"cebpf4jnsgd1na2vs0mg"},{"bike_id":"1e87cf0b-10c4-4800-b755-1b1768da1a22","system_id":"levelo_inurba_marseille","lat":43.27994,"lon":5.4003,"is_reserved":false,"is_disabled":false,"rental_uris":{"android":"levelo://app?vid=1e87cf0b-10c4-4800-b755-1b1768da1a22","ios":"levelo://app?vid=1e87cf0b-10c4-4800-b755-1b1768da1a22"},"vehicle_type_id":"4","last_reported":1735567694,"current_range_meters":8800,"station_id":"ce4bho92rcd13ifvqh4g","pricing_plan_id":"cebpf4jnsgd1na2vs0mg"},{"bike_id":"2d3a85f1-722c-4472-b7fd-57f2f6b7115c","system_id":"levelo_inurba_marseille","lat":43.24382,"lon":5.37064,"is_reserved":false,"is_disabled":false,"rental_uris":{"android":"levelo://app?vid=2d3a85f1-722c-4472-b7fd-57f2f6b7115c","ios":"levelo://app?vid=2d3a85f1-722c-4472-b7fd-57f2f6b7115c"},"vehicle_type_id":"4","last_reported":1735567694,"current_range_meters":12800,"station_id":"ce4bhhh2rcd13ifvqfk0","pricing_plan_id":"cebpf4jnsgd1na2vs0mg"},{"bike_id":"9ba46895-ef65-4b7e-95ce-b8ea5f2fc438","system_id":"levelo_inurba_marseille","lat":43.27679,"lon":5.38907,"is_reserved":false,"is_disabled":false,"rental_uris":{"android":"levelo://app?vid=9ba46895-ef65-4b7e-95ce-b8ea5f2fc438","ios":"levelo://app?vid=9ba46895-ef65-4b7e-95ce-b8ea5f2fc438"},"vehicle_type_id":"4","last_reported":1735567694,"current_range_meters":38800,"station_id":"ce4bhi12rcd13ifvqfo0","pricing_plan_id":"cebpf4jnsgd1na2vs0mg"},{"bike_id":"80924a51-84d5-4a88-941f-dcc238b3ab7b","system_id":"levelo_inurba_marseille","lat":43.24153,"lon":5.36415,"is_reserved":false,"is_disabled":false,"rental_uris":{"android":"levelo://app?vid=80924a51-84d5-4a88-941f-dcc238b3ab7b","ios":"levelo://app?vid=80924a51-84d5-4a88-941f-dcc238b3ab7b"},"vehicle_type_id":"4","last_reported":1735567694,"current_range_meters":8400,"station_id":"cpo36qri1sfpv3e86is0","pricing_plan_id":"cebpf4jnsgd1na2vs0mg"},{"bike_id":"11a55778-c715-4063-804d-5deeb5abbf4c","system_id":"levelo_inurba_marseille","lat":43.3171,"lon":5.43703,"is_reserved":false,"is_disabled":false,"rental_uris":{"android":"levelo://app?vid=11a55778-c715-4063-804d-5deeb5abbf4c","ios":"levelo://app?vid=11a55778-c715-4063-804d-5deeb5abbf4c"},"vehicle_type_id":"4","last_reported":1735567694,"current_range_meters":37600,"station_id":"ce4bhp92rcd13ifvqhcg","pricing_plan_id":"cebpf4jnsgd1na2vs0mg"},{"bike_id":"c7a16261-fcab-4d31-9a7c-3b5289d9e38c","system_id":"levelo_inurba_marseille","lat":43.27295,"lon":5.3913,"is_reserved":false,"is_disabled":false,"rental_uris":{"android":"levelo://app?vid=c7a16261-fcab-4d31-9a7c-3b5289d9e38c","ios":"levelo://app?vid=c7a16261-fcab-4d31-9a7c-3b5289d9e38c"},"vehicle_type_id":"4","last_reported":1735567694,"current_range_meters":38800,"station_id":"ce4bhgp2rcd13ifvqfe0","pricing_plan_id":"cebpf4jnsgd1na2vs0mg"},{"bike_id":"5fa2bc43-7c81-45c6-a7af-9e700d12d05b","system_id":"levelo_inurba_marseille","lat":43.30886,"lon":5.36839,"is_reserved":false,"is_disabled":false,"rental_uris":{"android":"levelo://app?vid=5fa2bc43-7c81-45c6-a7af-9e700d12d05b","ios":"levelo://app?vid=5fa2bc43-7c81-45c6-a7af-9e700d12d05b"},"vehicle_type_id":"4","last_reported":1735567694,"current_range_meters":29600,"station_id":"ce4bgn92rcd13ifvqbvg","pricing_plan_id":"cebpf4jnsgd1na2vs0mg"},{"bike_id":"d5b47bfa-c935-4506-80aa-82165384fbed","system_id":"levelo_inurba_marseille","lat":43.29549,"lon":5.37506,"is_reserved":false,"is_disabled":false,"rental_uris":{"android":"levelo://app?vid=d5b47bfa-c935-4506-80aa-82165384fbed","ios":"levelo://app?vid=d5b47bfa-c935-4506-80aa-82165384fbed"},"vehicle_type_id":"4","last_reported":1735567694,"current_range_meters":19200,"station_id":"ce4bgkp2rcd13ifvqbmg","pricing_plan_id":"cebpf4jnsgd1na2vs0mg"},{"bike_id":"c4fa8b26-bff7-4443-9f60-4eb78ee47219","system_id":"levelo_inurba_marseille","lat":43.337444,"lon":5.374475,"is_reserved":false,"is_disabled":false,"rental_uris":{"android":"levelo://app?vid=c4fa8b26-bff7-4443-9f60-4eb78ee47219","ios":"levelo://app?vid=c4fa8b26-bff7-4443-9f60-4eb78ee47219"},"vehicle_type_id":"4","last_reported":1735567694,"current_range_meters":27600,"station_id":"","pricing_plan_id":"cebpf4jnsgd1na2vs0mg"},{"bike_id":"faf56cb3-1d9f-4164-acf2-2b22d7c88f2e","system_id":"levelo_inurba_marseille","lat":43.27379,"lon":5.36263,"is_reserved":false,"is_disabled":false,"rental_uris":{"android":"levelo://app?vid=faf56cb3-1d9f-4164-acf2-2b22d7c88f2e","ios":"levelo://app?vid=faf56cb3-1d9f-4164-acf2-2b22d7c88f2e"},"vehicle_type_id":"4","last_reported":1735567694,"current_range_meters":3600,"station_id":"ce4bhbh2rcd13ifvqeo0","pricing_plan_id":"cebpf4jnsgd1na2vs0mg"},{"bike_id":"d82d9388-0ebd-4676-a25a-4c5688b1e993","system_id":"levelo_inurba_marseille","lat":43.298541,"lon":5.362833,"is_reserved":false,"is_disabled":false,"rental_uris":{"android":"levelo://app?vid=d82d9388-0ebd-4676-a25a-4c5688b1e993","ios":"levelo://app?vid=d82d9388-0ebd-4676-a25a-4c5688b1e993"},"vehicle_type_id":"4","last_reported":1735567694,"current_range_meters":27600,"station_id":"ce4bgpp2rcd13ifvqc3g","pricing_plan_id":"cebpf4jnsgd1na2vs0mg"},{"bike_id":"39532236-d23b-4244-ba6f-5e2bdfb832be","system_id":"levelo_inurba_marseille","lat":43.27953,"lon":5.4104,"is_reserved":false,"is_disabled":false,"rental_uris":{"android":"levelo://app?vid=39532236-d23b-4244-ba6f-5e2bdfb832be","ios":"levelo://app?vid=39532236-d23b-4244-ba6f-5e2bdfb832be"},"vehicle_type_id":"4","last_reported":1735567694,"current_range_meters":29600,"station_id":"ce4bhnp2rcd13ifvqh0g","pricing_plan_id":"cebpf4jnsgd1na2vs0mg"},{"bike_id":"10f744a4-dfa5-4337-85ec-ee4cb7696f06","system_id":"levelo_inurba_marseille","lat":43.29293,"lon":5.37464,"is_reserved":false,"is_disabled":false,"rental_uris":{"android":"levelo://app?vid=10f744a4-dfa5-4337-85ec-ee4cb7696f06","ios":"levelo://app?vid=10f744a4-dfa5-4337-85ec-ee4cb7696f06"},"vehicle_type_id":"4","last_reported":1735567694,"current_range_meters":33200,"station_id":"ce4bgi12rcd13ifvqb70","pricing_plan_id":"cebpf4jnsgd1na2vs0mg"},{"bike_id":"9eb1e9d3-259d-427b-b177-23c534179f97","system_id":"levelo_inurba_marseille","lat":43.28152,"lon":5.42645,"is_reserved":false,"is_disabled":false,"rental_uris":{"android":"levelo://app?vid=9eb1e9d3-259d-427b-b177-23c534179f97","ios":"levelo://app?vid=9eb1e9d3-259d-427b-b177-23c534179f97"},"vehicle_type_id":"4","last_reported":1735567694,"current_range_meters":27600,"station_id":"ce4bhnh2rcd13ifvqgug","pricing_plan_id":"cebpf4jnsgd1na2vs0mg"},{"bike_id":"49b7a4a1-8389-46ba-a75c-88f3015f0a91","system_id":"levelo_inurba_marseille","lat":43.29905,"lon":5.37478,"is_reserved":false,"is_disabled":false,"rental_uris":{"android":"levelo://app?vid=49b7a4a1-8389-46ba-a75c-88f3015f0a91","ios":"levelo://app?vid=49b7a4a1-8389-46ba-a75c-88f3015f0a91"},"vehicle_type_id":"4","last_reported":1735567694,"current_range_meters":38000,"station_id":"ce4bgjh2rcd13ifvqbg0","pricing_plan_id":"cebpf4jnsgd1na2vs0mg"},{"bike_id":"630f5077-6539-41c1-8312-a5d7554a6109","system_id":"levelo_inurba_marseille","lat":43.28486,"lon":5.35888,"is_reserved":false,"is_disabled":false,"rental_uris":{"android":"levelo://app?vid=630f5077-6539-41c1-8312-a5d7554a6109","ios":"levelo://app?vid=630f5077-6539-41c1-8312-a5d7554a6109"},"vehicle_type_id":"4","last_reported":1735567694,"current_range_meters":36800,"station_id":"ce4bhah2rcd13ifvqei0","pricing_plan_id":"cebpf4jnsgd1na2vs0mg"},{"bike_id":"73964e96-b062-49d4-93a6-803ee072593e","system_id":"levelo_inurba_marseille","lat":43.27369,"lon":5.3625,"is_reserved":false,"is_disabled":true,"rental_uris":{"android":"levelo://app?vid=73964e96-b062-49d4-93a6-803ee072593e","ios":"levelo://app?vid=73964e96-b062-49d4-93a6-803ee072593e"},"vehicle_type_id":"4","last_reported":1735567694,"current_range_meters":38800,"station_id":"ce4bhbh2rcd13ifvqeo0","pricing_plan_id":"cebpf4jnsgd1na2vs0mg"},{"bike_id":"96f5a5b9-2ac1-4f14-8379-2520a82b4153","system_id":"levelo_inurba_marseille","lat":43.26061,"lon":5.394,"is_reserved":false,"is_disabled":false,"rental_uris":{"android":"levelo://app?vid=96f5a5b9-2ac1-4f14-8379-2520a82b4153","ios":"levelo://app?vid=96f5a5b9-2ac1-4f14-8379-2520a82b4153"},"vehicle_type_id":"4","last_reported":1735567694,"current_range_meters":37600,"station_id":"ce4bhh92rcd13ifvqfj0","pricing_plan_id":"cebpf4jnsgd1na2vs0mg"},{"bike_id":"712c75c4-3652-4697-927f-3b9b03fea0a3","system_id":"levelo_inurba_marseille","lat":43.29936,"lon":5.37456,"is_reserved":false,"is_disabled":false,"rental_uris":{"android":"levelo://app?vid=712c75c4-3652-4697-927f-3b9b03fea0a3","ios":"levelo://app?vid=712c75c4-3652-4697-927f-3b9b03fea0a3"},"vehicle_type_id":"4","last_reported":1735567694,"current_range_meters":12000,"station_id":"ce4bgjh2rcd13ifvqbg0","pricing_plan_id":"cebpf4jnsgd1na2vs0mg"},{"bike_id":"a2b4dea9-986d-438f-808c-19f049a05e5c","system_id":"levelo_inurba_marseille","lat":43.29847,"lon":5.36281,"is_reserved":false,"is_disabled":false,"rental_uris":{"android":"levelo://app?vid=a2b4dea9-986d-438f-808c-19f049a05e5c","ios":"levelo://app?vid=a2b4dea9-986d-438f-808c-19f049a05e5c"},"vehicle_type_id":"4","last_reported":1735567694,"current_range_meters":39200,"station_id":"ce4bgpp2rcd13ifvqc3g","pricing_plan_id":"cebpf4jnsgd1na2vs0mg"},{"bike_id":"976abf1b-2fd1-4294-ac06-3c1193b2d559","system_id":"levelo_inurba_marseille","lat":43.231919,"lon":5.355558,"is_reserved":false,"is_disabled":false,"rental_uris":{"android":"levelo://app?vid=976abf1b-2fd1-4294-ac06-3c1193b2d559","ios":"levelo://app?vid=976abf1b-2fd1-4294-ac06-3c1193b2d559"},"vehicle_type_id":"4","last_reported":1735567694,"current_range_meters":38000,"station_id":"ce4bhu92rcd13ifvqi70","pricing_plan_id":"cebpf4jnsgd1na2vs0mg"},{"bike_id":"8cce4e7a-8af1-4906-a0ee-50da75170d4c","system_id":"levelo_inurba_marseille","lat":43.2746,"lon":5.39431,"is_reserved":false,"is_disabled":false,"rental_uris":{"android":"levelo://app?vid=8cce4e7a-8af1-4906-a0ee-50da75170d4c","ios":"levelo://app?vid=8cce4e7a-8af1-4906-a0ee-50da75170d4c"},"vehicle_type_id":"4","last_reported":1735567694,"current_range_meters":38800,"station_id":"ce4bhdp2rcd13ifvqf20","pricing_plan_id":"cebpf4jnsgd1na2vs0mg"},{"bike_id":"8960c74a-baeb-4914-9231-b9bd4900e6ca","system_id":"levelo_inurba_marseille","lat":43.26945,"lon":5.38639,"is_reserved":false,"is_disabled":false,"rental_uris":{"android":"levelo://app?vid=8960c74a-baeb-4914-9231-b9bd4900e6ca","ios":"levelo://app?vid=8960c74a-baeb-4914-9231-b9bd4900e6ca"},"vehicle_type_id":"4","last_reported":1735567694,"current_range_meters":29600,"station_id":"ce4bhh92rcd13ifvqfh0","pricing_plan_id":"cebpf4jnsgd1na2vs0mg"},{"bike_id":"5a0ce7fa-53be-4a8a-b533-c092d7088dc9","system_id":"levelo_inurba_marseille","lat":43.27816,"lon":5.407285,"is_reserved":false,"is_disabled":false,"rental_uris":{"android":"levelo://app?vid=5a0ce7fa-53be-4a8a-b533-c092d7088dc9","ios":"levelo://app?vid=5a0ce7fa-53be-4a8a-b533-c092d7088dc9"},"vehicle_type_id":"4","last_reported":1735567694,"current_range_meters":34000,"station_id":"ce4bhnh2rcd13ifvqgtg","pricing_plan_id":"cebpf4jnsgd1na2vs0mg"},{"bike_id":"e93b722d-6e93-40ba-99b3-00088342daa0","system_id":"levelo_inurba_marseille","lat":43.28681,"lon":5.3866,"is_reserved":false,"is_disabled":false,"rental_uris":{"android":"levelo://app?vid=e93b722d-6e93-40ba-99b3-00088342daa0","ios":"levelo://app?vid=e93b722d-6e93-40ba-99b3-00088342daa0"},"vehicle_type_id":"4","last_reported":1735567694,"current_range_meters":36800,"station_id":"ce4bh492rcd13ifvqdug","pricing_plan_id":"cebpf4jnsgd1na2vs0mg"},{"bike_id":"5eac31a2-ae84-4275-9d8c-bcf7c00ba9dd","system_id":"levelo_inurba_marseille","lat":43.2306,"lon":5.35489,"is_reserved":false,"is_disabled":false,"rental_uris":{"android":"levelo://app?vid=5eac31a2-ae84-4275-9d8c-bcf7c00ba9dd","ios":"levelo://app?vid=5eac31a2-ae84-4275-9d8c-bcf7c00ba9dd"},"vehicle_type_id":"4","last_reported":1735567694,"current_range_meters":26000,"station_id":"cpo3342slgdg3j2ifvpg","pricing_plan_id":"cebpf4jnsgd1na2vs0mg"},{"bike_id":"1b3cb78d-ddda-4681-89cb-0323f5cddac6","system_id":"levelo_inurba_marseille","lat":43.279558,"lon":5.387166,"is_reserved":false,"is_disabled":false,"rental_uris":{"android":"levelo://app?vid=1b3cb78d-ddda-4681-89cb-0323f5cddac6","ios":"levelo://app?vid=1b3cb78d-ddda-4681-89cb-0323f5cddac6"},"vehicle_type_id":"4","last_reported":1735567694,"current_range_meters":39200,"station_id":"ce4bhg12rcd13ifvqf80","pricing_plan_id":"cebpf4jnsgd1na2vs0mg"},