{"last_updated":1732205508,"ttl":60,"version":"2.2","data":{"bikes":[{"bike_id":"27833926-a666-4234-9ec3-2099432f9f3f","system_id":"levelo_inurba_marseille","lat":43.309481,"lon":5.39034,"is_reserved":false,"is_disabled":false,"rental_uris":{"android":"levelo://app?vid=27833926-a666-4234-9ec3-2099432f9f3f","ios":"levelo://app?vid=27833926-a666-4234-9ec3-2099432f9f3f"},"vehicle_type_id":"4","last_reported":1732205508,"current_range_meters":38800,"station_id":"ce4bgup2rcd13ifvqco0","pricing_plan_id":"cebpf4jnsgd1na2vs0mg"},{"bike_id":"a10be396-1705-483a-9984-718f9d010c8e","system_id":"levelo_inurba_marseille","lat":43.29878,"lon":5.39736,"is_reserved":false,"is_disabled":true,"rental_uris":{"android":"levelo://app?vid=a10be396-1705-483a-9984-718f9d010c8e","ios":"levelo://app?vid=a10be396-1705-483a-9984-718f9d010c8e"},"vehicle_type_id":"4","last_reported":1732205508,"current_range_meters":0,"station_id":"ce4bh0h2rcd13ifvqd50","pricing_plan_id":"cebpf4jnsgd1na2vs0mg"},{"bike_id":"156320ae-cdf1-448d-a5dd-5f82d48b8bf7","system_id":"levelo_inurba_marseille","lat":43.28622,"lon":5.35102,"is_reserved":false,"is_disabled":false,"rental_uris":{"android":"levelo://app?vid=156320ae-cdf1-448d-a5dd-5f82d48b8bf7","ios":"levelo://app?vid=156320ae-cdf1-448d-a5dd-5f82d48b8bf7"},"vehicle_type_id":"4","last_reported":1732205508,"current_range_meters":36400,"station_id":"ce4bhch2rcd13ifvqeug","pricing_plan_id":"cebpf4jnsgd1na2vs0mg"},{"bike_id":"667e1035-b43a-45dd-b816-d6d53834ff3b","system_id":"levelo_inurba_marseille","lat":43.29041,"lon":5.3996,"is_reserved":false,"is_disabled":false,"rental_uris":{"android":"levelo://app?vid=667e1035-b43a-45dd-b816-d6d53834ff3b","ios":"levelo://app?vid=667e1035-b43a-45dd-b816-d6d53834ff3b"},"vehicle_type_id":"4","last_reported":1732205508,"current_range_meters":32400,"station_id":"ce4bh392rcd13ifvqdm0","pricing_plan_id":"cebpf4jnsgd1na2vs0mg"},{"bike_id":"fa3b4529-ac0b-456b-acfc-4e5f8fd0d89d","system_id":"levelo_inurba_marseille","lat":43.26681,"lon":5.38272,"is_reserved":false,"is_disabled":false,"rental_uris":{"android":"levelo://app?vid=fa3b4529-ac0b-456b-acfc-4e5f8fd0d89d","ios":"levelo://app?vid=fa3b4529-ac0b-456b-acfc-4e5f8fd0d89d"},"vehicle_type_id":"4","last_reported":1732205508,"current_range_meters":40000,"station_id":"ce4bhg92rcd13ifvqf90","pricing_plan_id":"cebpf4jnsgd1na2vs0mg"},{"bike_id":"9621196e-55d2-4cff-98dc-6d2ae371b725","system_id":"levelo_inurba_marseille","lat":43.2867,"lon":5.38672,"is_reserved":false,"is_disabled":true,"rental_uris":{"android":"levelo://app?vid=9621196e-55d2-4cff-98dc-6d2ae371b725","ios":"levelo://app?vid=9621196e-55d2-4cff-98dc-6d2ae371b725"},"vehicle_type_id":"4","last_reported":1732205508,"current_range_meters":800,"station_id":"ce4bh492rcd13ifvqdug","pricing_plan_id":"cebpf4jnsgd1na2vs0mg"},{"bike_id":"59cb64f0-65a0-445b-81e8-49caa1869c19","system_id":"levelo_inurba_marseille","lat":43.29795,"lon":5.40403,"is_reserved":false,"is_disabled":false,"rental_uris":{"android":"levelo://app?vid=59cb64f0-65a0-445b-81e8-49caa1869c19","ios":"levelo://app?vid=59cb64f0-65a0-445b-81e8-49caa1869c19"},"vehicle_type_id":"4","last_reported":1732205508,"current_range_meters":40000,"station_id":"ce4bh112rcd13ifvqd90","pricing_plan_id":"cebpf4jnsgd1na2vs0mg"},{"bike_id":"a495e077-d6a7-414c-b761-8ee8983002b2","system_id":"levelo_inurba_marseille","lat":43.27178,"lon":5.40994,"is_reserved":false,"is_disabled":false,"rental_uris":{"android":"levelo://app?vid=a495e077-d6a7-414c-b761-8ee8983002b2","ios":"levelo://app?vid=a495e077-d6a7-414c-b761-8ee8983002b2"},"vehicle_type_id":"4","last_reported":1732205508,"current_range_meters":33600,"station_id":"ce4bhl12rcd13ifvqgf0","pricing_plan_id":"cebpf4jnsgd1na2vs0mg"},{"bike_id":"13009963-41ad-445c-9cd0-b2bda6cdea79","system_id":"levelo_inurba_marseille","lat":43.27062,"lon":5.40265,"is_reserved":false,"is_disabled":false,"rental_uris":{"android":"levelo://app?vid=13009963-41ad-445c-9cd0-b2bda6cdea79","ios":"levelo://app?vid=13009963-41ad-445c-9cd0-b2bda6cdea79"},"vehicle_type_id":"4","last_reported":1732205508,"current_range_meters":25600,"station_id":"ce4bhk92rcd13ifvqgc0","pricing_plan_id":"cebpf4jnsgd1na2vs0mg"},{"bike_id":"ab95fd7f-a825-4add-9a37-d3865730f19e","system_id":"levelo_inurba_marseille","lat":43.29627,"lon":5.40595,"is_reserved":false,"is_disabled":false,"rental_uris":{"android":"levelo://app?vid=ab95fd7f-a825-4add-9a37-d3865730f19e","ios":"levelo://app?vid=ab95fd7f-a825-4add-9a37-d3865730f19e"},"vehicle_type_id":"4","last_reported":1732205508,"current_range_meters":17200,"station_id":"ce4bh0h2rcd13ifvqd60","pricing_plan_id":"cebpf4jnsgd1na2vs0mg"},{"bike_id":"1f203897-1164-43c5-8a36-2a35df13aaf6","system_id":"levelo_inurba_marseille","lat":43.23154,"lon":5.43718,"is_reserved":false,"is_disabled":true,"rental_uris":{"android":"levelo://app?vid=1f203897-1164-43c5-8a36-2a35df13aaf6","ios":"levelo://app?vid=1f203897-1164-43c5-8a36-2a35df13aaf6"},"vehicle_type_id":"4","last_reported":1732205508,"current_range_meters":1600,"station_id":"ce4bhmp2rcd13ifvqgog","pricing_plan_id":"cebpf4jnsgd1na2vs0mg"},{"bike_id":"5c8f68b2-a54b-48a1-ae1e-25b7c4fecfae","system_id":"levelo_inurba_marseille","lat":43.27947,"lon":5.41052,"is_reserved":false,"is_disabled":false,"rental_uris":{"android":"levelo://app?vid=5c8f68b2-a54b-48a1-ae1e-25b7c4fecfae","ios":"levelo://app?vid=5c8f68b2-a54b-48a1-ae1e-25b7c4fecfae"},"vehicle_type_id":"4","last_reported":1732205508,"current_range_meters":34000,"station_id":"ce4bhnp2rcd13ifvqh0g","pricing_plan_id":"cebpf4jnsgd1na2vs0mg"},{"bike_id":"a419d32b-b4db-45a2-837f-da008bc7752d","system_id":"levelo_inurba_marseille","lat":43.28985,"lon":5.37831,"is_reserved":false,"is_disabled":false,"rental_uris":{"android":"levelo://app?vid=a419d32b-b4db-45a2-837f-da008bc7752d","ios":"levelo://app?vid=a419d32b-b4db-45a2-837f-da008bc7752d"},"vehicle_type_id":"4","last_reported":1732205508,"current_range_meters":31200,"station_id":"ce4bh9p2rcd13ifvqed0","pricing_plan_id":"cebpf4jnsgd1na2vs0mg"},{"bike_id":"d6ad3f3b-1936-4382-92a8-c2ac13ecc6dc","system_id":"levelo_inurba_marseille","lat":43.31522,"lon":5.38029,"is_reserved":false,"is_disabled":false,"rental_uris":{"android":"levelo://app?vid=d6ad3f3b-1936-4382-92a8-c2ac13ecc6dc","ios":"levelo://app?vid=d6ad3f3b-1936-4382-92a8-c2ac13ecc6dc"},"vehicle_type_id":"4","last_reported":1732205508,"current_range_meters":10800,"station_id":"ce4bhsp2rcd13ifvqi50","pricing_plan_id":"cebpf4jnsgd1na2vs0mg"},{"bike_id":"e642ccdb-cb84-421c-a18f-c3de34e58923","system_id":"levelo_inurba_marseille","lat":43.29788,"lon":5.38115,"is_reserved":false,"is_disabled":false,"rental_uris":{"android":"levelo://app?vid=e642ccdb-cb84-421c-a18f-c3de34e58923","ios":"levelo://app?vid=e642ccdb-cb84-421c-a18f-c3de34e58923"},"vehicle_type_id":"4","last_reported":1732205508,"current_range_meters":18000,"station_id":"ce4bgip2rcd13ifvqbb0","pricing_plan_id":"cebpf4jnsgd1na2vs0mg"},{"bike_id":"c0755ad7-8353-40d1-98a4-bba43ca0e3ab","system_id":"levelo_inurba_marseille","lat":43.33719,"lon":5.39178,"is_reserved":false,"is_disabled":false,"rental_uris":{"android":"levelo://app?vid=c0755ad7-8353-40d1-98a4-bba43ca0e3ab","ios":"levelo://app?vid=c0755ad7-8353-40d1-98a4-bba43ca0e3ab"},"vehicle_type_id":"4","last_reported":1732205508,"current_range_meters":18800,"station_id":"ce4bhr92rcd13ifvqhsg","pricing_plan_id":"cebpf4jnsgd1na2vs0mg"},{"bike_id":"a9a4af61-0fd7-4a8f-8c37-b9e8613d2302","system_id":"levelo_inurba_marseille","lat":43.23186,"lon":5.39993,"is_reserved":false,"is_disabled":true,"rental_uris":{"android":"levelo://app?vid=a9a4af61-0fd7-4a8f-8c37-b9e8613d2302","ios":"levelo://app?vid=a9a4af61-0fd7-4a8f-8c37-b9e8613d2302"},"vehicle_type_id":"4","last_reported":1732205508,"current_range_meters":800,"station_id":"ce4bhn12rcd13ifvqgqg","pricing_plan_id":"cebpf4jnsgd1na2vs0mg"},{"bike_id":"5996db57-59a4-4fac-a07b-fe6f610f8f44","system_id":"levelo_inurba_marseille","lat":43.30138,"lon":5.38777,"is_reserved":false,"is_disabled":true,"rental_uris":{"android":"levelo://app?vid=5996db57-59a4-4fac-a07b-fe6f610f8f44","ios":"levelo://app?vid=5996db57-59a4-4fac-a07b-fe6f610f8f44"},"vehicle_type_id":"4","last_reported":1732205508,"current_range_meters":33200,"station_id":"ce4bghh2rcd13ifvqb60","pricing_plan_id":"cebpf4jnsgd1na2vs0mg"},{"bike_id":"b8e74fa2-c82f-4ec7-84db-84bdfff9a537","system_id":"levelo_inurba_marseille","lat":43.29847,"lon":5.3628,"is_reserved":false,"is_disabled":false,"rental_uris":{"android":"levelo://app?vid=b8e74fa2-c82f-4ec7-84db-84bdfff9a537","ios":"levelo://app?vid=b8e74fa2-c82f-4ec7-84db-84bdfff9a537"},"vehicle_type_id":"4","last_reported":1732205508,"current_range_meters":13600,"station_id":"ce4bgpp2rcd13ifvqc3g","pricing_plan_id":"cebpf4jnsgd1na2vs0mg"},{"bike_id":"aaa68104-60d6-454b-9438-4e38b46ffb6c","system_id":"levelo_inurba_marseille","lat":43.30812,"lon":5.3705,"is_reserved":false,"is_disabled":false,"rental_uris":{"android":"levelo://app?vid=aaa68104-60d6-454b-9438-4e38b46ffb6c","ios":"levelo://app?vid=aaa68104-60d6-454b-9438-4e38b46ffb6c"},"vehicle_type_id":"4","last_reported":1732205508,"current_range_meters":16000,"station_id":"","pricing_plan_id":"cebpf4jnsgd1na2vs0mg"},{"bike_id":"7d0130f9-8752-4cee-8967-b885da628b86","system_id":"levelo_inurba_marseille","lat":43.29374,"lon":5.39797,"is_reserved":false,"is_disabled":true,"rental_uris":{"android":"levelo://app?vid=7d0130f9-8752-4cee-8967-b885da628b86","ios":"levelo://app?vid=7d0130f9-8752-4cee-8967-b885da628b86"},"vehicle_type_id":"4","last_reported":1732205508,"current_range_meters":0,"station_id":"","pricing_plan_id":"cebpf4jnsgd1na2vs0mg"},{"bike_id":"d2321b4c-ae3a-4b43-8bcd-12cb7984481d","system_id":"levelo_inurba_marseille","lat":43.3076,"lon":5.37019,"is_reserved":false,"is_disabled":true,"rental_uris":{"android":"levelo://app?vid=d2321b4c-ae3a-4b43-8bcd-12cb7984481d","ios":"levelo://app?vid=d2321b4c-ae3a-4b43-8bcd-12cb7984481d"},"vehicle_type_id":"4","last_reported":1732205508,"current_range_meters":22800,"station_id":"","pricing_plan_id":"cebpf4jnsgd1na2vs0mg"},{"bike_id":"eba35b14-0ea4-4a4f-9525-dc9511c16675","system_id":"levelo_inurba_marseille","lat":43.29704,"lon":5.36599,"is_reserved":false,"is_disabled":false,"rental_uris":{"android":"levelo://app?vid=eba35b14-0ea4-4a4f-9525-dc9511c16675","ios":"levelo://app?vid=eba35b14-0ea4-4a4f-9525-dc9511c16675"},"vehicle_type_id":"4","last_reported":1732205508,"current_range_meters":22400,"station_id":"ce4bgn12rcd13ifvqbt0","pricing_plan_id":"cebpf4jnsgd1na2vs0mg"},{"bike_id":"425103bd-622c-4475-a574-96528ae2e3b5","system_id":"levelo_inurba_marseille","lat":43.29579,"lon":5.3753,"is_reserved":false,"is_disabled":false,"rental_uris":{"android":"levelo://app?vid=425103bd-622c-4475-a574-96528ae2e3b5","ios":"levelo://app?vid=425103bd-622c-4475-a574-96528ae2e3b5"},"vehicle_type_id":"4","last_reported":1732205508,"current_range_meters":37600,"station_id":"ce4bgh92rcd13ifvqb50","pricing_plan_id":"cebpf4jnsgd1na2vs0mg"},{"bike_id":"5c3000a0-a190-4007-a723-aa2707fd1ce3","system_id":"levelo_inurba_marseille","lat":43.22932,"lon":5.35375,"is_reserved":false,"is_disabled":false,"rental_uris":{"android":"levelo://app?vid=5c3000a0-a190-4007-a723-aa2707fd1ce3","ios":"levelo://app?vid=5c3000a0-a190-4007-a723-aa2707fd1ce3"},"vehicle_type_id":"4","last_reported":1732205508,"current_range_meters":39200,"station_id":"cpo3532slgdg3j2ikp40","pricing_plan_id":"cebpf4jnsgd1na2vs0mg"},{"bike_id":"9bf00278-281e-45df-b9cb-0f55e5af1df2","system_id":"levelo_inurba_marseille","lat":43.25569,"lon":5.38229,"is_reserved":false,"is_disabled":true,"rental_uris":{"android":"levelo://app?vid=9bf00278-281e-45df-b9cb-0f55e5af1df2","ios":"levelo://app?vid=9bf00278-281e-45df-b9cb-0f55e5af1df2"},"vehicle_type_id":"4","last_reported":1732205508,"current_range_meters":0,"station_id":"ce4bhih2rcd13ifvqfs0","pricing_plan_id":"cebpf4jnsgd1na2vs0mg"},{"bike_id":"1caada37-0054-42e5-a957-bf1732db7f3a","system_id":"levelo_inurba_marseille","lat":43.29572,"lon":5.39986,"is_reserved":false,"is_disabled":false,"rental_uris":{"android":"levelo://app?vid=1caada37-0054-42e5-a957-bf1732db7f3a","ios":"levelo://app?vid=1caada37-0054-42e5-a957-bf1732db7f3a"},"vehicle_type_id":"4","last_reported":1732205508,"current_range_meters":30400,"station_id":"ce4bh312rcd13ifvqdj0","pricing_plan_id":"cebpf4jnsgd1na2vs0mg"},{"bike_id":"922bd877-8ef2-4e72-a9c2-b448135ba6e2","system_id":"levelo_inurba_marseille","lat":43.23202,"lon":5.35549,"is_reserved":false,"is_disabled":false,"rental_uris":{"android":"levelo://app?vid=922bd877-8ef2-4e72-a9c2-b448135ba6e2","ios":"levelo://app?vid=922bd877-8ef2-4e72-a9c2-b448135ba6e2"},"vehicle_type_id":"4","last_reported":1732205508,"current_range_meters":19200,"station_id":"ce4bhu92rcd13ifvqi70","pricing_plan_id":"cebpf4jnsgd1na2vs0mg"},{"bike_id":"895dae95-9dde-4a45-9252-bfb2ffb1ef60","system_id":"levelo_inurba_marseille","lat":43.29845,"lon":5.36278,"is_reserved":false,"is_disabled":false,"rental_uris":{"android":"levelo://app?vid=895dae95-9dde-4a45-9252-bfb2ffb1ef60","ios":"levelo://app?vid=895dae95-9dde-4a45-9252-bfb2ffb1ef60"},"vehicle_type_id":"4","last_reported":1732205508,"current_range_meters":39200,"station_id":"ce4bgpp2rcd13ifvqc3g","pricing_plan_id":"cebpf4jnsgd1na2vs0mg"},{"bike_id":"0537b288-f6d5-4a4a-b5a0-fbb6f073f2c1","system_id":"levelo_inurba_marseille","lat":43.30524,"lon":5.36533,"is_reserved":false,"is_disabled":false,"rental_uris":{"android":"levelo://app?vid=0537b288-f6d5-4a4a-b5a0-fbb6f073f2c1","ios":"levelo://app?vid=0537b288-f6d5-4a4a-b5a0-fbb6f073f2c1"},"vehicle_type_id":"4","last_reported":1732205508,"current_range_meters":39200,"station_id":"ce4bgs12rcd13ifvqcag","pricing_plan_id":"cebpf4jnsgd1na2vs0mg"},{"bike_id":"fce5cead-f708-488c-9b32-ae07588a04b4","system_id":"levelo_inurba_marseille","lat":43.32369,"lon":5.38891,"is_reserved":false,"is_disabled":false,"rental_uris":{"android":"levelo://app?vid=fce5cead-f708-488c-9b32-ae07588a04b4","ios":"levelo://app?vid=fce5cead-f708-488c-9b32-ae07588a04b4"},"vehicle_type_id":"4","last_reported":1732205508,"current_range_meters":38800,"station_id":"ce4bhqp2rcd13ifvqhog","pricing_plan_id":"cebpf4jnsgd1na2vs0mg"},{"bike_id":"48cd0835-aecf-4328-9ec2-0085c18d7831","system_id":"levelo_inurba_marseille","lat":43.27601,"lon":5.38419,"is_reserved":false,"is_disabled":true,"rental_uris":{"android":"levelo://app?vid=48cd0835-aecf-4328-9ec2-0085c18d7831","ios":"levelo://app?vid=48cd0835-aecf-4328-9ec2-0085c18d7831"},"vehicle_type_id":"4","last_reported":1732205508,"current_range_meters":38800,"station_id":"ce4bhh92rcd13ifvqfi0","pricing_plan_id":"cebpf4jnsgd1na2vs0mg"},{"bike_id":"78112314-0167-4770-aec6-47ed16f97dd3","system_id":"levelo_inurba_marseille","lat":43.27551,"lon":5.38418,"is_reserved":false,"is_disabled":false,"rental_uris":{"android":"levelo://app?vid=78112314-0167-4770-aec6-47ed16f97dd3","ios":"levelo://app?vid=78112314-0167-4770-aec6-47ed16f97dd3"},"vehicle_type_id":"4","last_reported":1732205508,"current_range_meters":38800,"station_id":"ce4bhh92rcd13ifvqfi0","pricing_plan_id":"cebpf4jnsgd1na2vs0mg"},{"bike_id":"1cd0daee-d68a-4e66-9883-fbe67fd8260f","system_id":"levelo_inurba_marseille","lat":43.30583,"lon":5.37118,"is_reserved":false,"is_disabled":true,"rental_uris":{"android":"levelo://app?vid=1cd0daee-d68a-4e66-9883-fbe67fd8260f","ios":"levelo://app?vid=1cd0daee-d68a-4e66-9883-fbe67fd8260f"},"vehicle_type_id":"4","last_reported":1732205508,"current_range_meters":0,"station_id":"","pricing_plan_id":"cebpf4jnsgd1na2vs0mg"},{"bike_id":"6cccced3-c057-4b31-a7a7-53f8b8493e85","system_id":"levelo_inurba_marseille","lat":43.33024,"lon":5.39036,"is_reserved":false,"is_disabled":false,"rental_uris":{"android":"levelo://app?vid=6cccced3-c057-4b31-a7a7-53f8b8493e85","ios":"levelo://app?vid=6cccced3-c057-4b31-a7a7-53f8b8493e85"},"vehicle_type_id":"4","last_reported":1732205508,"current_range_meters":26000,"station_id":"ce4bhr92rcd13ifvqhrg","pricing_plan_id":"cebpf4jnsgd1na2vs0mg"},{"bike_id":"0d7163e2-cea7-480a-b4ae-31fa31728842","system_id":"levelo_inurba_marseille","lat":43.30906,"lon":5.36844,"is_reserved":false,"is_disabled":false,"rental_uris":{"android":"levelo://app?vid=0d7163e2-cea7-480a-b4ae-31fa31728842","ios":"levelo://app?vid=0d7163e2-cea7-480a-b4ae-31fa31728842"},"vehicle_type_id":"4","last_reported":1732205508,"current_range_meters":30000,"station_id":"ce4bgn92rcd13ifvqbvg","pricing_plan_id":"cebpf4jnsgd1na2vs0mg"},{"bike_id":"d3160d1f-c347-4df9-93cb-01e12af5bd3c","system_id":"levelo_inurba_marseille","lat":43.25494,"lon":5.37653,"is_reserved":false,"is_disabled":false,"rental_uris":{"android":"levelo://app?vid=d3160d1f-c347-4df9-93cb-01e12af5bd3c","ios":"levelo://app?vid=d3160d1f-c347-4df9-93cb-01e12af5bd3c"},"vehicle_type_id":"4","last_reported":1732205508,"current_range_meters":36000,"station_id":"ce4bhh12rcd13ifvqff0","pricing_plan_id":"cebpf4jnsgd1na2vs0mg"},{"bike_id":"935ecd97-c469-4d8b-b8e5-b0a0edae57d4","system_id":"levelo_inurba_marseille","lat":43.29313,"lon":5.37164,"is_reserved":false,"is_disabled":false,"rental_uris":{"android":"levelo://app?vid=935ecd97-c469-4d8b-b8e5-b0a0edae57d4","ios":"levelo://app?vid=935ecd97-c469-4d8b-b8e5-b0a0edae57d4"},"vehicle_type_id":"4","last_reported":1732205508,"current_range_meters":22800,"station_id":"ce4bgh92rcd13ifvqb40","pricing_plan_id":"cebpf4jnsgd1na2vs0mg"},{"bike_id":"a91d19d3-8057-4b70-88f1-be828ea306bd","system_id":"levelo_inurba_marseille","lat":43.26692,"lon":5.38274,"is_reserved":false,"is_disabled":false,"rental_uris":{"android":"levelo://app?vid=a91d19d3-8057-4b70-88f1-be828ea306bd","ios":"levelo://app?vid=a91d19d3-8057-4b70-88f1-be828ea306bd"},"vehicle_type_id":"4","last_reported":1732205508,"current_range_meters":22000,"station_id":"ce4bhg92rcd13ifvqf90","pricing_plan_id":"cebpf4jnsgd1na2vs0mg"},{"bike_id":"1b97646c-2e5b-4adc-99bd-956849a1e319","system_id":"levelo_inurba_marseille","lat":43.3053,"lon":5.38427,"is_reserved":false,"is_disabled":false,"rental_uris":{"android":"levelo://app?vid=1b97646c-2e5b-4adc-99bd-956849a1e319","ios":"levelo://app?vid=1b97646c-2e5b-4adc-99bd-956849a1e319"},"vehicle_type_id":"4","last_reported":1732205508,"current_range_meters":30000,"station_id":"ce4bgg92rcd13ifvqb30","pricing_plan_id":"cebpf4jnsgd1na2vs0mg"},{"bike_id":"8ec0b57a-efb6-46d2-97c7-33222ab6f0ac","system_id":"levelo_inurba_marseille","lat":43.32534,"lon":5.41433,"is_reserved":false,"is_disabled":false,"rental_uris":{"android":"levelo://app?vid=8ec0b57a-efb6-46d2-97c7-33222ab6f0ac","ios":"levelo://app?vid=8ec0b57a-efb6-46d2-97c7-33222ab6f0ac"},"vehicle_type_id":"4","last_reported":1732205508,"current_range_meters":39200,"station_id":"ce4bhq12rcd13ifvqhhg","pricing_plan_id":"cebpf4jnsgd1na2vs0mg"},{"bike_id":"e3424ef3-00b4-4d10-8ee6-83fba6add79b","system_id":"levelo_inurba_marseille","lat":43.27375,"lon":5.36261,"is_reserved":false,"is_disabled":false,"rental_uris":{"android":"levelo://app?vid=e3424ef3-00b4-4d10-8ee6-83fba6add79b","ios":"levelo://app?vid=e3424ef3-00b4-4d10-8ee6-83fba6add79b"},"vehicle_type_id":"4","last_reported":1732205508,"current_range_meters":22000,"station_id":"ce4bhbh2rcd13ifvqeo0","pricing_plan_id":"cebpf4jnsgd1na2vs0mg"},{"bike_id":"4134521a-5589-46c2-9612-d2251dcb9d6e","system_id":"levelo_inurba_marseille","lat":43.29565,"lon":5.38091,"is_reserved":false,"is_disabled":false,"rental_uris":{"android":"levelo://app?vid=4134521a-5589-46c2-9612-d2251dcb9d6e","ios":"levelo://app?vid=4134521a-5589-46c2-9612-d2251dcb9d6e"},"vehicle_type_id":"4","last_reported":1732205508,"current_range_meters":24000,"station_id":"ce4bgl12rcd13ifvqbo0","pricing_plan_id":"cebpf4jnsgd1na2vs0mg"},{"bike_id":"a7fce1eb-2f2a-4561-bd8b-f77092da043b","system_id":"levelo_inurba_marseille","lat":43.27063,"lon":5.42278,"is_reserved":false,"is_disabled":true,"rental_uris":{"android":"levelo://app?vid=a7fce1eb-2f2a-4561-bd8b-f77092da043b","ios":"levelo://app?vid=a7fce1eb-2f2a-4561-bd8b-f77092da043b"},"vehicle_type_id":"4","last_reported":1732205508,"current_range_meters":26800,"station_id":"ce4bhk92rcd13ifvqgb0","pricing_plan_id":"cebpf4jnsgd1na2vs0mg"},{"bike_id":"9ec99ac6-abc2-44c2-ae0f-aaeab07124ab","system_id":"levelo_inurba_marseille","lat":43.28684,"lon":5.3866,"is_reserved":false,"is_disabled":false,"rental_uris":{"android":"levelo://app?vid=9ec99ac6-abc2-44c2-ae0f-aaeab07124ab","ios":"levelo://app?vid=9ec99ac6-abc2-44c2-ae0f-aaeab07124ab"},"vehicle_type_id":"4","last_reported":1732205508,"current_range_meters":16400,"station_id":"ce4bh492rcd13ifvqdug","pricing_plan_id":"cebpf4jnsgd1na2vs0mg"},{"bike_id":"872f9df2-6f9d-4970-8c81-2c8c63a6ac16","system_id":"levelo_inurba_marseille","lat":43.25819,"lon":5.39432,"is_reserved":false,"is_disabled":false,"rental_uris":{"android":"levelo://app?vid=872f9df2-6f9d-4970-8c81-2c8c63a6ac16","ios":"levelo://app?vid=872f9df2-6f9d-4970-8c81-2c8c63a6ac16"},"vehicle_type_id":"4","last_reported":1732205508,"current_range_meters":24800,"station_id":"ce4bhip2rcd13ifvqft0","pricing_plan_id":"cebpf4jnsgd1na2vs0mg"},{"bike_id":"d4bf1d08-aa1f-4470-b5cb-d2373f147fa7","system_id":"levelo_inurba_marseille","lat":43.29975,"lon":5.37177,"is_reserved":false,"is_disabled":false,"rental_uris":{"android":"levelo://app?vid=d4bf1d08-aa1f-4470-b5cb-d2373f147fa7","ios":"levelo://app?vid=d4bf1d08-aa1f-4470-b5cb-d2373f147fa7"},"vehicle_type_id":"4","last_reported":1732205508,"current_range_meters":37600,"station_id":"ce4bgr92rcd13ifvqc7g","pricing_plan_id":"cebpf4jnsgd1na2vs0mg"},{"bike_id":"fc41dac8-311f-41af-bbdb-9febb26e8e53","system_id":"levelo_inurba_marseille","lat":43.29023,"lon":5.38649,"is_reserved":false,"is_disabled":false,"rental_uris":{"android":"levelo://app?vid=fc41dac8-311f-41af-bbdb-9febb26e8e53","ios":"levelo://app?vid=fc41dac8-311f-41af-bbdb-9febb26e8e53"},"vehicle_type_id":"4","last_reported":1732205508,"current_range_meters":20800,"station_id":"ce4bh4p2rcd13ifvqe0g","pricing_plan_id":"cebpf4jnsgd1na2vs0mg"},{"bike_id":"da25c4a1-f53a-41be-9640-9e8275d2f48a","system_id":"levelo_inurba_marseille","lat":43.27672,"lon":5.38874,"is_reserved":false,"is_disabled":false,"rental_uris":{"android":"levelo://app?vid=da25c4a1-f53a-41be-9640-9e8275d2f48a","ios":"levelo://app?vid=da25c4a1-f53a-41be-9640-9e8275d2f48a"},"vehicle_type_id":"4","last_reported":1732205508,"current_range_meters":2000,"station_id":"ce4bhi12rcd13ifvqfo0","pricing_plan_id":"cebpf4jnsgd1na2vs0mg"},{"bike_id":"5dd4afbb-16bd-43bd-b0db-67e7146c68d0","system_id":"levelo_inurba_marseille","lat":43.30542,"lon":5.36703,"is_reserved":false,"is_disabled":false,"rental_uris":{"android":"levelo://app?vid=5dd4afbb-16bd-43bd-b0db-67e7146c68d0","ios":"levelo://app?vid=5dd4afbb-16bd-43bd-b0db-67e7146c68d0"},"vehicle_type_id":"4","last_reported":1732205508,"current_range_meters":30800,"station_id":"ce4bgrp2rcd13ifvqc9g","pricing_plan_id":"cebpf4jnsgd1na2vs0mg"},{"bike_id":"b0d02f1a-42e8-4d3f-986d-02084923d80b","system_id":"levelo_inurba_marseille","lat":43.29365,"lon":5.37862,"is_reserved":false,"is_disabled":false,"rental_uris":{"android":"levelo://app?vid=b0d02f1a-42e8-4d3f-986d-02084923d80b","ios":"levelo://app?vid=b0d02f1a-42e8-4d3f-986d-02084923d80b"},"vehicle_type_id":"4","last_reported":1732205508,"current_range_meters":32000,"station_id":"ce4bgjh2rcd13ifvqbf0","pricing_plan_id":"cebpf4jnsgd1na2vs0mg"},{"bike_id":"571825fc-1c1f-4e61-ba4d-fc13912fcda9","system_id":"levelo_inurba_marseille","lat":43.32483,"lon":5.36566,"is_reserved":false,"is_disabled":false,"rental_uris":{"android":"levelo://app?vid=571825fc-1c1f-4e61-ba4d-fc13912fcda9","ios":"levelo://app?vid=571825fc-1c1f-4e61-ba4d-fc13912fcda9"},"vehicle_type_id":"4","last_reported":1732205508,"current_range_meters":40000,"station_id":"ce4bhs12rcd13ifvqhvg","pricing_plan_id":"cebpf4jnsgd1na2vs0mg"},{"bike_id":"6d8d4026-73c3-4703-a895-b6045425d457","system_id":"levelo_inurba_marseille","lat":43.30129,"lon":5.39876,"is_reserved":false,"is_disabled":false,"rental_uris":{"android":"levelo://app?vid=6d8d4026-73c3-4703-a895-b6045425d457","ios":"levelo://app?vid=6d8d4026-73c3-4703-a895-b6045425d457"},"vehicle_type_id":"4","last_reported":1732205508,"current_range_meters":40000,"station_id":"ce4bh0h2rcd13ifvqd40","pricing_plan_id":"cebpf4jnsgd1na2vs0mg"},{"bike_id":"adb35c85-cb57-48bf-9b41-a5dcec33c913","system_id":"levelo_inurba_marseille","lat":43.28421,"lon":5.34976,"is_reserved":false,"is_disabled":false,"rental_uris":{"android":"levelo://app?vid=adb35c85-cb57-48bf-9b41-a5dcec33c913","ios":"levelo://app?vid=adb35c85-cb57-48bf-9b41-a5dcec33c913"},"vehicle_type_id":"4","last_reported":1732205508,"current_range_meters":36000,"station_id":"ce4bhbh2rcd13ifvqepg","pricing_plan_id":"cebpf4jnsgd1na2vs0mg"},{"bike_id":"be9ae0a8-c549-4adb-a0f6-54609edbc62f","system_id":"levelo_inurba_marseille","lat":43.2985,"lon":5.36283,"is_reserved":false,"is_disabled":false,"rental_uris":{"android":"levelo://app?vid=be9ae0a8-c549-4adb-a0f6-54609edbc62f","ios":"levelo://app?vid=be9ae0a8-c549-4adb-a0f6-54609edbc62f"},"vehicle_type_id":"4","last_reported":1732205508,"current_range_meters":39200,"station_id":"ce4bgpp2rcd13ifvqc3g","pricing_plan_id":"cebpf4jnsgd1na2vs0mg"},{"bike_id":"66c02efa-663d-47e1-a0a4-7f523cd86b69","system_id":"levelo_inurba_marseille","lat":43.31757,"lon":5.39011,"is_reserved":false,"is_disabled":false,"rental_uris":{"android":"levelo://app?vid=66c02efa-663d-47e1-a0a4-7f523cd86b69","ios":"levelo://app?vid=66c02efa-663d-47e1-a0a4-7f523cd86b69"},"vehicle_type_id":"4","last_reported":1732205508,"current_range_meters":38400,"station_id":"ce4bhqp2rcd13ifvqhng","pricing_plan_id":"cebpf4jnsgd1na2vs0mg"},{"bike_id":"567b5bec-6f69-4097-9d92-252add5a5c8a","system_id":"levelo_inurba_marseille","lat":43.2558,"lon":5.38229,"is_reserved":false,"is_disabled":false,"rental_uris":{"android":"levelo://app?vid=567b5bec-6f69-4097-9d92-252add5a5c8a","ios":"levelo://app?vid=567b5bec-6f69-4097-9d92-252add5a5c8a"},"vehicle_type_id":"4","last_reported":1732205508,"current_range_meters":5600,"station_id":"ce4bhih2rcd13ifvqfs0","pricing_plan_id":"cebpf4jnsgd1na2vs0mg"},{"bike_id":"83443403-b2b0-4865-b4ab-db4b722ef374","system_id":"levelo_inurba_marseille","lat":43.26062,"lon":5.39401,"is_reserved":false,"is_disabled":false,"rental_uris":{"android":"levelo://app?vid=83443403-b2b0-4865-b4ab-db4b722ef374","ios":"levelo://app?vid=83443403-b2b0-4865-b4ab-db4b722ef374"},"vehicle_type_id":"4","last_reported":1732205508,"current_range_meters":34000,"station_id":"ce4bhh92rcd13ifvqfj0","pricing_plan_id":"cebpf4jnsgd1na2vs0mg"},{"bike_id":"b94cfeb5-cf21-421c-b253-8d98566d48af","system_id":"levelo_inurba_marseille","lat":43.29952,"lon":5.37165,"is_reserved":false,"is_disabled":false,"rental_uris":{"android":"levelo://app?vid=b94cfeb5-cf21-421c-b253-8d98566d48af","ios":"levelo://app?vid=b94cfeb5-cf21-421c-b253-8d98566d48af"},"vehicle_type_id":"4","last_reported":1732205508,"current_range_meters":35200,"station_id":"ce4bgr92rcd13ifvqc7g","pricing_plan_id":"cebpf4jnsgd1na2vs0mg"},{"bike_id":"550f0269-af81-4f74-bed5-fe17c4459dfd","system_id":"levelo_inurba_marseille","lat":43.25935,"lon":5.40907,"is_reserved":false,"is_disabled":true,"rental_uris":{"android":"levelo://app?vid=550f0269-af81-4f74-bed5-fe17c4459dfd","ios":"levelo://app?vid=550f0269-af81-4f74-bed5-fe17c4459dfd"},"vehicle_type_id":"4","last_reported":1732205508,"current_range_meters":0,"station_id":"ce4bhm92rcd13ifvqglg","pricing_plan_id":"cebpf4jnsgd1na2vs0mg"},{"bike_id":"9c37a5af-6b01-4e75-9657-7ef6bddc1bc6","system_id":"levelo_inurba_marseille","lat":43.33024,"lon":5.39041,"is_reserved":false,"is_disabled":false,"rental_uris":{"android":"levelo://app?vid=9c37a5af-6b01-4e75-9657-7ef6bddc1bc6","ios":"levelo://app?vid=9c37a5af-6b01-4e75-9657-7ef6bddc1bc6"},"vehicle_type_id":"4","last_reported":1732205508,"current_range_meters":27200,"station_id":"ce4bhr92rcd13ifvqhrg","pricing_plan_id":"cebpf4jnsgd1na2vs0mg"},{"bike_id":"1e5c7b22-6442-4f11-8f13-d09813d395f8","system_id":"levelo_inurba_marseille","lat":43.30321,"lon":5.40441,"is_reserved":false,"is_disabled":false,"rental_uris":{"android":"levelo://app?vid=1e5c7b22-6442-4f11-8f13-d09813d395f8","ios":"levelo://app?vid=1e5c7b22-6442-4f11-8f13-d09813d395f8"},"vehicle_type_id":"4","last_reported":1732205508,"current_range_meters":22400,"station_id":"ce4bh012rcd13ifvqd10","pricing_plan_id":"cebpf4jnsgd1na2vs0mg"},{"bike_id":"3585d018-4b66-4cf5-bca5-17fcec2fef21","system_id":"levelo_inurba_marseille","lat":43.23197,"lon":5.35554,"is_reserved":false,"is_disabled":false,"rental_uris":{"android":"levelo://app?vid=3585d018-4b66-4cf5-bca5-17fcec2fef21","ios":"levelo://app?vid=3585d018-4b66-4cf5-bca5-17fcec2fef21"},"vehicle_type_id":"4","last_reported":1732205508,"current_range_meters":32000,"station_id":"ce4bhu92rcd13ifvqi70","pricing_plan_id":"cebpf4jnsgd1na2vs0mg"},{"bike_id":"5f94102a-92bf-473a-a926-bc765900825f","system_id":"levelo_inurba_marseille","lat":43.30413,"lon":5.41279,"is_reserved":false,"is_disabled":false,"rental_uris":{"android":"levelo://app?vid=5f94102a-92bf-473a-a926-bc765900825f","ios":"levelo://app?vid=5f94102a-92bf-473a-a926-bc765900825f"},"vehicle_type_id":"4","last_reported":1732205508,"current_range_meters":30400,"station_id":"ce4bhop2rcd13ifvqh8g","pricing_plan_id":"cebpf4jnsgd1na2vs0mg"},{"bike_id":"7f67eab4-a851-414d-a7b0-e99e7a8fac51","system_id":"levelo_inurba_marseille","lat":43.28264,"lon":5.35054,"is_reserved":false,"is_disabled":false,"rental_uris":{"android":"levelo://app?vid=7f67eab4-a851-414d-a7b0-e99e7a8fac51","ios":"levelo://app?vid=7f67eab4-a851-414d-a7b0-e99e7a8fac51"},"vehicle_type_id":"4","last_reported":1732205508,"current_range_meters":40000,"station_id":"ce4bhbp2rcd13ifvqerg","pricing_plan_id":"cebpf4jnsgd1na2vs0mg"},{"bike_id":"96380978-8e0d-4ac1-b74e-6a547f8e2daf","system_id":"levelo_inurba_marseille","lat":43.27998,"lon":5.40015,"is_reserved":false,"is_disabled":false,"rental_uris":{"android":"levelo://app?vid=96380978-8e0d-4ac1-b74e-6a547f8e2daf","ios":"levelo://app?vid=96380978-8e0d-4ac1-b74e-6a547f8e2daf"},"vehicle_type_id":"4","last_reported":1732205508,"current_range_meters":31200,"station_id":"ce4bho92rcd13ifvqh4g","pricing_plan_id":"cebpf4jnsgd1na2vs0mg"},{"bike_id":"e57590cc-a844-462b-b95c-023047b497c3","system_id":"levelo_inurba_marseille","lat":43.26027,"lon":5.3755,"is_reserved":false,"is_disabled":false,"rental_uris":{"android":"levelo://app?vid=e57590cc-a844-462b-b95c-023047b497c3","ios":"levelo://app?vid=e57590cc-a844-462b-b95c-023047b497c3"},"vehicle_type_id":"4","last_reported":1732205508,"current_range_meters":37600,"station_id":"ce4bhgh2rcd13ifvqfa0","pricing_plan_id":"cebpf4jnsgd1na2vs0mg"},{"bike_id":"be7b2d5d-731a-4316-862b-04aae4d9b92d","system_id":"levelo_inurba_marseille","lat":43.25833,"lon":5.39438,"is_reserved":false,"is_disabled":false,"rental_uris":{"android":"levelo://app?vid=be7b2d5d-731a-4316-862b-04aae4d9b92d","ios":"levelo://app?vid=be7b2d5d-731a-4316-862b-04aae4d9b92d"},"vehicle_type_id":"4","last_reported":1732205508,"current_range_meters":11200,"station_id":"ce4bhip2rcd13ifvqft0","pricing_plan_id":"cebpf4jnsgd1na2vs0mg"},{"bike_id":"01fade1f-4c0e-41f5-a847-3ee1ed0ae04c","system_id":"levelo_inurba_marseille","lat":43.31321,"lon":5.39706,"is_reserved":false,"is_disabled":true,"rental_uris":{"android":"levelo://app?vid=01fade1f-4c0e-41f5-a847-3ee1ed0ae04c","ios":"levelo://app?vid=01fade1f-4c0e-41f5-a847-3ee1ed0ae04c"},"vehicle_type_id":"4","last_reported":1732205508,"current_range_meters":0,"station_id":"ce4bgvp2rcd13ifvqcu0","pricing_plan_id":"cebpf4jnsgd1na2vs0mg"},{"bike_id":"7ef9a5ef-b3b2-4ff2-82cc-f161ced30464","system_id":"levelo_inurba_marseille","lat":43.29417,"lon":5.38607,"is_reserved":false,"is_disabled":true,"rental_uris":{"android":"levelo://app?vid=7ef9a5ef-b3b2-4ff2-82cc-f161ced30464","ios":"levelo://app?vid=7ef9a5ef-b3b2-4ff2-82cc-f161ced30464"},"vehicle_type_id":"4","last_reported":1732205508,"current_range_meters":33600,"station_id":"ce4bh2h2rcd13ifvqdh0","pricing_plan_id":"cebpf4jnsgd1na2vs0mg"},{"bike_id":"8d0d6ffb-c601-46f3-aa68-598da61feba5","system_id":"levelo_inurba_marseille","lat":43.29919,"lon":5.37471,"is_reserved":false,"is_disabled":false,"rental_uris":{"android":"levelo://app?vid=8d0d6ffb-c601-46f3-aa68-598da61feba5","ios":"levelo://app?vid=8d0d6ffb-c601-46f3-aa68-598da61feba5"},"vehicle_type_id":"4","last_reported":1732205508,"current_range_meters":39200,"station_id":"ce4bgjh2rcd13ifvqbg0","pricing_plan_id":"cebpf4jnsgd1na2vs0mg"},{"bike_id":"2ba6429c-c7a9-414a-a11c-e9b7bcd1d8db","system_id":"levelo_inurba_marseille","lat":43.30299,"lon":5.36888,"is_reserved":false,"is_disabled":false,"rental_uris":{"android":"levelo://app?vid=2ba6429c-c7a9-414a-a11c-e9b7bcd1d8db","ios":"levelo://app?vid=2ba6429c-c7a9-414a-a11c-e9b7bcd1d8db"},"vehicle_type_id":"4","last_reported":1732205508,"current_range_meters":34000,"station_id":"ce4bgqh2rcd13ifvqc5g","pricing_plan_id":"cebpf4jnsgd1na2vs0mg"},{"bike_id":"8d5e8e54-f87c-49b3-8720-7e21078f8fcd","system_id":"levelo_inurba_marseille","lat":43.26485,"lon":5.39548,"is_reserved":false,"is_disabled":false,"rental_uris":{"android":"levelo://app?vid=8d5e8e54-f87c-49b3-8720-7e21078f8fcd","ios":"levelo://app?vid=8d5e8e54-f87c-49b3-8720-7e21078f8fcd"},"vehicle_type_id":"4","last_reported":1732205508,"current_range_meters":36400,"station_id":"ce4bhi12rcd13ifvqfq0","pricing_plan_id":"cebpf4jnsgd1na2vs0mg"},{"bike_id":"844cb461-f780-45f5-88b2-3951b51e6462","system_id":"levelo_inurba_marseille","lat":43.30116,"lon":5.37827,"is_reserved":false,"is_disabled":true,"rental_uris":{"android":"levelo://app?vid=844cb461-f780-45f5-88b2-3951b51e6462","ios":"levelo://app?vid=844cb461-f780-45f5-88b2-3951b51e6462"},"vehicle_type_id":"4","last_reported":1732205508,"current_range_meters":0,"station_id":"","pricing_plan_id":"cebpf4jnsgd1na2vs0mg"},{"bike_id":"141a6003-9c1b-40ba-b273-5abd7a8326b6","system_id":"levelo_inurba_marseille","lat":43.26562,"lon":5.37283,"is_reserved":false,"is_disabled":false,"rental_uris":{"android":"levelo://app?vid=141a6003-9c1b-40ba-b273-5abd7a8326b6","ios":"levelo://app?vid=141a6003-9c1b-40ba-b273-5abd7a8326b6"},"vehicle_type_id":"4","last_reported":1732205508,"current_range_meters":38800,"station_id":"ce4bhg12rcd13ifvqf70","pricing_plan_id":"cebpf4jnsgd1na2vs0mg"},{"bike_id":"51555b90-b7c7-4e79-bc4e-60c6b5e837a5","system_id":"levelo_inurba_marseille","lat":43.29622,"lon":5.37169,"is_reserved":false,"is_disabled":false,"rental_uris":{"android":"levelo://app?vid=51555b90-b7c7-4e79-bc4e-60c6b5e837a5","ios":"levelo://app?vid=51555b90-b7c7-4e79-bc4e-60c6b5e837a5"},"vehicle_type_id":"4","last_reported":1732205508,"current_range_meters":40000,"station_id":"ce4bgnh2rcd13ifvqc0g","pricing_plan_id":"cebpf4jnsgd1na2vs0mg"},{"bike_id":"dfcd2ccc-b6f2-449f-bcdf-73c1d65f4e21","system_id":"levelo_inurba_marseille","lat":43.3058,"lon":5.39356,"is_reserved":false,"is_disabled":false,"rental_uris":{"android":"levelo://app?vid=dfcd2ccc-b6f2-449f-bcdf-73c1d65f4e21","ios":"levelo://app?vid=dfcd2ccc-b6f2-449f-bcdf-73c1d65f4e21"},"vehicle_type_id":"4","last_reported":1732205508,"current_range_meters":32000,"station_id":"ce4bh0p2rcd13ifvqd80","pricing_plan_id":"cebpf4jnsgd1na2vs0mg"},{"bike_id":"cdaafd2d-0da1-4fac-9881-15c66a7cd7c0","system_id":"levelo_inurba_marseille","lat":43.23154,"lon":5.4371,"is_reserved":false,"is_disabled":false,"rental_uris":{"android":"levelo://app?vid=cdaafd2d-0da1-4fac-9881-15c66a7cd7c0","ios":"levelo://app?vid=cdaafd2d-0da1-4fac-9881-15c66a7cd7c0"},"vehicle_type_id":"4","last_reported":1732205508,"current_range_meters":40000,"station_id":"ce4bhmp2rcd13ifvqgog","pricing_plan_id":"cebpf4jnsgd1na2vs0mg"},{"bike_id":"a08ecdd5-22d5-4486-81c9-89d3c7400955","system_id":"levelo_inurba_marseille","lat":43.34397,"lon":5.42048,"is_reserved":false,"is_disabled":false,"rental_uris":{"android":"levelo://app?vid=a08ecdd5-22d5-4486-81c9-89d3c7400955","ios":"levelo://app?vid=a08ecdd5-22d5-4486-81c9-89d3c7400955"},"vehicle_type_id":"4","last_reported":1732205508,"current_range_meters":37600,"station_id":"","pricing_plan_id":"cebpf4jnsgd1na2vs0mg"},{"bike_id":"f4009844-4684-4602-bd36-d7b100275c80","system_id":"levelo_inurba_marseille","lat":43.31756,"lon":5.39011,"is_reserved":false,"is_disabled":false,"rental_uris":{"android":"levelo://app?vid=f4009844-4684-4602-bd36-d7b100275c80","ios":"levelo://app?vid=f4009844-4684-4602-bd36-d7b100275c80"},"vehicle_type_id":"4","last_reported":1732205508,"current_range_meters":23200,"station_id":"ce4bhqp2rcd13ifvqhng","pricing_plan_id":"cebpf4jnsgd1na2vs0mg"},{"bike_id":"8d5ad0a8-268e-4afd-be61-7919f93826c7","system_id":"levelo_inurba_marseille","lat":43.299033,"lon":5.374723,"is_reserved":false,"is_disabled":true,"rental_uris":{"android":"levelo://app?vid=8d5ad0a8-268e-4afd-be61-7919f93826c7","ios":"levelo://app?vid=8d5ad0a8-268e-4afd-be61-7919f93826c7"},"vehicle_type_id":"4","last_reported":1732205508,"current_range_meters":32400,"station_id":"ce4bgjh2rcd13ifvqbg0","pricing_plan_id":"cebpf4jnsgd1na2vs0mg"},{"bike_id":"7bc52ef8-b780-4f98-8fa2-b2125397c84e","system_id":"levelo_inurba_marseille","lat":43.32371,"lon":5.38885,"is_reserved":false,"is_disabled":false,"rental_uris":{"android":"levelo://app?vid=7bc52ef8-b780-4f98-8fa2-b2125397c84e","ios":"levelo://app?vid=7bc52ef8-b780-4f98-8fa2-b2125397c84e"},"vehicle_type_id":"4","last_reported":1732205508,"current_range_meters":30800,"station_id":"ce4bhqp2rcd13ifvqhog","pricing_plan_id":"cebpf4jnsgd1na2vs0mg"},{"bike_id":"a0f25dd1-45fa-41c5-a5e6-d0d0bea9c865","system_id":"levelo_inurba_marseille","lat":43.30871,"lon":5.39643,"is_reserved":false,"is_disabled":false,"rental_uris":{"android":"levelo://app?vid=a0f25dd1-45fa-41c5-a5e6-d0d0bea9c865","ios":"levelo://app?vid=a0f25dd1-45fa-41c5-a5e6-d0d0bea9c865"},"vehicle_type_id":"4","last_reported":1732205508,"current_range_meters":16400,"station_id":"ce4bh012rcd13ifvqcv0","pricing_plan_id":"cebpf4jnsgd1na2vs0mg"},{"bike_id":"3663e551-0669-4733-ba48-df97cefac38e","system_id":"levelo_inurba_marseille","lat":43.26551,"lon":5.37285,"is_reserved":false,"is_disabled":false,"rental_uris":{"android":"levelo://app?vid=3663e551-0669-4733-ba48-df97cefac38e","ios":"levelo://app?vid=3663e551-0669-4733-ba48-df97cefac38e"},"vehicle_type_id":"4","last_reported":1732205508,"current_range_meters":38800,"station_id":"ce4bhg12rcd13ifvqf70","pricing_plan_id":"cebpf4jnsgd1na2vs0mg"},{"bike_id":"cc14f000-00a3-41df-8a0b-9362e356611d","system_id":"levelo_inurba_marseille","lat":43.29675,"lon":5.37942,"is_reserved":false,"is_disabled":false,"rental_uris":{"android":"levelo://app?vid=cc14f000-00a3-41df-8a0b-9362e356611d","ios":"levelo://app?vid=cc14f000-00a3-41df-8a0b-9362e356611d"},"vehicle_type_id":"4","last_reported":1732205508,"current_range_meters":35200,"station_id":"","pricing_plan_id":"cebpf4jnsgd1na2vs0mg"},{"bike_id":"f3d1de11-ea0c-4809-8e9c-3957146035eb","system_id":"levelo_inurba_marseille","lat":43.26025,"lon":5.37553,"is_reserved":false,"is_disabled":false,"rental_uris":{"android":"levelo://app?vid=f3d1de11-ea0c-4809-8e9c-3957146035eb","ios":"levelo://app?vid=f3d1de11-ea0c-4809-8e9c-3957146035eb"},"vehicle_type_id":"4","last_reported":1732205508,"current_range_meters":30400,"station_id":"ce4bhgh2rcd13ifvqfa0","pricing_plan_id":"cebpf4jnsgd1na2vs0mg"},{"bike_id":"319639f6-c364-407e-9612-56f449d4d076","system_id":"levelo_inurba_marseille","lat":43.28073,"lon":5.39654,"is_reserved":false,"is_disabled":true,"rental_uris":{"android":"levelo://app?vid=319639f6-c364-407e-9612-56f449d4d076","ios":"levelo://app?vid=319639f6-c364-407e-9612-56f449d4d076"},"vehicle_type_id":"4","last_reported":1732205508,"current_range_meters":0,"station_id":"ce4bho12rcd13ifvqh2g","pricing_plan_id":"cebpf4jnsgd1na2vs0mg"},{"bike_id":"23e1e7fb-447a-4af5-9504-fd7579cff1bf","system_id":"levelo_inurba_marseille","lat":43.29528,"lon":5.38549,"is_reserved":false,"is_disabled":false,"rental_uris":{"android":"levelo://app?vid=23e1e7fb-447a-4af5-9504-fd7579cff1bf","ios":"levelo://app?vid=23e1e7fb-447a-4af5-9504-fd7579cff1bf"},"vehicle_type_id":"4","last_reported":1732205508,"current_range_meters":6400,"station_id":"ce4bgih2rcd13ifvqba0","pricing_plan_id":"cebpf4jnsgd1na2vs0mg"},{"bike_id":"b47cc489-18db-42be-83b9-6a3e71c75b93","system_id":"levelo_inurba_marseille","lat":43.27995,"lon":5.40018,"is_reserved":false,"is_disabled":false,"rental_uris":{"android":"levelo://app?vid=b47cc489-18db-42be-83b9-6a3e71c75b93","ios":"levelo://app?vid=b47cc489-18db-42be-83b9-6a3e71c75b93"},"vehicle_type_id":"4","last_reported":1732205508,"current_range_meters":36800,"station_id":"ce4bho92rcd13ifvqh4g","pricing_plan_id":"cebpf4jnsgd1na2vs0mg"},{"bike_id":"20327a65-d185-47c0-9c7a-139090f9fbdf","system_id":"levelo_inurba_marseille","lat":43.26215,"lon":5.3744,"is_reserved":false,"is_disabled":false,"rental_uris":{"android":"levelo://app?vid=20327a65-d185-47c0-9c7a-139090f9fbdf","ios":"levelo://app?vid=20327a65-d185-47c0-9c7a-139090f9fbdf"},"vehicle_type_id":"4","last_reported":1732205508,"current_range_meters":6800,"station_id":"ce4bhgp2rcd13ifvqfc0","pricing_plan_id":"cebpf4jnsgd1na2vs0mg"},{"bike_id":"91cbc128-559e-448a-b570-a00cf2a59da1","system_id":"levelo_inurba_marseille","lat":43.297114,"lon":5.366175,"is_reserved":false,"is_disabled":false,"rental_uris":{"android":"levelo://app?vid=91cbc128-559e-448a-b570-a00cf2a59da1","ios":"levelo://app?vid=91cbc128-559e-448a-b570-a00cf2a59da1"},"vehicle_type_id":"4","last_reported":1732205508,"current_range_meters":8000,"station_id":"","pricing_plan_id":"cebpf4jnsgd1na2vs0mg"},{"bike_id":"bd25b774-a4aa-4be7-ac9d-cbc352fd9bc3","system_id":"levelo_inurba_marseille","lat":43.2963,"lon":5.40594,"is_reserved":false,"is_disabled":false,"rental_uris":{"android":"levelo://app?vid=bd25b774-a4aa-4be7-ac9d-cbc352fd9bc3","ios":"levelo://app?vid=bd25b774-a4aa-4be7-ac9d-cbc352fd9bc3"},"vehicle_type_id":"4","last_reported":1732205508,"current_range_meters":20000,"station_id":"ce4bh0h2rcd13ifvqd60","pricing_plan_id":"cebpf4jnsgd1na2vs0mg"},{"bike_id":"53bbdfc0-4d63-4cc4-86e6-4ec910061123","system_id":"levelo_inurba_marseille","lat":43.30904,"lon":5.36708,"is_reserved":false,"is_disabled":true,"rental_uris":{"android":"levelo://app?vid=53bbdfc0-4d63-4cc4-86e6-4ec910061123","ios":"levelo://app?vid=53bbdfc0-4d63-4cc4-86e6-4ec910061123"},"vehicle_type_id":"4","last_reported":1732205508,"current_range_meters":0,"station_id":"","pricing_plan_id":"cebpf4jnsgd1na2vs0mg"},{"bike_id":"08d62434-66da-4920-8294-dbecd33c63f9","system_id":"levelo_inurba_marseille","lat":43.25718,"lon":5.41115,"is_reserved":false,"is_disabled":false,"rental_uris":{"android":"levelo://app?vid=08d62434-66da-4920-8294-dbecd33c63f9","ios":"levelo://app?vid=08d62434-66da-4920-8294-dbecd33c63f9"},"vehicle_type_id":"4","last_reported":1732205508,"current_range_meters":30800,"station_id":"ce4bhkp2rcd13ifvqgd0","pricing_plan_id":"cebpf4jnsgd1na2vs0mg"},{"bike_id":"b494a81b-9378-4a05-b7e5-9de8ae63939b","system_id":"levelo_inurba_marseille","lat":43.25015,"lon":5.38927,"is_reserved":false,"is_disabled":false,"rental_uris":{"android":"levelo://app?vid=b494a81b-9378-4a05-b7e5-9de8ae63939b","ios":"levelo://app?vid=b494a81b-9378-4a05-b7e5-9de8ae63939b"},"vehicle_type_id":"4","last_reported":1732205508,"current_range_meters":16400,"station_id":"ce4bhgp2rcd13ifvqfd0","pricing_plan_id":"cebpf4jnsgd1na2vs0mg"},{"bike_id":"4a00e718-468a-402b-a531-7524a4b6d689","system_id":"levelo_inurba_marseille","lat":43.2808,"lon":5.39661,"is_reserved":false,"is_disabled":false,"rental_uris":{"android":"levelo://app?vid=4a00e718-468a-402b-a531-7524a4b6d689","ios":"levelo://app?vid=4a00e718-468a-402b-a531-7524a4b6d689"},"vehicle_type_id":"4","last_reported":1732205508,"current_range_meters":15200,"station_id":"ce4bho12rcd13ifvqh2g","pricing_plan_id":"cebpf4jnsgd1na2vs0mg"},{"bike_id":"dfca3e23-b1dd-40cd-81b2-441e5e82c803","system_id":"levelo_inurba_marseille","lat":43.24162,"lon":5.36397,"is_reserved":false,"is_disabled":true,"rental_uris":{"android":"levelo://app?vid=dfca3e23-b1dd-40cd-81b2-441e5e82c803","ios":"levelo://app?vid=dfca3e23-b1dd-40cd-81b2-441e5e82c803"},"vehicle_type_id":"4","last_reported":1732205508,"current_range_meters":800,"station_id":"cpo36qri1sfpv3e86is0","pricing_plan_id":"cebpf4jnsgd1na2vs0mg"},{"bike_id":"3193222d-584b-4642-a1d8-0c04b2309736","system_id":"levelo_inurba_marseille","lat":43.33729,"lon":5.39187,"is_reserved":false,"is_disabled":false,"rental_uris":{"android":"levelo://app?vid=3193222d-584b-4642-a1d8-0c04b2309736","ios":"levelo://app?vid=3193222d-584b-4642-a1d8-0c04b2309736"},"vehicle_type_id":"4","last_reported":1732205508,"current_range_meters":7200,"station_id":"ce4bhr92rcd13ifvqhsg","pricing_plan_id":"cebpf4jnsgd1na2vs0mg"},{"bike_id":"3a46e1d3-e4ad-4ebb-b659-bc0d467c7b86","system_id":"levelo_inurba_marseille","lat":43.27659,"lon":5.38887,"is_reserved":false,"is_disabled":false,"rental_uris":{"android":"levelo://app?vid=3a46e1d3-e4ad-4ebb-b659-bc0d467c7b86","ios":"levelo://app?vid=3a46e1d3-e4ad-4ebb-b659-bc0d467c7b86"},"vehicle_type_id":"4","last_reported":1732205508,"current_range_meters":24800,"station_id":"ce4bhi12rcd13ifvqfo0","pricing_plan_id":"cebpf4jnsgd1na2vs0mg"},{"bike_id":"9ddf746b-7ccb-4403-9b07-8789945812a2","system_id":"levelo_inurba_marseille","lat":43.29718,"lon":5.37697,"is_reserved":false,"is_disabled":false,"rental_uris":{"android":"levelo://app?vid=9ddf746b-7ccb-4403-9b07-8789945812a2","ios":"levelo://app?vid=9ddf746b-7ccb-4403-9b07-8789945812a2"},"vehicle_type_id":"4","last_reported":1732205508,"current_range_meters":33600,"station_id":"ce4bgkh2rcd13ifvqbl0","pricing_plan_id":"cebpf4jnsgd1na2vs0mg"},{"bike_id":"0858f01e-bae7-4bda-9a63-6487c2935138","system_id":"levelo_inurba_marseille","lat":43.30237,"lon":5.40062,"is_reserved":false,"is_disabled":false,"rental_uris":{"android":"levelo://app?vid=0858f01e-bae7-4bda-9a63-6487c2935138","ios":"levelo://app?vid=0858f01e-bae7-4bda-9a63-6487c2935138"},"vehicle_type_id":"4","last_reported":1732205508,"current_range_meters":36800,"station_id":"ce4bgvh2rcd13ifvqcs0","pricing_plan_id":"cebpf4jnsgd1na2vs0mg"},{"bike_id":"452d503e-5d6c-436d-b77c-983f695025d1","system_id":"levelo_inurba_marseille","lat":43.30193,"lon":5.36613,"is_reserved":false,"is_disabled":false,"rental_uris":{"android":"levelo://app?vid=452d503e-5d6c-436d-b77c-983f695025d1","ios":"levelo://app?vid=452d503e-5d6c-436d-b77c-983f695025d1"},"vehicle_type_id":"4","last_reported":1732205508,"current_range_meters":38000,"station_id":"ce4bgrh2rcd13ifvqc8g","pricing_plan_id":"cebpf4jnsgd1na2vs0mg"},{"bike_id":"86e848a9-2c8e-4732-aad3-4603cf542914","system_id":"levelo_inurba_marseille","lat":43.26064,"lon":5.39397,"is_reserved":false,"is_disabled":false,"rental_uris":{"android":"levelo://app?vid=86e848a9-2c8e-4732-aad3-4603cf542914","ios":"levelo://app?vid=86e848a9-2c8e-4732-aad3-4603cf542914"},"vehicle_type_id":"4","last_reported":1732205508,"current_range_meters":7200,"station_id":"ce4bhh92rcd13ifvqfj0","pricing_plan_id":"cebpf4jnsgd1na2vs0mg"},{"bike_id":"52868f9c-a04f-4f53-ba0e-368986409670","system_id":"levelo_inurba_marseille","lat":43.29778,"lon":5.37105,"is_reserved":false,"is_disabled":false,"rental_uris":{"android":"levelo://app?vid=52868f9c-a04f-4f53-ba0e-368986409670","ios":"levelo://app?vid=52868f9c-a04f-4f53-ba0e-368986409670"},"vehicle_type_id":"4","last_reported":1732205508,"current_range_meters":20000,"station_id":"ce4bgop2rcd13ifvqc1g","pricing_plan_id":"cebpf4jnsgd1na2vs0mg"},{"bike_id":"6cb51520-83fd-4915-8f92-10797eb72a73","system_id":"levelo_inurba_marseille","lat":43.32337,"lon":5.40619,"is_reserved":false,"is_disabled":false,"rental_uris":{"android":"levelo://app?vid=6cb51520-83fd-4915-8f92-10797eb72a73","ios":"levelo://app?vid=6cb51520-83fd-4915-8f92-10797eb72a73"},"vehicle_type_id":"4","last_reported":1732205508,"current_range_meters":20800,"station_id":"ce4bhq92rcd13ifvqhjg","pricing_plan_id":"cebpf4jnsgd1na2vs0mg"},{"bike_id":"beb38203-3c72-444b-9302-f5ea33823b29","system_id":"levelo_inurba_marseille","lat":43.27999,"lon":5.40019,"is_reserved":false,"is_disabled":false,"rental_uris":{"android":"levelo://app?vid=beb38203-3c72-444b-9302-f5ea33823b29","ios":"levelo://app?vid=beb38203-3c72-444b-9302-f5ea33823b29"},"vehicle_type_id":"4","last_reported":1732205508,"current_range_meters":39200,"station_id":"ce4bho92rcd13ifvqh4g","pricing_plan_id":"cebpf4jnsgd1na2vs0mg"},{"bike_id":"612e2fb5-5bdd-4493-9d90-eaa49396d072","system_id":"levelo_inurba_marseille","lat":43.30563,"lon":5.36537,"is_reserved":false,"is_disabled":false,"rental_uris":{"android":"levelo://app?vid=612e2fb5-5bdd-4493-9d90-eaa49396d072","ios":"levelo://app?vid=612e2fb5-5bdd-4493-9d90-eaa49396d072"},"vehicle_type_id":"4","last_reported":1732205508,"current_range_meters":39200,"station_id":"ce4bgs12rcd13ifvqcag","pricing_plan_id":"cebpf4jnsgd1na2vs0mg"},{"bike_id":"24618c6c-9f3e-4480-ac3f-3dfa9b93dc99","system_id":"levelo_inurba_marseille","lat":43.27947,"lon":5.41055,"is_reserved":false,"is_disabled":true,"rental_uris":{"android":"levelo://app?vid=24618c6c-9f3e-4480-ac3f-3dfa9b93dc99","ios":"levelo://app?vid=24618c6c-9f3e-4480-ac3f-3dfa9b93dc99"},"vehicle_type_id":"4","last_reported":1732205508,"current_range_meters":0,"station_id":"ce4bhnp2rcd13ifvqh0g","pricing_plan_id":"cebpf4jnsgd1na2vs0mg"},{"bike_id":"c3ec7e40-773f-4777-8e58-706ca55bc1b9","system_id":"levelo_inurba_marseille","lat":43.299133,"lon":5.374789,"is_reserved":false,"is_disabled":false,"rental_uris":{"android":"levelo://app?vid=c3ec7e40-773f-4777-8e58-706ca55bc1b9","ios":"levelo://app?vid=c3ec7e40-773f-4777-8e58-706ca55bc1b9"},"vehicle_type_id":"4","last_reported":1732205508,"current_range_meters":34800,"station_id":"ce4bgjh2rcd13ifvqbg0","pricing_plan_id":"cebpf4jnsgd1na2vs0mg"},{"bike_id":"a9b905e2-a230-41a4-9fb0-d4caf4b80d0f","system_id":"levelo_inurba_marseille","lat":43.29874,"lon":5.39729,"is_reserved":false,"is_disabled":false,"rental_uris":{"android":"levelo://app?vid=a9b905e2-a230-41a4-9fb0-d4caf4b80d0f","ios":"levelo://app?vid=a9b905e2-a230-41a4-9fb0-d4caf4b80d0f"},"vehicle_type_id":"4","last_reported":1732205508,"current_range_meters":39200,"station_id":"ce4bh0h2rcd13ifvqd50","pricing_plan_id":"cebpf4jnsgd1na2vs0mg"},{"bike_id":"5c2287b0-f2a9-4351-84ca-e43db36b7159","system_id":"levelo_inurba_marseille","lat":43.2957,"lon":5.39974,"is_reserved":false,"is_disabled":false,"rental_uris":{"android":"levelo://app?vid=5c2287b0-f2a9-4351-84ca-e43db36b7159","ios":"levelo://app?vid=5c2287b0-f2a9-4351-84ca-e43db36b7159"},"vehicle_type_id":"4","last_reported":1732205508,"current_range_meters":38000,"station_id":"ce4bh312rcd13ifvqdj0","pricing_plan_id":"cebpf4jnsgd1na2vs0mg"},{"bike_id":"6f3a2c32-febe-4d20-b478-1904fbbc827c","system_id":"levelo_inurba_marseille","lat":43.30599,"lon":5.37209,"is_reserved":false,"is_disabled":false,"rental_uris":{"android":"levelo://app?vid=6f3a2c32-febe-4d20-b478-1904fbbc827c","ios":"levelo://app?vid=6f3a2c32-febe-4d20-b478-1904fbbc827c"},"vehicle_type_id":"4","last_reported":1732205508,"current_range_meters":14400,"station_id":"ce4bgqh2rcd13ifvqc4g","pricing_plan_id":"cebpf4jnsgd1na2vs0mg"},{"bike_id":"547f0bff-d26b-4849-b94d-77cf4a5a869f","system_id":"levelo_inurba_marseille","lat":43.23961,"lon":5.3662,"is_reserved":false,"is_disabled":false,"rental_uris":{"android":"levelo://app?vid=547f0bff-d26b-4849-b94d-77cf4a5a869f","ios":"levelo://app?vid=547f0bff-d26b-4849-b94d-77cf4a5a869f"},"vehicle_type_id":"4","last_reported":1732205508,"current_range_meters":38000,"station_id":"ce4bhi12rcd13ifvqfp0","pricing_plan_id":"cebpf4jnsgd1na2vs0mg"},{"bike_id":"f739db3d-e57b-4e04-a4d0-90a64085c96d","system_id":"levelo_inurba_marseille","lat":43.23964,"lon":5.36641,"is_reserved":false,"is_disabled":false,"rental_uris":{"android":"levelo://app?vid=f739db3d-e57b-4e04-a4d0-90a64085c96d","ios":"levelo://app?vid=f739db3d-e57b-4e04-a4d0-90a64085c96d"},"vehicle_type_id":"4","last_reported":1732205508,"current_range_meters":37600,"station_id":"ce4bhi12rcd13ifvqfp0","pricing_plan_id":"cebpf4jnsgd1na2vs0mg"},{"bike_id":"cd3c5a38-b1c1-4c9f-8b4c-9464c2b51b41","system_id":"levelo_inurba_marseille","lat":43.28858,"lon":5.39309,"is_reserved":false,"is_disabled":false,"rental_uris":{"android":"levelo://app?vid=cd3c5a38-b1c1-4c9f-8b4c-9464c2b51b41","ios":"levelo://app?vid=cd3c5a38-b1c1-4c9f-8b4c-9464c2b51b41"},"vehicle_type_id":"4","last_reported":1732205508,"current_range_meters":17600,"station_id":"ce4bh2p2rcd13ifvqdi0","pricing_plan_id":"cebpf4jnsgd1na2vs0mg"},{"bike_id":"8fff82c0-94c8-4109-9d0c-0de6261ecbde","system_id":"levelo_inurba_marseille","lat":43.265521,"lon":5.372949,"is_reserved":false,"is_disabled":false,"rental_uris":{"android":"levelo://app?vid=8fff82c0-94c8-4109-9d0c-0de6261ecbde","ios":"levelo://app?vid=8fff82c0-94c8-4109-9d0c-0de6261ecbde"},"vehicle_type_id":"4","last_reported":1732205508,"current_range_meters":38400,"station_id":"ce4bhg12rcd13ifvqf70","pricing_plan_id":"cebpf4jnsgd1na2vs0mg"},{"bike_id":"878553d6-d36a-489c-8a2e-25075db79977","system_id":"levelo_inurba_marseille","lat":43.299,"lon":5.37465,"is_reserved":false,"is_disabled":false,"rental_uris":{"android":"levelo://app?vid=878553d6-d36a-489c-8a2e-25075db79977","ios":"levelo://app?vid=878553d6-d36a-489c-8a2e-25075db79977"},"vehicle_type_id":"4","last_reported":1732205508,"current_range_meters":36400,"station_id":"ce4bgjh2rcd13ifvqbg0","pricing_plan_id":"cebpf4jnsgd1na2vs0mg"},{"bike_id":"1a51f640-6b48-41c3-8e7d-c6952041deac","system_id":"levelo_inurba_marseille","lat":43.29802,"lon":5.40411,"is_reserved":false,"is_disabled":false,"rental_uris":{"android":"levelo://app?vid=1a51f640-6b48-41c3-8e7d-c6952041deac","ios":"levelo://app?vid=1a51f640-6b48-41c3-8e7d-c6952041deac"},"vehicle_type_id":"4","last_reported":1732205508,"current_range_meters":38800,"station_id":"ce4bh112rcd13ifvqd90","pricing_plan_id":"cebpf4jnsgd1na2vs0mg"},{"bike_id":"e357a451-4632-428c-b40c-c5324a95fc38","system_id":"levelo_inurba_marseille","lat":43.30125,"lon":5.39855,"is_reserved":false,"is_disabled":false,"rental_uris":{"android":"levelo://app?vid=e357a451-4632-428c-b40c-c5324a95fc38","ios":"levelo://app?vid=e357a451-4632-428c-b40c-c5324a95fc38"},"vehicle_type_id":"4","last_reported":1732205508,"current_range_meters":26000,"station_id":"ce4bh0h2rcd13ifvqd40","pricing_plan_id":"cebpf4jnsgd1na2vs0mg"},{"bike_id":"583f481d-a0aa-4719-ac40-4e63a8b7d720","system_id":"levelo_inurba_marseille","lat":43.29876,"lon":5.39733,"is_reserved":false,"is_disabled":false,"rental_uris":{"android":"levelo://app?vid=583f481d-a0aa-4719-ac40-4e63a8b7d720","ios":"levelo://app?vid=583f481d-a0aa-4719-ac40-4e63a8b7d720"},"vehicle_type_id":"4","last_reported":1732205508,"current_range_meters":24800,"station_id":"ce4bh0h2rcd13ifvqd50","pricing_plan_id":"cebpf4jnsgd1na2vs0mg"},{"bike_id":"43c8e9b3-9b4a-4510-a969-75b32db670f0","system_id":"levelo_inurba_marseille","lat":43.26788,"lon":5.39413,"is_reserved":false,"is_disabled":true,"rental_uris":{"android":"levelo://app?vid=43c8e9b3-9b4a-4510-a969-75b32db670f0","ios":"levelo://app?vid=43c8e9b3-9b4a-4510-a969-75b32db670f0"},"vehicle_type_id":"4","last_reported":1732205508,"current_range_meters":0,"station_id":"ce4bhh12rcd13ifvqfg0","pricing_plan_id":"cebpf4jnsgd1na2vs0mg"},{"bike_id":"1904e4d6-e1e0-456f-9800-8b0e0e7107b4","system_id":"levelo_inurba_marseille","lat":43.23152,"lon":5.43708,"is_reserved":false,"is_disabled":false,"rental_uris":{"android":"levelo://app?vid=1904e4d6-e1e0-456f-9800-8b0e0e7107b4","ios":"levelo://app?vid=1904e4d6-e1e0-456f-9800-8b0e0e7107b4"},"vehicle_type_id":"4","last_reported":1732205508,"current_range_meters":40000,"station_id":"ce4bhmp2rcd13ifvqgog","pricing_plan_id":"cebpf4jnsgd1na2vs0mg"},{"bike_id":"d7d39cd4-9505-42ba-a399-6988ebbba2ce","system_id":"levelo_inurba_marseille","lat":43.29035,"lon":5.3865,"is_reserved":false,"is_disabled":false,"rental_uris":{"android":"levelo://app?vid=d7d39cd4-9505-42ba-a399-6988ebbba2ce","ios":"levelo://app?vid=d7d39cd4-9505-42ba-a399-6988ebbba2ce"},"vehicle_type_id":"4","last_reported":1732205508,"current_range_meters":14800,"station_id":"ce4bh4p2rcd13ifvqe0g","pricing_plan_id":"cebpf4jnsgd1na2vs0mg"},{"bike_id":"910acaca-1fd5-47a9-8099-4a1ea3edf288","system_id":"levelo_inurba_marseille","lat":43.30801,"lon":5.38148,"is_reserved":false,"is_disabled":false,"rental_uris":{"android":"levelo://app?vid=910acaca-1fd5-47a9-8099-4a1ea3edf288","ios":"levelo://app?vid=910acaca-1fd5-47a9-8099-4a1ea3edf288"},"vehicle_type_id":"4","last_reported":1732205508,"current_range_meters":39200,"station_id":"ce4bgt12rcd13ifvqce0","pricing_plan_id":"cebpf4jnsgd1na2vs0mg"},{"bike_id":"f67160eb-631a-4e42-9459-9f8a98ab2580","system_id":"levelo_inurba_marseille","lat":43.289154,"lon":5.384191,"is_reserved":false,"is_disabled":false,"rental_uris":{"android":"levelo://app?vid=f67160eb-631a-4e42-9459-9f8a98ab2580","ios":"levelo://app?vid=f67160eb-631a-4e42-9459-9f8a98ab2580"},"vehicle_type_id":"4","last_reported":1732205508,"current_range_meters":30800,"station_id":"ce4bh612rcd13ifvqe6g","pricing_plan_id":"cebpf4jnsgd1na2vs0mg"},{"bike_id":"cb1b1694-dc19-49c5-96b6-c2925c047f87","system_id":"levelo_inurba_marseille","lat":43.279,"lon":5.3801,"is_reserved":false,"is_disabled":false,"rental_uris":{"android":"levelo://app?vid=cb1b1694-dc19-49c5-96b6-c2925c047f87","ios":"levelo://app?vid=cb1b1694-dc19-49c5-96b6-c2925c047f87"},"vehicle_type_id":"4","last_reported":1732205508,"current_range_meters":17600,"station_id":"ce4bhf92rcd13ifvqf50","pricing_plan_id":"cebpf4jnsgd1na2vs0mg"},{"bike_id":"1eff5ce5-2d56-4465-a12c-60db9ec2175a","system_id":"levelo_inurba_marseille","lat":43.22933,"lon":5.35382,"is_reserved":false,"is_disabled":false,"rental_uris":{"android":"levelo://app?vid=1eff5ce5-2d56-4465-a12c-60db9ec2175a","ios":"levelo://app?vid=1eff5ce5-2d56-4465-a12c-60db9ec2175a"},"vehicle_type_id":"4","last_reported":1732205508,"current_range_meters":9600,"station_id":"cpo3532slgdg3j2ikp40","pricing_plan_id":"cebpf4jnsgd1na2vs0mg"},{"bike_id":"2cd1d74c-4c67-4b5c-960a-f1b1f6ec0f27","system_id":"levelo_inurba_marseille","lat":43.27675,"lon":5.38876,"is_reserved":false,"is_disabled":false,"rental_uris":{"android":"levelo://app?vid=2cd1d74c-4c67-4b5c-960a-f1b1f6ec0f27","ios":"levelo://app?vid=2cd1d74c-4c67-4b5c-960a-f1b1f6ec0f27"},"vehicle_type_id":"4","last_reported":1732205508,"current_range_meters":38800,"station_id":"ce4bhi12rcd13ifvqfo0","pricing_plan_id":"cebpf4jnsgd1na2vs0mg"},{"bike_id":"ce6d46e5-4223-4bce-a0db-85f63ca84039","system_id":"levelo_inurba_marseille","lat":43.30137,"lon":5.40069,"is_reserved":false,"is_disabled":true,"rental_uris":{"android":"levelo://app?vid=ce6d46e5-4223-4bce-a0db-85f63ca84039","ios":"levelo://app?vid=ce6d46e5-4223-4bce-a0db-85f63ca84039"},"vehicle_type_id":"4","last_reported":1732205508,"current_range_meters":1600,"station_id":"","pricing_plan_id":"cebpf4jnsgd1na2vs0mg"},{"bike_id":"dc815649-e3e3-48aa-b0fd-022cdb8ac58a","system_id":"levelo_inurba_marseille","lat":43.32364,"lon":5.38889,"is_reserved":false,"is_disabled":false,"rental_uris":{"android":"levelo://app?vid=dc815649-e3e3-48aa-b0fd-022cdb8ac58a","ios":"levelo://app?vid=dc815649-e3e3-48aa-b0fd-022cdb8ac58a"},"vehicle_type_id":"4","last_reported":1732205508,"current_range_meters":8000,"station_id":"ce4bhqp2rcd13ifvqhog","pricing_plan_id":"cebpf4jnsgd1na2vs0mg"},{"bike_id":"47310b0f-0522-4a10-9e11-cb19d879d8b0","system_id":"levelo_inurba_marseille","lat":43.29736,"lon":5.37683,"is_reserved":false,"is_disabled":false,"rental_uris":{"android":"levelo://app?vid=47310b0f-0522-4a10-9e11-cb19d879d8b0","ios":"levelo://app?vid=47310b0f-0522-4a10-9e11-cb19d879d8b0"},"vehicle_type_id":"4","last_reported":1732205508,"current_range_meters":38800,"station_id":"ce4bgkh2rcd13ifvqbl0","pricing_plan_id":"cebpf4jnsgd1na2vs0mg"},{"bike_id":"5c801927-33bd-48a8-8984-1ac5bb499b83","system_id":"levelo_inurba_marseille","lat":43.30531,"lon":5.36527,"is_reserved":false,"is_disabled":false,"rental_uris":{"android":"levelo://app?vid=5c801927-33bd-48a8-8984-1ac5bb499b83","ios":"levelo://app?vid=5c801927-33bd-48a8-8984-1ac5bb499b83"},"vehicle_type_id":"4","last_reported":1732205508,"current_range_meters":37600,"station_id":"ce4bgs12rcd13ifvqcag","pricing_plan_id":"cebpf4jnsgd1na2vs0mg"},{"bike_id":"704d7279-ce43-4e09-83e8-3179895321be","system_id":"levelo_inurba_marseille","lat":43.25647,"lon":5.39408,"is_reserved":false,"is_disabled":false,"rental_uris":{"android":"levelo://app?vid=704d7279-ce43-4e09-83e8-3179895321be","ios":"levelo://app?vid=704d7279-ce43-4e09-83e8-3179895321be"},"vehicle_type_id":"4","last_reported":1732205508,"current_range_meters":36400,"station_id":"ce4bhl92rcd13ifvqghg","pricing_plan_id":"cebpf4jnsgd1na2vs0mg"},{"bike_id":"6df34bba-81e7-4094-aeb7-8d31c4d64160","system_id":"levelo_inurba_marseille","lat":43.31076,"lon":5.38353,"is_reserved":false,"is_disabled":false,"rental_uris":{"android":"levelo://app?vid=6df34bba-81e7-4094-aeb7-8d31c4d64160","ios":"levelo://app?vid=6df34bba-81e7-4094-aeb7-8d31c4d64160"},"vehicle_type_id":"4","last_reported":1732205508,"current_range_meters":26000,"station_id":"ce4bgv92rcd13ifvqcr0","pricing_plan_id":"cebpf4jnsgd1na2vs0mg"},{"bike_id":"7084b4e4-0aa4-43fa-aa88-45ed70929bf1","system_id":"levelo_inurba_marseille","lat":43.27813,"lon":5.40715,"is_reserved":false,"is_disabled":false,"rental_uris":{"android":"levelo://app?vid=7084b4e4-0aa4-43fa-aa88-45ed70929bf1","ios":"levelo://app?vid=7084b4e4-0aa4-43fa-aa88-45ed70929bf1"},"vehicle_type_id":"4","last_reported":1732205508,"current_range_meters":15200,"station_id":"ce4bhnh2rcd13ifvqgtg","pricing_plan_id":"cebpf4jnsgd1na2vs0mg"},{"bike_id":"6e1202d7-79a0-4929-9ed3-a6242fdc8587","system_id":"levelo_inurba_marseille","lat":43.25578,"lon":5.38232,"is_reserved":false,"is_disabled":false,"rental_uris":{"android":"levelo://app?vid=6e1202d7-79a0-4929-9ed3-a6242fdc8587","ios":"levelo://app?vid=6e1202d7-79a0-4929-9ed3-a6242fdc8587"},"vehicle_type_id":"4","last_reported":1732205508,"current_range_meters":37600,"station_id":"ce4bhih2rcd13ifvqfs0","pricing_plan_id":"cebpf4jnsgd1na2vs0mg"},{"bike_id":"41fb61b0-58e5-4fa8-99cb-8367876e90f3","system_id":"levelo_inurba_marseille","lat":43.30876,"lon":5.37198,"is_reserved":false,"is_disabled":false,"rental_uris":{"android":"levelo://app?vid=41fb61b0-58e5-4fa8-99cb-8367876e90f3","ios":"levelo://app?vid=41fb61b0-58e5-4fa8-99cb-8367876e90f3"},"vehicle_type_id":"4","last_reported":1732205508,"current_range_meters":6000,"station_id":"ce4bguh2rcd13ifvqckg","pricing_plan_id":"cebpf4jnsgd1na2vs0mg"},{"bike_id":"87bdbe60-5511-4418-a4e4-682b5da37bfd","system_id":"levelo_inurba_marseille","lat":43.25868,"lon":5.39902,"is_reserved":false,"is_disabled":false,"rental_uris":{"android":"levelo://app?vid=87bdbe60-5511-4418-a4e4-682b5da37bfd","ios":"levelo://app?vid=87bdbe60-5511-4418-a4e4-682b5da37bfd"},"vehicle_type_id":"4","last_reported":1732205508,"current_range_meters":39200,"station_id":"ce4bhl92rcd13ifvqghg","pricing_plan_id":"cebpf4jnsgd1na2vs0mg"},{"bike_id":"3fbe99a9-12ca-4576-a9f7-40446b8230d0","system_id":"levelo_inurba_marseille","lat":43.23155,"lon":5.43706,"is_reserved":false,"is_disabled":false,"rental_uris":{"android":"levelo://app?vid=3fbe99a9-12ca-4576-a9f7-40446b8230d0","ios":"levelo://app?vid=3fbe99a9-12ca-4576-a9f7-40446b8230d0"},"vehicle_type_id":"4","last_reported":1732205508,"current_range_meters":25600,"station_id":"ce4bhmp2rcd13ifvqgog","pricing_plan_id":"cebpf4jnsgd1na2vs0mg"},{"bike_id":"7cca241a-7fad-404f-a178-6ca5c67b7e71","system_id":"levelo_inurba_marseille","lat":43.23187,"lon":5.39985,"is_reserved":false,"is_disabled":false,"rental_uris":{"android":"levelo://app?vid=7cca241a-7fad-404f-a178-6ca5c67b7e71","ios":"levelo://app?vid=7cca241a-7fad-404f-a178-6ca5c67b7e71"},"vehicle_type_id":"4","last_reported":1732205508,"current_range_meters":17200,"station_id":"ce4bhn12rcd13ifvqgqg","pricing_plan_id":"cebpf4jnsgd1na2vs0mg"},{"bike_id":"e58efa29-13df-49b8-9963-b5edab4f5261","system_id":"levelo_inurba_marseille","lat":43.29093,"lon":5.38145,"is_reserved":false,"is_disabled":false,"rental_uris":{"android":"levelo://app?vid=e58efa29-13df-49b8-9963-b5edab4f5261","ios":"levelo://app?vid=e58efa29-13df-49b8-9963-b5edab4f5261"},"vehicle_type_id":"4","last_reported":1732205508,"current_range_meters":13600,"station_id":"ce4bh512rcd13ifvqe2g","pricing_plan_id":"cebpf4jnsgd1na2vs0mg"},{"bike_id":"88bb727e-33e7-42cb-93ec-e9f7d655be03","system_id":"levelo_inurba_marseille","lat":43.31532,"lon":5.380417,"is_reserved":false,"is_disabled":false,"rental_uris":{"android":"levelo://app?vid=88bb727e-33e7-42cb-93ec-e9f7d655be03","ios":"levelo://app?vid=88bb727e-33e7-42cb-93ec-e9f7d655be03"},"vehicle_type_id":"4","last_reported":1732205508,"current_range_meters":37600,"station_id":"ce4bhsp2rcd13ifvqi50","pricing_plan_id":"cebpf4jnsgd1na2vs0mg"},{"bike_id":"42d6fa67-3d3d-427c-a63a-15e267a4a6ee","system_id":"levelo_inurba_marseille","lat":43.27951,"lon":5.41053,"is_reserved":false,"is_disabled":true,"rental_uris":{"android":"levelo://app?vid=42d6fa67-3d3d-427c-a63a-15e267a4a6ee","ios":"levelo://app?vid=42d6fa67-3d3d-427c-a63a-15e267a4a6ee"},"vehicle_type_id":"4","last_reported":1732205508,"current_range_meters":22800,"station_id":"ce4bhnp2rcd13ifvqh0g","pricing_plan_id":"cebpf4jnsgd1na2vs0mg"},{"bike_id":"c534a875-bdfb-439d-8fdd-faa757628176","system_id":"levelo_inurba_marseille","lat":43.23964,"lon":5.36637,"is_reserved":false,"is_disabled":false,"rental_uris":{"android":"levelo://app?vid=c534a875-bdfb-439d-8fdd-faa757628176","ios":"levelo://app?vid=c534a875-bdfb-439d-8fdd-faa757628176"},"vehicle_type_id":"4","last_reported":1732205508,"current_range_meters":40000,"station_id":"ce4bhi12rcd13ifvqfp0","pricing_plan_id":"cebpf4jnsgd1na2vs0mg"},{"bike_id":"65216bdb-c743-4bf5-8b7b-2f04816d1afd","system_id":"levelo_inurba_marseille","lat":43.29625,"lon":5.37153,"is_reserved":false,"is_disabled":false,"rental_uris":{"android":"levelo://app?vid=65216bdb-c743-4bf5-8b7b-2f04816d1afd","ios":"levelo://app?vid=65216bdb-c743-4bf5-8b7b-2f04816d1afd"},"vehicle_type_id":"4","last_reported":1732205508,"current_range_meters":38800,"station_id":"ce4bgnh2rcd13ifvqc0g","pricing_plan_id":"cebpf4jnsgd1na2vs0mg"},{"bike_id":"1961bc51-373a-428c-96e7-5732c1bba3d1","system_id":"levelo_inurba_marseille","lat":43.32291,"lon":5.38275,"is_reserved":false,"is_disabled":false,"rental_uris":{"android":"levelo://app?vid=1961bc51-373a-428c-96e7-5732c1bba3d1","ios":"levelo://app?vid=1961bc51-373a-428c-96e7-5732c1bba3d1"},"vehicle_type_id":"4","last_reported":1732205508,"current_range_meters":37600,"station_id":"ce4bhr12rcd13ifvqhqg","pricing_plan_id":"cebpf4jnsgd1na2vs0mg"},{"bike_id":"b40ede3d-3df1-4e75-aa7c-f784505f0ad9","system_id":"levelo_inurba_marseille","lat":43.32002,"lon":5.38157,"is_reserved":false,"is_disabled":false,"rental_uris":{"android":"levelo://app?vid=b40ede3d-3df1-4e75-aa7c-f784505f0ad9","ios":"levelo://app?vid=b40ede3d-3df1-4e75-aa7c-f784505f0ad9"},"vehicle_type_id":"4","last_reported":1732205508,"current_range_meters":40000,"station_id":"ce4bhr12rcd13ifvqhpg","pricing_plan_id":"cebpf4jnsgd1na2vs0mg"},{"bike_id":"df865798-ed82-4fbb-9150-7511d5063cd3","system_id":"levelo_inurba_marseille","lat":43.29765,"lon":5.37092,"is_reserved":false,"is_disabled":false,"rental_uris":{"android":"levelo://app?vid=df865798-ed82-4fbb-9150-7511d5063cd3","ios":"levelo://app?vid=df865798-ed82-4fbb-9150-7511d5063cd3"},"vehicle_type_id":"4","last_reported":1732205508,"current_range_meters":19200,"station_id":"ce4bgop2rcd13ifvqc1g","pricing_plan_id":"cebpf4jnsgd1na2vs0mg"},{"bike_id":"01c81827-d820-4edc-9a26-38eac8bf434e","system_id":"levelo_inurba_marseille","lat":43.30129,"lon":5.38787,"is_reserved":false,"is_disabled":false,"rental_uris":{"android":"levelo://app?vid=01c81827-d820-4edc-9a26-38eac8bf434e","ios":"levelo://app?vid=01c81827-d820-4edc-9a26-38eac8bf434e"},"vehicle_type_id":"4","last_reported":1732205508,"current_range_meters":24800,"station_id":"ce4bghh2rcd13ifvqb60","pricing_plan_id":"cebpf4jnsgd1na2vs0mg"},{"bike_id":"8655756e-f448-4de5-9e0e-9a796ee4da55","system_id":"levelo_inurba_marseille","lat":43.3026,"lon":5.3718,"is_reserved":false,"is_disabled":false,"rental_uris":{"android":"levelo://app?vid=8655756e-f448-4de5-9e0e-9a796ee4da55","ios":"levelo://app?vid=8655756e-f448-4de5-9e0e-9a796ee4da55"},"vehicle_type_id":"4","last_reported":1732205508,"current_range_meters":8400,"station_id":"ce4bh0h2rcd13ifvqd60","pricing_plan_id":"cebpf4jnsgd1na2vs0mg"},{"bike_id":"feed5551-c553-407a-bbf5-3ef6b95f6b71","system_id":"levelo_inurba_marseille","lat":43.32655,"lon":5.40993,"is_reserved":false,"is_disabled":false,"rental_uris":{"android":"levelo://app?vid=feed5551-c553-407a-bbf5-3ef6b95f6b71","ios":"levelo://app?vid=feed5551-c553-407a-bbf5-3ef6b95f6b71"},"vehicle_type_id":"4","last_reported":1732205508,"current_range_meters":32400,"station_id":"ce4bhpp2rcd13ifvqhgg","pricing_plan_id":"cebpf4jnsgd1na2vs0mg"},{"bike_id":"0363f6b8-9fdb-4b8a-91ef-b30e4d4cdc5a","system_id":"levelo_inurba_marseille","lat":43.3013,"lon":5.39861,"is_reserved":false,"is_disabled":false,"rental_uris":{"android":"levelo://app?vid=0363f6b8-9fdb-4b8a-91ef-b30e4d4cdc5a","ios":"levelo://app?vid=0363f6b8-9fdb-4b8a-91ef-b30e4d4cdc5a"},"vehicle_type_id":"4","last_reported":1732205508,"current_range_meters":38800,"station_id":"ce4bh0h2rcd13ifvqd40","pricing_plan_id":"cebpf4jnsgd1na2vs0mg"},{"bike_id":"552ae1f9-34eb-4d70-a19b-3616d3661778","system_id":"levelo_inurba_marseille","lat":43.33713,"lon":5.39178,"is_reserved":false,"is_disabled":false,"rental_uris":{"android":"levelo://app?vid=552ae1f9-34eb-4d70-a19b-3616d3661778","ios":"levelo://app?vid=552ae1f9-34eb-4d70-a19b-3616d3661778"},"vehicle_type_id":"4","last_reported":1732205508,"current_range_meters":29600,"station_id":"ce4bhr92rcd13ifvqhsg","pricing_plan_id":"cebpf4jnsgd1na2vs0mg"},{"bike_id":"1bf91585-1655-41ca-aa3f-ff0ba6e8cc52","system_id":"levelo_inurba_marseille","lat":43.33027,"lon":5.3904,"is_reserved":false,"is_disabled":false,"rental_uris":{"android":"levelo://app?vid=1bf91585-1655-41ca-aa3f-ff0ba6e8cc52","ios":"levelo://app?vid=1bf91585-1655-41ca-aa3f-ff0ba6e8cc52"},"vehicle_type_id":"4","last_reported":1732205508,"current_range_meters":40000,"station_id":"ce4bhr92rcd13ifvqhrg","pricing_plan_id":"cebpf4jnsgd1na2vs0mg"},{"bike_id":"c7918193-fa65-4835-86b6-87f36f654569","system_id":"levelo_inurba_marseille","lat":43.2315,"lon":5.43725,"is_reserved":false,"is_disabled":false,"rental_uris":{"android":"levelo://app?vid=c7918193-fa65-4835-86b6-87f36f654569","ios":"levelo://app?vid=c7918193-fa65-4835-86b6-87f36f654569"},"vehicle_type_id":"4","last_reported":1732205508,"current_range_meters":23200,"station_id":"ce4bhmp2rcd13ifvqgog","pricing_plan_id":"cebpf4jnsgd1na2vs0mg"},{"bike_id":"6178f234-9efb-45f7-9365-bc8bed638c43","system_id":"levelo_inurba_marseille","lat":43.23184,"lon":5.39997,"is_reserved":false,"is_disabled":false,"rental_uris":{"android":"levelo://app?vid=6178f234-9efb-45f7-9365-bc8bed638c43","ios":"levelo://app?vid=6178f234-9efb-45f7-9365-bc8bed638c43"},"vehicle_type_id":"4","last_reported":1732205508,"current_range_meters":10000,"station_id":"ce4bhn12rcd13ifvqgqg","pricing_plan_id":"cebpf4jnsgd1na2vs0mg"},{"bike_id":"7a942108-16ea-4f98-9d80-82c238759071","system_id":"levelo_inurba_marseille","lat":43.29579,"lon":5.39963,"is_reserved":false,"is_disabled":true,"rental_uris":{"android":"levelo://app?vid=7a942108-16ea-4f98-9d80-82c238759071","ios":"levelo://app?vid=7a942108-16ea-4f98-9d80-82c238759071"},"vehicle_type_id":"4","last_reported":1732205508,"current_range_meters":32800,"station_id":"ce4bh312rcd13ifvqdj0","pricing_plan_id":"cebpf4jnsgd1na2vs0mg"},{"bike_id":"028e5427-36e2-49e1-b3db-260058fffb58","system_id":"levelo_inurba_marseille","lat":43.25572,"lon":5.38225,"is_reserved":false,"is_disabled":false,"rental_uris":{"android":"levelo://app?vid=028e5427-36e2-49e1-b3db-260058fffb58","ios":"levelo://app?vid=028e5427-36e2-49e1-b3db-260058fffb58"},"vehicle_type_id":"4","last_reported":1732205508,"current_range_meters":22800,"station_id":"ce4bhih2rcd13ifvqfs0","pricing_plan_id":"cebpf4jnsgd1na2vs0mg"},{"bike_id":"bc9c6c73-c6bb-4453-9bd1-1b2c3f6c4d2c","system_id":"levelo_inurba_marseille","lat":43.28942,"lon":5.39639,"is_reserved":false,"is_disabled":false,"rental_uris":{"android":"levelo://app?vid=bc9c6c73-c6bb-4453-9bd1-1b2c3f6c4d2c","ios":"levelo://app?vid=bc9c6c73-c6bb-4453-9bd1-1b2c3f6c4d2c"},"vehicle_type_id":"4","last_reported":1732205508,"current_range_meters":20400,"station_id":"ce4bh3h2rcd13ifvqdn0","pricing_plan_id":"cebpf4jnsgd1na2vs0mg"},{"bike_id":"7e17a81f-3b24-49e1-a5fc-e88f9462d78d","system_id":"levelo_inurba_marseille","lat":43.284162,"lon":5.409285,"is_reserved":false,"is_disabled":false,"rental_uris":{"android":"levelo://app?vid=7e17a81f-3b24-49e1-a5fc-e88f9462d78d","ios":"levelo://app?vid=7e17a81f-3b24-49e1-a5fc-e88f9462d78d"},"vehicle_type_id":"4","last_reported":1732205508,"current_range_meters":8400,"station_id":"","pricing_plan_id":"cebpf4jnsgd1na2vs0mg"},{"bike_id":"0d5efe48-32bd-461f-be09-c1d5e2d6ef37","system_id":"levelo_inurba_marseille","lat":43.32364,"lon":5.38886,"is_reserved":false,"is_disabled":false,"rental_uris":{"android":"levelo://app?vid=0d5efe48-32bd-461f-be09-c1d5e2d6ef37","ios":"levelo://app?vid=0d5efe48-32bd-461f-be09-c1d5e2d6ef37"},"vehicle_type_id":"4","last_reported":1732205508,"current_range_meters":37600,"station_id":"ce4bhqp2rcd13ifvqhog","pricing_plan_id":"cebpf4jnsgd1na2vs0mg"},{"bike_id":"aacdd88c-0456-4aee-a913-1893e32a2e32","system_id":"levelo_inurba_marseille","lat":43.23964,"lon":5.36642,"is_reserved":false,"is_disabled":false,"rental_uris":{"android":"levelo://app?vid=aacdd88c-0456-4aee-a913-1893e32a2e32","ios":"levelo://app?vid=aacdd88c-0456-4aee-a913-1893e32a2e32"},"vehicle_type_id":"4","last_reported":1732205508,"current_range_meters":38800,"station_id":"ce4bhi12rcd13ifvqfp0","pricing_plan_id":"cebpf4jnsgd1na2vs0mg"},{"bike_id":"a4ffdcba-b4cb-43c3-ba8d-cdd261d8340a","system_id":"levelo_inurba_marseille","lat":43.30553,"lon":5.36552,"is_reserved":false,"is_disabled":false,"rental_uris":{"android":"levelo://app?vid=a4ffdcba-b4cb-43c3-ba8d-cdd261d8340a","ios":"levelo://app?vid=a4ffdcba-b4cb-43c3-ba8d-cdd261d8340a"},"vehicle_type_id":"4","last_reported":1732205508,"current_range_meters":33600,"station_id":"ce4bgs12rcd13ifvqcag","pricing_plan_id":"cebpf4jnsgd1na2vs0mg"},{"bike_id":"adb9218c-b003-48d9-99f6-53dd83a2603c","system_id":"levelo_inurba_marseille","lat":43.29173,"lon":5.37162,"is_reserved":false,"is_disabled":true,"rental_uris":{"android":"levelo://app?vid=adb9218c-b003-48d9-99f6-53dd83a2603c","ios":"levelo://app?vid=adb9218c-b003-48d9-99f6-53dd83a2603c"},"vehicle_type_id":"4","last_reported":1732205508,"current_range_meters":0,"station_id":"ce4bha92rcd13ifvqeh0","pricing_plan_id":"cebpf4jnsgd1na2vs0mg"},{"bike_id":"1c75f894-11a3-45cc-ab71-71198ac87a3e","system_id":"levelo_inurba_marseille","lat":43.29976,"lon":5.3717,"is_reserved":false,"is_disabled":false,"rental_uris":{"android":"levelo://app?vid=1c75f894-11a3-45cc-ab71-71198ac87a3e","ios":"levelo://app?vid=1c75f894-11a3-45cc-ab71-71198ac87a3e"},"vehicle_type_id":"4","last_reported":1732205508,"current_range_meters":24800,"station_id":"ce4bgr92rcd13ifvqc7g","pricing_plan_id":"cebpf4jnsgd1na2vs0mg"},{"bike_id":"cf1434da-fc2d-45b7-98b9-59a81552e9d6","system_id":"levelo_inurba_marseille","lat":43.29795,"lon":5.40403,"is_reserved":false,"is_disabled":false,"rental_uris":{"android":"levelo://app?vid=cf1434da-fc2d-45b7-98b9-59a81552e9d6","ios":"levelo://app?vid=cf1434da-fc2d-45b7-98b9-59a81552e9d6"},"vehicle_type_id":"4","last_reported":1732205508,"current_range_meters":8800,"station_id":"ce4bh112rcd13ifvqd90","pricing_plan_id":"cebpf4jnsgd1na2vs0mg"},{"bike_id":"e092006c-73fc-47d0-9953-16a161a38977","system_id":"levelo_inurba_marseille","lat":43.30192,"lon":5.36612,"is_reserved":false,"is_disabled":false,"rental_uris":{"android":"levelo://app?vid=e092006c-73fc-47d0-9953-16a161a38977","ios":"levelo://app?vid=e092006c-73fc-47d0-9953-16a161a38977"},"vehicle_type_id":"4","last_reported":1732205508,"current_range_meters":24000,"station_id":"ce4bgrh2rcd13ifvqc8g","pricing_plan_id":"cebpf4jnsgd1na2vs0mg"},{"bike_id":"0aeb214c-fde7-45c8-b020-03be17efcbb9","system_id":"levelo_inurba_marseille","lat":43.33019,"lon":5.39038,"is_reserved":false,"is_disabled":false,"rental_uris":{"android":"levelo://app?vid=0aeb214c-fde7-45c8-b020-03be17efcbb9","ios":"levelo://app?vid=0aeb214c-fde7-45c8-b020-03be17efcbb9"},"vehicle_type_id":"4","last_reported":1732205508,"current_range_meters":28400,"station_id":"ce4bhr92rcd13ifvqhrg","pricing_plan_id":"cebpf4jnsgd1na2vs0mg"},{"bike_id":"11121bf3-0bc8-4284-8baa-80619a62cf9b","system_id":"levelo_inurba_marseille","lat":43.29305,"lon":5.37472,"is_reserved":false,"is_disabled":false,"rental_uris":{"android":"levelo://app?vid=11121bf3-0bc8-4284-8baa-80619a62cf9b","ios":"levelo://app?vid=11121bf3-0bc8-4284-8baa-80619a62cf9b"},"vehicle_type_id":"4","last_reported":1732205508,"current_range_meters":36400,"station_id":"ce4bgi12rcd13ifvqb70","pricing_plan_id":"cebpf4jnsgd1na2vs0mg"},{"bike_id":"e4e3495c-9d93-4eff-a4ab-712e0ae01181","system_id":"levelo_inurba_marseille","lat":43.26556,"lon":5.39001,"is_reserved":false,"is_disabled":true,"rental_uris":{"android":"levelo://app?vid=e4e3495c-9d93-4eff-a4ab-712e0ae01181","ios":"levelo://app?vid=e4e3495c-9d93-4eff-a4ab-712e0ae01181"},"vehicle_type_id":"4","last_reported":1732205508,"current_range_meters":1600,"station_id":"ce4bhe12rcd13ifvqf30","pricing_plan_id":"cebpf4jnsgd1na2vs0mg"},{"bike_id":"796b733f-49d0-45e2-becf-a5ec2492cb3c","system_id":"levelo_inurba_marseille","lat":43.25108,"lon":5.40325,"is_reserved":false,"is_disabled":true,"rental_uris":{"android":"levelo://app?vid=796b733f-49d0-45e2-becf-a5ec2492cb3c","ios":"levelo://app?vid=796b733f-49d0-45e2-becf-a5ec2492cb3c"},"vehicle_type_id":"4","last_reported":1732205508,"current_range_meters":0,"station_id":"ce4bhlh2rcd13ifvqgig","pricing_plan_id":"cebpf4jnsgd1na2vs0mg"},{"bike_id":"e5951ee3-4a5a-4ebb-b469-096c5188dfa3","system_id":"levelo_inurba_marseille","lat":43.23189,"lon":5.35562,"is_reserved":false,"is_disabled":false,"rental_uris":{"android":"levelo://app?vid=e5951ee3-4a5a-4ebb-b469-096c5188dfa3","ios":"levelo://app?vid=e5951ee3-4a5a-4ebb-b469-096c5188dfa3"},"vehicle_type_id":"4","last_reported":1732205508,"current_range_meters":33200,"station_id":"ce4bhu92rcd13ifvqi70","pricing_plan_id":"cebpf4jnsgd1na2vs0mg"},{"bike_id":"ba8df0b3-9288-423d-9995-b04b81fa6c10","system_id":"levelo_inurba_marseille","lat":43.30958,"lon":5.3905,"is_reserved":false,"is_disabled":true,"rental_uris":{"android":"levelo://app?vid=ba8df0b3-9288-423d-9995-b04b81fa6c10","ios":"levelo://app?vid=ba8df0b3-9288-423d-9995-b04b81fa6c10"},"vehicle_type_id":"4","last_reported":1732205508,"current_range_meters":1600,"station_id":"ce4bgup2rcd13ifvqco0","pricing_plan_id":"cebpf4jnsgd1na2vs0mg"},{"bike_id":"b2f6b9cf-69db-40ab-8230-689c41a2c16c","system_id":"levelo_inurba_marseille","lat":43.24166,"lon":5.36395,"is_reserved":false,"is_disabled":false,"rental_uris":{"android":"levelo://app?vid=b2f6b9cf-69db-40ab-8230-689c41a2c16c","ios":"levelo://app?vid=b2f6b9cf-69db-40ab-8230-689c41a2c16c"},"vehicle_type_id":"4","last_reported":1732205508,"current_range_meters":32800,"station_id":"cpo36qri1sfpv3e86is0","pricing_plan_id":"cebpf4jnsgd1na2vs0mg"},{"bike_id":"58a208f4-fd83-44a4-bf12-9a135848ed36","system_id":"levelo_inurba_marseille","lat":43.33725,"lon":5.39182,"is_reserved":false,"is_disabled":false,"rental_uris":{"android":"levelo://app?vid=58a208f4-fd83-44a4-bf12-9a135848ed36","ios":"levelo://app?vid=58a208f4-fd83-44a4-bf12-9a135848ed36"},"vehicle_type_id":"4","last_reported":1732205508,"current_range_meters":40000,"station_id":"ce4bhr92rcd13ifvqhsg","pricing_plan_id":"cebpf4jnsgd1na2vs0mg"},{"bike_id":"8a0b3bb7-e6ee-41d8-9425-afec6db17651","system_id":"levelo_inurba_marseille","lat":43.29518,"lon":5.39405,"is_reserved":false,"is_disabled":false,"rental_uris":{"android":"levelo://app?vid=8a0b3bb7-e6ee-41d8-9425-afec6db17651","ios":"levelo://app?vid=8a0b3bb7-e6ee-41d8-9425-afec6db17651"},"vehicle_type_id":"4","last_reported":1732205508,"current_range_meters":38800,"station_id":"ce4bh292rcd13ifvqdf0","pricing_plan_id":"cebpf4jnsgd1na2vs0mg"},{"bike_id":"fe1f871c-a7a4-4864-8781-9bd2743909f5","system_id":"levelo_inurba_marseille","lat":43.24046,"lon":5.37757,"is_reserved":false,"is_disabled":true,"rental_uris":{"android":"levelo://app?vid=fe1f871c-a7a4-4864-8781-9bd2743909f5","ios":"levelo://app?vid=fe1f871c-a7a4-4864-8781-9bd2743909f5"},"vehicle_type_id":"4","last_reported":1732205508,"current_range_meters":29600,"station_id":"ce4bhnp2rcd13ifvqgvg","pricing_plan_id":"cebpf4jnsgd1na2vs0mg"},{"bike_id":"d81ab7a3-51c2-4185-a371-62197aa1f5e2","system_id":"levelo_inurba_marseille","lat":43.31291,"lon":5.38676,"is_reserved":false,"is_disabled":false,"rental_uris":{"android":"levelo://app?vid=d81ab7a3-51c2-4185-a371-62197aa1f5e2","ios":"levelo://app?vid=d81ab7a3-51c2-4185-a371-62197aa1f5e2"},"vehicle_type_id":"4","last_reported":1732205508,"current_range_meters":24800,"station_id":"","pricing_plan_id":"cebpf4jnsgd1na2vs0mg"},{"bike_id":"b8ee6a54-6c0b-4a59-9e0b-51a2cc6a9f13","system_id":"levelo_inurba_marseille","lat":43.31326,"lon":5.39703,"is_reserved":false,"is_disabled":false,"rental_uris":{"android":"levelo://app?vid=b8ee6a54-6c0b-4a59-9e0b-51a2cc6a9f13","ios":"levelo://app?vid=b8ee6a54-6c0b-4a59-9e0b-51a2cc6a9f13"},"vehicle_type_id":"4","last_reported":1732205508,"current_range_meters":22800,"station_id":"ce4bgvp2rcd13ifvqcu0","pricing_plan_id":"cebpf4jnsgd1na2vs0mg"},{"bike_id":"b7577726-d0d8-46a4-abb0-0e66776506ca","system_id":"levelo_inurba_marseille","lat":43.27059,"lon":5.40265,"is_reserved":false,"is_disabled":false,"rental_uris":{"android":"levelo://app?vid=b7577726-d0d8-46a4-abb0-0e66776506ca","ios":"levelo://app?vid=b7577726-d0d8-46a4-abb0-0e66776506ca"},"vehicle_type_id":"4","last_reported":1732205508,"current_range_meters":38800,"station_id":"ce4bhk92rcd13ifvqgc0","pricing_plan_id":"cebpf4jnsgd1na2vs0mg"},{"bike_id":"fa71b064-4e39-4e5d-a7c6-7830bc0af556","system_id":"levelo_inurba_marseille","lat":43.30931,"lon":5.40145,"is_reserved":false,"is_disabled":false,"rental_uris":{"android":"levelo://app?vid=fa71b064-4e39-4e5d-a7c6-7830bc0af556","ios":"levelo://app?vid=fa71b064-4e39-4e5d-a7c6-7830bc0af556"},"vehicle_type_id":"4","last_reported":1732205508,"current_range_meters":18000,"station_id":"ce4bgvp2rcd13ifvqct0","pricing_plan_id":"cebpf4jnsgd1na2vs0mg"},{"bike_id":"26ce6e22-11fe-4850-80ce-605c93f03f2d","system_id":"levelo_inurba_marseille","lat":43.30531,"lon":5.36532,"is_reserved":false,"is_disabled":false,"rental_uris":{"android":"levelo://app?vid=26ce6e22-11fe-4850-80ce-605c93f03f2d","ios":"levelo://app?vid=26ce6e22-11fe-4850-80ce-605c93f03f2d"},"vehicle_type_id":"4","last_reported":1732205508,"current_range_meters":29600,"station_id":"ce4bgs12rcd13ifvqcag","pricing_plan_id":"cebpf4jnsgd1na2vs0mg"},{"bike_id":"bd00794b-1129-4bdf-848e-d8127829ecbf","system_id":"levelo_inurba_marseille","lat":43.337444,"lon":5.374475,"is_reserved":false,"is_disabled":false,"rental_uris":{"android":"levelo://app?vid=bd00794b-1129-4bdf-848e-d8127829ecbf","ios":"levelo://app?vid=bd00794b-1129-4bdf-848e-d8127829ecbf"},"vehicle_type_id":"4","last_reported":1732205508,"current_range_meters":12000,"station_id":"","pricing_plan_id":"cebpf4jnsgd1na2vs0mg"},{"bike_id":"5c53cfbd-2547-413a-b79a-f8cc3b1ca992","system_id":"levelo_inurba_marseille","lat":43.32111,"lon":5.36769,"is_reserved":false,"is_disabled":false,"rental_uris":{"android":"levelo://app?vid=5c53cfbd-2547-413a-b79a-f8cc3b1ca992","ios":"levelo://app?vid=5c53cfbd-2547-413a-b79a-f8cc3b1ca992"},"vehicle_type_id":"4","last_reported":1732205508,"current_range_meters":22000,"station_id":"ce4bhrh2rcd13ifvqhug","pricing_plan_id":"cebpf4jnsgd1na2vs0mg"},{"bike_id":"e1e093c6-af61-41af-811a-b21d5fd002b0","system_id":"levelo_inurba_marseille","lat":43.29975,"lon":5.37192,"is_reserved":false,"is_disabled":false,"rental_uris":{"android":"levelo://app?vid=e1e093c6-af61-41af-811a-b21d5fd002b0","ios":"levelo://app?vid=e1e093c6-af61-41af-811a-b21d5fd002b0"},"vehicle_type_id":"4","last_reported":1732205508,"current_range_meters":26000,"station_id":"ce4bgr92rcd13ifvqc7g","pricing_plan_id":"cebpf4jnsgd1na2vs0mg"},{"bike_id":"f786c67d-5db5-4718-bece-061de4975fd6","system_id":"levelo_inurba_marseille","lat":43.32479,"lon":5.3657,"is_reserved":false,"is_disabled":false,"rental_uris":{"android":"levelo://app?vid=f786c67d-5db5-4718-bece-061de4975fd6","ios":"levelo://app?vid=f786c67d-5db5-4718-bece-061de4975fd6"},"vehicle_type_id":"4","last_reported":1732205508,"current_range_meters":32800,"station_id":"ce4bhs12rcd13ifvqhvg","pricing_plan_id":"cebpf4jnsgd1na2vs0mg"},{"bike_id":"ced939b2-a2ab-40e5-b140-575509bab6d1","system_id":"levelo_inurba_marseille","lat":43.33023,"lon":5.39037,"is_reserved":false,"is_disabled":false,"rental_uris":{"android":"levelo://app?vid=ced939b2-a2ab-40e5-b140-575509bab6d1","ios":"levelo://app?vid=ced939b2-a2ab-40e5-b140-575509bab6d1"},"vehicle_type_id":"4","last_reported":1732205508,"current_range_meters":20400,"station_id":"ce4bhr92rcd13ifvqhrg","pricing_plan_id":"cebpf4jnsgd1na2vs0mg"},{"bike_id":"4674a573-a71e-41c0-a925-5c021c5e6c25","system_id":"levelo_inurba_marseille","lat":43.29428,"lon":5.37464,"is_reserved":false,"is_disabled":true,"rental_uris":{"android":"levelo://app?vid=4674a573-a71e-41c0-a925-5c021c5e6c25","ios":"levelo://app?vid=4674a573-a71e-41c0-a925-5c021c5e6c25"},"vehicle_type_id":"4","last_reported":1732205508,"current_range_meters":0,"station_id":"","pricing_plan_id":"cebpf4jnsgd1na2vs0mg"},{"bike_id":"92101dc5-4f1c-4b65-8bd1-54415f893867","system_id":"levelo_inurba_marseille","lat":43.31687,"lon":5.38815,"is_reserved":false,"is_disabled":false,"rental_uris":{"android":"levelo://app?vid=92101dc5-4f1c-4b65-8bd1-54415f893867","ios":"levelo://app?vid=92101dc5-4f1c-4b65-8bd1-54415f893867"},"vehicle_type_id":"4","last_reported":1732205508,"current_range_meters":4800,"station_id":"","pricing_plan_id":"cebpf4jnsgd1na2vs0mg"},{"bike_id":"cde5eb04-35f5-4971-aec4-8004f9b2dcd9","system_id":"levelo_inurba_marseille","lat":43.2828,"lon":5.35063,"is_reserved":false,"is_disabled":true,"rental_uris":{"android":"levelo://app?vid=cde5eb04-35f5-4971-aec4-8004f9b2dcd9","ios":"levelo://app?vid=cde5eb04-35f5-4971-aec4-8004f9b2dcd9"},"vehicle_type_id":"4","last_reported":1732205508,"current_range_meters":0,"station_id":"ce4bhbp2rcd13ifvqerg","pricing_plan_id":"cebpf4jnsgd1na2vs0mg"},{"bike_id":"556e7b3c-aaa6-4792-bdbc-9d75642bda6e","system_id":"levelo_inurba_marseille","lat":43.3054,"lon":5.36705,"is_reserved":false,"is_disabled":false,"rental_uris":{"android":"levelo://app?vid=556e7b3c-aaa6-4792-bdbc-9d75642bda6e","ios":"levelo://app?vid=556e7b3c-aaa6-4792-bdbc-9d75642bda6e"},"vehicle_type_id":"4","last_reported":1732205508,"current_range_meters":36000,"station_id":"ce4bgrp2rcd13ifvqc9g","pricing_plan_id":"cebpf4jnsgd1na2vs0mg"},{"bike_id":"ad5104ec-4070-4e0d-a899-90bdd81e96f1","system_id":"levelo_inurba_marseille","lat":43.30419,"lon":5.39743,"is_reserved":false,"is_disabled":false,"rental_uris":{"android":"levelo://app?vid=ad5104ec-4070-4e0d-a899-90bdd81e96f1","ios":"levelo://app?vid=ad5104ec-4070-4e0d-a899-90bdd81e96f1"},"vehicle_type_id":"4","last_reported":1732205508,"current_range_meters":30000,"station_id":"ce4bh092rcd13ifvqd20","pricing_plan_id":"cebpf4jnsgd1na2vs0mg"},{"bike_id":"983b5008-1aea-462d-9f94-ca7d239fa86f","system_id":"levelo_inurba_marseille","lat":43.2417,"lon":5.36386,"is_reserved":false,"is_disabled":false,"rental_uris":{"android":"levelo://app?vid=983b5008-1aea-462d-9f94-ca7d239fa86f","ios":"levelo://app?vid=983b5008-1aea-462d-9f94-ca7d239fa86f"},"vehicle_type_id":"4","last_reported":1732205508,"current_range_meters":19600,"station_id":"cpo36qri1sfpv3e86is0","pricing_plan_id":"cebpf4jnsgd1na2vs0mg"},{"bike_id":"a27e815f-dab9-4a3e-865f-e165054b381f","system_id":"levelo_inurba_marseille","lat":43.32037,"lon":5.415573,"is_reserved":false,"is_disabled":false,"rental_uris":{"android":"levelo://app?vid=a27e815f-dab9-4a3e-865f-e165054b381f","ios":"levelo://app?vid=a27e815f-dab9-4a3e-865f-e165054b381f"},"vehicle_type_id":"4","last_reported":1732205508,"current_range_meters":38800,"station_id":"ce4bhq92rcd13ifvqhkg","pricing_plan_id":"cebpf4jnsgd1na2vs0mg"},{"bike_id":"3c456637-94e0-4069-b413-37b35ebf6d33","system_id":"levelo_inurba_marseille","lat":43.32367,"lon":5.38881,"is_reserved":false,"is_disabled":false,"rental_uris":{"android":"levelo://app?vid=3c456637-94e0-4069-b413-37b35ebf6d33","ios":"levelo://app?vid=3c456637-94e0-4069-b413-37b35ebf6d33"},"vehicle_type_id":"4","last_reported":1732205508,"current_range_meters":25600,"station_id":"ce4bhqp2rcd13ifvqhog","pricing_plan_id":"cebpf4jnsgd1na2vs0mg"},{"bike_id":"c4104d46-de97-4d8f-bb58-ffc30bf7a416","system_id":"levelo_inurba_marseille","lat":43.2718,"lon":5.40996,"is_reserved":false,"is_disabled":false,"rental_uris":{"android":"levelo://app?vid=c4104d46-de97-4d8f-bb58-ffc30bf7a416","ios":"levelo://app?vid=c4104d46-de97-4d8f-bb58-ffc30bf7a416"},"vehicle_type_id":"4","last_reported":1732205508,"current_range_meters":35200,"station_id":"ce4bhl12rcd13ifvqgf0","pricing_plan_id":"cebpf4jnsgd1na2vs0mg"},{"bike_id":"89429ed2-f839-4749-bcb9-3e5230fe3bfb","system_id":"levelo_inurba_marseille","lat":43.33715,"lon":5.39182,"is_reserved":false,"is_disabled":false,"rental_uris":{"android":"levelo://app?vid=89429ed2-f839-4749-bcb9-3e5230fe3bfb","ios":"levelo://app?vid=89429ed2-f839-4749-bcb9-3e5230fe3bfb"},"vehicle_type_id":"4","last_reported":1732205508,"current_range_meters":40000,"station_id":"ce4bhr92rcd13ifvqhsg","pricing_plan_id":"cebpf4jnsgd1na2vs0mg"},{"bike_id":"c8db655f-b3df-4bb3-b835-fb06b95a1b22","system_id":"levelo_inurba_marseille","lat":43.29607,"lon":5.40137,"is_reserved":false,"is_disabled":false,"rental_uris":{"android":"levelo://app?vid=c8db655f-b3df-4bb3-b835-fb06b95a1b22","ios":"levelo://app?vid=c8db655f-b3df-4bb3-b835-fb06b95a1b22"},"vehicle_type_id":"4","last_reported":1732205508,"current_range_meters":16000,"station_id":"","pricing_plan_id":"cebpf4jnsgd1na2vs0mg"},{"bike_id":"1d183352-1f69-4006-89f0-b9776e06e31d","system_id":"levelo_inurba_marseille","lat":43.29875,"lon":5.39736,"is_reserved":false,"is_disabled":false,"rental_uris":{"android":"levelo://app?vid=1d183352-1f69-4006-89f0-b9776e06e31d","ios":"levelo://app?vid=1d183352-1f69-4006-89f0-b9776e06e31d"},"vehicle_type_id":"4","last_reported":1732205508,"current_range_meters":16800,"station_id":"ce4bh0h2rcd13ifvqd50","pricing_plan_id":"cebpf4jnsgd1na2vs0mg"},{"bike_id":"58b47d48-42a3-4614-b3ea-efc8905c2f2f","system_id":"levelo_inurba_marseille","lat":43.30582,"lon":5.37228,"is_reserved":false,"is_disabled":false,"rental_uris":{"android":"levelo://app?vid=58b47d48-42a3-4614-b3ea-efc8905c2f2f","ios":"levelo://app?vid=58b47d48-42a3-4614-b3ea-efc8905c2f2f"},"vehicle_type_id":"4","last_reported":1732205508,"current_range_meters":24000,"station_id":"ce4bgqh2rcd13ifvqc4g","pricing_plan_id":"cebpf4jnsgd1na2vs0mg"},{"bike_id":"2c903045-3fbe-4c71-a3e1-5c1d68903781","system_id":"levelo_inurba_marseille","lat":43.28487,"lon":5.38418,"is_reserved":false,"is_disabled":true,"rental_uris":{"android":"levelo://app?vid=2c903045-3fbe-4c71-a3e1-5c1d68903781","ios":"levelo://app?vid=2c903045-3fbe-4c71-a3e1-5c1d68903781"},"vehicle_type_id":"4","last_reported":1732205508,"current_range_meters":0,"station_id":"ce4bh512rcd13ifvqe3g","pricing_plan_id":"cebpf4jnsgd1na2vs0mg"},{"bike_id":"7a6a27cc-c598-4850-b0a6-6bac46025bc3","system_id":"levelo_inurba_marseille","lat":43.27065,"lon":5.4026,"is_reserved":false,"is_disabled":false,"rental_uris":{"android":"levelo://app?vid=7a6a27cc-c598-4850-b0a6-6bac46025bc3","ios":"levelo://app?vid=7a6a27cc-c598-4850-b0a6-6bac46025bc3"},"vehicle_type_id":"4","last_reported":1732205508,"current_range_meters":37600,"station_id":"ce4bhk92rcd13ifvqgc0","pricing_plan_id":"cebpf4jnsgd1na2vs0mg"},{"bike_id":"bacd8989-951d-4ffd-8072-ff0828852652","system_id":"levelo_inurba_marseille","lat":43.30165,"lon":5.38874,"is_reserved":false,"is_disabled":false,"rental_uris":{"android":"levelo://app?vid=bacd8989-951d-4ffd-8072-ff0828852652","ios":"levelo://app?vid=bacd8989-951d-4ffd-8072-ff0828852652"},"vehicle_type_id":"4","last_reported":1732205508,"current_range_meters":20400,"station_id":"","pricing_plan_id":"cebpf4jnsgd1na2vs0mg"},{"bike_id":"6d941e85-5142-43a9-863d-c3a4efb11567","system_id":"levelo_inurba_marseille","lat":43.30536,"lon":5.3653,"is_reserved":false,"is_disabled":false,"rental_uris":{"android":"levelo://app?vid=6d941e85-5142-43a9-863d-c3a4efb11567","ios":"levelo://app?vid=6d941e85-5142-43a9-863d-c3a4efb11567"},"vehicle_type_id":"4","last_reported":1732205508,"current_range_meters":22400,"station_id":"ce4bgs12rcd13ifvqcag","pricing_plan_id":"cebpf4jnsgd1na2vs0mg"},{"bike_id":"2e3e43eb-26f9-4d7a-8203-86bf4ca4bb97","system_id":"levelo_inurba_marseille","lat":43.31991,"lon":5.38172,"is_reserved":false,"is_disabled":false,"rental_uris":{"android":"levelo://app?vid=2e3e43eb-26f9-4d7a-8203-86bf4ca4bb97","ios":"levelo://app?vid=2e3e43eb-26f9-4d7a-8203-86bf4ca4bb97"},"vehicle_type_id":"4","last_reported":1732205508,"current_range_meters":33200,"station_id":"ce4bhr12rcd13ifvqhpg","pricing_plan_id":"cebpf4jnsgd1na2vs0mg"},{"bike_id":"09792477-12a1-4a2d-b305-dd3ef460113f","system_id":"levelo_inurba_marseille","lat":43.26192,"lon":5.37449,"is_reserved":false,"is_disabled":false,"rental_uris":{"android":"levelo://app?vid=09792477-12a1-4a2d-b305-dd3ef460113f","ios":"levelo://app?vid=09792477-12a1-4a2d-b305-dd3ef460113f"},"vehicle_type_id":"4","last_reported":1732205508,"current_range_meters":36400,"station_id":"ce4bhgp2rcd13ifvqfc0","pricing_plan_id":"cebpf4jnsgd1na2vs0mg"},{"bike_id":"61bba262-72de-46f1-a189-a05dbc01f423","system_id":"levelo_inurba_marseille","lat":43.30545,"lon":5.36554,"is_reserved":false,"is_disabled":false,"rental_uris":{"android":"levelo://app?vid=61bba262-72de-46f1-a189-a05dbc01f423","ios":"levelo://app?vid=61bba262-72de-46f1-a189-a05dbc01f423"},"vehicle_type_id":"4","last_reported":1732205508,"current_range_meters":36800,"station_id":"ce4bgs12rcd13ifvqcag","pricing_plan_id":"cebpf4jnsgd1na2vs0mg"},{"bike_id":"7770b1cc-2a54-4d08-8255-6bed2fc397aa","system_id":"levelo_inurba_marseille","lat":43.231979,"lon":5.355483,"is_reserved":false,"is_disabled":false,"rental_uris":{"android":"levelo://app?vid=7770b1cc-2a54-4d08-8255-6bed2fc397aa","ios":"levelo://app?vid=7770b1cc-2a54-4d08-8255-6bed2fc397aa"},"vehicle_type_id":"4","last_reported":1732205508,"current_range_meters":17200,"station_id":"ce4bhu92rcd13ifvqi70","pricing_plan_id":"cebpf4jnsgd1na2vs0mg"},{"bike_id":"b9aec172-5d3c-4bf3-83f8-23ef9d1289d4","system_id":"levelo_inurba_marseille","lat":43.30905,"lon":5.36842,"is_reserved":false,"is_disabled":false,"rental_uris":{"android":"levelo://app?vid=b9aec172-5d3c-4bf3-83f8-23ef9d1289d4","ios":"levelo://app?vid=b9aec172-5d3c-4bf3-83f8-23ef9d1289d4"},"vehicle_type_id":"4","last_reported":1732205508,"current_range_meters":28000,"station_id":"ce4bgn92rcd13ifvqbvg","pricing_plan_id":"cebpf4jnsgd1na2vs0mg"},{"bike_id":"86210bf7-7f60-4e45-960e-1a86f6b33188","system_id":"levelo_inurba_marseille","lat":43.28209,"lon":5.38155,"is_reserved":false,"is_disabled":true,"rental_uris":{"android":"levelo://app?vid=86210bf7-7f60-4e45-960e-1a86f6b33188","ios":"levelo://app?vid=86210bf7-7f60-4e45-960e-1a86f6b33188"},"vehicle_type_id":"4","last_reported":1732205508,"current_range_meters":27600,"station_id":"","pricing_plan_id":"cebpf4jnsgd1na2vs0mg"},{"bike_id":"dd1d5ee4-52ee-4577-b3a0-8eab0f258667","system_id":"levelo_inurba_marseille","lat":43.30147,"lon":5.37426,"is_reserved":false,"is_disabled":false,"rental_uris":{"android":"levelo://app?vid=dd1d5ee4-52ee-4577-b3a0-8eab0f258667","ios":"levelo://app?vid=dd1d5ee4-52ee-4577-b3a0-8eab0f258667"},"vehicle_type_id":"4","last_reported":1732205508,"current_range_meters":14400,"station_id":"ce4bgs92rcd13ifvqcc0","pricing_plan_id":"cebpf4jnsgd1na2vs0mg"},{"bike_id":"5d915b2f-41f7-4248-8e9d-7cc5ed4e6e9c","system_id":"levelo_inurba_marseille","lat":43.2942,"lon":5.38623,"is_reserved":false,"is_disabled":false,"rental_uris":{"android":"levelo://app?vid=5d915b2f-41f7-4248-8e9d-7cc5ed4e6e9c","ios":"levelo://app?vid=5d915b2f-41f7-4248-8e9d-7cc5ed4e6e9c"},"vehicle_type_id":"4","last_reported":1732205508,"current_range_meters":21600,"station_id":"ce4bh2h2rcd13ifvqdh0","pricing_plan_id":"cebpf4jnsgd1na2vs0mg"},{"bike_id":"3d25d818-80cf-415a-996a-afc2d01ce97b","system_id":"levelo_inurba_marseille","lat":43.27787,"lon":5.40732,"is_reserved":false,"is_disabled":false,"rental_uris":{"android":"levelo://app?vid=3d25d818-80cf-415a-996a-afc2d01ce97b","ios":"levelo://app?vid=3d25d818-80cf-415a-996a-afc2d01ce97b"},"vehicle_type_id":"4","last_reported":1732205508,"current_range_meters":4000,"station_id":"ce4bhnh2rcd13ifvqgtg","pricing_plan_id":"cebpf4jnsgd1na2vs0mg"},{"bike_id":"abf7bcba-e4cc-4453-829b-bd2193ccbbaa","system_id":"levelo_inurba_marseille","lat":43.32367,"lon":5.3889,"is_reserved":false,"is_disabled":false,"rental_uris":{"android":"levelo://app?vid=abf7bcba-e4cc-4453-829b-bd2193ccbbaa","ios":"levelo://app?vid=abf7bcba-e4cc-4453-829b-bd2193ccbbaa"},"vehicle_type_id":"4","last_reported":1732205508,"current_range_meters":38400,"station_id":"ce4bhqp2rcd13ifvqhog","pricing_plan_id":"cebpf4jnsgd1na2vs0mg"},{"bike_id":"43e37e8a-d9a4-4a94-a7d2-832ec7c7faff","system_id":"levelo_inurba_marseille","lat":43.32061,"lon":5.41541,"is_reserved":false,"is_disabled":false,"rental_uris":{"android":"levelo://app?vid=43e37e8a-d9a4-4a94-a7d2-832ec7c7faff","ios":"levelo://app?vid=43e37e8a-d9a4-4a94-a7d2-832ec7c7faff"},"vehicle_type_id":"4","last_reported":1732205508,"current_range_meters":38800,"station_id":"ce4bhq92rcd13ifvqhkg","pricing_plan_id":"cebpf4jnsgd1na2vs0mg"},{"bike_id":"39eca6c9-6fc7-43f1-a0ba-f67899c28ea8","system_id":"levelo_inurba_marseille","lat":43.30434,"lon":5.38891,"is_reserved":false,"is_disabled":false,"rental_uris":{"android":"levelo://app?vid=39eca6c9-6fc7-43f1-a0ba-f67899c28ea8","ios":"levelo://app?vid=39eca6c9-6fc7-43f1-a0ba-f67899c28ea8"},"vehicle_type_id":"4","last_reported":1732205508,"current_range_meters":32400,"station_id":"ce4bgk12rcd13ifvqbi0","pricing_plan_id":"cebpf4jnsgd1na2vs0mg"},{"bike_id":"c98c80c5-66bf-4cf8-b173-1ce652463387","system_id":"levelo_inurba_marseille","lat":43.30606,"lon":5.37227,"is_reserved":false,"is_disabled":false,"rental_uris":{"android":"levelo://app?vid=c98c80c5-66bf-4cf8-b173-1ce652463387","ios":"levelo://app?vid=c98c80c5-66bf-4cf8-b173-1ce652463387"},"vehicle_type_id":"4","last_reported":1732205508,"current_range_meters":38800,"station_id":"ce4bgqh2rcd13ifvqc4g","pricing_plan_id":"cebpf4jnsgd1na2vs0mg"},{"bike_id":"972fecb9-2415-4311-a146-46da23c07253","system_id":"levelo_inurba_marseille","lat":43.2315,"lon":5.43711,"is_reserved":false,"is_disabled":false,"rental_uris":{"android":"levelo://app?vid=972fecb9-2415-4311-a146-46da23c07253","ios":"levelo://app?vid=972fecb9-2415-4311-a146-46da23c07253"},"vehicle_type_id":"4","last_reported":1732205508,"current_range_meters":38800,"station_id":"ce4bhmp2rcd13ifvqgog","pricing_plan_id":"cebpf4jnsgd1na2vs0mg"},{"bike_id":"d08f7f05-c465-4a86-89e7-89688055790c","system_id":"levelo_inurba_marseille","lat":43.28039,"lon":5.36941,"is_reserved":false,"is_disabled":false,"rental_uris":{"android":"levelo://app?vid=d08f7f05-c465-4a86-89e7-89688055790c","ios":"levelo://app?vid=d08f7f05-c465-4a86-89e7-89688055790c"},"vehicle_type_id":"4","last_reported":1732205508,"current_range_meters":3200,"station_id":"ce4bha12rcd13ifvqef0","pricing_plan_id":"cebpf4jnsgd1na2vs0mg"},{"bike_id":"b6760b17-f832-4664-83cb-b10082217ed6","system_id":"levelo_inurba_marseille","lat":43.30129,"lon":5.39855,"is_reserved":false,"is_disabled":false,"rental_uris":{"android":"levelo://app?vid=b6760b17-f832-4664-83cb-b10082217ed6","ios":"levelo://app?vid=b6760b17-f832-4664-83cb-b10082217ed6"},