{"last_updated":1702606957,"ttl":30,"version":"2.2","data":{"bikes":[{"bike_id":"d1b8b40d-0c2e-46f2-b888-c95f6422cfbb","system_id":"levelo_inurba_marseille","lat":43.31341,"lon":5.367098,"is_reserved":false,"is_disabled":false,"rental_uris":{"android":"levelo://app?vid=d1b8b40d-0c2e-46f2-b888-c95f6422cfbb","ios":"levelo://app?vid=d1b8b40d-0c2e-46f2-b888-c95f6422cfbb"},"vehicle_type_id":"4","last_reported":1702606957,"current_range_meters":28800,"station_id":"ce4bgr92rcd13ifvqc6g","pricing_plan_id":"free"},{"bike_id":"15562d9a-f3db-4957-8f35-bfb6b2a240b5","system_id":"levelo_inurba_marseille","lat":43.312239,"lon":5.368562,"is_reserved":false,"is_disabled":false,"rental_uris":{"android":"levelo://app?vid=15562d9a-f3db-4957-8f35-bfb6b2a240b5","ios":"levelo://app?vid=15562d9a-f3db-4957-8f35-bfb6b2a240b5"},"vehicle_type_id":"4","last_reported":1702606957,"current_range_meters":30400,"station_id":"ce4bgl92rcd13ifvqbq0","pricing_plan_id":"free"},{"bike_id":"14a6b72e-352d-49c0-a646-1a6244805d66","system_id":"levelo_inurba_marseille","lat":43.312239,"lon":5.368562,"is_reserved":false,"is_disabled":false,"rental_uris":{"android":"levelo://app?vid=14a6b72e-352d-49c0-a646-1a6244805d66","ios":"levelo://app?vid=14a6b72e-352d-49c0-a646-1a6244805d66"},"vehicle_type_id":"4","last_reported":1702606957,"current_range_meters":28800,"station_id":"ce4bgl92rcd13ifvqbq0","pricing_plan_id":"free"},{"bike_id":"17958756-6703-4084-b36b-7338e1cb9a4f","system_id":"levelo_inurba_marseille","lat":43.312239,"lon":5.368562,"is_reserved":false,"is_disabled":false,"rental_uris":{"android":"levelo://app?vid=17958756-6703-4084-b36b-7338e1cb9a4f","ios":"levelo://app?vid=17958756-6703-4084-b36b-7338e1cb9a4f"},"vehicle_type_id":"4","last_reported":1702606957,"current_range_meters":5600,"station_id":"ce4bgl92rcd13ifvqbq0","pricing_plan_id":"free"},{"bike_id":"bca97e43-039c-4792-a68f-ef8f6c442598","system_id":"levelo_inurba_marseille","lat":43.312239,"lon":5.368562,"is_reserved":false,"is_disabled":false,"rental_uris":{"android":"levelo://app?vid=bca97e43-039c-4792-a68f-ef8f6c442598","ios":"levelo://app?vid=bca97e43-039c-4792-a68f-ef8f6c442598"},"vehicle_type_id":"4","last_reported":1702606957,"current_range_meters":31200,"station_id":"ce4bgl92rcd13ifvqbq0","pricing_plan_id":"free"},{"bike_id":"6598fe0a-0e14-432a-8111-f8b14e8fe7d0","system_id":"levelo_inurba_marseille","lat":43.31531,"lon":5.373143,"is_reserved":false,"is_disabled":false,"rental_uris":{"android":"levelo://app?vid=6598fe0a-0e14-432a-8111-f8b14e8fe7d0","ios":"levelo://app?vid=6598fe0a-0e14-432a-8111-f8b14e8fe7d0"},"vehicle_type_id":"4","last_reported":1702606957,"current_range_meters":22400,"station_id":"","pricing_plan_id":"free"},{"bike_id":"3f8b821f-e430-4a35-bf14-f8b6e777ea11","system_id":"levelo_inurba_marseille","lat":43.313939,"lon":5.375306,"is_reserved":false,"is_disabled":false,"rental_uris":{"android":"levelo://app?vid=3f8b821f-e430-4a35-bf14-f8b6e777ea11","ios":"levelo://app?vid=3f8b821f-e430-4a35-bf14-f8b6e777ea11"},"vehicle_type_id":"4","last_reported":1702606957,"current_range_meters":1600,"station_id":"","pricing_plan_id":"free"},{"bike_id":"955e4ab2-16e5-44e8-a986-a2f50ff96c06","system_id":"levelo_inurba_marseille","lat":43.305382,"lon":5.365389,"is_reserved":false,"is_disabled":false,"rental_uris":{"android":"levelo://app?vid=955e4ab2-16e5-44e8-a986-a2f50ff96c06","ios":"levelo://app?vid=955e4ab2-16e5-44e8-a986-a2f50ff96c06"},"vehicle_type_id":"4","last_reported":1702606957,"current_range_meters":21200,"station_id":"","pricing_plan_id":"free"},{"bike_id":"61f48b23-d07f-43d6-b8ed-e6b39410faa7","system_id":"levelo_inurba_marseille","lat":43.305989,"lon":5.37225,"is_reserved":false,"is_disabled":false,"rental_uris":{"android":"levelo://app?vid=61f48b23-d07f-43d6-b8ed-e6b39410faa7","ios":"levelo://app?vid=61f48b23-d07f-43d6-b8ed-e6b39410faa7"},"vehicle_type_id":"4","last_reported":1702606957,"current_range_meters":28000,"station_id":"ce4bgqh2rcd13ifvqc4g","pricing_plan_id":"free"},{"bike_id":"ece65e41-12b4-4fc7-9dc7-9ea59972a9e6","system_id":"levelo_inurba_marseille","lat":43.311125,"lon":5.377624,"is_reserved":false,"is_disabled":false,"rental_uris":{"android":"levelo://app?vid=ece65e41-12b4-4fc7-9dc7-9ea59972a9e6","ios":"levelo://app?vid=ece65e41-12b4-4fc7-9dc7-9ea59972a9e6"},"vehicle_type_id":"4","last_reported":1702606957,"current_range_meters":23200,"station_id":"ce4bgt92rcd13ifvqcg0","pricing_plan_id":"free"},{"bike_id":"07694625-03e7-431f-8a04-d1d562452e6e","system_id":"levelo_inurba_marseille","lat":43.311125,"lon":5.377624,"is_reserved":false,"is_disabled":false,"rental_uris":{"android":"levelo://app?vid=07694625-03e7-431f-8a04-d1d562452e6e","ios":"levelo://app?vid=07694625-03e7-431f-8a04-d1d562452e6e"},"vehicle_type_id":"4","last_reported":1702606957,"current_range_meters":15200,"station_id":"ce4bgt92rcd13ifvqcg0","pricing_plan_id":"free"},{"bike_id":"e577770c-9641-458f-a4ef-43b89d41897b","system_id":"levelo_inurba_marseille","lat":43.311125,"lon":5.377624,"is_reserved":false,"is_disabled":false,"rental_uris":{"android":"levelo://app?vid=e577770c-9641-458f-a4ef-43b89d41897b","ios":"levelo://app?vid=e577770c-9641-458f-a4ef-43b89d41897b"},"vehicle_type_id":"4","last_reported":1702606957,"current_range_meters":8400,"station_id":"ce4bgt92rcd13ifvqcg0","pricing_plan_id":"free"},{"bike_id":"10935318-da69-4b01-abbc-8c3ceaa2cf60","system_id":"levelo_inurba_marseille","lat":43.311267,"lon":5.377625,"is_reserved":false,"is_disabled":false,"rental_uris":{"android":"levelo://app?vid=10935318-da69-4b01-abbc-8c3ceaa2cf60","ios":"levelo://app?vid=10935318-da69-4b01-abbc-8c3ceaa2cf60"},"vehicle_type_id":"4","last_reported":1702606957,"current_range_meters":23200,"station_id":"ce4bgt92rcd13ifvqcg0","pricing_plan_id":"free"},{"bike_id":"c12d4380-e7c6-4ab0-bb8e-1581286903a6","system_id":"levelo_inurba_marseille","lat":43.311257,"lon":5.377674,"is_reserved":false,"is_disabled":false,"rental_uris":{"android":"levelo://app?vid=c12d4380-e7c6-4ab0-bb8e-1581286903a6","ios":"levelo://app?vid=c12d4380-e7c6-4ab0-bb8e-1581286903a6"},"vehicle_type_id":"4","last_reported":1702606957,"current_range_meters":19600,"station_id":"ce4bgt92rcd13ifvqcg0","pricing_plan_id":"free"},{"bike_id":"64114939-5303-4dad-83a1-97e6e6e7829c","system_id":"levelo_inurba_marseille","lat":43.31119,"lon":5.37768,"is_reserved":false,"is_disabled":false,"rental_uris":{"android":"levelo://app?vid=64114939-5303-4dad-83a1-97e6e6e7829c","ios":"levelo://app?vid=64114939-5303-4dad-83a1-97e6e6e7829c"},"vehicle_type_id":"4","last_reported":1702606957,"current_range_meters":8800,"station_id":"ce4bgt92rcd13ifvqcg0","pricing_plan_id":"free"},{"bike_id":"77cd8371-cd0d-4e11-9921-ee8cd0c33b0b","system_id":"levelo_inurba_marseille","lat":43.30787,"lon":5.37651,"is_reserved":false,"is_disabled":false,"rental_uris":{"android":"levelo://app?vid=77cd8371-cd0d-4e11-9921-ee8cd0c33b0b","ios":"levelo://app?vid=77cd8371-cd0d-4e11-9921-ee8cd0c33b0b"},"vehicle_type_id":"4","last_reported":1702606957,"current_range_meters":10800,"station_id":"ce4bgv92rcd13ifvqcq0","pricing_plan_id":"free"},{"bike_id":"f68dd4ab-8dee-4dfc-8773-6752079e58ee","system_id":"levelo_inurba_marseille","lat":43.307945,"lon":5.376487,"is_reserved":false,"is_disabled":false,"rental_uris":{"android":"levelo://app?vid=f68dd4ab-8dee-4dfc-8773-6752079e58ee","ios":"levelo://app?vid=f68dd4ab-8dee-4dfc-8773-6752079e58ee"},"vehicle_type_id":"4","last_reported":1702606957,"current_range_meters":28400,"station_id":"ce4bgv92rcd13ifvqcq0","pricing_plan_id":"free"},{"bike_id":"26633d32-5dc2-4b6a-aff9-d4819b77d8d1","system_id":"levelo_inurba_marseille","lat":43.307945,"lon":5.376487,"is_reserved":false,"is_disabled":false,"rental_uris":{"android":"levelo://app?vid=26633d32-5dc2-4b6a-aff9-d4819b77d8d1","ios":"levelo://app?vid=26633d32-5dc2-4b6a-aff9-d4819b77d8d1"},"vehicle_type_id":"4","last_reported":1702606957,"current_range_meters":0,"station_id":"ce4bgv92rcd13ifvqcq0","pricing_plan_id":"free"},{"bike_id":"cd1d10b1-85b1-4271-aead-2c065a4469e6","system_id":"levelo_inurba_marseille","lat":43.307945,"lon":5.376487,"is_reserved":false,"is_disabled":false,"rental_uris":{"android":"levelo://app?vid=cd1d10b1-85b1-4271-aead-2c065a4469e6","ios":"levelo://app?vid=cd1d10b1-85b1-4271-aead-2c065a4469e6"},"vehicle_type_id":"4","last_reported":1702606957,"current_range_meters":29200,"station_id":"ce4bgv92rcd13ifvqcq0","pricing_plan_id":"free"},{"bike_id":"78e531db-7fe9-41df-889d-78afa593a617","system_id":"levelo_inurba_marseille","lat":43.307844,"lon":5.376566,"is_reserved":false,"is_disabled":false,"rental_uris":{"android":"levelo://app?vid=78e531db-7fe9-41df-889d-78afa593a617","ios":"levelo://app?vid=78e531db-7fe9-41df-889d-78afa593a617"},"vehicle_type_id":"4","last_reported":1702606957,"current_range_meters":11600,"station_id":"ce4bgv92rcd13ifvqcq0","pricing_plan_id":"free"},{"bike_id":"34e7ea13-79de-47f2-860a-d78e89e9e4c9","system_id":"levelo_inurba_marseille","lat":43.317075,"lon":5.377367,"is_reserved":false,"is_disabled":false,"rental_uris":{"android":"levelo://app?vid=34e7ea13-79de-47f2-860a-d78e89e9e4c9","ios":"levelo://app?vid=34e7ea13-79de-47f2-860a-d78e89e9e4c9"},"vehicle_type_id":"4","last_reported":1702606957,"current_range_meters":30000,"station_id":"ce4bgth2rcd13ifvqch0","pricing_plan_id":"free"},{"bike_id":"6a3ae692-8bea-46e0-a1d8-69b8633e148e","system_id":"levelo_inurba_marseille","lat":43.317075,"lon":5.377367,"is_reserved":false,"is_disabled":false,"rental_uris":{"android":"levelo://app?vid=6a3ae692-8bea-46e0-a1d8-69b8633e148e","ios":"levelo://app?vid=6a3ae692-8bea-46e0-a1d8-69b8633e148e"},"vehicle_type_id":"4","last_reported":1702606957,"current_range_meters":31200,"station_id":"ce4bgth2rcd13ifvqch0","pricing_plan_id":"free"},{"bike_id":"019ed40f-8195-47cb-914d-27f2360e998a","system_id":"levelo_inurba_marseille","lat":43.315366,"lon":5.380214,"is_reserved":false,"is_disabled":false,"rental_uris":{"android":"levelo://app?vid=019ed40f-8195-47cb-914d-27f2360e998a","ios":"levelo://app?vid=019ed40f-8195-47cb-914d-27f2360e998a"},"vehicle_type_id":"4","last_reported":1702606957,"current_range_meters":3600,"station_id":"ce4bhsp2rcd13ifvqi50","pricing_plan_id":"free"},{"bike_id":"3aa2f928-b5a6-4f2d-931a-7d58ec3509be","system_id":"levelo_inurba_marseille","lat":43.301939,"lon":5.366286,"is_reserved":false,"is_disabled":false,"rental_uris":{"android":"levelo://app?vid=3aa2f928-b5a6-4f2d-931a-7d58ec3509be","ios":"levelo://app?vid=3aa2f928-b5a6-4f2d-931a-7d58ec3509be"},"vehicle_type_id":"4","last_reported":1702606957,"current_range_meters":18000,"station_id":"ce4bgrh2rcd13ifvqc8g","pricing_plan_id":"free"},{"bike_id":"985f9b11-4043-48c0-9cca-f9eec3a83abb","system_id":"levelo_inurba_marseille","lat":43.308012,"lon":5.381511,"is_reserved":false,"is_disabled":false,"rental_uris":{"android":"levelo://app?vid=985f9b11-4043-48c0-9cca-f9eec3a83abb","ios":"levelo://app?vid=985f9b11-4043-48c0-9cca-f9eec3a83abb"},"vehicle_type_id":"4","last_reported":1702606957,"current_range_meters":18000,"station_id":"ce4bgt12rcd13ifvqce0","pricing_plan_id":"free"},{"bike_id":"6288e06b-1ee1-4a43-b211-95c230e2ac80","system_id":"levelo_inurba_marseille","lat":43.30808,"lon":5.381491,"is_reserved":false,"is_disabled":false,"rental_uris":{"android":"levelo://app?vid=6288e06b-1ee1-4a43-b211-95c230e2ac80","ios":"levelo://app?vid=6288e06b-1ee1-4a43-b211-95c230e2ac80"},"vehicle_type_id":"4","last_reported":1702606957,"current_range_meters":18800,"station_id":"ce4bgt12rcd13ifvqce0","pricing_plan_id":"free"},{"bike_id":"393aec6c-199a-48ca-a80c-7f794aa9e78a","system_id":"levelo_inurba_marseille","lat":43.308012,"lon":5.381511,"is_reserved":false,"is_disabled":false,"rental_uris":{"android":"levelo://app?vid=393aec6c-199a-48ca-a80c-7f794aa9e78a","ios":"levelo://app?vid=393aec6c-199a-48ca-a80c-7f794aa9e78a"},"vehicle_type_id":"4","last_reported":1702606957,"current_range_meters":28000,"station_id":"ce4bgt12rcd13ifvqce0","pricing_plan_id":"free"},{"bike_id":"d5690112-a8ac-4877-96c0-9e2437c74860","system_id":"levelo_inurba_marseille","lat":43.302772,"lon":5.377033,"is_reserved":false,"is_disabled":false,"rental_uris":{"android":"levelo://app?vid=d5690112-a8ac-4877-96c0-9e2437c74860","ios":"levelo://app?vid=d5690112-a8ac-4877-96c0-9e2437c74860"},"vehicle_type_id":"4","last_reported":1702606957,"current_range_meters":18000,"station_id":"ce4bguh2rcd13ifvqcj0","pricing_plan_id":"free"},{"bike_id":"dfb8b2c4-afb3-44e0-bb8f-5e69b88821cf","system_id":"levelo_inurba_marseille","lat":43.319935,"lon":5.381699,"is_reserved":false,"is_disabled":false,"rental_uris":{"android":"levelo://app?vid=dfb8b2c4-afb3-44e0-bb8f-5e69b88821cf","ios":"levelo://app?vid=dfb8b2c4-afb3-44e0-bb8f-5e69b88821cf"},"vehicle_type_id":"4","last_reported":1702606957,"current_range_meters":14800,"station_id":"ce4bhr12rcd13ifvqhpg","pricing_plan_id":"free"},{"bike_id":"fdcd74e0-5fce-436e-805d-ade6ef010660","system_id":"levelo_inurba_marseille","lat":43.319935,"lon":5.381699,"is_reserved":false,"is_disabled":false,"rental_uris":{"android":"levelo://app?vid=fdcd74e0-5fce-436e-805d-ade6ef010660","ios":"levelo://app?vid=fdcd74e0-5fce-436e-805d-ade6ef010660"},"vehicle_type_id":"4","last_reported":1702606957,"current_range_meters":400,"station_id":"ce4bhr12rcd13ifvqhpg","pricing_plan_id":"free"},{"bike_id":"ddcac05a-ccc6-4198-99d1-62900c58ea96","system_id":"levelo_inurba_marseille","lat":43.313571,"lon":5.384829,"is_reserved":false,"is_disabled":false,"rental_uris":{"android":"levelo://app?vid=ddcac05a-ccc6-4198-99d1-62900c58ea96","ios":"levelo://app?vid=ddcac05a-ccc6-4198-99d1-62900c58ea96"},"vehicle_type_id":"4","last_reported":1702606957,"current_range_meters":12000,"station_id":"ce4bgt92rcd13ifvqcf0","pricing_plan_id":"free"},{"bike_id":"329d2ae7-6c1c-4da8-9ddc-5ecd5fe64f31","system_id":"levelo_inurba_marseille","lat":43.313571,"lon":5.384829,"is_reserved":false,"is_disabled":false,"rental_uris":{"android":"levelo://app?vid=329d2ae7-6c1c-4da8-9ddc-5ecd5fe64f31","ios":"levelo://app?vid=329d2ae7-6c1c-4da8-9ddc-5ecd5fe64f31"},"vehicle_type_id":"4","last_reported":1702606957,"current_range_meters":31600,"station_id":"ce4bgt92rcd13ifvqcf0","pricing_plan_id":"free"},{"bike_id":"41d51e56-3ff2-4830-9558-2c01d002254c","system_id":"levelo_inurba_marseille","lat":43.31359,"lon":5.38491,"is_reserved":false,"is_disabled":false,"rental_uris":{"android":"levelo://app?vid=41d51e56-3ff2-4830-9558-2c01d002254c","ios":"levelo://app?vid=41d51e56-3ff2-4830-9558-2c01d002254c"},"vehicle_type_id":"4","last_reported":1702606957,"current_range_meters":15200,"station_id":"ce4bgt92rcd13ifvqcf0","pricing_plan_id":"free"},{"bike_id":"e9fffd3e-cf1f-4280-b19d-d8bb4c65c87c","system_id":"levelo_inurba_marseille","lat":43.31363,"lon":5.38492,"is_reserved":false,"is_disabled":false,"rental_uris":{"android":"levelo://app?vid=e9fffd3e-cf1f-4280-b19d-d8bb4c65c87c","ios":"levelo://app?vid=e9fffd3e-cf1f-4280-b19d-d8bb4c65c87c"},"vehicle_type_id":"4","last_reported":1702606957,"current_range_meters":22800,"station_id":"ce4bgt92rcd13ifvqcf0","pricing_plan_id":"free"},{"bike_id":"dc11063a-44ce-4604-be3b-1e17a4936ec2","system_id":"levelo_inurba_marseille","lat":43.3137,"lon":5.38493,"is_reserved":false,"is_disabled":false,"rental_uris":{"android":"levelo://app?vid=dc11063a-44ce-4604-be3b-1e17a4936ec2","ios":"levelo://app?vid=dc11063a-44ce-4604-be3b-1e17a4936ec2"},"vehicle_type_id":"4","last_reported":1702606957,"current_range_meters":30000,"station_id":"ce4bgt92rcd13ifvqcf0","pricing_plan_id":"free"},{"bike_id":"c266618a-de1b-4134-b273-242d3712749b","system_id":"levelo_inurba_marseille","lat":43.313571,"lon":5.384829,"is_reserved":false,"is_disabled":false,"rental_uris":{"android":"levelo://app?vid=c266618a-de1b-4134-b273-242d3712749b","ios":"levelo://app?vid=c266618a-de1b-4134-b273-242d3712749b"},"vehicle_type_id":"4","last_reported":1702606957,"current_range_meters":29200,"station_id":"ce4bgt92rcd13ifvqcf0","pricing_plan_id":"free"},{"bike_id":"4033e756-5d8e-4d69-811d-26c0724b48ea","system_id":"levelo_inurba_marseille","lat":43.31372,"lon":5.38496,"is_reserved":false,"is_disabled":false,"rental_uris":{"android":"levelo://app?vid=4033e756-5d8e-4d69-811d-26c0724b48ea","ios":"levelo://app?vid=4033e756-5d8e-4d69-811d-26c0724b48ea"},"vehicle_type_id":"4","last_reported":1702606957,"current_range_meters":20000,"station_id":"ce4bgt92rcd13ifvqcf0","pricing_plan_id":"free"},{"bike_id":"96f9c007-ff09-4dfc-b4c5-7628a1436bae","system_id":"levelo_inurba_marseille","lat":43.299724,"lon":5.371829,"is_reserved":false,"is_disabled":false,"rental_uris":{"android":"levelo://app?vid=96f9c007-ff09-4dfc-b4c5-7628a1436bae","ios":"levelo://app?vid=96f9c007-ff09-4dfc-b4c5-7628a1436bae"},"vehicle_type_id":"4","last_reported":1702606957,"current_range_meters":29600,"station_id":"ce4bgr92rcd13ifvqc7g","pricing_plan_id":"free"},{"bike_id":"34b1362b-24cd-49ca-9591-c3616e2c26ef","system_id":"levelo_inurba_marseille","lat":43.311722,"lon":5.387247,"is_reserved":false,"is_disabled":false,"rental_uris":{"android":"levelo://app?vid=34b1362b-24cd-49ca-9591-c3616e2c26ef","ios":"levelo://app?vid=34b1362b-24cd-49ca-9591-c3616e2c26ef"},"vehicle_type_id":"4","last_reported":1702606957,"current_range_meters":24000,"station_id":"ce4bgv12rcd13ifvqcp0","pricing_plan_id":"free"},{"bike_id":"686e6759-47b2-4871-91e4-ce4239564f89","system_id":"levelo_inurba_marseille","lat":43.311722,"lon":5.387247,"is_reserved":false,"is_disabled":false,"rental_uris":{"android":"levelo://app?vid=686e6759-47b2-4871-91e4-ce4239564f89","ios":"levelo://app?vid=686e6759-47b2-4871-91e4-ce4239564f89"},"vehicle_type_id":"4","last_reported":1702606957,"current_range_meters":31200,"station_id":"ce4bgv12rcd13ifvqcp0","pricing_plan_id":"free"},{"bike_id":"cfa42544-0afc-4684-a75c-6a687aad364f","system_id":"levelo_inurba_marseille","lat":43.311722,"lon":5.387247,"is_reserved":false,"is_disabled":false,"rental_uris":{"android":"levelo://app?vid=cfa42544-0afc-4684-a75c-6a687aad364f","ios":"levelo://app?vid=cfa42544-0afc-4684-a75c-6a687aad364f"},"vehicle_type_id":"4","last_reported":1702606957,"current_range_meters":20800,"station_id":"ce4bgv12rcd13ifvqcp0","pricing_plan_id":"free"},{"bike_id":"8c9ca22d-e59e-4f17-8b2d-3baf8bf24c1c","system_id":"levelo_inurba_marseille","lat":43.311722,"lon":5.387247,"is_reserved":false,"is_disabled":false,"rental_uris":{"android":"levelo://app?vid=8c9ca22d-e59e-4f17-8b2d-3baf8bf24c1c","ios":"levelo://app?vid=8c9ca22d-e59e-4f17-8b2d-3baf8bf24c1c"},"vehicle_type_id":"4","last_reported":1702606957,"current_range_meters":20000,"station_id":"ce4bgv12rcd13ifvqcp0","pricing_plan_id":"free"},{"bike_id":"69e9fc8a-cb23-4e32-9be8-bfa6b1b97d55","system_id":"levelo_inurba_marseille","lat":43.311722,"lon":5.387247,"is_reserved":false,"is_disabled":false,"rental_uris":{"android":"levelo://app?vid=69e9fc8a-cb23-4e32-9be8-bfa6b1b97d55","ios":"levelo://app?vid=69e9fc8a-cb23-4e32-9be8-bfa6b1b97d55"},"vehicle_type_id":"4","last_reported":1702606957,"current_range_meters":31200,"station_id":"ce4bgv12rcd13ifvqcp0","pricing_plan_id":"free"},{"bike_id":"e7d152ed-e84f-49e6-b7d9-be879ce5185f","system_id":"levelo_inurba_marseille","lat":43.311722,"lon":5.387247,"is_reserved":false,"is_disabled":false,"rental_uris":{"android":"levelo://app?vid=e7d152ed-e84f-49e6-b7d9-be879ce5185f","ios":"levelo://app?vid=e7d152ed-e84f-49e6-b7d9-be879ce5185f"},"vehicle_type_id":"4","last_reported":1702606957,"current_range_meters":30000,"station_id":"ce4bgv12rcd13ifvqcp0","pricing_plan_id":"free"},{"bike_id":"975b6a93-9a93-4fbc-8190-13b430d64414","system_id":"levelo_inurba_marseille","lat":43.32281,"lon":5.38284,"is_reserved":false,"is_disabled":false,"rental_uris":{"android":"levelo://app?vid=975b6a93-9a93-4fbc-8190-13b430d64414","ios":"levelo://app?vid=975b6a93-9a93-4fbc-8190-13b430d64414"},"vehicle_type_id":"4","last_reported":1702606957,"current_range_meters":30000,"station_id":"ce4bhr12rcd13ifvqhqg","pricing_plan_id":"free"},{"bike_id":"0eea8a30-88a6-46e7-9a8c-2c6a74a10c02","system_id":"levelo_inurba_marseille","lat":43.322977,"lon":5.38277,"is_reserved":false,"is_disabled":false,"rental_uris":{"android":"levelo://app?vid=0eea8a30-88a6-46e7-9a8c-2c6a74a10c02","ios":"levelo://app?vid=0eea8a30-88a6-46e7-9a8c-2c6a74a10c02"},"vehicle_type_id":"4","last_reported":1702606957,"current_range_meters":2000,"station_id":"ce4bhr12rcd13ifvqhqg","pricing_plan_id":"free"},{"bike_id":"54009a14-f96d-46cd-87dc-156aab800157","system_id":"levelo_inurba_marseille","lat":43.32833,"lon":5.36676,"is_reserved":false,"is_disabled":false,"rental_uris":{"android":"levelo://app?vid=54009a14-f96d-46cd-87dc-156aab800157","ios":"levelo://app?vid=54009a14-f96d-46cd-87dc-156aab800157"},"vehicle_type_id":"4","last_reported":1702606957,"current_range_meters":12400,"station_id":"ce4bhs92rcd13ifvqi0g","pricing_plan_id":"free"},{"bike_id":"7603b897-ee9a-4146-9102-ce9bcf724188","system_id":"levelo_inurba_marseille","lat":43.297163,"lon":5.365866,"is_reserved":false,"is_disabled":false,"rental_uris":{"android":"levelo://app?vid=7603b897-ee9a-4146-9102-ce9bcf724188","ios":"levelo://app?vid=7603b897-ee9a-4146-9102-ce9bcf724188"},"vehicle_type_id":"4","last_reported":1702606957,"current_range_meters":24800,"station_id":"ce4bgn12rcd13ifvqbt0","pricing_plan_id":"free"},{"bike_id":"f263b1ac-e428-4b18-9973-9d9d32c4d8f1","system_id":"levelo_inurba_marseille","lat":43.328386,"lon":5.366802,"is_reserved":false,"is_disabled":false,"rental_uris":{"android":"levelo://app?vid=f263b1ac-e428-4b18-9973-9d9d32c4d8f1","ios":"levelo://app?vid=f263b1ac-e428-4b18-9973-9d9d32c4d8f1"},"vehicle_type_id":"4","last_reported":1702606957,"current_range_meters":22400,"station_id":"ce4bhs92rcd13ifvqi0g","pricing_plan_id":"free"},{"bike_id":"f4fd40e9-f191-4036-affb-bf71dbd72307","system_id":"levelo_inurba_marseille","lat":43.317557,"lon":5.390173,"is_reserved":false,"is_disabled":false,"rental_uris":{"android":"levelo://app?vid=f4fd40e9-f191-4036-affb-bf71dbd72307","ios":"levelo://app?vid=f4fd40e9-f191-4036-affb-bf71dbd72307"},"vehicle_type_id":"4","last_reported":1702606957,"current_range_meters":22400,"station_id":"ce4bhqp2rcd13ifvqhng","pricing_plan_id":"free"},{"bike_id":"29db5516-5e0d-498e-9412-f6935b984812","system_id":"levelo_inurba_marseille","lat":43.32368,"lon":5.3888,"is_reserved":false,"is_disabled":false,"rental_uris":{"android":"levelo://app?vid=29db5516-5e0d-498e-9412-f6935b984812","ios":"levelo://app?vid=29db5516-5e0d-498e-9412-f6935b984812"},"vehicle_type_id":"4","last_reported":1702606957,"current_range_meters":8800,"station_id":"ce4bhqp2rcd13ifvqhog","pricing_plan_id":"free"},{"bike_id":"764eab46-a093-49ca-925e-2853e10c741f","system_id":"levelo_inurba_marseille","lat":43.32367,"lon":5.388836,"is_reserved":false,"is_disabled":false,"rental_uris":{"android":"levelo://app?vid=764eab46-a093-49ca-925e-2853e10c741f","ios":"levelo://app?vid=764eab46-a093-49ca-925e-2853e10c741f"},"vehicle_type_id":"4","last_reported":1702606957,"current_range_meters":16000,"station_id":"ce4bhqp2rcd13ifvqhog","pricing_plan_id":"free"},{"bike_id":"3ee385ca-3b2d-4e6d-ad26-634c59f1abd6","system_id":"levelo_inurba_marseille","lat":43.29601,"lon":5.381084,"is_reserved":false,"is_disabled":false,"rental_uris":{"android":"levelo://app?vid=3ee385ca-3b2d-4e6d-ad26-634c59f1abd6","ios":"levelo://app?vid=3ee385ca-3b2d-4e6d-ad26-634c59f1abd6"},"vehicle_type_id":"4","last_reported":1702606957,"current_range_meters":24800,"station_id":"ce4bgl12rcd13ifvqbo0","pricing_plan_id":"free"},{"bike_id":"7dc0ca02-77e7-42a1-b1a1-d0f5bad1c74a","system_id":"levelo_inurba_marseille","lat":43.2936,"lon":5.37835,"is_reserved":false,"is_disabled":false,"rental_uris":{"android":"levelo://app?vid=7dc0ca02-77e7-42a1-b1a1-d0f5bad1c74a","ios":"levelo://app?vid=7dc0ca02-77e7-42a1-b1a1-d0f5bad1c74a"},"vehicle_type_id":"4","last_reported":1702606957,"current_range_meters":6400,"station_id":"ce4bgjh2rcd13ifvqbf0","pricing_plan_id":"free"},{"bike_id":"a730d39e-b46a-495b-9fc5-4241034202ab","system_id":"levelo_inurba_marseille","lat":43.309047,"lon":5.396551,"is_reserved":false,"is_disabled":false,"rental_uris":{"android":"levelo://app?vid=a730d39e-b46a-495b-9fc5-4241034202ab","ios":"levelo://app?vid=a730d39e-b46a-495b-9fc5-4241034202ab"},"vehicle_type_id":"4","last_reported":1702606957,"current_range_meters":30000,"station_id":"ce4bh012rcd13ifvqcv0","pricing_plan_id":"free"},{"bike_id":"4ef0327f-06fb-49c3-b431-ca1270e4d436","system_id":"levelo_inurba_marseille","lat":43.309038,"lon":5.396546,"is_reserved":false,"is_disabled":false,"rental_uris":{"android":"levelo://app?vid=4ef0327f-06fb-49c3-b431-ca1270e4d436","ios":"levelo://app?vid=4ef0327f-06fb-49c3-b431-ca1270e4d436"},"vehicle_type_id":"4","last_reported":1702606957,"current_range_meters":31600,"station_id":"ce4bh012rcd13ifvqcv0","pricing_plan_id":"free"},{"bike_id":"b1a50ad3-efa5-4a11-bf87-b34106e09b09","system_id":"levelo_inurba_marseille","lat":43.313291,"lon":5.396838,"is_reserved":false,"is_disabled":false,"rental_uris":{"android":"levelo://app?vid=b1a50ad3-efa5-4a11-bf87-b34106e09b09","ios":"levelo://app?vid=b1a50ad3-efa5-4a11-bf87-b34106e09b09"},"vehicle_type_id":"4","last_reported":1702606957,"current_range_meters":12000,"station_id":"ce4bgvp2rcd13ifvqcu0","pricing_plan_id":"free"},{"bike_id":"1bd972af-ab92-48aa-a3a8-11036fc22542","system_id":"levelo_inurba_marseille","lat":43.309038,"lon":5.396546,"is_reserved":false,"is_disabled":false,"rental_uris":{"android":"levelo://app?vid=1bd972af-ab92-48aa-a3a8-11036fc22542","ios":"levelo://app?vid=1bd972af-ab92-48aa-a3a8-11036fc22542"},"vehicle_type_id":"4","last_reported":1702606957,"current_range_meters":8800,"station_id":"ce4bh012rcd13ifvqcv0","pricing_plan_id":"free"},{"bike_id":"4b7e289d-e805-43ae-9bfe-5d23f62e7e14","system_id":"levelo_inurba_marseille","lat":43.313291,"lon":5.396838,"is_reserved":false,"is_disabled":false,"rental_uris":{"android":"levelo://app?vid=4b7e289d-e805-43ae-9bfe-5d23f62e7e14","ios":"levelo://app?vid=4b7e289d-e805-43ae-9bfe-5d23f62e7e14"},"vehicle_type_id":"4","last_reported":1702606957,"current_range_meters":31200,"station_id":"ce4bgvp2rcd13ifvqcu0","pricing_plan_id":"free"},{"bike_id":"8b0d53a8-ce99-443a-80fd-38dea9359a8b","system_id":"levelo_inurba_marseille","lat":43.313291,"lon":5.396838,"is_reserved":false,"is_disabled":false,"rental_uris":{"android":"levelo://app?vid=8b0d53a8-ce99-443a-80fd-38dea9359a8b","ios":"levelo://app?vid=8b0d53a8-ce99-443a-80fd-38dea9359a8b"},"vehicle_type_id":"4","last_reported":1702606957,"current_range_meters":10000,"station_id":"ce4bgvp2rcd13ifvqcu0","pricing_plan_id":"free"},{"bike_id":"1879ce71-f05a-452f-8e15-dce0259b48a1","system_id":"levelo_inurba_marseille","lat":43.309038,"lon":5.396546,"is_reserved":false,"is_disabled":false,"rental_uris":{"android":"levelo://app?vid=1879ce71-f05a-452f-8e15-dce0259b48a1","ios":"levelo://app?vid=1879ce71-f05a-452f-8e15-dce0259b48a1"},"vehicle_type_id":"4","last_reported":1702606957,"current_range_meters":7200,"station_id":"ce4bh012rcd13ifvqcv0","pricing_plan_id":"free"},{"bike_id":"a168af8e-512a-4a69-b5b7-22c67c747b95","system_id":"levelo_inurba_marseille","lat":43.290624,"lon":5.359245,"is_reserved":false,"is_disabled":false,"rental_uris":{"android":"levelo://app?vid=a168af8e-512a-4a69-b5b7-22c67c747b95","ios":"levelo://app?vid=a168af8e-512a-4a69-b5b7-22c67c747b95"},"vehicle_type_id":"4","last_reported":1702606957,"current_range_meters":19600,"station_id":"ce4bha92rcd13ifvqeg0","pricing_plan_id":"free"},{"bike_id":"3c46a9dc-c30a-40c8-9efc-923023c2bad3","system_id":"levelo_inurba_marseille","lat":43.29747,"lon":5.390517,"is_reserved":false,"is_disabled":false,"rental_uris":{"android":"levelo://app?vid=3c46a9dc-c30a-40c8-9efc-923023c2bad3","ios":"levelo://app?vid=3c46a9dc-c30a-40c8-9efc-923023c2bad3"},"vehicle_type_id":"4","last_reported":1702606957,"current_range_meters":6800,"station_id":"","pricing_plan_id":"free"},{"bike_id":"1422b97c-69cf-4955-815d-deca8bf6b403","system_id":"levelo_inurba_marseille","lat":43.289184,"lon":5.366408,"is_reserved":false,"is_disabled":false,"rental_uris":{"android":"levelo://app?vid=1422b97c-69cf-4955-815d-deca8bf6b403","ios":"levelo://app?vid=1422b97c-69cf-4955-815d-deca8bf6b403"},"vehicle_type_id":"4","last_reported":1702606957,"current_range_meters":27200,"station_id":"ce4bhap2rcd13ifvqek0","pricing_plan_id":"free"},{"bike_id":"18e8b16b-2b16-45a5-891b-2e578eb2d51b","system_id":"levelo_inurba_marseille","lat":43.289184,"lon":5.366408,"is_reserved":false,"is_disabled":false,"rental_uris":{"android":"levelo://app?vid=18e8b16b-2b16-45a5-891b-2e578eb2d51b","ios":"levelo://app?vid=18e8b16b-2b16-45a5-891b-2e578eb2d51b"},"vehicle_type_id":"4","last_reported":1702606957,"current_range_meters":24000,"station_id":"ce4bhap2rcd13ifvqek0","pricing_plan_id":"free"},{"bike_id":"1474c209-8d36-4dc8-bcde-56cdfaf6d813","system_id":"levelo_inurba_marseille","lat":43.289333,"lon":5.363946,"is_reserved":false,"is_disabled":false,"rental_uris":{"android":"levelo://app?vid=1474c209-8d36-4dc8-bcde-56cdfaf6d813","ios":"levelo://app?vid=1474c209-8d36-4dc8-bcde-56cdfaf6d813"},"vehicle_type_id":"4","last_reported":1702606957,"current_range_meters":25200,"station_id":"ce4bhc92rcd13ifvqetg","pricing_plan_id":"free"},{"bike_id":"e36fc3c3-3f2f-4976-afc1-efdf79dee1e9","system_id":"levelo_inurba_marseille","lat":43.33042,"lon":5.38923,"is_reserved":false,"is_disabled":false,"rental_uris":{"android":"levelo://app?vid=e36fc3c3-3f2f-4976-afc1-efdf79dee1e9","ios":"levelo://app?vid=e36fc3c3-3f2f-4976-afc1-efdf79dee1e9"},"vehicle_type_id":"4","last_reported":1702606957,"current_range_meters":28800,"station_id":"ce4bhr92rcd13ifvqhrg","pricing_plan_id":"free"},{"bike_id":"9430066a-b3f6-4803-82ef-db8ee806a880","system_id":"levelo_inurba_marseille","lat":43.33047,"lon":5.3892,"is_reserved":false,"is_disabled":false,"rental_uris":{"android":"levelo://app?vid=9430066a-b3f6-4803-82ef-db8ee806a880","ios":"levelo://app?vid=9430066a-b3f6-4803-82ef-db8ee806a880"},"vehicle_type_id":"4","last_reported":1702606957,"current_range_meters":29600,"station_id":"ce4bhr92rcd13ifvqhrg","pricing_plan_id":"free"},{"bike_id":"cb97dad5-0a9b-4ed9-aaef-452e2f91d55e","system_id":"levelo_inurba_marseille","lat":43.290995,"lon":5.381361,"is_reserved":false,"is_disabled":false,"rental_uris":{"android":"levelo://app?vid=cb97dad5-0a9b-4ed9-aaef-452e2f91d55e","ios":"levelo://app?vid=cb97dad5-0a9b-4ed9-aaef-452e2f91d55e"},"vehicle_type_id":"4","last_reported":1702606957,"current_range_meters":20400,"station_id":"ce4bh512rcd13ifvqe2g","pricing_plan_id":"free"},{"bike_id":"a935a70e-efcb-469d-b381-2a10e31b9579","system_id":"levelo_inurba_marseille","lat":43.29791,"lon":5.3933,"is_reserved":false,"is_disabled":false,"rental_uris":{"android":"levelo://app?vid=a935a70e-efcb-469d-b381-2a10e31b9579","ios":"levelo://app?vid=a935a70e-efcb-469d-b381-2a10e31b9579"},"vehicle_type_id":"4","last_reported":1702606957,"current_range_meters":23200,"station_id":"chh1huq6cuj3fo74tm60","pricing_plan_id":"free"},{"bike_id":"5e6f3fe8-473e-4fe3-92e8-44f19180b8c0","system_id":"levelo_inurba_marseille","lat":43.30939,"lon":5.40145,"is_reserved":false,"is_disabled":false,"rental_uris":{"android":"levelo://app?vid=5e6f3fe8-473e-4fe3-92e8-44f19180b8c0","ios":"levelo://app?vid=5e6f3fe8-473e-4fe3-92e8-44f19180b8c0"},"vehicle_type_id":"4","last_reported":1702606957,"current_range_meters":5600,"station_id":"ce4bgvp2rcd13ifvqct0","pricing_plan_id":"free"},{"bike_id":"7ef95456-dceb-4a26-b87b-2753efefc6ac","system_id":"levelo_inurba_marseille","lat":43.337522,"lon":5.374515,"is_reserved":false,"is_disabled":false,"rental_uris":{"android":"levelo://app?vid=7ef95456-dceb-4a26-b87b-2753efefc6ac","ios":"levelo://app?vid=7ef95456-dceb-4a26-b87b-2753efefc6ac"},"vehicle_type_id":"4","last_reported":1702606957,"current_range_meters":22000,"station_id":"","pricing_plan_id":"free"},{"bike_id":"49e51a05-2a36-40fb-bd5f-b1e4aebd0a1f","system_id":"levelo_inurba_marseille","lat":43.337522,"lon":5.374665,"is_reserved":false,"is_disabled":false,"rental_uris":{"android":"levelo://app?vid=49e51a05-2a36-40fb-bd5f-b1e4aebd0a1f","ios":"levelo://app?vid=49e51a05-2a36-40fb-bd5f-b1e4aebd0a1f"},"vehicle_type_id":"4","last_reported":1702606957,"current_range_meters":28400,"station_id":"","pricing_plan_id":"free"},{"bike_id":"51b3d9eb-8c86-4da3-8fa3-905d6901b4bc","system_id":"levelo_inurba_marseille","lat":43.309319,"lon":5.401573,"is_reserved":false,"is_disabled":false,"rental_uris":{"android":"levelo://app?vid=51b3d9eb-8c86-4da3-8fa3-905d6901b4bc","ios":"levelo://app?vid=51b3d9eb-8c86-4da3-8fa3-905d6901b4bc"},"vehicle_type_id":"4","last_reported":1702606957,"current_range_meters":12000,"station_id":"ce4bgvp2rcd13ifvqct0","pricing_plan_id":"free"},{"bike_id":"a83dd33a-5936-4db0-9b05-9ac0cbc99352","system_id":"levelo_inurba_marseille","lat":43.30925,"lon":5.40161,"is_reserved":false,"is_disabled":false,"rental_uris":{"android":"levelo://app?vid=a83dd33a-5936-4db0-9b05-9ac0cbc99352","ios":"levelo://app?vid=a83dd33a-5936-4db0-9b05-9ac0cbc99352"},"vehicle_type_id":"4","last_reported":1702606957,"current_range_meters":15200,"station_id":"ce4bgvp2rcd13ifvqct0","pricing_plan_id":"free"},{"bike_id":"76d5a3d4-ca4e-48a5-b745-5816e4f3de67","system_id":"levelo_inurba_marseille","lat":43.33757,"lon":5.37482,"is_reserved":false,"is_disabled":false,"rental_uris":{"android":"levelo://app?vid=76d5a3d4-ca4e-48a5-b745-5816e4f3de67","ios":"levelo://app?vid=76d5a3d4-ca4e-48a5-b745-5816e4f3de67"},"vehicle_type_id":"4","last_reported":1702606957,"current_range_meters":28400,"station_id":"","pricing_plan_id":"free"},{"bike_id":"930bba3a-4350-44cf-bb9b-310a6cbdb5ef","system_id":"levelo_inurba_marseille","lat":43.33764,"lon":5.37491,"is_reserved":false,"is_disabled":false,"rental_uris":{"android":"levelo://app?vid=930bba3a-4350-44cf-bb9b-310a6cbdb5ef","ios":"levelo://app?vid=930bba3a-4350-44cf-bb9b-310a6cbdb5ef"},"vehicle_type_id":"4","last_reported":1702606957,"current_range_meters":30400,"station_id":"","pricing_plan_id":"free"},{"bike_id":"7ef27bd9-d99e-4fbd-9c19-b4e773273957","system_id":"levelo_inurba_marseille","lat":43.28727,"lon":5.36078,"is_reserved":false,"is_disabled":false,"rental_uris":{"android":"levelo://app?vid=7ef27bd9-d99e-4fbd-9c19-b4e773273957","ios":"levelo://app?vid=7ef27bd9-d99e-4fbd-9c19-b4e773273957"},"vehicle_type_id":"4","last_reported":1702606957,"current_range_meters":4400,"station_id":"cki0cbj6b192h4jlfktg","pricing_plan_id":"free"},{"bike_id":"2b345619-5d58-415c-829f-9515ba684a00","system_id":"levelo_inurba_marseille","lat":43.28723,"lon":5.36078,"is_reserved":false,"is_disabled":false,"rental_uris":{"android":"levelo://app?vid=2b345619-5d58-415c-829f-9515ba684a00","ios":"levelo://app?vid=2b345619-5d58-415c-829f-9515ba684a00"},"vehicle_type_id":"4","last_reported":1702606957,"current_range_meters":31200,"station_id":"cki0cbj6b192h4jlfktg","pricing_plan_id":"free"},{"bike_id":"489f8bf9-1d11-4d63-a6b0-ff1abf655b15","system_id":"levelo_inurba_marseille","lat":43.286961,"lon":5.373785,"is_reserved":false,"is_disabled":false,"rental_uris":{"android":"levelo://app?vid=489f8bf9-1d11-4d63-a6b0-ff1abf655b15","ios":"levelo://app?vid=489f8bf9-1d11-4d63-a6b0-ff1abf655b15"},"vehicle_type_id":"4","last_reported":1702606957,"current_range_meters":30000,"station_id":"ce4bh3p2rcd13ifvqdq0","pricing_plan_id":"free"},{"bike_id":"3e27c137-c71e-441e-a7ee-d086072aeee9","system_id":"levelo_inurba_marseille","lat":43.298681,"lon":5.397225,"is_reserved":false,"is_disabled":false,"rental_uris":{"android":"levelo://app?vid=3e27c137-c71e-441e-a7ee-d086072aeee9","ios":"levelo://app?vid=3e27c137-c71e-441e-a7ee-d086072aeee9"},"vehicle_type_id":"4","last_reported":1702606957,"current_range_meters":19200,"station_id":"ce4bh0h2rcd13ifvqd50","pricing_plan_id":"free"},{"bike_id":"23f36449-521c-43a7-ad84-0e637d8f4532","system_id":"levelo_inurba_marseille","lat":43.286961,"lon":5.373785,"is_reserved":false,"is_disabled":false,"rental_uris":{"android":"levelo://app?vid=23f36449-521c-43a7-ad84-0e637d8f4532","ios":"levelo://app?vid=23f36449-521c-43a7-ad84-0e637d8f4532"},"vehicle_type_id":"4","last_reported":1702606957,"current_range_meters":30800,"station_id":"ce4bh3p2rcd13ifvqdq0","pricing_plan_id":"free"},{"bike_id":"fcc17c37-c98b-4b49-a97f-f145279858e3","system_id":"levelo_inurba_marseille","lat":43.286591,"lon":5.363346,"is_reserved":false,"is_disabled":false,"rental_uris":{"android":"levelo://app?vid=fcc17c37-c98b-4b49-a97f-f145279858e3","ios":"levelo://app?vid=fcc17c37-c98b-4b49-a97f-f145279858e3"},"vehicle_type_id":"4","last_reported":1702606957,"current_range_meters":22000,"station_id":"ce4bhah2rcd13ifvqej0","pricing_plan_id":"free"},{"bike_id":"2b9099c0-d9c9-46c7-88a8-0522d9bcef73","system_id":"levelo_inurba_marseille","lat":43.298681,"lon":5.397225,"is_reserved":false,"is_disabled":false,"rental_uris":{"android":"levelo://app?vid=2b9099c0-d9c9-46c7-88a8-0522d9bcef73","ios":"levelo://app?vid=2b9099c0-d9c9-46c7-88a8-0522d9bcef73"},"vehicle_type_id":"4","last_reported":1702606957,"current_range_meters":28000,"station_id":"ce4bh0h2rcd13ifvqd50","pricing_plan_id":"free"},{"bike_id":"811b580c-6a7f-46c2-bdec-3d192d9555b3","system_id":"levelo_inurba_marseille","lat":43.298681,"lon":5.397225,"is_reserved":false,"is_disabled":false,"rental_uris":{"android":"levelo://app?vid=811b580c-6a7f-46c2-bdec-3d192d9555b3","ios":"levelo://app?vid=811b580c-6a7f-46c2-bdec-3d192d9555b3"},"vehicle_type_id":"4","last_reported":1702606957,"current_range_meters":8800,"station_id":"ce4bh0h2rcd13ifvqd50","pricing_plan_id":"free"},{"bike_id":"d9c2d0d4-3533-47fc-8edb-197e76bed19c","system_id":"levelo_inurba_marseille","lat":43.298681,"lon":5.397225,"is_reserved":false,"is_disabled":false,"rental_uris":{"android":"levelo://app?vid=d9c2d0d4-3533-47fc-8edb-197e76bed19c","ios":"levelo://app?vid=d9c2d0d4-3533-47fc-8edb-197e76bed19c"},"vehicle_type_id":"4","last_reported":1702606957,"current_range_meters":24000,"station_id":"ce4bh0h2rcd13ifvqd50","pricing_plan_id":"free"},{"bike_id":"505f0b17-29c3-48de-80f8-f2ce1d81f7b0","system_id":"levelo_inurba_marseille","lat":43.302759,"lon":5.400793,"is_reserved":false,"is_disabled":false,"rental_uris":{"android":"levelo://app?vid=505f0b17-29c3-48de-80f8-f2ce1d81f7b0","ios":"levelo://app?vid=505f0b17-29c3-48de-80f8-f2ce1d81f7b0"},"vehicle_type_id":"4","last_reported":1702606957,"current_range_meters":11600,"station_id":"ce4bgvh2rcd13ifvqcs0","pricing_plan_id":"free"},{"bike_id":"d1aee2de-f7a2-4ecf-9e5e-e6970cb28961","system_id":"levelo_inurba_marseille","lat":43.302565,"lon":5.40073,"is_reserved":false,"is_disabled":false,"rental_uris":{"android":"levelo://app?vid=d1aee2de-f7a2-4ecf-9e5e-e6970cb28961","ios":"levelo://app?vid=d1aee2de-f7a2-4ecf-9e5e-e6970cb28961"},"vehicle_type_id":"4","last_reported":1702606957,"current_range_meters":16400,"station_id":"ce4bgvh2rcd13ifvqcs0","pricing_plan_id":"free"},{"bike_id":"e7981e10-8b4d-418c-a669-5385e37a96a2","system_id":"levelo_inurba_marseille","lat":43.302759,"lon":5.400793,"is_reserved":false,"is_disabled":false,"rental_uris":{"android":"levelo://app?vid=e7981e10-8b4d-418c-a669-5385e37a96a2","ios":"levelo://app?vid=e7981e10-8b4d-418c-a669-5385e37a96a2"},"vehicle_type_id":"4","last_reported":1702606957,"current_range_meters":27600,"station_id":"ce4bgvh2rcd13ifvqcs0","pricing_plan_id":"free"},{"bike_id":"e880459c-687f-435d-b08f-1c189601c4b3","system_id":"levelo_inurba_marseille","lat":43.316828,"lon":5.404723,"is_reserved":false,"is_disabled":false,"rental_uris":{"android":"levelo://app?vid=e880459c-687f-435d-b08f-1c189601c4b3","ios":"levelo://app?vid=e880459c-687f-435d-b08f-1c189601c4b3"},"vehicle_type_id":"4","last_reported":1702606957,"current_range_meters":24800,"station_id":"ce4bh012rcd13ifvqd00","pricing_plan_id":"free"},{"bike_id":"228b52c0-d947-4a17-b9ac-6576267d6243","system_id":"levelo_inurba_marseille","lat":43.284538,"lon":5.358657,"is_reserved":false,"is_disabled":false,"rental_uris":{"android":"levelo://app?vid=228b52c0-d947-4a17-b9ac-6576267d6243","ios":"levelo://app?vid=228b52c0-d947-4a17-b9ac-6576267d6243"},"vehicle_type_id":"4","last_reported":1702606957,"current_range_meters":9200,"station_id":"ce4bhah2rcd13ifvqei0","pricing_plan_id":"free"},{"bike_id":"14fb2e90-27c8-4961-96a9-0723c188d0ac","system_id":"levelo_inurba_marseille","lat":43.284534,"lon":5.358662,"is_reserved":false,"is_disabled":false,"rental_uris":{"android":"levelo://app?vid=14fb2e90-27c8-4961-96a9-0723c188d0ac","ios":"levelo://app?vid=14fb2e90-27c8-4961-96a9-0723c188d0ac"},"vehicle_type_id":"4","last_reported":1702606957,"current_range_meters":26800,"station_id":"ce4bhah2rcd13ifvqei0","pricing_plan_id":"free"},{"bike_id":"819c9b3d-b424-4581-9f25-7b1ff0b0c654","system_id":"levelo_inurba_marseille","lat":43.284534,"lon":5.358662,"is_reserved":false,"is_disabled":false,"rental_uris":{"android":"levelo://app?vid=819c9b3d-b424-4581-9f25-7b1ff0b0c654","ios":"levelo://app?vid=819c9b3d-b424-4581-9f25-7b1ff0b0c654"},"vehicle_type_id":"4","last_reported":1702606957,"current_range_meters":30400,"station_id":"ce4bhah2rcd13ifvqei0","pricing_plan_id":"free"},{"bike_id":"6536d50c-f56a-4c49-8559-bb6f7b7a2cec","system_id":"levelo_inurba_marseille","lat":43.284534,"lon":5.358662,"is_reserved":false,"is_disabled":false,"rental_uris":{"android":"levelo://app?vid=6536d50c-f56a-4c49-8559-bb6f7b7a2cec","ios":"levelo://app?vid=6536d50c-f56a-4c49-8559-bb6f7b7a2cec"},"vehicle_type_id":"4","last_reported":1702606957,"current_range_meters":29200,"station_id":"ce4bhah2rcd13ifvqei0","pricing_plan_id":"free"},{"bike_id":"6acecc24-b5c9-43f6-a9b7-24a565a0e373","system_id":"levelo_inurba_marseille","lat":43.284538,"lon":5.358657,"is_reserved":false,"is_disabled":false,"rental_uris":{"android":"levelo://app?vid=6acecc24-b5c9-43f6-a9b7-24a565a0e373","ios":"levelo://app?vid=6acecc24-b5c9-43f6-a9b7-24a565a0e373"},"vehicle_type_id":"4","last_reported":1702606957,"current_range_meters":22000,"station_id":"ce4bhah2rcd13ifvqei0","pricing_plan_id":"free"},{"bike_id":"da467e0c-b32a-4d0c-83c1-286b75490566","system_id":"levelo_inurba_marseille","lat":43.284538,"lon":5.358657,"is_reserved":false,"is_disabled":false,"rental_uris":{"android":"levelo://app?vid=da467e0c-b32a-4d0c-83c1-286b75490566","ios":"levelo://app?vid=da467e0c-b32a-4d0c-83c1-286b75490566"},"vehicle_type_id":"4","last_reported":1702606957,"current_range_meters":31200,"station_id":"ce4bhah2rcd13ifvqei0","pricing_plan_id":"free"},{"bike_id":"04b585a1-fd7b-40b6-b4db-0c9da56c78a0","system_id":"levelo_inurba_marseille","lat":43.284538,"lon":5.358657,"is_reserved":false,"is_disabled":false,"rental_uris":{"android":"levelo://app?vid=04b585a1-fd7b-40b6-b4db-0c9da56c78a0","ios":"levelo://app?vid=04b585a1-fd7b-40b6-b4db-0c9da56c78a0"},"vehicle_type_id":"4","last_reported":1702606957,"current_range_meters":16400,"station_id":"ce4bhah2rcd13ifvqei0","pricing_plan_id":"free"},{"bike_id":"d812dd68-8580-4fed-9578-54a3a3cdf9d6","system_id":"levelo_inurba_marseille","lat":43.284538,"lon":5.358657,"is_reserved":false,"is_disabled":false,"rental_uris":{"android":"levelo://app?vid=d812dd68-8580-4fed-9578-54a3a3cdf9d6","ios":"levelo://app?vid=d812dd68-8580-4fed-9578-54a3a3cdf9d6"},"vehicle_type_id":"4","last_reported":1702606957,"current_range_meters":22400,"station_id":"ce4bhah2rcd13ifvqei0","pricing_plan_id":"free"},{"bike_id":"67b2354f-a5b4-4203-a8ef-15b79f362186","system_id":"levelo_inurba_marseille","lat":43.294314,"lon":5.397498,"is_reserved":false,"is_disabled":false,"rental_uris":{"android":"levelo://app?vid=67b2354f-a5b4-4203-a8ef-15b79f362186","ios":"levelo://app?vid=67b2354f-a5b4-4203-a8ef-15b79f362186"},"vehicle_type_id":"4","last_reported":1702606957,"current_range_meters":26400,"station_id":"ce4bh3h2rcd13ifvqdo0","pricing_plan_id":"free"},{"bike_id":"41f7c2ab-6ae9-416d-bdc9-69f9f84af943","system_id":"levelo_inurba_marseille","lat":43.323464,"lon":5.406297,"is_reserved":false,"is_disabled":false,"rental_uris":{"android":"levelo://app?vid=41f7c2ab-6ae9-416d-bdc9-69f9f84af943","ios":"levelo://app?vid=41f7c2ab-6ae9-416d-bdc9-69f9f84af943"},"vehicle_type_id":"4","last_reported":1702606957,"current_range_meters":28800,"station_id":"ce4bhq92rcd13ifvqhjg","pricing_plan_id":"free"},{"bike_id":"705f5f48-9a36-4b1d-9b2c-f39f9b70ff68","system_id":"levelo_inurba_marseille","lat":43.323464,"lon":5.406297,"is_reserved":false,"is_disabled":false,"rental_uris":{"android":"levelo://app?vid=705f5f48-9a36-4b1d-9b2c-f39f9b70ff68","ios":"levelo://app?vid=705f5f48-9a36-4b1d-9b2c-f39f9b70ff68"},"vehicle_type_id":"4","last_reported":1702606957,"current_range_meters":6800,"station_id":"ce4bhq92rcd13ifvqhjg","pricing_plan_id":"free"},{"bike_id":"1ab5cd54-43c0-49fa-a466-54df9f902037","system_id":"levelo_inurba_marseille","lat":43.323464,"lon":5.406297,"is_reserved":false,"is_disabled":false,"rental_uris":{"android":"levelo://app?vid=1ab5cd54-43c0-49fa-a466-54df9f902037","ios":"levelo://app?vid=1ab5cd54-43c0-49fa-a466-54df9f902037"},"vehicle_type_id":"4","last_reported":1702606957,"current_range_meters":31200,"station_id":"ce4bhq92rcd13ifvqhjg","pricing_plan_id":"free"},{"bike_id":"248b00ea-fee1-4d85-b914-6d80e9cac191","system_id":"levelo_inurba_marseille","lat":43.284793,"lon":5.384113,"is_reserved":false,"is_disabled":false,"rental_uris":{"android":"levelo://app?vid=248b00ea-fee1-4d85-b914-6d80e9cac191","ios":"levelo://app?vid=248b00ea-fee1-4d85-b914-6d80e9cac191"},"vehicle_type_id":"4","last_reported":1702606957,"current_range_meters":6800,"station_id":"ce4bh512rcd13ifvqe3g","pricing_plan_id":"free"},{"bike_id":"1d483fd6-f007-4cf4-938a-7b06635152cf","system_id":"levelo_inurba_marseille","lat":43.28484,"lon":5.38427,"is_reserved":false,"is_disabled":false,"rental_uris":{"android":"levelo://app?vid=1d483fd6-f007-4cf4-938a-7b06635152cf","ios":"levelo://app?vid=1d483fd6-f007-4cf4-938a-7b06635152cf"},"vehicle_type_id":"4","last_reported":1702606957,"current_range_meters":0,"station_id":"ce4bh512rcd13ifvqe3g","pricing_plan_id":"free"},{"bike_id":"54dcde39-ecbf-4a7e-9768-2a5aea1b8c91","system_id":"levelo_inurba_marseille","lat":43.297946,"lon":5.404063,"is_reserved":false,"is_disabled":false,"rental_uris":{"android":"levelo://app?vid=54dcde39-ecbf-4a7e-9768-2a5aea1b8c91","ios":"levelo://app?vid=54dcde39-ecbf-4a7e-9768-2a5aea1b8c91"},"vehicle_type_id":"4","last_reported":1702606957,"current_range_meters":28400,"station_id":"ce4bh112rcd13ifvqd90","pricing_plan_id":"free"},{"bike_id":"62ed8ba4-393b-484f-b6b8-0f6db10edc14","system_id":"levelo_inurba_marseille","lat":43.289363,"lon":5.396322,"is_reserved":false,"is_disabled":false,"rental_uris":{"android":"levelo://app?vid=62ed8ba4-393b-484f-b6b8-0f6db10edc14","ios":"levelo://app?vid=62ed8ba4-393b-484f-b6b8-0f6db10edc14"},"vehicle_type_id":"4","last_reported":1702606957,"current_range_meters":11600,"station_id":"ce4bh3h2rcd13ifvqdn0","pricing_plan_id":"free"},{"bike_id":"7334b453-d0b4-4999-b371-ea23d05c7673","system_id":"levelo_inurba_marseille","lat":43.283502,"lon":5.386471,"is_reserved":false,"is_disabled":false,"rental_uris":{"android":"levelo://app?vid=7334b453-d0b4-4999-b371-ea23d05c7673","ios":"levelo://app?vid=7334b453-d0b4-4999-b371-ea23d05c7673"},"vehicle_type_id":"4","last_reported":1702606957,"current_range_meters":15600,"station_id":"ce4bh492rcd13ifvqdvg","pricing_plan_id":"free"},{"bike_id":"f833b102-ec26-4af7-a87b-aabd058ab9e1","system_id":"levelo_inurba_marseille","lat":43.282744,"lon":5.350533,"is_reserved":false,"is_disabled":false,"rental_uris":{"android":"levelo://app?vid=f833b102-ec26-4af7-a87b-aabd058ab9e1","ios":"levelo://app?vid=f833b102-ec26-4af7-a87b-aabd058ab9e1"},"vehicle_type_id":"4","last_reported":1702606957,"current_range_meters":26000,"station_id":"ce4bhbp2rcd13ifvqerg","pricing_plan_id":"free"},{"bike_id":"7f4d8487-dbdf-496d-9d7b-1f2417384832","system_id":"levelo_inurba_marseille","lat":43.280382,"lon":5.369291,"is_reserved":false,"is_disabled":false,"rental_uris":{"android":"levelo://app?vid=7f4d8487-dbdf-496d-9d7b-1f2417384832","ios":"levelo://app?vid=7f4d8487-dbdf-496d-9d7b-1f2417384832"},"vehicle_type_id":"4","last_reported":1702606957,"current_range_meters":16800,"station_id":"ce4bha12rcd13ifvqef0","pricing_plan_id":"free"},{"bike_id":"3f9e11fb-6ded-4837-8e09-cb81bd152de6","system_id":"levelo_inurba_marseille","lat":43.290412,"lon":5.399633,"is_reserved":false,"is_disabled":false,"rental_uris":{"android":"levelo://app?vid=3f9e11fb-6ded-4837-8e09-cb81bd152de6","ios":"levelo://app?vid=3f9e11fb-6ded-4837-8e09-cb81bd152de6"},"vehicle_type_id":"4","last_reported":1702606957,"current_range_meters":18000,"station_id":"ce4bh392rcd13ifvqdm0","pricing_plan_id":"free"},{"bike_id":"476b12b7-1010-4618-a541-c07128d8dac4","system_id":"levelo_inurba_marseille","lat":43.281044,"lon":5.378308,"is_reserved":false,"is_disabled":false,"rental_uris":{"android":"levelo://app?vid=476b12b7-1010-4618-a541-c07128d8dac4","ios":"levelo://app?vid=476b12b7-1010-4618-a541-c07128d8dac4"},"vehicle_type_id":"4","last_reported":1702606957,"current_range_meters":31200,"station_id":"ce4bha12rcd13ifvqee0","pricing_plan_id":"free"},{"bike_id":"d39fa0f5-e57e-4f3f-a6d4-8a75b0e30630","system_id":"levelo_inurba_marseille","lat":43.281044,"lon":5.378308,"is_reserved":false,"is_disabled":false,"rental_uris":{"android":"levelo://app?vid=d39fa0f5-e57e-4f3f-a6d4-8a75b0e30630","ios":"levelo://app?vid=d39fa0f5-e57e-4f3f-a6d4-8a75b0e30630"},"vehicle_type_id":"4","last_reported":1702606957,"current_range_meters":22000,"station_id":"ce4bha12rcd13ifvqee0","pricing_plan_id":"free"},{"bike_id":"7c622e1e-880a-49e7-b6f6-24165eccbc3e","system_id":"levelo_inurba_marseille","lat":43.281044,"lon":5.378308,"is_reserved":false,"is_disabled":false,"rental_uris":{"android":"levelo://app?vid=7c622e1e-880a-49e7-b6f6-24165eccbc3e","ios":"levelo://app?vid=7c622e1e-880a-49e7-b6f6-24165eccbc3e"},"vehicle_type_id":"4","last_reported":1702606957,"current_range_meters":31200,"station_id":"ce4bha12rcd13ifvqee0","pricing_plan_id":"free"},{"bike_id":"94d602b5-2f72-4827-8d3c-7bbbfeb2ce47","system_id":"levelo_inurba_marseille","lat":43.281044,"lon":5.378308,"is_reserved":false,"is_disabled":false,"rental_uris":{"android":"levelo://app?vid=94d602b5-2f72-4827-8d3c-7bbbfeb2ce47","ios":"levelo://app?vid=94d602b5-2f72-4827-8d3c-7bbbfeb2ce47"},"vehicle_type_id":"4","last_reported":1702606957,"current_range_meters":27200,"station_id":"ce4bha12rcd13ifvqee0","pricing_plan_id":"free"},{"bike_id":"4ee1a84c-60e5-4735-bf59-cea446c2523f","system_id":"levelo_inurba_marseille","lat":43.280104,"lon":5.37912,"is_reserved":false,"is_disabled":false,"rental_uris":{"android":"levelo://app?vid=4ee1a84c-60e5-4735-bf59-cea446c2523f","ios":"levelo://app?vid=4ee1a84c-60e5-4735-bf59-cea446c2523f"},"vehicle_type_id":"4","last_reported":1702606957,"current_range_meters":10000,"station_id":"","pricing_plan_id":"free"},{"bike_id":"a504b27d-6e8a-48d0-866f-304fb1963ec6","system_id":"levelo_inurba_marseille","lat":43.32663,"lon":5.40985,"is_reserved":false,"is_disabled":false,"rental_uris":{"android":"levelo://app?vid=a504b27d-6e8a-48d0-866f-304fb1963ec6","ios":"levelo://app?vid=a504b27d-6e8a-48d0-866f-304fb1963ec6"},"vehicle_type_id":"4","last_reported":1702606957,"current_range_meters":2400,"station_id":"ce4bhpp2rcd13ifvqhgg","pricing_plan_id":"free"},{"bike_id":"426c3715-4d15-4cef-8e6c-e330f19e9ca9","system_id":"levelo_inurba_marseille","lat":43.326605,"lon":5.409903,"is_reserved":false,"is_disabled":false,"rental_uris":{"android":"levelo://app?vid=426c3715-4d15-4cef-8e6c-e330f19e9ca9","ios":"levelo://app?vid=426c3715-4d15-4cef-8e6c-e330f19e9ca9"},"vehicle_type_id":"4","last_reported":1702606957,"current_range_meters":30400,"station_id":"ce4bhpp2rcd13ifvqhgg","pricing_plan_id":"free"},{"bike_id":"c99de67d-4722-47ad-9289-1378328c61a0","system_id":"levelo_inurba_marseille","lat":43.304188,"lon":5.412904,"is_reserved":false,"is_disabled":false,"rental_uris":{"android":"levelo://app?vid=c99de67d-4722-47ad-9289-1378328c61a0","ios":"levelo://app?vid=c99de67d-4722-47ad-9289-1378328c61a0"},"vehicle_type_id":"4","last_reported":1702606957,"current_range_meters":30400,"station_id":"ce4bhop2rcd13ifvqh8g","pricing_plan_id":"free"},{"bike_id":"9156cf20-8ba5-498a-83ab-62d6c027ce8e","system_id":"levelo_inurba_marseille","lat":43.304188,"lon":5.412904,"is_reserved":false,"is_disabled":false,"rental_uris":{"android":"levelo://app?vid=9156cf20-8ba5-498a-83ab-62d6c027ce8e","ios":"levelo://app?vid=9156cf20-8ba5-498a-83ab-62d6c027ce8e"},"vehicle_type_id":"4","last_reported":1702606957,"current_range_meters":9600,"station_id":"ce4bhop2rcd13ifvqh8g","pricing_plan_id":"free"},{"bike_id":"e1b2fc29-b560-4b2e-b22f-281aa7b0e6d9","system_id":"levelo_inurba_marseille","lat":43.287084,"lon":5.399754,"is_reserved":false,"is_disabled":false,"rental_uris":{"android":"levelo://app?vid=e1b2fc29-b560-4b2e-b22f-281aa7b0e6d9","ios":"levelo://app?vid=e1b2fc29-b560-4b2e-b22f-281aa7b0e6d9"},"vehicle_type_id":"4","last_reported":1702606957,"current_range_meters":23200,"station_id":"ce4bho92rcd13ifvqh3g","pricing_plan_id":"free"},{"bike_id":"e6fbffbc-fdb0-4160-b488-2edf77b932ee","system_id":"levelo_inurba_marseille","lat":43.287154,"lon":5.399979,"is_reserved":false,"is_disabled":false,"rental_uris":{"android":"levelo://app?vid=e6fbffbc-fdb0-4160-b488-2edf77b932ee","ios":"levelo://app?vid=e6fbffbc-fdb0-4160-b488-2edf77b932ee"},"vehicle_type_id":"4","last_reported":1702606957,"current_range_meters":25600,"station_id":"ce4bho92rcd13ifvqh3g","pricing_plan_id":"free"},{"bike_id":"31a98bbf-59a8-4e8c-97b4-380d6eae6bf1","system_id":"levelo_inurba_marseille","lat":43.28709,"lon":5.39978,"is_reserved":false,"is_disabled":false,"rental_uris":{"android":"levelo://app?vid=31a98bbf-59a8-4e8c-97b4-380d6eae6bf1","ios":"levelo://app?vid=31a98bbf-59a8-4e8c-97b4-380d6eae6bf1"},"vehicle_type_id":"4","last_reported":1702606957,"current_range_meters":5200,"station_id":"ce4bho92rcd13ifvqh3g","pricing_plan_id":"free"},{"bike_id":"d75ad4cd-ac1b-46b2-898a-4a8ec608aabb","system_id":"levelo_inurba_marseille","lat":43.287041,"lon":5.399762,"is_reserved":false,"is_disabled":false,"rental_uris":{"android":"levelo://app?vid=d75ad4cd-ac1b-46b2-898a-4a8ec608aabb","ios":"levelo://app?vid=d75ad4cd-ac1b-46b2-898a-4a8ec608aabb"},"vehicle_type_id":"4","last_reported":1702606957,"current_range_meters":3600,"station_id":"ce4bho92rcd13ifvqh3g","pricing_plan_id":"free"},{"bike_id":"2490a0ec-da79-42fe-a32c-b2b6e007256a","system_id":"levelo_inurba_marseille","lat":43.28701,"lon":5.39975,"is_reserved":false,"is_disabled":false,"rental_uris":{"android":"levelo://app?vid=2490a0ec-da79-42fe-a32c-b2b6e007256a","ios":"levelo://app?vid=2490a0ec-da79-42fe-a32c-b2b6e007256a"},"vehicle_type_id":"4","last_reported":1702606957,"current_range_meters":24000,"station_id":"ce4bho92rcd13ifvqh3g","pricing_plan_id":"free"},{"bike_id":"f0b660fe-ffe6-4fff-b427-62679a5d8e72","system_id":"levelo_inurba_marseille","lat":43.292734,"lon":5.407226,"is_reserved":false,"is_disabled":false,"rental_uris":{"android":"levelo://app?vid=f0b660fe-ffe6-4fff-b427-62679a5d8e72","ios":"levelo://app?vid=f0b660fe-ffe6-4fff-b427-62679a5d8e72"},"vehicle_type_id":"4","last_reported":1702606957,"current_range_meters":3200,"station_id":"","pricing_plan_id":"free"},{"bike_id":"f20cc8b3-2651-49c7-95c5-be9c6e7d6503","system_id":"levelo_inurba_marseille","lat":43.299577,"lon":5.413277,"is_reserved":false,"is_disabled":false,"rental_uris":{"android":"levelo://app?vid=f20cc8b3-2651-49c7-95c5-be9c6e7d6503","ios":"levelo://app?vid=f20cc8b3-2651-49c7-95c5-be9c6e7d6503"},"vehicle_type_id":"4","last_reported":1702606957,"current_range_meters":28400,"station_id":"ce4bhp12rcd13ifvqh9g","pricing_plan_id":"free"},{"bike_id":"6e2c88fc-c340-4696-8605-3b7e579364cf","system_id":"levelo_inurba_marseille","lat":43.292569,"lon":5.409107,"is_reserved":false,"is_disabled":false,"rental_uris":{"android":"levelo://app?vid=6e2c88fc-c340-4696-8605-3b7e579364cf","ios":"levelo://app?vid=6e2c88fc-c340-4696-8605-3b7e579364cf"},"vehicle_type_id":"4","last_reported":1702606957,"current_range_meters":31200,"station_id":"ce4bh192rcd13ifvqdc0","pricing_plan_id":"free"},{"bike_id":"4d7d5924-3c1f-4d0b-a566-7719408380b9","system_id":"levelo_inurba_marseille","lat":43.292569,"lon":5.409107,"is_reserved":false,"is_disabled":false,"rental_uris":{"android":"levelo://app?vid=4d7d5924-3c1f-4d0b-a566-7719408380b9","ios":"levelo://app?vid=4d7d5924-3c1f-4d0b-a566-7719408380b9"},"vehicle_type_id":"4","last_reported":1702606957,"current_range_meters":31200,"station_id":"ce4bh192rcd13ifvqdc0","pricing_plan_id":"free"},{"bike_id":"6ba8109e-3a38-4ae3-9344-c1cffb7cf6fe","system_id":"levelo_inurba_marseille","lat":43.292569,"lon":5.409107,"is_reserved":false,"is_disabled":false,"rental_uris":{"android":"levelo://app?vid=6ba8109e-3a38-4ae3-9344-c1cffb7cf6fe","ios":"levelo://app?vid=6ba8109e-3a38-4ae3-9344-c1cffb7cf6fe"},"vehicle_type_id":"4","last_reported":1702606957,"current_range_meters":5600,"station_id":"ce4bh192rcd13ifvqdc0","pricing_plan_id":"free"},{"bike_id":"20f82c7a-33c4-45ee-b123-465b50a5beb0","system_id":"levelo_inurba_marseille","lat":43.292571,"lon":5.409107,"is_reserved":false,"is_disabled":false,"rental_uris":{"android":"levelo://app?vid=20f82c7a-33c4-45ee-b123-465b50a5beb0","ios":"levelo://app?vid=20f82c7a-33c4-45ee-b123-465b50a5beb0"},"vehicle_type_id":"4","last_reported":1702606957,"current_range_meters":31200,"station_id":"ce4bh192rcd13ifvqdc0","pricing_plan_id":"free"},{"bike_id":"6be6e30d-a1a4-4274-a12e-04437af1d297","system_id":"levelo_inurba_marseille","lat":43.276179,"lon":5.361009,"is_reserved":false,"is_disabled":false,"rental_uris":{"android":"levelo://app?vid=6be6e30d-a1a4-4274-a12e-04437af1d297","ios":"levelo://app?vid=6be6e30d-a1a4-4274-a12e-04437af1d297"},"vehicle_type_id":"4","last_reported":1702606957,"current_range_meters":10000,"station_id":"ce4bgj92rcd13ifvqbe0","pricing_plan_id":"free"},{"bike_id":"f7b590a9-38e0-4875-b5cb-89d09c44fda7","system_id":"levelo_inurba_marseille","lat":43.276179,"lon":5.361009,"is_reserved":false,"is_disabled":false,"rental_uris":{"android":"levelo://app?vid=f7b590a9-38e0-4875-b5cb-89d09c44fda7","ios":"levelo://app?vid=f7b590a9-38e0-4875-b5cb-89d09c44fda7"},"vehicle_type_id":"4","last_reported":1702606957,"current_range_meters":4000,"station_id":"ce4bgj92rcd13ifvqbe0","pricing_plan_id":"free"},{"bike_id":"7998b131-535b-4b62-9e21-4ec32b044ccb","system_id":"levelo_inurba_marseille","lat":43.292571,"lon":5.409107,"is_reserved":false,"is_disabled":false,"rental_uris":{"android":"levelo://app?vid=7998b131-535b-4b62-9e21-4ec32b044ccb","ios":"levelo://app?vid=7998b131-535b-4b62-9e21-4ec32b044ccb"},"vehicle_type_id":"4","last_reported":1702606957,"current_range_meters":15600,"station_id":"ce4bh192rcd13ifvqdc0","pricing_plan_id":"free"},{"bike_id":"8dd7f3b2-fac2-4f40-8d56-9a0ca7caf5b3","system_id":"levelo_inurba_marseille","lat":43.33204,"lon":5.41051,"is_reserved":false,"is_disabled":false,"rental_uris":{"android":"levelo://app?vid=8dd7f3b2-fac2-4f40-8d56-9a0ca7caf5b3","ios":"levelo://app?vid=8dd7f3b2-fac2-4f40-8d56-9a0ca7caf5b3"},"vehicle_type_id":"4","last_reported":1702606957,"current_range_meters":9600,"station_id":"","pricing_plan_id":"free"},{"bike_id":"f62f5e05-887a-40d7-b42c-fee2b09ea4fe","system_id":"levelo_inurba_marseille","lat":43.280784,"lon":5.396622,"is_reserved":false,"is_disabled":false,"rental_uris":{"android":"levelo://app?vid=f62f5e05-887a-40d7-b42c-fee2b09ea4fe","ios":"levelo://app?vid=f62f5e05-887a-40d7-b42c-fee2b09ea4fe"},"vehicle_type_id":"4","last_reported":1702606957,"current_range_meters":28000,"station_id":"ce4bho12rcd13ifvqh2g","pricing_plan_id":"free"},{"bike_id":"38f7ad61-5224-4eb5-a3bd-7fdefd112261","system_id":"levelo_inurba_marseille","lat":43.303837,"lon":5.418724,"is_reserved":false,"is_disabled":false,"rental_uris":{"android":"levelo://app?vid=38f7ad61-5224-4eb5-a3bd-7fdefd112261","ios":"levelo://app?vid=38f7ad61-5224-4eb5-a3bd-7fdefd112261"},"vehicle_type_id":"4","last_reported":1702606957,"current_range_meters":28800,"station_id":"ce4bhop2rcd13ifvqh7g","pricing_plan_id":"free"},{"bike_id":"1b6b1d64-7bee-4ccf-9b3f-804f2a29a1b9","system_id":"levelo_inurba_marseille","lat":43.278257,"lon":5.391978,"is_reserved":false,"is_disabled":false,"rental_uris":{"android":"levelo://app?vid=1b6b1d64-7bee-4ccf-9b3f-804f2a29a1b9","ios":"levelo://app?vid=1b6b1d64-7bee-4ccf-9b3f-804f2a29a1b9"},"vehicle_type_id":"4","last_reported":1702606957,"current_range_meters":0,"station_id":"ce4bhjp2rcd13ifvqga0","pricing_plan_id":"free"},{"bike_id":"c4cfb68b-0ac0-4a8c-b786-f9b41850db55","system_id":"levelo_inurba_marseille","lat":43.27376,"lon":5.362555,"is_reserved":false,"is_disabled":false,"rental_uris":{"android":"levelo://app?vid=c4cfb68b-0ac0-4a8c-b786-f9b41850db55","ios":"levelo://app?vid=c4cfb68b-0ac0-4a8c-b786-f9b41850db55"},"vehicle_type_id":"4","last_reported":1702606957,"current_range_meters":29600,"station_id":"ce4bhbh2rcd13ifvqeo0","pricing_plan_id":"free"},{"bike_id":"f21c1b42-f5cf-4ef5-a4e6-62d4a1817773","system_id":"levelo_inurba_marseille","lat":43.336148,"lon":5.410349,"is_reserved":false,"is_disabled":false,"rental_uris":{"android":"levelo://app?vid=f21c1b42-f5cf-4ef5-a4e6-62d4a1817773","ios":"levelo://app?vid=f21c1b42-f5cf-4ef5-a4e6-62d4a1817773"},"vehicle_type_id":"4","last_reported":1702606957,"current_range_meters":31600,"station_id":"ce4bhqh2rcd13ifvqhmg","pricing_plan_id":"free"},{"bike_id":"70481e4f-3e89-4f46-af3c-1b63134225bb","system_id":"levelo_inurba_marseille","lat":43.336134,"lon":5.410341,"is_reserved":false,"is_disabled":false,"rental_uris":{"android":"levelo://app?vid=70481e4f-3e89-4f46-af3c-1b63134225bb","ios":"levelo://app?vid=70481e4f-3e89-4f46-af3c-1b63134225bb"},"vehicle_type_id":"4","last_reported":1702606957,"current_range_meters":23200,"station_id":"ce4bhqh2rcd13ifvqhmg","pricing_plan_id":"free"},{"bike_id":"b8b03afb-95bb-436e-b25d-80ce740a3ff1","system_id":"levelo_inurba_marseille","lat":43.336148,"lon":5.410349,"is_reserved":false,"is_disabled":false,"rental_uris":{"android":"levelo://app?vid=b8b03afb-95bb-436e-b25d-80ce740a3ff1","ios":"levelo://app?vid=b8b03afb-95bb-436e-b25d-80ce740a3ff1"},"vehicle_type_id":"4","last_reported":1702606957,"current_range_meters":14000,"station_id":"ce4bhqh2rcd13ifvqhmg","pricing_plan_id":"free"},{"bike_id":"ee1303c1-f5f8-489a-b89e-1204adc7b2d7","system_id":"levelo_inurba_marseille","lat":43.279952,"lon":5.400085,"is_reserved":false,"is_disabled":false,"rental_uris":{"android":"levelo://app?vid=ee1303c1-f5f8-489a-b89e-1204adc7b2d7","ios":"levelo://app?vid=ee1303c1-f5f8-489a-b89e-1204adc7b2d7"},"vehicle_type_id":"4","last_reported":1702606957,"current_range_meters":27200,"station_id":"ce4bho92rcd13ifvqh4g","pricing_plan_id":"free"},{"bike_id":"12b41b3b-a68a-4920-866b-21cd1a15d4ff","system_id":"levelo_inurba_marseille","lat":43.317121,"lon":5.423936,"is_reserved":false,"is_disabled":false,"rental_uris":{"android":"levelo://app?vid=12b41b3b-a68a-4920-866b-21cd1a15d4ff","ios":"levelo://app?vid=12b41b3b-a68a-4920-866b-21cd1a15d4ff"},"vehicle_type_id":"4","last_reported":1702606957,"current_range_meters":8000,"station_id":"ce4bhp92rcd13ifvqhbg","pricing_plan_id":"free"},{"bike_id":"c873b2b5-2435-4e43-b824-836e9cae63b3","system_id":"levelo_inurba_marseille","lat":43.317121,"lon":5.423936,"is_reserved":false,"is_disabled":false,"rental_uris":{"android":"levelo://app?vid=c873b2b5-2435-4e43-b824-836e9cae63b3","ios":"levelo://app?vid=c873b2b5-2435-4e43-b824-836e9cae63b3"},"vehicle_type_id":"4","last_reported":1702606957,"current_range_meters":26400,"station_id":"ce4bhp92rcd13ifvqhbg","pricing_plan_id":"free"},{"bike_id":"bef127eb-ad09-4148-acb9-c2e1f27e433e","system_id":"levelo_inurba_marseille","lat":43.340804,"lon":5.410219,"is_reserved":false,"is_disabled":false,"rental_uris":{"android":"levelo://app?vid=bef127eb-ad09-4148-acb9-c2e1f27e433e","ios":"levelo://app?vid=bef127eb-ad09-4148-acb9-c2e1f27e433e"},"vehicle_type_id":"4","last_reported":1702606957,"current_range_meters":20800,"station_id":"ce4bhqh2rcd13ifvqhlg","pricing_plan_id":"free"},{"bike_id":"3ca2c2d2-99b0-4aa6-a05d-e30f02e6a7fb","system_id":"levelo_inurba_marseille","lat":43.276092,"lon":5.395289,"is_reserved":false,"is_disabled":false,"rental_uris":{"android":"levelo://app?vid=3ca2c2d2-99b0-4aa6-a05d-e30f02e6a7fb","ios":"levelo://app?vid=3ca2c2d2-99b0-4aa6-a05d-e30f02e6a7fb"},"vehicle_type_id":"4","last_reported":1702606957,"current_range_meters":29200,"station_id":"","pricing_plan_id":"free"},{"bike_id":"c80fe21d-8f5b-4496-952c-f5e20e95cba6","system_id":"levelo_inurba_marseille","lat":43.340804,"lon":5.410219,"is_reserved":false,"is_disabled":false,"rental_uris":{"android":"levelo://app?vid=c80fe21d-8f5b-4496-952c-f5e20e95cba6","ios":"levelo://app?vid=c80fe21d-8f5b-4496-952c-f5e20e95cba6"},"vehicle_type_id":"4","last_reported":1702606957,"current_range_meters":7200,"station_id":"ce4bhqh2rcd13ifvqhlg","pricing_plan_id":"free"},{"bike_id":"6f556a69-fd2a-4af4-850e-2b1dbc57f221","system_id":"levelo_inurba_marseille","lat":43.304147,"lon":5.425377,"is_reserved":false,"is_disabled":false,"rental_uris":{"android":"levelo://app?vid=6f556a69-fd2a-4af4-850e-2b1dbc57f221","ios":"levelo://app?vid=6f556a69-fd2a-4af4-850e-2b1dbc57f221"},"vehicle_type_id":"4","last_reported":1702606957,"current_range_meters":22400,"station_id":"ce4bhoh2rcd13ifvqh6g","pricing_plan_id":"free"},{"bike_id":"671a0376-a68e-4ed4-bca2-c8441c2ffbc3","system_id":"levelo_inurba_marseille","lat":43.2956,"lon":5.42276,"is_reserved":false,"is_disabled":false,"rental_uris":{"android":"levelo://app?vid=671a0376-a68e-4ed4-bca2-c8441c2ffbc3","ios":"levelo://app?vid=671a0376-a68e-4ed4-bca2-c8441c2ffbc3"},"vehicle_type_id":"4","last_reported":1702606957,"current_range_meters":27600,"station_id":"ce4bhph2rcd13ifvqhdg","pricing_plan_id":"free"},{"bike_id":"94984fc3-6575-498f-bb52-e6c05e1c5e4b","system_id":"levelo_inurba_marseille","lat":43.295523,"lon":5.422926,"is_reserved":false,"is_disabled":false,"rental_uris":{"android":"levelo://app?vid=94984fc3-6575-498f-bb52-e6c05e1c5e4b","ios":"levelo://app?vid=94984fc3-6575-498f-bb52-e6c05e1c5e4b"},"vehicle_type_id":"4","last_reported":1702606957,"current_range_meters":23200,"station_id":"ce4bhph2rcd13ifvqhdg","pricing_plan_id":"free"},{"bike_id":"04b3d846-1da3-4e37-aa5f-d8bcc257dd52","system_id":"levelo_inurba_marseille","lat":43.27456,"lon":5.397306,"is_reserved":false,"is_disabled":false,"rental_uris":{"android":"levelo://app?vid=04b3d846-1da3-4e37-aa5f-d8bcc257dd52","ios":"levelo://app?vid=04b3d846-1da3-4e37-aa5f-d8bcc257dd52"},"vehicle_type_id":"4","last_reported":1702606957,"current_range_meters":0,"station_id":"","pricing_plan_id":"free"},{"bike_id":"b4a40c2a-def9-4060-9675-c2dbe66bc4d7","system_id":"levelo_inurba_marseille","lat":43.295521,"lon":5.422756,"is_reserved":false,"is_disabled":false,"rental_uris":{"android":"levelo://app?vid=b4a40c2a-def9-4060-9675-c2dbe66bc4d7","ios":"levelo://app?vid=b4a40c2a-def9-4060-9675-c2dbe66bc4d7"},"vehicle_type_id":"4","last_reported":1702606957,"current_range_meters":22400,"station_id":"ce4bhph2rcd13ifvqhdg","pricing_plan_id":"free"},{"bike_id":"9128feaf-36b8-4e63-849f-ccc68f896dc0","system_id":"levelo_inurba_marseille","lat":43.295523,"lon":5.422926,"is_reserved":false,"is_disabled":false,"rental_uris":{"android":"levelo://app?vid=9128feaf-36b8-4e63-849f-ccc68f896dc0","ios":"levelo://app?vid=9128feaf-36b8-4e63-849f-ccc68f896dc0"},"vehicle_type_id":"4","last_reported":1702606957,"current_range_meters":31200,"station_id":"ce4bhph2rcd13ifvqhdg","pricing_plan_id":"free"},{"bike_id":"a389eb3a-22bd-48d7-922a-d466e9ddbd28","system_id":"levelo_inurba_marseille","lat":43.29551,"lon":5.4228,"is_reserved":false,"is_disabled":false,"rental_uris":{"android":"levelo://app?vid=a389eb3a-22bd-48d7-922a-d466e9ddbd28","ios":"levelo://app?vid=a389eb3a-22bd-48d7-922a-d466e9ddbd28"},"vehicle_type_id":"4","last_reported":1702606957,"current_range_meters":0,"station_id":"ce4bhph2rcd13ifvqhdg","pricing_plan_id":"free"},{"bike_id":"1d2472e2-350f-44fa-a627-38e6bb5829da","system_id":"levelo_inurba_marseille","lat":43.295536,"lon":5.422815,"is_reserved":false,"is_disabled":false,"rental_uris":{"android":"levelo://app?vid=1d2472e2-350f-44fa-a627-38e6bb5829da","ios":"levelo://app?vid=1d2472e2-350f-44fa-a627-38e6bb5829da"},"vehicle_type_id":"4","last_reported":1702606957,"current_range_meters":25600,"station_id":"ce4bhph2rcd13ifvqhdg","pricing_plan_id":"free"},{"bike_id":"a7863f6b-776e-4daa-b931-d7ecbe1a71ad","system_id":"levelo_inurba_marseille","lat":43.29554,"lon":5.422828,"is_reserved":false,"is_disabled":false,"rental_uris":{"android":"levelo://app?vid=a7863f6b-776e-4daa-b931-d7ecbe1a71ad","ios":"levelo://app?vid=a7863f6b-776e-4daa-b931-d7ecbe1a71ad"},"vehicle_type_id":"4","last_reported":1702606957,"current_range_meters":23600,"station_id":"ce4bhph2rcd13ifvqhdg","pricing_plan_id":"free"},{"bike_id":"44b5f216-a7b6-4c19-8600-d0fc7a6dee0a","system_id":"levelo_inurba_marseille","lat":43.295523,"lon":5.422926,"is_reserved":false,"is_disabled":false,"rental_uris":{"android":"levelo://app?vid=44b5f216-a7b6-4c19-8600-d0fc7a6dee0a","ios":"levelo://app?vid=44b5f216-a7b6-4c19-8600-d0fc7a6dee0a"},"vehicle_type_id":"4","last_reported":1702606957,"current_range_meters":25200,"station_id":"ce4bhph2rcd13ifvqhdg","pricing_plan_id":"free"},{"bike_id":"917fea83-5adb-4540-ab16-471835e4c1f9","system_id":"levelo_inurba_marseille","lat":43.29555,"lon":5.42286,"is_reserved":false,"is_disabled":false,"rental_uris":{"android":"levelo://app?vid=917fea83-5adb-4540-ab16-471835e4c1f9","ios":"levelo://app?vid=917fea83-5adb-4540-ab16-471835e4c1f9"},"vehicle_type_id":"4","last_reported":1702606957,"current_range_meters":28000,"station_id":"ce4bhph2rcd13ifvqhdg","pricing_plan_id":"free"},{"bike_id":"0fdd36e0-a97d-4931-83bd-dc41afbd80cb","system_id":"levelo_inurba_marseille","lat":43.295503,"lon":5.422865,"is_reserved":false,"is_disabled":false,"rental_uris":{"android":"levelo://app?vid=0fdd36e0-a97d-4931-83bd-dc41afbd80cb","ios":"levelo://app?vid=0fdd36e0-a97d-4931-83bd-dc41afbd80cb"},"vehicle_type_id":"4","last_reported":1702606957,"current_range_meters":28000,"station_id":"ce4bhph2rcd13ifvqhdg","pricing_plan_id":"free"},{"bike_id":"5d3f594c-9b0e-418e-807f-31b01190d134","system_id":"levelo_inurba_marseille","lat":43.295523,"lon":5.422926,"is_reserved":false,"is_disabled":false,"rental_uris":{"android":"levelo://app?vid=5d3f594c-9b0e-418e-807f-31b01190d134","ios":"levelo://app?vid=5d3f594c-9b0e-418e-807f-31b01190d134"},"vehicle_type_id":"4","last_reported":1702606957,"current_range_meters":30400,"station_id":"ce4bhph2rcd13ifvqhdg","pricing_plan_id":"free"},{"bike_id":"69f8ad0f-2459-47c5-93c3-15dea485ac8b","system_id":"levelo_inurba_marseille","lat":43.29554,"lon":5.42291,"is_reserved":false,"is_disabled":false,"rental_uris":{"android":"levelo://app?vid=69f8ad0f-2459-47c5-93c3-15dea485ac8b","ios":"levelo://app?vid=69f8ad0f-2459-47c5-93c3-15dea485ac8b"},"vehicle_type_id":"4","last_reported":1702606957,"current_range_meters":27200,"station_id":"ce4bhph2rcd13ifvqhdg","pricing_plan_id":"free"},{"bike_id":"d74a1bd2-55ab-42f1-8334-7d3bbfb6c27a","system_id":"levelo_inurba_marseille","lat":43.278128,"lon":5.407195,"is_reserved":false,"is_disabled":false,"rental_uris":{"android":"levelo://app?vid=d74a1bd2-55ab-42f1-8334-7d3bbfb6c27a","ios":"levelo://app?vid=d74a1bd2-55ab-42f1-8334-7d3bbfb6c27a"},"vehicle_type_id":"4","last_reported":1702606957,"current_range_meters":12800,"station_id":"ce4bhnh2rcd13ifvqgtg","pricing_plan_id":"free"},{"bike_id":"13136e7b-17d5-41a3-baf1-84312a187446","system_id":"levelo_inurba_marseille","lat":43.278128,"lon":5.407195,"is_reserved":false,"is_disabled":false,"rental_uris":{"android":"levelo://app?vid=13136e7b-17d5-41a3-baf1-84312a187446","ios":"levelo://app?vid=13136e7b-17d5-41a3-baf1-84312a187446"},"vehicle_type_id":"4","last_reported":1702606957,"current_range_meters":31200,"station_id":"ce4bhnh2rcd13ifvqgtg","pricing_plan_id":"free"},{"bike_id":"d93a4a63-a305-41ba-950c-f9c82b256bb2","system_id":"levelo_inurba_marseille","lat":43.278128,"lon":5.407195,"is_reserved":false,"is_disabled":false,"rental_uris":{"android":"levelo://app?vid=d93a4a63-a305-41ba-950c-f9c82b256bb2","ios":"levelo://app?vid=d93a4a63-a305-41ba-950c-f9c82b256bb2"},"vehicle_type_id":"4","last_reported":1702606957,"current_range_meters":19600,"station_id":"ce4bhnh2rcd13ifvqgtg","pricing_plan_id":"free"},{"bike_id":"744d0915-676f-445e-8051-ce5abddae6b8","system_id":"levelo_inurba_marseille","lat":43.278128,"lon":5.407195,"is_reserved":false,"is_disabled":false,"rental_uris":{"android":"levelo://app?vid=744d0915-676f-445e-8051-ce5abddae6b8","ios":"levelo://app?vid=744d0915-676f-445e-8051-ce5abddae6b8"},"vehicle_type_id":"4","last_reported":1702606957,"current_range_meters":29600,"station_id":"ce4bhnh2rcd13ifvqgtg","pricing_plan_id":"free"},{"bike_id":"cf31a53e-dc23-4b88-b22b-12438dc29d2b","system_id":"levelo_inurba_marseille","lat":43.27817,"lon":5.40713,"is_reserved":false,"is_disabled":false,"rental_uris":{"android":"levelo://app?vid=cf31a53e-dc23-4b88-b22b-12438dc29d2b","ios":"levelo://app?vid=cf31a53e-dc23-4b88-b22b-12438dc29d2b"},"vehicle_type_id":"4","last_reported":1702606957,"current_range_meters":24800,"station_id":"ce4bhnh2rcd13ifvqgtg","pricing_plan_id":"free"},{"bike_id":"fc10e7a2-ec87-4e2b-bf4a-451521878895","system_id":"levelo_inurba_marseille","lat":43.27817,"lon":5.40715,"is_reserved":false,"is_disabled":false,"rental_uris":{"android":"levelo://app?vid=fc10e7a2-ec87-4e2b-bf4a-451521878895","ios":"levelo://app?vid=fc10e7a2-ec87-4e2b-bf4a-451521878895"},"vehicle_type_id":"4","last_reported":1702606957,"current_range_meters":5200,"station_id":"ce4bhnh2rcd13ifvqgtg","pricing_plan_id":"free"},{"bike_id":"9ed8a8b0-adcb-4301-a90b-ada718e24e35","system_id":"levelo_inurba_marseille","lat":43.278128,"lon":5.407195,"is_reserved":false,"is_disabled":false,"rental_uris":{"android":"levelo://app?vid=9ed8a8b0-adcb-4301-a90b-ada718e24e35","ios":"levelo://app?vid=9ed8a8b0-adcb-4301-a90b-ada718e24e35"},"vehicle_type_id":"4","last_reported":1702606957,"current_range_meters":28400,"station_id":"ce4bhnh2rcd13ifvqgtg","pricing_plan_id":"free"},{"bike_id":"9295d241-3ede-4962-8e94-0b2831dbd578","system_id":"levelo_inurba_marseille","lat":43.27816,"lon":5.40715,"is_reserved":false,"is_disabled":false,"rental_uris":{"android":"levelo://app?vid=9295d241-3ede-4962-8e94-0b2831dbd578","ios":"levelo://app?vid=9295d241-3ede-4962-8e94-0b2831dbd578"},"vehicle_type_id":"4","last_reported":1702606957,"current_range_meters":13200,"station_id":"ce4bhnh2rcd13ifvqgtg","pricing_plan_id":"free"},{"bike_id":"6baecf9e-750f-4685-ba33-d33fd9cbfd22","system_id":"levelo_inurba_marseille","lat":43.278128,"lon":5.407195,"is_reserved":false,"is_disabled":false,"rental_uris":{"android":"levelo://app?vid=6baecf9e-750f-4685-ba33-d33fd9cbfd22","ios":"levelo://app?vid=6baecf9e-750f-4685-ba33-d33fd9cbfd22"},"vehicle_type_id":"4","last_reported":1702606957,"current_range_meters":11200,"station_id":"ce4bhnh2rcd13ifvqgtg","pricing_plan_id":"free"},{"bike_id":"25e653da-e751-4acd-9405-92f4334b1a58","system_id":"levelo_inurba_marseille","lat":43.278128,"lon":5.407195,"is_reserved":false,"is_disabled":false,"rental_uris":{"android":"levelo://app?vid=25e653da-e751-4acd-9405-92f4334b1a58","ios":"levelo://app?vid=25e653da-e751-4acd-9405-92f4334b1a58"},"vehicle_type_id":"4","last_reported":1702606957,"current_range_meters":25600,"station_id":"ce4bhnh2rcd13ifvqgtg","pricing_plan_id":"free"},{"bike_id":"08d8e6ae-8e0e-443e-b173-796da3012d88","system_id":"levelo_inurba_marseille","lat":43.278128,"lon":5.407195,"is_reserved":false,"is_disabled":false,"rental_uris":{"android":"levelo://app?vid=08d8e6ae-8e0e-443e-b173-796da3012d88","ios":"levelo://app?vid=08d8e6ae-8e0e-443e-b173-796da3012d88"},"vehicle_type_id":"4","last_reported":1702606957,"current_range_meters":26000,"station_id":"ce4bhnh2rcd13ifvqgtg","pricing_plan_id":"free"},{"bike_id":"aaf0a2da-6559-483e-b877-95aab8f7a9d9","system_id":"levelo_inurba_marseille","lat":43.2781,"lon":5.407152,"is_reserved":false,"is_disabled":false,"rental_uris":{"android":"levelo://app?vid=aaf0a2da-6559-483e-b877-95aab8f7a9d9","ios":"levelo://app?vid=aaf0a2da-6559-483e-b877-95aab8f7a9d9"},"vehicle_type_id":"4","last_reported":1702606957,"current_range_meters":24800,"station_id":"ce4bhnh2rcd13ifvqgtg","pricing_plan_id":"free"},{"bike_id":"16acbb47-2db0-4477-9fe5-a45c12a081f7","system_id":"levelo_inurba_marseille","lat":43.26956,"lon":5.38628,"is_reserved":false,"is_disabled":false,"rental_uris":{"android":"levelo://app?vid=16acbb47-2db0-4477-9fe5-a45c12a081f7","ios":"levelo://app?vid=16acbb47-2db0-4477-9fe5-a45c12a081f7"},"vehicle_type_id":"4","last_reported":1702606957,"current_range_meters":25600,"station_id":"ce4bhh92rcd13ifvqfh0","pricing_plan_id":"free"},{"bike_id":"dbd26003-0288-4b5b-92ef-48b1f870ad92","system_id":"levelo_inurba_marseille","lat":43.269467,"lon":5.386439,"is_reserved":false,"is_disabled":false,"rental_uris":{"android":"levelo://app?vid=dbd26003-0288-4b5b-92ef-48b1f870ad92","ios":"levelo://app?vid=dbd26003-0288-4b5b-92ef-48b1f870ad92"},"vehicle_type_id":"4","last_reported":1702606957,"current_range_meters":29200,"station_id":"ce4bhh92rcd13ifvqfh0","pricing_plan_id":"free"},{"bike_id":"2e6ea188-4a7e-44d6-9d77-8164151a80e3","system_id":"levelo_inurba_marseille","lat":43.279465,"lon":5.410561,"is_reserved":false,"is_disabled":false,"rental_uris":{"android":"levelo://app?vid=2e6ea188-4a7e-44d6-9d77-8164151a80e3","ios":"levelo://app?vid=2e6ea188-4a7e-44d6-9d77-8164151a80e3"},"vehicle_type_id":"4","last_reported":1702606957,"current_range_meters":2400,"station_id":"ce4bhnp2rcd13ifvqh0g","pricing_plan_id":"free"},{"bike_id":"2100e8c0-501c-42c1-aebf-724a93a2a23c","system_id":"levelo_inurba_marseille","lat":43.27742,"lon":5.41017,"is_reserved":false,"is_disabled":false,"rental_uris":{"android":"levelo://app?vid=2100e8c0-501c-42c1-aebf-724a93a2a23c","ios":"levelo://app?vid=2100e8c0-501c-42c1-aebf-724a93a2a23c"},"vehicle_type_id":"4","last_reported":1702606957,"current_range_meters":2800,"station_id":"","pricing_plan_id":"free"},{"bike_id":"233e4d84-6e5c-4e53-ae5b-241ab43f5062","system_id":"levelo_inurba_marseille","lat":43.26821,"lon":5.38925,"is_reserved":false,"is_disabled":false,"rental_uris":{"android":"levelo://app?vid=233e4d84-6e5c-4e53-ae5b-241ab43f5062","ios":"levelo://app?vid=233e4d84-6e5c-4e53-ae5b-241ab43f5062"},"vehicle_type_id":"4","last_reported":1702606957,"current_range_meters":5200,"station_id":"","pricing_plan_id":"free"},{"bike_id":"ae7336ce-c0ce-4483-a938-dbd45d08b54d","system_id":"levelo_inurba_marseille","lat":43.267966,"lon":5.393976,"is_reserved":false,"is_disabled":false,"rental_uris":{"android":"levelo://app?vid=ae7336ce-c0ce-4483-a938-dbd45d08b54d","ios":"levelo://app?vid=ae7336ce-c0ce-4483-a938-dbd45d08b54d"},"vehicle_type_id":"4","last_reported":1702606957,"current_range_meters":27600,"station_id":"ce4bhh12rcd13ifvqfg0","pricing_plan_id":"free"},{"bike_id":"0d67db53-9f6d-4528-9ed9-0dfc7017ed81","system_id":"levelo_inurba_marseille","lat":43.267966,"lon":5.393976,"is_reserved":false,"is_disabled":false,"rental_uris":{"android":"levelo://app?vid=0d67db53-9f6d-4528-9ed9-0dfc7017ed81","ios":"levelo://app?vid=0d67db53-9f6d-4528-9ed9-0dfc7017ed81"},"vehicle_type_id":"4","last_reported":1702606957,"current_range_meters":8400,"station_id":"ce4bhh12rcd13ifvqfg0","pricing_plan_id":"free"},{"bike_id":"a15a385a-3140-48e4-8231-f4704f38baf2","system_id":"levelo_inurba_marseille","lat":43.308051,"lon":5.43527,"is_reserved":false,"is_disabled":false,"rental_uris":{"android":"levelo://app?vid=a15a385a-3140-48e4-8231-f4704f38baf2","ios":"levelo://app?vid=a15a385a-3140-48e4-8231-f4704f38baf2"},"vehicle_type_id":"4","last_reported":1702606957,"current_range_meters":30400,"station_id":"ce4bhph2rcd13ifvqheg","pricing_plan_id":"free"},{"bike_id":"dcd51afc-e0ea-40ce-a3ed-c5c9a2a1a2ae","system_id":"levelo_inurba_marseille","lat":43.317104,"lon":5.436818,"is_reserved":false,"is_disabled":false,"rental_uris":{"android":"levelo://app?vid=dcd51afc-e0ea-40ce-a3ed-c5c9a2a1a2ae","ios":"levelo://app?vid=dcd51afc-e0ea-40ce-a3ed-c5c9a2a1a2ae"},"vehicle_type_id":"4","last_reported":1702606957,"current_range_meters":28400,"station_id":"ce4bhp92rcd13ifvqhcg","pricing_plan_id":"free"},{"bike_id":"58b7ffe3-528d-4a0b-8000-38f813ae35b3","system_id":"levelo_inurba_marseille","lat":43.317104,"lon":5.436818,"is_reserved":false,"is_disabled":false,"rental_uris":{"android":"levelo://app?vid=58b7ffe3-528d-4a0b-8000-38f813ae35b3","ios":"levelo://app?vid=58b7ffe3-528d-4a0b-8000-38f813ae35b3"},"vehicle_type_id":"4","last_reported":1702606957,"current_range_meters":30000,"station_id":"ce4bhp92rcd13ifvqhcg","pricing_plan_id":"free"},{"bike_id":"348ca18b-dc25-4114-a3c8-d759b407f807","system_id":"levelo_inurba_marseille","lat":43.271388,"lon":5.409269,"is_reserved":false,"is_disabled":false,"rental_uris":{"android":"levelo://app?vid=348ca18b-dc25-4114-a3c8-d759b407f807","ios":"levelo://app?vid=348ca18b-dc25-4114-a3c8-d759b407f807"},"vehicle_type_id":"4","last_reported":1702606957,"current_range_meters":30000,"station_id":"ce4bhl12rcd13ifvqgf0","pricing_plan_id":"free"},{"bike_id":"00a2a77f-131c-43f3-b06a-c2b20bdfb57b","system_id":"levelo_inurba_marseille","lat":43.267959,"lon":5.402687,"is_reserved":false,"is_disabled":false,"rental_uris":{"android":"levelo://app?vid=00a2a77f-131c-43f3-b06a-c2b20bdfb57b","ios":"levelo://app?vid=00a2a77f-131c-43f3-b06a-c2b20bdfb57b"},"vehicle_type_id":"4","last_reported":1702606957,"current_range_meters":29600,"station_id":"ce501612rcd8frsf0b60","pricing_plan_id":"free"},{"bike_id":"51ac8473-30ff-4bbf-aeb5-3849ae98719e","system_id":"levelo_inurba_marseille","lat":43.26489,"lon":5.39544,"is_reserved":false,"is_disabled":false,"rental_uris":{"android":"levelo://app?vid=51ac8473-30ff-4bbf-aeb5-3849ae98719e","ios":"levelo://app?vid=51ac8473-30ff-4bbf-aeb5-3849ae98719e"},"vehicle_type_id":"4","last_reported":1702606957,"current_range_meters":21600,"station_id":"","pricing_plan_id":"free"},{"bike_id":"e08cb7a0-f6bd-4a79-b1de-9d6a715917f8","system_id":"levelo_inurba_marseille","lat":43.29897,"lon":5.4366,"is_reserved":false,"is_disabled":false,"rental_uris":{"android":"levelo://app?vid=e08cb7a0-f6bd-4a79-b1de-9d6a715917f8","ios":"levelo://app?vid=e08cb7a0-f6bd-4a79-b1de-9d6a715917f8"},"vehicle_type_id":"4","last_reported":1702606957,"current_range_meters":13600,"station_id":"ce4bhpp2rcd13ifvqhfg","pricing_plan_id":"free"},{"bike_id":"4510633c-6100-41ad-9855-e4f0def2a04e","system_id":"levelo_inurba_marseille","lat":43.298768,"lon":5.43643,"is_reserved":false,"is_disabled":false,"rental_uris":{"android":"levelo://app?vid=4510633c-6100-41ad-9855-e4f0def2a04e","ios":"levelo://app?vid=4510633c-6100-41ad-9855-e4f0def2a04e"},"vehicle_type_id":"4","last_reported":1702606957,"current_range_meters":22000,"station_id":"ce4bhpp2rcd13ifvqhfg","pricing_plan_id":"free"},{"bike_id":"0905945f-74c2-4bce-b51c-70befd2c9e4a","system_id":"levelo_inurba_marseille","lat":43.298768,"lon":5.43643,"is_reserved":false,"is_disabled":false,"rental_uris":{"android":"levelo://app?vid=0905945f-74c2-4bce-b51c-70befd2c9e4a","ios":"levelo://app?vid=0905945f-74c2-4bce-b51c-70befd2c9e4a"},"vehicle_type_id":"4","last_reported":1702606957,"current_range_meters":29600,"station_id":"ce4bhpp2rcd13ifvqhfg","pricing_plan_id":"free"},{"bike_id":"47c09f4d-b026-488b-88bd-d86fe61e55ad","system_id":"levelo_inurba_marseille","lat":43.281548,"lon":5.42643,"is_reserved":false,"is_disabled":false,"rental_uris":{"android":"levelo://app?vid=47c09f4d-b026-488b-88bd-d86fe61e55ad","ios":"levelo://app?vid=47c09f4d-b026-488b-88bd-d86fe61e55ad"},"vehicle_type_id":"4","last_reported":1702606957,"current_range_meters":31200,"station_id":"ce4bhnh2rcd13ifvqgug","pricing_plan_id":"free"},{"bike_id":"58480613-cc73-4361-9d94-04f619291aaf","system_id":"levelo_inurba_marseille","lat":43.281548,"lon":5.42643,"is_reserved":false,"is_disabled":false,"rental_uris":{"android":"levelo://app?vid=58480613-cc73-4361-9d94-04f619291aaf","ios":"levelo://app?vid=58480613-cc73-4361-9d94-04f619291aaf"},"vehicle_type_id":"4","last_reported":1702606957,"current_range_meters":22800,"station_id":"ce4bhnh2rcd13ifvqgug","pricing_plan_id":"free"},{"bike_id":"c6ad59c2-72b2-4f1b-a631-10cc0955876a","system_id":"levelo_inurba_marseille","lat":43.281548,"lon":5.42643,"is_reserved":false,"is_disabled":false,"rental_uris":{"android":"levelo://app?vid=c6ad59c2-72b2-4f1b-a631-10cc0955876a","ios":"levelo://app?vid=c6ad59c2-72b2-4f1b-a631-10cc0955876a"},"vehicle_type_id":"4","last_reported":1702606957,"current_range_meters":27200,"station_id":"ce4bhnh2rcd13ifvqgug","pricing_plan_id":"free"},{"bike_id":"e1a4e7f2-d6c9-431f-9be0-2c76848eb849","system_id":"levelo_inurba_marseille","lat":43.281548,"lon":5.42643,"is_reserved":false,"is_disabled":false,"rental_uris":{"android":"levelo://app?vid=e1a4e7f2-d6c9-431f-9be0-2c76848eb849","ios":"levelo://app?vid=e1a4e7f2-d6c9-431f-9be0-2c76848eb849"},"vehicle_type_id":"4","last_reported":1702606957,"current_range_meters":29600,"station_id":"ce4bhnh2rcd13ifvqgug","pricing_plan_id":"free"},{"bike_id":"1cb60a24-c2be-43f6-9a9b-c8b6a5d9e10f","system_id":"levelo_inurba_marseille","lat":43.2607,"lon":5.393983,"is_reserved":false,"is_disabled":false,"rental_uris":{"android":"levelo://app?vid=1cb60a24-c2be-43f6-9a9b-c8b6a5d9e10f","ios":"levelo://app?vid=1cb60a24-c2be-43f6-9a9b-c8b6a5d9e10f"},"vehicle_type_id":"4","last_reported":1702606957,"current_range_meters":31200,"station_id":"ce4bhh92rcd13ifvqfj0","pricing_plan_id":"free"},{"bike_id":"68be7717-4c13-4c5a-88c8-b6e371874ffd","system_id":"levelo_inurba_marseille","lat":43.26061,"lon":5.39387,"is_reserved":false,"is_disabled":false,"rental_uris":{"android":"levelo://app?vid=68be7717-4c13-4c5a-88c8-b6e371874ffd","ios":"levelo://app?vid=68be7717-4c13-4c5a-88c8-b6e371874ffd"},"vehicle_type_id":"4","last_reported":1702606957,"current_range_meters":26800,"station_id":"ce4bhh92rcd13ifvqfj0","pricing_plan_id":"free"},{"bike_id":"71d22008-58cd-4fdb-9628-c29cfd859068","system_id":"levelo_inurba_marseille","lat":43.2607,"lon":5.393983,"is_reserved":false,"is_disabled":false,"rental_uris":{"android":"levelo://app?vid=71d22008-58cd-4fdb-9628-c29cfd859068","ios":"levelo://app?vid=71d22008-58cd-4fdb-9628-c29cfd859068"},"vehicle_type_id":"4","last_reported":1702606957,"current_range_meters":10000,"station_id":"ce4bhh92rcd13ifvqfj0","pricing_plan_id":"free"},{"bike_id":"9e66cd7f-9609-47c0-80d4-664c070fb529","system_id":"levelo_inurba_marseille","lat":43.2607,"lon":5.393983,"is_reserved":false,"is_disabled":false,"rental_uris":{"android":"levelo://app?vid=9e66cd7f-9609-47c0-80d4-664c070fb529","ios":"levelo://app?vid=9e66cd7f-9609-47c0-80d4-664c070fb529"},"vehicle_type_id":"4","last_reported":1702606957,"current_range_meters":31200,"station_id":"ce4bhh92rcd13ifvqfj0","pricing_plan_id":"free"},{"bike_id":"7b2e0fe9-ea1a-4096-b2f3-26186828e2f8","system_id":"levelo_inurba_marseille","lat":43.2607,"lon":5.393983,"is_reserved":false,"is_disabled":false,"rental_uris":{"android":"levelo://app?vid=7b2e0fe9-ea1a-4096-b2f3-26186828e2f8","ios":"levelo://app?vid=7b2e0fe9-ea1a-4096-b2f3-26186828e2f8"},"vehicle_type_id":"4","last_reported":1702606957,"current_range_meters":22400,"station_id":"ce4bhh92rcd13ifvqfj0","pricing_plan_id":"free"},{"bike_id":"5a7aad06-a599-40eb-87c0-e5cd41ac6735","system_id":"levelo_inurba_marseille","lat":43.260539,"lon":5.394015,"is_reserved":false,"is_disabled":false,"rental_uris":{"android":"levelo://app?vid=5a7aad06-a599-40eb-87c0-e5cd41ac6735","ios":"levelo://app?vid=5a7aad06-a599-40eb-87c0-e5cd41ac6735"},"vehicle_type_id":"4","last_reported":1702606957,"current_range_meters":24400,"station_id":"","pricing_plan_id":"free"},{"bike_id":"0b41f3a7-2efa-462f-b0bd-2fee3739c3ce","system_id":"levelo_inurba_marseille","lat":43.275028,"lon":5.424534,"is_reserved":false,"is_disabled":false,"rental_uris":{"android":"levelo://app?vid=0b41f3a7-2efa-462f-b0bd-2fee3739c3ce","ios":"levelo://app?vid=0b41f3a7-2efa-462f-b0bd-2fee3739c3ce"},"vehicle_type_id":"4","last_reported":1702606957,"current_range_meters":30400,"station_id":"ce4bhn92rcd13ifvqgrg","pricing_plan_id":"free"},{"bike_id":"0d1be242-faf0-4ca0-a58c-d5a7746a619a","system_id":"levelo_inurba_marseille","lat":43.255756,"lon":5.382303,"is_reserved":false,"is_disabled":false,"rental_uris":{"android":"levelo://app?vid=0d1be242-faf0-4ca0-a58c-d5a7746a619a","ios":"levelo://app?vid=0d1be242-faf0-4ca0-a58c-d5a7746a619a"},"vehicle_type_id":"4","last_reported":1702606957,"current_range_meters":16400,"station_id":"ce4bhih2rcd13ifvqfs0","pricing_plan_id":"free"},{"bike_id":"106d28fe-7577-4b92-b22a-9c5953a240b3","system_id":"levelo_inurba_marseille","lat":43.25584,"lon":5.38238,"is_reserved":false,"is_disabled":false,"rental_uris":{"android":"levelo://app?vid=106d28fe-7577-4b92-b22a-9c5953a240b3","ios":"levelo://app?vid=106d28fe-7577-4b92-b22a-9c5953a240b3"},"vehicle_type_id":"4","last_reported":1702606957,"current_range_meters":800,"station_id":"ce4bhih2rcd13ifvqfs0","pricing_plan_id":"free"},{"bike_id":"eb51775d-e0fb-4c47-896b-b998110b41b9","system_id":"levelo_inurba_marseille","lat":43.270721,"lon":5.422764,"is_reserved":false,"is_disabled":false,"rental_uris":{"android":"levelo://app?vid=eb51775d-e0fb-4c47-896b-b998110b41b9","ios":"levelo://app?vid=eb51775d-e0fb-4c47-896b-b998110b41b9"},"vehicle_type_id":"4","last_reported":1702606957,"current_range_meters":30000,"station_id":"ce4bhk92rcd13ifvqgb0","pricing_plan_id":"free"},{"bike_id":"9eab2ad3-b819-4722-94d5-fe78d66a3bbf","system_id":"levelo_inurba_marseille","lat":43.27072,"lon":5.42276,"is_reserved":false,"is_disabled":false,"rental_uris":{"android":"levelo://app?vid=9eab2ad3-b819-4722-94d5-fe78d66a3bbf","ios":"levelo://app?vid=9eab2ad3-b819-4722-94d5-fe78d66a3bbf"},"vehicle_type_id":"4","last_reported":1702606957,"current_range_meters":10000,"station_id":"ce4bhk92rcd13ifvqgb0","pricing_plan_id":"free"},{"bike_id":"6a584946-6562-4c2f-93ff-f4866f7e060c","system_id":"levelo_inurba_marseille","lat":43.27073,"lon":5.42281,"is_reserved":false,"is_disabled":false,"rental_uris":{"android":"levelo://app?vid=6a584946-6562-4c2f-93ff-f4866f7e060c","ios":"levelo://app?vid=6a584946-6562-4c2f-93ff-f4866f7e060c"},"vehicle_type_id":"4","last_reported":1702606957,"current_range_meters":0,"station_id":"ce4bhk92rcd13ifvqgb0","pricing_plan_id":"free"},{"bike_id":"bf00c963-87a8-4dbf-9e07-6d1e519079be","system_id":"levelo_inurba_marseille","lat":43.27071,"lon":5.42283,"is_reserved":false,"is_disabled":false,"rental_uris":{"android":"levelo://app?vid=bf00c963-87a8-4dbf-9e07-6d1e519079be","ios":"levelo://app?vid=bf00c963-87a8-4dbf-9e07-6d1e519079be"},"vehicle_type_id":"4","last_reported":1702606957,"current_range_meters":10800,"station_id":"ce4bhk92rcd13ifvqgb0","pricing_plan_id":"free"},{"bike_id":"df067078-d911-4e40-878f-a93aa7edab43","system_id":"levelo_inurba_marseille","lat":43.257079,"lon":5.411051,"is_reserved":false,"is_disabled":false,"rental_uris":{"android":"levelo://app?vid=df067078-d911-4e40-878f-a93aa7edab43","ios":"levelo://app?vid=df067078-d911-4e40-878f-a93aa7edab43"},"vehicle_type_id":"4","last_reported":1702606957,"current_range_meters":6800,"station_id":"ce4bhkp2rcd13ifvqgd0","pricing_plan_id":"free"},{"bike_id":"db74abbc-1cad-4d35-a343-95f8207db7a7","system_id":"levelo_inurba_marseille","lat":43.257079,"lon":5.411051,"is_reserved":false,"is_disabled":false,"rental_uris":{"android":"levelo://app?vid=db74abbc-1cad-4d35-a343-95f8207db7a7","ios":"levelo://app?vid=db74abbc-1cad-4d35-a343-95f8207db7a7"},"vehicle_type_id":"4","last_reported":1702606957,"current_range_meters":30800,"station_id":"ce4bhkp2rcd13ifvqgd0","pricing_plan_id":"free"},{"bike_id":"eaa34578-f4b0-43a5-9764-afcafb28827d","system_id":"levelo_inurba_marseille","lat":43.250009,"lon":5.389195,"is_reserved":false,"is_disabled":false,"rental_uris":{"android":"levelo://app?vid=eaa34578-f4b0-43a5-9764-afcafb28827d","ios":"levelo://app?vid=eaa34578-f4b0-43a5-9764-afcafb28827d"},"vehicle_type_id":"4","last_reported":1702606957,"current_range_meters":26800,"station_id":"ce4bhgp2rcd13ifvqfd0","pricing_plan_id":"free"},{"bike_id":"03bc1e3f-e9ac-4782-8cfd-d76be499a5e5","system_id":"levelo_inurba_marseille","lat":43.250009,"lon":5.389195,"is_reserved":false,"is_disabled":false,"rental_uris":{"android":"levelo://app?vid=03bc1e3f-e9ac-4782-8cfd-d76be499a5e5","ios":"levelo://app?vid=03bc1e3f-e9ac-4782-8cfd-d76be499a5e5"},"vehicle_type_id":"4","last_reported":1702606957,"current_range_meters":31200,"station_id":"ce4bhgp2rcd13ifvqfd0","pricing_plan_id":"free"},{"bike_id":"d769b6a5-689d-414a-a1f5-8f83adb62c40","system_id":"levelo_inurba_marseille","lat":43.249959,"lon":5.389323,"is_reserved":false,"is_disabled":false,"rental_uris":{"android":"levelo://app?vid=d769b6a5-689d-414a-a1f5-8f83adb62c40","ios":"levelo://app?vid=d769b6a5-689d-414a-a1f5-8f83adb62c40"},"vehicle_type_id":"4","last_reported":1702606957,"current_range_meters":0,"station_id":"ce4bhgp2rcd13ifvqfd0","pricing_plan_id":"free"},{"bike_id":"1c53a89b-525c-46b9-8f8b-6dc01b755442","system_id":"levelo_inurba_marseille","lat":43.2479,"lon":5.374457,"is_reserved":false,"is_disabled":false,"rental_uris":{"android":"levelo://app?vid=1c53a89b-525c-46b9-8f8b-6dc01b755442","ios":"levelo://app?vid=1c53a89b-525c-46b9-8f8b-6dc01b755442"},"vehicle_type_id":"4","last_reported":1702606957,"current_range_meters":27200,"station_id":"ce4bhgh2rcd13ifvqfb0","pricing_plan_id":"free"},{"bike_id":"8ddd849c-f526-4b9d-98ab-23ff07999fcf","system_id":"levelo_inurba_marseille","lat":43.2479,"lon":5.374457,"is_reserved":false,"is_disabled":false,"rental_uris":{"android":"levelo://app?vid=8ddd849c-f526-4b9d-98ab-23ff07999fcf","ios":"levelo://app?vid=8ddd849c-f526-4b9d-98ab-23ff07999fcf"},"vehicle_type_id":"4","last_reported":1702606957,"current_range_meters":31200,"station_id":"ce4bhgh2rcd13ifvqfb0","pricing_plan_id":"free"},{"bike_id":"98c96cb3-200a-4010-ac18-ecc1630b0e56","system_id":"levelo_inurba_marseille","lat":43.2479,"lon":5.374457,"is_reserved":false,"is_disabled":false,"rental_uris":{"android":"levelo://app?vid=98c96cb3-200a-4010-ac18-ecc1630b0e56","ios":"levelo://app?vid=98c96cb3-200a-4010-ac18-ecc1630b0e56"},"vehicle_type_id":"4","last_reported":1702606957,"current_range_meters":7600,"station_id":"ce4bhgh2rcd13ifvqfb0","pricing_plan_id":"free"},{"bike_id":"e4300ab5-babb-47f7-95a3-906104b9cc34","system_id":"levelo_inurba_marseille","lat":43.2479,"lon":5.374457,"is_reserved":false,"is_disabled":false,"rental_uris":{"android":"levelo://app?vid=e4300ab5-babb-47f7-95a3-906104b9cc34","ios":"levelo://app?vid=e4300ab5-babb-47f7-95a3-906104b9cc34"},"vehicle_type_id":"4","last_reported":1702606957,"current_range_meters":30000,"station_id":"ce4bhgh2rcd13ifvqfb0","pricing_plan_id":"free"},{"bike_id":"5d2b5a97-8858-4102-b03d-c5ebe905ae35","system_id":"levelo_inurba_marseille","lat":43.2479,"lon":5.374457,"is_reserved":false,"is_disabled":false,"rental_uris":{"android":"levelo://app?vid=5d2b5a97-8858-4102-b03d-c5ebe905ae35","ios":"levelo://app?vid=5d2b5a97-8858-4102-b03d-c5ebe905ae35"},"vehicle_type_id":"4","last_reported":1702606957,"current_range_meters":30400,"station_id":"ce4bhgh2rcd13ifvqfb0","pricing_plan_id":"free"},{"bike_id":"8c4bed68-1388-4493-9cc2-31d06c2f6d73","system_id":"levelo_inurba_marseille","lat":43.2479,"lon":5.374457,"is_reserved":false,"is_disabled":false,"rental_uris":{"android":"levelo://app?vid=8c4bed68-1388-4493-9cc2-31d06c2f6d73","ios":"levelo://app?vid=8c4bed68-1388-4493-9cc2-31d06c2f6d73"},"vehicle_type_id":"4","last_reported":1702606957,"current_range_meters":31200,"station_id":"ce4bhgh2rcd13ifvqfb0","pricing_plan_id":"free"},{"bike_id":"eacc524e-75e3-4912-b2ee-540f8c74989b","system_id":"levelo_inurba_marseille","lat":43.24693,"lon":5.382096,"is_reserved":false,"is_disabled":false,"rental_uris":{"android":"levelo://app?vid=eacc524e-75e3-4912-b2ee-540f8c74989b","ios":"levelo://app?vid=eacc524e-75e3-4912-b2ee-540f8c74989b"},"vehicle_type_id":"4","last_reported":1702606957,"current_range_meters":26800,"station_id":"ce4bhih2rcd13ifvqfr0","pricing_plan_id":"free"},{"bike_id":"82a49deb-b692-4756-8c93-1ec80849cab4","system_id":"levelo_inurba_marseille","lat":43.25102,"lon":5.403214,"is_reserved":false,"is_disabled":false,"rental_uris":{"android":"levelo://app?vid=82a49deb-b692-4756-8c93-1ec80849cab4","ios":"levelo://app?vid=82a49deb-b692-4756-8c93-1ec80849cab4"},"vehicle_type_id":"4","last_reported":1702606957,"current_range_meters":31600,"station_id":"ce4bhlh2rcd13ifvqgig","pricing_plan_id":"free"},{"bike_id":"26e81863-3862-4183-b961-29d3e5c4dd74","system_id":"levelo_inurba_marseille","lat":43.25102,"lon":5.403214,"is_reserved":false,"is_disabled":false,"rental_uris":{"android":"levelo://app?vid=26e81863-3862-4183-b961-29d3e5c4dd74","ios":"levelo://app?vid=26e81863-3862-4183-b961-29d3e5c4dd74"},"vehicle_type_id":"4","last_reported":1702606957,"current_range_meters":30800,"station_id":"ce4bhlh2rcd13ifvqgig","pricing_plan_id":"free"},{"bike_id":"daaa6279-653a-4b6d-9ee1-d8da10f9ed5c","system_id":"levelo_inurba_marseille","lat":43.25102,"lon":5.403214,"is_reserved":false,"is_disabled":false,"rental_uris":{"android":"levelo://app?vid=daaa6279-653a-4b6d-9ee1-d8da10f9ed5c","ios":"levelo://app?vid=daaa6279-653a-4b6d-9ee1-d8da10f9ed5c"},"vehicle_type_id":"4","last_reported":1702606957,"current_range_meters":8800,"station_id":"ce4bhlh2rcd13ifvqgig","pricing_plan_id":"free"},{"bike_id":"8dc9af40-aaa8-4462-9fdf-15476ea0b37d","system_id":"levelo_inurba_marseille","lat":43.2511,"lon":5.40326,"is_reserved":false,"is_disabled":false,"rental_uris":{"android":"levelo://app?vid=8dc9af40-aaa8-4462-9fdf-15476ea0b37d","ios":"levelo://app?vid=8dc9af40-aaa8-4462-9fdf-15476ea0b37d"},"vehicle_type_id":"4","last_reported":1702606957,"current_range_meters":18400,"station_id":"ce4bhlh2rcd13ifvqgig","pricing_plan_id":"free"},{"bike_id":"4b384738-28e6-4c64-81b0-c68b8226d8a9","system_id":"levelo_inurba_marseille","lat":43.25102,"lon":5.403214,"is_reserved":false,"is_disabled":false,"rental_uris":{"android":"levelo://app?vid=4b384738-28e6-4c64-81b0-c68b8226d8a9","ios":"levelo://app?vid=4b384738-28e6-4c64-81b0-c68b8226d8a9"},"vehicle_type_id":"4","last_reported":1702606957,"current_range_meters":31200,"station_id":"ce4bhlh2rcd13ifvqgig","pricing_plan_id":"free"},{"bike_id":"a459bc09-490d-465c-a86c-90646843b269","system_id":"levelo_inurba_marseille","lat":43.24574,"lon":5.37345,"is_reserved":false,"is_disabled":false,"rental_uris":{"android":"levelo://app?vid=a459bc09-490d-465c-a86c-90646843b269","ios":"levelo://app?vid=a459bc09-490d-465c-a86c-90646843b269"},"vehicle_type_id":"4","last_reported":1702606957,"current_range_meters":12400,"station_id":"","pricing_plan_id":"free"},{"bike_id":"fb1f4664-a47d-4968-a27b-55a0b3545374","system_id":"levelo_inurba_marseille","lat":43.246461,"lon":5.389014,"is_reserved":false,"is_disabled":false,"rental_uris":{"android":"levelo://app?vid=fb1f4664-a47d-4968-a27b-55a0b3545374","ios":"levelo://app?vid=fb1f4664-a47d-4968-a27b-55a0b3545374"},"vehicle_type_id":"4","last_reported":1702606957,"current_range_meters":14000,"station_id":"ce4bhg12rcd13ifvqf60","pricing_plan_id":"free"},{"bike_id":"943e52e8-36d7-4fec-9ddf-e07fe42c8d89","system_id":"levelo_inurba_marseille","lat":43.246461,"lon":5.389014,"is_reserved":false,"is_disabled":false,"rental_uris":{"android":"levelo://app?vid=943e52e8-36d7-4fec-9ddf-e07fe42c8d89","ios":"levelo://app?vid=943e52e8-36d7-4fec-9ddf-e07fe42c8d89"},"vehicle_type_id":"4","last_reported":1702606957,"current_range_meters":30400,"station_id":"ce4bhg12rcd13ifvqf60","pricing_plan_id":"free"},{"bike_id":"104ec263-3b25-4cde-8d5c-3e8ae35eb557","system_id":"levelo_inurba_marseille","lat":43.243884,"lon":5.370736,"is_reserved":false,"is_disabled":false,"rental_uris":{"android":"levelo://app?vid=104ec263-3b25-4cde-8d5c-3e8ae35eb557","ios":"levelo://app?vid=104ec263-3b25-4cde-8d5c-3e8ae35eb557"},