{"last_updated":1702325282,"ttl":30,"version":"2.2","data":{"bikes":[{"bike_id":"9b0409c8-952e-43cd-8929-2c98668b8e00","system_id":"levelo_inurba_marseille","lat":43.31353,"lon":5.36714,"is_reserved":false,"is_disabled":false,"rental_uris":{"android":"levelo://app?vid=9b0409c8-952e-43cd-8929-2c98668b8e00","ios":"levelo://app?vid=9b0409c8-952e-43cd-8929-2c98668b8e00"},"vehicle_type_id":"4","last_reported":1702325282,"current_range_meters":12800,"station_id":"ce4bgr92rcd13ifvqc6g","pricing_plan_id":"free"},{"bike_id":"2e1fefc4-92da-4cf0-be43-73beca4f8e67","system_id":"levelo_inurba_marseille","lat":43.31368,"lon":5.36672,"is_reserved":false,"is_disabled":false,"rental_uris":{"android":"levelo://app?vid=2e1fefc4-92da-4cf0-be43-73beca4f8e67","ios":"levelo://app?vid=2e1fefc4-92da-4cf0-be43-73beca4f8e67"},"vehicle_type_id":"4","last_reported":1702325282,"current_range_meters":29600,"station_id":"","pricing_plan_id":"free"},{"bike_id":"9232e33d-f26e-4003-84ad-a19813a3f7b4","system_id":"levelo_inurba_marseille","lat":43.312239,"lon":5.368562,"is_reserved":false,"is_disabled":false,"rental_uris":{"android":"levelo://app?vid=9232e33d-f26e-4003-84ad-a19813a3f7b4","ios":"levelo://app?vid=9232e33d-f26e-4003-84ad-a19813a3f7b4"},"vehicle_type_id":"4","last_reported":1702325282,"current_range_meters":4800,"station_id":"ce4bgl92rcd13ifvqbq0","pricing_plan_id":"free"},{"bike_id":"51a1c27d-652f-4b49-947f-50c07623f64f","system_id":"levelo_inurba_marseille","lat":43.31488,"lon":5.37306,"is_reserved":false,"is_disabled":false,"rental_uris":{"android":"levelo://app?vid=51a1c27d-652f-4b49-947f-50c07623f64f","ios":"levelo://app?vid=51a1c27d-652f-4b49-947f-50c07623f64f"},"vehicle_type_id":"4","last_reported":1702325282,"current_range_meters":29600,"station_id":"ce4bgt12rcd13ifvqcd0","pricing_plan_id":"free"},{"bike_id":"270e1096-7411-4fd9-b185-1267e6618415","system_id":"levelo_inurba_marseille","lat":43.311125,"lon":5.377624,"is_reserved":false,"is_disabled":false,"rental_uris":{"android":"levelo://app?vid=270e1096-7411-4fd9-b185-1267e6618415","ios":"levelo://app?vid=270e1096-7411-4fd9-b185-1267e6618415"},"vehicle_type_id":"4","last_reported":1702325282,"current_range_meters":4800,"station_id":"ce4bgt92rcd13ifvqcg0","pricing_plan_id":"free"},{"bike_id":"17a02c9e-3e9a-40d1-b2e9-2a3b71945ed1","system_id":"levelo_inurba_marseille","lat":43.311131,"lon":5.377651,"is_reserved":false,"is_disabled":false,"rental_uris":{"android":"levelo://app?vid=17a02c9e-3e9a-40d1-b2e9-2a3b71945ed1","ios":"levelo://app?vid=17a02c9e-3e9a-40d1-b2e9-2a3b71945ed1"},"vehicle_type_id":"4","last_reported":1702325282,"current_range_meters":20400,"station_id":"ce4bgt92rcd13ifvqcg0","pricing_plan_id":"free"},{"bike_id":"b959d1cc-dbc0-4c38-ac60-3e1e667f3943","system_id":"levelo_inurba_marseille","lat":43.311158,"lon":5.377717,"is_reserved":false,"is_disabled":false,"rental_uris":{"android":"levelo://app?vid=b959d1cc-dbc0-4c38-ac60-3e1e667f3943","ios":"levelo://app?vid=b959d1cc-dbc0-4c38-ac60-3e1e667f3943"},"vehicle_type_id":"4","last_reported":1702325282,"current_range_meters":22800,"station_id":"ce4bgt92rcd13ifvqcg0","pricing_plan_id":"free"},{"bike_id":"2992daf7-a379-4ca3-a3b9-c104a1595521","system_id":"levelo_inurba_marseille","lat":43.311125,"lon":5.377624,"is_reserved":false,"is_disabled":false,"rental_uris":{"android":"levelo://app?vid=2992daf7-a379-4ca3-a3b9-c104a1595521","ios":"levelo://app?vid=2992daf7-a379-4ca3-a3b9-c104a1595521"},"vehicle_type_id":"4","last_reported":1702325282,"current_range_meters":8000,"station_id":"ce4bgt92rcd13ifvqcg0","pricing_plan_id":"free"},{"bike_id":"39ee9a89-500c-428a-984f-632f4eb66c7b","system_id":"levelo_inurba_marseille","lat":43.31857,"lon":5.37498,"is_reserved":false,"is_disabled":false,"rental_uris":{"android":"levelo://app?vid=39ee9a89-500c-428a-984f-632f4eb66c7b","ios":"levelo://app?vid=39ee9a89-500c-428a-984f-632f4eb66c7b"},"vehicle_type_id":"4","last_reported":1702325282,"current_range_meters":20000,"station_id":"","pricing_plan_id":"free"},{"bike_id":"877318c6-ff91-4e47-b724-2bd92ab47e5b","system_id":"levelo_inurba_marseille","lat":43.307945,"lon":5.376487,"is_reserved":false,"is_disabled":false,"rental_uris":{"android":"levelo://app?vid=877318c6-ff91-4e47-b724-2bd92ab47e5b","ios":"levelo://app?vid=877318c6-ff91-4e47-b724-2bd92ab47e5b"},"vehicle_type_id":"4","last_reported":1702325282,"current_range_meters":26800,"station_id":"ce4bgv92rcd13ifvqcq0","pricing_plan_id":"free"},{"bike_id":"01793230-e62c-4c90-94bf-38c2f6dbb101","system_id":"levelo_inurba_marseille","lat":43.30773,"lon":5.37658,"is_reserved":false,"is_disabled":false,"rental_uris":{"android":"levelo://app?vid=01793230-e62c-4c90-94bf-38c2f6dbb101","ios":"levelo://app?vid=01793230-e62c-4c90-94bf-38c2f6dbb101"},"vehicle_type_id":"4","last_reported":1702325282,"current_range_meters":0,"station_id":"ce4bgv92rcd13ifvqcq0","pricing_plan_id":"free"},{"bike_id":"a9e8efa3-e30a-4e32-aa72-dbca40cebdb6","system_id":"levelo_inurba_marseille","lat":43.317075,"lon":5.377367,"is_reserved":false,"is_disabled":false,"rental_uris":{"android":"levelo://app?vid=a9e8efa3-e30a-4e32-aa72-dbca40cebdb6","ios":"levelo://app?vid=a9e8efa3-e30a-4e32-aa72-dbca40cebdb6"},"vehicle_type_id":"4","last_reported":1702325282,"current_range_meters":30400,"station_id":"ce4bgth2rcd13ifvqch0","pricing_plan_id":"free"},{"bike_id":"ae326b30-693f-4a15-9da9-428e9b86db8c","system_id":"levelo_inurba_marseille","lat":43.317075,"lon":5.377367,"is_reserved":false,"is_disabled":false,"rental_uris":{"android":"levelo://app?vid=ae326b30-693f-4a15-9da9-428e9b86db8c","ios":"levelo://app?vid=ae326b30-693f-4a15-9da9-428e9b86db8c"},"vehicle_type_id":"4","last_reported":1702325282,"current_range_meters":29600,"station_id":"ce4bgth2rcd13ifvqch0","pricing_plan_id":"free"},{"bike_id":"bd049cf0-1390-4f97-be84-dacf5a321c06","system_id":"levelo_inurba_marseille","lat":43.303046,"lon":5.368981,"is_reserved":false,"is_disabled":false,"rental_uris":{"android":"levelo://app?vid=bd049cf0-1390-4f97-be84-dacf5a321c06","ios":"levelo://app?vid=bd049cf0-1390-4f97-be84-dacf5a321c06"},"vehicle_type_id":"4","last_reported":1702325282,"current_range_meters":16400,"station_id":"ce4bgqh2rcd13ifvqc5g","pricing_plan_id":"free"},{"bike_id":"15081c0a-0b06-4748-becf-ec5131fc9e97","system_id":"levelo_inurba_marseille","lat":43.301939,"lon":5.366286,"is_reserved":false,"is_disabled":false,"rental_uris":{"android":"levelo://app?vid=15081c0a-0b06-4748-becf-ec5131fc9e97","ios":"levelo://app?vid=15081c0a-0b06-4748-becf-ec5131fc9e97"},"vehicle_type_id":"4","last_reported":1702325282,"current_range_meters":4000,"station_id":"ce4bgrh2rcd13ifvqc8g","pricing_plan_id":"free"},{"bike_id":"3ac6f430-6933-41f6-addc-6f3a4c53d49c","system_id":"levelo_inurba_marseille","lat":43.308012,"lon":5.381511,"is_reserved":false,"is_disabled":false,"rental_uris":{"android":"levelo://app?vid=3ac6f430-6933-41f6-addc-6f3a4c53d49c","ios":"levelo://app?vid=3ac6f430-6933-41f6-addc-6f3a4c53d49c"},"vehicle_type_id":"4","last_reported":1702325282,"current_range_meters":14400,"station_id":"ce4bgt12rcd13ifvqce0","pricing_plan_id":"free"},{"bike_id":"a5589e38-f15a-46fe-9b37-27cf16ba9de2","system_id":"levelo_inurba_marseille","lat":43.316225,"lon":5.383077,"is_reserved":false,"is_disabled":false,"rental_uris":{"android":"levelo://app?vid=a5589e38-f15a-46fe-9b37-27cf16ba9de2","ios":"levelo://app?vid=a5589e38-f15a-46fe-9b37-27cf16ba9de2"},"vehicle_type_id":"4","last_reported":1702325282,"current_range_meters":23200,"station_id":"","pricing_plan_id":"free"},{"bike_id":"81f6ea43-3f59-4cbd-adbe-6fc5edade078","system_id":"levelo_inurba_marseille","lat":43.313571,"lon":5.384829,"is_reserved":false,"is_disabled":false,"rental_uris":{"android":"levelo://app?vid=81f6ea43-3f59-4cbd-adbe-6fc5edade078","ios":"levelo://app?vid=81f6ea43-3f59-4cbd-adbe-6fc5edade078"},"vehicle_type_id":"4","last_reported":1702325282,"current_range_meters":30000,"station_id":"ce4bgt92rcd13ifvqcf0","pricing_plan_id":"free"},{"bike_id":"f5dc87db-1627-40f9-8d4d-6dfa629a504a","system_id":"levelo_inurba_marseille","lat":43.31356,"lon":5.38493,"is_reserved":false,"is_disabled":false,"rental_uris":{"android":"levelo://app?vid=f5dc87db-1627-40f9-8d4d-6dfa629a504a","ios":"levelo://app?vid=f5dc87db-1627-40f9-8d4d-6dfa629a504a"},"vehicle_type_id":"4","last_reported":1702325282,"current_range_meters":15200,"station_id":"ce4bgt92rcd13ifvqcf0","pricing_plan_id":"free"},{"bike_id":"9e689e78-810a-4a8a-bda1-de445e3ee726","system_id":"levelo_inurba_marseille","lat":43.311722,"lon":5.387247,"is_reserved":false,"is_disabled":false,"rental_uris":{"android":"levelo://app?vid=9e689e78-810a-4a8a-bda1-de445e3ee726","ios":"levelo://app?vid=9e689e78-810a-4a8a-bda1-de445e3ee726"},"vehicle_type_id":"4","last_reported":1702325282,"current_range_meters":16800,"station_id":"ce4bgv12rcd13ifvqcp0","pricing_plan_id":"free"},{"bike_id":"e58713d1-2376-4d6a-9f94-d3e04177757d","system_id":"levelo_inurba_marseille","lat":43.305364,"lon":5.384119,"is_reserved":false,"is_disabled":false,"rental_uris":{"android":"levelo://app?vid=e58713d1-2376-4d6a-9f94-d3e04177757d","ios":"levelo://app?vid=e58713d1-2376-4d6a-9f94-d3e04177757d"},"vehicle_type_id":"4","last_reported":1702325282,"current_range_meters":17600,"station_id":"ce4bgg92rcd13ifvqb30","pricing_plan_id":"free"},{"bike_id":"9ceacf3f-a2f7-42f0-b421-6fb1a4529c92","system_id":"levelo_inurba_marseille","lat":43.311722,"lon":5.387247,"is_reserved":false,"is_disabled":false,"rental_uris":{"android":"levelo://app?vid=9ceacf3f-a2f7-42f0-b421-6fb1a4529c92","ios":"levelo://app?vid=9ceacf3f-a2f7-42f0-b421-6fb1a4529c92"},"vehicle_type_id":"4","last_reported":1702325282,"current_range_meters":20400,"station_id":"ce4bgv12rcd13ifvqcp0","pricing_plan_id":"free"},{"bike_id":"068f4cd4-969c-4b32-8f76-905916e866f7","system_id":"levelo_inurba_marseille","lat":43.311722,"lon":5.387247,"is_reserved":false,"is_disabled":false,"rental_uris":{"android":"levelo://app?vid=068f4cd4-969c-4b32-8f76-905916e866f7","ios":"levelo://app?vid=068f4cd4-969c-4b32-8f76-905916e866f7"},"vehicle_type_id":"4","last_reported":1702325282,"current_range_meters":26800,"station_id":"ce4bgv12rcd13ifvqcp0","pricing_plan_id":"free"},{"bike_id":"9992cc31-d09b-489f-8815-798bcd79a09a","system_id":"levelo_inurba_marseille","lat":43.311722,"lon":5.387247,"is_reserved":false,"is_disabled":false,"rental_uris":{"android":"levelo://app?vid=9992cc31-d09b-489f-8815-798bcd79a09a","ios":"levelo://app?vid=9992cc31-d09b-489f-8815-798bcd79a09a"},"vehicle_type_id":"4","last_reported":1702325282,"current_range_meters":17200,"station_id":"ce4bgv12rcd13ifvqcp0","pricing_plan_id":"free"},{"bike_id":"d3697dae-79fa-4e0f-a9b0-b17da63fad10","system_id":"levelo_inurba_marseille","lat":43.311722,"lon":5.387247,"is_reserved":false,"is_disabled":false,"rental_uris":{"android":"levelo://app?vid=d3697dae-79fa-4e0f-a9b0-b17da63fad10","ios":"levelo://app?vid=d3697dae-79fa-4e0f-a9b0-b17da63fad10"},"vehicle_type_id":"4","last_reported":1702325282,"current_range_meters":27600,"station_id":"ce4bgv12rcd13ifvqcp0","pricing_plan_id":"free"},{"bike_id":"ea30782d-6269-40ef-81ac-0eb759ccbe99","system_id":"levelo_inurba_marseille","lat":43.322872,"lon":5.382756,"is_reserved":false,"is_disabled":false,"rental_uris":{"android":"levelo://app?vid=ea30782d-6269-40ef-81ac-0eb759ccbe99","ios":"levelo://app?vid=ea30782d-6269-40ef-81ac-0eb759ccbe99"},"vehicle_type_id":"4","last_reported":1702325282,"current_range_meters":30400,"station_id":"ce4bhr12rcd13ifvqhqg","pricing_plan_id":"free"},{"bike_id":"e943b487-c43c-4967-b791-c50dc3993506","system_id":"levelo_inurba_marseille","lat":43.2957,"lon":5.368117,"is_reserved":false,"is_disabled":false,"rental_uris":{"android":"levelo://app?vid=e943b487-c43c-4967-b791-c50dc3993506","ios":"levelo://app?vid=e943b487-c43c-4967-b791-c50dc3993506"},"vehicle_type_id":"4","last_reported":1702325282,"current_range_meters":27600,"station_id":"","pricing_plan_id":"free"},{"bike_id":"ee28c0dd-3f9a-4600-b1a0-13e925ac0245","system_id":"levelo_inurba_marseille","lat":43.309589,"lon":5.390258,"is_reserved":false,"is_disabled":false,"rental_uris":{"android":"levelo://app?vid=ee28c0dd-3f9a-4600-b1a0-13e925ac0245","ios":"levelo://app?vid=ee28c0dd-3f9a-4600-b1a0-13e925ac0245"},"vehicle_type_id":"4","last_reported":1702325282,"current_range_meters":30400,"station_id":"ce4bgup2rcd13ifvqco0","pricing_plan_id":"free"},{"bike_id":"8d29c8b9-4f5e-4637-beaa-0cc6b2fd2a9f","system_id":"levelo_inurba_marseille","lat":43.317557,"lon":5.390173,"is_reserved":false,"is_disabled":false,"rental_uris":{"android":"levelo://app?vid=8d29c8b9-4f5e-4637-beaa-0cc6b2fd2a9f","ios":"levelo://app?vid=8d29c8b9-4f5e-4637-beaa-0cc6b2fd2a9f"},"vehicle_type_id":"4","last_reported":1702325282,"current_range_meters":19600,"station_id":"ce4bhqp2rcd13ifvqhng","pricing_plan_id":"free"},{"bike_id":"c66d7ad2-1cb7-48cd-b397-09f0c1ed512f","system_id":"levelo_inurba_marseille","lat":43.317557,"lon":5.390173,"is_reserved":false,"is_disabled":false,"rental_uris":{"android":"levelo://app?vid=c66d7ad2-1cb7-48cd-b397-09f0c1ed512f","ios":"levelo://app?vid=c66d7ad2-1cb7-48cd-b397-09f0c1ed512f"},"vehicle_type_id":"4","last_reported":1702325282,"current_range_meters":0,"station_id":"ce4bhqp2rcd13ifvqhng","pricing_plan_id":"free"},{"bike_id":"20d3374e-7777-4a3a-aac3-6bcbb3f05466","system_id":"levelo_inurba_marseille","lat":43.317557,"lon":5.390173,"is_reserved":false,"is_disabled":false,"rental_uris":{"android":"levelo://app?vid=20d3374e-7777-4a3a-aac3-6bcbb3f05466","ios":"levelo://app?vid=20d3374e-7777-4a3a-aac3-6bcbb3f05466"},"vehicle_type_id":"4","last_reported":1702325282,"current_range_meters":18800,"station_id":"ce4bhqp2rcd13ifvqhng","pricing_plan_id":"free"},{"bike_id":"960ddf67-4190-4312-a0df-e1bbf931f16f","system_id":"levelo_inurba_marseille","lat":43.298037,"lon":5.381066,"is_reserved":false,"is_disabled":false,"rental_uris":{"android":"levelo://app?vid=960ddf67-4190-4312-a0df-e1bbf931f16f","ios":"levelo://app?vid=960ddf67-4190-4312-a0df-e1bbf931f16f"},"vehicle_type_id":"4","last_reported":1702325282,"current_range_meters":11200,"station_id":"ce4bgip2rcd13ifvqbb0","pricing_plan_id":"free"},{"bike_id":"61a9d821-211d-4cd3-b66f-6a9b3fadd2d2","system_id":"levelo_inurba_marseille","lat":43.33062,"lon":5.37003,"is_reserved":false,"is_disabled":false,"rental_uris":{"android":"levelo://app?vid=61a9d821-211d-4cd3-b66f-6a9b3fadd2d2","ios":"levelo://app?vid=61a9d821-211d-4cd3-b66f-6a9b3fadd2d2"},"vehicle_type_id":"4","last_reported":1702325282,"current_range_meters":24000,"station_id":"","pricing_plan_id":"free"},{"bike_id":"52d8b7ba-7505-413c-b898-efb75f14c13c","system_id":"levelo_inurba_marseille","lat":43.33066,"lon":5.37003,"is_reserved":false,"is_disabled":false,"rental_uris":{"android":"levelo://app?vid=52d8b7ba-7505-413c-b898-efb75f14c13c","ios":"levelo://app?vid=52d8b7ba-7505-413c-b898-efb75f14c13c"},"vehicle_type_id":"4","last_reported":1702325282,"current_range_meters":19600,"station_id":"","pricing_plan_id":"free"},{"bike_id":"d99f535a-f300-4515-bb83-6d73ed93e79c","system_id":"levelo_inurba_marseille","lat":43.304278,"lon":5.388868,"is_reserved":false,"is_disabled":false,"rental_uris":{"android":"levelo://app?vid=d99f535a-f300-4515-bb83-6d73ed93e79c","ios":"levelo://app?vid=d99f535a-f300-4515-bb83-6d73ed93e79c"},"vehicle_type_id":"4","last_reported":1702325282,"current_range_meters":11600,"station_id":"ce4bgk12rcd13ifvqbi0","pricing_plan_id":"free"},{"bike_id":"a4bb65c6-7c65-4b95-9376-8b775da55c12","system_id":"levelo_inurba_marseille","lat":43.304274,"lon":5.388873,"is_reserved":false,"is_disabled":false,"rental_uris":{"android":"levelo://app?vid=a4bb65c6-7c65-4b95-9376-8b775da55c12","ios":"levelo://app?vid=a4bb65c6-7c65-4b95-9376-8b775da55c12"},"vehicle_type_id":"4","last_reported":1702325282,"current_range_meters":4800,"station_id":"ce4bgk12rcd13ifvqbi0","pricing_plan_id":"free"},{"bike_id":"e445088b-ea85-4a39-915c-fe076c5e8f64","system_id":"levelo_inurba_marseille","lat":43.330784,"lon":5.371609,"is_reserved":false,"is_disabled":false,"rental_uris":{"android":"levelo://app?vid=e445088b-ea85-4a39-915c-fe076c5e8f64","ios":"levelo://app?vid=e445088b-ea85-4a39-915c-fe076c5e8f64"},"vehicle_type_id":"4","last_reported":1702325282,"current_range_meters":3600,"station_id":"","pricing_plan_id":"free"},{"bike_id":"77a6c46d-d898-4e4f-8846-efa91689c7f0","system_id":"levelo_inurba_marseille","lat":43.295536,"lon":5.379285,"is_reserved":false,"is_disabled":false,"rental_uris":{"android":"levelo://app?vid=77a6c46d-d898-4e4f-8846-efa91689c7f0","ios":"levelo://app?vid=77a6c46d-d898-4e4f-8846-efa91689c7f0"},"vehicle_type_id":"4","last_reported":1702325282,"current_range_meters":0,"station_id":"","pricing_plan_id":"free"},{"bike_id":"65aebfa6-f116-4aa8-b10d-4f587ce40fa5","system_id":"levelo_inurba_marseille","lat":43.29601,"lon":5.381084,"is_reserved":false,"is_disabled":false,"rental_uris":{"android":"levelo://app?vid=65aebfa6-f116-4aa8-b10d-4f587ce40fa5","ios":"levelo://app?vid=65aebfa6-f116-4aa8-b10d-4f587ce40fa5"},"vehicle_type_id":"4","last_reported":1702325282,"current_range_meters":6000,"station_id":"ce4bgl12rcd13ifvqbo0","pricing_plan_id":"free"},{"bike_id":"3a829788-9a6c-4e36-ae5b-9f559fbe597e","system_id":"levelo_inurba_marseille","lat":43.29602,"lon":5.381084,"is_reserved":false,"is_disabled":false,"rental_uris":{"android":"levelo://app?vid=3a829788-9a6c-4e36-ae5b-9f559fbe597e","ios":"levelo://app?vid=3a829788-9a6c-4e36-ae5b-9f559fbe597e"},"vehicle_type_id":"4","last_reported":1702325282,"current_range_meters":22400,"station_id":"ce4bgl12rcd13ifvqbo0","pricing_plan_id":"free"},{"bike_id":"a0b1de44-dad7-4f25-9d97-4f488be9ed0c","system_id":"levelo_inurba_marseille","lat":43.305994,"lon":5.393687,"is_reserved":false,"is_disabled":false,"rental_uris":{"android":"levelo://app?vid=a0b1de44-dad7-4f25-9d97-4f488be9ed0c","ios":"levelo://app?vid=a0b1de44-dad7-4f25-9d97-4f488be9ed0c"},"vehicle_type_id":"4","last_reported":1702325282,"current_range_meters":20800,"station_id":"ce4bh0p2rcd13ifvqd80","pricing_plan_id":"free"},{"bike_id":"3ab59caf-3e4e-4b0b-8c42-bdd2a3d0da1c","system_id":"levelo_inurba_marseille","lat":43.303002,"lon":5.392142,"is_reserved":false,"is_disabled":false,"rental_uris":{"android":"levelo://app?vid=3ab59caf-3e4e-4b0b-8c42-bdd2a3d0da1c","ios":"levelo://app?vid=3ab59caf-3e4e-4b0b-8c42-bdd2a3d0da1c"},"vehicle_type_id":"4","last_reported":1702325282,"current_range_meters":0,"station_id":"ce4bgkh2rcd13ifvqbk0","pricing_plan_id":"free"},{"bike_id":"9e7dd1e6-bebd-48e7-922c-4ae2455a2339","system_id":"levelo_inurba_marseille","lat":43.303043,"lon":5.39213,"is_reserved":false,"is_disabled":false,"rental_uris":{"android":"levelo://app?vid=9e7dd1e6-bebd-48e7-922c-4ae2455a2339","ios":"levelo://app?vid=9e7dd1e6-bebd-48e7-922c-4ae2455a2339"},"vehicle_type_id":"4","last_reported":1702325282,"current_range_meters":1600,"station_id":"ce4bgkh2rcd13ifvqbk0","pricing_plan_id":"free"},{"bike_id":"786d44f3-8623-4bf6-ad7a-913ec51cc59b","system_id":"levelo_inurba_marseille","lat":43.2936,"lon":5.37835,"is_reserved":false,"is_disabled":false,"rental_uris":{"android":"levelo://app?vid=786d44f3-8623-4bf6-ad7a-913ec51cc59b","ios":"levelo://app?vid=786d44f3-8623-4bf6-ad7a-913ec51cc59b"},"vehicle_type_id":"4","last_reported":1702325282,"current_range_meters":11200,"station_id":"ce4bgjh2rcd13ifvqbf0","pricing_plan_id":"free"},{"bike_id":"4eee8907-7993-4969-86da-16573689ad2c","system_id":"levelo_inurba_marseille","lat":43.302992,"lon":5.392136,"is_reserved":false,"is_disabled":false,"rental_uris":{"android":"levelo://app?vid=4eee8907-7993-4969-86da-16573689ad2c","ios":"levelo://app?vid=4eee8907-7993-4969-86da-16573689ad2c"},"vehicle_type_id":"4","last_reported":1702325282,"current_range_meters":18000,"station_id":"ce4bgkh2rcd13ifvqbk0","pricing_plan_id":"free"},{"bike_id":"2462382b-aa08-4d4e-99f0-82eb587f598d","system_id":"levelo_inurba_marseille","lat":43.2936,"lon":5.37835,"is_reserved":false,"is_disabled":false,"rental_uris":{"android":"levelo://app?vid=2462382b-aa08-4d4e-99f0-82eb587f598d","ios":"levelo://app?vid=2462382b-aa08-4d4e-99f0-82eb587f598d"},"vehicle_type_id":"4","last_reported":1702325282,"current_range_meters":27200,"station_id":"ce4bgjh2rcd13ifvqbf0","pricing_plan_id":"free"},{"bike_id":"72845b29-5828-42fa-98fe-a7b641780078","system_id":"levelo_inurba_marseille","lat":43.2936,"lon":5.37835,"is_reserved":false,"is_disabled":false,"rental_uris":{"android":"levelo://app?vid=72845b29-5828-42fa-98fe-a7b641780078","ios":"levelo://app?vid=72845b29-5828-42fa-98fe-a7b641780078"},"vehicle_type_id":"4","last_reported":1702325282,"current_range_meters":8000,"station_id":"ce4bgjh2rcd13ifvqbf0","pricing_plan_id":"free"},{"bike_id":"ca4e135c-886c-4148-ae09-abe9471e060c","system_id":"levelo_inurba_marseille","lat":43.292311,"lon":5.360731,"is_reserved":false,"is_disabled":false,"rental_uris":{"android":"levelo://app?vid=ca4e135c-886c-4148-ae09-abe9471e060c","ios":"levelo://app?vid=ca4e135c-886c-4148-ae09-abe9471e060c"},"vehicle_type_id":"4","last_reported":1702325282,"current_range_meters":28400,"station_id":"ce4bhbh2rcd13ifvqeqg","pricing_plan_id":"free"},{"bike_id":"79f36a7a-c67e-49d9-8621-9a5e25641ac8","system_id":"levelo_inurba_marseille","lat":43.292311,"lon":5.360731,"is_reserved":false,"is_disabled":false,"rental_uris":{"android":"levelo://app?vid=79f36a7a-c67e-49d9-8621-9a5e25641ac8","ios":"levelo://app?vid=79f36a7a-c67e-49d9-8621-9a5e25641ac8"},"vehicle_type_id":"4","last_reported":1702325282,"current_range_meters":12000,"station_id":"ce4bhbh2rcd13ifvqeqg","pricing_plan_id":"free"},{"bike_id":"c659b711-0195-45e5-9727-f36c772c4318","system_id":"levelo_inurba_marseille","lat":43.2987,"lon":5.38903,"is_reserved":false,"is_disabled":false,"rental_uris":{"android":"levelo://app?vid=c659b711-0195-45e5-9727-f36c772c4318","ios":"levelo://app?vid=c659b711-0195-45e5-9727-f36c772c4318"},"vehicle_type_id":"4","last_reported":1702325282,"current_range_meters":18000,"station_id":"","pricing_plan_id":"free"},{"bike_id":"e0faa393-c92d-4b64-8e12-1c27f1b99ac3","system_id":"levelo_inurba_marseille","lat":43.29874,"lon":5.3891,"is_reserved":false,"is_disabled":false,"rental_uris":{"android":"levelo://app?vid=e0faa393-c92d-4b64-8e12-1c27f1b99ac3","ios":"levelo://app?vid=e0faa393-c92d-4b64-8e12-1c27f1b99ac3"},"vehicle_type_id":"4","last_reported":1702325282,"current_range_meters":29600,"station_id":"","pricing_plan_id":"free"},{"bike_id":"c58fb81b-b58a-4c1c-8905-ff0b5c194be1","system_id":"levelo_inurba_marseille","lat":43.309038,"lon":5.396546,"is_reserved":false,"is_disabled":false,"rental_uris":{"android":"levelo://app?vid=c58fb81b-b58a-4c1c-8905-ff0b5c194be1","ios":"levelo://app?vid=c58fb81b-b58a-4c1c-8905-ff0b5c194be1"},"vehicle_type_id":"4","last_reported":1702325282,"current_range_meters":9600,"station_id":"ce4bh012rcd13ifvqcv0","pricing_plan_id":"free"},{"bike_id":"0fd54c58-1996-442c-8269-f1d63bbdaacc","system_id":"levelo_inurba_marseille","lat":43.309038,"lon":5.396546,"is_reserved":false,"is_disabled":false,"rental_uris":{"android":"levelo://app?vid=0fd54c58-1996-442c-8269-f1d63bbdaacc","ios":"levelo://app?vid=0fd54c58-1996-442c-8269-f1d63bbdaacc"},"vehicle_type_id":"4","last_reported":1702325282,"current_range_meters":23600,"station_id":"ce4bh012rcd13ifvqcv0","pricing_plan_id":"free"},{"bike_id":"8a583d99-8dac-43cf-a91d-adcb6855f5dc","system_id":"levelo_inurba_marseille","lat":43.29044,"lon":5.37588,"is_reserved":false,"is_disabled":false,"rental_uris":{"android":"levelo://app?vid=8a583d99-8dac-43cf-a91d-adcb6855f5dc","ios":"levelo://app?vid=8a583d99-8dac-43cf-a91d-adcb6855f5dc"},"vehicle_type_id":"4","last_reported":1702325282,"current_range_meters":28800,"station_id":"","pricing_plan_id":"free"},{"bike_id":"9ebf51cc-6928-488e-8c80-d572e8a58b5b","system_id":"levelo_inurba_marseille","lat":43.28946,"lon":5.36406,"is_reserved":false,"is_disabled":false,"rental_uris":{"android":"levelo://app?vid=9ebf51cc-6928-488e-8c80-d572e8a58b5b","ios":"levelo://app?vid=9ebf51cc-6928-488e-8c80-d572e8a58b5b"},"vehicle_type_id":"4","last_reported":1702325282,"current_range_meters":24400,"station_id":"ce4bhc92rcd13ifvqetg","pricing_plan_id":"free"},{"bike_id":"6f97e3fd-f065-4fed-9d9c-bc3a3785f327","system_id":"levelo_inurba_marseille","lat":43.289468,"lon":5.363719,"is_reserved":false,"is_disabled":false,"rental_uris":{"android":"levelo://app?vid=6f97e3fd-f065-4fed-9d9c-bc3a3785f327","ios":"levelo://app?vid=6f97e3fd-f065-4fed-9d9c-bc3a3785f327"},"vehicle_type_id":"4","last_reported":1702325282,"current_range_meters":23200,"station_id":"ce4bhc92rcd13ifvqetg","pricing_plan_id":"free"},{"bike_id":"1a39c6b4-1aeb-41f9-b8c3-46cefedb7617","system_id":"levelo_inurba_marseille","lat":43.289184,"lon":5.366408,"is_reserved":false,"is_disabled":false,"rental_uris":{"android":"levelo://app?vid=1a39c6b4-1aeb-41f9-b8c3-46cefedb7617","ios":"levelo://app?vid=1a39c6b4-1aeb-41f9-b8c3-46cefedb7617"},"vehicle_type_id":"4","last_reported":1702325282,"current_range_meters":30400,"station_id":"ce4bhap2rcd13ifvqek0","pricing_plan_id":"free"},{"bike_id":"3803b3d3-6521-447b-89b4-a6bb64691fd3","system_id":"levelo_inurba_marseille","lat":43.304274,"lon":5.397513,"is_reserved":false,"is_disabled":false,"rental_uris":{"android":"levelo://app?vid=3803b3d3-6521-447b-89b4-a6bb64691fd3","ios":"levelo://app?vid=3803b3d3-6521-447b-89b4-a6bb64691fd3"},"vehicle_type_id":"4","last_reported":1702325282,"current_range_meters":14400,"station_id":"ce4bh092rcd13ifvqd20","pricing_plan_id":"free"},{"bike_id":"1a661d73-88ae-4138-aaea-c7718f1f0f3f","system_id":"levelo_inurba_marseille","lat":43.330442,"lon":5.389148,"is_reserved":false,"is_disabled":false,"rental_uris":{"android":"levelo://app?vid=1a661d73-88ae-4138-aaea-c7718f1f0f3f","ios":"levelo://app?vid=1a661d73-88ae-4138-aaea-c7718f1f0f3f"},"vehicle_type_id":"4","last_reported":1702325282,"current_range_meters":22000,"station_id":"ce4bhr92rcd13ifvqhrg","pricing_plan_id":"free"},{"bike_id":"9d8e17a7-c4c7-4287-a923-25a1cf206b9b","system_id":"levelo_inurba_marseille","lat":43.33045,"lon":5.38917,"is_reserved":false,"is_disabled":false,"rental_uris":{"android":"levelo://app?vid=9d8e17a7-c4c7-4287-a923-25a1cf206b9b","ios":"levelo://app?vid=9d8e17a7-c4c7-4287-a923-25a1cf206b9b"},"vehicle_type_id":"4","last_reported":1702325282,"current_range_meters":10800,"station_id":"ce4bhr92rcd13ifvqhrg","pricing_plan_id":"free"},{"bike_id":"f1896741-896e-40c9-aa4d-96fe134ed880","system_id":"levelo_inurba_marseille","lat":43.330442,"lon":5.389148,"is_reserved":false,"is_disabled":false,"rental_uris":{"android":"levelo://app?vid=f1896741-896e-40c9-aa4d-96fe134ed880","ios":"levelo://app?vid=f1896741-896e-40c9-aa4d-96fe134ed880"},"vehicle_type_id":"4","last_reported":1702325282,"current_range_meters":4800,"station_id":"ce4bhr92rcd13ifvqhrg","pricing_plan_id":"free"},{"bike_id":"4601da1a-2bc2-4be5-8fac-e44f32e20802","system_id":"levelo_inurba_marseille","lat":43.33043,"lon":5.38924,"is_reserved":false,"is_disabled":false,"rental_uris":{"android":"levelo://app?vid=4601da1a-2bc2-4be5-8fac-e44f32e20802","ios":"levelo://app?vid=4601da1a-2bc2-4be5-8fac-e44f32e20802"},"vehicle_type_id":"4","last_reported":1702325282,"current_range_meters":26800,"station_id":"ce4bhr92rcd13ifvqhrg","pricing_plan_id":"free"},{"bike_id":"02248679-509f-4b57-97bb-e9d71f1470fa","system_id":"levelo_inurba_marseille","lat":43.29,"lon":5.35617,"is_reserved":false,"is_disabled":false,"rental_uris":{"android":"levelo://app?vid=02248679-509f-4b57-97bb-e9d71f1470fa","ios":"levelo://app?vid=02248679-509f-4b57-97bb-e9d71f1470fa"},"vehicle_type_id":"4","last_reported":1702325282,"current_range_meters":30800,"station_id":"ce4bhb92rcd13ifvqen0","pricing_plan_id":"free"},{"bike_id":"49c911d8-fd11-450f-bb64-dbed6164844e","system_id":"levelo_inurba_marseille","lat":43.290995,"lon":5.381361,"is_reserved":false,"is_disabled":false,"rental_uris":{"android":"levelo://app?vid=49c911d8-fd11-450f-bb64-dbed6164844e","ios":"levelo://app?vid=49c911d8-fd11-450f-bb64-dbed6164844e"},"vehicle_type_id":"4","last_reported":1702325282,"current_range_meters":24800,"station_id":"ce4bh512rcd13ifvqe2g","pricing_plan_id":"free"},{"bike_id":"fb222a20-4023-4df4-9e50-ced6c429b48a","system_id":"levelo_inurba_marseille","lat":43.297815,"lon":5.393548,"is_reserved":false,"is_disabled":false,"rental_uris":{"android":"levelo://app?vid=fb222a20-4023-4df4-9e50-ced6c429b48a","ios":"levelo://app?vid=fb222a20-4023-4df4-9e50-ced6c429b48a"},"vehicle_type_id":"4","last_reported":1702325282,"current_range_meters":10800,"station_id":"chh1huq6cuj3fo74tm60","pricing_plan_id":"free"},{"bike_id":"bb0061ff-628d-4bb7-8ce0-726450104e00","system_id":"levelo_inurba_marseille","lat":43.29785,"lon":5.39343,"is_reserved":false,"is_disabled":false,"rental_uris":{"android":"levelo://app?vid=bb0061ff-628d-4bb7-8ce0-726450104e00","ios":"levelo://app?vid=bb0061ff-628d-4bb7-8ce0-726450104e00"},"vehicle_type_id":"4","last_reported":1702325282,"current_range_meters":19600,"station_id":"chh1huq6cuj3fo74tm60","pricing_plan_id":"free"},{"bike_id":"53028428-f02a-4f92-85ae-768730650ca9","system_id":"levelo_inurba_marseille","lat":43.29772,"lon":5.39333,"is_reserved":false,"is_disabled":false,"rental_uris":{"android":"levelo://app?vid=53028428-f02a-4f92-85ae-768730650ca9","ios":"levelo://app?vid=53028428-f02a-4f92-85ae-768730650ca9"},"vehicle_type_id":"4","last_reported":1702325282,"current_range_meters":26400,"station_id":"chh1huq6cuj3fo74tm60","pricing_plan_id":"free"},{"bike_id":"ac29440f-173a-46a8-853d-360a99273b1c","system_id":"levelo_inurba_marseille","lat":43.289743,"lon":5.378304,"is_reserved":false,"is_disabled":false,"rental_uris":{"android":"levelo://app?vid=ac29440f-173a-46a8-853d-360a99273b1c","ios":"levelo://app?vid=ac29440f-173a-46a8-853d-360a99273b1c"},"vehicle_type_id":"4","last_reported":1702325282,"current_range_meters":8400,"station_id":"ce4bh9p2rcd13ifvqed0","pricing_plan_id":"free"},{"bike_id":"2481710a-e746-4304-a1b3-8afbf033c68f","system_id":"levelo_inurba_marseille","lat":43.295169,"lon":5.390426,"is_reserved":false,"is_disabled":false,"rental_uris":{"android":"levelo://app?vid=2481710a-e746-4304-a1b3-8afbf033c68f","ios":"levelo://app?vid=2481710a-e746-4304-a1b3-8afbf033c68f"},"vehicle_type_id":"4","last_reported":1702325282,"current_range_meters":16400,"station_id":"ce4bh3p2rcd13ifvqdp0","pricing_plan_id":"free"},{"bike_id":"08a27544-d685-45ed-b81f-01c9ee62a42a","system_id":"levelo_inurba_marseille","lat":43.29516,"lon":5.39026,"is_reserved":false,"is_disabled":false,"rental_uris":{"android":"levelo://app?vid=08a27544-d685-45ed-b81f-01c9ee62a42a","ios":"levelo://app?vid=08a27544-d685-45ed-b81f-01c9ee62a42a"},"vehicle_type_id":"4","last_reported":1702325282,"current_range_meters":27200,"station_id":"ce4bh3p2rcd13ifvqdp0","pricing_plan_id":"free"},{"bike_id":"be0cb175-d84b-4a26-8e5c-7eec8e5b365d","system_id":"levelo_inurba_marseille","lat":43.295169,"lon":5.390426,"is_reserved":false,"is_disabled":false,"rental_uris":{"android":"levelo://app?vid=be0cb175-d84b-4a26-8e5c-7eec8e5b365d","ios":"levelo://app?vid=be0cb175-d84b-4a26-8e5c-7eec8e5b365d"},"vehicle_type_id":"4","last_reported":1702325282,"current_range_meters":7200,"station_id":"ce4bh3p2rcd13ifvqdp0","pricing_plan_id":"free"},{"bike_id":"351310e1-9732-4a9f-ae64-3f1caaaa9e09","system_id":"levelo_inurba_marseille","lat":43.28851,"lon":5.358557,"is_reserved":false,"is_disabled":false,"rental_uris":{"android":"levelo://app?vid=351310e1-9732-4a9f-ae64-3f1caaaa9e09","ios":"levelo://app?vid=351310e1-9732-4a9f-ae64-3f1caaaa9e09"},"vehicle_type_id":"4","last_reported":1702325282,"current_range_meters":6000,"station_id":"ce4bhb12rcd13ifvqem0","pricing_plan_id":"free"},{"bike_id":"5bae80d3-0314-4ae9-966f-7fc96d9bff2f","system_id":"levelo_inurba_marseille","lat":43.28856,"lon":5.358371,"is_reserved":false,"is_disabled":false,"rental_uris":{"android":"levelo://app?vid=5bae80d3-0314-4ae9-966f-7fc96d9bff2f","ios":"levelo://app?vid=5bae80d3-0314-4ae9-966f-7fc96d9bff2f"},"vehicle_type_id":"4","last_reported":1702325282,"current_range_meters":4000,"station_id":"ce4bhb12rcd13ifvqem0","pricing_plan_id":"free"},{"bike_id":"1ffa6cab-2192-4490-9617-61044011c6b1","system_id":"levelo_inurba_marseille","lat":43.337402,"lon":5.374477,"is_reserved":false,"is_disabled":false,"rental_uris":{"android":"levelo://app?vid=1ffa6cab-2192-4490-9617-61044011c6b1","ios":"levelo://app?vid=1ffa6cab-2192-4490-9617-61044011c6b1"},"vehicle_type_id":"4","last_reported":1702325282,"current_range_meters":19200,"station_id":"","pricing_plan_id":"free"},{"bike_id":"e4d8e8f0-4d72-4b37-bb41-9f663c10f8b8","system_id":"levelo_inurba_marseille","lat":43.3374,"lon":5.37463,"is_reserved":false,"is_disabled":false,"rental_uris":{"android":"levelo://app?vid=e4d8e8f0-4d72-4b37-bb41-9f663c10f8b8","ios":"levelo://app?vid=e4d8e8f0-4d72-4b37-bb41-9f663c10f8b8"},"vehicle_type_id":"4","last_reported":1702325282,"current_range_meters":16000,"station_id":"","pricing_plan_id":"free"},{"bike_id":"646324b1-14f1-41c2-a5fd-95300f006876","system_id":"levelo_inurba_marseille","lat":43.33749,"lon":5.37449,"is_reserved":false,"is_disabled":false,"rental_uris":{"android":"levelo://app?vid=646324b1-14f1-41c2-a5fd-95300f006876","ios":"levelo://app?vid=646324b1-14f1-41c2-a5fd-95300f006876"},"vehicle_type_id":"4","last_reported":1702325282,"current_range_meters":26800,"station_id":"","pricing_plan_id":"free"},{"bike_id":"1a9123ca-1ac0-4cbb-b622-534f88bcae20","system_id":"levelo_inurba_marseille","lat":43.337513,"lon":5.374637,"is_reserved":false,"is_disabled":false,"rental_uris":{"android":"levelo://app?vid=1a9123ca-1ac0-4cbb-b622-534f88bcae20","ios":"levelo://app?vid=1a9123ca-1ac0-4cbb-b622-534f88bcae20"},"vehicle_type_id":"4","last_reported":1702325282,"current_range_meters":29200,"station_id":"","pricing_plan_id":"free"},{"bike_id":"357c0342-4746-4875-8863-f1f19ff2fa1a","system_id":"levelo_inurba_marseille","lat":43.33757,"lon":5.37463,"is_reserved":false,"is_disabled":false,"rental_uris":{"android":"levelo://app?vid=357c0342-4746-4875-8863-f1f19ff2fa1a","ios":"levelo://app?vid=357c0342-4746-4875-8863-f1f19ff2fa1a"},"vehicle_type_id":"4","last_reported":1702325282,"current_range_meters":26400,"station_id":"","pricing_plan_id":"free"},{"bike_id":"60f84eb0-2206-4e1b-94df-fd8c129930f0","system_id":"levelo_inurba_marseille","lat":43.337668,"lon":5.374343,"is_reserved":false,"is_disabled":false,"rental_uris":{"android":"levelo://app?vid=60f84eb0-2206-4e1b-94df-fd8c129930f0","ios":"levelo://app?vid=60f84eb0-2206-4e1b-94df-fd8c129930f0"},"vehicle_type_id":"4","last_reported":1702325282,"current_range_meters":14400,"station_id":"","pricing_plan_id":"free"},{"bike_id":"c7e30da2-6cfb-41b4-91b4-52b6d91c4b27","system_id":"levelo_inurba_marseille","lat":43.301117,"lon":5.398795,"is_reserved":false,"is_disabled":false,"rental_uris":{"android":"levelo://app?vid=c7e30da2-6cfb-41b4-91b4-52b6d91c4b27","ios":"levelo://app?vid=c7e30da2-6cfb-41b4-91b4-52b6d91c4b27"},"vehicle_type_id":"4","last_reported":1702325282,"current_range_meters":0,"station_id":"ce4bh0h2rcd13ifvqd40","pricing_plan_id":"free"},{"bike_id":"3718be7f-bfd9-4d4a-a2de-c4fd70ef54d6","system_id":"levelo_inurba_marseille","lat":43.28727,"lon":5.36078,"is_reserved":false,"is_disabled":false,"rental_uris":{"android":"levelo://app?vid=3718be7f-bfd9-4d4a-a2de-c4fd70ef54d6","ios":"levelo://app?vid=3718be7f-bfd9-4d4a-a2de-c4fd70ef54d6"},"vehicle_type_id":"4","last_reported":1702325282,"current_range_meters":2000,"station_id":"cki0cbj6b192h4jlfktg","pricing_plan_id":"free"},{"bike_id":"0b1bd042-7cf7-4527-aa17-3a1421b9a37a","system_id":"levelo_inurba_marseille","lat":43.28727,"lon":5.36078,"is_reserved":false,"is_disabled":false,"rental_uris":{"android":"levelo://app?vid=0b1bd042-7cf7-4527-aa17-3a1421b9a37a","ios":"levelo://app?vid=0b1bd042-7cf7-4527-aa17-3a1421b9a37a"},"vehicle_type_id":"4","last_reported":1702325282,"current_range_meters":23200,"station_id":"cki0cbj6b192h4jlfktg","pricing_plan_id":"free"},{"bike_id":"31450edb-2ecb-43d9-b88d-80ffdf2b1441","system_id":"levelo_inurba_marseille","lat":43.298733,"lon":5.397352,"is_reserved":false,"is_disabled":false,"rental_uris":{"android":"levelo://app?vid=31450edb-2ecb-43d9-b88d-80ffdf2b1441","ios":"levelo://app?vid=31450edb-2ecb-43d9-b88d-80ffdf2b1441"},"vehicle_type_id":"4","last_reported":1702325282,"current_range_meters":10400,"station_id":"ce4bh0h2rcd13ifvqd50","pricing_plan_id":"free"},{"bike_id":"405bc0e5-9d7f-45c3-ac9e-89d5a9e66a72","system_id":"levelo_inurba_marseille","lat":43.286961,"lon":5.373785,"is_reserved":false,"is_disabled":false,"rental_uris":{"android":"levelo://app?vid=405bc0e5-9d7f-45c3-ac9e-89d5a9e66a72","ios":"levelo://app?vid=405bc0e5-9d7f-45c3-ac9e-89d5a9e66a72"},"vehicle_type_id":"4","last_reported":1702325282,"current_range_meters":30400,"station_id":"ce4bh3p2rcd13ifvqdq0","pricing_plan_id":"free"},{"bike_id":"52ddb10d-48f5-454f-bec9-ba548d60b53f","system_id":"levelo_inurba_marseille","lat":43.286961,"lon":5.373785,"is_reserved":false,"is_disabled":false,"rental_uris":{"android":"levelo://app?vid=52ddb10d-48f5-454f-bec9-ba548d60b53f","ios":"levelo://app?vid=52ddb10d-48f5-454f-bec9-ba548d60b53f"},"vehicle_type_id":"4","last_reported":1702325282,"current_range_meters":10400,"station_id":"ce4bh3p2rcd13ifvqdq0","pricing_plan_id":"free"},{"bike_id":"126efd32-8f85-46bd-a7c0-543c92f7b26f","system_id":"levelo_inurba_marseille","lat":43.295196,"lon":5.39397,"is_reserved":false,"is_disabled":false,"rental_uris":{"android":"levelo://app?vid=126efd32-8f85-46bd-a7c0-543c92f7b26f","ios":"levelo://app?vid=126efd32-8f85-46bd-a7c0-543c92f7b26f"},"vehicle_type_id":"4","last_reported":1702325282,"current_range_meters":2000,"station_id":"ce4bh292rcd13ifvqdf0","pricing_plan_id":"free"},{"bike_id":"f7e7bb27-5799-433f-9016-aea753897636","system_id":"levelo_inurba_marseille","lat":43.29515,"lon":5.39402,"is_reserved":false,"is_disabled":false,"rental_uris":{"android":"levelo://app?vid=f7e7bb27-5799-433f-9016-aea753897636","ios":"levelo://app?vid=f7e7bb27-5799-433f-9016-aea753897636"},"vehicle_type_id":"4","last_reported":1702325282,"current_range_meters":0,"station_id":"ce4bh292rcd13ifvqdf0","pricing_plan_id":"free"},{"bike_id":"7fa82236-4cdf-4fe6-9671-2266d353730d","system_id":"levelo_inurba_marseille","lat":43.302759,"lon":5.400793,"is_reserved":false,"is_disabled":false,"rental_uris":{"android":"levelo://app?vid=7fa82236-4cdf-4fe6-9671-2266d353730d","ios":"levelo://app?vid=7fa82236-4cdf-4fe6-9671-2266d353730d"},"vehicle_type_id":"4","last_reported":1702325282,"current_range_meters":12000,"station_id":"ce4bgvh2rcd13ifvqcs0","pricing_plan_id":"free"},{"bike_id":"de9ac355-ede0-4bca-b668-26e418da5d79","system_id":"levelo_inurba_marseille","lat":43.30247,"lon":5.40074,"is_reserved":false,"is_disabled":false,"rental_uris":{"android":"levelo://app?vid=de9ac355-ede0-4bca-b668-26e418da5d79","ios":"levelo://app?vid=de9ac355-ede0-4bca-b668-26e418da5d79"},"vehicle_type_id":"4","last_reported":1702325282,"current_range_meters":22400,"station_id":"ce4bgvh2rcd13ifvqcs0","pricing_plan_id":"free"},{"bike_id":"14a3dc26-68b0-446b-b47b-b2af88301a0e","system_id":"levelo_inurba_marseille","lat":43.291994,"lon":5.392907,"is_reserved":false,"is_disabled":false,"rental_uris":{"android":"levelo://app?vid=14a3dc26-68b0-446b-b47b-b2af88301a0e","ios":"levelo://app?vid=14a3dc26-68b0-446b-b47b-b2af88301a0e"},"vehicle_type_id":"4","last_reported":1702325282,"current_range_meters":8400,"station_id":"ce4bh192rcd13ifvqdd0","pricing_plan_id":"free"},{"bike_id":"4ad710f1-bb15-4faa-a3cf-10e9391e9e63","system_id":"levelo_inurba_marseille","lat":43.284538,"lon":5.358657,"is_reserved":false,"is_disabled":false,"rental_uris":{"android":"levelo://app?vid=4ad710f1-bb15-4faa-a3cf-10e9391e9e63","ios":"levelo://app?vid=4ad710f1-bb15-4faa-a3cf-10e9391e9e63"},"vehicle_type_id":"4","last_reported":1702325282,"current_range_meters":16800,"station_id":"ce4bhah2rcd13ifvqei0","pricing_plan_id":"free"},{"bike_id":"15d55d0f-f08c-49b5-bbc4-736950b1131e","system_id":"levelo_inurba_marseille","lat":43.284538,"lon":5.358657,"is_reserved":false,"is_disabled":false,"rental_uris":{"android":"levelo://app?vid=15d55d0f-f08c-49b5-bbc4-736950b1131e","ios":"levelo://app?vid=15d55d0f-f08c-49b5-bbc4-736950b1131e"},"vehicle_type_id":"4","last_reported":1702325282,"current_range_meters":2000,"station_id":"ce4bhah2rcd13ifvqei0","pricing_plan_id":"free"},{"bike_id":"3b2587cc-1fb7-4caf-8769-f55440d71463","system_id":"levelo_inurba_marseille","lat":43.294314,"lon":5.397498,"is_reserved":false,"is_disabled":false,"rental_uris":{"android":"levelo://app?vid=3b2587cc-1fb7-4caf-8769-f55440d71463","ios":"levelo://app?vid=3b2587cc-1fb7-4caf-8769-f55440d71463"},"vehicle_type_id":"4","last_reported":1702325282,"current_range_meters":19200,"station_id":"ce4bh3h2rcd13ifvqdo0","pricing_plan_id":"free"},{"bike_id":"1fad3c37-fe7a-425c-ac87-8cff09d9fbf1","system_id":"levelo_inurba_marseille","lat":43.28616,"lon":5.35109,"is_reserved":false,"is_disabled":false,"rental_uris":{"android":"levelo://app?vid=1fad3c37-fe7a-425c-ac87-8cff09d9fbf1","ios":"levelo://app?vid=1fad3c37-fe7a-425c-ac87-8cff09d9fbf1"},"vehicle_type_id":"4","last_reported":1702325282,"current_range_meters":2800,"station_id":"ce4bhch2rcd13ifvqeug","pricing_plan_id":"free"},{"bike_id":"ff87e69a-80ac-4c6c-9a15-ae17ff91f198","system_id":"levelo_inurba_marseille","lat":43.285856,"lon":5.350771,"is_reserved":false,"is_disabled":false,"rental_uris":{"android":"levelo://app?vid=ff87e69a-80ac-4c6c-9a15-ae17ff91f198","ios":"levelo://app?vid=ff87e69a-80ac-4c6c-9a15-ae17ff91f198"},"vehicle_type_id":"4","last_reported":1702325282,"current_range_meters":0,"station_id":"ce4bhch2rcd13ifvqeug","pricing_plan_id":"free"},{"bike_id":"6d1885bf-915b-4323-8d7f-0a1ba1e4c02e","system_id":"levelo_inurba_marseille","lat":43.28614,"lon":5.35102,"is_reserved":false,"is_disabled":false,"rental_uris":{"android":"levelo://app?vid=6d1885bf-915b-4323-8d7f-0a1ba1e4c02e","ios":"levelo://app?vid=6d1885bf-915b-4323-8d7f-0a1ba1e4c02e"},"vehicle_type_id":"4","last_reported":1702325282,"current_range_meters":7200,"station_id":"ce4bhch2rcd13ifvqeug","pricing_plan_id":"free"},{"bike_id":"5dfacb90-5b21-495b-a953-c81def2e5c8e","system_id":"levelo_inurba_marseille","lat":43.285848,"lon":5.350787,"is_reserved":false,"is_disabled":false,"rental_uris":{"android":"levelo://app?vid=5dfacb90-5b21-495b-a953-c81def2e5c8e","ios":"levelo://app?vid=5dfacb90-5b21-495b-a953-c81def2e5c8e"},"vehicle_type_id":"4","last_reported":1702325282,"current_range_meters":30400,"station_id":"ce4bhch2rcd13ifvqeug","pricing_plan_id":"free"},{"bike_id":"97d8fcc7-4aef-45da-b019-c3d5381f038e","system_id":"levelo_inurba_marseille","lat":43.28611,"lon":5.35106,"is_reserved":false,"is_disabled":false,"rental_uris":{"android":"levelo://app?vid=97d8fcc7-4aef-45da-b019-c3d5381f038e","ios":"levelo://app?vid=97d8fcc7-4aef-45da-b019-c3d5381f038e"},"vehicle_type_id":"4","last_reported":1702325282,"current_range_meters":30000,"station_id":"ce4bhch2rcd13ifvqeug","pricing_plan_id":"free"},{"bike_id":"66cba741-1221-4d29-a72f-f4e0b2ba6a22","system_id":"levelo_inurba_marseille","lat":43.337168,"lon":5.391825,"is_reserved":false,"is_disabled":false,"rental_uris":{"android":"levelo://app?vid=66cba741-1221-4d29-a72f-f4e0b2ba6a22","ios":"levelo://app?vid=66cba741-1221-4d29-a72f-f4e0b2ba6a22"},"vehicle_type_id":"4","last_reported":1702325282,"current_range_meters":30400,"station_id":"ce4bhr92rcd13ifvqhsg","pricing_plan_id":"free"},{"bike_id":"12e55a52-512b-480b-a959-d895b7c31d27","system_id":"levelo_inurba_marseille","lat":43.284793,"lon":5.384113,"is_reserved":false,"is_disabled":false,"rental_uris":{"android":"levelo://app?vid=12e55a52-512b-480b-a959-d895b7c31d27","ios":"levelo://app?vid=12e55a52-512b-480b-a959-d895b7c31d27"},"vehicle_type_id":"4","last_reported":1702325282,"current_range_meters":22800,"station_id":"ce4bh512rcd13ifvqe3g","pricing_plan_id":"free"},{"bike_id":"c01f19af-56fd-4fd6-abb8-db13072f1f4e","system_id":"levelo_inurba_marseille","lat":43.284787,"lon":5.384116,"is_reserved":false,"is_disabled":false,"rental_uris":{"android":"levelo://app?vid=c01f19af-56fd-4fd6-abb8-db13072f1f4e","ios":"levelo://app?vid=c01f19af-56fd-4fd6-abb8-db13072f1f4e"},"vehicle_type_id":"4","last_reported":1702325282,"current_range_meters":8800,"station_id":"ce4bh512rcd13ifvqe3g","pricing_plan_id":"free"},{"bike_id":"b8d1b46b-9051-4c76-83d7-c58b61d03453","system_id":"levelo_inurba_marseille","lat":43.284793,"lon":5.384113,"is_reserved":false,"is_disabled":false,"rental_uris":{"android":"levelo://app?vid=b8d1b46b-9051-4c76-83d7-c58b61d03453","ios":"levelo://app?vid=b8d1b46b-9051-4c76-83d7-c58b61d03453"},"vehicle_type_id":"4","last_reported":1702325282,"current_range_meters":13600,"station_id":"ce4bh512rcd13ifvqe3g","pricing_plan_id":"free"},{"bike_id":"9aad7d24-b043-4a00-a3a8-66be29fa40c1","system_id":"levelo_inurba_marseille","lat":43.28464,"lon":5.38413,"is_reserved":false,"is_disabled":false,"rental_uris":{"android":"levelo://app?vid=9aad7d24-b043-4a00-a3a8-66be29fa40c1","ios":"levelo://app?vid=9aad7d24-b043-4a00-a3a8-66be29fa40c1"},"vehicle_type_id":"4","last_reported":1702325282,"current_range_meters":23200,"station_id":"ce4bh512rcd13ifvqe3g","pricing_plan_id":"free"},{"bike_id":"a0d639f8-901a-4f40-a5a1-7b607468867f","system_id":"levelo_inurba_marseille","lat":43.29795,"lon":5.404086,"is_reserved":false,"is_disabled":false,"rental_uris":{"android":"levelo://app?vid=a0d639f8-901a-4f40-a5a1-7b607468867f","ios":"levelo://app?vid=a0d639f8-901a-4f40-a5a1-7b607468867f"},"vehicle_type_id":"4","last_reported":1702325282,"current_range_meters":8800,"station_id":"ce4bh112rcd13ifvqd90","pricing_plan_id":"free"},{"bike_id":"2f5bdeea-f02a-456d-abdd-bcbea3344f48","system_id":"levelo_inurba_marseille","lat":43.288501,"lon":5.393087,"is_reserved":false,"is_disabled":false,"rental_uris":{"android":"levelo://app?vid=2f5bdeea-f02a-456d-abdd-bcbea3344f48","ios":"levelo://app?vid=2f5bdeea-f02a-456d-abdd-bcbea3344f48"},"vehicle_type_id":"4","last_reported":1702325282,"current_range_meters":6000,"station_id":"ce4bh2p2rcd13ifvqdi0","pricing_plan_id":"free"},{"bike_id":"ae580ee0-516c-41dd-85d9-7b4cf4de99e6","system_id":"levelo_inurba_marseille","lat":43.284214,"lon":5.349706,"is_reserved":false,"is_disabled":false,"rental_uris":{"android":"levelo://app?vid=ae580ee0-516c-41dd-85d9-7b4cf4de99e6","ios":"levelo://app?vid=ae580ee0-516c-41dd-85d9-7b4cf4de99e6"},"vehicle_type_id":"4","last_reported":1702325282,"current_range_meters":26800,"station_id":"ce4bhbh2rcd13ifvqepg","pricing_plan_id":"free"},{"bike_id":"28f06ebd-8867-434d-b25b-1f4ddc4526c1","system_id":"levelo_inurba_marseille","lat":43.292724,"lon":5.401131,"is_reserved":false,"is_disabled":false,"rental_uris":{"android":"levelo://app?vid=28f06ebd-8867-434d-b25b-1f4ddc4526c1","ios":"levelo://app?vid=28f06ebd-8867-434d-b25b-1f4ddc4526c1"},"vehicle_type_id":"4","last_reported":1702325282,"current_range_meters":16800,"station_id":"ce4bh312rcd13ifvqdk0","pricing_plan_id":"free"},{"bike_id":"a6293421-2f53-4d22-b3a9-1a774e17b5cb","system_id":"levelo_inurba_marseille","lat":43.282754,"lon":5.350519,"is_reserved":false,"is_disabled":false,"rental_uris":{"android":"levelo://app?vid=a6293421-2f53-4d22-b3a9-1a774e17b5cb","ios":"levelo://app?vid=a6293421-2f53-4d22-b3a9-1a774e17b5cb"},"vehicle_type_id":"4","last_reported":1702325282,"current_range_meters":30800,"station_id":"ce4bhbp2rcd13ifvqerg","pricing_plan_id":"free"},{"bike_id":"1a755c5d-9b3c-4f8b-a5a3-2cb0e2abc85a","system_id":"levelo_inurba_marseille","lat":43.282754,"lon":5.350519,"is_reserved":false,"is_disabled":false,"rental_uris":{"android":"levelo://app?vid=1a755c5d-9b3c-4f8b-a5a3-2cb0e2abc85a","ios":"levelo://app?vid=1a755c5d-9b3c-4f8b-a5a3-2cb0e2abc85a"},"vehicle_type_id":"4","last_reported":1702325282,"current_range_meters":30800,"station_id":"ce4bhbp2rcd13ifvqerg","pricing_plan_id":"free"},{"bike_id":"3761c4b2-9870-4544-aced-d720a2c79b1c","system_id":"levelo_inurba_marseille","lat":43.282744,"lon":5.350533,"is_reserved":false,"is_disabled":false,"rental_uris":{"android":"levelo://app?vid=3761c4b2-9870-4544-aced-d720a2c79b1c","ios":"levelo://app?vid=3761c4b2-9870-4544-aced-d720a2c79b1c"},"vehicle_type_id":"4","last_reported":1702325282,"current_range_meters":17600,"station_id":"ce4bhbp2rcd13ifvqerg","pricing_plan_id":"free"},{"bike_id":"669286d5-90b7-44b0-bb31-522b5b33a69f","system_id":"levelo_inurba_marseille","lat":43.282744,"lon":5.350533,"is_reserved":false,"is_disabled":false,"rental_uris":{"android":"levelo://app?vid=669286d5-90b7-44b0-bb31-522b5b33a69f","ios":"levelo://app?vid=669286d5-90b7-44b0-bb31-522b5b33a69f"},"vehicle_type_id":"4","last_reported":1702325282,"current_range_meters":30800,"station_id":"ce4bhbp2rcd13ifvqerg","pricing_plan_id":"free"},{"bike_id":"8a567080-acda-4e43-8b39-9ef88763e5a0","system_id":"levelo_inurba_marseille","lat":43.283502,"lon":5.386471,"is_reserved":false,"is_disabled":false,"rental_uris":{"android":"levelo://app?vid=8a567080-acda-4e43-8b39-9ef88763e5a0","ios":"levelo://app?vid=8a567080-acda-4e43-8b39-9ef88763e5a0"},"vehicle_type_id":"4","last_reported":1702325282,"current_range_meters":8000,"station_id":"ce4bh492rcd13ifvqdvg","pricing_plan_id":"free"},{"bike_id":"dbb32c68-89ea-42d5-9bbd-5de5751b5866","system_id":"levelo_inurba_marseille","lat":43.280382,"lon":5.369291,"is_reserved":false,"is_disabled":false,"rental_uris":{"android":"levelo://app?vid=dbb32c68-89ea-42d5-9bbd-5de5751b5866","ios":"levelo://app?vid=dbb32c68-89ea-42d5-9bbd-5de5751b5866"},"vehicle_type_id":"4","last_reported":1702325282,"current_range_meters":31600,"station_id":"ce4bha12rcd13ifvqef0","pricing_plan_id":"free"},{"bike_id":"4573ed2e-c755-4cfb-958a-78dda47a3e37","system_id":"levelo_inurba_marseille","lat":43.28036,"lon":5.36939,"is_reserved":false,"is_disabled":false,"rental_uris":{"android":"levelo://app?vid=4573ed2e-c755-4cfb-958a-78dda47a3e37","ios":"levelo://app?vid=4573ed2e-c755-4cfb-958a-78dda47a3e37"},"vehicle_type_id":"4","last_reported":1702325282,"current_range_meters":22400,"station_id":"ce4bha12rcd13ifvqef0","pricing_plan_id":"free"},{"bike_id":"4ee53fc3-95fe-4ec3-ae50-b9a8cd12442e","system_id":"levelo_inurba_marseille","lat":43.280382,"lon":5.369291,"is_reserved":false,"is_disabled":false,"rental_uris":{"android":"levelo://app?vid=4ee53fc3-95fe-4ec3-ae50-b9a8cd12442e","ios":"levelo://app?vid=4ee53fc3-95fe-4ec3-ae50-b9a8cd12442e"},"vehicle_type_id":"4","last_reported":1702325282,"current_range_meters":9600,"station_id":"ce4bha12rcd13ifvqef0","pricing_plan_id":"free"},{"bike_id":"a9087632-d97b-4295-ac27-f172913e6205","system_id":"levelo_inurba_marseille","lat":43.280382,"lon":5.369291,"is_reserved":false,"is_disabled":false,"rental_uris":{"android":"levelo://app?vid=a9087632-d97b-4295-ac27-f172913e6205","ios":"levelo://app?vid=a9087632-d97b-4295-ac27-f172913e6205"},"vehicle_type_id":"4","last_reported":1702325282,"current_range_meters":29200,"station_id":"ce4bha12rcd13ifvqef0","pricing_plan_id":"free"},{"bike_id":"2a4eaad2-9e40-497d-bacc-35b57af0f0de","system_id":"levelo_inurba_marseille","lat":43.28103,"lon":5.37835,"is_reserved":false,"is_disabled":false,"rental_uris":{"android":"levelo://app?vid=2a4eaad2-9e40-497d-bacc-35b57af0f0de","ios":"levelo://app?vid=2a4eaad2-9e40-497d-bacc-35b57af0f0de"},"vehicle_type_id":"4","last_reported":1702325282,"current_range_meters":15600,"station_id":"ce4bha12rcd13ifvqee0","pricing_plan_id":"free"},{"bike_id":"797fb2a9-c5f1-4a4e-a4f7-191eaacb882b","system_id":"levelo_inurba_marseille","lat":43.281044,"lon":5.378308,"is_reserved":false,"is_disabled":false,"rental_uris":{"android":"levelo://app?vid=797fb2a9-c5f1-4a4e-a4f7-191eaacb882b","ios":"levelo://app?vid=797fb2a9-c5f1-4a4e-a4f7-191eaacb882b"},"vehicle_type_id":"4","last_reported":1702325282,"current_range_meters":20000,"station_id":"ce4bha12rcd13ifvqee0","pricing_plan_id":"free"},{"bike_id":"48a99b63-f7d5-4782-a8c6-fa4d78f26f3c","system_id":"levelo_inurba_marseille","lat":43.281044,"lon":5.378308,"is_reserved":false,"is_disabled":false,"rental_uris":{"android":"levelo://app?vid=48a99b63-f7d5-4782-a8c6-fa4d78f26f3c","ios":"levelo://app?vid=48a99b63-f7d5-4782-a8c6-fa4d78f26f3c"},"vehicle_type_id":"4","last_reported":1702325282,"current_range_meters":15200,"station_id":"ce4bha12rcd13ifvqee0","pricing_plan_id":"free"},{"bike_id":"aa4ac0c8-3251-4954-b70d-99187e5600ce","system_id":"levelo_inurba_marseille","lat":43.28092,"lon":5.37841,"is_reserved":false,"is_disabled":false,"rental_uris":{"android":"levelo://app?vid=aa4ac0c8-3251-4954-b70d-99187e5600ce","ios":"levelo://app?vid=aa4ac0c8-3251-4954-b70d-99187e5600ce"},"vehicle_type_id":"4","last_reported":1702325282,"current_range_meters":20000,"station_id":"ce4bha12rcd13ifvqee0","pricing_plan_id":"free"},{"bike_id":"160bd7e5-05f6-43a1-9bc7-4629c7a42466","system_id":"levelo_inurba_marseille","lat":43.31328,"lon":5.41291,"is_reserved":false,"is_disabled":false,"rental_uris":{"android":"levelo://app?vid=160bd7e5-05f6-43a1-9bc7-4629c7a42466","ios":"levelo://app?vid=160bd7e5-05f6-43a1-9bc7-4629c7a42466"},"vehicle_type_id":"4","last_reported":1702325282,"current_range_meters":0,"station_id":"","pricing_plan_id":"free"},{"bike_id":"a8a3e07b-2f3d-47d8-ac32-e791e9af3681","system_id":"levelo_inurba_marseille","lat":43.284462,"lon":5.392121,"is_reserved":false,"is_disabled":false,"rental_uris":{"android":"levelo://app?vid=a8a3e07b-2f3d-47d8-ac32-e791e9af3681","ios":"levelo://app?vid=a8a3e07b-2f3d-47d8-ac32-e791e9af3681"},"vehicle_type_id":"4","last_reported":1702325282,"current_range_meters":13600,"station_id":"ce4bhoh2rcd13ifvqh5g","pricing_plan_id":"free"},{"bike_id":"4767a7fd-d9a1-4cc7-8361-94becf3da635","system_id":"levelo_inurba_marseille","lat":43.284462,"lon":5.392121,"is_reserved":false,"is_disabled":false,"rental_uris":{"android":"levelo://app?vid=4767a7fd-d9a1-4cc7-8361-94becf3da635","ios":"levelo://app?vid=4767a7fd-d9a1-4cc7-8361-94becf3da635"},"vehicle_type_id":"4","last_reported":1702325282,"current_range_meters":22800,"station_id":"ce4bhoh2rcd13ifvqh5g","pricing_plan_id":"free"},{"bike_id":"ef618817-2607-4882-98fb-629e60b6a2ab","system_id":"levelo_inurba_marseille","lat":43.284462,"lon":5.392121,"is_reserved":false,"is_disabled":false,"rental_uris":{"android":"levelo://app?vid=ef618817-2607-4882-98fb-629e60b6a2ab","ios":"levelo://app?vid=ef618817-2607-4882-98fb-629e60b6a2ab"},"vehicle_type_id":"4","last_reported":1702325282,"current_range_meters":14400,"station_id":"ce4bhoh2rcd13ifvqh5g","pricing_plan_id":"free"},{"bike_id":"a5ccf812-c64f-4176-b0f3-da9c5f6628cf","system_id":"levelo_inurba_marseille","lat":43.304188,"lon":5.412904,"is_reserved":false,"is_disabled":false,"rental_uris":{"android":"levelo://app?vid=a5ccf812-c64f-4176-b0f3-da9c5f6628cf","ios":"levelo://app?vid=a5ccf812-c64f-4176-b0f3-da9c5f6628cf"},"vehicle_type_id":"4","last_reported":1702325282,"current_range_meters":31600,"station_id":"ce4bhop2rcd13ifvqh8g","pricing_plan_id":"free"},{"bike_id":"410e6713-38bc-47d5-a2eb-3b2674829d49","system_id":"levelo_inurba_marseille","lat":43.304188,"lon":5.412904,"is_reserved":false,"is_disabled":false,"rental_uris":{"android":"levelo://app?vid=410e6713-38bc-47d5-a2eb-3b2674829d49","ios":"levelo://app?vid=410e6713-38bc-47d5-a2eb-3b2674829d49"},"vehicle_type_id":"4","last_reported":1702325282,"current_range_meters":10800,"station_id":"ce4bhop2rcd13ifvqh8g","pricing_plan_id":"free"},{"bike_id":"0affd34a-26a3-4b23-9979-f74eada3d752","system_id":"levelo_inurba_marseille","lat":43.27618,"lon":5.361009,"is_reserved":false,"is_disabled":false,"rental_uris":{"android":"levelo://app?vid=0affd34a-26a3-4b23-9979-f74eada3d752","ios":"levelo://app?vid=0affd34a-26a3-4b23-9979-f74eada3d752"},"vehicle_type_id":"4","last_reported":1702325282,"current_range_meters":15600,"station_id":"ce4bgj92rcd13ifvqbe0","pricing_plan_id":"free"},{"bike_id":"2311aaf9-3908-4009-b838-0e5f77c6048a","system_id":"levelo_inurba_marseille","lat":43.2762,"lon":5.36108,"is_reserved":false,"is_disabled":false,"rental_uris":{"android":"levelo://app?vid=2311aaf9-3908-4009-b838-0e5f77c6048a","ios":"levelo://app?vid=2311aaf9-3908-4009-b838-0e5f77c6048a"},"vehicle_type_id":"4","last_reported":1702325282,"current_range_meters":11200,"station_id":"ce4bgj92rcd13ifvqbe0","pricing_plan_id":"free"},{"bike_id":"d2d1a980-81d0-4b43-a286-ebecc7be733a","system_id":"levelo_inurba_marseille","lat":43.27618,"lon":5.36117,"is_reserved":false,"is_disabled":false,"rental_uris":{"android":"levelo://app?vid=d2d1a980-81d0-4b43-a286-ebecc7be733a","ios":"levelo://app?vid=d2d1a980-81d0-4b43-a286-ebecc7be733a"},"vehicle_type_id":"4","last_reported":1702325282,"current_range_meters":24800,"station_id":"ce4bgj92rcd13ifvqbe0","pricing_plan_id":"free"},{"bike_id":"64c254e3-1eb7-45bb-ab29-bffd8d469e6f","system_id":"levelo_inurba_marseille","lat":43.276192,"lon":5.360996,"is_reserved":false,"is_disabled":false,"rental_uris":{"android":"levelo://app?vid=64c254e3-1eb7-45bb-ab29-bffd8d469e6f","ios":"levelo://app?vid=64c254e3-1eb7-45bb-ab29-bffd8d469e6f"},"vehicle_type_id":"4","last_reported":1702325282,"current_range_meters":0,"station_id":"","pricing_plan_id":"free"},{"bike_id":"6fb7d017-b245-43a0-8373-a842d3457d15","system_id":"levelo_inurba_marseille","lat":43.286868,"lon":5.405988,"is_reserved":false,"is_disabled":false,"rental_uris":{"android":"levelo://app?vid=6fb7d017-b245-43a0-8373-a842d3457d15","ios":"levelo://app?vid=6fb7d017-b245-43a0-8373-a842d3457d15"},"vehicle_type_id":"4","last_reported":1702325282,"current_range_meters":6400,"station_id":"","pricing_plan_id":"free"},{"bike_id":"a49af486-e869-400c-bff6-3c90718e502c","system_id":"levelo_inurba_marseille","lat":43.280784,"lon":5.396622,"is_reserved":false,"is_disabled":false,"rental_uris":{"android":"levelo://app?vid=a49af486-e869-400c-bff6-3c90718e502c","ios":"levelo://app?vid=a49af486-e869-400c-bff6-3c90718e502c"},"vehicle_type_id":"4","last_reported":1702325282,"current_range_meters":4800,"station_id":"ce4bho12rcd13ifvqh2g","pricing_plan_id":"free"},{"bike_id":"5ec0f610-67d6-4362-9fee-eee9426eb4cf","system_id":"levelo_inurba_marseille","lat":43.303837,"lon":5.418724,"is_reserved":false,"is_disabled":false,"rental_uris":{"android":"levelo://app?vid=5ec0f610-67d6-4362-9fee-eee9426eb4cf","ios":"levelo://app?vid=5ec0f610-67d6-4362-9fee-eee9426eb4cf"},"vehicle_type_id":"4","last_reported":1702325282,"current_range_meters":1200,"station_id":"ce4bhop2rcd13ifvqh7g","pricing_plan_id":"free"},{"bike_id":"9ea10af0-3940-4224-a189-633a8d8b6409","system_id":"levelo_inurba_marseille","lat":43.273613,"lon":5.362705,"is_reserved":false,"is_disabled":false,"rental_uris":{"android":"levelo://app?vid=9ea10af0-3940-4224-a189-633a8d8b6409","ios":"levelo://app?vid=9ea10af0-3940-4224-a189-633a8d8b6409"},"vehicle_type_id":"4","last_reported":1702325282,"current_range_meters":8800,"station_id":"ce4bhbh2rcd13ifvqeo0","pricing_plan_id":"free"},{"bike_id":"551f1d06-66e1-4330-b9ed-7932d93a4c2c","system_id":"levelo_inurba_marseille","lat":43.275625,"lon":5.384392,"is_reserved":false,"is_disabled":false,"rental_uris":{"android":"levelo://app?vid=551f1d06-66e1-4330-b9ed-7932d93a4c2c","ios":"levelo://app?vid=551f1d06-66e1-4330-b9ed-7932d93a4c2c"},"vehicle_type_id":"4","last_reported":1702325282,"current_range_meters":13200,"station_id":"ce4bhh92rcd13ifvqfi0","pricing_plan_id":"free"},{"bike_id":"8d2aded9-a232-4b99-be46-0cb481019e11","system_id":"levelo_inurba_marseille","lat":43.276769,"lon":5.388787,"is_reserved":false,"is_disabled":false,"rental_uris":{"android":"levelo://app?vid=8d2aded9-a232-4b99-be46-0cb481019e11","ios":"levelo://app?vid=8d2aded9-a232-4b99-be46-0cb481019e11"},"vehicle_type_id":"4","last_reported":1702325282,"current_range_meters":14000,"station_id":"ce4bhi12rcd13ifvqfo0","pricing_plan_id":"free"},{"bike_id":"b1c028eb-0fe1-4afa-b35c-b9783a0e9537","system_id":"levelo_inurba_marseille","lat":43.31723,"lon":5.42405,"is_reserved":false,"is_disabled":false,"rental_uris":{"android":"levelo://app?vid=b1c028eb-0fe1-4afa-b35c-b9783a0e9537","ios":"levelo://app?vid=b1c028eb-0fe1-4afa-b35c-b9783a0e9537"},"vehicle_type_id":"4","last_reported":1702325282,"current_range_meters":8400,"station_id":"ce4bhp92rcd13ifvqhbg","pricing_plan_id":"free"},{"bike_id":"d168214e-8c05-4685-8416-1fa54009cbc2","system_id":"levelo_inurba_marseille","lat":43.340804,"lon":5.410219,"is_reserved":false,"is_disabled":false,"rental_uris":{"android":"levelo://app?vid=d168214e-8c05-4685-8416-1fa54009cbc2","ios":"levelo://app?vid=d168214e-8c05-4685-8416-1fa54009cbc2"},"vehicle_type_id":"4","last_reported":1702325282,"current_range_meters":27200,"station_id":"ce4bhqh2rcd13ifvqhlg","pricing_plan_id":"free"},{"bike_id":"60028bd0-d6d1-4701-b5c6-9f4db0fb3489","system_id":"levelo_inurba_marseille","lat":43.340804,"lon":5.410219,"is_reserved":false,"is_disabled":false,"rental_uris":{"android":"levelo://app?vid=60028bd0-d6d1-4701-b5c6-9f4db0fb3489","ios":"levelo://app?vid=60028bd0-d6d1-4701-b5c6-9f4db0fb3489"},"vehicle_type_id":"4","last_reported":1702325282,"current_range_meters":31600,"station_id":"ce4bhqh2rcd13ifvqhlg","pricing_plan_id":"free"},{"bike_id":"43622bec-7c43-446c-84b3-e06b7acc9c09","system_id":"levelo_inurba_marseille","lat":43.304088,"lon":5.425388,"is_reserved":false,"is_disabled":false,"rental_uris":{"android":"levelo://app?vid=43622bec-7c43-446c-84b3-e06b7acc9c09","ios":"levelo://app?vid=43622bec-7c43-446c-84b3-e06b7acc9c09"},"vehicle_type_id":"4","last_reported":1702325282,"current_range_meters":24400,"station_id":"ce4bhoh2rcd13ifvqh6g","pricing_plan_id":"free"},{"bike_id":"5a1ce695-458e-415a-94e9-0d5381bac3c6","system_id":"levelo_inurba_marseille","lat":43.295523,"lon":5.422926,"is_reserved":false,"is_disabled":false,"rental_uris":{"android":"levelo://app?vid=5a1ce695-458e-415a-94e9-0d5381bac3c6","ios":"levelo://app?vid=5a1ce695-458e-415a-94e9-0d5381bac3c6"},"vehicle_type_id":"4","last_reported":1702325282,"current_range_meters":23200,"station_id":"ce4bhph2rcd13ifvqhdg","pricing_plan_id":"free"},{"bike_id":"610caf15-0086-4196-a004-f3c5018b7322","system_id":"levelo_inurba_marseille","lat":43.272118,"lon":5.391758,"is_reserved":false,"is_disabled":false,"rental_uris":{"android":"levelo://app?vid=610caf15-0086-4196-a004-f3c5018b7322","ios":"levelo://app?vid=610caf15-0086-4196-a004-f3c5018b7322"},"vehicle_type_id":"4","last_reported":1702325282,"current_range_meters":26400,"station_id":"ce4bhhp2rcd13ifvqfm0","pricing_plan_id":"free"},{"bike_id":"114ed9a0-f405-4e5a-8abc-a36515ad57b3","system_id":"levelo_inurba_marseille","lat":43.27214,"lon":5.39234,"is_reserved":false,"is_disabled":false,"rental_uris":{"android":"levelo://app?vid=114ed9a0-f405-4e5a-8abc-a36515ad57b3","ios":"levelo://app?vid=114ed9a0-f405-4e5a-8abc-a36515ad57b3"},"vehicle_type_id":"4","last_reported":1702325282,"current_range_meters":22800,"station_id":"ce4bhhp2rcd13ifvqfm0","pricing_plan_id":"free"},{"bike_id":"182f3f4a-f110-4521-b014-2fdf07d66152","system_id":"levelo_inurba_marseille","lat":43.27007,"lon":5.38781,"is_reserved":false,"is_disabled":false,"rental_uris":{"android":"levelo://app?vid=182f3f4a-f110-4521-b014-2fdf07d66152","ios":"levelo://app?vid=182f3f4a-f110-4521-b014-2fdf07d66152"},"vehicle_type_id":"4","last_reported":1702325282,"current_range_meters":0,"station_id":"","pricing_plan_id":"free"},{"bike_id":"89a744f4-fbea-4c21-b43a-2dabdeef4a99","system_id":"levelo_inurba_marseille","lat":43.278128,"lon":5.407195,"is_reserved":false,"is_disabled":false,"rental_uris":{"android":"levelo://app?vid=89a744f4-fbea-4c21-b43a-2dabdeef4a99","ios":"levelo://app?vid=89a744f4-fbea-4c21-b43a-2dabdeef4a99"},"vehicle_type_id":"4","last_reported":1702325282,"current_range_meters":4800,"station_id":"ce4bhnh2rcd13ifvqgtg","pricing_plan_id":"free"},{"bike_id":"629197af-30a4-4732-afe0-3c712ab8a4ce","system_id":"levelo_inurba_marseille","lat":43.27952,"lon":5.41042,"is_reserved":false,"is_disabled":false,"rental_uris":{"android":"levelo://app?vid=629197af-30a4-4732-afe0-3c712ab8a4ce","ios":"levelo://app?vid=629197af-30a4-4732-afe0-3c712ab8a4ce"},"vehicle_type_id":"4","last_reported":1702325282,"current_range_meters":28400,"station_id":"ce4bhnp2rcd13ifvqh0g","pricing_plan_id":"free"},{"bike_id":"048a7c17-97c6-4e8b-b365-1d7721c101c5","system_id":"levelo_inurba_marseille","lat":43.279417,"lon":5.410446,"is_reserved":false,"is_disabled":false,"rental_uris":{"android":"levelo://app?vid=048a7c17-97c6-4e8b-b365-1d7721c101c5","ios":"levelo://app?vid=048a7c17-97c6-4e8b-b365-1d7721c101c5"},"vehicle_type_id":"4","last_reported":1702325282,"current_range_meters":8400,"station_id":"ce4bhnp2rcd13ifvqh0g","pricing_plan_id":"free"},{"bike_id":"423e3098-a5a2-498b-9c3c-4341c381f5e8","system_id":"levelo_inurba_marseille","lat":43.26681,"lon":5.382694,"is_reserved":false,"is_disabled":false,"rental_uris":{"android":"levelo://app?vid=423e3098-a5a2-498b-9c3c-4341c381f5e8","ios":"levelo://app?vid=423e3098-a5a2-498b-9c3c-4341c381f5e8"},"vehicle_type_id":"4","last_reported":1702325282,"current_range_meters":25200,"station_id":"ce4bhg92rcd13ifvqf90","pricing_plan_id":"free"},{"bike_id":"9bfd9e54-bdc8-431d-bab4-0552138121eb","system_id":"levelo_inurba_marseille","lat":43.26681,"lon":5.382694,"is_reserved":false,"is_disabled":false,"rental_uris":{"android":"levelo://app?vid=9bfd9e54-bdc8-431d-bab4-0552138121eb","ios":"levelo://app?vid=9bfd9e54-bdc8-431d-bab4-0552138121eb"},"vehicle_type_id":"4","last_reported":1702325282,"current_range_meters":30800,"station_id":"ce4bhg92rcd13ifvqf90","pricing_plan_id":"free"},{"bike_id":"618ab94a-31d3-49d5-8238-c36f733e2f97","system_id":"levelo_inurba_marseille","lat":43.266836,"lon":5.382681,"is_reserved":false,"is_disabled":false,"rental_uris":{"android":"levelo://app?vid=618ab94a-31d3-49d5-8238-c36f733e2f97","ios":"levelo://app?vid=618ab94a-31d3-49d5-8238-c36f733e2f97"},"vehicle_type_id":"4","last_reported":1702325282,"current_range_meters":26000,"station_id":"ce4bhg92rcd13ifvqf90","pricing_plan_id":"free"},{"bike_id":"afbe6453-4082-4cc7-a9ed-7f96e9609a56","system_id":"levelo_inurba_marseille","lat":43.26683,"lon":5.382648,"is_reserved":false,"is_disabled":false,"rental_uris":{"android":"levelo://app?vid=afbe6453-4082-4cc7-a9ed-7f96e9609a56","ios":"levelo://app?vid=afbe6453-4082-4cc7-a9ed-7f96e9609a56"},"vehicle_type_id":"4","last_reported":1702325282,"current_range_meters":29600,"station_id":"ce4bhg92rcd13ifvqf90","pricing_plan_id":"free"},{"bike_id":"fa2c8774-c50e-4ee1-b2f0-6158142ea9f6","system_id":"levelo_inurba_marseille","lat":43.266835,"lon":5.38268,"is_reserved":false,"is_disabled":false,"rental_uris":{"android":"levelo://app?vid=fa2c8774-c50e-4ee1-b2f0-6158142ea9f6","ios":"levelo://app?vid=fa2c8774-c50e-4ee1-b2f0-6158142ea9f6"},"vehicle_type_id":"4","last_reported":1702325282,"current_range_meters":26800,"station_id":"ce4bhg92rcd13ifvqf90","pricing_plan_id":"free"},{"bike_id":"95e85086-94f3-4d5d-828b-e5f9ce0e68b6","system_id":"levelo_inurba_marseille","lat":43.26681,"lon":5.382694,"is_reserved":false,"is_disabled":false,"rental_uris":{"android":"levelo://app?vid=95e85086-94f3-4d5d-828b-e5f9ce0e68b6","ios":"levelo://app?vid=95e85086-94f3-4d5d-828b-e5f9ce0e68b6"},"vehicle_type_id":"4","last_reported":1702325282,"current_range_meters":25200,"station_id":"ce4bhg92rcd13ifvqf90","pricing_plan_id":"free"},{"bike_id":"4f5cd6d3-7c92-46c3-ab6e-f2b38a349afe","system_id":"levelo_inurba_marseille","lat":43.26681,"lon":5.382694,"is_reserved":false,"is_disabled":false,"rental_uris":{"android":"levelo://app?vid=4f5cd6d3-7c92-46c3-ab6e-f2b38a349afe","ios":"levelo://app?vid=4f5cd6d3-7c92-46c3-ab6e-f2b38a349afe"},"vehicle_type_id":"4","last_reported":1702325282,"current_range_meters":30000,"station_id":"ce4bhg92rcd13ifvqf90","pricing_plan_id":"free"},{"bike_id":"414d7b4a-a3e9-448e-903a-d08acf242b2b","system_id":"levelo_inurba_marseille","lat":43.26681,"lon":5.382694,"is_reserved":false,"is_disabled":false,"rental_uris":{"android":"levelo://app?vid=414d7b4a-a3e9-448e-903a-d08acf242b2b","ios":"levelo://app?vid=414d7b4a-a3e9-448e-903a-d08acf242b2b"},"vehicle_type_id":"4","last_reported":1702325282,"current_range_meters":29600,"station_id":"ce4bhg92rcd13ifvqf90","pricing_plan_id":"free"},{"bike_id":"a3a3a743-7a79-437c-9464-d2ea5eaaf6ed","system_id":"levelo_inurba_marseille","lat":43.27996,"lon":5.416624,"is_reserved":false,"is_disabled":false,"rental_uris":{"android":"levelo://app?vid=a3a3a743-7a79-437c-9464-d2ea5eaaf6ed","ios":"levelo://app?vid=a3a3a743-7a79-437c-9464-d2ea5eaaf6ed"},"vehicle_type_id":"4","last_reported":1702325282,"current_range_meters":30400,"station_id":"ce4bho12rcd13ifvqh1g","pricing_plan_id":"free"},{"bike_id":"774d8826-9b6b-4e36-beab-8a13dfa9a69a","system_id":"levelo_inurba_marseille","lat":43.27996,"lon":5.416624,"is_reserved":false,"is_disabled":false,"rental_uris":{"android":"levelo://app?vid=774d8826-9b6b-4e36-beab-8a13dfa9a69a","ios":"levelo://app?vid=774d8826-9b6b-4e36-beab-8a13dfa9a69a"},"vehicle_type_id":"4","last_reported":1702325282,"current_range_meters":18000,"station_id":"ce4bho12rcd13ifvqh1g","pricing_plan_id":"free"},{"bike_id":"ec5ef604-2048-4751-b1a1-3a6f0586d1d7","system_id":"levelo_inurba_marseille","lat":43.27996,"lon":5.416624,"is_reserved":false,"is_disabled":false,"rental_uris":{"android":"levelo://app?vid=ec5ef604-2048-4751-b1a1-3a6f0586d1d7","ios":"levelo://app?vid=ec5ef604-2048-4751-b1a1-3a6f0586d1d7"},"vehicle_type_id":"4","last_reported":1702325282,"current_range_meters":14000,"station_id":"ce4bho12rcd13ifvqh1g","pricing_plan_id":"free"},{"bike_id":"2273879d-c3f7-45c6-8fc1-2969dd46ed77","system_id":"levelo_inurba_marseille","lat":43.267966,"lon":5.393976,"is_reserved":false,"is_disabled":false,"rental_uris":{"android":"levelo://app?vid=2273879d-c3f7-45c6-8fc1-2969dd46ed77","ios":"levelo://app?vid=2273879d-c3f7-45c6-8fc1-2969dd46ed77"},"vehicle_type_id":"4","last_reported":1702325282,"current_range_meters":1600,"station_id":"ce4bhh12rcd13ifvqfg0","pricing_plan_id":"free"},{"bike_id":"7ab887da-8e3e-43c9-9c47-f003ebd628fb","system_id":"levelo_inurba_marseille","lat":43.26754,"lon":5.39475,"is_reserved":false,"is_disabled":false,"rental_uris":{"android":"levelo://app?vid=7ab887da-8e3e-43c9-9c47-f003ebd628fb","ios":"levelo://app?vid=7ab887da-8e3e-43c9-9c47-f003ebd628fb"},"vehicle_type_id":"4","last_reported":1702325282,"current_range_meters":16000,"station_id":"","pricing_plan_id":"free"},{"bike_id":"a4c2e866-1ad6-4353-a4f2-cb755e151f55","system_id":"levelo_inurba_marseille","lat":43.26324,"lon":5.37682,"is_reserved":false,"is_disabled":false,"rental_uris":{"android":"levelo://app?vid=a4c2e866-1ad6-4353-a4f2-cb755e151f55","ios":"levelo://app?vid=a4c2e866-1ad6-4353-a4f2-cb755e151f55"},"vehicle_type_id":"4","last_reported":1702325282,"current_range_meters":13200,"station_id":"","pricing_plan_id":"free"},{"bike_id":"5901bd19-3a65-4910-96d4-a102f175769b","system_id":"levelo_inurba_marseille","lat":43.26943,"lon":5.40241,"is_reserved":false,"is_disabled":false,"rental_uris":{"android":"levelo://app?vid=5901bd19-3a65-4910-96d4-a102f175769b","ios":"levelo://app?vid=5901bd19-3a65-4910-96d4-a102f175769b"},"vehicle_type_id":"4","last_reported":1702325282,"current_range_meters":0,"station_id":"cjm6bp8fraef2m0cb0m0","pricing_plan_id":"free"},{"bike_id":"cdd036f6-7ea5-4424-b6f3-3af93ebb2fa0","system_id":"levelo_inurba_marseille","lat":43.317104,"lon":5.436818,"is_reserved":false,"is_disabled":false,"rental_uris":{"android":"levelo://app?vid=cdd036f6-7ea5-4424-b6f3-3af93ebb2fa0","ios":"levelo://app?vid=cdd036f6-7ea5-4424-b6f3-3af93ebb2fa0"},"vehicle_type_id":"4","last_reported":1702325282,"current_range_meters":31600,"station_id":"ce4bhp92rcd13ifvqhcg","pricing_plan_id":"free"},{"bike_id":"4ee2ebe4-ccab-47af-b669-1b687cc9fb82","system_id":"levelo_inurba_marseille","lat":43.317104,"lon":5.436818,"is_reserved":false,"is_disabled":false,"rental_uris":{"android":"levelo://app?vid=4ee2ebe4-ccab-47af-b669-1b687cc9fb82","ios":"levelo://app?vid=4ee2ebe4-ccab-47af-b669-1b687cc9fb82"},"vehicle_type_id":"4","last_reported":1702325282,"current_range_meters":26000,"station_id":"ce4bhp92rcd13ifvqhcg","pricing_plan_id":"free"},{"bike_id":"37645cb8-5c24-41ba-b0d3-f9e32e3bff51","system_id":"levelo_inurba_marseille","lat":43.317104,"lon":5.436818,"is_reserved":false,"is_disabled":false,"rental_uris":{"android":"levelo://app?vid=37645cb8-5c24-41ba-b0d3-f9e32e3bff51","ios":"levelo://app?vid=37645cb8-5c24-41ba-b0d3-f9e32e3bff51"},"vehicle_type_id":"4","last_reported":1702325282,"current_range_meters":31600,"station_id":"ce4bhp92rcd13ifvqhcg","pricing_plan_id":"free"},{"bike_id":"7ef0e874-4d14-4db6-97d3-23537a85b219","system_id":"levelo_inurba_marseille","lat":43.298768,"lon":5.43643,"is_reserved":false,"is_disabled":false,"rental_uris":{"android":"levelo://app?vid=7ef0e874-4d14-4db6-97d3-23537a85b219","ios":"levelo://app?vid=7ef0e874-4d14-4db6-97d3-23537a85b219"},"vehicle_type_id":"4","last_reported":1702325282,"current_range_meters":28000,"station_id":"ce4bhpp2rcd13ifvqhfg","pricing_plan_id":"free"},{"bike_id":"4e6e4a4d-e00f-4453-991c-edd03f91627b","system_id":"levelo_inurba_marseille","lat":43.27694,"lon":5.41988,"is_reserved":false,"is_disabled":false,"rental_uris":{"android":"levelo://app?vid=4e6e4a4d-e00f-4453-991c-edd03f91627b","ios":"levelo://app?vid=4e6e4a4d-e00f-4453-991c-edd03f91627b"},"vehicle_type_id":"4","last_reported":1702325282,"current_range_meters":0,"station_id":"","pricing_plan_id":"free"},{"bike_id":"76f5d4f7-566f-4804-8d22-4bd4e19e3b11","system_id":"levelo_inurba_marseille","lat":43.281548,"lon":5.42643,"is_reserved":false,"is_disabled":false,"rental_uris":{"android":"levelo://app?vid=76f5d4f7-566f-4804-8d22-4bd4e19e3b11","ios":"levelo://app?vid=76f5d4f7-566f-4804-8d22-4bd4e19e3b11"},"vehicle_type_id":"4","last_reported":1702325282,"current_range_meters":5600,"station_id":"ce4bhnh2rcd13ifvqgug","pricing_plan_id":"free"},{"bike_id":"180bf347-93f7-4d14-a727-4021a2dbeb7d","system_id":"levelo_inurba_marseille","lat":43.281405,"lon":5.429968,"is_reserved":false,"is_disabled":false,"rental_uris":{"android":"levelo://app?vid=180bf347-93f7-4d14-a727-4021a2dbeb7d","ios":"levelo://app?vid=180bf347-93f7-4d14-a727-4021a2dbeb7d"},"vehicle_type_id":"4","last_reported":1702325282,"current_range_meters":13600,"station_id":"","pricing_plan_id":"free"},{"bike_id":"3f9ae87e-4631-4744-b0b7-b2163a8ee7aa","system_id":"levelo_inurba_marseille","lat":43.26062,"lon":5.39391,"is_reserved":false,"is_disabled":false,"rental_uris":{"android":"levelo://app?vid=3f9ae87e-4631-4744-b0b7-b2163a8ee7aa","ios":"levelo://app?vid=3f9ae87e-4631-4744-b0b7-b2163a8ee7aa"},"vehicle_type_id":"4","last_reported":1702325282,"current_range_meters":20000,"station_id":"ce4bhh92rcd13ifvqfj0","pricing_plan_id":"free"},{"bike_id":"2904fadb-7bd9-4958-ab41-36e416d618b9","system_id":"levelo_inurba_marseille","lat":43.275028,"lon":5.424534,"is_reserved":false,"is_disabled":false,"rental_uris":{"android":"levelo://app?vid=2904fadb-7bd9-4958-ab41-36e416d618b9","ios":"levelo://app?vid=2904fadb-7bd9-4958-ab41-36e416d618b9"},"vehicle_type_id":"4","last_reported":1702325282,"current_range_meters":26400,"station_id":"ce4bhn92rcd13ifvqgrg","pricing_plan_id":"free"},{"bike_id":"0ce3253c-0926-429d-8107-498b05d519e8","system_id":"levelo_inurba_marseille","lat":43.254947,"lon":5.376454,"is_reserved":false,"is_disabled":false,"rental_uris":{"android":"levelo://app?vid=0ce3253c-0926-429d-8107-498b05d519e8","ios":"levelo://app?vid=0ce3253c-0926-429d-8107-498b05d519e8"},"vehicle_type_id":"4","last_reported":1702325282,"current_range_meters":13200,"station_id":"ce4bhh12rcd13ifvqff0","pricing_plan_id":"free"},{"bike_id":"463668ea-b294-4421-824a-c4df85b1e87b","system_id":"levelo_inurba_marseille","lat":43.27069,"lon":5.42275,"is_reserved":false,"is_disabled":false,"rental_uris":{"android":"levelo://app?vid=463668ea-b294-4421-824a-c4df85b1e87b","ios":"levelo://app?vid=463668ea-b294-4421-824a-c4df85b1e87b"},"vehicle_type_id":"4","last_reported":1702325282,"current_range_meters":16400,"station_id":"ce4bhk92rcd13ifvqgb0","pricing_plan_id":"free"},{"bike_id":"9b2baf69-de06-4dfb-87a5-841684583b4f","system_id":"levelo_inurba_marseille","lat":43.258658,"lon":5.398935,"is_reserved":false,"is_disabled":false,"rental_uris":{"android":"levelo://app?vid=9b2baf69-de06-4dfb-87a5-841684583b4f","ios":"levelo://app?vid=9b2baf69-de06-4dfb-87a5-841684583b4f"},"vehicle_type_id":"4","last_reported":1702325282,"current_range_meters":31600,"station_id":"ce4bhl92rcd13ifvqghg","pricing_plan_id":"free"},{"bike_id":"b602f322-0334-4764-bdd2-bcf5cb60c686","system_id":"levelo_inurba_marseille","lat":43.258658,"lon":5.398935,"is_reserved":false,"is_disabled":false,"rental_uris":{"android":"levelo://app?vid=b602f322-0334-4764-bdd2-bcf5cb60c686","ios":"levelo://app?vid=b602f322-0334-4764-bdd2-bcf5cb60c686"},"vehicle_type_id":"4","last_reported":1702325282,"current_range_meters":20000,"station_id":"ce4bhl92rcd13ifvqghg","pricing_plan_id":"free"},{"bike_id":"b4abaaab-993b-4ef2-9f7f-982ebcf26a12","system_id":"levelo_inurba_marseille","lat":43.25932,"lon":5.4091,"is_reserved":false,"is_disabled":false,"rental_uris":{"android":"levelo://app?vid=b4abaaab-993b-4ef2-9f7f-982ebcf26a12","ios":"levelo://app?vid=b4abaaab-993b-4ef2-9f7f-982ebcf26a12"},"vehicle_type_id":"4","last_reported":1702325282,"current_range_meters":13600,"station_id":"ce4bhm92rcd13ifvqglg","pricing_plan_id":"free"},{"bike_id":"8bfba5f0-6d02-4058-854b-b88f3097ad8f","system_id":"levelo_inurba_marseille","lat":43.25709,"lon":5.41124,"is_reserved":false,"is_disabled":false,"rental_uris":{"android":"levelo://app?vid=8bfba5f0-6d02-4058-854b-b88f3097ad8f","ios":"levelo://app?vid=8bfba5f0-6d02-4058-854b-b88f3097ad8f"},"vehicle_type_id":"4","last_reported":1702325282,"current_range_meters":8800,"station_id":"ce4bhkp2rcd13ifvqgd0","pricing_plan_id":"free"},{"bike_id":"2814f471-c9c3-4376-bd65-113afd3172d1","system_id":"levelo_inurba_marseille","lat":43.250009,"lon":5.389195,"is_reserved":false,"is_disabled":false,"rental_uris":{"android":"levelo://app?vid=2814f471-c9c3-4376-bd65-113afd3172d1","ios":"levelo://app?vid=2814f471-c9c3-4376-bd65-113afd3172d1"},"vehicle_type_id":"4","last_reported":1702325282,"current_range_meters":12000,"station_id":"ce4bhgp2rcd13ifvqfd0","pricing_plan_id":"free"},{"bike_id":"37e51589-67ce-4b1d-8716-4e1b2110a4be","system_id":"levelo_inurba_marseille","lat":43.2479,"lon":5.374457,"is_reserved":false,"is_disabled":false,"rental_uris":{"android":"levelo://app?vid=37e51589-67ce-4b1d-8716-4e1b2110a4be","ios":"levelo://app?vid=37e51589-67ce-4b1d-8716-4e1b2110a4be"},"vehicle_type_id":"4","last_reported":1702325282,"current_range_meters":10000,"station_id":"ce4bhgh2rcd13ifvqfb0","pricing_plan_id":"free"},{"bike_id":"838e8949-457b-431b-8753-45176bb9792f","system_id":"levelo_inurba_marseille","lat":43.2479,"lon":5.374457,"is_reserved":false,"is_disabled":false,"rental_uris":{"android":"levelo://app?vid=838e8949-457b-431b-8753-45176bb9792f","ios":"levelo://app?vid=838e8949-457b-431b-8753-45176bb9792f"},"vehicle_type_id":"4","last_reported":1702325282,"current_range_meters":20400,"station_id":"ce4bhgh2rcd13ifvqfb0","pricing_plan_id":"free"},{"bike_id":"35c3f807-24e7-4171-8112-6d272f635dd8","system_id":"levelo_inurba_marseille","lat":43.250966,"lon":5.395186,"is_reserved":false,"is_disabled":false,"rental_uris":{"android":"levelo://app?vid=35c3f807-24e7-4171-8112-6d272f635dd8","ios":"levelo://app?vid=35c3f807-24e7-4171-8112-6d272f635dd8"},"vehicle_type_id":"4","last_reported":1702325282,"current_range_meters":18000,"station_id":"ce4bhm12rcd13ifvqgkg","pricing_plan_id":"free"},{"bike_id":"69fc94e6-d1dc-4eac-bba9-0be2d0c272a6","system_id":"levelo_inurba_marseille","lat":43.24693,"lon":5.382096,"is_reserved":false,"is_disabled":false,"rental_uris":{"android":"levelo://app?vid=69fc94e6-d1dc-4eac-bba9-0be2d0c272a6","ios":"levelo://app?vid=69fc94e6-d1dc-4eac-bba9-0be2d0c272a6"},"vehicle_type_id":"4","last_reported":1702325282,"current_range_meters":31600,"station_id":"ce4bhih2rcd13ifvqfr0","pricing_plan_id":"free"},{"bike_id":"0f7fd2ef-e6a4-4938-875f-ee0fc362106e","system_id":"levelo_inurba_marseille","lat":43.24693,"lon":5.382096,"is_reserved":false,"is_disabled":false,"rental_uris":{"android":"levelo://app?vid=0f7fd2ef-e6a4-4938-875f-ee0fc362106e","ios":"levelo://app?vid=0f7fd2ef-e6a4-4938-875f-ee0fc362106e"},"vehicle_type_id":"4","last_reported":1702325282,"current_range_meters":26400,"station_id":"ce4bhih2rcd13ifvqfr0","pricing_plan_id":"free"},{"bike_id":"3939cb65-0931-4a04-8711-208f6c37e5e9","system_id":"levelo_inurba_marseille","lat":43.25102,"lon":5.403214,"is_reserved":false,"is_disabled":false,"rental_uris":{"android":"levelo://app?vid=3939cb65-0931-4a04-8711-208f6c37e5e9","ios":"levelo://app?vid=3939cb65-0931-4a04-8711-208f6c37e5e9"},"vehicle_type_id":"4","last_reported":1702325282,"current_range_meters":14000,"station_id":"ce4bhlh2rcd13ifvqgig","pricing_plan_id":"free"},{"bike_id":"1c113ce5-c1df-40f3-83ea-2ee653169879","system_id":"levelo_inurba_marseille","lat":43.25102,"lon":5.403214,"is_reserved":false,"is_disabled":false,"rental_uris":{"android":"levelo://app?vid=1c113ce5-c1df-40f3-83ea-2ee653169879","ios":"levelo://app?vid=1c113ce5-c1df-40f3-83ea-2ee653169879"},"vehicle_type_id":"4","last_reported":1702325282,"current_range_meters":10800,"station_id":"ce4bhlh2rcd13ifvqgig","pricing_plan_id":"free"},{"bike_id":"846961d7-979a-4ad3-956d-a81bed603614","system_id":"levelo_inurba_marseille","lat":43.246406,"lon":5.396582,"is_reserved":false,"is_disabled":false,"rental_uris":{"android":"levelo://app?vid=846961d7-979a-4ad3-956d-a81bed603614","ios":"levelo://app?vid=846961d7-979a-4ad3-956d-a81bed603614"},"vehicle_type_id":"4","last_reported":1702325282,"current_range_meters":1200,"station_id":"","pricing_plan_id":"free"},{"bike_id":"d4d19d3c-b26b-4e6d-a71b-570ff31270a7","system_id":"levelo_inurba_marseille","lat":43.245581,"lon":5.395069,"is_reserved":false,"is_disabled":false,"rental_uris":{"android":"levelo://app?vid=d4d19d3c-b26b-4e6d-a71b-570ff31270a7","ios":"levelo://app?vid=d4d19d3c-b26b-4e6d-a71b-570ff31270a7"},"vehicle_type_id":"4","last_reported":1702325282,"current_range_meters":27200,"station_id":"ce4bhlp2rcd13ifvqgjg","pricing_plan_id":"free"},{"bike_id":"984e492e-ea29-44d0-ac4a-68b29c99801f","system_id":"levelo_inurba_marseille","lat":43.239588,"lon":5.366238,"is_reserved":false,"is_disabled":false,"rental_uris":{"android":"levelo://app?vid=984e492e-ea29-44d0-ac4a-68b29c99801f","ios":"levelo://app?vid=984e492e-ea29-44d0-ac4a-68b29c99801f"},"vehicle_type_id":"4","last_reported":1702325282,"current_range_meters":14000,"station_id":"ce4bhi12rcd13ifvqfp0","pricing_plan_id":"free"},{"bike_id":"ad67a529-3a35-4aff-a8fa-c8b22aa50d47","system_id":"levelo_inurba_marseille","lat":43.239588,"lon":5.366238,"is_reserved":false,"is_disabled":false,"rental_uris":{"android":"levelo://app?vid=ad67a529-3a35-4aff-a8fa-c8b22aa50d47","ios":"levelo://app?vid=ad67a529-3a35-4aff-a8fa-c8b22aa50d47"},"vehicle_type_id":"4","last_reported":1702325282,"current_range_meters":19200,"station_id":"ce4bhi12rcd13ifvqfp0","pricing_plan_id":"free"},{"bike_id":"3d20a4f9-fd9a-4195-9730-2efe2bc7ba8f","system_id":"levelo_inurba_marseille","lat":43.231919,"lon":5.355532,"is_reserved":false,"is_disabled":false,"rental_uris":{"android":"levelo://app?vid=3d20a4f9-fd9a-4195-9730-2efe2bc7ba8f","ios":"levelo://app?vid=3d20a4f9-fd9a-4195-9730-2efe2bc7ba8f"},"vehicle_type_id":"4","last_reported":1702325282,"current_range_meters":4800,"station_id":"ce4bhu92rcd13ifvqi70","pricing_plan_id":"free"},{"bike_id":"65a732be-a23e-4899-8cd3-be07a2e68d78","system_id":"levelo_inurba_marseille","lat":43.231793,"lon":5.400044,"is_reserved":false,"is_disabled":false,"rental_uris":{"android":"levelo://app?vid=65a732be-a23e-4899-8cd3-be07a2e68d78","ios":"levelo://app?vid=65a732be-a23e-4899-8cd3-be07a2e68d78"},"vehicle_type_id":"4","last_reported":1702325282,"current_range_meters":28800,"station_id":"ce4bhn12rcd13ifvqgqg","pricing_plan_id":"free"},{"bike_id":"d4216b28-6573-4e3c-9c6e-b1f827f4d9da","system_id":"levelo_inurba_marseille","lat":43.231794,"lon":5.400052,"is_reserved":false,"is_disabled":false,"rental_uris":{"android":"levelo://app?vid=d4216b28-6573-4e3c-9c6e-b1f827f4d9da","ios":"levelo://app?vid=d4216b28-6573-4e3c-9c6e-b1f827f4d9da"},"vehicle_type_id":"4","last_reported":1702325282,"current_range_meters":28400,"station_id":"ce4bhn12rcd13ifvqgqg","pricing_plan_id":"free"},{"bike_id":"e1137782-3e3d-499c-a61d-e2c68dc9df2e","system_id":"levelo_inurba_marseille","lat":43.231794,"lon":5.400052,"is_reserved":false,"is_disabled":false,"rental_uris":{"android":"levelo://app?vid=e1137782-3e3d-499c-a61d-e2c68dc9df2e","ios":"levelo://app?vid=e1137782-3e3d-499c-a61d-e2c68dc9df2e"},"vehicle_type_id":"4","last_reported":1702325282,"current_range_meters":24800,"station_id":"ce4bhn12rcd13ifvqgqg","pricing_plan_id":"free"},{"bike_id":"baec5ab2-8c78-4d0a-9686-1f92b4ce0853","system_id":"levelo_inurba_marseille","lat":43.231794,"lon":5.400052,"is_reserved":false,"is_disabled":false,"rental_uris":{"android":"levelo://app?vid=baec5ab2-8c78-4d0a-9686-1f92b4ce0853","ios":"levelo://app?vid=baec5ab2-8c78-4d0a-9686-1f92b4ce0853"},"vehicle_type_id":"4","last_reported":1702325282,"current_range_meters":9600,"station_id":"ce4bhn12rcd13ifvqgqg","pricing_plan_id":"free"},{"bike_id":"9d75ea9c-573b-484a-a99b-1a037d01d25e","system_id":"levelo_inurba_marseille","lat":43.231794,"lon":5.400052,"is_reserved":false,"is_disabled":false,"rental_uris":{"android":"levelo://app?vid=9d75ea9c-573b-484a-a99b-1a037d01d25e","ios":"levelo://app?vid=9d75ea9c-573b-484a-a99b-1a037d01d25e"},"vehicle_type_id":"4","last_reported":1702325282,"current_range_meters":20400,"station_id":"ce4bhn12rcd13ifvqgqg","pricing_plan_id":"free"},{"bike_id":"fe1c62d5-b8f6-41e6-a698-0df3bdc6e8ea","system_id":"levelo_inurba_marseille","lat":43.231562,"lon":5.436933,"is_reserved":false,"is_disabled":false,"rental_uris":{"android":"levelo://app?vid=fe1c62d5-b8f6-41e6-a698-0df3bdc6e8ea","ios":"levelo://app?vid=fe1c62d5-b8f6-41e6-a698-0df3bdc6e8ea"},"vehicle_type_id":"4","last_reported":1702325282,"current_range_meters":8000,"station_id":"ce4bhmp2rcd13ifvqgog","pricing_plan_id":"free"}]}}