{"last_updated":1761968232,"ttl":60,"version":"2.2","data":{"bikes":[{"bike_id":"353707cb-ee13-454e-93fa-cd045a63e5fb","system_id":"levelo_inurba_marseille","lat":43.28609,"lon":5.370667,"is_reserved":false,"is_disabled":false,"rental_uris":{"android":"levelo://app?vid=353707cb-ee13-454e-93fa-cd045a63e5fb","ios":"levelo://app?vid=353707cb-ee13-454e-93fa-cd045a63e5fb"},"vehicle_type_id":"4","last_reported":1761968232,"current_range_meters":2800,"station_id":"ce4bht12rcd13ifvqi60","pricing_plan_id":"cebpf4jnsgd1na2vs0mg"},{"bike_id":"502d8826-83c4-45cd-b1be-c0ab97727776","system_id":"levelo_inurba_marseille","lat":43.33722,"lon":5.39211,"is_reserved":false,"is_disabled":false,"rental_uris":{"android":"levelo://app?vid=502d8826-83c4-45cd-b1be-c0ab97727776","ios":"levelo://app?vid=502d8826-83c4-45cd-b1be-c0ab97727776"},"vehicle_type_id":"4","last_reported":1761968232,"current_range_meters":2800,"station_id":"ce4bhr92rcd13ifvqhsg","pricing_plan_id":"cebpf4jnsgd1na2vs0mg"},{"bike_id":"4e04ed7f-b04f-4871-addf-4668bd5f0482","system_id":"levelo_inurba_marseille","lat":43.28406,"lon":5.37465,"is_reserved":false,"is_disabled":false,"rental_uris":{"android":"levelo://app?vid=4e04ed7f-b04f-4871-addf-4668bd5f0482","ios":"levelo://app?vid=4e04ed7f-b04f-4871-addf-4668bd5f0482"},"vehicle_type_id":"4","last_reported":1761968232,"current_range_meters":3200,"station_id":"ce4bh412rcd13ifvqds0","pricing_plan_id":"cebpf4jnsgd1na2vs0mg"},{"bike_id":"7429e722-0140-4583-bd6d-6fc4e8aad56b","system_id":"levelo_inurba_marseille","lat":43.30529,"lon":5.37065,"is_reserved":false,"is_disabled":false,"rental_uris":{"android":"levelo://app?vid=7429e722-0140-4583-bd6d-6fc4e8aad56b","ios":"levelo://app?vid=7429e722-0140-4583-bd6d-6fc4e8aad56b"},"vehicle_type_id":"4","last_reported":1761968232,"current_range_meters":3200,"station_id":"","pricing_plan_id":"cebpf4jnsgd1na2vs0mg"},{"bike_id":"d3c0e0a4-2b14-40cd-91ce-3cd269444d3b","system_id":"levelo_inurba_marseille","lat":43.330231,"lon":5.390356,"is_reserved":false,"is_disabled":false,"rental_uris":{"android":"levelo://app?vid=d3c0e0a4-2b14-40cd-91ce-3cd269444d3b","ios":"levelo://app?vid=d3c0e0a4-2b14-40cd-91ce-3cd269444d3b"},"vehicle_type_id":"4","last_reported":1761968232,"current_range_meters":3600,"station_id":"ce4bhr92rcd13ifvqhrg","pricing_plan_id":"cebpf4jnsgd1na2vs0mg"},{"bike_id":"ddcb4480-c111-4e76-a663-20d9d31b71c9","system_id":"levelo_inurba_marseille","lat":43.28705,"lon":5.3998,"is_reserved":false,"is_disabled":false,"rental_uris":{"android":"levelo://app?vid=ddcb4480-c111-4e76-a663-20d9d31b71c9","ios":"levelo://app?vid=ddcb4480-c111-4e76-a663-20d9d31b71c9"},"vehicle_type_id":"4","last_reported":1761968232,"current_range_meters":3600,"station_id":"ce4bho92rcd13ifvqh3g","pricing_plan_id":"cebpf4jnsgd1na2vs0mg"},{"bike_id":"a1cd5879-5786-49d8-8400-066c12671ea9","system_id":"levelo_inurba_marseille","lat":43.24071,"lon":5.37758,"is_reserved":false,"is_disabled":false,"rental_uris":{"android":"levelo://app?vid=a1cd5879-5786-49d8-8400-066c12671ea9","ios":"levelo://app?vid=a1cd5879-5786-49d8-8400-066c12671ea9"},"vehicle_type_id":"4","last_reported":1761968232,"current_range_meters":4000,"station_id":"ce4bhnp2rcd13ifvqgvg","pricing_plan_id":"cebpf4jnsgd1na2vs0mg"},{"bike_id":"6fff56e2-dc33-4322-9554-e738206d1bc0","system_id":"levelo_inurba_marseille","lat":43.21206,"lon":5.35073,"is_reserved":false,"is_disabled":false,"rental_uris":{"android":"levelo://app?vid=6fff56e2-dc33-4322-9554-e738206d1bc0","ios":"levelo://app?vid=6fff56e2-dc33-4322-9554-e738206d1bc0"},"vehicle_type_id":"4","last_reported":1761968232,"current_range_meters":4000,"station_id":"st_cvj6sg6p6f1abm77japg","pricing_plan_id":"cebpf4jnsgd1na2vs0mg"},{"bike_id":"f4ef0c38-75d2-4381-839f-b992f4cb0dfd","system_id":"levelo_inurba_marseille","lat":43.301909,"lon":5.366138,"is_reserved":false,"is_disabled":false,"rental_uris":{"android":"levelo://app?vid=f4ef0c38-75d2-4381-839f-b992f4cb0dfd","ios":"levelo://app?vid=f4ef0c38-75d2-4381-839f-b992f4cb0dfd"},"vehicle_type_id":"4","last_reported":1761968232,"current_range_meters":4000,"station_id":"ce4bgrh2rcd13ifvqc8g","pricing_plan_id":"cebpf4jnsgd1na2vs0mg"},{"bike_id":"94c4116b-3d46-4503-ad13-11e4a7c4d39b","system_id":"levelo_inurba_marseille","lat":43.28004,"lon":5.41665,"is_reserved":false,"is_disabled":false,"rental_uris":{"android":"levelo://app?vid=94c4116b-3d46-4503-ad13-11e4a7c4d39b","ios":"levelo://app?vid=94c4116b-3d46-4503-ad13-11e4a7c4d39b"},"vehicle_type_id":"4","last_reported":1761968232,"current_range_meters":4000,"station_id":"ce4bho12rcd13ifvqh1g","pricing_plan_id":"cebpf4jnsgd1na2vs0mg"},{"bike_id":"cf23487d-e129-4524-afd6-124971a910ea","system_id":"levelo_inurba_marseille","lat":43.27952,"lon":5.41049,"is_reserved":false,"is_disabled":true,"rental_uris":{"android":"levelo://app?vid=cf23487d-e129-4524-afd6-124971a910ea","ios":"levelo://app?vid=cf23487d-e129-4524-afd6-124971a910ea"},"vehicle_type_id":"4","last_reported":1761968232,"current_range_meters":4000,"station_id":"ce4bhnp2rcd13ifvqh0g","pricing_plan_id":"cebpf4jnsgd1na2vs0mg"},{"bike_id":"1ed8e402-c0de-434a-8ddb-6ed045747d38","system_id":"levelo_inurba_marseille","lat":43.28472,"lon":5.38405,"is_reserved":false,"is_disabled":false,"rental_uris":{"android":"levelo://app?vid=1ed8e402-c0de-434a-8ddb-6ed045747d38","ios":"levelo://app?vid=1ed8e402-c0de-434a-8ddb-6ed045747d38"},"vehicle_type_id":"4","last_reported":1761968232,"current_range_meters":4400,"station_id":"ce4bh512rcd13ifvqe3g","pricing_plan_id":"cebpf4jnsgd1na2vs0mg"},{"bike_id":"3f9d89b0-a3c3-4b72-9969-08e348af8256","system_id":"levelo_inurba_marseille","lat":43.29821,"lon":5.40259,"is_reserved":false,"is_disabled":false,"rental_uris":{"android":"levelo://app?vid=3f9d89b0-a3c3-4b72-9969-08e348af8256","ios":"levelo://app?vid=3f9d89b0-a3c3-4b72-9969-08e348af8256"},"vehicle_type_id":"4","last_reported":1761968232,"current_range_meters":4400,"station_id":"","pricing_plan_id":"cebpf4jnsgd1na2vs0mg"},{"bike_id":"6e9e4729-a674-4126-812a-5ff5e8a8a512","system_id":"levelo_inurba_marseille","lat":43.298792,"lon":5.384462,"is_reserved":false,"is_disabled":false,"rental_uris":{"android":"levelo://app?vid=6e9e4729-a674-4126-812a-5ff5e8a8a512","ios":"levelo://app?vid=6e9e4729-a674-4126-812a-5ff5e8a8a512"},"vehicle_type_id":"4","last_reported":1761968232,"current_range_meters":4800,"station_id":"","pricing_plan_id":"cebpf4jnsgd1na2vs0mg"},{"bike_id":"0bd447b9-83de-4a0f-bd6a-a7ddbc2f3a83","system_id":"levelo_inurba_marseille","lat":43.30142,"lon":5.39876,"is_reserved":false,"is_disabled":false,"rental_uris":{"android":"levelo://app?vid=0bd447b9-83de-4a0f-bd6a-a7ddbc2f3a83","ios":"levelo://app?vid=0bd447b9-83de-4a0f-bd6a-a7ddbc2f3a83"},"vehicle_type_id":"4","last_reported":1761968232,"current_range_meters":4800,"station_id":"ce4bh0h2rcd13ifvqd40","pricing_plan_id":"cebpf4jnsgd1na2vs0mg"},{"bike_id":"e2e234d1-ec3f-47be-89ec-bb04c1f6a91d","system_id":"levelo_inurba_marseille","lat":43.31108,"lon":5.37768,"is_reserved":false,"is_disabled":false,"rental_uris":{"android":"levelo://app?vid=e2e234d1-ec3f-47be-89ec-bb04c1f6a91d","ios":"levelo://app?vid=e2e234d1-ec3f-47be-89ec-bb04c1f6a91d"},"vehicle_type_id":"4","last_reported":1761968232,"current_range_meters":4800,"station_id":"ce4bgt92rcd13ifvqcg0","pricing_plan_id":"cebpf4jnsgd1na2vs0mg"},{"bike_id":"8d4aa4ce-75ed-4d8e-9ec4-654ad45888e0","system_id":"levelo_inurba_marseille","lat":43.24944,"lon":5.40483,"is_reserved":false,"is_disabled":false,"rental_uris":{"android":"levelo://app?vid=8d4aa4ce-75ed-4d8e-9ec4-654ad45888e0","ios":"levelo://app?vid=8d4aa4ce-75ed-4d8e-9ec4-654ad45888e0"},"vehicle_type_id":"4","last_reported":1761968232,"current_range_meters":4800,"station_id":"st_d2ngiaodas8pm72gd1h0","pricing_plan_id":"cebpf4jnsgd1na2vs0mg"},{"bike_id":"75de79a0-082b-4195-913b-8044af6adb75","system_id":"levelo_inurba_marseille","lat":43.278141,"lon":5.407193,"is_reserved":false,"is_disabled":false,"rental_uris":{"android":"levelo://app?vid=75de79a0-082b-4195-913b-8044af6adb75","ios":"levelo://app?vid=75de79a0-082b-4195-913b-8044af6adb75"},"vehicle_type_id":"4","last_reported":1761968232,"current_range_meters":5600,"station_id":"ce4bhnh2rcd13ifvqgtg","pricing_plan_id":"cebpf4jnsgd1na2vs0mg"},{"bike_id":"b190f1fd-7f83-49e9-853d-1dab375c2c63","system_id":"levelo_inurba_marseille","lat":43.25122,"lon":5.37522,"is_reserved":false,"is_disabled":false,"rental_uris":{"android":"levelo://app?vid=b190f1fd-7f83-49e9-853d-1dab375c2c63","ios":"levelo://app?vid=b190f1fd-7f83-49e9-853d-1dab375c2c63"},"vehicle_type_id":"4","last_reported":1761968232,"current_range_meters":6000,"station_id":"","pricing_plan_id":"cebpf4jnsgd1na2vs0mg"},{"bike_id":"98c69ce9-b776-4a35-8190-c3322227776a","system_id":"levelo_inurba_marseille","lat":43.2934,"lon":5.39317,"is_reserved":false,"is_disabled":false,"rental_uris":{"android":"levelo://app?vid=98c69ce9-b776-4a35-8190-c3322227776a","ios":"levelo://app?vid=98c69ce9-b776-4a35-8190-c3322227776a"},"vehicle_type_id":"4","last_reported":1761968232,"current_range_meters":6000,"station_id":"","pricing_plan_id":"cebpf4jnsgd1na2vs0mg"},{"bike_id":"700a0638-38c5-48ba-a188-e9410b926bb8","system_id":"levelo_inurba_marseille","lat":43.294,"lon":5.39993,"is_reserved":false,"is_disabled":false,"rental_uris":{"android":"levelo://app?vid=700a0638-38c5-48ba-a188-e9410b926bb8","ios":"levelo://app?vid=700a0638-38c5-48ba-a188-e9410b926bb8"},"vehicle_type_id":"4","last_reported":1761968232,"current_range_meters":6400,"station_id":"","pricing_plan_id":"cebpf4jnsgd1na2vs0mg"},{"bike_id":"f2287fbd-65b0-4975-b44b-578b0e69e1ef","system_id":"levelo_inurba_marseille","lat":43.31114,"lon":5.37766,"is_reserved":false,"is_disabled":false,"rental_uris":{"android":"levelo://app?vid=f2287fbd-65b0-4975-b44b-578b0e69e1ef","ios":"levelo://app?vid=f2287fbd-65b0-4975-b44b-578b0e69e1ef"},"vehicle_type_id":"4","last_reported":1761968232,"current_range_meters":6400,"station_id":"ce4bgt92rcd13ifvqcg0","pricing_plan_id":"cebpf4jnsgd1na2vs0mg"},{"bike_id":"93eccc20-913e-41a6-83cf-121584cce486","system_id":"levelo_inurba_marseille","lat":43.3026,"lon":5.40087,"is_reserved":false,"is_disabled":false,"rental_uris":{"android":"levelo://app?vid=93eccc20-913e-41a6-83cf-121584cce486","ios":"levelo://app?vid=93eccc20-913e-41a6-83cf-121584cce486"},"vehicle_type_id":"4","last_reported":1761968232,"current_range_meters":6400,"station_id":"ce4bgvh2rcd13ifvqcs0","pricing_plan_id":"cebpf4jnsgd1na2vs0mg"},{"bike_id":"63b617d7-7302-4b09-8c21-e960ef073704","system_id":"levelo_inurba_marseille","lat":43.25093,"lon":5.39498,"is_reserved":false,"is_disabled":false,"rental_uris":{"android":"levelo://app?vid=63b617d7-7302-4b09-8c21-e960ef073704","ios":"levelo://app?vid=63b617d7-7302-4b09-8c21-e960ef073704"},"vehicle_type_id":"4","last_reported":1761968232,"current_range_meters":6400,"station_id":"ce4bhm12rcd13ifvqgkg","pricing_plan_id":"cebpf4jnsgd1na2vs0mg"},{"bike_id":"da503111-5feb-4a8e-b697-ab299317bc1a","system_id":"levelo_inurba_marseille","lat":43.28516,"lon":5.36658,"is_reserved":false,"is_disabled":false,"rental_uris":{"android":"levelo://app?vid=da503111-5feb-4a8e-b697-ab299317bc1a","ios":"levelo://app?vid=da503111-5feb-4a8e-b697-ab299317bc1a"},"vehicle_type_id":"4","last_reported":1761968232,"current_range_meters":6400,"station_id":"","pricing_plan_id":"cebpf4jnsgd1na2vs0mg"},{"bike_id":"2f1f39d2-9c25-44c9-b5b4-576dc58416de","system_id":"levelo_inurba_marseille","lat":43.23144,"lon":5.43707,"is_reserved":false,"is_disabled":false,"rental_uris":{"android":"levelo://app?vid=2f1f39d2-9c25-44c9-b5b4-576dc58416de","ios":"levelo://app?vid=2f1f39d2-9c25-44c9-b5b4-576dc58416de"},"vehicle_type_id":"4","last_reported":1761968232,"current_range_meters":6400,"station_id":"ce4bhmp2rcd13ifvqgog","pricing_plan_id":"cebpf4jnsgd1na2vs0mg"},{"bike_id":"ca96bbed-ae54-4954-8bbd-e0721a7c9a42","system_id":"levelo_inurba_marseille","lat":43.231894,"lon":5.355569,"is_reserved":false,"is_disabled":false,"rental_uris":{"android":"levelo://app?vid=ca96bbed-ae54-4954-8bbd-e0721a7c9a42","ios":"levelo://app?vid=ca96bbed-ae54-4954-8bbd-e0721a7c9a42"},"vehicle_type_id":"4","last_reported":1761968232,"current_range_meters":6800,"station_id":"","pricing_plan_id":"cebpf4jnsgd1na2vs0mg"},{"bike_id":"688e0991-23bb-4f67-a97d-b9bb7704a66a","system_id":"levelo_inurba_marseille","lat":43.29255,"lon":5.39101,"is_reserved":false,"is_disabled":false,"rental_uris":{"android":"levelo://app?vid=688e0991-23bb-4f67-a97d-b9bb7704a66a","ios":"levelo://app?vid=688e0991-23bb-4f67-a97d-b9bb7704a66a"},"vehicle_type_id":"4","last_reported":1761968232,"current_range_meters":6800,"station_id":"","pricing_plan_id":"cebpf4jnsgd1na2vs0mg"},{"bike_id":"e17c31b8-c0cd-4c6e-bdf9-6644a8ff85e2","system_id":"levelo_inurba_marseille","lat":43.29599,"lon":5.38112,"is_reserved":false,"is_disabled":true,"rental_uris":{"android":"levelo://app?vid=e17c31b8-c0cd-4c6e-bdf9-6644a8ff85e2","ios":"levelo://app?vid=e17c31b8-c0cd-4c6e-bdf9-6644a8ff85e2"},"vehicle_type_id":"4","last_reported":1761968232,"current_range_meters":6800,"station_id":"ce4bgl12rcd13ifvqbo0","pricing_plan_id":"cebpf4jnsgd1na2vs0mg"},{"bike_id":"aefd6630-de6f-4abb-9465-602dfbcbc56d","system_id":"levelo_inurba_marseille","lat":43.29969,"lon":5.3849,"is_reserved":false,"is_disabled":false,"rental_uris":{"android":"levelo://app?vid=aefd6630-de6f-4abb-9465-602dfbcbc56d","ios":"levelo://app?vid=aefd6630-de6f-4abb-9465-602dfbcbc56d"},"vehicle_type_id":"4","last_reported":1761968232,"current_range_meters":7200,"station_id":"ce4bgj92rcd13ifvqbd0","pricing_plan_id":"cebpf4jnsgd1na2vs0mg"},{"bike_id":"3dab03ab-b250-4b40-b286-0668266ab52e","system_id":"levelo_inurba_marseille","lat":43.28864,"lon":5.42533,"is_reserved":false,"is_disabled":false,"rental_uris":{"android":"levelo://app?vid=3dab03ab-b250-4b40-b286-0668266ab52e","ios":"levelo://app?vid=3dab03ab-b250-4b40-b286-0668266ab52e"},"vehicle_type_id":"4","last_reported":1761968232,"current_range_meters":7200,"station_id":"st_d3b462108ojc7389ooeg","pricing_plan_id":"cebpf4jnsgd1na2vs0mg"},{"bike_id":"ba3aaaa9-bed6-4000-bfa3-bab5640a43b9","system_id":"levelo_inurba_marseille","lat":43.23788,"lon":5.36623,"is_reserved":false,"is_disabled":false,"rental_uris":{"android":"levelo://app?vid=ba3aaaa9-bed6-4000-bfa3-bab5640a43b9","ios":"levelo://app?vid=ba3aaaa9-bed6-4000-bfa3-bab5640a43b9"},"vehicle_type_id":"4","last_reported":1761968232,"current_range_meters":7200,"station_id":"st_d3nk18o9ro0c73en2l3g","pricing_plan_id":"cebpf4jnsgd1na2vs0mg"},{"bike_id":"621b9515-336c-4815-8194-8209db530b63","system_id":"levelo_inurba_marseille","lat":43.286699,"lon":5.363493,"is_reserved":false,"is_disabled":false,"rental_uris":{"android":"levelo://app?vid=621b9515-336c-4815-8194-8209db530b63","ios":"levelo://app?vid=621b9515-336c-4815-8194-8209db530b63"},"vehicle_type_id":"4","last_reported":1761968232,"current_range_meters":7200,"station_id":"ce4bhah2rcd13ifvqej0","pricing_plan_id":"cebpf4jnsgd1na2vs0mg"},{"bike_id":"16a9ce2f-83a1-40de-892f-748492756995","system_id":"levelo_inurba_marseille","lat":43.253417,"lon":5.421608,"is_reserved":false,"is_disabled":false,"rental_uris":{"android":"levelo://app?vid=16a9ce2f-83a1-40de-892f-748492756995","ios":"levelo://app?vid=16a9ce2f-83a1-40de-892f-748492756995"},"vehicle_type_id":"4","last_reported":1761968232,"current_range_meters":7200,"station_id":"st_d2m65c5bi1j21697t3ng","pricing_plan_id":"cebpf4jnsgd1na2vs0mg"},{"bike_id":"b7bf08da-3155-4ebd-90f6-2c65138a1e9a","system_id":"levelo_inurba_marseille","lat":43.211986,"lon":5.350652,"is_reserved":false,"is_disabled":false,"rental_uris":{"android":"levelo://app?vid=b7bf08da-3155-4ebd-90f6-2c65138a1e9a","ios":"levelo://app?vid=b7bf08da-3155-4ebd-90f6-2c65138a1e9a"},"vehicle_type_id":"4","last_reported":1761968232,"current_range_meters":8000,"station_id":"st_cvj6sg6p6f1abm77japg","pricing_plan_id":"cebpf4jnsgd1na2vs0mg"},{"bike_id":"e74d0fe9-ca39-42df-80fa-9f62f886ef8d","system_id":"levelo_inurba_marseille","lat":43.30885,"lon":5.3965,"is_reserved":false,"is_disabled":false,"rental_uris":{"android":"levelo://app?vid=e74d0fe9-ca39-42df-80fa-9f62f886ef8d","ios":"levelo://app?vid=e74d0fe9-ca39-42df-80fa-9f62f886ef8d"},"vehicle_type_id":"4","last_reported":1761968232,"current_range_meters":8000,"station_id":"ce4bh012rcd13ifvqcv0","pricing_plan_id":"cebpf4jnsgd1na2vs0mg"},{"bike_id":"a18dbf48-2c4d-4fa4-a4c5-c9871d73c9a0","system_id":"levelo_inurba_marseille","lat":43.301994,"lon":5.383462,"is_reserved":false,"is_disabled":false,"rental_uris":{"android":"levelo://app?vid=a18dbf48-2c4d-4fa4-a4c5-c9871d73c9a0","ios":"levelo://app?vid=a18dbf48-2c4d-4fa4-a4c5-c9871d73c9a0"},"vehicle_type_id":"4","last_reported":1761968232,"current_range_meters":8000,"station_id":"ce4bgup2rcd13ifvqcn0","pricing_plan_id":"cebpf4jnsgd1na2vs0mg"},{"bike_id":"d99505fe-d7a7-4e44-b7f5-f0065cd01a03","system_id":"levelo_inurba_marseille","lat":43.33361,"lon":5.42943,"is_reserved":false,"is_disabled":false,"rental_uris":{"android":"levelo://app?vid=d99505fe-d7a7-4e44-b7f5-f0065cd01a03","ios":"levelo://app?vid=d99505fe-d7a7-4e44-b7f5-f0065cd01a03"},"vehicle_type_id":"4","last_reported":1761968232,"current_range_meters":8400,"station_id":"","pricing_plan_id":"cebpf4jnsgd1na2vs0mg"},{"bike_id":"9b93b5e1-c939-4745-bf85-2d21945442dc","system_id":"levelo_inurba_marseille","lat":43.299917,"lon":5.363874,"is_reserved":false,"is_disabled":false,"rental_uris":{"android":"levelo://app?vid=9b93b5e1-c939-4745-bf85-2d21945442dc","ios":"levelo://app?vid=9b93b5e1-c939-4745-bf85-2d21945442dc"},"vehicle_type_id":"4","last_reported":1761968232,"current_range_meters":8400,"station_id":"","pricing_plan_id":"cebpf4jnsgd1na2vs0mg"},{"bike_id":"f8dbe4c5-bee5-434d-894e-7d6ef9c4f975","system_id":"levelo_inurba_marseille","lat":43.29284,"lon":5.40151,"is_reserved":false,"is_disabled":true,"rental_uris":{"android":"levelo://app?vid=f8dbe4c5-bee5-434d-894e-7d6ef9c4f975","ios":"levelo://app?vid=f8dbe4c5-bee5-434d-894e-7d6ef9c4f975"},"vehicle_type_id":"4","last_reported":1761968232,"current_range_meters":8400,"station_id":"ce4bh312rcd13ifvqdk0","pricing_plan_id":"cebpf4jnsgd1na2vs0mg"},{"bike_id":"c7f8911a-d269-4bce-9f4d-4f710583f8b2","system_id":"levelo_inurba_marseille","lat":43.24936,"lon":5.4049,"is_reserved":false,"is_disabled":false,"rental_uris":{"android":"levelo://app?vid=c7f8911a-d269-4bce-9f4d-4f710583f8b2","ios":"levelo://app?vid=c7f8911a-d269-4bce-9f4d-4f710583f8b2"},"vehicle_type_id":"4","last_reported":1761968232,"current_range_meters":8400,"station_id":"st_d2ngiaodas8pm72gd1h0","pricing_plan_id":"cebpf4jnsgd1na2vs0mg"},{"bike_id":"cccb3ad8-f98c-47f7-986e-02a79ce62ffd","system_id":"levelo_inurba_marseille","lat":43.291964,"lon":5.358011,"is_reserved":false,"is_disabled":true,"rental_uris":{"android":"levelo://app?vid=cccb3ad8-f98c-47f7-986e-02a79ce62ffd","ios":"levelo://app?vid=cccb3ad8-f98c-47f7-986e-02a79ce62ffd"},"vehicle_type_id":"4","last_reported":1761968232,"current_range_meters":8400,"station_id":"ce4bhb12rcd13ifvqel0","pricing_plan_id":"cebpf4jnsgd1na2vs0mg"},{"bike_id":"f2bc7114-dd1d-4b6c-9ace-2d2ec426ad83","system_id":"levelo_inurba_marseille","lat":43.243899,"lon":5.370713,"is_reserved":false,"is_disabled":false,"rental_uris":{"android":"levelo://app?vid=f2bc7114-dd1d-4b6c-9ace-2d2ec426ad83","ios":"levelo://app?vid=f2bc7114-dd1d-4b6c-9ace-2d2ec426ad83"},"vehicle_type_id":"4","last_reported":1761968232,"current_range_meters":8400,"station_id":"ce4bhhh2rcd13ifvqfk0","pricing_plan_id":"cebpf4jnsgd1na2vs0mg"},{"bike_id":"2afe9325-d031-4fc0-b80a-c3cd27e50511","system_id":"levelo_inurba_marseille","lat":43.30957,"lon":5.39736,"is_reserved":false,"is_disabled":false,"rental_uris":{"android":"levelo://app?vid=2afe9325-d031-4fc0-b80a-c3cd27e50511","ios":"levelo://app?vid=2afe9325-d031-4fc0-b80a-c3cd27e50511"},"vehicle_type_id":"4","last_reported":1761968232,"current_range_meters":8400,"station_id":"","pricing_plan_id":"cebpf4jnsgd1na2vs0mg"},{"bike_id":"5fb987d7-0fd0-4ae4-b81e-29cf312b29a5","system_id":"levelo_inurba_marseille","lat":43.28956,"lon":5.39058,"is_reserved":false,"is_disabled":false,"rental_uris":{"android":"levelo://app?vid=5fb987d7-0fd0-4ae4-b81e-29cf312b29a5","ios":"levelo://app?vid=5fb987d7-0fd0-4ae4-b81e-29cf312b29a5"},"vehicle_type_id":"4","last_reported":1761968232,"current_range_meters":8800,"station_id":"","pricing_plan_id":"cebpf4jnsgd1na2vs0mg"},{"bike_id":"7f98ac84-4e31-418d-b17e-0843a8556fd6","system_id":"levelo_inurba_marseille","lat":43.27564,"lon":5.38428,"is_reserved":false,"is_disabled":false,"rental_uris":{"android":"levelo://app?vid=7f98ac84-4e31-418d-b17e-0843a8556fd6","ios":"levelo://app?vid=7f98ac84-4e31-418d-b17e-0843a8556fd6"},"vehicle_type_id":"4","last_reported":1761968232,"current_range_meters":8800,"station_id":"ce4bhh92rcd13ifvqfi0","pricing_plan_id":"cebpf4jnsgd1na2vs0mg"},{"bike_id":"7d6059fe-ac53-4b6b-894a-6917d91d6e9d","system_id":"levelo_inurba_marseille","lat":43.290368,"lon":5.399624,"is_reserved":false,"is_disabled":false,"rental_uris":{"android":"levelo://app?vid=7d6059fe-ac53-4b6b-894a-6917d91d6e9d","ios":"levelo://app?vid=7d6059fe-ac53-4b6b-894a-6917d91d6e9d"},"vehicle_type_id":"4","last_reported":1761968232,"current_range_meters":8800,"station_id":"ce4bh392rcd13ifvqdm0","pricing_plan_id":"cebpf4jnsgd1na2vs0mg"},{"bike_id":"5b146c4e-7988-49c3-8f88-1831ab689a31","system_id":"levelo_inurba_marseille","lat":43.28221,"lon":5.3904,"is_reserved":false,"is_disabled":false,"rental_uris":{"android":"levelo://app?vid=5b146c4e-7988-49c3-8f88-1831ab689a31","ios":"levelo://app?vid=5b146c4e-7988-49c3-8f88-1831ab689a31"},"vehicle_type_id":"4","last_reported":1761968232,"current_range_meters":9200,"station_id":"ce4bhn92rcd13ifvqgsg","pricing_plan_id":"cebpf4jnsgd1na2vs0mg"},{"bike_id":"154a2fe6-d46d-4246-b7e5-0badb10acf06","system_id":"levelo_inurba_marseille","lat":43.240692,"lon":5.37762,"is_reserved":false,"is_disabled":false,"rental_uris":{"android":"levelo://app?vid=154a2fe6-d46d-4246-b7e5-0badb10acf06","ios":"levelo://app?vid=154a2fe6-d46d-4246-b7e5-0badb10acf06"},"vehicle_type_id":"4","last_reported":1761968232,"current_range_meters":9200,"station_id":"ce4bhnp2rcd13ifvqgvg","pricing_plan_id":"cebpf4jnsgd1na2vs0mg"},{"bike_id":"a823fe17-89e2-4e31-9e6c-d83fbcf7a53c","system_id":"levelo_inurba_marseille","lat":43.30147,"lon":5.38068,"is_reserved":false,"is_disabled":false,"rental_uris":{"android":"levelo://app?vid=a823fe17-89e2-4e31-9e6c-d83fbcf7a53c","ios":"levelo://app?vid=a823fe17-89e2-4e31-9e6c-d83fbcf7a53c"},"vehicle_type_id":"4","last_reported":1761968232,"current_range_meters":9200,"station_id":"ce4bgjp2rcd13ifvqbh0","pricing_plan_id":"cebpf4jnsgd1na2vs0mg"},{"bike_id":"5804c3e4-22bc-4ae2-9f76-c349279052a5","system_id":"levelo_inurba_marseille","lat":43.231602,"lon":5.43704,"is_reserved":false,"is_disabled":false,"rental_uris":{"android":"levelo://app?vid=5804c3e4-22bc-4ae2-9f76-c349279052a5","ios":"levelo://app?vid=5804c3e4-22bc-4ae2-9f76-c349279052a5"},"vehicle_type_id":"4","last_reported":1761968232,"current_range_meters":9200,"station_id":"ce4bhmp2rcd13ifvqgog","pricing_plan_id":"cebpf4jnsgd1na2vs0mg"},{"bike_id":"c925aeee-394b-48bb-8345-09778ae3b0d5","system_id":"levelo_inurba_marseille","lat":43.31176,"lon":5.38712,"is_reserved":false,"is_disabled":false,"rental_uris":{"android":"levelo://app?vid=c925aeee-394b-48bb-8345-09778ae3b0d5","ios":"levelo://app?vid=c925aeee-394b-48bb-8345-09778ae3b0d5"},"vehicle_type_id":"4","last_reported":1761968232,"current_range_meters":9600,"station_id":"ce4bgv12rcd13ifvqcp0","pricing_plan_id":"cebpf4jnsgd1na2vs0mg"},{"bike_id":"455c4ccf-6c5b-4600-adc8-f3921f13a4c9","system_id":"levelo_inurba_marseille","lat":43.22933,"lon":5.35375,"is_reserved":false,"is_disabled":false,"rental_uris":{"android":"levelo://app?vid=455c4ccf-6c5b-4600-adc8-f3921f13a4c9","ios":"levelo://app?vid=455c4ccf-6c5b-4600-adc8-f3921f13a4c9"},"vehicle_type_id":"4","last_reported":1761968232,"current_range_meters":9600,"station_id":"cpo3532slgdg3j2ikp40","pricing_plan_id":"cebpf4jnsgd1na2vs0mg"},{"bike_id":"0d4a7cfc-30b6-4ff3-ac9d-f921038f16ad","system_id":"levelo_inurba_marseille","lat":43.28624,"lon":5.35098,"is_reserved":false,"is_disabled":false,"rental_uris":{"android":"levelo://app?vid=0d4a7cfc-30b6-4ff3-ac9d-f921038f16ad","ios":"levelo://app?vid=0d4a7cfc-30b6-4ff3-ac9d-f921038f16ad"},"vehicle_type_id":"4","last_reported":1761968232,"current_range_meters":9600,"station_id":"ce4bhch2rcd13ifvqeug","pricing_plan_id":"cebpf4jnsgd1na2vs0mg"},{"bike_id":"70b7527d-67eb-4818-84c6-51aae343ca97","system_id":"levelo_inurba_marseille","lat":43.28484,"lon":5.48391,"is_reserved":false,"is_disabled":false,"rental_uris":{"android":"levelo://app?vid=70b7527d-67eb-4818-84c6-51aae343ca97","ios":"levelo://app?vid=70b7527d-67eb-4818-84c6-51aae343ca97"},"vehicle_type_id":"4","last_reported":1761968232,"current_range_meters":9600,"station_id":"st_d3svhcjqgbts73a3dn0g","pricing_plan_id":"cebpf4jnsgd1na2vs0mg"},{"bike_id":"eb2adf7c-8740-4978-a7c2-2dda7ed54401","system_id":"levelo_inurba_marseille","lat":43.279083,"lon":5.380123,"is_reserved":false,"is_disabled":false,"rental_uris":{"android":"levelo://app?vid=eb2adf7c-8740-4978-a7c2-2dda7ed54401","ios":"levelo://app?vid=eb2adf7c-8740-4978-a7c2-2dda7ed54401"},"vehicle_type_id":"4","last_reported":1761968232,"current_range_meters":9600,"station_id":"ce4bhf92rcd13ifvqf50","pricing_plan_id":"cebpf4jnsgd1na2vs0mg"},{"bike_id":"a56a8a64-8aaf-4f2b-9086-ab5ca516b670","system_id":"levelo_inurba_marseille","lat":43.24666,"lon":5.38159,"is_reserved":false,"is_disabled":false,"rental_uris":{"android":"levelo://app?vid=a56a8a64-8aaf-4f2b-9086-ab5ca516b670","ios":"levelo://app?vid=a56a8a64-8aaf-4f2b-9086-ab5ca516b670"},"vehicle_type_id":"4","last_reported":1761968232,"current_range_meters":10000,"station_id":"ce4bhih2rcd13ifvqfr0","pricing_plan_id":"cebpf4jnsgd1na2vs0mg"},{"bike_id":"83a6e788-52a7-4a3b-9789-387ab9b0f54e","system_id":"levelo_inurba_marseille","lat":43.2305,"lon":5.35498,"is_reserved":false,"is_disabled":false,"rental_uris":{"android":"levelo://app?vid=83a6e788-52a7-4a3b-9789-387ab9b0f54e","ios":"levelo://app?vid=83a6e788-52a7-4a3b-9789-387ab9b0f54e"},"vehicle_type_id":"4","last_reported":1761968232,"current_range_meters":10000,"station_id":"cpo3342slgdg3j2ifvpg","pricing_plan_id":"cebpf4jnsgd1na2vs0mg"},{"bike_id":"05092f09-1612-407c-9f18-e81eeb2945ff","system_id":"levelo_inurba_marseille","lat":43.28534,"lon":5.44103,"is_reserved":false,"is_disabled":false,"rental_uris":{"android":"levelo://app?vid=05092f09-1612-407c-9f18-e81eeb2945ff","ios":"levelo://app?vid=05092f09-1612-407c-9f18-e81eeb2945ff"},"vehicle_type_id":"4","last_reported":1761968232,"current_range_meters":10000,"station_id":"st_d3j3df2ikq2c7380ej80","pricing_plan_id":"cebpf4jnsgd1na2vs0mg"},{"bike_id":"22a1d899-ecc1-4a63-b9cd-830fba2caf10","system_id":"levelo_inurba_marseille","lat":43.23197,"lon":5.39993,"is_reserved":false,"is_disabled":false,"rental_uris":{"android":"levelo://app?vid=22a1d899-ecc1-4a63-b9cd-830fba2caf10","ios":"levelo://app?vid=22a1d899-ecc1-4a63-b9cd-830fba2caf10"},"vehicle_type_id":"4","last_reported":1761968232,"current_range_meters":10000,"station_id":"ce4bhn12rcd13ifvqgqg","pricing_plan_id":"cebpf4jnsgd1na2vs0mg"},{"bike_id":"1213ff01-604d-4b83-b3a2-60440c4b245e","system_id":"levelo_inurba_marseille","lat":43.237885,"lon":5.366227,"is_reserved":false,"is_disabled":false,"rental_uris":{"android":"levelo://app?vid=1213ff01-604d-4b83-b3a2-60440c4b245e","ios":"levelo://app?vid=1213ff01-604d-4b83-b3a2-60440c4b245e"},"vehicle_type_id":"4","last_reported":1761968232,"current_range_meters":10000,"station_id":"st_d3nk18o9ro0c73en2l3g","pricing_plan_id":"cebpf4jnsgd1na2vs0mg"},{"bike_id":"96ad2f8e-1ff0-415a-a84a-9186f2a5baf6","system_id":"levelo_inurba_marseille","lat":43.29606,"lon":5.37672,"is_reserved":false,"is_disabled":false,"rental_uris":{"android":"levelo://app?vid=96ad2f8e-1ff0-415a-a84a-9186f2a5baf6","ios":"levelo://app?vid=96ad2f8e-1ff0-415a-a84a-9186f2a5baf6"},"vehicle_type_id":"4","last_reported":1761968232,"current_range_meters":10000,"station_id":"ce4bgi12rcd13ifvqb80","pricing_plan_id":"cebpf4jnsgd1na2vs0mg"},{"bike_id":"42e986d2-36be-4b0e-87e8-71dc3f97c04d","system_id":"levelo_inurba_marseille","lat":43.24666,"lon":5.38186,"is_reserved":false,"is_disabled":false,"rental_uris":{"android":"levelo://app?vid=42e986d2-36be-4b0e-87e8-71dc3f97c04d","ios":"levelo://app?vid=42e986d2-36be-4b0e-87e8-71dc3f97c04d"},"vehicle_type_id":"4","last_reported":1761968232,"current_range_meters":10800,"station_id":"ce4bhih2rcd13ifvqfr0","pricing_plan_id":"cebpf4jnsgd1na2vs0mg"},{"bike_id":"e2530a1e-30f6-479a-ab87-35e55c0ae7a3","system_id":"levelo_inurba_marseille","lat":43.31224,"lon":5.36828,"is_reserved":false,"is_disabled":false,"rental_uris":{"android":"levelo://app?vid=e2530a1e-30f6-479a-ab87-35e55c0ae7a3","ios":"levelo://app?vid=e2530a1e-30f6-479a-ab87-35e55c0ae7a3"},"vehicle_type_id":"4","last_reported":1761968232,"current_range_meters":10800,"station_id":"ce4bgl92rcd13ifvqbq0","pricing_plan_id":"cebpf4jnsgd1na2vs0mg"},{"bike_id":"620b5d54-b5d3-4aab-8e22-11c22a6c1d64","system_id":"levelo_inurba_marseille","lat":43.259362,"lon":5.408999,"is_reserved":false,"is_disabled":false,"rental_uris":{"android":"levelo://app?vid=620b5d54-b5d3-4aab-8e22-11c22a6c1d64","ios":"levelo://app?vid=620b5d54-b5d3-4aab-8e22-11c22a6c1d64"},"vehicle_type_id":"4","last_reported":1761968232,"current_range_meters":10800,"station_id":"ce4bhm92rcd13ifvqglg","pricing_plan_id":"cebpf4jnsgd1na2vs0mg"},{"bike_id":"43d05971-03b2-4d6c-865b-26f14123d065","system_id":"levelo_inurba_marseille","lat":43.25083,"lon":5.39537,"is_reserved":false,"is_disabled":false,"rental_uris":{"android":"levelo://app?vid=43d05971-03b2-4d6c-865b-26f14123d065","ios":"levelo://app?vid=43d05971-03b2-4d6c-865b-26f14123d065"},"vehicle_type_id":"4","last_reported":1761968232,"current_range_meters":10800,"station_id":"ce4bhm12rcd13ifvqgkg","pricing_plan_id":"cebpf4jnsgd1na2vs0mg"},{"bike_id":"3b0ed919-3f15-4150-9bb7-c2e454e63927","system_id":"levelo_inurba_marseille","lat":43.24672,"lon":5.38165,"is_reserved":false,"is_disabled":false,"rental_uris":{"android":"levelo://app?vid=3b0ed919-3f15-4150-9bb7-c2e454e63927","ios":"levelo://app?vid=3b0ed919-3f15-4150-9bb7-c2e454e63927"},"vehicle_type_id":"4","last_reported":1761968232,"current_range_meters":10800,"station_id":"ce4bhih2rcd13ifvqfr0","pricing_plan_id":"cebpf4jnsgd1na2vs0mg"},{"bike_id":"a4dac4fa-66e6-48be-a654-6e17cdc7ca0b","system_id":"levelo_inurba_marseille","lat":43.337571,"lon":5.374323,"is_reserved":false,"is_disabled":false,"rental_uris":{"android":"levelo://app?vid=a4dac4fa-66e6-48be-a654-6e17cdc7ca0b","ios":"levelo://app?vid=a4dac4fa-66e6-48be-a654-6e17cdc7ca0b"},"vehicle_type_id":"4","last_reported":1761968232,"current_range_meters":11200,"station_id":"","pricing_plan_id":"cebpf4jnsgd1na2vs0mg"},{"bike_id":"3a8851b0-bea2-4b80-afc7-0c6751111e32","system_id":"levelo_inurba_marseille","lat":43.28866,"lon":5.42523,"is_reserved":false,"is_disabled":false,"rental_uris":{"android":"levelo://app?vid=3a8851b0-bea2-4b80-afc7-0c6751111e32","ios":"levelo://app?vid=3a8851b0-bea2-4b80-afc7-0c6751111e32"},"vehicle_type_id":"4","last_reported":1761968232,"current_range_meters":11200,"station_id":"st_d3b462108ojc7389ooeg","pricing_plan_id":"cebpf4jnsgd1na2vs0mg"},{"bike_id":"a4411a31-dc75-48de-8b4a-eee0e7dbe4d1","system_id":"levelo_inurba_marseille","lat":43.28152,"lon":5.42635,"is_reserved":false,"is_disabled":false,"rental_uris":{"android":"levelo://app?vid=a4411a31-dc75-48de-8b4a-eee0e7dbe4d1","ios":"levelo://app?vid=a4411a31-dc75-48de-8b4a-eee0e7dbe4d1"},"vehicle_type_id":"4","last_reported":1761968232,"current_range_meters":11600,"station_id":"ce4bhnh2rcd13ifvqgug","pricing_plan_id":"cebpf4jnsgd1na2vs0mg"},{"bike_id":"a74ca4e6-9019-4ce4-a364-7a22bd8e206a","system_id":"levelo_inurba_marseille","lat":43.26509,"lon":5.38526,"is_reserved":false,"is_disabled":false,"rental_uris":{"android":"levelo://app?vid=a74ca4e6-9019-4ce4-a364-7a22bd8e206a","ios":"levelo://app?vid=a74ca4e6-9019-4ce4-a364-7a22bd8e206a"},"vehicle_type_id":"4","last_reported":1761968232,"current_range_meters":11600,"station_id":"","pricing_plan_id":"cebpf4jnsgd1na2vs0mg"},{"bike_id":"9ad3c9ed-1278-448d-ab51-69df517d2297","system_id":"levelo_inurba_marseille","lat":43.27543,"lon":5.38439,"is_reserved":false,"is_disabled":false,"rental_uris":{"android":"levelo://app?vid=9ad3c9ed-1278-448d-ab51-69df517d2297","ios":"levelo://app?vid=9ad3c9ed-1278-448d-ab51-69df517d2297"},"vehicle_type_id":"4","last_reported":1761968232,"current_range_meters":11600,"station_id":"ce4bhh92rcd13ifvqfi0","pricing_plan_id":"cebpf4jnsgd1na2vs0mg"},{"bike_id":"dacea13e-ff7f-4447-9d68-7558315e0463","system_id":"levelo_inurba_marseille","lat":43.30442,"lon":5.36724,"is_reserved":false,"is_disabled":false,"rental_uris":{"android":"levelo://app?vid=dacea13e-ff7f-4447-9d68-7558315e0463","ios":"levelo://app?vid=dacea13e-ff7f-4447-9d68-7558315e0463"},"vehicle_type_id":"4","last_reported":1761968232,"current_range_meters":11600,"station_id":"","pricing_plan_id":"cebpf4jnsgd1na2vs0mg"},{"bike_id":"fc851be1-ba05-43cb-9c72-a8a9474b4861","system_id":"levelo_inurba_marseille","lat":43.27053,"lon":5.40273,"is_reserved":false,"is_disabled":false,"rental_uris":{"android":"levelo://app?vid=fc851be1-ba05-43cb-9c72-a8a9474b4861","ios":"levelo://app?vid=fc851be1-ba05-43cb-9c72-a8a9474b4861"},"vehicle_type_id":"4","last_reported":1761968232,"current_range_meters":12000,"station_id":"ce4bhk92rcd13ifvqgc0","pricing_plan_id":"cebpf4jnsgd1na2vs0mg"},{"bike_id":"6cd59db7-cb12-4301-8385-22b87d7a5cfd","system_id":"levelo_inurba_marseille","lat":43.285346,"lon":5.441014,"is_reserved":false,"is_disabled":false,"rental_uris":{"android":"levelo://app?vid=6cd59db7-cb12-4301-8385-22b87d7a5cfd","ios":"levelo://app?vid=6cd59db7-cb12-4301-8385-22b87d7a5cfd"},"vehicle_type_id":"4","last_reported":1761968232,"current_range_meters":12000,"station_id":"st_d3j3df2ikq2c7380ej80","pricing_plan_id":"cebpf4jnsgd1na2vs0mg"},{"bike_id":"fd4ce9f4-b592-4cc5-acf9-1c794ff3f3cd","system_id":"levelo_inurba_marseille","lat":43.27964,"lon":5.41052,"is_reserved":false,"is_disabled":false,"rental_uris":{"android":"levelo://app?vid=fd4ce9f4-b592-4cc5-acf9-1c794ff3f3cd","ios":"levelo://app?vid=fd4ce9f4-b592-4cc5-acf9-1c794ff3f3cd"},"vehicle_type_id":"4","last_reported":1761968232,"current_range_meters":12000,"station_id":"ce4bhnp2rcd13ifvqh0g","pricing_plan_id":"cebpf4jnsgd1na2vs0mg"},{"bike_id":"4d23c425-a082-40df-9a3d-4f372c0b2209","system_id":"levelo_inurba_marseille","lat":43.25121,"lon":5.4035,"is_reserved":false,"is_disabled":false,"rental_uris":{"android":"levelo://app?vid=4d23c425-a082-40df-9a3d-4f372c0b2209","ios":"levelo://app?vid=4d23c425-a082-40df-9a3d-4f372c0b2209"},"vehicle_type_id":"4","last_reported":1761968232,"current_range_meters":12000,"station_id":"ce4bhlh2rcd13ifvqgig","pricing_plan_id":"cebpf4jnsgd1na2vs0mg"},{"bike_id":"fc981b16-04f5-48f0-9a34-8f6d152c605d","system_id":"levelo_inurba_marseille","lat":43.28673,"lon":5.36357,"is_reserved":false,"is_disabled":false,"rental_uris":{"android":"levelo://app?vid=fc981b16-04f5-48f0-9a34-8f6d152c605d","ios":"levelo://app?vid=fc981b16-04f5-48f0-9a34-8f6d152c605d"},"vehicle_type_id":"4","last_reported":1761968232,"current_range_meters":12000,"station_id":"ce4bhah2rcd13ifvqej0","pricing_plan_id":"cebpf4jnsgd1na2vs0mg"},{"bike_id":"8af50f59-99ab-4eb1-9462-3633f4920544","system_id":"levelo_inurba_marseille","lat":43.28421,"lon":5.3754,"is_reserved":false,"is_disabled":false,"rental_uris":{"android":"levelo://app?vid=8af50f59-99ab-4eb1-9462-3633f4920544","ios":"levelo://app?vid=8af50f59-99ab-4eb1-9462-3633f4920544"},"vehicle_type_id":"4","last_reported":1761968232,"current_range_meters":12000,"station_id":"ce4bh412rcd13ifvqds0","pricing_plan_id":"cebpf4jnsgd1na2vs0mg"},{"bike_id":"52b117f2-4c01-4f66-887d-006722496528","system_id":"levelo_inurba_marseille","lat":43.30845,"lon":5.3715,"is_reserved":false,"is_disabled":false,"rental_uris":{"android":"levelo://app?vid=52b117f2-4c01-4f66-887d-006722496528","ios":"levelo://app?vid=52b117f2-4c01-4f66-887d-006722496528"},"vehicle_type_id":"4","last_reported":1761968232,"current_range_meters":12400,"station_id":"","pricing_plan_id":"cebpf4jnsgd1na2vs0mg"},{"bike_id":"1cc34d80-eaa7-4640-81c2-702e30483e9f","system_id":"levelo_inurba_marseille","lat":43.244037,"lon":5.370586,"is_reserved":false,"is_disabled":false,"rental_uris":{"android":"levelo://app?vid=1cc34d80-eaa7-4640-81c2-702e30483e9f","ios":"levelo://app?vid=1cc34d80-eaa7-4640-81c2-702e30483e9f"},"vehicle_type_id":"4","last_reported":1761968232,"current_range_meters":12400,"station_id":"ce4bhhh2rcd13ifvqfk0","pricing_plan_id":"cebpf4jnsgd1na2vs0mg"},{"bike_id":"5c79c23d-3702-4612-9965-06b9e21bc089","system_id":"levelo_inurba_marseille","lat":43.29469,"lon":5.382159,"is_reserved":false,"is_disabled":false,"rental_uris":{"android":"levelo://app?vid=5c79c23d-3702-4612-9965-06b9e21bc089","ios":"levelo://app?vid=5c79c23d-3702-4612-9965-06b9e21bc089"},"vehicle_type_id":"4","last_reported":1761968232,"current_range_meters":12800,"station_id":"","pricing_plan_id":"cebpf4jnsgd1na2vs0mg"},{"bike_id":"ef3c599f-c4ca-4eb8-aa71-b3f4816507b8","system_id":"levelo_inurba_marseille","lat":43.29492,"lon":5.43311,"is_reserved":false,"is_disabled":false,"rental_uris":{"android":"levelo://app?vid=ef3c599f-c4ca-4eb8-aa71-b3f4816507b8","ios":"levelo://app?vid=ef3c599f-c4ca-4eb8-aa71-b3f4816507b8"},"vehicle_type_id":"4","last_reported":1761968232,"current_range_meters":12800,"station_id":"st_d3j5ugp08ojc73fj9d10","pricing_plan_id":"cebpf4jnsgd1na2vs0mg"},{"bike_id":"5bb4d00a-4c6d-478d-a663-14122c4dc811","system_id":"levelo_inurba_marseille","lat":43.24836,"lon":5.37449,"is_reserved":false,"is_disabled":false,"rental_uris":{"android":"levelo://app?vid=5bb4d00a-4c6d-478d-a663-14122c4dc811","ios":"levelo://app?vid=5bb4d00a-4c6d-478d-a663-14122c4dc811"},"vehicle_type_id":"4","last_reported":1761968232,"current_range_meters":12800,"station_id":"","pricing_plan_id":"cebpf4jnsgd1na2vs0mg"},{"bike_id":"af9b740b-d287-47ee-9a64-53299fefe87d","system_id":"levelo_inurba_marseille","lat":43.28458,"lon":5.35881,"is_reserved":false,"is_disabled":false,"rental_uris":{"android":"levelo://app?vid=af9b740b-d287-47ee-9a64-53299fefe87d","ios":"levelo://app?vid=af9b740b-d287-47ee-9a64-53299fefe87d"},"vehicle_type_id":"4","last_reported":1761968232,"current_range_meters":12800,"station_id":"ce4bhah2rcd13ifvqei0","pricing_plan_id":"cebpf4jnsgd1na2vs0mg"},{"bike_id":"3e0ee96b-8fbf-40c7-b23e-bbfbbf69c224","system_id":"levelo_inurba_marseille","lat":43.28522,"lon":5.44112,"is_reserved":false,"is_disabled":false,"rental_uris":{"android":"levelo://app?vid=3e0ee96b-8fbf-40c7-b23e-bbfbbf69c224","ios":"levelo://app?vid=3e0ee96b-8fbf-40c7-b23e-bbfbbf69c224"},"vehicle_type_id":"4","last_reported":1761968232,"current_range_meters":12800,"station_id":"st_d3j3df2ikq2c7380ej80","pricing_plan_id":"cebpf4jnsgd1na2vs0mg"},{"bike_id":"b2ce8e73-e59b-4d30-b8e2-e59e2e1e3b22","system_id":"levelo_inurba_marseille","lat":43.33775,"lon":5.37482,"is_reserved":false,"is_disabled":false,"rental_uris":{"android":"levelo://app?vid=b2ce8e73-e59b-4d30-b8e2-e59e2e1e3b22","ios":"levelo://app?vid=b2ce8e73-e59b-4d30-b8e2-e59e2e1e3b22"},"vehicle_type_id":"4","last_reported":1761968232,"current_range_meters":13600,"station_id":"","pricing_plan_id":"cebpf4jnsgd1na2vs0mg"},{"bike_id":"ec9334bc-030f-465a-9067-9b41403e096b","system_id":"levelo_inurba_marseille","lat":43.30315,"lon":5.40435,"is_reserved":false,"is_disabled":false,"rental_uris":{"android":"levelo://app?vid=ec9334bc-030f-465a-9067-9b41403e096b","ios":"levelo://app?vid=ec9334bc-030f-465a-9067-9b41403e096b"},"vehicle_type_id":"4","last_reported":1761968232,"current_range_meters":13600,"station_id":"ce4bh012rcd13ifvqd10","pricing_plan_id":"cebpf4jnsgd1na2vs0mg"},{"bike_id":"539b83de-3250-47fc-95a6-2636d82aff94","system_id":"levelo_inurba_marseille","lat":43.241778,"lon":5.397217,"is_reserved":false,"is_disabled":false,"rental_uris":{"android":"levelo://app?vid=539b83de-3250-47fc-95a6-2636d82aff94","ios":"levelo://app?vid=539b83de-3250-47fc-95a6-2636d82aff94"},"vehicle_type_id":"4","last_reported":1761968232,"current_range_meters":13600,"station_id":"ce4bhn12rcd13ifvqgpg","pricing_plan_id":"cebpf4jnsgd1na2vs0mg"},{"bike_id":"e97bd841-a757-4f02-af2a-2c6920cfa105","system_id":"levelo_inurba_marseille","lat":43.28164,"lon":5.42643,"is_reserved":false,"is_disabled":false,"rental_uris":{"android":"levelo://app?vid=e97bd841-a757-4f02-af2a-2c6920cfa105","ios":"levelo://app?vid=e97bd841-a757-4f02-af2a-2c6920cfa105"},"vehicle_type_id":"4","last_reported":1761968232,"current_range_meters":14000,"station_id":"ce4bhnh2rcd13ifvqgug","pricing_plan_id":"cebpf4jnsgd1na2vs0mg"},{"bike_id":"b1e81361-2b17-4ef1-8a58-6def5753471b","system_id":"levelo_inurba_marseille","lat":43.33753,"lon":5.37484,"is_reserved":false,"is_disabled":false,"rental_uris":{"android":"levelo://app?vid=b1e81361-2b17-4ef1-8a58-6def5753471b","ios":"levelo://app?vid=b1e81361-2b17-4ef1-8a58-6def5753471b"},"vehicle_type_id":"4","last_reported":1761968232,"current_range_meters":14000,"station_id":"","pricing_plan_id":"cebpf4jnsgd1na2vs0mg"},{"bike_id":"1a314006-ff04-4cbd-9b6d-2fbe8ec16eff","system_id":"levelo_inurba_marseille","lat":43.30218,"lon":5.39474,"is_reserved":false,"is_disabled":false,"rental_uris":{"android":"levelo://app?vid=1a314006-ff04-4cbd-9b6d-2fbe8ec16eff","ios":"levelo://app?vid=1a314006-ff04-4cbd-9b6d-2fbe8ec16eff"},"vehicle_type_id":"4","last_reported":1761968232,"current_range_meters":14000,"station_id":"ce4bh0p2rcd13ifvqd70","pricing_plan_id":"cebpf4jnsgd1na2vs0mg"},{"bike_id":"e741f04b-a329-45da-b4a5-b55c331b6e0d","system_id":"levelo_inurba_marseille","lat":43.26565,"lon":5.40323,"is_reserved":false,"is_disabled":false,"rental_uris":{"android":"levelo://app?vid=e741f04b-a329-45da-b4a5-b55c331b6e0d","ios":"levelo://app?vid=e741f04b-a329-45da-b4a5-b55c331b6e0d"},"vehicle_type_id":"4","last_reported":1761968232,"current_range_meters":14000,"station_id":"ce4bhmp2rcd13ifvqgng","pricing_plan_id":"cebpf4jnsgd1na2vs0mg"},{"bike_id":"c43da4ca-4a27-413f-8de1-73fb68abccf6","system_id":"levelo_inurba_marseille","lat":43.27994,"lon":5.40007,"is_reserved":false,"is_disabled":false,"rental_uris":{"android":"levelo://app?vid=c43da4ca-4a27-413f-8de1-73fb68abccf6","ios":"levelo://app?vid=c43da4ca-4a27-413f-8de1-73fb68abccf6"},"vehicle_type_id":"4","last_reported":1761968232,"current_range_meters":14000,"station_id":"ce4bho92rcd13ifvqh4g","pricing_plan_id":"cebpf4jnsgd1na2vs0mg"},{"bike_id":"f13402d6-bcfe-43c6-9455-f54d46eee62e","system_id":"levelo_inurba_marseille","lat":43.30454,"lon":5.36746,"is_reserved":false,"is_disabled":false,"rental_uris":{"android":"levelo://app?vid=f13402d6-bcfe-43c6-9455-f54d46eee62e","ios":"levelo://app?vid=f13402d6-bcfe-43c6-9455-f54d46eee62e"},"vehicle_type_id":"4","last_reported":1761968232,"current_range_meters":14000,"station_id":"","pricing_plan_id":"cebpf4jnsgd1na2vs0mg"},{"bike_id":"28650968-1fad-4562-bd45-184072ee6682","system_id":"levelo_inurba_marseille","lat":43.3032,"lon":5.40445,"is_reserved":false,"is_disabled":false,"rental_uris":{"android":"levelo://app?vid=28650968-1fad-4562-bd45-184072ee6682","ios":"levelo://app?vid=28650968-1fad-4562-bd45-184072ee6682"},"vehicle_type_id":"4","last_reported":1761968232,"current_range_meters":14400,"station_id":"ce4bh012rcd13ifvqd10","pricing_plan_id":"cebpf4jnsgd1na2vs0mg"},{"bike_id":"7ac92a7b-a329-4a52-b72d-28f6a1589690","system_id":"levelo_inurba_marseille","lat":43.30156,"lon":5.38775,"is_reserved":false,"is_disabled":false,"rental_uris":{"android":"levelo://app?vid=7ac92a7b-a329-4a52-b72d-28f6a1589690","ios":"levelo://app?vid=7ac92a7b-a329-4a52-b72d-28f6a1589690"},"vehicle_type_id":"4","last_reported":1761968232,"current_range_meters":14400,"station_id":"ce4bghh2rcd13ifvqb60","pricing_plan_id":"cebpf4jnsgd1na2vs0mg"},{"bike_id":"3e641301-2218-4f8c-9ca9-884adf4c9e63","system_id":"levelo_inurba_marseille","lat":43.31713,"lon":5.43707,"is_reserved":false,"is_disabled":false,"rental_uris":{"android":"levelo://app?vid=3e641301-2218-4f8c-9ca9-884adf4c9e63","ios":"levelo://app?vid=3e641301-2218-4f8c-9ca9-884adf4c9e63"},"vehicle_type_id":"4","last_reported":1761968232,"current_range_meters":14400,"station_id":"ce4bhp92rcd13ifvqhcg","pricing_plan_id":"cebpf4jnsgd1na2vs0mg"},{"bike_id":"51c02004-b7af-4fea-b0a6-0669e7b94d3c","system_id":"levelo_inurba_marseille","lat":43.336101,"lon":5.410147,"is_reserved":false,"is_disabled":false,"rental_uris":{"android":"levelo://app?vid=51c02004-b7af-4fea-b0a6-0669e7b94d3c","ios":"levelo://app?vid=51c02004-b7af-4fea-b0a6-0669e7b94d3c"},"vehicle_type_id":"4","last_reported":1761968232,"current_range_meters":14400,"station_id":"ce4bhqh2rcd13ifvqhmg","pricing_plan_id":"cebpf4jnsgd1na2vs0mg"},{"bike_id":"9d848dfe-0dad-45c9-9bfa-bd4acb27e646","system_id":"levelo_inurba_marseille","lat":43.24072,"lon":5.37758,"is_reserved":false,"is_disabled":false,"rental_uris":{"android":"levelo://app?vid=9d848dfe-0dad-45c9-9bfa-bd4acb27e646","ios":"levelo://app?vid=9d848dfe-0dad-45c9-9bfa-bd4acb27e646"},"vehicle_type_id":"4","last_reported":1761968232,"current_range_meters":14400,"station_id":"ce4bhnp2rcd13ifvqgvg","pricing_plan_id":"cebpf4jnsgd1na2vs0mg"},{"bike_id":"3bdcc4c8-9410-4652-b8ab-aed4c5eb73c3","system_id":"levelo_inurba_marseille","lat":43.288147,"lon":5.391652,"is_reserved":false,"is_disabled":false,"rental_uris":{"android":"levelo://app?vid=3bdcc4c8-9410-4652-b8ab-aed4c5eb73c3","ios":"levelo://app?vid=3bdcc4c8-9410-4652-b8ab-aed4c5eb73c3"},"vehicle_type_id":"4","last_reported":1761968232,"current_range_meters":14400,"station_id":"","pricing_plan_id":"cebpf4jnsgd1na2vs0mg"},{"bike_id":"c2807477-fd8d-44ed-9bdc-b3f90f0cbde0","system_id":"levelo_inurba_marseille","lat":43.3187,"lon":5.40015,"is_reserved":false,"is_disabled":false,"rental_uris":{"android":"levelo://app?vid=c2807477-fd8d-44ed-9bdc-b3f90f0cbde0","ios":"levelo://app?vid=c2807477-fd8d-44ed-9bdc-b3f90f0cbde0"},"vehicle_type_id":"4","last_reported":1761968232,"current_range_meters":14400,"station_id":"","pricing_plan_id":"cebpf4jnsgd1na2vs0mg"},{"bike_id":"33f18783-51f3-4773-8180-02e30758a3f2","system_id":"levelo_inurba_marseille","lat":43.2944,"lon":5.39764,"is_reserved":false,"is_disabled":false,"rental_uris":{"android":"levelo://app?vid=33f18783-51f3-4773-8180-02e30758a3f2","ios":"levelo://app?vid=33f18783-51f3-4773-8180-02e30758a3f2"},"vehicle_type_id":"4","last_reported":1761968232,"current_range_meters":14400,"station_id":"ce4bh3h2rcd13ifvqdo0","pricing_plan_id":"cebpf4jnsgd1na2vs0mg"},{"bike_id":"bfc82e72-9c79-45c9-abc5-9f0f0b9628b2","system_id":"levelo_inurba_marseille","lat":43.27377,"lon":5.36256,"is_reserved":false,"is_disabled":false,"rental_uris":{"android":"levelo://app?vid=bfc82e72-9c79-45c9-abc5-9f0f0b9628b2","ios":"levelo://app?vid=bfc82e72-9c79-45c9-abc5-9f0f0b9628b2"},"vehicle_type_id":"4","last_reported":1761968232,"current_range_meters":14400,"station_id":"ce4bhbh2rcd13ifvqeo0","pricing_plan_id":"cebpf4jnsgd1na2vs0mg"},{"bike_id":"b8260940-1349-485d-9243-33fa537b4fce","system_id":"levelo_inurba_marseille","lat":43.279503,"lon":5.410372,"is_reserved":false,"is_disabled":false,"rental_uris":{"android":"levelo://app?vid=b8260940-1349-485d-9243-33fa537b4fce","ios":"levelo://app?vid=b8260940-1349-485d-9243-33fa537b4fce"},"vehicle_type_id":"4","last_reported":1761968232,"current_range_meters":14400,"station_id":"ce4bhnp2rcd13ifvqh0g","pricing_plan_id":"cebpf4jnsgd1na2vs0mg"},{"bike_id":"92aaaa01-14b9-464f-a94c-13da6d6d7ca2","system_id":"levelo_inurba_marseille","lat":43.30031,"lon":5.40403,"is_reserved":false,"is_disabled":false,"rental_uris":{"android":"levelo://app?vid=92aaaa01-14b9-464f-a94c-13da6d6d7ca2","ios":"levelo://app?vid=92aaaa01-14b9-464f-a94c-13da6d6d7ca2"},"vehicle_type_id":"4","last_reported":1761968232,"current_range_meters":14400,"station_id":"","pricing_plan_id":"cebpf4jnsgd1na2vs0mg"},{"bike_id":"2b135204-59c3-4e50-b400-f69137b11d84","system_id":"levelo_inurba_marseille","lat":43.23189,"lon":5.39972,"is_reserved":false,"is_disabled":false,"rental_uris":{"android":"levelo://app?vid=2b135204-59c3-4e50-b400-f69137b11d84","ios":"levelo://app?vid=2b135204-59c3-4e50-b400-f69137b11d84"},"vehicle_type_id":"4","last_reported":1761968232,"current_range_meters":14400,"station_id":"ce4bhn12rcd13ifvqgqg","pricing_plan_id":"cebpf4jnsgd1na2vs0mg"},{"bike_id":"6df5d1b3-a573-47f0-acd9-dcc1039518a8","system_id":"levelo_inurba_marseille","lat":43.279434,"lon":5.410355,"is_reserved":false,"is_disabled":false,"rental_uris":{"android":"levelo://app?vid=6df5d1b3-a573-47f0-acd9-dcc1039518a8","ios":"levelo://app?vid=6df5d1b3-a573-47f0-acd9-dcc1039518a8"},"vehicle_type_id":"4","last_reported":1761968232,"current_range_meters":14400,"station_id":"ce4bhnp2rcd13ifvqh0g","pricing_plan_id":"cebpf4jnsgd1na2vs0mg"},{"bike_id":"e04f332d-b41c-47fd-b12f-6fdc7d63f429","system_id":"levelo_inurba_marseille","lat":43.30841,"lon":5.38275,"is_reserved":false,"is_disabled":false,"rental_uris":{"android":"levelo://app?vid=e04f332d-b41c-47fd-b12f-6fdc7d63f429","ios":"levelo://app?vid=e04f332d-b41c-47fd-b12f-6fdc7d63f429"},"vehicle_type_id":"4","last_reported":1761968232,"current_range_meters":14800,"station_id":"","pricing_plan_id":"cebpf4jnsgd1na2vs0mg"},{"bike_id":"ced8b747-e5ab-4e7a-b1f4-22a1ebc20f6f","system_id":"levelo_inurba_marseille","lat":43.30778,"lon":5.3766,"is_reserved":false,"is_disabled":true,"rental_uris":{"android":"levelo://app?vid=ced8b747-e5ab-4e7a-b1f4-22a1ebc20f6f","ios":"levelo://app?vid=ced8b747-e5ab-4e7a-b1f4-22a1ebc20f6f"},"vehicle_type_id":"4","last_reported":1761968232,"current_range_meters":14800,"station_id":"ce4bgv92rcd13ifvqcq0","pricing_plan_id":"cebpf4jnsgd1na2vs0mg"},{"bike_id":"93942f11-be4c-4b4e-a0db-2434ceaa2fd3","system_id":"levelo_inurba_marseille","lat":43.26805,"lon":5.40269,"is_reserved":false,"is_disabled":false,"rental_uris":{"android":"levelo://app?vid=93942f11-be4c-4b4e-a0db-2434ceaa2fd3","ios":"levelo://app?vid=93942f11-be4c-4b4e-a0db-2434ceaa2fd3"},"vehicle_type_id":"4","last_reported":1761968232,"current_range_meters":14800,"station_id":"ce501612rcd8frsf0b60","pricing_plan_id":"cebpf4jnsgd1na2vs0mg"},{"bike_id":"74b15735-564b-4f09-952a-ba8cccb96884","system_id":"levelo_inurba_marseille","lat":43.30875,"lon":5.40207,"is_reserved":false,"is_disabled":false,"rental_uris":{"android":"levelo://app?vid=74b15735-564b-4f09-952a-ba8cccb96884","ios":"levelo://app?vid=74b15735-564b-4f09-952a-ba8cccb96884"},"vehicle_type_id":"4","last_reported":1761968232,"current_range_meters":14800,"station_id":"","pricing_plan_id":"cebpf4jnsgd1na2vs0mg"},{"bike_id":"2b0057d1-3a46-49e4-b4c6-9129f2aa7c1f","system_id":"levelo_inurba_marseille","lat":43.29523,"lon":5.38524,"is_reserved":false,"is_disabled":true,"rental_uris":{"android":"levelo://app?vid=2b0057d1-3a46-49e4-b4c6-9129f2aa7c1f","ios":"levelo://app?vid=2b0057d1-3a46-49e4-b4c6-9129f2aa7c1f"},"vehicle_type_id":"4","last_reported":1761968232,"current_range_meters":15200,"station_id":"ce4bgih2rcd13ifvqba0","pricing_plan_id":"cebpf4jnsgd1na2vs0mg"},{"bike_id":"ae3598c3-d5d8-4133-922b-9187802cb4d8","system_id":"levelo_inurba_marseille","lat":43.321072,"lon":5.36781,"is_reserved":false,"is_disabled":false,"rental_uris":{"android":"levelo://app?vid=ae3598c3-d5d8-4133-922b-9187802cb4d8","ios":"levelo://app?vid=ae3598c3-d5d8-4133-922b-9187802cb4d8"},"vehicle_type_id":"4","last_reported":1761968232,"current_range_meters":15200,"station_id":"ce4bhrh2rcd13ifvqhug","pricing_plan_id":"cebpf4jnsgd1na2vs0mg"},{"bike_id":"6da830a8-111a-4fc5-a34c-ced64d9d2dc3","system_id":"levelo_inurba_marseille","lat":43.30602,"lon":5.39365,"is_reserved":false,"is_disabled":true,"rental_uris":{"android":"levelo://app?vid=6da830a8-111a-4fc5-a34c-ced64d9d2dc3","ios":"levelo://app?vid=6da830a8-111a-4fc5-a34c-ced64d9d2dc3"},"vehicle_type_id":"4","last_reported":1761968232,"current_range_meters":16000,"station_id":"ce4bh0p2rcd13ifvqd80","pricing_plan_id":"cebpf4jnsgd1na2vs0mg"},{"bike_id":"c04ea6ec-c85d-4b9a-aa74-f0de2415a6d2","system_id":"levelo_inurba_marseille","lat":43.31548,"lon":5.38348,"is_reserved":false,"is_disabled":false,"rental_uris":{"android":"levelo://app?vid=c04ea6ec-c85d-4b9a-aa74-f0de2415a6d2","ios":"levelo://app?vid=c04ea6ec-c85d-4b9a-aa74-f0de2415a6d2"},"vehicle_type_id":"4","last_reported":1761968232,"current_range_meters":16000,"station_id":"","pricing_plan_id":"cebpf4jnsgd1na2vs0mg"},{"bike_id":"fbcc5886-69e3-488f-96fd-e45314a075e6","system_id":"levelo_inurba_marseille","lat":43.288675,"lon":5.425134,"is_reserved":false,"is_disabled":false,"rental_uris":{"android":"levelo://app?vid=fbcc5886-69e3-488f-96fd-e45314a075e6","ios":"levelo://app?vid=fbcc5886-69e3-488f-96fd-e45314a075e6"},"vehicle_type_id":"4","last_reported":1761968232,"current_range_meters":16000,"station_id":"st_d3b462108ojc7389ooeg","pricing_plan_id":"cebpf4jnsgd1na2vs0mg"},{"bike_id":"3708e1d2-c0c2-45b9-9650-3c749e33056e","system_id":"levelo_inurba_marseille","lat":43.25092,"lon":5.39521,"is_reserved":false,"is_disabled":false,"rental_uris":{"android":"levelo://app?vid=3708e1d2-c0c2-45b9-9650-3c749e33056e","ios":"levelo://app?vid=3708e1d2-c0c2-45b9-9650-3c749e33056e"},"vehicle_type_id":"4","last_reported":1761968232,"current_range_meters":16000,"station_id":"ce4bhm12rcd13ifvqgkg","pricing_plan_id":"cebpf4jnsgd1na2vs0mg"},{"bike_id":"7a9e1e86-52dc-42e4-a53b-236a591ba00d","system_id":"levelo_inurba_marseille","lat":43.28796,"lon":5.36377,"is_reserved":false,"is_disabled":false,"rental_uris":{"android":"levelo://app?vid=7a9e1e86-52dc-42e4-a53b-236a591ba00d","ios":"levelo://app?vid=7a9e1e86-52dc-42e4-a53b-236a591ba00d"},"vehicle_type_id":"4","last_reported":1761968232,"current_range_meters":16400,"station_id":"","pricing_plan_id":"cebpf4jnsgd1na2vs0mg"},{"bike_id":"b6c71aff-a08f-4792-aedf-ca0fa3c7b1dd","system_id":"levelo_inurba_marseille","lat":43.270654,"lon":5.402666,"is_reserved":false,"is_disabled":false,"rental_uris":{"android":"levelo://app?vid=b6c71aff-a08f-4792-aedf-ca0fa3c7b1dd","ios":"levelo://app?vid=b6c71aff-a08f-4792-aedf-ca0fa3c7b1dd"},"vehicle_type_id":"4","last_reported":1761968232,"current_range_meters":16400,"station_id":"ce4bhk92rcd13ifvqgc0","pricing_plan_id":"cebpf4jnsgd1na2vs0mg"},{"bike_id":"cd34d17f-3532-46cd-94d6-9f325351c996","system_id":"levelo_inurba_marseille","lat":43.2656,"lon":5.40346,"is_reserved":false,"is_disabled":false,"rental_uris":{"android":"levelo://app?vid=cd34d17f-3532-46cd-94d6-9f325351c996","ios":"levelo://app?vid=cd34d17f-3532-46cd-94d6-9f325351c996"},"vehicle_type_id":"4","last_reported":1761968232,"current_range_meters":16400,"station_id":"ce4bhmp2rcd13ifvqgng","pricing_plan_id":"cebpf4jnsgd1na2vs0mg"},{"bike_id":"aad6a064-c048-4ba9-a156-1745b89548aa","system_id":"levelo_inurba_marseille","lat":43.28313,"lon":5.410988,"is_reserved":false,"is_disabled":false,"rental_uris":{"android":"levelo://app?vid=aad6a064-c048-4ba9-a156-1745b89548aa","ios":"levelo://app?vid=aad6a064-c048-4ba9-a156-1745b89548aa"},"vehicle_type_id":"4","last_reported":1761968232,"current_range_meters":16400,"station_id":"","pricing_plan_id":"cebpf4jnsgd1na2vs0mg"},{"bike_id":"68dfe5bf-96d8-40ed-a701-d1cafa21ceb7","system_id":"levelo_inurba_marseille","lat":43.30579,"lon":5.38954,"is_reserved":false,"is_disabled":false,"rental_uris":{"android":"levelo://app?vid=68dfe5bf-96d8-40ed-a701-d1cafa21ceb7","ios":"levelo://app?vid=68dfe5bf-96d8-40ed-a701-d1cafa21ceb7"},"vehicle_type_id":"4","last_reported":1761968232,"current_range_meters":16400,"station_id":"ce4bgk12rcd13ifvqbi0","pricing_plan_id":"cebpf4jnsgd1na2vs0mg"},{"bike_id":"f081aeba-7744-405f-b58e-1bc8a6df86d3","system_id":"levelo_inurba_marseille","lat":43.30809,"lon":5.38159,"is_reserved":false,"is_disabled":false,"rental_uris":{"android":"levelo://app?vid=f081aeba-7744-405f-b58e-1bc8a6df86d3","ios":"levelo://app?vid=f081aeba-7744-405f-b58e-1bc8a6df86d3"},"vehicle_type_id":"4","last_reported":1761968232,"current_range_meters":16400,"station_id":"ce4bgt12rcd13ifvqce0","pricing_plan_id":"cebpf4jnsgd1na2vs0mg"},{"bike_id":"99f73bea-0c55-43e2-9448-ff990d7c7a64","system_id":"levelo_inurba_marseille","lat":43.27911,"lon":5.39576,"is_reserved":false,"is_disabled":false,"rental_uris":{"android":"levelo://app?vid=99f73bea-0c55-43e2-9448-ff990d7c7a64","ios":"levelo://app?vid=99f73bea-0c55-43e2-9448-ff990d7c7a64"},"vehicle_type_id":"4","last_reported":1761968232,"current_range_meters":16800,"station_id":"ce4bhf92rcd13ifvqf40","pricing_plan_id":"cebpf4jnsgd1na2vs0mg"},{"bike_id":"5588ae5f-833f-4688-aef5-fcb1bf7cce98","system_id":"levelo_inurba_marseille","lat":43.29513,"lon":5.39406,"is_reserved":false,"is_disabled":false,"rental_uris":{"android":"levelo://app?vid=5588ae5f-833f-4688-aef5-fcb1bf7cce98","ios":"levelo://app?vid=5588ae5f-833f-4688-aef5-fcb1bf7cce98"},"vehicle_type_id":"4","last_reported":1761968232,"current_range_meters":16800,"station_id":"ce4bh292rcd13ifvqdf0","pricing_plan_id":"cebpf4jnsgd1na2vs0mg"},{"bike_id":"bb568b23-79d1-45db-89ec-b7f84e1317f3","system_id":"levelo_inurba_marseille","lat":43.29633,"lon":5.40597,"is_reserved":false,"is_disabled":false,"rental_uris":{"android":"levelo://app?vid=bb568b23-79d1-45db-89ec-b7f84e1317f3","ios":"levelo://app?vid=bb568b23-79d1-45db-89ec-b7f84e1317f3"},"vehicle_type_id":"4","last_reported":1761968232,"current_range_meters":16800,"station_id":"ce4bh0h2rcd13ifvqd60","pricing_plan_id":"cebpf4jnsgd1na2vs0mg"},{"bike_id":"0089665c-d050-4f0d-8d27-e9a6af9208fc","system_id":"levelo_inurba_marseille","lat":43.30148,"lon":5.37968,"is_reserved":false,"is_disabled":false,"rental_uris":{"android":"levelo://app?vid=0089665c-d050-4f0d-8d27-e9a6af9208fc","ios":"levelo://app?vid=0089665c-d050-4f0d-8d27-e9a6af9208fc"},"vehicle_type_id":"4","last_reported":1761968232,"current_range_meters":16800,"station_id":"","pricing_plan_id":"cebpf4jnsgd1na2vs0mg"},{"bike_id":"0c3bfe72-1bfa-4fe4-8ec1-abc531b0b6c5","system_id":"levelo_inurba_marseille","lat":43.265483,"lon":5.372832,"is_reserved":false,"is_disabled":true,"rental_uris":{"android":"levelo://app?vid=0c3bfe72-1bfa-4fe4-8ec1-abc531b0b6c5","ios":"levelo://app?vid=0c3bfe72-1bfa-4fe4-8ec1-abc531b0b6c5"},"vehicle_type_id":"4","last_reported":1761968232,"current_range_meters":16800,"station_id":"ce4bhg12rcd13ifvqf70","pricing_plan_id":"cebpf4jnsgd1na2vs0mg"},{"bike_id":"252ff558-e70b-4ae0-9044-acc668b445bb","system_id":"levelo_inurba_marseille","lat":43.21191,"lon":5.35084,"is_reserved":false,"is_disabled":false,"rental_uris":{"android":"levelo://app?vid=252ff558-e70b-4ae0-9044-acc668b445bb","ios":"levelo://app?vid=252ff558-e70b-4ae0-9044-acc668b445bb"},"vehicle_type_id":"4","last_reported":1761968232,"current_range_meters":16800,"station_id":"st_cvj6sg6p6f1abm77japg","pricing_plan_id":"cebpf4jnsgd1na2vs0mg"},{"bike_id":"f8635fa7-cf04-400c-be4b-c30badbf7257","system_id":"levelo_inurba_marseille","lat":43.28839,"lon":5.39308,"is_reserved":false,"is_disabled":false,"rental_uris":{"android":"levelo://app?vid=f8635fa7-cf04-400c-be4b-c30badbf7257","ios":"levelo://app?vid=f8635fa7-cf04-400c-be4b-c30badbf7257"},"vehicle_type_id":"4","last_reported":1761968232,"current_range_meters":16800,"station_id":"ce4bh2p2rcd13ifvqdi0","pricing_plan_id":"cebpf4jnsgd1na2vs0mg"},{"bike_id":"a4bbad58-8103-47f1-8af1-9667ef07b1bf","system_id":"levelo_inurba_marseille","lat":43.32089,"lon":5.36766,"is_reserved":false,"is_disabled":false,"rental_uris":{"android":"levelo://app?vid=a4bbad58-8103-47f1-8af1-9667ef07b1bf","ios":"levelo://app?vid=a4bbad58-8103-47f1-8af1-9667ef07b1bf"},"vehicle_type_id":"4","last_reported":1761968232,"current_range_meters":16800,"station_id":"ce4bhrh2rcd13ifvqhug","pricing_plan_id":"cebpf4jnsgd1na2vs0mg"},{"bike_id":"7dc69f2c-a186-4073-bb3b-8609d27ab1bc","system_id":"levelo_inurba_marseille","lat":43.29702,"lon":5.37005,"is_reserved":false,"is_disabled":false,"rental_uris":{"android":"levelo://app?vid=7dc69f2c-a186-4073-bb3b-8609d27ab1bc","ios":"levelo://app?vid=7dc69f2c-a186-4073-bb3b-8609d27ab1bc"},"vehicle_type_id":"4","last_reported":1761968232,"current_range_meters":16800,"station_id":"","pricing_plan_id":"cebpf4jnsgd1na2vs0mg"},{"bike_id":"5fa0adeb-5a6a-4138-bcab-9981afe6dbd3","system_id":"levelo_inurba_marseille","lat":43.29324,"lon":5.40167,"is_reserved":false,"is_disabled":false,"rental_uris":{"android":"levelo://app?vid=5fa0adeb-5a6a-4138-bcab-9981afe6dbd3","ios":"levelo://app?vid=5fa0adeb-5a6a-4138-bcab-9981afe6dbd3"},"vehicle_type_id":"4","last_reported":1761968232,"current_range_meters":16800,"station_id":"ce4bh312rcd13ifvqdk0","pricing_plan_id":"cebpf4jnsgd1na2vs0mg"},{"bike_id":"01101f52-783d-4a69-b659-15bcb3f48805","system_id":"levelo_inurba_marseille","lat":43.31174,"lon":5.37881,"is_reserved":false,"is_disabled":false,"rental_uris":{"android":"levelo://app?vid=01101f52-783d-4a69-b659-15bcb3f48805","ios":"levelo://app?vid=01101f52-783d-4a69-b659-15bcb3f48805"},"vehicle_type_id":"4","last_reported":1761968232,"current_range_meters":16800,"station_id":"","pricing_plan_id":"cebpf4jnsgd1na2vs0mg"},{"bike_id":"a762f653-44ee-4015-9ebf-eeced2afc468","system_id":"levelo_inurba_marseille","lat":43.29097,"lon":5.38137,"is_reserved":false,"is_disabled":false,"rental_uris":{"android":"levelo://app?vid=a762f653-44ee-4015-9ebf-eeced2afc468","ios":"levelo://app?vid=a762f653-44ee-4015-9ebf-eeced2afc468"},"vehicle_type_id":"4","last_reported":1761968232,"current_range_meters":17200,"station_id":"ce4bh512rcd13ifvqe2g","pricing_plan_id":"cebpf4jnsgd1na2vs0mg"},{"bike_id":"1da464de-a87c-49fb-939a-9732a97a4ebd","system_id":"levelo_inurba_marseille","lat":43.32093,"lon":5.36797,"is_reserved":false,"is_disabled":false,"rental_uris":{"android":"levelo://app?vid=1da464de-a87c-49fb-939a-9732a97a4ebd","ios":"levelo://app?vid=1da464de-a87c-49fb-939a-9732a97a4ebd"},"vehicle_type_id":"4","last_reported":1761968232,"current_range_meters":17200,"station_id":"ce4bhrh2rcd13ifvqhug","pricing_plan_id":"cebpf4jnsgd1na2vs0mg"},{"bike_id":"bfd47976-4b12-4a3a-abee-96cc29a7d071","system_id":"levelo_inurba_marseille","lat":43.295,"lon":5.43316,"is_reserved":false,"is_disabled":false,"rental_uris":{"android":"levelo://app?vid=bfd47976-4b12-4a3a-abee-96cc29a7d071","ios":"levelo://app?vid=bfd47976-4b12-4a3a-abee-96cc29a7d071"},"vehicle_type_id":"4","last_reported":1761968232,"current_range_meters":17200,"station_id":"st_d3j5ugp08ojc73fj9d10","pricing_plan_id":"cebpf4jnsgd1na2vs0mg"},{"bike_id":"50528c43-7a9b-4eef-9638-721006fb271a","system_id":"levelo_inurba_marseille","lat":43.33802,"lon":5.37435,"is_reserved":false,"is_disabled":false,"rental_uris":{"android":"levelo://app?vid=50528c43-7a9b-4eef-9638-721006fb271a","ios":"levelo://app?vid=50528c43-7a9b-4eef-9638-721006fb271a"},"vehicle_type_id":"4","last_reported":1761968232,"current_range_meters":17200,"station_id":"ce4bh612rcd13ifvqe6g","pricing_plan_id":"cebpf4jnsgd1na2vs0mg"},{"bike_id":"05d599d1-f51d-4238-bef2-6eb3ae368103","system_id":"levelo_inurba_marseille","lat":43.29626,"lon":5.40594,"is_reserved":false,"is_disabled":false,"rental_uris":{"android":"levelo://app?vid=05d599d1-f51d-4238-bef2-6eb3ae368103","ios":"levelo://app?vid=05d599d1-f51d-4238-bef2-6eb3ae368103"},"vehicle_type_id":"4","last_reported":1761968232,"current_range_meters":17200,"station_id":"ce4bh0h2rcd13ifvqd60","pricing_plan_id":"cebpf4jnsgd1na2vs0mg"},{"bike_id":"05a43803-6330-4f9d-8f80-87bc3917bace","system_id":"levelo_inurba_marseille","lat":43.24394,"lon":5.37073,"is_reserved":false,"is_disabled":false,"rental_uris":{"android":"levelo://app?vid=05a43803-6330-4f9d-8f80-87bc3917bace","ios":"levelo://app?vid=05a43803-6330-4f9d-8f80-87bc3917bace"},"vehicle_type_id":"4","last_reported":1761968232,"current_range_meters":17200,"station_id":"ce4bhhh2rcd13ifvqfk0","pricing_plan_id":"cebpf4jnsgd1na2vs0mg"},{"bike_id":"d6ce7f72-c6bf-430a-bf42-380f95b6e446","system_id":"levelo_inurba_marseille","lat":43.30346,"lon":5.41821,"is_reserved":false,"is_disabled":false,"rental_uris":{"android":"levelo://app?vid=d6ce7f72-c6bf-430a-bf42-380f95b6e446","ios":"levelo://app?vid=d6ce7f72-c6bf-430a-bf42-380f95b6e446"},"vehicle_type_id":"4","last_reported":1761968232,"current_range_meters":17200,"station_id":"ce4bhop2rcd13ifvqh7g","pricing_plan_id":"cebpf4jnsgd1na2vs0mg"},{"bike_id":"073cea40-86e7-4c96-a7c3-2239c8214c9c","system_id":"levelo_inurba_marseille","lat":43.30432,"lon":5.3676,"is_reserved":false,"is_disabled":false,"rental_uris":{"android":"levelo://app?vid=073cea40-86e7-4c96-a7c3-2239c8214c9c","ios":"levelo://app?vid=073cea40-86e7-4c96-a7c3-2239c8214c9c"},"vehicle_type_id":"4","last_reported":1761968232,"current_range_meters":17200,"station_id":"","pricing_plan_id":"cebpf4jnsgd1na2vs0mg"},{"bike_id":"81bfe2b2-5e19-404f-88f2-82960f21bac9","system_id":"levelo_inurba_marseille","lat":43.31092,"lon":5.37766,"is_reserved":false,"is_disabled":false,"rental_uris":{"android":"levelo://app?vid=81bfe2b2-5e19-404f-88f2-82960f21bac9","ios":"levelo://app?vid=81bfe2b2-5e19-404f-88f2-82960f21bac9"},"vehicle_type_id":"4","last_reported":1761968232,"current_range_meters":17200,"station_id":"ce4bgt92rcd13ifvqcg0","pricing_plan_id":"cebpf4jnsgd1na2vs0mg"},{"bike_id":"691509a1-2392-4b40-8ee7-349c39deb73b","system_id":"levelo_inurba_marseille","lat":43.27961,"lon":5.43618,"is_reserved":false,"is_disabled":false,"rental_uris":{"android":"levelo://app?vid=691509a1-2392-4b40-8ee7-349c39deb73b","ios":"levelo://app?vid=691509a1-2392-4b40-8ee7-349c39deb73b"},"vehicle_type_id":"4","last_reported":1761968232,"current_range_meters":17600,"station_id":"","pricing_plan_id":"cebpf4jnsgd1na2vs0mg"},{"bike_id":"2885231d-d537-4c8d-92c7-8a794ae849d1","system_id":"levelo_inurba_marseille","lat":43.2843,"lon":5.39177,"is_reserved":false,"is_disabled":false,"rental_uris":{"android":"levelo://app?vid=2885231d-d537-4c8d-92c7-8a794ae849d1","ios":"levelo://app?vid=2885231d-d537-4c8d-92c7-8a794ae849d1"},"vehicle_type_id":"4","last_reported":1761968232,"current_range_meters":17600,"station_id":"ce4bhoh2rcd13ifvqh5g","pricing_plan_id":"cebpf4jnsgd1na2vs0mg"},{"bike_id":"f4c38a56-4a35-49a9-bdea-5d14ae1ba768","system_id":"levelo_inurba_marseille","lat":43.29764,"lon":5.42786,"is_reserved":false,"is_disabled":false,"rental_uris":{"android":"levelo://app?vid=f4c38a56-4a35-49a9-bdea-5d14ae1ba768","ios":"levelo://app?vid=f4c38a56-4a35-49a9-bdea-5d14ae1ba768"},"vehicle_type_id":"4","last_reported":1761968232,"current_range_meters":17600,"station_id":"st_d3md5207bmas73dh9klg","pricing_plan_id":"cebpf4jnsgd1na2vs0mg"},{"bike_id":"94084d75-b1ec-4cf5-8736-b1d0c7eed7ce","system_id":"levelo_inurba_marseille","lat":43.33022,"lon":5.39024,"is_reserved":false,"is_disabled":false,"rental_uris":{"android":"levelo://app?vid=94084d75-b1ec-4cf5-8736-b1d0c7eed7ce","ios":"levelo://app?vid=94084d75-b1ec-4cf5-8736-b1d0c7eed7ce"},"vehicle_type_id":"4","last_reported":1761968232,"current_range_meters":17600,"station_id":"ce4bhr92rcd13ifvqhrg","pricing_plan_id":"cebpf4jnsgd1na2vs0mg"},{"bike_id":"f8840158-3c1d-490b-81e4-a560dcb65e09","system_id":"levelo_inurba_marseille","lat":43.24671,"lon":5.38161,"is_reserved":false,"is_disabled":false,"rental_uris":{"android":"levelo://app?vid=f8840158-3c1d-490b-81e4-a560dcb65e09","ios":"levelo://app?vid=f8840158-3c1d-490b-81e4-a560dcb65e09"},"vehicle_type_id":"4","last_reported":1761968232,"current_range_meters":17600,"station_id":"ce4bhih2rcd13ifvqfr0","pricing_plan_id":"cebpf4jnsgd1na2vs0mg"},{"bike_id":"92c4ecea-a870-4734-96b0-1c8b639bde58","system_id":"levelo_inurba_marseille","lat":43.25348,"lon":5.42219,"is_reserved":false,"is_disabled":false,"rental_uris":{"android":"levelo://app?vid=92c4ecea-a870-4734-96b0-1c8b639bde58","ios":"levelo://app?vid=92c4ecea-a870-4734-96b0-1c8b639bde58"},"vehicle_type_id":"4","last_reported":1761968232,"current_range_meters":17600,"station_id":"st_d2m65c5bi1j21697t3ng","pricing_plan_id":"cebpf4jnsgd1na2vs0mg"},{"bike_id":"899c87b1-6bff-45be-9ccf-1bef8f01d021","system_id":"levelo_inurba_marseille","lat":43.316863,"lon":5.40472,"is_reserved":false,"is_disabled":false,"rental_uris":{"android":"levelo://app?vid=899c87b1-6bff-45be-9ccf-1bef8f01d021","ios":"levelo://app?vid=899c87b1-6bff-45be-9ccf-1bef8f01d021"},"vehicle_type_id":"4","last_reported":1761968232,"current_range_meters":17600,"station_id":"ce4bh012rcd13ifvqd00","pricing_plan_id":"cebpf4jnsgd1na2vs0mg"},{"bike_id":"32632625-b281-4348-990f-071d78c42b84","system_id":"levelo_inurba_marseille","lat":43.26569,"lon":5.39014,"is_reserved":false,"is_disabled":false,"rental_uris":{"android":"levelo://app?vid=32632625-b281-4348-990f-071d78c42b84","ios":"levelo://app?vid=32632625-b281-4348-990f-071d78c42b84"},"vehicle_type_id":"4","last_reported":1761968232,"current_range_meters":17600,"station_id":"","pricing_plan_id":"cebpf4jnsgd1na2vs0mg"},{"bike_id":"33ae0dab-3749-43ff-9793-2b7dc4ecf75d","system_id":"levelo_inurba_marseille","lat":43.25335,"lon":5.42178,"is_reserved":false,"is_disabled":false,"rental_uris":{"android":"levelo://app?vid=33ae0dab-3749-43ff-9793-2b7dc4ecf75d","ios":"levelo://app?vid=33ae0dab-3749-43ff-9793-2b7dc4ecf75d"},"vehicle_type_id":"4","last_reported":1761968232,"current_range_meters":17600,"station_id":"st_d2m65c5bi1j21697t3ng","pricing_plan_id":"cebpf4jnsgd1na2vs0mg"},{"bike_id":"c3de4193-b30f-4c53-a743-4e3a738e9dde","system_id":"levelo_inurba_marseille","lat":43.266762,"lon":5.382742,"is_reserved":false,"is_disabled":false,"rental_uris":{"android":"levelo://app?vid=c3de4193-b30f-4c53-a743-4e3a738e9dde","ios":"levelo://app?vid=c3de4193-b30f-4c53-a743-4e3a738e9dde"},"vehicle_type_id":"4","last_reported":1761968232,"current_range_meters":17600,"station_id":"ce4bhg92rcd13ifvqf90","pricing_plan_id":"cebpf4jnsgd1na2vs0mg"},{"bike_id":"41598790-345d-414f-9e87-720cb432f278","system_id":"levelo_inurba_marseille","lat":43.29477,"lon":5.36227,"is_reserved":false,"is_disabled":false,"rental_uris":{"android":"levelo://app?vid=41598790-345d-414f-9e87-720cb432f278","ios":"levelo://app?vid=41598790-345d-414f-9e87-720cb432f278"},"vehicle_type_id":"4","last_reported":1761968232,"current_range_meters":17600,"station_id":"","pricing_plan_id":"cebpf4jnsgd1na2vs0mg"},{"bike_id":"9ee030a8-2096-47dc-9a00-9b0afd75e3d0","system_id":"levelo_inurba_marseille","lat":43.326571,"lon":5.40987,"is_reserved":false,"is_disabled":false,"rental_uris":{"android":"levelo://app?vid=9ee030a8-2096-47dc-9a00-9b0afd75e3d0","ios":"levelo://app?vid=9ee030a8-2096-47dc-9a00-9b0afd75e3d0"},"vehicle_type_id":"4","last_reported":1761968232,"current_range_meters":17600,"station_id":"ce4bhpp2rcd13ifvqhgg","pricing_plan_id":"cebpf4jnsgd1na2vs0mg"},{"bike_id":"cc0d6697-bf7c-4001-828f-c5cf42c80c59","system_id":"levelo_inurba_marseille","lat":43.21192,"lon":5.350807,"is_reserved":false,"is_disabled":false,"rental_uris":{"android":"levelo://app?vid=cc0d6697-bf7c-4001-828f-c5cf42c80c59","ios":"levelo://app?vid=cc0d6697-bf7c-4001-828f-c5cf42c80c59"},"vehicle_type_id":"4","last_reported":1761968232,"current_range_meters":17600,"station_id":"","pricing_plan_id":"cebpf4jnsgd1na2vs0mg"},{"bike_id":"95381167-f0ea-4747-a5e9-86561d0ac027","system_id":"levelo_inurba_marseille","lat":43.23206,"lon":5.35542,"is_reserved":false,"is_disabled":false,"rental_uris":{"android":"levelo://app?vid=95381167-f0ea-4747-a5e9-86561d0ac027","ios":"levelo://app?vid=95381167-f0ea-4747-a5e9-86561d0ac027"},"vehicle_type_id":"4","last_reported":1761968232,"current_range_meters":17600,"station_id":"ce4bhu92rcd13ifvqi70","pricing_plan_id":"cebpf4jnsgd1na2vs0mg"},{"bike_id":"e0de6d7b-607c-464b-b377-7df5f2e43785","system_id":"levelo_inurba_marseille","lat":43.24692,"lon":5.39283,"is_reserved":false,"is_disabled":false,"rental_uris":{"android":"levelo://app?vid=e0de6d7b-607c-464b-b377-7df5f2e43785","ios":"levelo://app?vid=e0de6d7b-607c-464b-b377-7df5f2e43785"},"vehicle_type_id":"4","last_reported":1761968232,"current_range_meters":18000,"station_id":"","pricing_plan_id":"cebpf4jnsgd1na2vs0mg"},{"bike_id":"bd787a0f-baf0-43a5-a3f2-abe77af6fb04","system_id":"levelo_inurba_marseille","lat":43.311226,"lon":5.377594,"is_reserved":false,"is_disabled":false,"rental_uris":{"android":"levelo://app?vid=bd787a0f-baf0-43a5-a3f2-abe77af6fb04","ios":"levelo://app?vid=bd787a0f-baf0-43a5-a3f2-abe77af6fb04"},"vehicle_type_id":"4","last_reported":1761968232,"current_range_meters":18000,"station_id":"ce4bgt92rcd13ifvqcg0","pricing_plan_id":"cebpf4jnsgd1na2vs0mg"},{"bike_id":"528e3c88-b623-43f9-a15b-cba9eb4d6f1a","system_id":"levelo_inurba_marseille","lat":43.28501,"lon":5.48387,"is_reserved":false,"is_disabled":false,"rental_uris":{"android":"levelo://app?vid=528e3c88-b623-43f9-a15b-cba9eb4d6f1a","ios":"levelo://app?vid=528e3c88-b623-43f9-a15b-cba9eb4d6f1a"},"vehicle_type_id":"4","last_reported":1761968232,"current_range_meters":18000,"station_id":"st_d3svhcjqgbts73a3dn0g","pricing_plan_id":"cebpf4jnsgd1na2vs0mg"},{"bike_id":"423e4bdb-f3c0-4c1d-93d3-678322214a44","system_id":"levelo_inurba_marseille","lat":43.29522,"lon":5.37506,"is_reserved":false,"is_disabled":false,"rental_uris":{"android":"levelo://app?vid=423e4bdb-f3c0-4c1d-93d3-678322214a44","ios":"levelo://app?vid=423e4bdb-f3c0-4c1d-93d3-678322214a44"},"vehicle_type_id":"4","last_reported":1761968232,"current_range_meters":18000,"station_id":"ce4bgkp2rcd13ifvqbmg","pricing_plan_id":"cebpf4jnsgd1na2vs0mg"},{"bike_id":"2f29b28f-dd73-4de7-8eff-8f7b07c0b415","system_id":"levelo_inurba_marseille","lat":43.28077,"lon":5.39659,"is_reserved":false,"is_disabled":false,"rental_uris":{"android":"levelo://app?vid=2f29b28f-dd73-4de7-8eff-8f7b07c0b415","ios":"levelo://app?vid=2f29b28f-dd73-4de7-8eff-8f7b07c0b415"},"vehicle_type_id":"4","last_reported":1761968232,"current_range_meters":18000,"station_id":"ce4bho12rcd13ifvqh2g","pricing_plan_id":"cebpf4jnsgd1na2vs0mg"},{"bike_id":"d51489a6-8bb1-402a-8cc5-308c949ee3c5","system_id":"levelo_inurba_marseille","lat":43.29935,"lon":5.36554,"is_reserved":false,"is_disabled":false,"rental_uris":{"android":"levelo://app?vid=d51489a6-8bb1-402a-8cc5-308c949ee3c5","ios":"levelo://app?vid=d51489a6-8bb1-402a-8cc5-308c949ee3c5"},"vehicle_type_id":"4","last_reported":1761968232,"current_range_meters":18000,"station_id":"ce4bgm92rcd13ifvqbr0","pricing_plan_id":"cebpf4jnsgd1na2vs0mg"},{"bike_id":"50c2c89c-4a9b-41f6-af05-b4e430e07029","system_id":"levelo_inurba_marseille","lat":43.24633,"lon":5.431413,"is_reserved":false,"is_disabled":false,"rental_uris":{"android":"levelo://app?vid=50c2c89c-4a9b-41f6-af05-b4e430e07029","ios":"levelo://app?vid=50c2c89c-4a9b-41f6-af05-b4e430e07029"},"vehicle_type_id":"4","last_reported":1761968232,"current_range_meters":18000,"station_id":"st_d2m6c4gdas8pm72e190g","pricing_plan_id":"cebpf4jnsgd1na2vs0mg"},{"bike_id":"269b302d-3c48-4bb6-a063-2ab24423c89a","system_id":"levelo_inurba_marseille","lat":43.22549,"lon":5.41636,"is_reserved":false,"is_disabled":false,"rental_uris":{"android":"levelo://app?vid=269b302d-3c48-4bb6-a063-2ab24423c89a","ios":"levelo://app?vid=269b302d-3c48-4bb6-a063-2ab24423c89a"},"vehicle_type_id":"4","last_reported":1761968232,"current_range_meters":18000,"station_id":"st_d2o4gvlbi1j2169b742g","pricing_plan_id":"cebpf4jnsgd1na2vs0mg"},{"bike_id":"7c19b7e9-393b-4fa2-b057-4dd7dff08f6d","system_id":"levelo_inurba_marseille","lat":43.21193,"lon":5.35081,"is_reserved":false,"is_disabled":false,"rental_uris":{"android":"levelo://app?vid=7c19b7e9-393b-4fa2-b057-4dd7dff08f6d","ios":"levelo://app?vid=7c19b7e9-393b-4fa2-b057-4dd7dff08f6d"},"vehicle_type_id":"4","last_reported":1761968232,"current_range_meters":18000,"station_id":"st_cvj6sg6p6f1abm77japg","pricing_plan_id":"cebpf4jnsgd1na2vs0mg"},{"bike_id":"1d29646a-da1f-4f66-b008-0838ffb2fa84","system_id":"levelo_inurba_marseille","lat":43.29982,"lon":5.37234,"is_reserved":false,"is_disabled":false,"rental_uris":{"android":"levelo://app?vid=1d29646a-da1f-4f66-b008-0838ffb2fa84","ios":"levelo://app?vid=1d29646a-da1f-4f66-b008-0838ffb2fa84"},"vehicle_type_id":"4","last_reported":1761968232,"current_range_meters":18000,"station_id":"ce4bgr92rcd13ifvqc7g","pricing_plan_id":"cebpf4jnsgd1na2vs0mg"},{"bike_id":"1510912d-5500-4029-8c52-09b2dbc632be","system_id":"levelo_inurba_marseille","lat":43.29444,"lon":5.40129,"is_reserved":false,"is_disabled":true,"rental_uris":{"android":"levelo://app?vid=1510912d-5500-4029-8c52-09b2dbc632be","ios":"levelo://app?vid=1510912d-5500-4029-8c52-09b2dbc632be"},"vehicle_type_id":"4","last_reported":1761968232,"current_range_meters":18800,"station_id":"","pricing_plan_id":"cebpf4jnsgd1na2vs0mg"},{"bike_id":"52b04612-cd38-411f-a68e-6bb9cb24a90a","system_id":"levelo_inurba_marseille","lat":43.24166,"lon":5.3639,"is_reserved":false,"is_disabled":false,"rental_uris":{"android":"levelo://app?vid=52b04612-cd38-411f-a68e-6bb9cb24a90a","ios":"levelo://app?vid=52b04612-cd38-411f-a68e-6bb9cb24a90a"},"vehicle_type_id":"4","last_reported":1761968232,"current_range_meters":18800,"station_id":"cpo36qri1sfpv3e86is0","pricing_plan_id":"cebpf4jnsgd1na2vs0mg"},{"bike_id":"b19c831b-b62d-4d9c-b7dd-fb9f9a5258b2","system_id":"levelo_inurba_marseille","lat":43.29247,"lon":5.40911,"is_reserved":false,"is_disabled":false,"rental_uris":{"android":"levelo://app?vid=b19c831b-b62d-4d9c-b7dd-fb9f9a5258b2","ios":"levelo://app?vid=b19c831b-b62d-4d9c-b7dd-fb9f9a5258b2"},"vehicle_type_id":"4","last_reported":1761968232,"current_range_meters":18800,"station_id":"ce4bh192rcd13ifvqdc0","pricing_plan_id":"cebpf4jnsgd1na2vs0mg"},{"bike_id":"a5cb859b-d1f6-4546-b44d-58f2af5faab8","system_id":"levelo_inurba_marseille","lat":43.30195,"lon":5.38078,"is_reserved":false,"is_disabled":true,"rental_uris":{"android":"levelo://app?vid=a5cb859b-d1f6-4546-b44d-58f2af5faab8","ios":"levelo://app?vid=a5cb859b-d1f6-4546-b44d-58f2af5faab8"},"vehicle_type_id":"4","last_reported":1761968232,"current_range_meters":18800,"station_id":"","pricing_plan_id":"cebpf4jnsgd1na2vs0mg"},{"bike_id":"565cc599-e2e4-4d0e-aef3-effc6ee3ffe7","system_id":"levelo_inurba_marseille","lat":43.2796,"lon":5.41028,"is_reserved":false,"is_disabled":false,"rental_uris":{"android":"levelo://app?vid=565cc599-e2e4-4d0e-aef3-effc6ee3ffe7","ios":"levelo://app?vid=565cc599-e2e4-4d0e-aef3-effc6ee3ffe7"},"vehicle_type_id":"4","last_reported":1761968232,"current_range_meters":18800,"station_id":"ce4bhnp2rcd13ifvqh0g","pricing_plan_id":"cebpf4jnsgd1na2vs0mg"},{"bike_id":"b1803cc9-d598-4777-89eb-a940fcc55563","system_id":"levelo_inurba_marseille","lat":43.282323,"lon":5.390673,"is_reserved":false,"is_disabled":false,"rental_uris":{"android":"levelo://app?vid=b1803cc9-d598-4777-89eb-a940fcc55563","ios":"levelo://app?vid=b1803cc9-d598-4777-89eb-a940fcc55563"},"vehicle_type_id":"4","last_reported":1761968232,"current_range_meters":18800,"station_id":"ce4bhn92rcd13ifvqgsg","pricing_plan_id":"cebpf4jnsgd1na2vs0mg"},{"bike_id":"a599ea86-16bb-4d79-89fe-01c4b3b42dc5","system_id":"levelo_inurba_marseille","lat":43.321108,"lon":5.367787,"is_reserved":false,"is_disabled":false,"rental_uris":{"android":"levelo://app?vid=a599ea86-16bb-4d79-89fe-01c4b3b42dc5","ios":"levelo://app?vid=a599ea86-16bb-4d79-89fe-01c4b3b42dc5"},"vehicle_type_id":"4","last_reported":1761968232,"current_range_meters":18800,"station_id":"ce4bhrh2rcd13ifvqhug","pricing_plan_id":"cebpf4jnsgd1na2vs0mg"},{"bike_id":"578a57cc-dd8f-4b86-9eea-c52481c8e90f","system_id":"levelo_inurba_marseille","lat":43.2119,"lon":5.3511,"is_reserved":false,"is_disabled":false,"rental_uris":{"android":"levelo://app?vid=578a57cc-dd8f-4b86-9eea-c52481c8e90f","ios":"levelo://app?vid=578a57cc-dd8f-4b86-9eea-c52481c8e90f"},"vehicle_type_id":"4","last_reported":1761968232,"current_range_meters":18800,"station_id":"st_cvj6sg6p6f1abm77japg","pricing_plan_id":"cebpf4jnsgd1na2vs0mg"},{"bike_id":"7b437cb9-35cd-4450-9b06-db06467a56fd","system_id":"levelo_inurba_marseille","lat":43.30547,"lon":5.38414,"is_reserved":false,"is_disabled":false,"rental_uris":{"android":"levelo://app?vid=7b437cb9-35cd-4450-9b06-db06467a56fd","ios":"levelo://app?vid=7b437cb9-35cd-4450-9b06-db06467a56fd"},"vehicle_type_id":"4","last_reported":1761968232,"current_range_meters":18800,"station_id":"ce4bgg92rcd13ifvqb30","pricing_plan_id":"cebpf4jnsgd1na2vs0mg"},{"bike_id":"315045c2-e441-4ab0-88a2-e3cf317c7ed8","system_id":"levelo_inurba_marseille","lat":43.27976,"lon":5.41666,"is_reserved":false,"is_disabled":false,"rental_uris":{"android":"levelo://app?vid=315045c2-e441-4ab0-88a2-e3cf317c7ed8","ios":"levelo://app?vid=315045c2-e441-4ab0-88a2-e3cf317c7ed8"},"vehicle_type_id":"4","last_reported":1761968232,"current_range_meters":18800,"station_id":"ce4bho12rcd13ifvqh1g","pricing_plan_id":"cebpf4jnsgd1na2vs0mg"},{"bike_id":"8b6d45f9-5bbc-4e10-ad54-8a2fe3822010","system_id":"levelo_inurba_marseille","lat":43.231882,"lon":5.355521,"is_reserved":false,"is_disabled":false,"rental_uris":{"android":"levelo://app?vid=8b6d45f9-5bbc-4e10-ad54-8a2fe3822010","ios":"levelo://app?vid=8b6d45f9-5bbc-4e10-ad54-8a2fe3822010"},"vehicle_type_id":"4","last_reported":1761968232,"current_range_meters":18800,"station_id":"ce4bhu92rcd13ifvqi70","pricing_plan_id":"cebpf4jnsgd1na2vs0mg"},{"bike_id":"fafa4589-30aa-410f-bafe-e1b351d8b989","system_id":"levelo_inurba_marseille","lat":43.225679,"lon":5.416303,"is_reserved":false,"is_disabled":false,"rental_uris":{"android":"levelo://app?vid=fafa4589-30aa-410f-bafe-e1b351d8b989","ios":"levelo://app?vid=fafa4589-30aa-410f-bafe-e1b351d8b989"},"vehicle_type_id":"4","last_reported":1761968232,"current_range_meters":18800,"station_id":"st_d2o4gvlbi1j2169b742g","pricing_plan_id":"cebpf4jnsgd1na2vs0mg"},{"bike_id":"a73a24c3-2218-4652-a302-2ad81b7034ad","system_id":"levelo_inurba_marseille","lat":43.31818,"lon":5.38776,"is_reserved":false,"is_disabled":false,"rental_uris":{"android":"levelo://app?vid=a73a24c3-2218-4652-a302-2ad81b7034ad","ios":"levelo://app?vid=a73a24c3-2218-4652-a302-2ad81b7034ad"},"vehicle_type_id":"4","last_reported":1761968232,"current_range_meters":18800,"station_id":"","pricing_plan_id":"cebpf4jnsgd1na2vs0mg"},{"bike_id":"ba541a52-7e4e-4241-9791-ae6f1fb03dcd","system_id":"levelo_inurba_marseille","lat":43.31995,"lon":5.41597,"is_reserved":false,"is_disabled":false,"rental_uris":{"android":"levelo://app?vid=ba541a52-7e4e-4241-9791-ae6f1fb03dcd","ios":"levelo://app?vid=ba541a52-7e4e-4241-9791-ae6f1fb03dcd"},"vehicle_type_id":"4","last_reported":1761968232,"current_range_meters":18800,"station_id":"","pricing_plan_id":"cebpf4jnsgd1na2vs0mg"},{"bike_id":"7a007776-f419-4b6a-be07-2f28c145310d","system_id":"levelo_inurba_marseille","lat":43.23067,"lon":5.35488,"is_reserved":false,"is_disabled":false,"rental_uris":{"android":"levelo://app?vid=7a007776-f419-4b6a-be07-2f28c145310d","ios":"levelo://app?vid=7a007776-f419-4b6a-be07-2f28c145310d"},"vehicle_type_id":"4","last_reported":1761968232,"current_range_meters":19200,"station_id":"cpo3342slgdg3j2ifvpg","pricing_plan_id":"cebpf4jnsgd1na2vs0mg"},{"bike_id":"9333afd4-f048-49c2-89dc-273bfde043c8","system_id":"levelo_inurba_marseille","lat":43.290349,"lon":5.399773,"is_reserved":false,"is_disabled":false,"rental_uris":{"android":"levelo://app?vid=9333afd4-f048-49c2-89dc-273bfde043c8","ios":"levelo://app?vid=9333afd4-f048-49c2-89dc-273bfde043c8"},"vehicle_type_id":"4","last_reported":1761968232,"current_range_meters":19200,"station_id":"ce4bh392rcd13ifvqdm0","pricing_plan_id":"cebpf4jnsgd1na2vs0mg"},{"bike_id":"5f6c0a8d-e2ad-48fd-b50a-a8d4b3fee249","system_id":"levelo_inurba_marseille","lat":43.313267,"lon":5.397057,"is_reserved":false,"is_disabled":false,"rental_uris":{"android":"levelo://app?vid=5f6c0a8d-e2ad-48fd-b50a-a8d4b3fee249","ios":"levelo://app?vid=5f6c0a8d-e2ad-48fd-b50a-a8d4b3fee249"},"vehicle_type_id":"4","last_reported":1761968232,"current_range_meters":19200,"station_id":"ce4bgvp2rcd13ifvqcu0","pricing_plan_id":"cebpf4jnsgd1na2vs0mg"},{"bike_id":"be416a4b-0d85-40d4-837f-8b320c6fd7fe","system_id":"levelo_inurba_marseille","lat":43.31328,"lon":5.39697,"is_reserved":false,"is_disabled":false,"rental_uris":{"android":"levelo://app?vid=be416a4b-0d85-40d4-837f-8b320c6fd7fe","ios":"levelo://app?vid=be416a4b-0d85-40d4-837f-8b320c6fd7fe"},"vehicle_type_id":"4","last_reported":1761968232,"current_range_meters":19200,"station_id":"ce4bgvp2rcd13ifvqcu0","pricing_plan_id":"cebpf4jnsgd1na2vs0mg"},{"bike_id":"0fbfcfc6-90e9-443f-8359-9b4aaad542c5","system_id":"levelo_inurba_marseille","lat":43.3026,"lon":5.40065,"is_reserved":false,"is_disabled":false,"rental_uris":{"android":"levelo://app?vid=0fbfcfc6-90e9-443f-8359-9b4aaad542c5","ios":"levelo://app?vid=0fbfcfc6-90e9-443f-8359-9b4aaad542c5"},"vehicle_type_id":"4","last_reported":1761968232,"current_range_meters":19200,"station_id":"ce4bgvh2rcd13ifvqcs0","pricing_plan_id":"cebpf4jnsgd1na2vs0mg"},{"bike_id":"7b0eaa70-7657-4098-8e47-f6fae1ad1d21","system_id":"levelo_inurba_marseille","lat":43.258642,"lon":5.398962,"is_reserved":false,"is_disabled":false,"rental_uris":{"android":"levelo://app?vid=7b0eaa70-7657-4098-8e47-f6fae1ad1d21","ios":"levelo://app?vid=7b0eaa70-7657-4098-8e47-f6fae1ad1d21"},"vehicle_type_id":"4","last_reported":1761968232,"current_range_meters":19200,"station_id":"ce4bhl92rcd13ifvqghg","pricing_plan_id":"cebpf4jnsgd1na2vs0mg"},{"bike_id":"6ed35159-3be2-4bda-bd2a-442bc863eea1","system_id":"levelo_inurba_marseille","lat":43.241696,"lon":5.397347,"is_reserved":false,"is_disabled":false,"rental_uris":{"android":"levelo://app?vid=6ed35159-3be2-4bda-bd2a-442bc863eea1","ios":"levelo://app?vid=6ed35159-3be2-4bda-bd2a-442bc863eea1"},"vehicle_type_id":"4","last_reported":1761968232,"current_range_meters":19200,"station_id":"ce4bhn12rcd13ifvqgpg","pricing_plan_id":"cebpf4jnsgd1na2vs0mg"},{"bike_id":"baac65c3-b3b0-465b-81d8-77cf747e3890","system_id":"levelo_inurba_marseille","lat":43.231454,"lon":5.437249,"is_reserved":false,"is_disabled":false,"rental_uris":{"android":"levelo://app?vid=baac65c3-b3b0-465b-81d8-77cf747e3890","ios":"levelo://app?vid=baac65c3-b3b0-465b-81d8-77cf747e3890"},"vehicle_type_id":"4","last_reported":1761968232,"current_range_meters":19200,"station_id":"ce4bhmp2rcd13ifvqgog","pricing_plan_id":"cebpf4jnsgd1na2vs0mg"},{"bike_id":"08ca0fcb-4f6d-4943-afc7-cc2c4efa4d43","system_id":"levelo_inurba_marseille","lat":43.30257,"lon":5.40083,"is_reserved":false,"is_disabled":false,"rental_uris":{"android":"levelo://app?vid=08ca0fcb-4f6d-4943-afc7-cc2c4efa4d43","ios":"levelo://app?vid=08ca0fcb-4f6d-4943-afc7-cc2c4efa4d43"},"vehicle_type_id":"4","last_reported":1761968232,"current_range_meters":19200,"station_id":"ce4bgvh2rcd13ifvqcs0","pricing_plan_id":"cebpf4jnsgd1na2vs0mg"},{"bike_id":"c7d57f9b-8ba9-4435-ac3b-54d333c0b4c7","system_id":"levelo_inurba_marseille","lat":43.323603,"lon":5.36724,"is_reserved":false,"is_disabled":false,"rental_uris":{"android":"levelo://app?vid=c7d57f9b-8ba9-4435-ac3b-54d333c0b4c7","ios":"levelo://app?vid=c7d57f9b-8ba9-4435-ac3b-54d333c0b4c7"},"vehicle_type_id":"4","last_reported":1761968232,"current_range_meters":19600,"station_id":"ce4bhsh2rcd13ifvqi2g","pricing_plan_id":"cebpf4jnsgd1na2vs0mg"},{"bike_id":"9f6590ad-05b0-412d-adcc-b59bb6f4219b","system_id":"levelo_inurba_marseille","lat":43.28682,"lon":5.38668,"is_reserved":false,"is_disabled":false,"rental_uris":{"android":"levelo://app?vid=9f6590ad-05b0-412d-adcc-b59bb6f4219b","ios":"levelo://app?vid=9f6590ad-05b0-412d-adcc-b59bb6f4219b"},"vehicle_type_id":"4","last_reported":1761968232,"current_range_meters":19600,"station_id":"ce4bh492rcd13ifvqdug","pricing_plan_id":"cebpf4jnsgd1na2vs0mg"},{"bike_id":"137b611e-0d30-42e5-bd0e-4ca1b1f19b3a","system_id":"levelo_inurba_marseille","lat":43.279936,"lon":5.400085,"is_reserved":false,"is_disabled":false,"rental_uris":{"android":"levelo://app?vid=137b611e-0d30-42e5-bd0e-4ca1b1f19b3a","ios":"levelo://app?vid=137b611e-0d30-42e5-bd0e-4ca1b1f19b3a"},"vehicle_type_id":"4","last_reported":1761968232,"current_range_meters":19600,"station_id":"ce4bho92rcd13ifvqh4g","pricing_plan_id":"cebpf4jnsgd1na2vs0mg"},{"bike_id":"2cb8edf4-93a6-4f66-afc5-404e8daea8b2","system_id":"levelo_inurba_marseille","lat":43.28837,"lon":5.3931,"is_reserved":false,"is_disabled":false,"rental_uris":{"android":"levelo://app?vid=2cb8edf4-93a6-4f66-afc5-404e8daea8b2","ios":"levelo://app?vid=2cb8edf4-93a6-4f66-afc5-404e8daea8b2"},"vehicle_type_id":"4","last_reported":1761968232,"current_range_meters":19600,"station_id":"ce4bh2p2rcd13ifvqdi0","pricing_plan_id":"cebpf4jnsgd1na2vs0mg"},{"bike_id":"5260471c-a8d0-403f-b0af-01ef786aefa7","system_id":"levelo_inurba_marseille","lat":43.30333,"lon":5.40447,"is_reserved":false,"is_disabled":false,"rental_uris":{"android":"levelo://app?vid=5260471c-a8d0-403f-b0af-01ef786aefa7","ios":"levelo://app?vid=5260471c-a8d0-403f-b0af-01ef786aefa7"},"vehicle_type_id":"4","last_reported":1761968232,"current_range_meters":19600,"station_id":"ce4bh012rcd13ifvqd10","pricing_plan_id":"cebpf4jnsgd1na2vs0mg"},{"bike_id":"4752db0e-0fb9-4ba7-acbd-758f3586ccbe","system_id":"levelo_inurba_marseille","lat":43.284517,"lon":5.358669,"is_reserved":false,"is_disabled":false,"rental_uris":{"android":"levelo://app?vid=4752db0e-0fb9-4ba7-acbd-758f3586ccbe","ios":"levelo://app?vid=4752db0e-0fb9-4ba7-acbd-758f3586ccbe"},"vehicle_type_id":"4","last_reported":1761968232,"current_range_meters":19600,"station_id":"ce4bhah2rcd13ifvqei0","pricing_plan_id":"cebpf4jnsgd1na2vs0mg"},{"bike_id":"73063043-9496-40ea-a825-0d8479e1a628","system_id":"levelo_inurba_marseille","lat":43.231957,"lon":5.35556,"is_reserved":false,"is_disabled":false,"rental_uris":{"android":"levelo://app?vid=73063043-9496-40ea-a825-0d8479e1a628","ios":"levelo://app?vid=73063043-9496-40ea-a825-0d8479e1a628"},"vehicle_type_id":"4","last_reported":1761968232,"current_range_meters":19600,"station_id":"ce4bhu92rcd13ifvqi70","pricing_plan_id":"cebpf4jnsgd1na2vs0mg"},{"bike_id":"7e3729f9-efd7-433b-a67d-1dcfde2c27b9","system_id":"levelo_inurba_marseille","lat":43.24665,"lon":5.38157,"is_reserved":false,"is_disabled":false,"rental_uris":{"android":"levelo://app?vid=7e3729f9-efd7-433b-a67d-1dcfde2c27b9","ios":"levelo://app?vid=7e3729f9-efd7-433b-a67d-1dcfde2c27b9"},"vehicle_type_id":"4","last_reported":1761968232,"current_range_meters":19600,"station_id":"ce4bhih2rcd13ifvqfr0","pricing_plan_id":"cebpf4jnsgd1na2vs0mg"},{"bike_id":"f6abd6aa-e1ff-44c1-9bc9-f87119a13625","system_id":"levelo_inurba_marseille","lat":43.29936,"lon":5.36545,"is_reserved":false,"is_disabled":false,"rental_uris":{"android":"levelo://app?vid=f6abd6aa-e1ff-44c1-9bc9-f87119a13625","ios":"levelo://app?vid=f6abd6aa-e1ff-44c1-9bc9-f87119a13625"},"vehicle_type_id":"4","last_reported":1761968232,"current_range_meters":19600,"station_id":"ce4bgm92rcd13ifvqbr0","pricing_plan_id":"cebpf4jnsgd1na2vs0mg"},{"bike_id":"2a32e756-8076-4328-a472-196c9c9d4e25","system_id":"levelo_inurba_marseille","lat":43.28612,"lon":5.37066,"is_reserved":false,"is_disabled":false,"rental_uris":{"android":"levelo://app?vid=2a32e756-8076-4328-a472-196c9c9d4e25","ios":"levelo://app?vid=2a32e756-8076-4328-a472-196c9c9d4e25"},"vehicle_type_id":"4","last_reported":1761968232,"current_range_meters":19600,"station_id":"ce4bht12rcd13ifvqi60","pricing_plan_id":"cebpf4jnsgd1na2vs0mg"},{"bike_id":"a88c0b3b-374f-4852-9490-eff627f91ef1","system_id":"levelo_inurba_marseille","lat":43.23184,"lon":5.39985,"is_reserved":false,"is_disabled":false,"rental_uris":{"android":"levelo://app?vid=a88c0b3b-374f-4852-9490-eff627f91ef1","ios":"levelo://app?vid=a88c0b3b-374f-4852-9490-eff627f91ef1"},"vehicle_type_id":"4","last_reported":1761968232,"current_range_meters":20000,"station_id":"ce4bhn12rcd13ifvqgqg","pricing_plan_id":"cebpf4jnsgd1na2vs0mg"},{"bike_id":"12a18d4a-7b67-4876-88d1-1820554fc400","system_id":"levelo_inurba_marseille","lat":43.29747,"lon":5.38128,"is_reserved":false,"is_disabled":false,"rental_uris":{"android":"levelo://app?vid=12a18d4a-7b67-4876-88d1-1820554fc400","ios":"levelo://app?vid=12a18d4a-7b67-4876-88d1-1820554fc400"},"vehicle_type_id":"4","last_reported":1761968232,"current_range_meters":20000,"station_id":"","pricing_plan_id":"cebpf4jnsgd1na2vs0mg"},{"bike_id":"1407ca8e-dc3a-4c83-932b-399155c17789","system_id":"levelo_inurba_marseille","lat":43.27921,"lon":5.37991,"is_reserved":false,"is_disabled":false,"rental_uris":{"android":"levelo://app?vid=1407ca8e-dc3a-4c83-932b-399155c17789","ios":"levelo://app?vid=1407ca8e-dc3a-4c83-932b-399155c17789"},"vehicle_type_id":"4","last_reported":1761968232,"current_range_meters":20000,"station_id":"ce4bhf92rcd13ifvqf50","pricing_plan_id":"cebpf4jnsgd1na2vs0mg"},{"bike_id":"6fe573dd-e57f-47d2-ac2b-34dc8dfe6938","system_id":"levelo_inurba_marseille","lat":43.30912,"lon":5.39648,"is_reserved":false,"is_disabled":false,"rental_uris":{"android":"levelo://app?vid=6fe573dd-e57f-47d2-ac2b-34dc8dfe6938","ios":"levelo://app?vid=6fe573dd-e57f-47d2-ac2b-34dc8dfe6938"},"vehicle_type_id":"4","last_reported":1761968232,"current_range_meters":20000,"station_id":"ce4bh012rcd13ifvqcv0","pricing_plan_id":"cebpf4jnsgd1na2vs0mg"},{"bike_id":"aa470cf9-90e1-4c51-a330-5363d023f48a","system_id":"levelo_inurba_marseille","lat":43.250858,"lon":5.395261,"is_reserved":false,"is_disabled":false,"rental_uris":{"android":"levelo://app?vid=aa470cf9-90e1-4c51-a330-5363d023f48a","ios":"levelo://app?vid=aa470cf9-90e1-4c51-a330-5363d023f48a"},"vehicle_type_id":"4","last_reported":1761968232,"current_range_meters":20000,"station_id":"ce4bhm12rcd13ifvqgkg","pricing_plan_id":"cebpf4jnsgd1na2vs0mg"},{"bike_id":"84f1bfac-8d21-499b-b8e1-fdc8049e10ac","system_id":"levelo_inurba_marseille","lat":43.31277,"lon":5.37778,"is_reserved":false,"is_disabled":false,"rental_uris":{"android":"levelo://app?vid=84f1bfac-8d21-499b-b8e1-fdc8049e10ac","ios":"levelo://app?vid=84f1bfac-8d21-499b-b8e1-fdc8049e10ac"},"vehicle_type_id":"4","last_reported":1761968232,"current_range_meters":20000,"station_id":"","pricing_plan_id":"cebpf4jnsgd1na2vs0mg"},{"bike_id":"708ba87a-b6fe-412b-b52f-b23f135c4cda","system_id":"levelo_inurba_marseille","lat":43.26814,"lon":5.402532,"is_reserved":false,"is_disabled":false,"rental_uris":{"android":"levelo://app?vid=708ba87a-b6fe-412b-b52f-b23f135c4cda","ios":"levelo://app?vid=708ba87a-b6fe-412b-b52f-b23f135c4cda"},"vehicle_type_id":"4","last_reported":1761968232,"current_range_meters":20000,"station_id":"ce501612rcd8frsf0b60","pricing_plan_id":"cebpf4jnsgd1na2vs0mg"},{"bike_id":"522fc62f-2a7e-423e-9898-b8a28a460186","system_id":"levelo_inurba_marseille","lat":43.231896,"lon":5.35553,"is_reserved":false,"is_disabled":false,"rental_uris":{"android":"levelo://app?vid=522fc62f-2a7e-423e-9898-b8a28a460186","ios":"levelo://app?vid=522fc62f-2a7e-423e-9898-b8a28a460186"},"vehicle_type_id":"4","last_reported":1761968232,"current_range_meters":20400,"station_id":"ce4bhu92rcd13ifvqi70","pricing_plan_id":"cebpf4jnsgd1na2vs0mg"},{"bike_id":"fd2a3e15-d6ed-4064-b7e2-d83799925ad0","system_id":"levelo_inurba_marseille","lat":43.2975,"lon":5.42778,"is_reserved":false,"is_disabled":false,"rental_uris":{"android":"levelo://app?vid=fd2a3e15-d6ed-4064-b7e2-d83799925ad0","ios":"levelo://app?vid=fd2a3e15-d6ed-4064-b7e2-d83799925ad0"},"vehicle_type_id":"4","last_reported":1761968232,"current_range_meters":20400,"station_id":"st_d3md5207bmas73dh9klg","pricing_plan_id":"cebpf4jnsgd1na2vs0mg"},{"bike_id":"8880e74f-69a6-415f-ad7a-6283909c5b52","system_id":"levelo_inurba_marseille","lat":43.281547,"lon":5.426398,"is_reserved":false,"is_disabled":false,"rental_uris":{"android":"levelo://app?vid=8880e74f-69a6-415f-ad7a-6283909c5b52","ios":"levelo://app?vid=8880e74f-69a6-415f-ad7a-6283909c5b52"},"vehicle_type_id":"4","last_reported":1761968232,"current_range_meters":20400,"station_id":"ce4bhnh2rcd13ifvqgug","pricing_plan_id":"cebpf4jnsgd1na2vs0mg"},{"bike_id":"c311d06a-36a2-4cf8-97af-3971cfd0603c","system_id":"levelo_inurba_marseille","lat":43.308974,"lon":5.396409,"is_reserved":false,"is_disabled":false,"rental_uris":{"android":"levelo://app?vid=c311d06a-36a2-4cf8-97af-3971cfd0603c","ios":"levelo://app?vid=c311d06a-36a2-4cf8-97af-3971cfd0603c"},"vehicle_type_id":"4","last_reported":1761968232,"current_range_meters":20400,"station_id":"ce4bh012rcd13ifvqcv0","pricing_plan_id":"cebpf4jnsgd1na2vs0mg"},{"bike_id":"2be8c129-7a46-40ae-99d3-f5119ac58dd4","system_id":"levelo_inurba_marseille","lat":43.31073,"lon":5.38364,"is_reserved":false,"is_disabled":false,"rental_uris":{"android":"levelo://app?vid=2be8c129-7a46-40ae-99d3-f5119ac58dd4","ios":"levelo://app?vid=2be8c129-7a46-40ae-99d3-f5119ac58dd4"},"vehicle_type_id":"4","last_reported":1761968232,"current_range_meters":20400,"station_id":"ce4bgv92rcd13ifvqcr0","pricing_plan_id":"cebpf4jnsgd1na2vs0mg"},{"bike_id":"423802bb-722e-4533-9018-c0f75cce34a6","system_id":"levelo_inurba_marseille","lat":43.30652,"lon":5.38183,"is_reserved":false,"is_disabled":false,"rental_uris":{"android":"levelo://app?vid=423802bb-722e-4533-9018-c0f75cce34a6","ios":"levelo://app?vid=423802bb-722e-4533-9018-c0f75cce34a6"},"vehicle_type_id":"4","last_reported":1761968232,"current_range_meters":20800,"station_id":"","pricing_plan_id":"cebpf4jnsgd1na2vs0mg"},{"bike_id":"daa00c96-7d38-4176-b547-bad6015c4790","system_id":"levelo_inurba_marseille","lat":43.286682,"lon":5.363499,"is_reserved":false,"is_disabled":false,"rental_uris":{"android":"levelo://app?vid=daa00c96-7d38-4176-b547-bad6015c4790","ios":"levelo://app?vid=daa00c96-7d38-4176-b547-bad6015c4790"},"vehicle_type_id":"4","last_reported":1761968232,"current_range_meters":20800,"station_id":"","pricing_plan_id":"cebpf4jnsgd1na2vs0mg"},{"bike_id":"1af74fe3-6ad6-4b8f-af9a-1a1810def892","system_id":"levelo_inurba_marseille","lat":43.2815,"lon":5.42634,"is_reserved":false,"is_disabled":false,"rental_uris":{"android":"levelo://app?vid=1af74fe3-6ad6-4b8f-af9a-1a1810def892","ios":"levelo://app?vid=1af74fe3-6ad6-4b8f-af9a-1a1810def892"},"vehicle_type_id":"4","last_reported":1761968232,"current_range_meters":20800,"station_id":"ce4bhnh2rcd13ifvqgug","pricing_plan_id":"cebpf4jnsgd1na2vs0mg"},{"bike_id":"2ea8b295-6a13-47c7-8965-8106cf796d7e","system_id":"levelo_inurba_marseille","lat":43.31345,"lon":5.37668,"is_reserved":false,"is_disabled":false,"rental_uris":{"android":"levelo://app?vid=2ea8b295-6a13-47c7-8965-8106cf796d7e","ios":"levelo://app?vid=2ea8b295-6a13-47c7-8965-8106cf796d7e"},"vehicle_type_id":"4","last_reported":1761968232,"current_range_meters":20800,"station_id":"","pricing_plan_id":"cebpf4jnsgd1na2vs0mg"},{"bike_id":"72667045-b816-48de-95ee-6e55de9900ca","system_id":"levelo_inurba_marseille","lat":43.25094,"lon":5.40331,"is_reserved":false,"is_disabled":true,"rental_uris":{"android":"levelo://app?vid=72667045-b816-48de-95ee-6e55de9900ca","ios":"levelo://app?vid=72667045-b816-48de-95ee-6e55de9900ca"},"vehicle_type_id":"4","last_reported":1761968232,"current_range_meters":20800,"station_id":"ce4bhlh2rcd13ifvqgig","pricing_plan_id":"cebpf4jnsgd1na2vs0mg"},{"bike_id":"82307e5d-1d88-4836-b33e-a10a4da30997","system_id":"levelo_inurba_marseille","lat":43.265536,"lon":5.403304,"is_reserved":false,"is_disabled":false,"rental_uris":{"android":"levelo://app?vid=82307e5d-1d88-4836-b33e-a10a4da30997","ios":"levelo://app?vid=82307e5d-1d88-4836-b33e-a10a4da30997"},"vehicle_type_id":"4","last_reported":1761968232,"current_range_meters":20800,"station_id":"ce4bhmp2rcd13ifvqgng","pricing_plan_id":"cebpf4jnsgd1na2vs0mg"},{"bike_id":"9b0d9e28-79a3-4616-8e57-580f61942c1e","system_id":"levelo_inurba_marseille","lat":43.28784,"lon":5.38375,"is_reserved":false,"is_disabled":false,"rental_uris":{"android":"levelo://app?vid=9b0d9e28-79a3-4616-8e57-580f61942c1e","ios":"levelo://app?vid=9b0d9e28-79a3-4616-8e57-580f61942c1e"},"vehicle_type_id":"4","last_reported":1761968232,"current_range_meters":20800,"station_id":"","pricing_plan_id":"cebpf4jnsgd1na2vs0mg"},