{"last_updated":1774937386,"ttl":60,"version":"2.2","data":{"bikes":[{"bike_id":"ca22943a-5084-4d52-8de5-951e8b6fe4f6","system_id":"levelo_inurba_marseille","lat":43.28267,"lon":5.3507,"is_reserved":false,"is_disabled":false,"rental_uris":{"android":"levelo://app?vid=ca22943a-5084-4d52-8de5-951e8b6fe4f6","ios":"levelo://app?vid=ca22943a-5084-4d52-8de5-951e8b6fe4f6"},"vehicle_type_id":"4","last_reported":1774937387,"current_range_meters":2800,"station_id":"ce4bhbp2rcd13ifvqerg","pricing_plan_id":"cebpf4jnsgd1na2vs0mg"},{"bike_id":"722178ea-9ec4-4a61-a4f3-4a88327f65c6","system_id":"levelo_inurba_marseille","lat":43.32363,"lon":5.36745,"is_reserved":false,"is_disabled":false,"rental_uris":{"android":"levelo://app?vid=722178ea-9ec4-4a61-a4f3-4a88327f65c6","ios":"levelo://app?vid=722178ea-9ec4-4a61-a4f3-4a88327f65c6"},"vehicle_type_id":"4","last_reported":1774937387,"current_range_meters":2800,"station_id":"ce4bhsh2rcd13ifvqi2g","pricing_plan_id":"cebpf4jnsgd1na2vs0mg"},{"bike_id":"c391dbe9-4630-4c6a-8c73-f484300cb6ff","system_id":"levelo_inurba_marseille","lat":43.29204,"lon":5.3606,"is_reserved":false,"is_disabled":false,"rental_uris":{"android":"levelo://app?vid=c391dbe9-4630-4c6a-8c73-f484300cb6ff","ios":"levelo://app?vid=c391dbe9-4630-4c6a-8c73-f484300cb6ff"},"vehicle_type_id":"4","last_reported":1774937387,"current_range_meters":2800,"station_id":"ce4bhbh2rcd13ifvqeqg","pricing_plan_id":"cebpf4jnsgd1na2vs0mg"},{"bike_id":"50073017-1677-4537-86aa-69c1f04d183e","system_id":"levelo_inurba_marseille","lat":43.31204,"lon":5.36881,"is_reserved":false,"is_disabled":false,"rental_uris":{"android":"levelo://app?vid=50073017-1677-4537-86aa-69c1f04d183e","ios":"levelo://app?vid=50073017-1677-4537-86aa-69c1f04d183e"},"vehicle_type_id":"4","last_reported":1774937387,"current_range_meters":2800,"station_id":"ce4bgl92rcd13ifvqbq0","pricing_plan_id":"cebpf4jnsgd1na2vs0mg"},{"bike_id":"3054983a-1a1c-4947-aa35-bcfaa4fa8110","system_id":"levelo_inurba_marseille","lat":43.2539,"lon":5.4221,"is_reserved":false,"is_disabled":false,"rental_uris":{"android":"levelo://app?vid=3054983a-1a1c-4947-aa35-bcfaa4fa8110","ios":"levelo://app?vid=3054983a-1a1c-4947-aa35-bcfaa4fa8110"},"vehicle_type_id":"4","last_reported":1774937387,"current_range_meters":3200,"station_id":"st_d2m65c5bi1j21697t3ng","pricing_plan_id":"cebpf4jnsgd1na2vs0mg"},{"bike_id":"120d2fdf-12b3-4cc8-a702-4d55e159dea6","system_id":"levelo_inurba_marseille","lat":43.288502,"lon":5.39321,"is_reserved":false,"is_disabled":false,"rental_uris":{"android":"levelo://app?vid=120d2fdf-12b3-4cc8-a702-4d55e159dea6","ios":"levelo://app?vid=120d2fdf-12b3-4cc8-a702-4d55e159dea6"},"vehicle_type_id":"4","last_reported":1774937387,"current_range_meters":3200,"station_id":"","pricing_plan_id":"cebpf4jnsgd1na2vs0mg"},{"bike_id":"20244f04-01b7-4a8f-84fd-29ab0c5adae9","system_id":"levelo_inurba_marseille","lat":43.3023,"lon":5.38145,"is_reserved":false,"is_disabled":false,"rental_uris":{"android":"levelo://app?vid=20244f04-01b7-4a8f-84fd-29ab0c5adae9","ios":"levelo://app?vid=20244f04-01b7-4a8f-84fd-29ab0c5adae9"},"vehicle_type_id":"4","last_reported":1774937387,"current_range_meters":3200,"station_id":"","pricing_plan_id":"cebpf4jnsgd1na2vs0mg"},{"bike_id":"53f142a0-3955-4808-b4c6-e1524bc3e079","system_id":"levelo_inurba_marseille","lat":43.21215,"lon":5.35076,"is_reserved":false,"is_disabled":false,"rental_uris":{"android":"levelo://app?vid=53f142a0-3955-4808-b4c6-e1524bc3e079","ios":"levelo://app?vid=53f142a0-3955-4808-b4c6-e1524bc3e079"},"vehicle_type_id":"4","last_reported":1774937387,"current_range_meters":3200,"station_id":"st_cvj6sg6p6f1abm77japg","pricing_plan_id":"cebpf4jnsgd1na2vs0mg"},{"bike_id":"085c38b5-98f5-41a6-a385-8b6d28bfb2c1","system_id":"levelo_inurba_marseille","lat":43.2251,"lon":5.34855,"is_reserved":false,"is_disabled":false,"rental_uris":{"android":"levelo://app?vid=085c38b5-98f5-41a6-a385-8b6d28bfb2c1","ios":"levelo://app?vid=085c38b5-98f5-41a6-a385-8b6d28bfb2c1"},"vehicle_type_id":"4","last_reported":1774937387,"current_range_meters":3200,"station_id":"st_cvj5dfep6f1abm77gieg","pricing_plan_id":"cebpf4jnsgd1na2vs0mg"},{"bike_id":"63c8cfb1-7222-4c68-9016-7757fb9d6b03","system_id":"levelo_inurba_marseille","lat":43.25352,"lon":5.42165,"is_reserved":false,"is_disabled":false,"rental_uris":{"android":"levelo://app?vid=63c8cfb1-7222-4c68-9016-7757fb9d6b03","ios":"levelo://app?vid=63c8cfb1-7222-4c68-9016-7757fb9d6b03"},"vehicle_type_id":"4","last_reported":1774937387,"current_range_meters":3200,"station_id":"st_d2m65c5bi1j21697t3ng","pricing_plan_id":"cebpf4jnsgd1na2vs0mg"},{"bike_id":"bd22810e-4e9c-45ac-8057-6360dc8fe6a3","system_id":"levelo_inurba_marseille","lat":43.24169,"lon":5.3639,"is_reserved":false,"is_disabled":false,"rental_uris":{"android":"levelo://app?vid=bd22810e-4e9c-45ac-8057-6360dc8fe6a3","ios":"levelo://app?vid=bd22810e-4e9c-45ac-8057-6360dc8fe6a3"},"vehicle_type_id":"4","last_reported":1774937387,"current_range_meters":3200,"station_id":"cpo36qri1sfpv3e86is0","pricing_plan_id":"cebpf4jnsgd1na2vs0mg"},{"bike_id":"ebce83ed-784a-4b68-a45e-b4f33e9e9833","system_id":"levelo_inurba_marseille","lat":43.25573,"lon":5.38236,"is_reserved":false,"is_disabled":false,"rental_uris":{"android":"levelo://app?vid=ebce83ed-784a-4b68-a45e-b4f33e9e9833","ios":"levelo://app?vid=ebce83ed-784a-4b68-a45e-b4f33e9e9833"},"vehicle_type_id":"4","last_reported":1774937387,"current_range_meters":3200,"station_id":"ce4bhih2rcd13ifvqfs0","pricing_plan_id":"cebpf4jnsgd1na2vs0mg"},{"bike_id":"b90caad3-7060-4253-981e-42cd0d5fd64b","system_id":"levelo_inurba_marseille","lat":43.28472,"lon":5.484,"is_reserved":false,"is_disabled":false,"rental_uris":{"android":"levelo://app?vid=b90caad3-7060-4253-981e-42cd0d5fd64b","ios":"levelo://app?vid=b90caad3-7060-4253-981e-42cd0d5fd64b"},"vehicle_type_id":"4","last_reported":1774937387,"current_range_meters":3200,"station_id":"st_d3svhcjqgbts73a3dn0g","pricing_plan_id":"cebpf4jnsgd1na2vs0mg"},{"bike_id":"fe448dd6-41e6-4316-8322-1ef9307a87c2","system_id":"levelo_inurba_marseille","lat":43.2389,"lon":5.37465,"is_reserved":false,"is_disabled":true,"rental_uris":{"android":"levelo://app?vid=fe448dd6-41e6-4316-8322-1ef9307a87c2","ios":"levelo://app?vid=fe448dd6-41e6-4316-8322-1ef9307a87c2"},"vehicle_type_id":"4","last_reported":1774937387,"current_range_meters":3200,"station_id":"st_d6sm7csbq4hs73f8fpjg","pricing_plan_id":"cebpf4jnsgd1na2vs0mg"},{"bike_id":"a8d48fae-eaa9-4a06-bd89-90a4e6ac32dd","system_id":"levelo_inurba_marseille","lat":43.30158,"lon":5.38065,"is_reserved":false,"is_disabled":false,"rental_uris":{"android":"levelo://app?vid=a8d48fae-eaa9-4a06-bd89-90a4e6ac32dd","ios":"levelo://app?vid=a8d48fae-eaa9-4a06-bd89-90a4e6ac32dd"},"vehicle_type_id":"4","last_reported":1774937387,"current_range_meters":3200,"station_id":"ce4bgjp2rcd13ifvqbh0","pricing_plan_id":"cebpf4jnsgd1na2vs0mg"},{"bike_id":"e0acb046-6693-4053-a5e7-d9d15545ace7","system_id":"levelo_inurba_marseille","lat":43.29571,"lon":5.39983,"is_reserved":false,"is_disabled":false,"rental_uris":{"android":"levelo://app?vid=e0acb046-6693-4053-a5e7-d9d15545ace7","ios":"levelo://app?vid=e0acb046-6693-4053-a5e7-d9d15545ace7"},"vehicle_type_id":"4","last_reported":1774937387,"current_range_meters":3200,"station_id":"ce4bh312rcd13ifvqdj0","pricing_plan_id":"cebpf4jnsgd1na2vs0mg"},{"bike_id":"fc32dc7e-6e7a-49b4-bf5c-5e107dd0a161","system_id":"levelo_inurba_marseille","lat":43.2541,"lon":5.41898,"is_reserved":false,"is_disabled":false,"rental_uris":{"android":"levelo://app?vid=fc32dc7e-6e7a-49b4-bf5c-5e107dd0a161","ios":"levelo://app?vid=fc32dc7e-6e7a-49b4-bf5c-5e107dd0a161"},"vehicle_type_id":"4","last_reported":1774937387,"current_range_meters":3200,"station_id":"","pricing_plan_id":"cebpf4jnsgd1na2vs0mg"},{"bike_id":"602b4b7b-8dc9-4891-9a25-26fd34b63857","system_id":"levelo_inurba_marseille","lat":43.24384,"lon":5.3706,"is_reserved":false,"is_disabled":false,"rental_uris":{"android":"levelo://app?vid=602b4b7b-8dc9-4891-9a25-26fd34b63857","ios":"levelo://app?vid=602b4b7b-8dc9-4891-9a25-26fd34b63857"},"vehicle_type_id":"4","last_reported":1774937387,"current_range_meters":3200,"station_id":"ce4bhhh2rcd13ifvqfk0","pricing_plan_id":"cebpf4jnsgd1na2vs0mg"},{"bike_id":"513a368e-61d8-4625-833c-a12035a4bb4b","system_id":"levelo_inurba_marseille","lat":43.27619,"lon":5.3611,"is_reserved":false,"is_disabled":false,"rental_uris":{"android":"levelo://app?vid=513a368e-61d8-4625-833c-a12035a4bb4b","ios":"levelo://app?vid=513a368e-61d8-4625-833c-a12035a4bb4b"},"vehicle_type_id":"4","last_reported":1774937387,"current_range_meters":3600,"station_id":"ce4bgj92rcd13ifvqbe0","pricing_plan_id":"cebpf4jnsgd1na2vs0mg"},{"bike_id":"e4956c66-fba0-45d5-a7d2-90ca01f34637","system_id":"levelo_inurba_marseille","lat":43.21741,"lon":5.34624,"is_reserved":false,"is_disabled":false,"rental_uris":{"android":"levelo://app?vid=e4956c66-fba0-45d5-a7d2-90ca01f34637","ios":"levelo://app?vid=e4956c66-fba0-45d5-a7d2-90ca01f34637"},"vehicle_type_id":"4","last_reported":1774937387,"current_range_meters":3600,"station_id":"st_cvj6r9ubvosntc0bgbag","pricing_plan_id":"cebpf4jnsgd1na2vs0mg"},{"bike_id":"d653ed05-f213-45fd-84c6-b781deb83672","system_id":"levelo_inurba_marseille","lat":43.22553,"lon":5.41625,"is_reserved":false,"is_disabled":false,"rental_uris":{"android":"levelo://app?vid=d653ed05-f213-45fd-84c6-b781deb83672","ios":"levelo://app?vid=d653ed05-f213-45fd-84c6-b781deb83672"},"vehicle_type_id":"4","last_reported":1774937387,"current_range_meters":3600,"station_id":"st_d2o4gvlbi1j2169b742g","pricing_plan_id":"cebpf4jnsgd1na2vs0mg"},{"bike_id":"ff41865c-2220-47d4-8de6-2486dde26320","system_id":"levelo_inurba_marseille","lat":43.3108,"lon":5.42434,"is_reserved":false,"is_disabled":false,"rental_uris":{"android":"levelo://app?vid=ff41865c-2220-47d4-8de6-2486dde26320","ios":"levelo://app?vid=ff41865c-2220-47d4-8de6-2486dde26320"},"vehicle_type_id":"4","last_reported":1774937387,"current_range_meters":3600,"station_id":"ce4bhp92rcd13ifvqhag","pricing_plan_id":"cebpf4jnsgd1na2vs0mg"},{"bike_id":"93858380-8afb-453d-8daf-0bf96d8ee1f3","system_id":"levelo_inurba_marseille","lat":43.23786,"lon":5.36639,"is_reserved":false,"is_disabled":false,"rental_uris":{"android":"levelo://app?vid=93858380-8afb-453d-8daf-0bf96d8ee1f3","ios":"levelo://app?vid=93858380-8afb-453d-8daf-0bf96d8ee1f3"},"vehicle_type_id":"4","last_reported":1774937387,"current_range_meters":3600,"station_id":"st_d3nk18o9ro0c73en2l3g","pricing_plan_id":"cebpf4jnsgd1na2vs0mg"},{"bike_id":"3e56278a-47c3-4d27-b2a7-b0223efdc25d","system_id":"levelo_inurba_marseille","lat":43.28409,"lon":5.34982,"is_reserved":false,"is_disabled":false,"rental_uris":{"android":"levelo://app?vid=3e56278a-47c3-4d27-b2a7-b0223efdc25d","ios":"levelo://app?vid=3e56278a-47c3-4d27-b2a7-b0223efdc25d"},"vehicle_type_id":"4","last_reported":1774937387,"current_range_meters":3600,"station_id":"ce4bhbh2rcd13ifvqepg","pricing_plan_id":"cebpf4jnsgd1na2vs0mg"},{"bike_id":"29049f9a-cda2-426d-9e6c-1d886e0b8215","system_id":"levelo_inurba_marseille","lat":43.29174,"lon":5.42755,"is_reserved":false,"is_disabled":false,"rental_uris":{"android":"levelo://app?vid=29049f9a-cda2-426d-9e6c-1d886e0b8215","ios":"levelo://app?vid=29049f9a-cda2-426d-9e6c-1d886e0b8215"},"vehicle_type_id":"4","last_reported":1774937387,"current_range_meters":3600,"station_id":"","pricing_plan_id":"cebpf4jnsgd1na2vs0mg"},{"bike_id":"f6ed932d-12e2-4153-8de8-dfb33bf9fbf8","system_id":"levelo_inurba_marseille","lat":43.28488,"lon":5.36896,"is_reserved":false,"is_disabled":false,"rental_uris":{"android":"levelo://app?vid=f6ed932d-12e2-4153-8de8-dfb33bf9fbf8","ios":"levelo://app?vid=f6ed932d-12e2-4153-8de8-dfb33bf9fbf8"},"vehicle_type_id":"4","last_reported":1774937387,"current_range_meters":3600,"station_id":"","pricing_plan_id":"cebpf4jnsgd1na2vs0mg"},{"bike_id":"86ceae9a-020e-4c92-9ace-368f42523837","system_id":"levelo_inurba_marseille","lat":43.3254,"lon":5.41427,"is_reserved":false,"is_disabled":false,"rental_uris":{"android":"levelo://app?vid=86ceae9a-020e-4c92-9ace-368f42523837","ios":"levelo://app?vid=86ceae9a-020e-4c92-9ace-368f42523837"},"vehicle_type_id":"4","last_reported":1774937387,"current_range_meters":3600,"station_id":"ce4bhq12rcd13ifvqhhg","pricing_plan_id":"cebpf4jnsgd1na2vs0mg"},{"bike_id":"492917a9-cdbe-4b6d-894e-b07ec71d082c","system_id":"levelo_inurba_marseille","lat":43.23892,"lon":5.37464,"is_reserved":false,"is_disabled":false,"rental_uris":{"android":"levelo://app?vid=492917a9-cdbe-4b6d-894e-b07ec71d082c","ios":"levelo://app?vid=492917a9-cdbe-4b6d-894e-b07ec71d082c"},"vehicle_type_id":"4","last_reported":1774937387,"current_range_meters":3600,"station_id":"st_d6sm7csbq4hs73f8fpjg","pricing_plan_id":"cebpf4jnsgd1na2vs0mg"},{"bike_id":"d851c101-94df-443d-b106-aff9c2337507","system_id":"levelo_inurba_marseille","lat":43.28276,"lon":5.3913,"is_reserved":false,"is_disabled":false,"rental_uris":{"android":"levelo://app?vid=d851c101-94df-443d-b106-aff9c2337507","ios":"levelo://app?vid=d851c101-94df-443d-b106-aff9c2337507"},"vehicle_type_id":"4","last_reported":1774937387,"current_range_meters":4000,"station_id":"","pricing_plan_id":"cebpf4jnsgd1na2vs0mg"},{"bike_id":"6292bd72-b647-4ffe-a569-23ada2c1d51f","system_id":"levelo_inurba_marseille","lat":43.29681,"lon":5.37315,"is_reserved":false,"is_disabled":true,"rental_uris":{"android":"levelo://app?vid=6292bd72-b647-4ffe-a569-23ada2c1d51f","ios":"levelo://app?vid=6292bd72-b647-4ffe-a569-23ada2c1d51f"},"vehicle_type_id":"4","last_reported":1774937387,"current_range_meters":4000,"station_id":"ce4bgk12rcd13ifvqbj0","pricing_plan_id":"cebpf4jnsgd1na2vs0mg"},{"bike_id":"4d4a6160-184b-4e9a-9611-d623686bf76b","system_id":"levelo_inurba_marseille","lat":43.30554,"lon":5.38431,"is_reserved":false,"is_disabled":false,"rental_uris":{"android":"levelo://app?vid=4d4a6160-184b-4e9a-9611-d623686bf76b","ios":"levelo://app?vid=4d4a6160-184b-4e9a-9611-d623686bf76b"},"vehicle_type_id":"4","last_reported":1774937387,"current_range_meters":4000,"station_id":"ce4bgg92rcd13ifvqb30","pricing_plan_id":"cebpf4jnsgd1na2vs0mg"},{"bike_id":"479ddab6-8b70-42ac-848f-c46ba633fc4d","system_id":"levelo_inurba_marseille","lat":43.28537,"lon":5.44099,"is_reserved":false,"is_disabled":false,"rental_uris":{"android":"levelo://app?vid=479ddab6-8b70-42ac-848f-c46ba633fc4d","ios":"levelo://app?vid=479ddab6-8b70-42ac-848f-c46ba633fc4d"},"vehicle_type_id":"4","last_reported":1774937387,"current_range_meters":4000,"station_id":"st_d3j3df2ikq2c7380ej80","pricing_plan_id":"cebpf4jnsgd1na2vs0mg"},{"bike_id":"0ff0e0b3-6da5-4b04-a7b1-1f2a88e41774","system_id":"levelo_inurba_marseille","lat":43.24206,"lon":5.36348,"is_reserved":false,"is_disabled":false,"rental_uris":{"android":"levelo://app?vid=0ff0e0b3-6da5-4b04-a7b1-1f2a88e41774","ios":"levelo://app?vid=0ff0e0b3-6da5-4b04-a7b1-1f2a88e41774"},"vehicle_type_id":"4","last_reported":1774937387,"current_range_meters":4000,"station_id":"","pricing_plan_id":"cebpf4jnsgd1na2vs0mg"},{"bike_id":"57239cfd-9cf0-4ecb-b61f-b52beab6afab","system_id":"levelo_inurba_marseille","lat":43.21755,"lon":5.34619,"is_reserved":false,"is_disabled":false,"rental_uris":{"android":"levelo://app?vid=57239cfd-9cf0-4ecb-b61f-b52beab6afab","ios":"levelo://app?vid=57239cfd-9cf0-4ecb-b61f-b52beab6afab"},"vehicle_type_id":"4","last_reported":1774937387,"current_range_meters":4000,"station_id":"st_cvj6r9ubvosntc0bgbag","pricing_plan_id":"cebpf4jnsgd1na2vs0mg"},{"bike_id":"131a88d5-b5b2-4532-b511-14fa6f230522","system_id":"levelo_inurba_marseille","lat":43.33722,"lon":5.39189,"is_reserved":false,"is_disabled":false,"rental_uris":{"android":"levelo://app?vid=131a88d5-b5b2-4532-b511-14fa6f230522","ios":"levelo://app?vid=131a88d5-b5b2-4532-b511-14fa6f230522"},"vehicle_type_id":"4","last_reported":1774937387,"current_range_meters":4000,"station_id":"ce4bhr92rcd13ifvqhsg","pricing_plan_id":"cebpf4jnsgd1na2vs0mg"},{"bike_id":"1227dc61-c55b-43f3-83a0-014c73aacab8","system_id":"levelo_inurba_marseille","lat":43.23966,"lon":5.36616,"is_reserved":false,"is_disabled":false,"rental_uris":{"android":"levelo://app?vid=1227dc61-c55b-43f3-83a0-014c73aacab8","ios":"levelo://app?vid=1227dc61-c55b-43f3-83a0-014c73aacab8"},"vehicle_type_id":"4","last_reported":1774937387,"current_range_meters":4000,"station_id":"ce4bhi12rcd13ifvqfp0","pricing_plan_id":"cebpf4jnsgd1na2vs0mg"},{"bike_id":"c0d049d2-9884-47fd-b25d-2edd239d3046","system_id":"levelo_inurba_marseille","lat":43.28528,"lon":5.44096,"is_reserved":false,"is_disabled":false,"rental_uris":{"android":"levelo://app?vid=c0d049d2-9884-47fd-b25d-2edd239d3046","ios":"levelo://app?vid=c0d049d2-9884-47fd-b25d-2edd239d3046"},"vehicle_type_id":"4","last_reported":1774937387,"current_range_meters":4000,"station_id":"st_d3j3df2ikq2c7380ej80","pricing_plan_id":"cebpf4jnsgd1na2vs0mg"},{"bike_id":"f8912d5e-b74f-45bd-a984-2c17893a5f00","system_id":"levelo_inurba_marseille","lat":43.25521,"lon":5.37684,"is_reserved":false,"is_disabled":false,"rental_uris":{"android":"levelo://app?vid=f8912d5e-b74f-45bd-a984-2c17893a5f00","ios":"levelo://app?vid=f8912d5e-b74f-45bd-a984-2c17893a5f00"},"vehicle_type_id":"4","last_reported":1774937387,"current_range_meters":4000,"station_id":"ce4bhh12rcd13ifvqff0","pricing_plan_id":"cebpf4jnsgd1na2vs0mg"},{"bike_id":"de3208ad-e0aa-43cf-b3d0-9b02dc8b1328","system_id":"levelo_inurba_marseille","lat":43.24182,"lon":5.36369,"is_reserved":false,"is_disabled":false,"rental_uris":{"android":"levelo://app?vid=de3208ad-e0aa-43cf-b3d0-9b02dc8b1328","ios":"levelo://app?vid=de3208ad-e0aa-43cf-b3d0-9b02dc8b1328"},"vehicle_type_id":"4","last_reported":1774937387,"current_range_meters":4000,"station_id":"cpo36qri1sfpv3e86is0","pricing_plan_id":"cebpf4jnsgd1na2vs0mg"},{"bike_id":"aba4a31a-18d2-4cad-bb8c-30bd606f5c4c","system_id":"levelo_inurba_marseille","lat":43.24176,"lon":5.36423,"is_reserved":false,"is_disabled":false,"rental_uris":{"android":"levelo://app?vid=aba4a31a-18d2-4cad-bb8c-30bd606f5c4c","ios":"levelo://app?vid=aba4a31a-18d2-4cad-bb8c-30bd606f5c4c"},"vehicle_type_id":"4","last_reported":1774937387,"current_range_meters":4000,"station_id":"cpo36qri1sfpv3e86is0","pricing_plan_id":"cebpf4jnsgd1na2vs0mg"},{"bike_id":"ac172dce-2d76-4a79-a55e-e3ac1467d3ec","system_id":"levelo_inurba_marseille","lat":43.2534,"lon":5.42171,"is_reserved":false,"is_disabled":false,"rental_uris":{"android":"levelo://app?vid=ac172dce-2d76-4a79-a55e-e3ac1467d3ec","ios":"levelo://app?vid=ac172dce-2d76-4a79-a55e-e3ac1467d3ec"},"vehicle_type_id":"4","last_reported":1774937387,"current_range_meters":4000,"station_id":"st_d2m65c5bi1j21697t3ng","pricing_plan_id":"cebpf4jnsgd1na2vs0mg"},{"bike_id":"9c9d5bc2-d48f-4d28-8e2c-05343f164cb7","system_id":"levelo_inurba_marseille","lat":43.28718,"lon":5.37396,"is_reserved":false,"is_disabled":false,"rental_uris":{"android":"levelo://app?vid=9c9d5bc2-d48f-4d28-8e2c-05343f164cb7","ios":"levelo://app?vid=9c9d5bc2-d48f-4d28-8e2c-05343f164cb7"},"vehicle_type_id":"4","last_reported":1774937387,"current_range_meters":4400,"station_id":"","pricing_plan_id":"cebpf4jnsgd1na2vs0mg"},{"bike_id":"c6f0bfb9-609a-4cc4-9c64-edb005bc49da","system_id":"levelo_inurba_marseille","lat":43.28424,"lon":5.3499,"is_reserved":false,"is_disabled":false,"rental_uris":{"android":"levelo://app?vid=c6f0bfb9-609a-4cc4-9c64-edb005bc49da","ios":"levelo://app?vid=c6f0bfb9-609a-4cc4-9c64-edb005bc49da"},"vehicle_type_id":"4","last_reported":1774937387,"current_range_meters":4400,"station_id":"ce4bhbh2rcd13ifvqepg","pricing_plan_id":"cebpf4jnsgd1na2vs0mg"},{"bike_id":"bbea286a-6e48-49d8-bcfc-d69bfefa013e","system_id":"levelo_inurba_marseille","lat":43.28608,"lon":5.35112,"is_reserved":false,"is_disabled":false,"rental_uris":{"android":"levelo://app?vid=bbea286a-6e48-49d8-bcfc-d69bfefa013e","ios":"levelo://app?vid=bbea286a-6e48-49d8-bcfc-d69bfefa013e"},"vehicle_type_id":"4","last_reported":1774937387,"current_range_meters":4400,"station_id":"ce4bhch2rcd13ifvqeug","pricing_plan_id":"cebpf4jnsgd1na2vs0mg"},{"bike_id":"dea24dc4-f737-46ca-a720-4592065c413c","system_id":"levelo_inurba_marseille","lat":43.28073,"lon":5.39663,"is_reserved":false,"is_disabled":false,"rental_uris":{"android":"levelo://app?vid=dea24dc4-f737-46ca-a720-4592065c413c","ios":"levelo://app?vid=dea24dc4-f737-46ca-a720-4592065c413c"},"vehicle_type_id":"4","last_reported":1774937387,"current_range_meters":4400,"station_id":"ce4bho12rcd13ifvqh2g","pricing_plan_id":"cebpf4jnsgd1na2vs0mg"},{"bike_id":"5c48f7da-31c3-42e6-9637-518cc59f95e6","system_id":"levelo_inurba_marseille","lat":43.24643,"lon":5.38894,"is_reserved":false,"is_disabled":false,"rental_uris":{"android":"levelo://app?vid=5c48f7da-31c3-42e6-9637-518cc59f95e6","ios":"levelo://app?vid=5c48f7da-31c3-42e6-9637-518cc59f95e6"},"vehicle_type_id":"4","last_reported":1774937387,"current_range_meters":4400,"station_id":"ce4bhg12rcd13ifvqf60","pricing_plan_id":"cebpf4jnsgd1na2vs0mg"},{"bike_id":"c0eec902-074b-4a18-af47-ff048b653a5e","system_id":"levelo_inurba_marseille","lat":43.2848,"lon":5.48393,"is_reserved":false,"is_disabled":false,"rental_uris":{"android":"levelo://app?vid=c0eec902-074b-4a18-af47-ff048b653a5e","ios":"levelo://app?vid=c0eec902-074b-4a18-af47-ff048b653a5e"},"vehicle_type_id":"4","last_reported":1774937387,"current_range_meters":4800,"station_id":"","pricing_plan_id":"cebpf4jnsgd1na2vs0mg"},{"bike_id":"77240662-eb99-4944-b119-1b4f4bff5a93","system_id":"levelo_inurba_marseille","lat":43.26229,"lon":5.40462,"is_reserved":false,"is_disabled":false,"rental_uris":{"android":"levelo://app?vid=77240662-eb99-4944-b119-1b4f4bff5a93","ios":"levelo://app?vid=77240662-eb99-4944-b119-1b4f4bff5a93"},"vehicle_type_id":"4","last_reported":1774937387,"current_range_meters":4800,"station_id":"ce4bhmh2rcd13ifvqgmg","pricing_plan_id":"cebpf4jnsgd1na2vs0mg"},{"bike_id":"132e7de0-1c60-4e16-8ba9-01efee9304af","system_id":"levelo_inurba_marseille","lat":43.32333,"lon":5.36758,"is_reserved":false,"is_disabled":false,"rental_uris":{"android":"levelo://app?vid=132e7de0-1c60-4e16-8ba9-01efee9304af","ios":"levelo://app?vid=132e7de0-1c60-4e16-8ba9-01efee9304af"},"vehicle_type_id":"4","last_reported":1774937387,"current_range_meters":4800,"station_id":"ce4bhsh2rcd13ifvqi2g","pricing_plan_id":"cebpf4jnsgd1na2vs0mg"},{"bike_id":"046881a8-ab16-4490-bda4-767f874d1bc8","system_id":"levelo_inurba_marseille","lat":43.287178,"lon":5.360977,"is_reserved":false,"is_disabled":false,"rental_uris":{"android":"levelo://app?vid=046881a8-ab16-4490-bda4-767f874d1bc8","ios":"levelo://app?vid=046881a8-ab16-4490-bda4-767f874d1bc8"},"vehicle_type_id":"4","last_reported":1774937387,"current_range_meters":4800,"station_id":"","pricing_plan_id":"cebpf4jnsgd1na2vs0mg"},{"bike_id":"fb35f5ca-4cb1-4af7-875d-4826223909ab","system_id":"levelo_inurba_marseille","lat":43.30528,"lon":5.36576,"is_reserved":false,"is_disabled":false,"rental_uris":{"android":"levelo://app?vid=fb35f5ca-4cb1-4af7-875d-4826223909ab","ios":"levelo://app?vid=fb35f5ca-4cb1-4af7-875d-4826223909ab"},"vehicle_type_id":"4","last_reported":1774937387,"current_range_meters":4800,"station_id":"ce4bgs12rcd13ifvqcag","pricing_plan_id":"cebpf4jnsgd1na2vs0mg"},{"bike_id":"989bebe7-8615-4cd7-aeef-fec5c5f64679","system_id":"levelo_inurba_marseille","lat":43.24405,"lon":5.37031,"is_reserved":false,"is_disabled":false,"rental_uris":{"android":"levelo://app?vid=989bebe7-8615-4cd7-aeef-fec5c5f64679","ios":"levelo://app?vid=989bebe7-8615-4cd7-aeef-fec5c5f64679"},"vehicle_type_id":"4","last_reported":1774937387,"current_range_meters":4800,"station_id":"ce4bhhh2rcd13ifvqfk0","pricing_plan_id":"cebpf4jnsgd1na2vs0mg"},{"bike_id":"c67c5d5c-6a86-4840-bc88-5726340ce24f","system_id":"levelo_inurba_marseille","lat":43.23913,"lon":5.37497,"is_reserved":false,"is_disabled":false,"rental_uris":{"android":"levelo://app?vid=c67c5d5c-6a86-4840-bc88-5726340ce24f","ios":"levelo://app?vid=c67c5d5c-6a86-4840-bc88-5726340ce24f"},"vehicle_type_id":"4","last_reported":1774937387,"current_range_meters":4800,"station_id":"st_d6sm7csbq4hs73f8fpjg","pricing_plan_id":"cebpf4jnsgd1na2vs0mg"},{"bike_id":"97ce69f1-7181-466d-9bc2-d076363b5f27","system_id":"levelo_inurba_marseille","lat":43.24169,"lon":5.36387,"is_reserved":false,"is_disabled":false,"rental_uris":{"android":"levelo://app?vid=97ce69f1-7181-466d-9bc2-d076363b5f27","ios":"levelo://app?vid=97ce69f1-7181-466d-9bc2-d076363b5f27"},"vehicle_type_id":"4","last_reported":1774937387,"current_range_meters":4800,"station_id":"cpo36qri1sfpv3e86is0","pricing_plan_id":"cebpf4jnsgd1na2vs0mg"},{"bike_id":"90c5083d-61d7-4212-893f-2dfc58168774","system_id":"levelo_inurba_marseille","lat":43.24155,"lon":5.36417,"is_reserved":false,"is_disabled":false,"rental_uris":{"android":"levelo://app?vid=90c5083d-61d7-4212-893f-2dfc58168774","ios":"levelo://app?vid=90c5083d-61d7-4212-893f-2dfc58168774"},"vehicle_type_id":"4","last_reported":1774937387,"current_range_meters":4800,"station_id":"cpo36qri1sfpv3e86is0","pricing_plan_id":"cebpf4jnsgd1na2vs0mg"},{"bike_id":"3ac0129c-9c97-4af6-b6ad-c66c14a5c227","system_id":"levelo_inurba_marseille","lat":43.28504,"lon":5.48416,"is_reserved":false,"is_disabled":false,"rental_uris":{"android":"levelo://app?vid=3ac0129c-9c97-4af6-b6ad-c66c14a5c227","ios":"levelo://app?vid=3ac0129c-9c97-4af6-b6ad-c66c14a5c227"},"vehicle_type_id":"4","last_reported":1774937387,"current_range_meters":4800,"station_id":"","pricing_plan_id":"cebpf4jnsgd1na2vs0mg"},{"bike_id":"cac6b00c-c665-4bab-b4eb-1325ff1d6364","system_id":"levelo_inurba_marseille","lat":43.337444,"lon":5.374475,"is_reserved":false,"is_disabled":false,"rental_uris":{"android":"levelo://app?vid=cac6b00c-c665-4bab-b4eb-1325ff1d6364","ios":"levelo://app?vid=cac6b00c-c665-4bab-b4eb-1325ff1d6364"},"vehicle_type_id":"4","last_reported":1774937387,"current_range_meters":4800,"station_id":"","pricing_plan_id":"cebpf4jnsgd1na2vs0mg"},{"bike_id":"f7d02767-52da-4db2-b403-e11366b9f9bf","system_id":"levelo_inurba_marseille","lat":43.28628,"lon":5.35138,"is_reserved":false,"is_disabled":false,"rental_uris":{"android":"levelo://app?vid=f7d02767-52da-4db2-b403-e11366b9f9bf","ios":"levelo://app?vid=f7d02767-52da-4db2-b403-e11366b9f9bf"},"vehicle_type_id":"4","last_reported":1774937387,"current_range_meters":4800,"station_id":"ce4bhch2rcd13ifvqeug","pricing_plan_id":"cebpf4jnsgd1na2vs0mg"},{"bike_id":"b8425059-cbc5-4806-a0c5-071195e5c190","system_id":"levelo_inurba_marseille","lat":43.25005,"lon":5.38935,"is_reserved":false,"is_disabled":false,"rental_uris":{"android":"levelo://app?vid=b8425059-cbc5-4806-a0c5-071195e5c190","ios":"levelo://app?vid=b8425059-cbc5-4806-a0c5-071195e5c190"},"vehicle_type_id":"4","last_reported":1774937387,"current_range_meters":4800,"station_id":"ce4bhgp2rcd13ifvqfd0","pricing_plan_id":"cebpf4jnsgd1na2vs0mg"},{"bike_id":"fd13448a-c0ff-40ee-a92a-1694aee32a3c","system_id":"levelo_inurba_marseille","lat":43.24043,"lon":5.37707,"is_reserved":false,"is_disabled":false,"rental_uris":{"android":"levelo://app?vid=fd13448a-c0ff-40ee-a92a-1694aee32a3c","ios":"levelo://app?vid=fd13448a-c0ff-40ee-a92a-1694aee32a3c"},"vehicle_type_id":"4","last_reported":1774937387,"current_range_meters":4800,"station_id":"","pricing_plan_id":"cebpf4jnsgd1na2vs0mg"},{"bike_id":"4977f95e-718a-4120-8926-2364059fe1a3","system_id":"levelo_inurba_marseille","lat":43.27266,"lon":5.40175,"is_reserved":false,"is_disabled":false,"rental_uris":{"android":"levelo://app?vid=4977f95e-718a-4120-8926-2364059fe1a3","ios":"levelo://app?vid=4977f95e-718a-4120-8926-2364059fe1a3"},"vehicle_type_id":"4","last_reported":1774937387,"current_range_meters":5600,"station_id":"","pricing_plan_id":"cebpf4jnsgd1na2vs0mg"},{"bike_id":"7ddda98a-95aa-40f3-b1ad-2c7940798190","system_id":"levelo_inurba_marseille","lat":43.2406,"lon":5.37783,"is_reserved":false,"is_disabled":false,"rental_uris":{"android":"levelo://app?vid=7ddda98a-95aa-40f3-b1ad-2c7940798190","ios":"levelo://app?vid=7ddda98a-95aa-40f3-b1ad-2c7940798190"},"vehicle_type_id":"4","last_reported":1774937387,"current_range_meters":5600,"station_id":"ce4bhnp2rcd13ifvqgvg","pricing_plan_id":"cebpf4jnsgd1na2vs0mg"},{"bike_id":"ea18b7b5-84a4-4f9a-a975-002d2f142390","system_id":"levelo_inurba_marseille","lat":43.29976,"lon":5.38515,"is_reserved":false,"is_disabled":false,"rental_uris":{"android":"levelo://app?vid=ea18b7b5-84a4-4f9a-a975-002d2f142390","ios":"levelo://app?vid=ea18b7b5-84a4-4f9a-a975-002d2f142390"},"vehicle_type_id":"4","last_reported":1774937387,"current_range_meters":5600,"station_id":"ce4bgj92rcd13ifvqbd0","pricing_plan_id":"cebpf4jnsgd1na2vs0mg"},{"bike_id":"3cd36546-8afd-43ef-8d24-9133f65ee216","system_id":"levelo_inurba_marseille","lat":43.28855,"lon":5.35867,"is_reserved":false,"is_disabled":false,"rental_uris":{"android":"levelo://app?vid=3cd36546-8afd-43ef-8d24-9133f65ee216","ios":"levelo://app?vid=3cd36546-8afd-43ef-8d24-9133f65ee216"},"vehicle_type_id":"4","last_reported":1774937387,"current_range_meters":5600,"station_id":"ce4bhb12rcd13ifvqem0","pricing_plan_id":"cebpf4jnsgd1na2vs0mg"},{"bike_id":"15acd291-793b-48f8-8353-72eff2f6467d","system_id":"levelo_inurba_marseille","lat":43.2698,"lon":5.40301,"is_reserved":false,"is_disabled":false,"rental_uris":{"android":"levelo://app?vid=15acd291-793b-48f8-8353-72eff2f6467d","ios":"levelo://app?vid=15acd291-793b-48f8-8353-72eff2f6467d"},"vehicle_type_id":"4","last_reported":1774937387,"current_range_meters":5600,"station_id":"cjm6bp8fraef2m0cb0m0","pricing_plan_id":"cebpf4jnsgd1na2vs0mg"},{"bike_id":"fa2139d7-56b5-4664-870b-94753042ac1d","system_id":"levelo_inurba_marseille","lat":43.21201,"lon":5.35072,"is_reserved":false,"is_disabled":false,"rental_uris":{"android":"levelo://app?vid=fa2139d7-56b5-4664-870b-94753042ac1d","ios":"levelo://app?vid=fa2139d7-56b5-4664-870b-94753042ac1d"},"vehicle_type_id":"4","last_reported":1774937387,"current_range_meters":5600,"station_id":"st_cvj6sg6p6f1abm77japg","pricing_plan_id":"cebpf4jnsgd1na2vs0mg"},{"bike_id":"e2491530-7c3b-41df-80e0-1a5c4af36aa4","system_id":"levelo_inurba_marseille","lat":43.23785,"lon":5.36627,"is_reserved":false,"is_disabled":false,"rental_uris":{"android":"levelo://app?vid=e2491530-7c3b-41df-80e0-1a5c4af36aa4","ios":"levelo://app?vid=e2491530-7c3b-41df-80e0-1a5c4af36aa4"},"vehicle_type_id":"4","last_reported":1774937387,"current_range_meters":5600,"station_id":"st_d3nk18o9ro0c73en2l3g","pricing_plan_id":"cebpf4jnsgd1na2vs0mg"},{"bike_id":"cace6a75-41af-4909-a80a-68d60c5c1a04","system_id":"levelo_inurba_marseille","lat":43.28421,"lon":5.34996,"is_reserved":false,"is_disabled":false,"rental_uris":{"android":"levelo://app?vid=cace6a75-41af-4909-a80a-68d60c5c1a04","ios":"levelo://app?vid=cace6a75-41af-4909-a80a-68d60c5c1a04"},"vehicle_type_id":"4","last_reported":1774937387,"current_range_meters":5600,"station_id":"ce4bhbh2rcd13ifvqepg","pricing_plan_id":"cebpf4jnsgd1na2vs0mg"},{"bike_id":"d05ddc07-60f4-4f47-ba7f-db1bfdeb99e2","system_id":"levelo_inurba_marseille","lat":43.31702,"lon":5.37768,"is_reserved":false,"is_disabled":false,"rental_uris":{"android":"levelo://app?vid=d05ddc07-60f4-4f47-ba7f-db1bfdeb99e2","ios":"levelo://app?vid=d05ddc07-60f4-4f47-ba7f-db1bfdeb99e2"},"vehicle_type_id":"4","last_reported":1774937387,"current_range_meters":5600,"station_id":"ce4bgth2rcd13ifvqch0","pricing_plan_id":"cebpf4jnsgd1na2vs0mg"},{"bike_id":"71983624-569c-45d9-9fb5-891a7993a82a","system_id":"levelo_inurba_marseille","lat":43.28415,"lon":5.35006,"is_reserved":false,"is_disabled":false,"rental_uris":{"android":"levelo://app?vid=71983624-569c-45d9-9fb5-891a7993a82a","ios":"levelo://app?vid=71983624-569c-45d9-9fb5-891a7993a82a"},"vehicle_type_id":"4","last_reported":1774937387,"current_range_meters":5600,"station_id":"ce4bhbh2rcd13ifvqepg","pricing_plan_id":"cebpf4jnsgd1na2vs0mg"},{"bike_id":"cfe4f73e-680f-4e94-bcd5-84e59baaa6f8","system_id":"levelo_inurba_marseille","lat":43.24072,"lon":5.37766,"is_reserved":false,"is_disabled":false,"rental_uris":{"android":"levelo://app?vid=cfe4f73e-680f-4e94-bcd5-84e59baaa6f8","ios":"levelo://app?vid=cfe4f73e-680f-4e94-bcd5-84e59baaa6f8"},"vehicle_type_id":"4","last_reported":1774937387,"current_range_meters":6000,"station_id":"ce4bhnp2rcd13ifvqgvg","pricing_plan_id":"cebpf4jnsgd1na2vs0mg"},{"bike_id":"1f50d665-ad56-4564-8bce-5cff2a4e2b4f","system_id":"levelo_inurba_marseille","lat":43.24176,"lon":5.39741,"is_reserved":false,"is_disabled":false,"rental_uris":{"android":"levelo://app?vid=1f50d665-ad56-4564-8bce-5cff2a4e2b4f","ios":"levelo://app?vid=1f50d665-ad56-4564-8bce-5cff2a4e2b4f"},"vehicle_type_id":"4","last_reported":1774937387,"current_range_meters":6000,"station_id":"ce4bhn12rcd13ifvqgpg","pricing_plan_id":"cebpf4jnsgd1na2vs0mg"},{"bike_id":"18c730e6-1faa-4873-8bd0-11c194b76862","system_id":"levelo_inurba_marseille","lat":43.28406,"lon":5.37524,"is_reserved":false,"is_disabled":false,"rental_uris":{"android":"levelo://app?vid=18c730e6-1faa-4873-8bd0-11c194b76862","ios":"levelo://app?vid=18c730e6-1faa-4873-8bd0-11c194b76862"},"vehicle_type_id":"4","last_reported":1774937387,"current_range_meters":6000,"station_id":"ce4bh412rcd13ifvqds0","pricing_plan_id":"cebpf4jnsgd1na2vs0mg"},{"bike_id":"32021fae-b7e1-40ce-97f4-c499dced00a6","system_id":"levelo_inurba_marseille","lat":43.23892,"lon":5.37452,"is_reserved":false,"is_disabled":false,"rental_uris":{"android":"levelo://app?vid=32021fae-b7e1-40ce-97f4-c499dced00a6","ios":"levelo://app?vid=32021fae-b7e1-40ce-97f4-c499dced00a6"},"vehicle_type_id":"4","last_reported":1774937387,"current_range_meters":6000,"station_id":"st_d6sm7csbq4hs73f8fpjg","pricing_plan_id":"cebpf4jnsgd1na2vs0mg"},{"bike_id":"8d26c30b-3847-405c-8066-75bf15658130","system_id":"levelo_inurba_marseille","lat":43.29835,"lon":5.36476,"is_reserved":false,"is_disabled":false,"rental_uris":{"android":"levelo://app?vid=8d26c30b-3847-405c-8066-75bf15658130","ios":"levelo://app?vid=8d26c30b-3847-405c-8066-75bf15658130"},"vehicle_type_id":"4","last_reported":1774937387,"current_range_meters":6000,"station_id":"","pricing_plan_id":"cebpf4jnsgd1na2vs0mg"},{"bike_id":"e4e35a95-f94c-4ae7-8723-c4ed88471b0b","system_id":"levelo_inurba_marseille","lat":43.2989,"lon":5.39719,"is_reserved":false,"is_disabled":false,"rental_uris":{"android":"levelo://app?vid=e4e35a95-f94c-4ae7-8723-c4ed88471b0b","ios":"levelo://app?vid=e4e35a95-f94c-4ae7-8723-c4ed88471b0b"},"vehicle_type_id":"4","last_reported":1774937387,"current_range_meters":6000,"station_id":"ce4bh0h2rcd13ifvqd50","pricing_plan_id":"cebpf4jnsgd1na2vs0mg"},{"bike_id":"96e39a77-9d5f-4789-a907-172de64256e6","system_id":"levelo_inurba_marseille","lat":43.29709,"lon":5.37693,"is_reserved":false,"is_disabled":false,"rental_uris":{"android":"levelo://app?vid=96e39a77-9d5f-4789-a907-172de64256e6","ios":"levelo://app?vid=96e39a77-9d5f-4789-a907-172de64256e6"},"vehicle_type_id":"4","last_reported":1774937387,"current_range_meters":6000,"station_id":"ce4bgkh2rcd13ifvqbl0","pricing_plan_id":"cebpf4jnsgd1na2vs0mg"},{"bike_id":"03ec0070-1d93-4ac5-87d3-21d47edad7cd","system_id":"levelo_inurba_marseille","lat":43.23788,"lon":5.36646,"is_reserved":false,"is_disabled":false,"rental_uris":{"android":"levelo://app?vid=03ec0070-1d93-4ac5-87d3-21d47edad7cd","ios":"levelo://app?vid=03ec0070-1d93-4ac5-87d3-21d47edad7cd"},"vehicle_type_id":"4","last_reported":1774937387,"current_range_meters":6400,"station_id":"st_d3nk18o9ro0c73en2l3g","pricing_plan_id":"cebpf4jnsgd1na2vs0mg"},{"bike_id":"7cefc45d-38f5-45cf-a99c-dfb4be1018fe","system_id":"levelo_inurba_marseille","lat":43.24467,"lon":5.42533,"is_reserved":false,"is_disabled":false,"rental_uris":{"android":"levelo://app?vid=7cefc45d-38f5-45cf-a99c-dfb4be1018fe","ios":"levelo://app?vid=7cefc45d-38f5-45cf-a99c-dfb4be1018fe"},"vehicle_type_id":"4","last_reported":1774937387,"current_range_meters":6400,"station_id":"st_d4a3vfp97mjs738cd8kg","pricing_plan_id":"cebpf4jnsgd1na2vs0mg"},{"bike_id":"b2fedf6b-2cd3-4ea3-9573-b48aa9b36329","system_id":"levelo_inurba_marseille","lat":43.2862,"lon":5.35106,"is_reserved":false,"is_disabled":false,"rental_uris":{"android":"levelo://app?vid=b2fedf6b-2cd3-4ea3-9573-b48aa9b36329","ios":"levelo://app?vid=b2fedf6b-2cd3-4ea3-9573-b48aa9b36329"},"vehicle_type_id":"4","last_reported":1774937387,"current_range_meters":6400,"station_id":"ce4bhch2rcd13ifvqeug","pricing_plan_id":"cebpf4jnsgd1na2vs0mg"},{"bike_id":"94ebd6be-fb80-4ec3-8693-d1f514f30182","system_id":"levelo_inurba_marseille","lat":43.30527,"lon":5.36703,"is_reserved":false,"is_disabled":false,"rental_uris":{"android":"levelo://app?vid=94ebd6be-fb80-4ec3-8693-d1f514f30182","ios":"levelo://app?vid=94ebd6be-fb80-4ec3-8693-d1f514f30182"},"vehicle_type_id":"4","last_reported":1774937387,"current_range_meters":6400,"station_id":"ce4bgrp2rcd13ifvqc9g","pricing_plan_id":"cebpf4jnsgd1na2vs0mg"},{"bike_id":"fe2c2d4e-ad0a-4ad1-b727-7e9a7d4ef824","system_id":"levelo_inurba_marseille","lat":43.28481,"lon":5.484,"is_reserved":false,"is_disabled":false,"rental_uris":{"android":"levelo://app?vid=fe2c2d4e-ad0a-4ad1-b727-7e9a7d4ef824","ios":"levelo://app?vid=fe2c2d4e-ad0a-4ad1-b727-7e9a7d4ef824"},"vehicle_type_id":"4","last_reported":1774937387,"current_range_meters":6400,"station_id":"","pricing_plan_id":"cebpf4jnsgd1na2vs0mg"},{"bike_id":"eda4f165-0644-41b9-85c4-26004d680b65","system_id":"levelo_inurba_marseille","lat":43.25334,"lon":5.42169,"is_reserved":false,"is_disabled":false,"rental_uris":{"android":"levelo://app?vid=eda4f165-0644-41b9-85c4-26004d680b65","ios":"levelo://app?vid=eda4f165-0644-41b9-85c4-26004d680b65"},"vehicle_type_id":"4","last_reported":1774937387,"current_range_meters":6400,"station_id":"st_d2m65c5bi1j21697t3ng","pricing_plan_id":"cebpf4jnsgd1na2vs0mg"},{"bike_id":"8289ea9c-9f3c-47cc-ae82-8027b0a738ac","system_id":"levelo_inurba_marseille","lat":43.31927,"lon":5.36734,"is_reserved":false,"is_disabled":false,"rental_uris":{"android":"levelo://app?vid=8289ea9c-9f3c-47cc-ae82-8027b0a738ac","ios":"levelo://app?vid=8289ea9c-9f3c-47cc-ae82-8027b0a738ac"},"vehicle_type_id":"4","last_reported":1774937387,"current_range_meters":6400,"station_id":"","pricing_plan_id":"cebpf4jnsgd1na2vs0mg"},{"bike_id":"cb88b7c0-158f-47d6-b62a-c3ee88f004a1","system_id":"levelo_inurba_marseille","lat":43.24465,"lon":5.42545,"is_reserved":false,"is_disabled":false,"rental_uris":{"android":"levelo://app?vid=cb88b7c0-158f-47d6-b62a-c3ee88f004a1","ios":"levelo://app?vid=cb88b7c0-158f-47d6-b62a-c3ee88f004a1"},"vehicle_type_id":"4","last_reported":1774937387,"current_range_meters":6400,"station_id":"st_d4a3vfp97mjs738cd8kg","pricing_plan_id":"cebpf4jnsgd1na2vs0mg"},{"bike_id":"8f1dc0fb-2a64-44c2-9836-16e6433e1eff","system_id":"levelo_inurba_marseille","lat":43.29962,"lon":5.38092,"is_reserved":false,"is_disabled":false,"rental_uris":{"android":"levelo://app?vid=8f1dc0fb-2a64-44c2-9836-16e6433e1eff","ios":"levelo://app?vid=8f1dc0fb-2a64-44c2-9836-16e6433e1eff"},"vehicle_type_id":"4","last_reported":1774937387,"current_range_meters":6400,"station_id":"ce4bgj12rcd13ifvqbc0","pricing_plan_id":"cebpf4jnsgd1na2vs0mg"},{"bike_id":"123ed137-045f-41c9-b041-9dcc7f9e9c5f","system_id":"levelo_inurba_marseille","lat":43.28723,"lon":5.37942,"is_reserved":false,"is_disabled":false,"rental_uris":{"android":"levelo://app?vid=123ed137-045f-41c9-b041-9dcc7f9e9c5f","ios":"levelo://app?vid=123ed137-045f-41c9-b041-9dcc7f9e9c5f"},"vehicle_type_id":"4","last_reported":1774937387,"current_range_meters":6400,"station_id":"ce4bh9p2rcd13ifvqec0","pricing_plan_id":"cebpf4jnsgd1na2vs0mg"},{"bike_id":"8b4108a6-c7e2-4043-b547-cb1e59a8963a","system_id":"levelo_inurba_marseille","lat":43.24334,"lon":5.40865,"is_reserved":false,"is_disabled":false,"rental_uris":{"android":"levelo://app?vid=8b4108a6-c7e2-4043-b547-cb1e59a8963a","ios":"levelo://app?vid=8b4108a6-c7e2-4043-b547-cb1e59a8963a"},"vehicle_type_id":"4","last_reported":1774937387,"current_range_meters":6400,"station_id":"","pricing_plan_id":"cebpf4jnsgd1na2vs0mg"},{"bike_id":"8466c424-4272-46aa-b8e1-5cfb9cab3fd4","system_id":"levelo_inurba_marseille","lat":43.28862,"lon":5.35855,"is_reserved":false,"is_disabled":false,"rental_uris":{"android":"levelo://app?vid=8466c424-4272-46aa-b8e1-5cfb9cab3fd4","ios":"levelo://app?vid=8466c424-4272-46aa-b8e1-5cfb9cab3fd4"},"vehicle_type_id":"4","last_reported":1774937387,"current_range_meters":6800,"station_id":"ce4bhb12rcd13ifvqem0","pricing_plan_id":"cebpf4jnsgd1na2vs0mg"},{"bike_id":"c798f683-654c-4162-8383-94bab235ad53","system_id":"levelo_inurba_marseille","lat":43.29844,"lon":5.36441,"is_reserved":false,"is_disabled":false,"rental_uris":{"android":"levelo://app?vid=c798f683-654c-4162-8383-94bab235ad53","ios":"levelo://app?vid=c798f683-654c-4162-8383-94bab235ad53"},"vehicle_type_id":"4","last_reported":1774937387,"current_range_meters":6800,"station_id":"ce4bgm92rcd13ifvqbr0","pricing_plan_id":"cebpf4jnsgd1na2vs0mg"},{"bike_id":"b531ea30-84ba-4793-9521-81d9808e16a6","system_id":"levelo_inurba_marseille","lat":43.28703,"lon":5.4669,"is_reserved":false,"is_disabled":false,"rental_uris":{"android":"levelo://app?vid=b531ea30-84ba-4793-9521-81d9808e16a6","ios":"levelo://app?vid=b531ea30-84ba-4793-9521-81d9808e16a6"},"vehicle_type_id":"4","last_reported":1774937387,"current_range_meters":6800,"station_id":"st_d6tc3vkotcvc738tfjhg","pricing_plan_id":"cebpf4jnsgd1na2vs0mg"},{"bike_id":"0c6e6798-e036-48b5-8f51-31ac48e32018","system_id":"levelo_inurba_marseille","lat":43.31184,"lon":5.36871,"is_reserved":false,"is_disabled":false,"rental_uris":{"android":"levelo://app?vid=0c6e6798-e036-48b5-8f51-31ac48e32018","ios":"levelo://app?vid=0c6e6798-e036-48b5-8f51-31ac48e32018"},"vehicle_type_id":"4","last_reported":1774937387,"current_range_meters":6800,"station_id":"ce4bgl92rcd13ifvqbq0","pricing_plan_id":"cebpf4jnsgd1na2vs0mg"},{"bike_id":"6a07290c-4d96-493c-bece-412d5cabc671","system_id":"levelo_inurba_marseille","lat":43.28611,"lon":5.35134,"is_reserved":false,"is_disabled":false,"rental_uris":{"android":"levelo://app?vid=6a07290c-4d96-493c-bece-412d5cabc671","ios":"levelo://app?vid=6a07290c-4d96-493c-bece-412d5cabc671"},"vehicle_type_id":"4","last_reported":1774937387,"current_range_meters":6800,"station_id":"ce4bhch2rcd13ifvqeug","pricing_plan_id":"cebpf4jnsgd1na2vs0mg"},{"bike_id":"6cb80350-a12f-414d-8a45-edb4d9decdf0","system_id":"levelo_inurba_marseille","lat":43.28526,"lon":5.44099,"is_reserved":false,"is_disabled":false,"rental_uris":{"android":"levelo://app?vid=6cb80350-a12f-414d-8a45-edb4d9decdf0","ios":"levelo://app?vid=6cb80350-a12f-414d-8a45-edb4d9decdf0"},"vehicle_type_id":"4","last_reported":1774937387,"current_range_meters":6800,"station_id":"st_d3j3df2ikq2c7380ej80","pricing_plan_id":"cebpf4jnsgd1na2vs0mg"},{"bike_id":"9d46aa4c-733d-4384-ad2e-5464bc83d6c8","system_id":"levelo_inurba_marseille","lat":43.337444,"lon":5.374475,"is_reserved":false,"is_disabled":false,"rental_uris":{"android":"levelo://app?vid=9d46aa4c-733d-4384-ad2e-5464bc83d6c8","ios":"levelo://app?vid=9d46aa4c-733d-4384-ad2e-5464bc83d6c8"},"vehicle_type_id":"4","last_reported":1774937387,"current_range_meters":6800,"station_id":"ce4bhrh2rcd13ifvqhug","pricing_plan_id":"cebpf4jnsgd1na2vs0mg"},{"bike_id":"cc7f385f-8c4d-4c28-bcbd-0ad1a679b4be","system_id":"levelo_inurba_marseille","lat":43.26785,"lon":5.39465,"is_reserved":false,"is_disabled":false,"rental_uris":{"android":"levelo://app?vid=cc7f385f-8c4d-4c28-bcbd-0ad1a679b4be","ios":"levelo://app?vid=cc7f385f-8c4d-4c28-bcbd-0ad1a679b4be"},"vehicle_type_id":"4","last_reported":1774937387,"current_range_meters":6800,"station_id":"ce4bhh12rcd13ifvqfg0","pricing_plan_id":"cebpf4jnsgd1na2vs0mg"},{"bike_id":"72d9b7c8-bad1-4689-9b0f-2502537cdda9","system_id":"levelo_inurba_marseille","lat":43.25492,"lon":5.37667,"is_reserved":false,"is_disabled":false,"rental_uris":{"android":"levelo://app?vid=72d9b7c8-bad1-4689-9b0f-2502537cdda9","ios":"levelo://app?vid=72d9b7c8-bad1-4689-9b0f-2502537cdda9"},"vehicle_type_id":"4","last_reported":1774937387,"current_range_meters":6800,"station_id":"ce4bhh12rcd13ifvqff0","pricing_plan_id":"cebpf4jnsgd1na2vs0mg"},{"bike_id":"e75d5ab0-201a-49aa-aee4-ccc6a30f5664","system_id":"levelo_inurba_marseille","lat":43.29527,"lon":5.38674,"is_reserved":false,"is_disabled":false,"rental_uris":{"android":"levelo://app?vid=e75d5ab0-201a-49aa-aee4-ccc6a30f5664","ios":"levelo://app?vid=e75d5ab0-201a-49aa-aee4-ccc6a30f5664"},"vehicle_type_id":"4","last_reported":1774937387,"current_range_meters":6800,"station_id":"","pricing_plan_id":"cebpf4jnsgd1na2vs0mg"},{"bike_id":"227cc43c-6fb3-476a-abb2-74c924061fb2","system_id":"levelo_inurba_marseille","lat":43.22557,"lon":5.41631,"is_reserved":false,"is_disabled":false,"rental_uris":{"android":"levelo://app?vid=227cc43c-6fb3-476a-abb2-74c924061fb2","ios":"levelo://app?vid=227cc43c-6fb3-476a-abb2-74c924061fb2"},"vehicle_type_id":"4","last_reported":1774937387,"current_range_meters":6800,"station_id":"st_d2o4gvlbi1j2169b742g","pricing_plan_id":"cebpf4jnsgd1na2vs0mg"},{"bike_id":"07aea204-2eb9-499a-824b-891a7e0a1eac","system_id":"levelo_inurba_marseille","lat":43.26223,"lon":5.37483,"is_reserved":false,"is_disabled":false,"rental_uris":{"android":"levelo://app?vid=07aea204-2eb9-499a-824b-891a7e0a1eac","ios":"levelo://app?vid=07aea204-2eb9-499a-824b-891a7e0a1eac"},"vehicle_type_id":"4","last_reported":1774937387,"current_range_meters":6800,"station_id":"","pricing_plan_id":"cebpf4jnsgd1na2vs0mg"},{"bike_id":"f54bfc49-c52e-433a-9661-97eeb8e5a586","system_id":"levelo_inurba_marseille","lat":43.23821,"lon":5.36688,"is_reserved":false,"is_disabled":false,"rental_uris":{"android":"levelo://app?vid=f54bfc49-c52e-433a-9661-97eeb8e5a586","ios":"levelo://app?vid=f54bfc49-c52e-433a-9661-97eeb8e5a586"},"vehicle_type_id":"4","last_reported":1774937387,"current_range_meters":6800,"station_id":"","pricing_plan_id":"cebpf4jnsgd1na2vs0mg"},{"bike_id":"8429f855-c4a0-4803-9ce7-0d1fb93dbfe8","system_id":"levelo_inurba_marseille","lat":43.2835,"lon":5.4876,"is_reserved":false,"is_disabled":false,"rental_uris":{"android":"levelo://app?vid=8429f855-c4a0-4803-9ce7-0d1fb93dbfe8","ios":"levelo://app?vid=8429f855-c4a0-4803-9ce7-0d1fb93dbfe8"},"vehicle_type_id":"4","last_reported":1774937387,"current_range_meters":7200,"station_id":"","pricing_plan_id":"cebpf4jnsgd1na2vs0mg"},{"bike_id":"cc529cad-5a34-4aa9-94ca-80b82b6fe3e2","system_id":"levelo_inurba_marseille","lat":43.28404,"lon":5.37525,"is_reserved":false,"is_disabled":false,"rental_uris":{"android":"levelo://app?vid=cc529cad-5a34-4aa9-94ca-80b82b6fe3e2","ios":"levelo://app?vid=cc529cad-5a34-4aa9-94ca-80b82b6fe3e2"},"vehicle_type_id":"4","last_reported":1774937387,"current_range_meters":7200,"station_id":"ce4bh412rcd13ifvqds0","pricing_plan_id":"cebpf4jnsgd1na2vs0mg"},{"bike_id":"05a6be89-8f35-4b06-a5c4-836b0a6f24a1","system_id":"levelo_inurba_marseille","lat":43.30217,"lon":5.39466,"is_reserved":false,"is_disabled":false,"rental_uris":{"android":"levelo://app?vid=05a6be89-8f35-4b06-a5c4-836b0a6f24a1","ios":"levelo://app?vid=05a6be89-8f35-4b06-a5c4-836b0a6f24a1"},"vehicle_type_id":"4","last_reported":1774937387,"current_range_meters":7200,"station_id":"ce4bh0p2rcd13ifvqd70","pricing_plan_id":"cebpf4jnsgd1na2vs0mg"},{"bike_id":"f2ac8faa-b8e8-4025-bb6d-4e45873c4422","system_id":"levelo_inurba_marseille","lat":43.23151,"lon":5.43723,"is_reserved":false,"is_disabled":false,"rental_uris":{"android":"levelo://app?vid=f2ac8faa-b8e8-4025-bb6d-4e45873c4422","ios":"levelo://app?vid=f2ac8faa-b8e8-4025-bb6d-4e45873c4422"},"vehicle_type_id":"4","last_reported":1774937387,"current_range_meters":7200,"station_id":"ce4bhmp2rcd13ifvqgog","pricing_plan_id":"cebpf4jnsgd1na2vs0mg"},{"bike_id":"09539600-14ea-4e2f-93d7-9a7f6205363e","system_id":"levelo_inurba_marseille","lat":43.27928,"lon":5.39546,"is_reserved":false,"is_disabled":true,"rental_uris":{"android":"levelo://app?vid=09539600-14ea-4e2f-93d7-9a7f6205363e","ios":"levelo://app?vid=09539600-14ea-4e2f-93d7-9a7f6205363e"},"vehicle_type_id":"4","last_reported":1774937387,"current_range_meters":7200,"station_id":"ce4bhf92rcd13ifvqf40","pricing_plan_id":"cebpf4jnsgd1na2vs0mg"},{"bike_id":"3a0058cf-efbc-4267-b19d-a2ef1622297f","system_id":"levelo_inurba_marseille","lat":43.2863,"lon":5.35107,"is_reserved":false,"is_disabled":false,"rental_uris":{"android":"levelo://app?vid=3a0058cf-efbc-4267-b19d-a2ef1622297f","ios":"levelo://app?vid=3a0058cf-efbc-4267-b19d-a2ef1622297f"},"vehicle_type_id":"4","last_reported":1774937387,"current_range_meters":7200,"station_id":"ce4bhch2rcd13ifvqeug","pricing_plan_id":"cebpf4jnsgd1na2vs0mg"},{"bike_id":"255f9a80-7267-4488-b562-b12f03f5ce1d","system_id":"levelo_inurba_marseille","lat":43.29616,"lon":5.37719,"is_reserved":false,"is_disabled":true,"rental_uris":{"android":"levelo://app?vid=255f9a80-7267-4488-b562-b12f03f5ce1d","ios":"levelo://app?vid=255f9a80-7267-4488-b562-b12f03f5ce1d"},"vehicle_type_id":"4","last_reported":1774937387,"current_range_meters":7200,"station_id":"ce4bgi92rcd13ifvqb90","pricing_plan_id":"cebpf4jnsgd1na2vs0mg"},{"bike_id":"0f20fa83-5694-4393-a47b-7caf9e918801","system_id":"levelo_inurba_marseille","lat":43.2915,"lon":5.42628,"is_reserved":false,"is_disabled":false,"rental_uris":{"android":"levelo://app?vid=0f20fa83-5694-4393-a47b-7caf9e918801","ios":"levelo://app?vid=0f20fa83-5694-4393-a47b-7caf9e918801"},"vehicle_type_id":"4","last_reported":1774937387,"current_range_meters":7200,"station_id":"","pricing_plan_id":"cebpf4jnsgd1na2vs0mg"},{"bike_id":"25ae6a55-5d09-4313-9508-83cc6c6339b8","system_id":"levelo_inurba_marseille","lat":43.28481,"lon":5.48396,"is_reserved":false,"is_disabled":false,"rental_uris":{"android":"levelo://app?vid=25ae6a55-5d09-4313-9508-83cc6c6339b8","ios":"levelo://app?vid=25ae6a55-5d09-4313-9508-83cc6c6339b8"},"vehicle_type_id":"4","last_reported":1774937387,"current_range_meters":7200,"station_id":"","pricing_plan_id":"cebpf4jnsgd1na2vs0mg"},{"bike_id":"ce96ccd7-9abb-4f42-b1f1-39b4908ec07f","system_id":"levelo_inurba_marseille","lat":43.2707,"lon":5.42283,"is_reserved":false,"is_disabled":false,"rental_uris":{"android":"levelo://app?vid=ce96ccd7-9abb-4f42-b1f1-39b4908ec07f","ios":"levelo://app?vid=ce96ccd7-9abb-4f42-b1f1-39b4908ec07f"},"vehicle_type_id":"4","last_reported":1774937387,"current_range_meters":7200,"station_id":"ce4bhk92rcd13ifvqgb0","pricing_plan_id":"cebpf4jnsgd1na2vs0mg"},{"bike_id":"5ae1cde3-c020-448f-8cff-83f80611c531","system_id":"levelo_inurba_marseille","lat":43.24464,"lon":5.42534,"is_reserved":false,"is_disabled":false,"rental_uris":{"android":"levelo://app?vid=5ae1cde3-c020-448f-8cff-83f80611c531","ios":"levelo://app?vid=5ae1cde3-c020-448f-8cff-83f80611c531"},"vehicle_type_id":"4","last_reported":1774937387,"current_range_meters":7200,"station_id":"st_d4a3vfp97mjs738cd8kg","pricing_plan_id":"cebpf4jnsgd1na2vs0mg"},{"bike_id":"b1d9b8d4-5d36-4561-9414-81bebf4fd434","system_id":"levelo_inurba_marseille","lat":43.28862,"lon":5.35851,"is_reserved":false,"is_disabled":false,"rental_uris":{"android":"levelo://app?vid=b1d9b8d4-5d36-4561-9414-81bebf4fd434","ios":"levelo://app?vid=b1d9b8d4-5d36-4561-9414-81bebf4fd434"},"vehicle_type_id":"4","last_reported":1774937387,"current_range_meters":7200,"station_id":"ce4bhb12rcd13ifvqem0","pricing_plan_id":"cebpf4jnsgd1na2vs0mg"},{"bike_id":"34e5e96c-68fe-4408-9ab0-fa9cd7e8a6c0","system_id":"levelo_inurba_marseille","lat":43.29893,"lon":5.40947,"is_reserved":false,"is_disabled":false,"rental_uris":{"android":"levelo://app?vid=34e5e96c-68fe-4408-9ab0-fa9cd7e8a6c0","ios":"levelo://app?vid=34e5e96c-68fe-4408-9ab0-fa9cd7e8a6c0"},"vehicle_type_id":"4","last_reported":1774937387,"current_range_meters":7200,"station_id":"","pricing_plan_id":"cebpf4jnsgd1na2vs0mg"},{"bike_id":"e63ef259-6561-4aa5-9a70-4f2767c04e44","system_id":"levelo_inurba_marseille","lat":43.30155,"lon":5.38083,"is_reserved":false,"is_disabled":false,"rental_uris":{"android":"levelo://app?vid=e63ef259-6561-4aa5-9a70-4f2767c04e44","ios":"levelo://app?vid=e63ef259-6561-4aa5-9a70-4f2767c04e44"},"vehicle_type_id":"4","last_reported":1774937387,"current_range_meters":7200,"station_id":"ce4bgjp2rcd13ifvqbh0","pricing_plan_id":"cebpf4jnsgd1na2vs0mg"},{"bike_id":"7807e959-548b-4573-9349-6f8ad219a4a5","system_id":"levelo_inurba_marseille","lat":43.24165,"lon":5.36402,"is_reserved":false,"is_disabled":false,"rental_uris":{"android":"levelo://app?vid=7807e959-548b-4573-9349-6f8ad219a4a5","ios":"levelo://app?vid=7807e959-548b-4573-9349-6f8ad219a4a5"},"vehicle_type_id":"4","last_reported":1774937387,"current_range_meters":7200,"station_id":"cpo36qri1sfpv3e86is0","pricing_plan_id":"cebpf4jnsgd1na2vs0mg"},{"bike_id":"9ab06981-c59f-4073-bb80-0a5fa944b883","system_id":"levelo_inurba_marseille","lat":43.25307,"lon":5.42167,"is_reserved":false,"is_disabled":false,"rental_uris":{"android":"levelo://app?vid=9ab06981-c59f-4073-bb80-0a5fa944b883","ios":"levelo://app?vid=9ab06981-c59f-4073-bb80-0a5fa944b883"},"vehicle_type_id":"4","last_reported":1774937387,"current_range_meters":7200,"station_id":"st_d2m65c5bi1j21697t3ng","pricing_plan_id":"cebpf4jnsgd1na2vs0mg"},{"bike_id":"79dcdae0-b3c4-4023-ae71-02f90d675979","system_id":"levelo_inurba_marseille","lat":43.272064,"lon":5.391783,"is_reserved":false,"is_disabled":false,"rental_uris":{"android":"levelo://app?vid=79dcdae0-b3c4-4023-ae71-02f90d675979","ios":"levelo://app?vid=79dcdae0-b3c4-4023-ae71-02f90d675979"},"vehicle_type_id":"4","last_reported":1774937387,"current_range_meters":7200,"station_id":"ce4bhhp2rcd13ifvqfm0","pricing_plan_id":"cebpf4jnsgd1na2vs0mg"},{"bike_id":"e61a3b02-8828-47a8-8796-a0480c283119","system_id":"levelo_inurba_marseille","lat":43.22955,"lon":5.35393,"is_reserved":false,"is_disabled":false,"rental_uris":{"android":"levelo://app?vid=e61a3b02-8828-47a8-8796-a0480c283119","ios":"levelo://app?vid=e61a3b02-8828-47a8-8796-a0480c283119"},"vehicle_type_id":"4","last_reported":1774937387,"current_range_meters":7200,"station_id":"cpo3532slgdg3j2ikp40","pricing_plan_id":"cebpf4jnsgd1na2vs0mg"},{"bike_id":"2f39bd40-1261-4934-a0c9-a4cc13cd5f9d","system_id":"levelo_inurba_marseille","lat":43.29766,"lon":5.37678,"is_reserved":false,"is_disabled":false,"rental_uris":{"android":"levelo://app?vid=2f39bd40-1261-4934-a0c9-a4cc13cd5f9d","ios":"levelo://app?vid=2f39bd40-1261-4934-a0c9-a4cc13cd5f9d"},"vehicle_type_id":"4","last_reported":1774937387,"current_range_meters":7200,"station_id":"","pricing_plan_id":"cebpf4jnsgd1na2vs0mg"},{"bike_id":"145da0be-3016-4be6-8263-0e24c3e5d1fa","system_id":"levelo_inurba_marseille","lat":43.23962,"lon":5.36617,"is_reserved":false,"is_disabled":false,"rental_uris":{"android":"levelo://app?vid=145da0be-3016-4be6-8263-0e24c3e5d1fa","ios":"levelo://app?vid=145da0be-3016-4be6-8263-0e24c3e5d1fa"},"vehicle_type_id":"4","last_reported":1774937387,"current_range_meters":7200,"station_id":"ce4bhi12rcd13ifvqfp0","pricing_plan_id":"cebpf4jnsgd1na2vs0mg"},{"bike_id":"bb9c9ce8-7ad8-4c58-9c75-429d43a3d175","system_id":"levelo_inurba_marseille","lat":43.24029,"lon":5.36232,"is_reserved":false,"is_disabled":false,"rental_uris":{"android":"levelo://app?vid=bb9c9ce8-7ad8-4c58-9c75-429d43a3d175","ios":"levelo://app?vid=bb9c9ce8-7ad8-4c58-9c75-429d43a3d175"},"vehicle_type_id":"4","last_reported":1774937387,"current_range_meters":7200,"station_id":"","pricing_plan_id":"cebpf4jnsgd1na2vs0mg"},{"bike_id":"8224fee4-1d52-4b11-b16a-70c5a6603dd7","system_id":"levelo_inurba_marseille","lat":43.28473,"lon":5.48363,"is_reserved":false,"is_disabled":false,"rental_uris":{"android":"levelo://app?vid=8224fee4-1d52-4b11-b16a-70c5a6603dd7","ios":"levelo://app?vid=8224fee4-1d52-4b11-b16a-70c5a6603dd7"},"vehicle_type_id":"4","last_reported":1774937387,"current_range_meters":7200,"station_id":"","pricing_plan_id":"cebpf4jnsgd1na2vs0mg"},{"bike_id":"a2df5bbc-915e-4be4-8861-be4d46ce41c0","system_id":"levelo_inurba_marseille","lat":43.28472,"lon":5.48404,"is_reserved":false,"is_disabled":false,"rental_uris":{"android":"levelo://app?vid=a2df5bbc-915e-4be4-8861-be4d46ce41c0","ios":"levelo://app?vid=a2df5bbc-915e-4be4-8861-be4d46ce41c0"},"vehicle_type_id":"4","last_reported":1774937387,"current_range_meters":8000,"station_id":"","pricing_plan_id":"cebpf4jnsgd1na2vs0mg"},{"bike_id":"405bedfb-9935-4390-a8a3-f9ddcf9a97e8","system_id":"levelo_inurba_marseille","lat":43.22535,"lon":5.34835,"is_reserved":false,"is_disabled":false,"rental_uris":{"android":"levelo://app?vid=405bedfb-9935-4390-a8a3-f9ddcf9a97e8","ios":"levelo://app?vid=405bedfb-9935-4390-a8a3-f9ddcf9a97e8"},"vehicle_type_id":"4","last_reported":1774937387,"current_range_meters":8000,"station_id":"st_cvj5dfep6f1abm77gieg","pricing_plan_id":"cebpf4jnsgd1na2vs0mg"},{"bike_id":"eac6a123-5f69-4eb4-aa4b-cdeaecf10b56","system_id":"levelo_inurba_marseille","lat":43.30566,"lon":5.36538,"is_reserved":false,"is_disabled":false,"rental_uris":{"android":"levelo://app?vid=eac6a123-5f69-4eb4-aa4b-cdeaecf10b56","ios":"levelo://app?vid=eac6a123-5f69-4eb4-aa4b-cdeaecf10b56"},"vehicle_type_id":"4","last_reported":1774937387,"current_range_meters":8000,"station_id":"ce4bgs12rcd13ifvqcag","pricing_plan_id":"cebpf4jnsgd1na2vs0mg"},{"bike_id":"e72f4c7b-240a-4bc5-b383-6a5f011f272e","system_id":"levelo_inurba_marseille","lat":43.23193,"lon":5.35545,"is_reserved":false,"is_disabled":false,"rental_uris":{"android":"levelo://app?vid=e72f4c7b-240a-4bc5-b383-6a5f011f272e","ios":"levelo://app?vid=e72f4c7b-240a-4bc5-b383-6a5f011f272e"},"vehicle_type_id":"4","last_reported":1774937387,"current_range_meters":8000,"station_id":"ce4bhu92rcd13ifvqi70","pricing_plan_id":"cebpf4jnsgd1na2vs0mg"},{"bike_id":"aff3ff3f-6b67-4330-8619-cb367673fc13","system_id":"levelo_inurba_marseille","lat":43.24393,"lon":5.37082,"is_reserved":false,"is_disabled":false,"rental_uris":{"android":"levelo://app?vid=aff3ff3f-6b67-4330-8619-cb367673fc13","ios":"levelo://app?vid=aff3ff3f-6b67-4330-8619-cb367673fc13"},"vehicle_type_id":"4","last_reported":1774937387,"current_range_meters":8000,"station_id":"ce4bhhh2rcd13ifvqfk0","pricing_plan_id":"cebpf4jnsgd1na2vs0mg"},{"bike_id":"9c1440ce-c955-43db-9800-7794805da744","system_id":"levelo_inurba_marseille","lat":43.23966,"lon":5.36623,"is_reserved":false,"is_disabled":false,"rental_uris":{"android":"levelo://app?vid=9c1440ce-c955-43db-9800-7794805da744","ios":"levelo://app?vid=9c1440ce-c955-43db-9800-7794805da744"},"vehicle_type_id":"4","last_reported":1774937387,"current_range_meters":8000,"station_id":"ce4bhi12rcd13ifvqfp0","pricing_plan_id":"cebpf4jnsgd1na2vs0mg"},{"bike_id":"ac570c72-def6-491e-a89b-913ec0964775","system_id":"levelo_inurba_marseille","lat":43.31479,"lon":5.37309,"is_reserved":false,"is_disabled":false,"rental_uris":{"android":"levelo://app?vid=ac570c72-def6-491e-a89b-913ec0964775","ios":"levelo://app?vid=ac570c72-def6-491e-a89b-913ec0964775"},"vehicle_type_id":"4","last_reported":1774937387,"current_range_meters":8000,"station_id":"ce4bgt12rcd13ifvqcd0","pricing_plan_id":"cebpf4jnsgd1na2vs0mg"},{"bike_id":"b69b7ee0-eb68-4e40-9110-6ed5a17a58dc","system_id":"levelo_inurba_marseille","lat":43.28421,"lon":5.34997,"is_reserved":false,"is_disabled":false,"rental_uris":{"android":"levelo://app?vid=b69b7ee0-eb68-4e40-9110-6ed5a17a58dc","ios":"levelo://app?vid=b69b7ee0-eb68-4e40-9110-6ed5a17a58dc"},"vehicle_type_id":"4","last_reported":1774937387,"current_range_meters":8000,"station_id":"ce4bhbh2rcd13ifvqepg","pricing_plan_id":"cebpf4jnsgd1na2vs0mg"},{"bike_id":"b25dff54-afe7-486e-b6c2-34f34f416064","system_id":"levelo_inurba_marseille","lat":43.24942,"lon":5.40491,"is_reserved":false,"is_disabled":false,"rental_uris":{"android":"levelo://app?vid=b25dff54-afe7-486e-b6c2-34f34f416064","ios":"levelo://app?vid=b25dff54-afe7-486e-b6c2-34f34f416064"},"vehicle_type_id":"4","last_reported":1774937387,"current_range_meters":8000,"station_id":"st_d2ngiaodas8pm72gd1h0","pricing_plan_id":"cebpf4jnsgd1na2vs0mg"},{"bike_id":"0f2aaab1-6172-4bc1-9a4f-2fb906580fc3","system_id":"levelo_inurba_marseille","lat":43.24957,"lon":5.40511,"is_reserved":false,"is_disabled":false,"rental_uris":{"android":"levelo://app?vid=0f2aaab1-6172-4bc1-9a4f-2fb906580fc3","ios":"levelo://app?vid=0f2aaab1-6172-4bc1-9a4f-2fb906580fc3"},"vehicle_type_id":"4","last_reported":1774937387,"current_range_meters":8000,"station_id":"st_d2ngiaodas8pm72gd1h0","pricing_plan_id":"cebpf4jnsgd1na2vs0mg"},{"bike_id":"cf039980-8909-4a03-aa52-b426c9efd4e8","system_id":"levelo_inurba_marseille","lat":43.2175,"lon":5.34617,"is_reserved":false,"is_disabled":false,"rental_uris":{"android":"levelo://app?vid=cf039980-8909-4a03-aa52-b426c9efd4e8","ios":"levelo://app?vid=cf039980-8909-4a03-aa52-b426c9efd4e8"},"vehicle_type_id":"4","last_reported":1774937387,"current_range_meters":8000,"station_id":"st_cvj6r9ubvosntc0bgbag","pricing_plan_id":"cebpf4jnsgd1na2vs0mg"},{"bike_id":"972a0513-5a4e-4bed-abbb-e0dcbaf8fca2","system_id":"levelo_inurba_marseille","lat":43.31076,"lon":5.37183,"is_reserved":false,"is_disabled":false,"rental_uris":{"android":"levelo://app?vid=972a0513-5a4e-4bed-abbb-e0dcbaf8fca2","ios":"levelo://app?vid=972a0513-5a4e-4bed-abbb-e0dcbaf8fca2"},"vehicle_type_id":"4","last_reported":1774937387,"current_range_meters":8000,"station_id":"st_d4kl2rp97mjs73e7tdfg","pricing_plan_id":"cebpf4jnsgd1na2vs0mg"},{"bike_id":"441a5a22-ec2a-4ce2-8293-b451324771f7","system_id":"levelo_inurba_marseille","lat":43.29859,"lon":5.36274,"is_reserved":false,"is_disabled":false,"rental_uris":{"android":"levelo://app?vid=441a5a22-ec2a-4ce2-8293-b451324771f7","ios":"levelo://app?vid=441a5a22-ec2a-4ce2-8293-b451324771f7"},"vehicle_type_id":"4","last_reported":1774937387,"current_range_meters":8000,"station_id":"ce4bgpp2rcd13ifvqc3g","pricing_plan_id":"cebpf4jnsgd1na2vs0mg"},{"bike_id":"f91bf7ce-ec4e-42e5-aafb-084b4c57b6c4","system_id":"levelo_inurba_marseille","lat":43.30563,"lon":5.3651,"is_reserved":false,"is_disabled":true,"rental_uris":{"android":"levelo://app?vid=f91bf7ce-ec4e-42e5-aafb-084b4c57b6c4","ios":"levelo://app?vid=f91bf7ce-ec4e-42e5-aafb-084b4c57b6c4"},"vehicle_type_id":"4","last_reported":1774937387,"current_range_meters":8400,"station_id":"ce4bgs12rcd13ifvqcag","pricing_plan_id":"cebpf4jnsgd1na2vs0mg"},{"bike_id":"cac7373b-4e12-43c8-909c-29f8382223e3","system_id":"levelo_inurba_marseille","lat":43.23188,"lon":5.39978,"is_reserved":false,"is_disabled":false,"rental_uris":{"android":"levelo://app?vid=cac7373b-4e12-43c8-909c-29f8382223e3","ios":"levelo://app?vid=cac7373b-4e12-43c8-909c-29f8382223e3"},"vehicle_type_id":"4","last_reported":1774937387,"current_range_meters":8400,"station_id":"ce4bhn12rcd13ifvqgqg","pricing_plan_id":"cebpf4jnsgd1na2vs0mg"},{"bike_id":"bcc288dd-6942-4899-95ee-d43aed6e21bd","system_id":"levelo_inurba_marseille","lat":43.3139,"lon":5.36741,"is_reserved":false,"is_disabled":false,"rental_uris":{"android":"levelo://app?vid=bcc288dd-6942-4899-95ee-d43aed6e21bd","ios":"levelo://app?vid=bcc288dd-6942-4899-95ee-d43aed6e21bd"},"vehicle_type_id":"4","last_reported":1774937387,"current_range_meters":8400,"station_id":"","pricing_plan_id":"cebpf4jnsgd1na2vs0mg"},{"bike_id":"0f16a009-1ec6-4493-a8a5-152a3eca1c43","system_id":"levelo_inurba_marseille","lat":43.27071,"lon":5.42283,"is_reserved":false,"is_disabled":false,"rental_uris":{"android":"levelo://app?vid=0f16a009-1ec6-4493-a8a5-152a3eca1c43","ios":"levelo://app?vid=0f16a009-1ec6-4493-a8a5-152a3eca1c43"},"vehicle_type_id":"4","last_reported":1774937387,"current_range_meters":8400,"station_id":"ce4bhk92rcd13ifvqgb0","pricing_plan_id":"cebpf4jnsgd1na2vs0mg"},{"bike_id":"b3466ecc-4c48-4c4d-94a7-8d6040baea0c","system_id":"levelo_inurba_marseille","lat":43.2257,"lon":5.41625,"is_reserved":false,"is_disabled":false,"rental_uris":{"android":"levelo://app?vid=b3466ecc-4c48-4c4d-94a7-8d6040baea0c","ios":"levelo://app?vid=b3466ecc-4c48-4c4d-94a7-8d6040baea0c"},"vehicle_type_id":"4","last_reported":1774937387,"current_range_meters":8400,"station_id":"st_d2o4gvlbi1j2169b742g","pricing_plan_id":"cebpf4jnsgd1na2vs0mg"},{"bike_id":"3a922081-a991-4b97-906e-7f7dba00403a","system_id":"levelo_inurba_marseille","lat":43.32357,"lon":5.36744,"is_reserved":false,"is_disabled":false,"rental_uris":{"android":"levelo://app?vid=3a922081-a991-4b97-906e-7f7dba00403a","ios":"levelo://app?vid=3a922081-a991-4b97-906e-7f7dba00403a"},"vehicle_type_id":"4","last_reported":1774937387,"current_range_meters":8400,"station_id":"ce4bhsh2rcd13ifvqi2g","pricing_plan_id":"cebpf4jnsgd1na2vs0mg"},{"bike_id":"816d1509-b6a4-4401-86a1-6ea0eb371364","system_id":"levelo_inurba_marseille","lat":43.23803,"lon":5.36651,"is_reserved":false,"is_disabled":false,"rental_uris":{"android":"levelo://app?vid=816d1509-b6a4-4401-86a1-6ea0eb371364","ios":"levelo://app?vid=816d1509-b6a4-4401-86a1-6ea0eb371364"},"vehicle_type_id":"4","last_reported":1774937387,"current_range_meters":8400,"station_id":"st_d3nk18o9ro0c73en2l3g","pricing_plan_id":"cebpf4jnsgd1na2vs0mg"},{"bike_id":"54e69b5a-cafc-4b0c-b96c-83cbec1b5321","system_id":"levelo_inurba_marseille","lat":43.29207,"lon":5.36041,"is_reserved":false,"is_disabled":false,"rental_uris":{"android":"levelo://app?vid=54e69b5a-cafc-4b0c-b96c-83cbec1b5321","ios":"levelo://app?vid=54e69b5a-cafc-4b0c-b96c-83cbec1b5321"},"vehicle_type_id":"4","last_reported":1774937387,"current_range_meters":8400,"station_id":"ce4bhbh2rcd13ifvqeqg","pricing_plan_id":"cebpf4jnsgd1na2vs0mg"},{"bike_id":"5c47e650-40f4-4601-958f-97a57f683f54","system_id":"levelo_inurba_marseille","lat":43.26025,"lon":5.37561,"is_reserved":false,"is_disabled":false,"rental_uris":{"android":"levelo://app?vid=5c47e650-40f4-4601-958f-97a57f683f54","ios":"levelo://app?vid=5c47e650-40f4-4601-958f-97a57f683f54"},"vehicle_type_id":"4","last_reported":1774937387,"current_range_meters":8400,"station_id":"ce4bhgh2rcd13ifvqfa0","pricing_plan_id":"cebpf4jnsgd1na2vs0mg"},{"bike_id":"f1c7cedb-7ca6-425d-bb6e-eba3f64564e5","system_id":"levelo_inurba_marseille","lat":43.24186,"lon":5.39729,"is_reserved":false,"is_disabled":false,"rental_uris":{"android":"levelo://app?vid=f1c7cedb-7ca6-425d-bb6e-eba3f64564e5","ios":"levelo://app?vid=f1c7cedb-7ca6-425d-bb6e-eba3f64564e5"},"vehicle_type_id":"4","last_reported":1774937387,"current_range_meters":8400,"station_id":"ce4bhn12rcd13ifvqgpg","pricing_plan_id":"cebpf4jnsgd1na2vs0mg"},{"bike_id":"fc230a14-954a-4d36-be5c-8f8498288ae5","system_id":"levelo_inurba_marseille","lat":43.28279,"lon":5.35072,"is_reserved":false,"is_disabled":false,"rental_uris":{"android":"levelo://app?vid=fc230a14-954a-4d36-be5c-8f8498288ae5","ios":"levelo://app?vid=fc230a14-954a-4d36-be5c-8f8498288ae5"},"vehicle_type_id":"4","last_reported":1774937387,"current_range_meters":8400,"station_id":"ce4bhbp2rcd13ifvqerg","pricing_plan_id":"cebpf4jnsgd1na2vs0mg"},{"bike_id":"71402cb6-01ee-4f5a-9551-b1e9fe6371e2","system_id":"levelo_inurba_marseille","lat":43.28929,"lon":5.43222,"is_reserved":false,"is_disabled":false,"rental_uris":{"android":"levelo://app?vid=71402cb6-01ee-4f5a-9551-b1e9fe6371e2","ios":"levelo://app?vid=71402cb6-01ee-4f5a-9551-b1e9fe6371e2"},"vehicle_type_id":"4","last_reported":1774937387,"current_range_meters":8400,"station_id":"","pricing_plan_id":"cebpf4jnsgd1na2vs0mg"},{"bike_id":"9e8c35a2-3d4d-48a8-87e2-0775e9d3d581","system_id":"levelo_inurba_marseille","lat":43.27481,"lon":5.40824,"is_reserved":false,"is_disabled":false,"rental_uris":{"android":"levelo://app?vid=9e8c35a2-3d4d-48a8-87e2-0775e9d3d581","ios":"levelo://app?vid=9e8c35a2-3d4d-48a8-87e2-0775e9d3d581"},"vehicle_type_id":"4","last_reported":1774937387,"current_range_meters":8400,"station_id":"","pricing_plan_id":"cebpf4jnsgd1na2vs0mg"},{"bike_id":"ba7deb35-b669-454e-ad2d-32596ffa8222","system_id":"levelo_inurba_marseille","lat":43.21738,"lon":5.34615,"is_reserved":false,"is_disabled":false,"rental_uris":{"android":"levelo://app?vid=ba7deb35-b669-454e-ad2d-32596ffa8222","ios":"levelo://app?vid=ba7deb35-b669-454e-ad2d-32596ffa8222"},"vehicle_type_id":"4","last_reported":1774937387,"current_range_meters":8400,"station_id":"st_cvj6r9ubvosntc0bgbag","pricing_plan_id":"cebpf4jnsgd1na2vs0mg"},{"bike_id":"516dc13e-98d2-4db1-9953-88b33774944d","system_id":"levelo_inurba_marseille","lat":43.29531,"lon":5.38663,"is_reserved":false,"is_disabled":false,"rental_uris":{"android":"levelo://app?vid=516dc13e-98d2-4db1-9953-88b33774944d","ios":"levelo://app?vid=516dc13e-98d2-4db1-9953-88b33774944d"},"vehicle_type_id":"4","last_reported":1774937387,"current_range_meters":8400,"station_id":"","pricing_plan_id":"cebpf4jnsgd1na2vs0mg"},{"bike_id":"370e4e08-6d82-4b38-8b87-e7eadfcbd0ed","system_id":"levelo_inurba_marseille","lat":43.24183,"lon":5.39719,"is_reserved":false,"is_disabled":false,"rental_uris":{"android":"levelo://app?vid=370e4e08-6d82-4b38-8b87-e7eadfcbd0ed","ios":"levelo://app?vid=370e4e08-6d82-4b38-8b87-e7eadfcbd0ed"},"vehicle_type_id":"4","last_reported":1774937387,"current_range_meters":8400,"station_id":"ce4bhn12rcd13ifvqgpg","pricing_plan_id":"cebpf4jnsgd1na2vs0mg"},{"bike_id":"10f05ed2-5813-4d4b-a9c2-f44482f892e6","system_id":"levelo_inurba_marseille","lat":43.31555,"lon":5.36903,"is_reserved":false,"is_disabled":false,"rental_uris":{"android":"levelo://app?vid=10f05ed2-5813-4d4b-a9c2-f44482f892e6","ios":"levelo://app?vid=10f05ed2-5813-4d4b-a9c2-f44482f892e6"},"vehicle_type_id":"4","last_reported":1774937387,"current_range_meters":8400,"station_id":"","pricing_plan_id":"cebpf4jnsgd1na2vs0mg"},{"bike_id":"10276c58-e050-4445-9818-914080218a9d","system_id":"levelo_inurba_marseille","lat":43.30933,"lon":5.40148,"is_reserved":false,"is_disabled":false,"rental_uris":{"android":"levelo://app?vid=10276c58-e050-4445-9818-914080218a9d","ios":"levelo://app?vid=10276c58-e050-4445-9818-914080218a9d"},"vehicle_type_id":"4","last_reported":1774937387,"current_range_meters":8400,"station_id":"ce4bgvp2rcd13ifvqct0","pricing_plan_id":"cebpf4jnsgd1na2vs0mg"},{"bike_id":"ff04fdfb-13e8-4c17-8894-bac6f6b3a60d","system_id":"levelo_inurba_marseille","lat":43.21747,"lon":5.34619,"is_reserved":false,"is_disabled":false,"rental_uris":{"android":"levelo://app?vid=ff04fdfb-13e8-4c17-8894-bac6f6b3a60d","ios":"levelo://app?vid=ff04fdfb-13e8-4c17-8894-bac6f6b3a60d"},"vehicle_type_id":"4","last_reported":1774937387,"current_range_meters":8400,"station_id":"st_cvj6r9ubvosntc0bgbag","pricing_plan_id":"cebpf4jnsgd1na2vs0mg"},{"bike_id":"15eb4f4d-a16a-450e-aa13-dca03e151336","system_id":"levelo_inurba_marseille","lat":43.25602,"lon":5.38219,"is_reserved":false,"is_disabled":false,"rental_uris":{"android":"levelo://app?vid=15eb4f4d-a16a-450e-aa13-dca03e151336","ios":"levelo://app?vid=15eb4f4d-a16a-450e-aa13-dca03e151336"},"vehicle_type_id":"4","last_reported":1774937387,"current_range_meters":8400,"station_id":"ce4bhih2rcd13ifvqfs0","pricing_plan_id":"cebpf4jnsgd1na2vs0mg"},{"bike_id":"0ebcc71a-1070-45ee-8791-56ad76c8f07f","system_id":"levelo_inurba_marseille","lat":43.26379,"lon":5.41085,"is_reserved":false,"is_disabled":false,"rental_uris":{"android":"levelo://app?vid=0ebcc71a-1070-45ee-8791-56ad76c8f07f","ios":"levelo://app?vid=0ebcc71a-1070-45ee-8791-56ad76c8f07f"},"vehicle_type_id":"4","last_reported":1774937387,"current_range_meters":8400,"station_id":"st_d4e5ca6na9uc73bfl5fg","pricing_plan_id":"cebpf4jnsgd1na2vs0mg"},{"bike_id":"163652b6-e6e6-445a-980a-c9f02ca8f814","system_id":"levelo_inurba_marseille","lat":43.30151,"lon":5.37429,"is_reserved":false,"is_disabled":true,"rental_uris":{"android":"levelo://app?vid=163652b6-e6e6-445a-980a-c9f02ca8f814","ios":"levelo://app?vid=163652b6-e6e6-445a-980a-c9f02ca8f814"},"vehicle_type_id":"4","last_reported":1774937387,"current_range_meters":8400,"station_id":"ce4bgs92rcd13ifvqcc0","pricing_plan_id":"cebpf4jnsgd1na2vs0mg"},{"bike_id":"43e4bb96-0cd3-4e42-baf5-dd0ee842f69a","system_id":"levelo_inurba_marseille","lat":43.23811,"lon":5.36632,"is_reserved":false,"is_disabled":false,"rental_uris":{"android":"levelo://app?vid=43e4bb96-0cd3-4e42-baf5-dd0ee842f69a","ios":"levelo://app?vid=43e4bb96-0cd3-4e42-baf5-dd0ee842f69a"},"vehicle_type_id":"4","last_reported":1774937387,"current_range_meters":8400,"station_id":"st_d3nk18o9ro0c73en2l3g","pricing_plan_id":"cebpf4jnsgd1na2vs0mg"},{"bike_id":"51475531-7471-47a3-983c-08d19e565fd4","system_id":"levelo_inurba_marseille","lat":43.30132,"lon":5.38101,"is_reserved":false,"is_disabled":false,"rental_uris":{"android":"levelo://app?vid=51475531-7471-47a3-983c-08d19e565fd4","ios":"levelo://app?vid=51475531-7471-47a3-983c-08d19e565fd4"},"vehicle_type_id":"4","last_reported":1774937387,"current_range_meters":8400,"station_id":"ce4bgjp2rcd13ifvqbh0","pricing_plan_id":"cebpf4jnsgd1na2vs0mg"},{"bike_id":"f029bb64-98b9-47ac-a486-617755e6d772","system_id":"levelo_inurba_marseille","lat":43.31508,"lon":5.37239,"is_reserved":false,"is_disabled":false,"rental_uris":{"android":"levelo://app?vid=f029bb64-98b9-47ac-a486-617755e6d772","ios":"levelo://app?vid=f029bb64-98b9-47ac-a486-617755e6d772"},"vehicle_type_id":"4","last_reported":1774937387,"current_range_meters":8400,"station_id":"ce4bgt12rcd13ifvqcd0","pricing_plan_id":"cebpf4jnsgd1na2vs0mg"},{"bike_id":"99357e4e-0fd2-4bed-b022-406a548cc7c5","system_id":"levelo_inurba_marseille","lat":43.23963,"lon":5.36647,"is_reserved":false,"is_disabled":false,"rental_uris":{"android":"levelo://app?vid=99357e4e-0fd2-4bed-b022-406a548cc7c5","ios":"levelo://app?vid=99357e4e-0fd2-4bed-b022-406a548cc7c5"},"vehicle_type_id":"4","last_reported":1774937387,"current_range_meters":8400,"station_id":"ce4bhi12rcd13ifvqfp0","pricing_plan_id":"cebpf4jnsgd1na2vs0mg"},{"bike_id":"6ec1889d-c43d-42d7-9ebb-6d09626d1897","system_id":"levelo_inurba_marseille","lat":43.24655,"lon":5.38949,"is_reserved":false,"is_disabled":false,"rental_uris":{"android":"levelo://app?vid=6ec1889d-c43d-42d7-9ebb-6d09626d1897","ios":"levelo://app?vid=6ec1889d-c43d-42d7-9ebb-6d09626d1897"},"vehicle_type_id":"4","last_reported":1774937387,"current_range_meters":8800,"station_id":"ce4bhg12rcd13ifvqf60","pricing_plan_id":"cebpf4jnsgd1na2vs0mg"},{"bike_id":"379a5960-5d04-4e99-b678-c6915e492344","system_id":"levelo_inurba_marseille","lat":43.25877,"lon":5.39919,"is_reserved":false,"is_disabled":false,"rental_uris":{"android":"levelo://app?vid=379a5960-5d04-4e99-b678-c6915e492344","ios":"levelo://app?vid=379a5960-5d04-4e99-b678-c6915e492344"},"vehicle_type_id":"4","last_reported":1774937387,"current_range_meters":8800,"station_id":"ce4bhl92rcd13ifvqghg","pricing_plan_id":"cebpf4jnsgd1na2vs0mg"},{"bike_id":"e3cff9e0-78d8-41af-883d-72507eeb40ba","system_id":"levelo_inurba_marseille","lat":43.29608,"lon":5.37728,"is_reserved":false,"is_disabled":false,"rental_uris":{"android":"levelo://app?vid=e3cff9e0-78d8-41af-883d-72507eeb40ba","ios":"levelo://app?vid=e3cff9e0-78d8-41af-883d-72507eeb40ba"},"vehicle_type_id":"4","last_reported":1774937387,"current_range_meters":8800,"station_id":"ce4bgi92rcd13ifvqb90","pricing_plan_id":"cebpf4jnsgd1na2vs0mg"},{"bike_id":"052492c6-44ec-4b4e-979f-406ddc725234","system_id":"levelo_inurba_marseille","lat":43.27205,"lon":5.39182,"is_reserved":false,"is_disabled":false,"rental_uris":{"android":"levelo://app?vid=052492c6-44ec-4b4e-979f-406ddc725234","ios":"levelo://app?vid=052492c6-44ec-4b4e-979f-406ddc725234"},"vehicle_type_id":"4","last_reported":1774937387,"current_range_meters":8800,"station_id":"ce4bhhp2rcd13ifvqfm0","pricing_plan_id":"cebpf4jnsgd1na2vs0mg"},{"bike_id":"6154ce6a-6063-43ce-9e4a-767e1486eb9e","system_id":"levelo_inurba_marseille","lat":43.23039,"lon":5.3553,"is_reserved":false,"is_disabled":false,"rental_uris":{"android":"levelo://app?vid=6154ce6a-6063-43ce-9e4a-767e1486eb9e","ios":"levelo://app?vid=6154ce6a-6063-43ce-9e4a-767e1486eb9e"},"vehicle_type_id":"4","last_reported":1774937387,"current_range_meters":8800,"station_id":"cpo3342slgdg3j2ifvpg","pricing_plan_id":"cebpf4jnsgd1na2vs0mg"},{"bike_id":"263491a3-f7c3-4e6d-9bca-504875326559","system_id":"levelo_inurba_marseille","lat":43.287041,"lon":5.373931,"is_reserved":false,"is_disabled":false,"rental_uris":{"android":"levelo://app?vid=263491a3-f7c3-4e6d-9bca-504875326559","ios":"levelo://app?vid=263491a3-f7c3-4e6d-9bca-504875326559"},"vehicle_type_id":"4","last_reported":1774937387,"current_range_meters":8800,"station_id":"ce4bh3p2rcd13ifvqdq0","pricing_plan_id":"cebpf4jnsgd1na2vs0mg"},{"bike_id":"d90b30f7-db03-414a-88e2-268b512c6ce2","system_id":"levelo_inurba_marseille","lat":43.25026,"lon":5.38942,"is_reserved":false,"is_disabled":false,"rental_uris":{"android":"levelo://app?vid=d90b30f7-db03-414a-88e2-268b512c6ce2","ios":"levelo://app?vid=d90b30f7-db03-414a-88e2-268b512c6ce2"},"vehicle_type_id":"4","last_reported":1774937387,"current_range_meters":8800,"station_id":"ce4bhgp2rcd13ifvqfd0","pricing_plan_id":"cebpf4jnsgd1na2vs0mg"},{"bike_id":"602c7046-3fa2-412f-acea-a5dda9264272","system_id":"levelo_inurba_marseille","lat":43.21189,"lon":5.35085,"is_reserved":false,"is_disabled":false,"rental_uris":{"android":"levelo://app?vid=602c7046-3fa2-412f-acea-a5dda9264272","ios":"levelo://app?vid=602c7046-3fa2-412f-acea-a5dda9264272"},"vehicle_type_id":"4","last_reported":1774937387,"current_range_meters":8800,"station_id":"st_cvj6sg6p6f1abm77japg","pricing_plan_id":"cebpf4jnsgd1na2vs0mg"},{"bike_id":"21f87c15-edb4-477e-8bf4-58f311519b25","system_id":"levelo_inurba_marseille","lat":43.28409,"lon":5.34996,"is_reserved":false,"is_disabled":false,"rental_uris":{"android":"levelo://app?vid=21f87c15-edb4-477e-8bf4-58f311519b25","ios":"levelo://app?vid=21f87c15-edb4-477e-8bf4-58f311519b25"},"vehicle_type_id":"4","last_reported":1774937387,"current_range_meters":8800,"station_id":"ce4bhbh2rcd13ifvqepg","pricing_plan_id":"cebpf4jnsgd1na2vs0mg"},{"bike_id":"d41d5ff3-651c-4e70-8a12-e8a105b53c64","system_id":"levelo_inurba_marseille","lat":43.31575,"lon":5.44547,"is_reserved":false,"is_disabled":false,"rental_uris":{"android":"levelo://app?vid=d41d5ff3-651c-4e70-8a12-e8a105b53c64","ios":"levelo://app?vid=d41d5ff3-651c-4e70-8a12-e8a105b53c64"},"vehicle_type_id":"4","last_reported":1774937387,"current_range_meters":8800,"station_id":"","pricing_plan_id":"cebpf4jnsgd1na2vs0mg"},{"bike_id":"1125fe66-4513-406a-b755-6b272a0d7716","system_id":"levelo_inurba_marseille","lat":43.27074,"lon":5.42275,"is_reserved":false,"is_disabled":false,"rental_uris":{"android":"levelo://app?vid=1125fe66-4513-406a-b755-6b272a0d7716","ios":"levelo://app?vid=1125fe66-4513-406a-b755-6b272a0d7716"},"vehicle_type_id":"4","last_reported":1774937387,"current_range_meters":8800,"station_id":"ce4bhk92rcd13ifvqgb0","pricing_plan_id":"cebpf4jnsgd1na2vs0mg"},{"bike_id":"16e274d7-7305-4b38-a146-4da91ab01fb2","system_id":"levelo_inurba_marseille","lat":43.21202,"lon":5.35082,"is_reserved":false,"is_disabled":false,"rental_uris":{"android":"levelo://app?vid=16e274d7-7305-4b38-a146-4da91ab01fb2","ios":"levelo://app?vid=16e274d7-7305-4b38-a146-4da91ab01fb2"},"vehicle_type_id":"4","last_reported":1774937387,"current_range_meters":8800,"station_id":"st_cvj6sg6p6f1abm77japg","pricing_plan_id":"cebpf4jnsgd1na2vs0mg"},{"bike_id":"036a2b6b-ea99-41eb-9a61-1b3cd4fc7387","system_id":"levelo_inurba_marseille","lat":43.31489,"lon":5.39036,"is_reserved":false,"is_disabled":false,"rental_uris":{"android":"levelo://app?vid=036a2b6b-ea99-41eb-9a61-1b3cd4fc7387","ios":"levelo://app?vid=036a2b6b-ea99-41eb-9a61-1b3cd4fc7387"},"vehicle_type_id":"4","last_reported":1774937387,"current_range_meters":8800,"station_id":"","pricing_plan_id":"cebpf4jnsgd1na2vs0mg"},{"bike_id":"806c5839-096f-4e8b-a898-b4c4a93492b0","system_id":"levelo_inurba_marseille","lat":43.27487,"lon":5.41573,"is_reserved":false,"is_disabled":false,"rental_uris":{"android":"levelo://app?vid=806c5839-096f-4e8b-a898-b4c4a93492b0","ios":"levelo://app?vid=806c5839-096f-4e8b-a898-b4c4a93492b0"},"vehicle_type_id":"4","last_reported":1774937387,"current_range_meters":8800,"station_id":"st_d6im8g6chgec73a5pndg","pricing_plan_id":"cebpf4jnsgd1na2vs0mg"},{"bike_id":"839f391b-feab-427a-b17d-2d524e38c555","system_id":"levelo_inurba_marseille","lat":43.23733,"lon":5.36683,"is_reserved":false,"is_disabled":false,"rental_uris":{"android":"levelo://app?vid=839f391b-feab-427a-b17d-2d524e38c555","ios":"levelo://app?vid=839f391b-feab-427a-b17d-2d524e38c555"},"vehicle_type_id":"4","last_reported":1774937387,"current_range_meters":8800,"station_id":"","pricing_plan_id":"cebpf4jnsgd1na2vs0mg"},{"bike_id":"b1e9f130-d8ae-4858-bc10-b368a2ad0d85","system_id":"levelo_inurba_marseille","lat":43.28484,"lon":5.48395,"is_reserved":false,"is_disabled":false,"rental_uris":{"android":"levelo://app?vid=b1e9f130-d8ae-4858-bc10-b368a2ad0d85","ios":"levelo://app?vid=b1e9f130-d8ae-4858-bc10-b368a2ad0d85"},"vehicle_type_id":"4","last_reported":1774937387,"current_range_meters":8800,"station_id":"","pricing_plan_id":"cebpf4jnsgd1na2vs0mg"},{"bike_id":"9741a823-f0f0-4e63-8175-b3fb42128ecb","system_id":"levelo_inurba_marseille","lat":43.28668,"lon":5.38697,"is_reserved":false,"is_disabled":false,"rental_uris":{"android":"levelo://app?vid=9741a823-f0f0-4e63-8175-b3fb42128ecb","ios":"levelo://app?vid=9741a823-f0f0-4e63-8175-b3fb42128ecb"},"vehicle_type_id":"4","last_reported":1774937387,"current_range_meters":8800,"station_id":"ce4bh492rcd13ifvqdug","pricing_plan_id":"cebpf4jnsgd1na2vs0mg"},{"bike_id":"aa363bcf-731a-43c6-a6f8-7c62b12a1925","system_id":"levelo_inurba_marseille","lat":43.28426,"lon":5.34952,"is_reserved":false,"is_disabled":false,"rental_uris":{"android":"levelo://app?vid=aa363bcf-731a-43c6-a6f8-7c62b12a1925","ios":"levelo://app?vid=aa363bcf-731a-43c6-a6f8-7c62b12a1925"},"vehicle_type_id":"4","last_reported":1774937387,"current_range_meters":8800,"station_id":"ce4bhbh2rcd13ifvqepg","pricing_plan_id":"cebpf4jnsgd1na2vs0mg"},{"bike_id":"8b972516-364d-4c36-a2f6-f81da10bf5ee","system_id":"levelo_inurba_marseille","lat":43.30117,"lon":5.43117,"is_reserved":false,"is_disabled":false,"rental_uris":{"android":"levelo://app?vid=8b972516-364d-4c36-a2f6-f81da10bf5ee","ios":"levelo://app?vid=8b972516-364d-4c36-a2f6-f81da10bf5ee"},"vehicle_type_id":"4","last_reported":1774937387,"current_range_meters":8800,"station_id":"st_d3js3co5814s73ftftug","pricing_plan_id":"cebpf4jnsgd1na2vs0mg"},{"bike_id":"25071c0f-06ca-4f55-b889-fd2d8511ad6f","system_id":"levelo_inurba_marseille","lat":43.23883,"lon":5.37456,"is_reserved":false,"is_disabled":false,"rental_uris":{"android":"levelo://app?vid=25071c0f-06ca-4f55-b889-fd2d8511ad6f","ios":"levelo://app?vid=25071c0f-06ca-4f55-b889-fd2d8511ad6f"},"vehicle_type_id":"4","last_reported":1774937387,"current_range_meters":8800,"station_id":"st_d6sm7csbq4hs73f8fpjg","pricing_plan_id":"cebpf4jnsgd1na2vs0mg"},{"bike_id":"fbb75834-f22e-4b0c-a13f-b3782403aa38","system_id":"levelo_inurba_marseille","lat":43.23966,"lon":5.36615,"is_reserved":false,"is_disabled":false,"rental_uris":{"android":"levelo://app?vid=fbb75834-f22e-4b0c-a13f-b3782403aa38","ios":"levelo://app?vid=fbb75834-f22e-4b0c-a13f-b3782403aa38"},"vehicle_type_id":"4","last_reported":1774937387,"current_range_meters":8800,"station_id":"ce4bhi12rcd13ifvqfp0","pricing_plan_id":"cebpf4jnsgd1na2vs0mg"},{"bike_id":"32a0924a-8e16-45d1-8492-18bfd7e01b6a","system_id":"levelo_inurba_marseille","lat":43.2668,"lon":5.38272,"is_reserved":false,"is_disabled":false,"rental_uris":{"android":"levelo://app?vid=32a0924a-8e16-45d1-8492-18bfd7e01b6a","ios":"levelo://app?vid=32a0924a-8e16-45d1-8492-18bfd7e01b6a"},"vehicle_type_id":"4","last_reported":1774937387,"current_range_meters":8800,"station_id":"ce4bhg92rcd13ifvqf90","pricing_plan_id":"cebpf4jnsgd1na2vs0mg"},{"bike_id":"dfb946ce-fedb-4e12-8519-cb8fb15a5c14","system_id":"levelo_inurba_marseille","lat":43.2417,"lon":5.36408,"is_reserved":false,"is_disabled":false,"rental_uris":{"android":"levelo://app?vid=dfb946ce-fedb-4e12-8519-cb8fb15a5c14","ios":"levelo://app?vid=dfb946ce-fedb-4e12-8519-cb8fb15a5c14"},"vehicle_type_id":"4","last_reported":1774937387,"current_range_meters":9200,"station_id":"cpo36qri1sfpv3e86is0","pricing_plan_id":"cebpf4jnsgd1na2vs0mg"},{"bike_id":"97911566-b39d-4772-9786-37508c49e45f","system_id":"levelo_inurba_marseille","lat":43.22563,"lon":5.41633,"is_reserved":false,"is_disabled":false,"rental_uris":{"android":"levelo://app?vid=97911566-b39d-4772-9786-37508c49e45f","ios":"levelo://app?vid=97911566-b39d-4772-9786-37508c49e45f"},"vehicle_type_id":"4","last_reported":1774937387,"current_range_meters":9200,"station_id":"st_d2o4gvlbi1j2169b742g","pricing_plan_id":"cebpf4jnsgd1na2vs0mg"},{"bike_id":"6396a321-212f-4fe5-a7ef-b440a7112be0","system_id":"levelo_inurba_marseille","lat":43.24659,"lon":5.38155,"is_reserved":false,"is_disabled":false,"rental_uris":{"android":"levelo://app?vid=6396a321-212f-4fe5-a7ef-b440a7112be0","ios":"levelo://app?vid=6396a321-212f-4fe5-a7ef-b440a7112be0"},"vehicle_type_id":"4","last_reported":1774937387,"current_range_meters":9200,"station_id":"ce4bhih2rcd13ifvqfr0","pricing_plan_id":"cebpf4jnsgd1na2vs0mg"},{"bike_id":"1130d409-34d2-42ba-a5d5-ed99d6325005","system_id":"levelo_inurba_marseille","lat":43.21757,"lon":5.34602,"is_reserved":false,"is_disabled":false,"rental_uris":{"android":"levelo://app?vid=1130d409-34d2-42ba-a5d5-ed99d6325005","ios":"levelo://app?vid=1130d409-34d2-42ba-a5d5-ed99d6325005"},"vehicle_type_id":"4","last_reported":1774937387,"current_range_meters":9200,"station_id":"st_cvj6r9ubvosntc0bgbag","pricing_plan_id":"cebpf4jnsgd1na2vs0mg"},{"bike_id":"90136d50-c96f-470d-b8f8-1648dc3d8cf3","system_id":"levelo_inurba_marseille","lat":43.279,"lon":5.38018,"is_reserved":false,"is_disabled":false,"rental_uris":{"android":"levelo://app?vid=90136d50-c96f-470d-b8f8-1648dc3d8cf3","ios":"levelo://app?vid=90136d50-c96f-470d-b8f8-1648dc3d8cf3"},"vehicle_type_id":"4","last_reported":1774937387,"current_range_meters":9200,"station_id":"ce4bhf92rcd13ifvqf50","pricing_plan_id":"cebpf4jnsgd1na2vs0mg"},{"bike_id":"2c9a0922-0198-4256-b2ac-2c0d229a41e5","system_id":"levelo_inurba_marseille","lat":43.31306,"lon":5.36746,"is_reserved":false,"is_disabled":false,"rental_uris":{"android":"levelo://app?vid=2c9a0922-0198-4256-b2ac-2c0d229a41e5","ios":"levelo://app?vid=2c9a0922-0198-4256-b2ac-2c0d229a41e5"},"vehicle_type_id":"4","last_reported":1774937387,"current_range_meters":9200,"station_id":"ce4bgr92rcd13ifvqc6g","pricing_plan_id":"cebpf4jnsgd1na2vs0mg"},{"bike_id":"fbd6ff8d-fb4d-4c63-88ea-73036a015698","system_id":"levelo_inurba_marseille","lat":43.28075,"lon":5.39667,"is_reserved":false,"is_disabled":false,"rental_uris":{"android":"levelo://app?vid=fbd6ff8d-fb4d-4c63-88ea-73036a015698","ios":"levelo://app?vid=fbd6ff8d-fb4d-4c63-88ea-73036a015698"},"vehicle_type_id":"4","last_reported":1774937387,"current_range_meters":9200,"station_id":"ce4bho12rcd13ifvqh2g","pricing_plan_id":"cebpf4jnsgd1na2vs0mg"},{"bike_id":"28a174e6-e461-46f7-a9aa-9cc8161d472d","system_id":"levelo_inurba_marseille","lat":43.23151,"lon":5.43705,"is_reserved":false,"is_disabled":false,"rental_uris":{"android":"levelo://app?vid=28a174e6-e461-46f7-a9aa-9cc8161d472d","ios":"levelo://app?vid=28a174e6-e461-46f7-a9aa-9cc8161d472d"},"vehicle_type_id":"4","last_reported":1774937387,"current_range_meters":9200,"station_id":"ce4bhmp2rcd13ifvqgog","pricing_plan_id":"cebpf4jnsgd1na2vs0mg"},{"bike_id":"b53f224e-5c2b-47b3-a19b-0c6884245c31","system_id":"levelo_inurba_marseille","lat":43.23964,"lon":5.36633,"is_reserved":false,"is_disabled":false,"rental_uris":{"android":"levelo://app?vid=b53f224e-5c2b-47b3-a19b-0c6884245c31","ios":"levelo://app?vid=b53f224e-5c2b-47b3-a19b-0c6884245c31"},"vehicle_type_id":"4","last_reported":1774937387,"current_range_meters":9200,"station_id":"ce4bhi12rcd13ifvqfp0","pricing_plan_id":"cebpf4jnsgd1na2vs0mg"},{"bike_id":"2472a388-2ba6-406a-93b5-09de3d970e91","system_id":"levelo_inurba_marseille","lat":43.24387,"lon":5.37057,"is_reserved":false,"is_disabled":false,"rental_uris":{"android":"levelo://app?vid=2472a388-2ba6-406a-93b5-09de3d970e91","ios":"levelo://app?vid=2472a388-2ba6-406a-93b5-09de3d970e91"},"vehicle_type_id":"4","last_reported":1774937387,"current_range_meters":9200,"station_id":"ce4bhhh2rcd13ifvqfk0","pricing_plan_id":"cebpf4jnsgd1na2vs0mg"},{"bike_id":"4a8470a9-be04-4f81-bb53-c84b72549091","system_id":"levelo_inurba_marseille","lat":43.28702,"lon":5.37391,"is_reserved":false,"is_disabled":false,"rental_uris":{"android":"levelo://app?vid=4a8470a9-be04-4f81-bb53-c84b72549091","ios":"levelo://app?vid=4a8470a9-be04-4f81-bb53-c84b72549091"},"vehicle_type_id":"4","last_reported":1774937387,"current_range_meters":9200,"station_id":"ce4bh3p2rcd13ifvqdq0","pricing_plan_id":"cebpf4jnsgd1na2vs0mg"},{"bike_id":"82ef25fe-ced1-4b2f-9f5f-f3e9366b70f0","system_id":"levelo_inurba_marseille","lat":43.28477,"lon":5.48397,"is_reserved":false,"is_disabled":false,"rental_uris":{"android":"levelo://app?vid=82ef25fe-ced1-4b2f-9f5f-f3e9366b70f0","ios":"levelo://app?vid=82ef25fe-ced1-4b2f-9f5f-f3e9366b70f0"},"vehicle_type_id":"4","last_reported":1774937387,"current_range_meters":9200,"station_id":"st_d3svhcjqgbts73a3dn0g","pricing_plan_id":"cebpf4jnsgd1na2vs0mg"},{"bike_id":"04185b8f-2e9d-49d7-af4f-ae8081956dab","system_id":"levelo_inurba_marseille","lat":43.27355,"lon":5.36267,"is_reserved":false,"is_disabled":false,"rental_uris":{"android":"levelo://app?vid=04185b8f-2e9d-49d7-af4f-ae8081956dab","ios":"levelo://app?vid=04185b8f-2e9d-49d7-af4f-ae8081956dab"},"vehicle_type_id":"4","last_reported":1774937387,"current_range_meters":9200,"station_id":"ce4bhbh2rcd13ifvqeo0","pricing_plan_id":"cebpf4jnsgd1na2vs0mg"},{"bike_id":"55ef2f50-62e6-4905-b5cb-f6c29f85d6f9","system_id":"levelo_inurba_marseille","lat":43.28624,"lon":5.35101,"is_reserved":false,"is_disabled":false,"rental_uris":{"android":"levelo://app?vid=55ef2f50-62e6-4905-b5cb-f6c29f85d6f9","ios":"levelo://app?vid=55ef2f50-62e6-4905-b5cb-f6c29f85d6f9"},"vehicle_type_id":"4","last_reported":1774937387,"current_range_meters":9200,"station_id":"ce4bhch2rcd13ifvqeug","pricing_plan_id":"cebpf4jnsgd1na2vs0mg"},{"bike_id":"57f5c05d-cd2b-4b5f-b186-1bc555508dee","system_id":"levelo_inurba_marseille","lat":43.26561,"lon":5.39032,"is_reserved":false,"is_disabled":false,"rental_uris":{"android":"levelo://app?vid=57f5c05d-cd2b-4b5f-b186-1bc555508dee","ios":"levelo://app?vid=57f5c05d-cd2b-4b5f-b186-1bc555508dee"},"vehicle_type_id":"4","last_reported":1774937387,"current_range_meters":9200,"station_id":"ce4bhe12rcd13ifvqf30","pricing_plan_id":"cebpf4jnsgd1na2vs0mg"},{"bike_id":"e5199f13-56ce-46d4-9ec7-d35da2dfbef3","system_id":"levelo_inurba_marseille","lat":43.25931,"lon":5.40913,"is_reserved":false,"is_disabled":false,"rental_uris":{"android":"levelo://app?vid=e5199f13-56ce-46d4-9ec7-d35da2dfbef3","ios":"levelo://app?vid=e5199f13-56ce-46d4-9ec7-d35da2dfbef3"},"vehicle_type_id":"4","last_reported":1774937387,"current_range_meters":9200,"station_id":"ce4bhm92rcd13ifvqglg","pricing_plan_id":"cebpf4jnsgd1na2vs0mg"},{"bike_id":"72509681-52aa-4782-9de0-820bb878387d","system_id":"levelo_inurba_marseille","lat":43.22568,"lon":5.41626,"is_reserved":false,"is_disabled":false,"rental_uris":{"android":"levelo://app?vid=72509681-52aa-4782-9de0-820bb878387d","ios":"levelo://app?vid=72509681-52aa-4782-9de0-820bb878387d"},"vehicle_type_id":"4","last_reported":1774937387,"current_range_meters":9200,"station_id":"st_d2o4gvlbi1j2169b742g","pricing_plan_id":"cebpf4jnsgd1na2vs0mg"},{"bike_id":"f2a7e3a5-cac5-4b5c-9077-f8604e7b1b43","system_id":"levelo_inurba_marseille","lat":43.30362,"lon":5.42509,"is_reserved":false,"is_disabled":false,"rental_uris":{"android":"levelo://app?vid=f2a7e3a5-cac5-4b5c-9077-f8604e7b1b43","ios":"levelo://app?vid=f2a7e3a5-cac5-4b5c-9077-f8604e7b1b43"},"vehicle_type_id":"4","last_reported":1774937387,"current_range_meters":9200,"station_id":"","pricing_plan_id":"cebpf4jnsgd1na2vs0mg"},{"bike_id":"9429a3a7-bfaf-4d22-9c34-88e99e938036","system_id":"levelo_inurba_marseille","lat":43.2894,"lon":5.36665,"is_reserved":false,"is_disabled":false,"rental_uris":{"android":"levelo://app?vid=9429a3a7-bfaf-4d22-9c34-88e99e938036","ios":"levelo://app?vid=9429a3a7-bfaf-4d22-9c34-88e99e938036"},"vehicle_type_id":"4","last_reported":1774937387,"current_range_meters":9200,"station_id":"ce4bhap2rcd13ifvqek0","pricing_plan_id":"cebpf4jnsgd1na2vs0mg"},{"bike_id":"b542c304-293a-45f1-a562-d7fc7dbf754a","system_id":"levelo_inurba_marseille","lat":43.29489,"lon":5.43301,"is_reserved":false,"is_disabled":false,"rental_uris":{"android":"levelo://app?vid=b542c304-293a-45f1-a562-d7fc7dbf754a","ios":"levelo://app?vid=b542c304-293a-45f1-a562-d7fc7dbf754a"},"vehicle_type_id":"4","last_reported":1774937387,"current_range_meters":9600,"station_id":"st_d3j5ugp08ojc73fj9d10","pricing_plan_id":"cebpf4jnsgd1na2vs0mg"},{"bike_id":"91b9f26a-0e95-4320-8860-0ddfe93c00e5","system_id":"levelo_inurba_marseille","lat":43.33546,"lon":5.37453,"is_reserved":false,"is_disabled":false,"rental_uris":{"android":"levelo://app?vid=91b9f26a-0e95-4320-8860-0ddfe93c00e5","ios":"levelo://app?vid=91b9f26a-0e95-4320-8860-0ddfe93c00e5"},"vehicle_type_id":"4","last_reported":1774937387,"current_range_meters":9600,"station_id":"st_d46tts09ee8s73dlu43g","pricing_plan_id":"cebpf4jnsgd1na2vs0mg"},{"bike_id":"ace2b5ee-1355-40d7-ba59-bba7c913ea22","system_id":"levelo_inurba_marseille","lat":43.337444,"lon":5.374475,"is_reserved":false,"is_disabled":true,"rental_uris":{"android":"levelo://app?vid=ace2b5ee-1355-40d7-ba59-bba7c913ea22","ios":"levelo://app?vid=ace2b5ee-1355-40d7-ba59-bba7c913ea22"},"vehicle_type_id":"4","last_reported":1774937387,"current_range_meters":9600,"station_id":"","pricing_plan_id":"cebpf4jnsgd1na2vs0mg"},{"bike_id":"140d59d9-5fe1-4f30-b8f2-8350c1b6a55b","system_id":"levelo_inurba_marseille","lat":43.28397,"lon":5.35003,"is_reserved":false,"is_disabled":false,"rental_uris":{"android":"levelo://app?vid=140d59d9-5fe1-4f30-b8f2-8350c1b6a55b","ios":"levelo://app?vid=140d59d9-5fe1-4f30-b8f2-8350c1b6a55b"},"vehicle_type_id":"4","last_reported":1774937387,"current_range_meters":9600,"station_id":"ce4bhbh2rcd13ifvqepg","pricing_plan_id":"cebpf4jnsgd1na2vs0mg"},{"bike_id":"abf26066-62e3-4844-81c2-27377d8e3830","system_id":"levelo_inurba_marseille","lat":43.27046,"lon":5.4029,"is_reserved":false,"is_disabled":false,"rental_uris":{"android":"levelo://app?vid=abf26066-62e3-4844-81c2-27377d8e3830","ios":"levelo://app?vid=abf26066-62e3-4844-81c2-27377d8e3830"},"vehicle_type_id":"4","last_reported":1774937387,"current_range_meters":9600,"station_id":"ce4bhk92rcd13ifvqgc0","pricing_plan_id":"cebpf4jnsgd1na2vs0mg"},{"bike_id":"1fd14647-60cf-49f0-a971-843beb62395e","system_id":"levelo_inurba_marseille","lat":43.28517,"lon":5.44082,"is_reserved":false,"is_disabled":false,"rental_uris":{"android":"levelo://app?vid=1fd14647-60cf-49f0-a971-843beb62395e","ios":"levelo://app?vid=1fd14647-60cf-49f0-a971-843beb62395e"},"vehicle_type_id":"4","last_reported":1774937387,"current_range_meters":9600,"station_id":"st_d3j3df2ikq2c7380ej80","pricing_plan_id":"cebpf4jnsgd1na2vs0mg"},{"bike_id":"bbe47512-0bee-4235-aaf4-5e9f39a93bf0","system_id":"levelo_inurba_marseille","lat":43.28426,"lon":5.34999,"is_reserved":false,"is_disabled":false,"rental_uris":{"android":"levelo://app?vid=bbe47512-0bee-4235-aaf4-5e9f39a93bf0","ios":"levelo://app?vid=bbe47512-0bee-4235-aaf4-5e9f39a93bf0"},"vehicle_type_id":"4","last_reported":1774937387,"current_range_meters":9600,"station_id":"ce4bhbh2rcd13ifvqepg","pricing_plan_id":"cebpf4jnsgd1na2vs0mg"},{"bike_id":"c4caaf99-5a79-4a58-a53e-b02ed3f93f8e","system_id":"levelo_inurba_marseille","lat":43.2533,"lon":5.42166,"is_reserved":false,"is_disabled":false,"rental_uris":{"android":"levelo://app?vid=c4caaf99-5a79-4a58-a53e-b02ed3f93f8e","ios":"levelo://app?vid=c4caaf99-5a79-4a58-a53e-b02ed3f93f8e"},"vehicle_type_id":"4","last_reported":1774937387,"current_range_meters":9600,"station_id":"st_d2m65c5bi1j21697t3ng","pricing_plan_id":"cebpf4jnsgd1na2vs0mg"},{"bike_id":"f71ea7ad-715c-49ac-9eb4-cedf7aeed7da","system_id":"levelo_inurba_marseille","lat":43.27069,"lon":5.42282,"is_reserved":false,"is_disabled":false,"rental_uris":{"android":"levelo://app?vid=f71ea7ad-715c-49ac-9eb4-cedf7aeed7da","ios":"levelo://app?vid=f71ea7ad-715c-49ac-9eb4-cedf7aeed7da"},"vehicle_type_id":"4","last_reported":1774937387,"current_range_meters":9600,"station_id":"ce4bhk92rcd13ifvqgb0","pricing_plan_id":"cebpf4jnsgd1na2vs0mg"},{"bike_id":"33f3c10f-22cd-4c73-a574-94b484b74c9e","system_id":"levelo_inurba_marseille","lat":43.2855,"lon":5.44114,"is_reserved":false,"is_disabled":false,"rental_uris":{"android":"levelo://app?vid=33f3c10f-22cd-4c73-a574-94b484b74c9e","ios":"levelo://app?vid=33f3c10f-22cd-4c73-a574-94b484b74c9e"},"vehicle_type_id":"4","last_reported":1774937387,"current_range_meters":9600,"station_id":"st_d3j3df2ikq2c7380ej80","pricing_plan_id":"cebpf4jnsgd1na2vs0mg"},{"bike_id":"0f182db9-a1f9-46fd-9199-275e74a125d7","system_id":"levelo_inurba_marseille","lat":43.24167,"lon":5.36398,"is_reserved":false,"is_disabled":false,"rental_uris":{"android":"levelo://app?vid=0f182db9-a1f9-46fd-9199-275e74a125d7","ios":"levelo://app?vid=0f182db9-a1f9-46fd-9199-275e74a125d7"},"vehicle_type_id":"4","last_reported":1774937387,"current_range_meters":9600,"station_id":"cpo36qri1sfpv3e86is0","pricing_plan_id":"cebpf4jnsgd1na2vs0mg"},{"bike_id":"685e8030-bbac-4861-b623-2759f8d96772","system_id":"levelo_inurba_marseille","lat":43.30193,"lon":5.38079,"is_reserved":false,"is_disabled":false,"rental_uris":{"android":"levelo://app?vid=685e8030-bbac-4861-b623-2759f8d96772","ios":"levelo://app?vid=685e8030-bbac-4861-b623-2759f8d96772"},"vehicle_type_id":"4","last_reported":1774937387,"current_range_meters":9600,"station_id":"","pricing_plan_id":"cebpf4jnsgd1na2vs0mg"},{"bike_id":"23fae560-46e8-4ba5-8b12-0c719bb02ab5","system_id":"levelo_inurba_marseille","lat":43.30101,"lon":5.40191,"is_reserved":false,"is_disabled":false,"rental_uris":{"android":"levelo://app?vid=23fae560-46e8-4ba5-8b12-0c719bb02ab5","ios":"levelo://app?vid=23fae560-46e8-4ba5-8b12-0c719bb02ab5"},"vehicle_type_id":"4","last_reported":1774937387,"current_range_meters":9600,"station_id":"","pricing_plan_id":"cebpf4jnsgd1na2vs0mg"},{"bike_id":"f994d906-16d8-4b1a-869e-3ac991c8f7a9","system_id":"levelo_inurba_marseille","lat":43.24367,"lon":5.37062,"is_reserved":false,"is_disabled":false,"rental_uris":{"android":"levelo://app?vid=f994d906-16d8-4b1a-869e-3ac991c8f7a9","ios":"levelo://app?vid=f994d906-16d8-4b1a-869e-3ac991c8f7a9"},"vehicle_type_id":"4","last_reported":1774937387,"current_range_meters":9600,"station_id":"ce4bhhh2rcd13ifvqfk0","pricing_plan_id":"cebpf4jnsgd1na2vs0mg"},{"bike_id":"ec7f1113-7689-4025-9f13-3d4deb94a203","system_id":"levelo_inurba_marseille","lat":43.3105,"lon":5.38606,"is_reserved":false,"is_disabled":false,"rental_uris":{"android":"levelo://app?vid=ec7f1113-7689-4025-9f13-3d4deb94a203","ios":"levelo://app?vid=ec7f1113-7689-4025-9f13-3d4deb94a203"},"vehicle_type_id":"4","last_reported":1774937387,"current_range_meters":9600,"station_id":"","pricing_plan_id":"cebpf4jnsgd1na2vs0mg"},{"bike_id":"ed3c25ee-c20c-481c-beb0-4f8683ba83a3","system_id":"levelo_inurba_marseille","lat":43.31699,"lon":5.37766,"is_reserved":false,"is_disabled":false,"rental_uris":{"android":"levelo://app?vid=ed3c25ee-c20c-481c-beb0-4f8683ba83a3","ios":"levelo://app?vid=ed3c25ee-c20c-481c-beb0-4f8683ba83a3"},"vehicle_type_id":"4","last_reported":1774937387,"current_range_meters":10000,"station_id":"ce4bgth2rcd13ifvqch0","pricing_plan_id":"cebpf4jnsgd1na2vs0mg"},{"bike_id":"e5a7a53a-b267-4440-9c9f-66f6b2ca226b","system_id":"levelo_inurba_marseille","lat":43.29602,"lon":5.37193,"is_reserved":false,"is_disabled":false,"rental_uris":{"android":"levelo://app?vid=e5a7a53a-b267-4440-9c9f-66f6b2ca226b","ios":"levelo://app?vid=e5a7a53a-b267-4440-9c9f-66f6b2ca226b"},"vehicle_type_id":"4","last_reported":1774937387,"current_range_meters":10000,"station_id":"ce4bgnh2rcd13ifvqc0g","pricing_plan_id":"cebpf4jnsgd1na2vs0mg"},{"bike_id":"398d66c7-10fe-4a0c-b4e1-8299be260932","system_id":"levelo_inurba_marseille","lat":43.27155,"lon":5.40989,"is_reserved":false,"is_disabled":false,"rental_uris":{"android":"levelo://app?vid=398d66c7-10fe-4a0c-b4e1-8299be260932","ios":"levelo://app?vid=398d66c7-10fe-4a0c-b4e1-8299be260932"},