{"last_updated":1739808683,"ttl":60,"version":"2.2","data":{"bikes":[{"bike_id":"2a577a8a-ba9c-4720-9a36-39d8ee37f3f0","system_id":"levelo_inurba_marseille","lat":43.29539,"lon":5.385404,"is_reserved":false,"is_disabled":false,"rental_uris":{"android":"levelo://app?vid=2a577a8a-ba9c-4720-9a36-39d8ee37f3f0","ios":"levelo://app?vid=2a577a8a-ba9c-4720-9a36-39d8ee37f3f0"},"vehicle_type_id":"4","last_reported":1739808684,"current_range_meters":2800,"station_id":"ce4bgih2rcd13ifvqba0","pricing_plan_id":"cebpf4jnsgd1na2vs0mg"},{"bike_id":"d99f91da-1eb7-4ee5-8a19-e5ac896ea577","system_id":"levelo_inurba_marseille","lat":43.28578,"lon":5.39501,"is_reserved":false,"is_disabled":false,"rental_uris":{"android":"levelo://app?vid=d99f91da-1eb7-4ee5-8a19-e5ac896ea577","ios":"levelo://app?vid=d99f91da-1eb7-4ee5-8a19-e5ac896ea577"},"vehicle_type_id":"4","last_reported":1739808684,"current_range_meters":2800,"station_id":"","pricing_plan_id":"cebpf4jnsgd1na2vs0mg"},{"bike_id":"34f2496f-5c9b-4c0f-9031-60f76260fe99","system_id":"levelo_inurba_marseille","lat":43.30382,"lon":5.410434,"is_reserved":false,"is_disabled":false,"rental_uris":{"android":"levelo://app?vid=34f2496f-5c9b-4c0f-9031-60f76260fe99","ios":"levelo://app?vid=34f2496f-5c9b-4c0f-9031-60f76260fe99"},"vehicle_type_id":"4","last_reported":1739808684,"current_range_meters":4000,"station_id":"ce4bhop2rcd13ifvqh8g","pricing_plan_id":"cebpf4jnsgd1na2vs0mg"},{"bike_id":"18332cc9-0f16-4941-9018-c3813354a900","system_id":"levelo_inurba_marseille","lat":43.27628,"lon":5.39365,"is_reserved":false,"is_disabled":true,"rental_uris":{"android":"levelo://app?vid=18332cc9-0f16-4941-9018-c3813354a900","ios":"levelo://app?vid=18332cc9-0f16-4941-9018-c3813354a900"},"vehicle_type_id":"4","last_reported":1739808684,"current_range_meters":2800,"station_id":"","pricing_plan_id":"cebpf4jnsgd1na2vs0mg"},{"bike_id":"480bf8c1-f6c7-4290-b8d8-04dc8bf9a9f9","system_id":"levelo_inurba_marseille","lat":43.30464,"lon":5.37905,"is_reserved":false,"is_disabled":false,"rental_uris":{"android":"levelo://app?vid=480bf8c1-f6c7-4290-b8d8-04dc8bf9a9f9","ios":"levelo://app?vid=480bf8c1-f6c7-4290-b8d8-04dc8bf9a9f9"},"vehicle_type_id":"4","last_reported":1739808684,"current_range_meters":3200,"station_id":"ce4bgup2rcd13ifvqcn0","pricing_plan_id":"cebpf4jnsgd1na2vs0mg"},{"bike_id":"f35bac2a-08f3-4a43-addb-89655fbdb3d4","system_id":"levelo_inurba_marseille","lat":43.26578,"lon":5.42306,"is_reserved":false,"is_disabled":false,"rental_uris":{"android":"levelo://app?vid=f35bac2a-08f3-4a43-addb-89655fbdb3d4","ios":"levelo://app?vid=f35bac2a-08f3-4a43-addb-89655fbdb3d4"},"vehicle_type_id":"4","last_reported":1739808684,"current_range_meters":3200,"station_id":"","pricing_plan_id":"cebpf4jnsgd1na2vs0mg"},{"bike_id":"c45c6008-fe2a-4181-b247-287214efa224","system_id":"levelo_inurba_marseille","lat":43.30204,"lon":5.39477,"is_reserved":false,"is_disabled":false,"rental_uris":{"android":"levelo://app?vid=c45c6008-fe2a-4181-b247-287214efa224","ios":"levelo://app?vid=c45c6008-fe2a-4181-b247-287214efa224"},"vehicle_type_id":"4","last_reported":1739808684,"current_range_meters":3600,"station_id":"","pricing_plan_id":"cebpf4jnsgd1na2vs0mg"},{"bike_id":"e250bc1e-a661-4d70-90e5-517bf054db3f","system_id":"levelo_inurba_marseille","lat":43.26214,"lon":5.37444,"is_reserved":false,"is_disabled":false,"rental_uris":{"android":"levelo://app?vid=e250bc1e-a661-4d70-90e5-517bf054db3f","ios":"levelo://app?vid=e250bc1e-a661-4d70-90e5-517bf054db3f"},"vehicle_type_id":"4","last_reported":1739808684,"current_range_meters":3600,"station_id":"ce4bhgp2rcd13ifvqfc0","pricing_plan_id":"cebpf4jnsgd1na2vs0mg"},{"bike_id":"4e7beed8-3f51-4c59-a37c-0ac46140a818","system_id":"levelo_inurba_marseille","lat":43.26945,"lon":5.38622,"is_reserved":false,"is_disabled":true,"rental_uris":{"android":"levelo://app?vid=4e7beed8-3f51-4c59-a37c-0ac46140a818","ios":"levelo://app?vid=4e7beed8-3f51-4c59-a37c-0ac46140a818"},"vehicle_type_id":"4","last_reported":1739808684,"current_range_meters":4000,"station_id":"","pricing_plan_id":"cebpf4jnsgd1na2vs0mg"},{"bike_id":"4782061e-618c-457d-bccd-32aa2f459be4","system_id":"levelo_inurba_marseille","lat":43.299103,"lon":5.374749,"is_reserved":false,"is_disabled":false,"rental_uris":{"android":"levelo://app?vid=4782061e-618c-457d-bccd-32aa2f459be4","ios":"levelo://app?vid=4782061e-618c-457d-bccd-32aa2f459be4"},"vehicle_type_id":"4","last_reported":1739808684,"current_range_meters":4400,"station_id":"ce4bgjh2rcd13ifvqbg0","pricing_plan_id":"cebpf4jnsgd1na2vs0mg"},{"bike_id":"bf5273ae-9470-4972-81cc-ac27a2316f56","system_id":"levelo_inurba_marseille","lat":43.23967,"lon":5.36638,"is_reserved":false,"is_disabled":false,"rental_uris":{"android":"levelo://app?vid=bf5273ae-9470-4972-81cc-ac27a2316f56","ios":"levelo://app?vid=bf5273ae-9470-4972-81cc-ac27a2316f56"},"vehicle_type_id":"4","last_reported":1739808684,"current_range_meters":4400,"station_id":"ce4bhi12rcd13ifvqfp0","pricing_plan_id":"cebpf4jnsgd1na2vs0mg"},{"bike_id":"b620e2fa-210e-4b23-a9ef-d033177163c5","system_id":"levelo_inurba_marseille","lat":43.27992,"lon":5.40034,"is_reserved":false,"is_disabled":false,"rental_uris":{"android":"levelo://app?vid=b620e2fa-210e-4b23-a9ef-d033177163c5","ios":"levelo://app?vid=b620e2fa-210e-4b23-a9ef-d033177163c5"},"vehicle_type_id":"4","last_reported":1739808684,"current_range_meters":4400,"station_id":"ce4bho92rcd13ifvqh4g","pricing_plan_id":"cebpf4jnsgd1na2vs0mg"},{"bike_id":"d91e5174-ec9b-4eac-ac1c-c13c307c2853","system_id":"levelo_inurba_marseille","lat":43.25014,"lon":5.38931,"is_reserved":false,"is_disabled":false,"rental_uris":{"android":"levelo://app?vid=d91e5174-ec9b-4eac-ac1c-c13c307c2853","ios":"levelo://app?vid=d91e5174-ec9b-4eac-ac1c-c13c307c2853"},"vehicle_type_id":"4","last_reported":1739808684,"current_range_meters":5600,"station_id":"","pricing_plan_id":"cebpf4jnsgd1na2vs0mg"},{"bike_id":"2e629315-7ebb-4359-a43c-c92b0b270186","system_id":"levelo_inurba_marseille","lat":43.28349,"lon":5.38096,"is_reserved":false,"is_disabled":false,"rental_uris":{"android":"levelo://app?vid=2e629315-7ebb-4359-a43c-c92b0b270186","ios":"levelo://app?vid=2e629315-7ebb-4359-a43c-c92b0b270186"},"vehicle_type_id":"4","last_reported":1739808684,"current_range_meters":14400,"station_id":"ce4bh412rcd13ifvqdr0","pricing_plan_id":"cebpf4jnsgd1na2vs0mg"},{"bike_id":"4ea409b4-4ae3-402f-b8b9-a33789343e00","system_id":"levelo_inurba_marseille","lat":43.30094,"lon":5.39074,"is_reserved":false,"is_disabled":false,"rental_uris":{"android":"levelo://app?vid=4ea409b4-4ae3-402f-b8b9-a33789343e00","ios":"levelo://app?vid=4ea409b4-4ae3-402f-b8b9-a33789343e00"},"vehicle_type_id":"4","last_reported":1739808684,"current_range_meters":5600,"station_id":"ce4bh192rcd13ifvqdb0","pricing_plan_id":"cebpf4jnsgd1na2vs0mg"},{"bike_id":"f3286808-b363-406a-9268-990de55986b6","system_id":"levelo_inurba_marseille","lat":43.25488,"lon":5.37645,"is_reserved":false,"is_disabled":false,"rental_uris":{"android":"levelo://app?vid=f3286808-b363-406a-9268-990de55986b6","ios":"levelo://app?vid=f3286808-b363-406a-9268-990de55986b6"},"vehicle_type_id":"4","last_reported":1739808684,"current_range_meters":6000,"station_id":"ce4bhh12rcd13ifvqff0","pricing_plan_id":"cebpf4jnsgd1na2vs0mg"},{"bike_id":"6b21d320-52d0-422d-a96b-25dc166ffb72","system_id":"levelo_inurba_marseille","lat":43.30414,"lon":5.41282,"is_reserved":false,"is_disabled":true,"rental_uris":{"android":"levelo://app?vid=6b21d320-52d0-422d-a96b-25dc166ffb72","ios":"levelo://app?vid=6b21d320-52d0-422d-a96b-25dc166ffb72"},"vehicle_type_id":"4","last_reported":1739808684,"current_range_meters":6000,"station_id":"ce4bhop2rcd13ifvqh8g","pricing_plan_id":"cebpf4jnsgd1na2vs0mg"},{"bike_id":"c7d61bf0-3af4-41b2-98d7-90e51032b774","system_id":"levelo_inurba_marseille","lat":43.30214,"lon":5.39465,"is_reserved":false,"is_disabled":false,"rental_uris":{"android":"levelo://app?vid=c7d61bf0-3af4-41b2-98d7-90e51032b774","ios":"levelo://app?vid=c7d61bf0-3af4-41b2-98d7-90e51032b774"},"vehicle_type_id":"4","last_reported":1739808684,"current_range_meters":6000,"station_id":"","pricing_plan_id":"cebpf4jnsgd1na2vs0mg"},{"bike_id":"323c888b-d2f8-4b9f-aa75-726e8a6ab6b2","system_id":"levelo_inurba_marseille","lat":43.27077,"lon":5.42285,"is_reserved":false,"is_disabled":false,"rental_uris":{"android":"levelo://app?vid=323c888b-d2f8-4b9f-aa75-726e8a6ab6b2","ios":"levelo://app?vid=323c888b-d2f8-4b9f-aa75-726e8a6ab6b2"},"vehicle_type_id":"4","last_reported":1739808684,"current_range_meters":6400,"station_id":"ce4bhk92rcd13ifvqgb0","pricing_plan_id":"cebpf4jnsgd1na2vs0mg"},{"bike_id":"f4d94bde-05f8-4206-bced-3327860533e6","system_id":"levelo_inurba_marseille","lat":43.30473,"lon":5.379,"is_reserved":false,"is_disabled":false,"rental_uris":{"android":"levelo://app?vid=f4d94bde-05f8-4206-bced-3327860533e6","ios":"levelo://app?vid=f4d94bde-05f8-4206-bced-3327860533e6"},"vehicle_type_id":"4","last_reported":1739808684,"current_range_meters":6400,"station_id":"ce4bgup2rcd13ifvqcn0","pricing_plan_id":"cebpf4jnsgd1na2vs0mg"},{"bike_id":"049a834f-37bf-4b7a-bb7d-2cd96599019d","system_id":"levelo_inurba_marseille","lat":43.24178,"lon":5.3973,"is_reserved":false,"is_disabled":false,"rental_uris":{"android":"levelo://app?vid=049a834f-37bf-4b7a-bb7d-2cd96599019d","ios":"levelo://app?vid=049a834f-37bf-4b7a-bb7d-2cd96599019d"},"vehicle_type_id":"4","last_reported":1739808684,"current_range_meters":6400,"station_id":"ce4bhn12rcd13ifvqgpg","pricing_plan_id":"cebpf4jnsgd1na2vs0mg"},{"bike_id":"d44236ba-71a5-47f7-b336-30d61a0779fa","system_id":"levelo_inurba_marseille","lat":43.24178,"lon":5.39731,"is_reserved":false,"is_disabled":false,"rental_uris":{"android":"levelo://app?vid=d44236ba-71a5-47f7-b336-30d61a0779fa","ios":"levelo://app?vid=d44236ba-71a5-47f7-b336-30d61a0779fa"},"vehicle_type_id":"4","last_reported":1739808684,"current_range_meters":6400,"station_id":"ce4bhn12rcd13ifvqgpg","pricing_plan_id":"cebpf4jnsgd1na2vs0mg"},{"bike_id":"1d6f5a5a-bf78-4d12-91e4-6dc8a2b7ed98","system_id":"levelo_inurba_marseille","lat":43.27501,"lon":5.42438,"is_reserved":false,"is_disabled":true,"rental_uris":{"android":"levelo://app?vid=1d6f5a5a-bf78-4d12-91e4-6dc8a2b7ed98","ios":"levelo://app?vid=1d6f5a5a-bf78-4d12-91e4-6dc8a2b7ed98"},"vehicle_type_id":"4","last_reported":1739808684,"current_range_meters":6400,"station_id":"ce4bhn92rcd13ifvqgrg","pricing_plan_id":"cebpf4jnsgd1na2vs0mg"},{"bike_id":"1002134f-df9c-44ac-ab50-ba8dfaece3a7","system_id":"levelo_inurba_marseille","lat":43.27672,"lon":5.38972,"is_reserved":false,"is_disabled":false,"rental_uris":{"android":"levelo://app?vid=1002134f-df9c-44ac-ab50-ba8dfaece3a7","ios":"levelo://app?vid=1002134f-df9c-44ac-ab50-ba8dfaece3a7"},"vehicle_type_id":"4","last_reported":1739808684,"current_range_meters":6800,"station_id":"ce4bhi12rcd13ifvqfo0","pricing_plan_id":"cebpf4jnsgd1na2vs0mg"},{"bike_id":"ce61429a-686f-445d-80d9-4b10876ed4ef","system_id":"levelo_inurba_marseille","lat":43.337444,"lon":5.374475,"is_reserved":false,"is_disabled":true,"rental_uris":{"android":"levelo://app?vid=ce61429a-686f-445d-80d9-4b10876ed4ef","ios":"levelo://app?vid=ce61429a-686f-445d-80d9-4b10876ed4ef"},"vehicle_type_id":"4","last_reported":1739808684,"current_range_meters":6800,"station_id":"","pricing_plan_id":"cebpf4jnsgd1na2vs0mg"},{"bike_id":"d6d460f8-566d-49ac-81f8-f5aabdf307b7","system_id":"levelo_inurba_marseille","lat":43.30465,"lon":5.37911,"is_reserved":false,"is_disabled":false,"rental_uris":{"android":"levelo://app?vid=d6d460f8-566d-49ac-81f8-f5aabdf307b7","ios":"levelo://app?vid=d6d460f8-566d-49ac-81f8-f5aabdf307b7"},"vehicle_type_id":"4","last_reported":1739808684,"current_range_meters":6800,"station_id":"ce4bgup2rcd13ifvqcn0","pricing_plan_id":"cebpf4jnsgd1na2vs0mg"},{"bike_id":"158c478a-9c9a-4a70-9028-5fd536a9bc47","system_id":"levelo_inurba_marseille","lat":43.265045,"lon":5.3954,"is_reserved":false,"is_disabled":false,"rental_uris":{"android":"levelo://app?vid=158c478a-9c9a-4a70-9028-5fd536a9bc47","ios":"levelo://app?vid=158c478a-9c9a-4a70-9028-5fd536a9bc47"},"vehicle_type_id":"4","last_reported":1739808684,"current_range_meters":6800,"station_id":"ce4bhi12rcd13ifvqfq0","pricing_plan_id":"cebpf4jnsgd1na2vs0mg"},{"bike_id":"c52a32d3-7476-4bfa-8069-0f6e6def3ce1","system_id":"levelo_inurba_marseille","lat":43.26958,"lon":5.38632,"is_reserved":false,"is_disabled":false,"rental_uris":{"android":"levelo://app?vid=c52a32d3-7476-4bfa-8069-0f6e6def3ce1","ios":"levelo://app?vid=c52a32d3-7476-4bfa-8069-0f6e6def3ce1"},"vehicle_type_id":"4","last_reported":1739808684,"current_range_meters":6800,"station_id":"ce4bhh92rcd13ifvqfh0","pricing_plan_id":"cebpf4jnsgd1na2vs0mg"},{"bike_id":"b259ec2f-3a85-43df-9379-f97beaa6b6db","system_id":"levelo_inurba_marseille","lat":43.29996,"lon":5.3719,"is_reserved":false,"is_disabled":false,"rental_uris":{"android":"levelo://app?vid=b259ec2f-3a85-43df-9379-f97beaa6b6db","ios":"levelo://app?vid=b259ec2f-3a85-43df-9379-f97beaa6b6db"},"vehicle_type_id":"4","last_reported":1739808684,"current_range_meters":7200,"station_id":"","pricing_plan_id":"cebpf4jnsgd1na2vs0mg"},{"bike_id":"18a1e9d0-4abe-4351-a324-40a79007cef3","system_id":"levelo_inurba_marseille","lat":43.29263,"lon":5.40923,"is_reserved":false,"is_disabled":false,"rental_uris":{"android":"levelo://app?vid=18a1e9d0-4abe-4351-a324-40a79007cef3","ios":"levelo://app?vid=18a1e9d0-4abe-4351-a324-40a79007cef3"},"vehicle_type_id":"4","last_reported":1739808684,"current_range_meters":7200,"station_id":"ce4bh192rcd13ifvqdc0","pricing_plan_id":"cebpf4jnsgd1na2vs0mg"},{"bike_id":"96a96649-77a9-44c4-824f-d3e92f79f91f","system_id":"levelo_inurba_marseille","lat":43.23972,"lon":5.36632,"is_reserved":false,"is_disabled":false,"rental_uris":{"android":"levelo://app?vid=96a96649-77a9-44c4-824f-d3e92f79f91f","ios":"levelo://app?vid=96a96649-77a9-44c4-824f-d3e92f79f91f"},"vehicle_type_id":"4","last_reported":1739808684,"current_range_meters":7200,"station_id":"ce4bhi12rcd13ifvqfp0","pricing_plan_id":"cebpf4jnsgd1na2vs0mg"},{"bike_id":"68c9ec09-efa3-42b7-9d9b-298456b6ded4","system_id":"levelo_inurba_marseille","lat":43.30475,"lon":5.36967,"is_reserved":false,"is_disabled":false,"rental_uris":{"android":"levelo://app?vid=68c9ec09-efa3-42b7-9d9b-298456b6ded4","ios":"levelo://app?vid=68c9ec09-efa3-42b7-9d9b-298456b6ded4"},"vehicle_type_id":"4","last_reported":1739808684,"current_range_meters":7200,"station_id":"","pricing_plan_id":"cebpf4jnsgd1na2vs0mg"},{"bike_id":"c4916927-7d10-4eb6-bf80-df6fa900d439","system_id":"levelo_inurba_marseille","lat":43.29556,"lon":5.423,"is_reserved":false,"is_disabled":true,"rental_uris":{"android":"levelo://app?vid=c4916927-7d10-4eb6-bf80-df6fa900d439","ios":"levelo://app?vid=c4916927-7d10-4eb6-bf80-df6fa900d439"},"vehicle_type_id":"4","last_reported":1739808684,"current_range_meters":7200,"station_id":"ce4bhph2rcd13ifvqhdg","pricing_plan_id":"cebpf4jnsgd1na2vs0mg"},{"bike_id":"4089f1a0-cd12-42d3-a6c3-01d445970a86","system_id":"levelo_inurba_marseille","lat":43.31252,"lon":5.37431,"is_reserved":false,"is_disabled":false,"rental_uris":{"android":"levelo://app?vid=4089f1a0-cd12-42d3-a6c3-01d445970a86","ios":"levelo://app?vid=4089f1a0-cd12-42d3-a6c3-01d445970a86"},"vehicle_type_id":"4","last_reported":1739808684,"current_range_meters":7200,"station_id":"","pricing_plan_id":"cebpf4jnsgd1na2vs0mg"},{"bike_id":"3a9a968d-dcc9-4ffb-90af-aadcb8469a1d","system_id":"levelo_inurba_marseille","lat":43.32242,"lon":5.39412,"is_reserved":false,"is_disabled":false,"rental_uris":{"android":"levelo://app?vid=3a9a968d-dcc9-4ffb-90af-aadcb8469a1d","ios":"levelo://app?vid=3a9a968d-dcc9-4ffb-90af-aadcb8469a1d"},"vehicle_type_id":"4","last_reported":1739808684,"current_range_meters":7200,"station_id":"","pricing_plan_id":"cebpf4jnsgd1na2vs0mg"},{"bike_id":"2b51147d-1f92-480b-a06a-e9b8532cd66d","system_id":"levelo_inurba_marseille","lat":43.27997,"lon":5.41658,"is_reserved":false,"is_disabled":false,"rental_uris":{"android":"levelo://app?vid=2b51147d-1f92-480b-a06a-e9b8532cd66d","ios":"levelo://app?vid=2b51147d-1f92-480b-a06a-e9b8532cd66d"},"vehicle_type_id":"4","last_reported":1739808684,"current_range_meters":7200,"station_id":"ce4bho12rcd13ifvqh1g","pricing_plan_id":"cebpf4jnsgd1na2vs0mg"},{"bike_id":"33a2f713-59cf-4dee-bd5e-cf5438338de0","system_id":"levelo_inurba_marseille","lat":43.30481,"lon":5.36975,"is_reserved":false,"is_disabled":false,"rental_uris":{"android":"levelo://app?vid=33a2f713-59cf-4dee-bd5e-cf5438338de0","ios":"levelo://app?vid=33a2f713-59cf-4dee-bd5e-cf5438338de0"},"vehicle_type_id":"4","last_reported":1739808684,"current_range_meters":7200,"station_id":"","pricing_plan_id":"cebpf4jnsgd1na2vs0mg"},{"bike_id":"37985d1e-58e4-447a-a26a-66e367254631","system_id":"levelo_inurba_marseille","lat":43.24999,"lon":5.38948,"is_reserved":false,"is_disabled":false,"rental_uris":{"android":"levelo://app?vid=37985d1e-58e4-447a-a26a-66e367254631","ios":"levelo://app?vid=37985d1e-58e4-447a-a26a-66e367254631"},"vehicle_type_id":"4","last_reported":1739808684,"current_range_meters":7200,"station_id":"","pricing_plan_id":"cebpf4jnsgd1na2vs0mg"},{"bike_id":"93352afa-e01e-467c-8b3f-79577d878bad","system_id":"levelo_inurba_marseille","lat":43.30602,"lon":5.37228,"is_reserved":false,"is_disabled":false,"rental_uris":{"android":"levelo://app?vid=93352afa-e01e-467c-8b3f-79577d878bad","ios":"levelo://app?vid=93352afa-e01e-467c-8b3f-79577d878bad"},"vehicle_type_id":"4","last_reported":1739808684,"current_range_meters":8000,"station_id":"ce4bgqh2rcd13ifvqc4g","pricing_plan_id":"cebpf4jnsgd1na2vs0mg"},{"bike_id":"190f1895-9b6d-4216-b4e9-d15621833040","system_id":"levelo_inurba_marseille","lat":43.27561,"lon":5.38421,"is_reserved":false,"is_disabled":false,"rental_uris":{"android":"levelo://app?vid=190f1895-9b6d-4216-b4e9-d15621833040","ios":"levelo://app?vid=190f1895-9b6d-4216-b4e9-d15621833040"},"vehicle_type_id":"4","last_reported":1739808684,"current_range_meters":8000,"station_id":"","pricing_plan_id":"cebpf4jnsgd1na2vs0mg"},{"bike_id":"81cedbb6-46f3-45e8-8f32-22e78033433a","system_id":"levelo_inurba_marseille","lat":43.27561,"lon":5.38418,"is_reserved":false,"is_disabled":false,"rental_uris":{"android":"levelo://app?vid=81cedbb6-46f3-45e8-8f32-22e78033433a","ios":"levelo://app?vid=81cedbb6-46f3-45e8-8f32-22e78033433a"},"vehicle_type_id":"4","last_reported":1739808684,"current_range_meters":8000,"station_id":"ce4bhh92rcd13ifvqfi0","pricing_plan_id":"cebpf4jnsgd1na2vs0mg"},{"bike_id":"1c5f1bc3-b11e-41f5-a9a5-925adc7aac1a","system_id":"levelo_inurba_marseille","lat":43.28411,"lon":5.3752,"is_reserved":false,"is_disabled":false,"rental_uris":{"android":"levelo://app?vid=1c5f1bc3-b11e-41f5-a9a5-925adc7aac1a","ios":"levelo://app?vid=1c5f1bc3-b11e-41f5-a9a5-925adc7aac1a"},"vehicle_type_id":"4","last_reported":1739808684,"current_range_meters":8000,"station_id":"ce4bh412rcd13ifvqds0","pricing_plan_id":"cebpf4jnsgd1na2vs0mg"},{"bike_id":"30fe6385-92b9-4b96-9ceb-8a7e55699a18","system_id":"levelo_inurba_marseille","lat":43.29005,"lon":5.35606,"is_reserved":false,"is_disabled":false,"rental_uris":{"android":"levelo://app?vid=30fe6385-92b9-4b96-9ceb-8a7e55699a18","ios":"levelo://app?vid=30fe6385-92b9-4b96-9ceb-8a7e55699a18"},"vehicle_type_id":"4","last_reported":1739808684,"current_range_meters":8000,"station_id":"","pricing_plan_id":"cebpf4jnsgd1na2vs0mg"},{"bike_id":"3cbe3502-184a-4ba6-bd9d-84388ffad1d9","system_id":"levelo_inurba_marseille","lat":43.29252,"lon":5.40909,"is_reserved":false,"is_disabled":false,"rental_uris":{"android":"levelo://app?vid=3cbe3502-184a-4ba6-bd9d-84388ffad1d9","ios":"levelo://app?vid=3cbe3502-184a-4ba6-bd9d-84388ffad1d9"},"vehicle_type_id":"4","last_reported":1739808684,"current_range_meters":8400,"station_id":"ce4bh192rcd13ifvqdc0","pricing_plan_id":"cebpf4jnsgd1na2vs0mg"},{"bike_id":"2420c121-c082-41fe-9256-9209689167cc","system_id":"levelo_inurba_marseille","lat":43.2508,"lon":5.39509,"is_reserved":false,"is_disabled":false,"rental_uris":{"android":"levelo://app?vid=2420c121-c082-41fe-9256-9209689167cc","ios":"levelo://app?vid=2420c121-c082-41fe-9256-9209689167cc"},"vehicle_type_id":"4","last_reported":1739808684,"current_range_meters":8400,"station_id":"ce4bhm12rcd13ifvqgkg","pricing_plan_id":"cebpf4jnsgd1na2vs0mg"},{"bike_id":"f3e55dfb-1ec8-4a3c-a44c-24dbf87b6f2b","system_id":"levelo_inurba_marseille","lat":43.24179,"lon":5.39727,"is_reserved":false,"is_disabled":false,"rental_uris":{"android":"levelo://app?vid=f3e55dfb-1ec8-4a3c-a44c-24dbf87b6f2b","ios":"levelo://app?vid=f3e55dfb-1ec8-4a3c-a44c-24dbf87b6f2b"},"vehicle_type_id":"4","last_reported":1739808684,"current_range_meters":8400,"station_id":"ce4bhn12rcd13ifvqgpg","pricing_plan_id":"cebpf4jnsgd1na2vs0mg"},{"bike_id":"9f72b035-42cd-4ed2-9def-93c83a040988","system_id":"levelo_inurba_marseille","lat":43.24066,"lon":5.37735,"is_reserved":false,"is_disabled":false,"rental_uris":{"android":"levelo://app?vid=9f72b035-42cd-4ed2-9def-93c83a040988","ios":"levelo://app?vid=9f72b035-42cd-4ed2-9def-93c83a040988"},"vehicle_type_id":"4","last_reported":1739808684,"current_range_meters":8400,"station_id":"ce4bhnp2rcd13ifvqgvg","pricing_plan_id":"cebpf4jnsgd1na2vs0mg"},{"bike_id":"99801297-6d99-46b7-aaff-090f1487917e","system_id":"levelo_inurba_marseille","lat":43.2293,"lon":5.35381,"is_reserved":false,"is_disabled":false,"rental_uris":{"android":"levelo://app?vid=99801297-6d99-46b7-aaff-090f1487917e","ios":"levelo://app?vid=99801297-6d99-46b7-aaff-090f1487917e"},"vehicle_type_id":"4","last_reported":1739808684,"current_range_meters":8400,"station_id":"cpo3532slgdg3j2ikp40","pricing_plan_id":"cebpf4jnsgd1na2vs0mg"},{"bike_id":"2b278cf2-594f-4230-8154-882e1df047f2","system_id":"levelo_inurba_marseille","lat":43.24078,"lon":5.37739,"is_reserved":false,"is_disabled":false,"rental_uris":{"android":"levelo://app?vid=2b278cf2-594f-4230-8154-882e1df047f2","ios":"levelo://app?vid=2b278cf2-594f-4230-8154-882e1df047f2"},"vehicle_type_id":"4","last_reported":1739808684,"current_range_meters":8400,"station_id":"ce4bhnp2rcd13ifvqgvg","pricing_plan_id":"cebpf4jnsgd1na2vs0mg"},{"bike_id":"e2ed0c0d-c79b-4cea-9ccb-d7b99e435473","system_id":"levelo_inurba_marseille","lat":43.3013,"lon":5.38786,"is_reserved":false,"is_disabled":false,"rental_uris":{"android":"levelo://app?vid=e2ed0c0d-c79b-4cea-9ccb-d7b99e435473","ios":"levelo://app?vid=e2ed0c0d-c79b-4cea-9ccb-d7b99e435473"},"vehicle_type_id":"4","last_reported":1739808684,"current_range_meters":8000,"station_id":"ce4bhoh2rcd13ifvqh6g","pricing_plan_id":"cebpf4jnsgd1na2vs0mg"},{"bike_id":"3cd172dc-409c-4f9d-ae5e-8ae10a3bbe6d","system_id":"levelo_inurba_marseille","lat":43.2961,"lon":5.37717,"is_reserved":false,"is_disabled":false,"rental_uris":{"android":"levelo://app?vid=3cd172dc-409c-4f9d-ae5e-8ae10a3bbe6d","ios":"levelo://app?vid=3cd172dc-409c-4f9d-ae5e-8ae10a3bbe6d"},"vehicle_type_id":"4","last_reported":1739808684,"current_range_meters":8400,"station_id":"","pricing_plan_id":"cebpf4jnsgd1na2vs0mg"},{"bike_id":"1028d825-a809-400b-a433-b2f52b266986","system_id":"levelo_inurba_marseille","lat":43.309457,"lon":5.379163,"is_reserved":false,"is_disabled":false,"rental_uris":{"android":"levelo://app?vid=1028d825-a809-400b-a433-b2f52b266986","ios":"levelo://app?vid=1028d825-a809-400b-a433-b2f52b266986"},"vehicle_type_id":"4","last_reported":1739808684,"current_range_meters":8400,"station_id":"","pricing_plan_id":"cebpf4jnsgd1na2vs0mg"},{"bike_id":"ce7eb203-df1a-4323-a126-50fb5e9416e8","system_id":"levelo_inurba_marseille","lat":43.25001,"lon":5.38931,"is_reserved":false,"is_disabled":false,"rental_uris":{"android":"levelo://app?vid=ce7eb203-df1a-4323-a126-50fb5e9416e8","ios":"levelo://app?vid=ce7eb203-df1a-4323-a126-50fb5e9416e8"},"vehicle_type_id":"4","last_reported":1739808684,"current_range_meters":8800,"station_id":"ce4bhgp2rcd13ifvqfd0","pricing_plan_id":"cebpf4jnsgd1na2vs0mg"},{"bike_id":"01bec25a-ce9b-41ff-8b8e-4879fb269a23","system_id":"levelo_inurba_marseille","lat":43.2417,"lon":5.364,"is_reserved":false,"is_disabled":false,"rental_uris":{"android":"levelo://app?vid=01bec25a-ce9b-41ff-8b8e-4879fb269a23","ios":"levelo://app?vid=01bec25a-ce9b-41ff-8b8e-4879fb269a23"},"vehicle_type_id":"4","last_reported":1739808684,"current_range_meters":8400,"station_id":"","pricing_plan_id":"cebpf4jnsgd1na2vs0mg"},{"bike_id":"61d21a7f-e930-499d-84bd-f3a8dea6e79b","system_id":"levelo_inurba_marseille","lat":43.24654,"lon":5.38886,"is_reserved":false,"is_disabled":false,"rental_uris":{"android":"levelo://app?vid=61d21a7f-e930-499d-84bd-f3a8dea6e79b","ios":"levelo://app?vid=61d21a7f-e930-499d-84bd-f3a8dea6e79b"},"vehicle_type_id":"4","last_reported":1739808684,"current_range_meters":8800,"station_id":"ce4bhg12rcd13ifvqf60","pricing_plan_id":"cebpf4jnsgd1na2vs0mg"},{"bike_id":"2af45b9a-8c0d-4f01-a654-0c80764127bf","system_id":"levelo_inurba_marseille","lat":43.2873,"lon":5.36093,"is_reserved":false,"is_disabled":true,"rental_uris":{"android":"levelo://app?vid=2af45b9a-8c0d-4f01-a654-0c80764127bf","ios":"levelo://app?vid=2af45b9a-8c0d-4f01-a654-0c80764127bf"},"vehicle_type_id":"4","last_reported":1739808684,"current_range_meters":9200,"station_id":"cki0cbj6b192h4jlfktg","pricing_plan_id":"cebpf4jnsgd1na2vs0mg"},{"bike_id":"65a36bf8-d927-443e-bdd7-b23e6c691214","system_id":"levelo_inurba_marseille","lat":43.24182,"lon":5.39745,"is_reserved":false,"is_disabled":false,"rental_uris":{"android":"levelo://app?vid=65a36bf8-d927-443e-bdd7-b23e6c691214","ios":"levelo://app?vid=65a36bf8-d927-443e-bdd7-b23e6c691214"},"vehicle_type_id":"4","last_reported":1739808684,"current_range_meters":9200,"station_id":"ce4bhn12rcd13ifvqgpg","pricing_plan_id":"cebpf4jnsgd1na2vs0mg"},{"bike_id":"33b2f53e-b70b-4755-a9bd-161272f15b89","system_id":"levelo_inurba_marseille","lat":43.29645,"lon":5.38046,"is_reserved":false,"is_disabled":false,"rental_uris":{"android":"levelo://app?vid=33b2f53e-b70b-4755-a9bd-161272f15b89","ios":"levelo://app?vid=33b2f53e-b70b-4755-a9bd-161272f15b89"},"vehicle_type_id":"4","last_reported":1739808684,"current_range_meters":9200,"station_id":"","pricing_plan_id":"cebpf4jnsgd1na2vs0mg"},{"bike_id":"dc68384b-61ce-4f8f-9bce-7781340d7c68","system_id":"levelo_inurba_marseille","lat":43.26559,"lon":5.39012,"is_reserved":false,"is_disabled":false,"rental_uris":{"android":"levelo://app?vid=dc68384b-61ce-4f8f-9bce-7781340d7c68","ios":"levelo://app?vid=dc68384b-61ce-4f8f-9bce-7781340d7c68"},"vehicle_type_id":"4","last_reported":1739808684,"current_range_meters":9200,"station_id":"ce4bhe12rcd13ifvqf30","pricing_plan_id":"cebpf4jnsgd1na2vs0mg"},{"bike_id":"cdaaf978-d5c7-4f5f-9bf5-c2237bd0965a","system_id":"levelo_inurba_marseille","lat":43.32342,"lon":5.40622,"is_reserved":false,"is_disabled":false,"rental_uris":{"android":"levelo://app?vid=cdaaf978-d5c7-4f5f-9bf5-c2237bd0965a","ios":"levelo://app?vid=cdaaf978-d5c7-4f5f-9bf5-c2237bd0965a"},"vehicle_type_id":"4","last_reported":1739808684,"current_range_meters":9200,"station_id":"","pricing_plan_id":"cebpf4jnsgd1na2vs0mg"},{"bike_id":"8a49e737-2dba-437e-b0e4-c61d64b4fa11","system_id":"levelo_inurba_marseille","lat":43.2454,"lon":5.39529,"is_reserved":false,"is_disabled":false,"rental_uris":{"android":"levelo://app?vid=8a49e737-2dba-437e-b0e4-c61d64b4fa11","ios":"levelo://app?vid=8a49e737-2dba-437e-b0e4-c61d64b4fa11"},"vehicle_type_id":"4","last_reported":1739808684,"current_range_meters":9600,"station_id":"ce4bhlp2rcd13ifvqgjg","pricing_plan_id":"cebpf4jnsgd1na2vs0mg"},{"bike_id":"daac048e-560f-4ac4-8253-f428b1e4a640","system_id":"levelo_inurba_marseille","lat":43.24185,"lon":5.39737,"is_reserved":false,"is_disabled":false,"rental_uris":{"android":"levelo://app?vid=daac048e-560f-4ac4-8253-f428b1e4a640","ios":"levelo://app?vid=daac048e-560f-4ac4-8253-f428b1e4a640"},"vehicle_type_id":"4","last_reported":1739808684,"current_range_meters":9600,"station_id":"ce4bhn12rcd13ifvqgpg","pricing_plan_id":"cebpf4jnsgd1na2vs0mg"},{"bike_id":"274b6fef-97ab-4e5e-b84b-8332f8963679","system_id":"levelo_inurba_marseille","lat":43.309,"lon":5.36844,"is_reserved":false,"is_disabled":false,"rental_uris":{"android":"levelo://app?vid=274b6fef-97ab-4e5e-b84b-8332f8963679","ios":"levelo://app?vid=274b6fef-97ab-4e5e-b84b-8332f8963679"},"vehicle_type_id":"4","last_reported":1739808684,"current_range_meters":9600,"station_id":"ce4bgn92rcd13ifvqbvg","pricing_plan_id":"cebpf4jnsgd1na2vs0mg"},{"bike_id":"4ce77d2f-d235-46ba-a4aa-ccf7021e1d5c","system_id":"levelo_inurba_marseille","lat":43.27992,"lon":5.41678,"is_reserved":false,"is_disabled":false,"rental_uris":{"android":"levelo://app?vid=4ce77d2f-d235-46ba-a4aa-ccf7021e1d5c","ios":"levelo://app?vid=4ce77d2f-d235-46ba-a4aa-ccf7021e1d5c"},"vehicle_type_id":"4","last_reported":1739808684,"current_range_meters":9600,"station_id":"ce4bho12rcd13ifvqh1g","pricing_plan_id":"cebpf4jnsgd1na2vs0mg"},{"bike_id":"b7cb79ba-3aa5-4178-8b00-82567fc9c4a7","system_id":"levelo_inurba_marseille","lat":43.27999,"lon":5.41667,"is_reserved":false,"is_disabled":false,"rental_uris":{"android":"levelo://app?vid=b7cb79ba-3aa5-4178-8b00-82567fc9c4a7","ios":"levelo://app?vid=b7cb79ba-3aa5-4178-8b00-82567fc9c4a7"},"vehicle_type_id":"4","last_reported":1739808684,"current_range_meters":9600,"station_id":"ce4bho12rcd13ifvqh1g","pricing_plan_id":"cebpf4jnsgd1na2vs0mg"},{"bike_id":"506e9171-84b0-4415-9193-58b19ec236bb","system_id":"levelo_inurba_marseille","lat":43.28275,"lon":5.35068,"is_reserved":false,"is_disabled":false,"rental_uris":{"android":"levelo://app?vid=506e9171-84b0-4415-9193-58b19ec236bb","ios":"levelo://app?vid=506e9171-84b0-4415-9193-58b19ec236bb"},"vehicle_type_id":"4","last_reported":1739808684,"current_range_meters":9600,"station_id":"ce4bhbp2rcd13ifvqerg","pricing_plan_id":"cebpf4jnsgd1na2vs0mg"},{"bike_id":"175797a4-7eb5-436e-8def-5d940da25709","system_id":"levelo_inurba_marseille","lat":43.26476,"lon":5.39578,"is_reserved":false,"is_disabled":false,"rental_uris":{"android":"levelo://app?vid=175797a4-7eb5-436e-8def-5d940da25709","ios":"levelo://app?vid=175797a4-7eb5-436e-8def-5d940da25709"},"vehicle_type_id":"4","last_reported":1739808684,"current_range_meters":10000,"station_id":"ce4bhi12rcd13ifvqfq0","pricing_plan_id":"cebpf4jnsgd1na2vs0mg"},{"bike_id":"b0363d19-e274-4bd5-8776-ed33a55afbef","system_id":"levelo_inurba_marseille","lat":43.299591,"lon":5.365646,"is_reserved":false,"is_disabled":false,"rental_uris":{"android":"levelo://app?vid=b0363d19-e274-4bd5-8776-ed33a55afbef","ios":"levelo://app?vid=b0363d19-e274-4bd5-8776-ed33a55afbef"},"vehicle_type_id":"4","last_reported":1739808684,"current_range_meters":7200,"station_id":"ce4bgl92rcd13ifvqbq0","pricing_plan_id":"cebpf4jnsgd1na2vs0mg"},{"bike_id":"82f619b5-4464-47ab-809f-d2c5a1a3ed06","system_id":"levelo_inurba_marseille","lat":43.32416,"lon":5.39341,"is_reserved":false,"is_disabled":false,"rental_uris":{"android":"levelo://app?vid=82f619b5-4464-47ab-809f-d2c5a1a3ed06","ios":"levelo://app?vid=82f619b5-4464-47ab-809f-d2c5a1a3ed06"},"vehicle_type_id":"4","last_reported":1739808684,"current_range_meters":10000,"station_id":"ce4bhr92rcd13ifvqhrg","pricing_plan_id":"cebpf4jnsgd1na2vs0mg"},{"bike_id":"79943260-1218-48bd-bb1e-717b2118d202","system_id":"levelo_inurba_marseille","lat":43.27623,"lon":5.3611,"is_reserved":false,"is_disabled":false,"rental_uris":{"android":"levelo://app?vid=79943260-1218-48bd-bb1e-717b2118d202","ios":"levelo://app?vid=79943260-1218-48bd-bb1e-717b2118d202"},"vehicle_type_id":"4","last_reported":1739808684,"current_range_meters":10000,"station_id":"ce4bgj92rcd13ifvqbe0","pricing_plan_id":"cebpf4jnsgd1na2vs0mg"},{"bike_id":"4109d6e9-febf-4eff-b154-4ebfa04a769d","system_id":"levelo_inurba_marseille","lat":43.31754,"lon":5.39015,"is_reserved":false,"is_disabled":false,"rental_uris":{"android":"levelo://app?vid=4109d6e9-febf-4eff-b154-4ebfa04a769d","ios":"levelo://app?vid=4109d6e9-febf-4eff-b154-4ebfa04a769d"},"vehicle_type_id":"4","last_reported":1739808684,"current_range_meters":9600,"station_id":"ce4bhqp2rcd13ifvqhng","pricing_plan_id":"cebpf4jnsgd1na2vs0mg"},{"bike_id":"79f62c9d-1f7b-4919-b99c-b3088be87c66","system_id":"levelo_inurba_marseille","lat":43.25007,"lon":5.38928,"is_reserved":false,"is_disabled":false,"rental_uris":{"android":"levelo://app?vid=79f62c9d-1f7b-4919-b99c-b3088be87c66","ios":"levelo://app?vid=79f62c9d-1f7b-4919-b99c-b3088be87c66"},"vehicle_type_id":"4","last_reported":1739808684,"current_range_meters":10000,"station_id":"ce4bhgp2rcd13ifvqfd0","pricing_plan_id":"cebpf4jnsgd1na2vs0mg"},{"bike_id":"98dafedc-f25b-409d-b3e2-803b47ffb900","system_id":"levelo_inurba_marseille","lat":43.24499,"lon":5.37268,"is_reserved":false,"is_disabled":false,"rental_uris":{"android":"levelo://app?vid=98dafedc-f25b-409d-b3e2-803b47ffb900","ios":"levelo://app?vid=98dafedc-f25b-409d-b3e2-803b47ffb900"},"vehicle_type_id":"4","last_reported":1739808684,"current_range_meters":10000,"station_id":"","pricing_plan_id":"cebpf4jnsgd1na2vs0mg"},{"bike_id":"33d16626-82ff-4b8b-9bbe-0e22e3db24e8","system_id":"levelo_inurba_marseille","lat":43.26493,"lon":5.39541,"is_reserved":false,"is_disabled":false,"rental_uris":{"android":"levelo://app?vid=33d16626-82ff-4b8b-9bbe-0e22e3db24e8","ios":"levelo://app?vid=33d16626-82ff-4b8b-9bbe-0e22e3db24e8"},"vehicle_type_id":"4","last_reported":1739808684,"current_range_meters":10800,"station_id":"ce4bhi12rcd13ifvqfq0","pricing_plan_id":"cebpf4jnsgd1na2vs0mg"},{"bike_id":"0195a8d3-c5aa-4101-b5c0-6ee97625ce52","system_id":"levelo_inurba_marseille","lat":43.28273,"lon":5.35065,"is_reserved":false,"is_disabled":false,"rental_uris":{"android":"levelo://app?vid=0195a8d3-c5aa-4101-b5c0-6ee97625ce52","ios":"levelo://app?vid=0195a8d3-c5aa-4101-b5c0-6ee97625ce52"},"vehicle_type_id":"4","last_reported":1739808684,"current_range_meters":10800,"station_id":"","pricing_plan_id":"cebpf4jnsgd1na2vs0mg"},{"bike_id":"9a86aff9-d852-4512-b047-433feac4afd8","system_id":"levelo_inurba_marseille","lat":43.31209,"lon":5.36751,"is_reserved":false,"is_disabled":false,"rental_uris":{"android":"levelo://app?vid=9a86aff9-d852-4512-b047-433feac4afd8","ios":"levelo://app?vid=9a86aff9-d852-4512-b047-433feac4afd8"},"vehicle_type_id":"4","last_reported":1739808684,"current_range_meters":10800,"station_id":"","pricing_plan_id":"cebpf4jnsgd1na2vs0mg"},{"bike_id":"e60e82c5-5fd0-476b-8828-07a63515ce4b","system_id":"levelo_inurba_marseille","lat":43.27981,"lon":5.3874,"is_reserved":false,"is_disabled":false,"rental_uris":{"android":"levelo://app?vid=e60e82c5-5fd0-476b-8828-07a63515ce4b","ios":"levelo://app?vid=e60e82c5-5fd0-476b-8828-07a63515ce4b"},"vehicle_type_id":"4","last_reported":1739808684,"current_range_meters":10800,"station_id":"ce4bhg12rcd13ifvqf80","pricing_plan_id":"cebpf4jnsgd1na2vs0mg"},{"bike_id":"52252b6b-4773-4030-bdaa-d7ee629b6b90","system_id":"levelo_inurba_marseille","lat":43.29088,"lon":5.3559,"is_reserved":false,"is_disabled":false,"rental_uris":{"android":"levelo://app?vid=52252b6b-4773-4030-bdaa-d7ee629b6b90","ios":"levelo://app?vid=52252b6b-4773-4030-bdaa-d7ee629b6b90"},"vehicle_type_id":"4","last_reported":1739808684,"current_range_meters":10800,"station_id":"","pricing_plan_id":"cebpf4jnsgd1na2vs0mg"},{"bike_id":"7c7c0f20-4ebe-4ae9-a466-5bcf5fc08c06","system_id":"levelo_inurba_marseille","lat":43.2919,"lon":5.35728,"is_reserved":false,"is_disabled":true,"rental_uris":{"android":"levelo://app?vid=7c7c0f20-4ebe-4ae9-a466-5bcf5fc08c06","ios":"levelo://app?vid=7c7c0f20-4ebe-4ae9-a466-5bcf5fc08c06"},"vehicle_type_id":"4","last_reported":1739808684,"current_range_meters":10800,"station_id":"","pricing_plan_id":"cebpf4jnsgd1na2vs0mg"},{"bike_id":"f6765e77-c877-4a50-b1d3-054ccbe3491c","system_id":"levelo_inurba_marseille","lat":43.28275,"lon":5.35058,"is_reserved":false,"is_disabled":false,"rental_uris":{"android":"levelo://app?vid=f6765e77-c877-4a50-b1d3-054ccbe3491c","ios":"levelo://app?vid=f6765e77-c877-4a50-b1d3-054ccbe3491c"},"vehicle_type_id":"4","last_reported":1739808684,"current_range_meters":11200,"station_id":"","pricing_plan_id":"cebpf4jnsgd1na2vs0mg"},{"bike_id":"52e9e821-e777-47e4-8d1d-ffdaa0cb50ee","system_id":"levelo_inurba_marseille","lat":43.23186,"lon":5.39994,"is_reserved":false,"is_disabled":false,"rental_uris":{"android":"levelo://app?vid=52e9e821-e777-47e4-8d1d-ffdaa0cb50ee","ios":"levelo://app?vid=52e9e821-e777-47e4-8d1d-ffdaa0cb50ee"},"vehicle_type_id":"4","last_reported":1739808684,"current_range_meters":10800,"station_id":"ce4bhn12rcd13ifvqgqg","pricing_plan_id":"cebpf4jnsgd1na2vs0mg"},{"bike_id":"d86dfb12-e53b-4663-b0b1-0753b604c6ce","system_id":"levelo_inurba_marseille","lat":43.29282,"lon":5.40115,"is_reserved":false,"is_disabled":true,"rental_uris":{"android":"levelo://app?vid=d86dfb12-e53b-4663-b0b1-0753b604c6ce","ios":"levelo://app?vid=d86dfb12-e53b-4663-b0b1-0753b604c6ce"},"vehicle_type_id":"4","last_reported":1739808684,"current_range_meters":11200,"station_id":"ce4bh312rcd13ifvqdk0","pricing_plan_id":"cebpf4jnsgd1na2vs0mg"},{"bike_id":"73290894-c3b2-4d14-a91b-9644e371d942","system_id":"levelo_inurba_marseille","lat":43.30804,"lon":5.38156,"is_reserved":false,"is_disabled":false,"rental_uris":{"android":"levelo://app?vid=73290894-c3b2-4d14-a91b-9644e371d942","ios":"levelo://app?vid=73290894-c3b2-4d14-a91b-9644e371d942"},"vehicle_type_id":"4","last_reported":1739808684,"current_range_meters":11200,"station_id":"ce4bgt12rcd13ifvqce0","pricing_plan_id":"cebpf4jnsgd1na2vs0mg"},{"bike_id":"63213ce8-ab3b-490e-8b8e-c1a55a68b2ca","system_id":"levelo_inurba_marseille","lat":43.2951,"lon":5.38198,"is_reserved":false,"is_disabled":true,"rental_uris":{"android":"levelo://app?vid=63213ce8-ab3b-490e-8b8e-c1a55a68b2ca","ios":"levelo://app?vid=63213ce8-ab3b-490e-8b8e-c1a55a68b2ca"},"vehicle_type_id":"4","last_reported":1739808684,"current_range_meters":11200,"station_id":"","pricing_plan_id":"cebpf4jnsgd1na2vs0mg"},{"bike_id":"0a437ca3-5620-4a8c-8d98-4a1729133a0f","system_id":"levelo_inurba_marseille","lat":43.29537,"lon":5.38547,"is_reserved":false,"is_disabled":false,"rental_uris":{"android":"levelo://app?vid=0a437ca3-5620-4a8c-8d98-4a1729133a0f","ios":"levelo://app?vid=0a437ca3-5620-4a8c-8d98-4a1729133a0f"},"vehicle_type_id":"4","last_reported":1739808684,"current_range_meters":6400,"station_id":"ce4bgih2rcd13ifvqba0","pricing_plan_id":"cebpf4jnsgd1na2vs0mg"},{"bike_id":"4485b41d-8ad5-481d-8c6e-243d5823c9cc","system_id":"levelo_inurba_marseille","lat":43.25012,"lon":5.38915,"is_reserved":false,"is_disabled":false,"rental_uris":{"android":"levelo://app?vid=4485b41d-8ad5-481d-8c6e-243d5823c9cc","ios":"levelo://app?vid=4485b41d-8ad5-481d-8c6e-243d5823c9cc"},"vehicle_type_id":"4","last_reported":1739808684,"current_range_meters":11600,"station_id":"ce4bhgp2rcd13ifvqfd0","pricing_plan_id":"cebpf4jnsgd1na2vs0mg"},{"bike_id":"6d168397-49bb-4c14-9f90-024714a02967","system_id":"levelo_inurba_marseille","lat":43.296251,"lon":5.377235,"is_reserved":false,"is_disabled":false,"rental_uris":{"android":"levelo://app?vid=6d168397-49bb-4c14-9f90-024714a02967","ios":"levelo://app?vid=6d168397-49bb-4c14-9f90-024714a02967"},"vehicle_type_id":"4","last_reported":1739808684,"current_range_meters":11600,"station_id":"ce4bgi92rcd13ifvqb90","pricing_plan_id":"cebpf4jnsgd1na2vs0mg"},{"bike_id":"2c9700ea-057b-4786-a86f-c93de6d53138","system_id":"levelo_inurba_marseille","lat":43.27111,"lon":5.40448,"is_reserved":false,"is_disabled":false,"rental_uris":{"android":"levelo://app?vid=2c9700ea-057b-4786-a86f-c93de6d53138","ios":"levelo://app?vid=2c9700ea-057b-4786-a86f-c93de6d53138"},"vehicle_type_id":"4","last_reported":1739808684,"current_range_meters":12000,"station_id":"","pricing_plan_id":"cebpf4jnsgd1na2vs0mg"},{"bike_id":"b530c531-6c25-4570-925d-68ccb4d097ab","system_id":"levelo_inurba_marseille","lat":43.29568,"lon":5.37514,"is_reserved":false,"is_disabled":false,"rental_uris":{"android":"levelo://app?vid=b530c531-6c25-4570-925d-68ccb4d097ab","ios":"levelo://app?vid=b530c531-6c25-4570-925d-68ccb4d097ab"},"vehicle_type_id":"4","last_reported":1739808684,"current_range_meters":12000,"station_id":"ce4bgh92rcd13ifvqb50","pricing_plan_id":"cebpf4jnsgd1na2vs0mg"},{"bike_id":"33ff543a-c943-4225-840f-e1f4526dddbc","system_id":"levelo_inurba_marseille","lat":43.29004,"lon":5.35604,"is_reserved":false,"is_disabled":false,"rental_uris":{"android":"levelo://app?vid=33ff543a-c943-4225-840f-e1f4526dddbc","ios":"levelo://app?vid=33ff543a-c943-4225-840f-e1f4526dddbc"},"vehicle_type_id":"4","last_reported":1739808684,"current_range_meters":12000,"station_id":"ce4bhb92rcd13ifvqen0","pricing_plan_id":"cebpf4jnsgd1na2vs0mg"},{"bike_id":"2aef7b3e-6346-4c25-8736-5f49d9749908","system_id":"levelo_inurba_marseille","lat":43.32368,"lon":5.38886,"is_reserved":false,"is_disabled":false,"rental_uris":{"android":"levelo://app?vid=2aef7b3e-6346-4c25-8736-5f49d9749908","ios":"levelo://app?vid=2aef7b3e-6346-4c25-8736-5f49d9749908"},"vehicle_type_id":"4","last_reported":1739808684,"current_range_meters":12000,"station_id":"","pricing_plan_id":"cebpf4jnsgd1na2vs0mg"},{"bike_id":"cb8372d6-bad2-4555-89ad-5b495afb0b59","system_id":"levelo_inurba_marseille","lat":43.2481,"lon":5.37467,"is_reserved":false,"is_disabled":false,"rental_uris":{"android":"levelo://app?vid=cb8372d6-bad2-4555-89ad-5b495afb0b59","ios":"levelo://app?vid=cb8372d6-bad2-4555-89ad-5b495afb0b59"},"vehicle_type_id":"4","last_reported":1739808684,"current_range_meters":12400,"station_id":"ce4bhgh2rcd13ifvqfb0","pricing_plan_id":"cebpf4jnsgd1na2vs0mg"},{"bike_id":"b87258ce-6f3a-4a8b-88fa-fc379934b70c","system_id":"levelo_inurba_marseille","lat":43.24178,"lon":5.39723,"is_reserved":false,"is_disabled":false,"rental_uris":{"android":"levelo://app?vid=b87258ce-6f3a-4a8b-88fa-fc379934b70c","ios":"levelo://app?vid=b87258ce-6f3a-4a8b-88fa-fc379934b70c"},"vehicle_type_id":"4","last_reported":1739808684,"current_range_meters":12400,"station_id":"ce4bhn12rcd13ifvqgpg","pricing_plan_id":"cebpf4jnsgd1na2vs0mg"},{"bike_id":"f8e06fc7-00b7-4831-828e-752a95e98412","system_id":"levelo_inurba_marseille","lat":43.28849,"lon":5.35875,"is_reserved":false,"is_disabled":false,"rental_uris":{"android":"levelo://app?vid=f8e06fc7-00b7-4831-828e-752a95e98412","ios":"levelo://app?vid=f8e06fc7-00b7-4831-828e-752a95e98412"},"vehicle_type_id":"4","last_reported":1739808684,"current_range_meters":12400,"station_id":"ce4bhb12rcd13ifvqem0","pricing_plan_id":"cebpf4jnsgd1na2vs0mg"},{"bike_id":"3e1a2e4e-7242-4ff0-9061-35065ce374b0","system_id":"levelo_inurba_marseille","lat":43.28678,"lon":5.38668,"is_reserved":false,"is_disabled":false,"rental_uris":{"android":"levelo://app?vid=3e1a2e4e-7242-4ff0-9061-35065ce374b0","ios":"levelo://app?vid=3e1a2e4e-7242-4ff0-9061-35065ce374b0"},"vehicle_type_id":"4","last_reported":1739808684,"current_range_meters":12400,"station_id":"ce4bh492rcd13ifvqdug","pricing_plan_id":"cebpf4jnsgd1na2vs0mg"},{"bike_id":"a5abfbd3-4a5c-45f8-b1f3-20c242e4823d","system_id":"levelo_inurba_marseille","lat":43.26206,"lon":5.37933,"is_reserved":false,"is_disabled":false,"rental_uris":{"android":"levelo://app?vid=a5abfbd3-4a5c-45f8-b1f3-20c242e4823d","ios":"levelo://app?vid=a5abfbd3-4a5c-45f8-b1f3-20c242e4823d"},"vehicle_type_id":"4","last_reported":1739808684,"current_range_meters":12400,"station_id":"ce4bhjp2rcd13ifvqg90","pricing_plan_id":"cebpf4jnsgd1na2vs0mg"},{"bike_id":"b28db9b9-c66b-4596-932e-49f196da0d55","system_id":"levelo_inurba_marseille","lat":43.2315,"lon":5.43724,"is_reserved":false,"is_disabled":false,"rental_uris":{"android":"levelo://app?vid=b28db9b9-c66b-4596-932e-49f196da0d55","ios":"levelo://app?vid=b28db9b9-c66b-4596-932e-49f196da0d55"},"vehicle_type_id":"4","last_reported":1739808684,"current_range_meters":12400,"station_id":"ce4bhmp2rcd13ifvqgog","pricing_plan_id":"cebpf4jnsgd1na2vs0mg"},{"bike_id":"2e6d4041-63f0-42cb-ab37-efc546335c92","system_id":"levelo_inurba_marseille","lat":43.30305,"lon":5.39212,"is_reserved":false,"is_disabled":false,"rental_uris":{"android":"levelo://app?vid=2e6d4041-63f0-42cb-ab37-efc546335c92","ios":"levelo://app?vid=2e6d4041-63f0-42cb-ab37-efc546335c92"},"vehicle_type_id":"4","last_reported":1739808684,"current_range_meters":14000,"station_id":"ce4bgkh2rcd13ifvqbk0","pricing_plan_id":"cebpf4jnsgd1na2vs0mg"},{"bike_id":"a8b4f8ce-6b97-47c8-9d52-9a98c76f4f41","system_id":"levelo_inurba_marseille","lat":43.299352,"lon":5.365489,"is_reserved":false,"is_disabled":false,"rental_uris":{"android":"levelo://app?vid=a8b4f8ce-6b97-47c8-9d52-9a98c76f4f41","ios":"levelo://app?vid=a8b4f8ce-6b97-47c8-9d52-9a98c76f4f41"},"vehicle_type_id":"4","last_reported":1739808684,"current_range_meters":12400,"station_id":"ce4bguh2rcd13ifvqcj0","pricing_plan_id":"cebpf4jnsgd1na2vs0mg"},{"bike_id":"6528e792-6c2b-41ab-b102-37d30001a0e7","system_id":"levelo_inurba_marseille","lat":43.27231,"lon":5.40063,"is_reserved":false,"is_disabled":false,"rental_uris":{"android":"levelo://app?vid=6528e792-6c2b-41ab-b102-37d30001a0e7","ios":"levelo://app?vid=6528e792-6c2b-41ab-b102-37d30001a0e7"},"vehicle_type_id":"4","last_reported":1739808684,"current_range_meters":12800,"station_id":"","pricing_plan_id":"cebpf4jnsgd1na2vs0mg"},{"bike_id":"ebebf9ec-1c1c-49de-99cb-4ad1af8c855f","system_id":"levelo_inurba_marseille","lat":43.287251,"lon":5.360947,"is_reserved":false,"is_disabled":false,"rental_uris":{"android":"levelo://app?vid=ebebf9ec-1c1c-49de-99cb-4ad1af8c855f","ios":"levelo://app?vid=ebebf9ec-1c1c-49de-99cb-4ad1af8c855f"},"vehicle_type_id":"4","last_reported":1739808684,"current_range_meters":12800,"station_id":"cki0cbj6b192h4jlfktg","pricing_plan_id":"cebpf4jnsgd1na2vs0mg"},{"bike_id":"d510ff6b-00d5-45b1-8ce2-d211eba9b173","system_id":"levelo_inurba_marseille","lat":43.24082,"lon":5.37755,"is_reserved":false,"is_disabled":false,"rental_uris":{"android":"levelo://app?vid=d510ff6b-00d5-45b1-8ce2-d211eba9b173","ios":"levelo://app?vid=d510ff6b-00d5-45b1-8ce2-d211eba9b173"},"vehicle_type_id":"4","last_reported":1739808684,"current_range_meters":12800,"station_id":"ce4bhnp2rcd13ifvqgvg","pricing_plan_id":"cebpf4jnsgd1na2vs0mg"},{"bike_id":"063bc03a-008e-4d9d-92e5-bc6b8c353622","system_id":"levelo_inurba_marseille","lat":43.3009,"lon":5.39106,"is_reserved":false,"is_disabled":false,"rental_uris":{"android":"levelo://app?vid=063bc03a-008e-4d9d-92e5-bc6b8c353622","ios":"levelo://app?vid=063bc03a-008e-4d9d-92e5-bc6b8c353622"},"vehicle_type_id":"4","last_reported":1739808684,"current_range_meters":12800,"station_id":"ce4bh192rcd13ifvqdb0","pricing_plan_id":"cebpf4jnsgd1na2vs0mg"},{"bike_id":"4896bef1-a34f-481d-aa3e-48a1d1c53f0c","system_id":"levelo_inurba_marseille","lat":43.27617,"lon":5.36109,"is_reserved":false,"is_disabled":false,"rental_uris":{"android":"levelo://app?vid=4896bef1-a34f-481d-aa3e-48a1d1c53f0c","ios":"levelo://app?vid=4896bef1-a34f-481d-aa3e-48a1d1c53f0c"},"vehicle_type_id":"4","last_reported":1739808684,"current_range_meters":12800,"station_id":"ce4bgj92rcd13ifvqbe0","pricing_plan_id":"cebpf4jnsgd1na2vs0mg"},{"bike_id":"4e2b468f-8f4a-4d73-8517-62fa28d3fb4c","system_id":"levelo_inurba_marseille","lat":43.2481,"lon":5.37462,"is_reserved":false,"is_disabled":false,"rental_uris":{"android":"levelo://app?vid=4e2b468f-8f4a-4d73-8517-62fa28d3fb4c","ios":"levelo://app?vid=4e2b468f-8f4a-4d73-8517-62fa28d3fb4c"},"vehicle_type_id":"4","last_reported":1739808684,"current_range_meters":13600,"station_id":"ce4bhgh2rcd13ifvqfb0","pricing_plan_id":"cebpf4jnsgd1na2vs0mg"},{"bike_id":"18a2f6ca-69c3-43e3-b3d9-228fb3f226ea","system_id":"levelo_inurba_marseille","lat":43.2511,"lon":5.4032,"is_reserved":false,"is_disabled":false,"rental_uris":{"android":"levelo://app?vid=18a2f6ca-69c3-43e3-b3d9-228fb3f226ea","ios":"levelo://app?vid=18a2f6ca-69c3-43e3-b3d9-228fb3f226ea"},"vehicle_type_id":"4","last_reported":1739808684,"current_range_meters":14000,"station_id":"ce4bhlh2rcd13ifvqgig","pricing_plan_id":"cebpf4jnsgd1na2vs0mg"},{"bike_id":"e523d3f5-df12-4340-be5b-39361247e3d7","system_id":"levelo_inurba_marseille","lat":43.24653,"lon":5.38894,"is_reserved":false,"is_disabled":false,"rental_uris":{"android":"levelo://app?vid=e523d3f5-df12-4340-be5b-39361247e3d7","ios":"levelo://app?vid=e523d3f5-df12-4340-be5b-39361247e3d7"},"vehicle_type_id":"4","last_reported":1739808684,"current_range_meters":13600,"station_id":"ce4bhg12rcd13ifvqf60","pricing_plan_id":"cebpf4jnsgd1na2vs0mg"},{"bike_id":"36905651-19ab-44b0-bdae-5453b08deb80","system_id":"levelo_inurba_marseille","lat":43.31328,"lon":5.39691,"is_reserved":false,"is_disabled":false,"rental_uris":{"android":"levelo://app?vid=36905651-19ab-44b0-bdae-5453b08deb80","ios":"levelo://app?vid=36905651-19ab-44b0-bdae-5453b08deb80"},"vehicle_type_id":"4","last_reported":1739808684,"current_range_meters":12400,"station_id":"ce4bgvp2rcd13ifvqcu0","pricing_plan_id":"cebpf4jnsgd1na2vs0mg"},{"bike_id":"2b4187da-a798-42ea-bdf8-975a4d2d7780","system_id":"levelo_inurba_marseille","lat":43.283447,"lon":5.381123,"is_reserved":false,"is_disabled":false,"rental_uris":{"android":"levelo://app?vid=2b4187da-a798-42ea-bdf8-975a4d2d7780","ios":"levelo://app?vid=2b4187da-a798-42ea-bdf8-975a4d2d7780"},"vehicle_type_id":"4","last_reported":1739808684,"current_range_meters":14000,"station_id":"ce4bh412rcd13ifvqdr0","pricing_plan_id":"cebpf4jnsgd1na2vs0mg"},{"bike_id":"dcf310c5-15ca-498b-bf9c-cd6c77922408","system_id":"levelo_inurba_marseille","lat":43.23963,"lon":5.3663,"is_reserved":false,"is_disabled":false,"rental_uris":{"android":"levelo://app?vid=dcf310c5-15ca-498b-bf9c-cd6c77922408","ios":"levelo://app?vid=dcf310c5-15ca-498b-bf9c-cd6c77922408"},"vehicle_type_id":"4","last_reported":1739808684,"current_range_meters":14000,"station_id":"ce4bhi12rcd13ifvqfp0","pricing_plan_id":"cebpf4jnsgd1na2vs0mg"},{"bike_id":"020f9db3-6048-4a83-8c59-4acc533112c8","system_id":"levelo_inurba_marseille","lat":43.281539,"lon":5.426354,"is_reserved":false,"is_disabled":false,"rental_uris":{"android":"levelo://app?vid=020f9db3-6048-4a83-8c59-4acc533112c8","ios":"levelo://app?vid=020f9db3-6048-4a83-8c59-4acc533112c8"},"vehicle_type_id":"4","last_reported":1739808684,"current_range_meters":14000,"station_id":"ce4bhnh2rcd13ifvqgug","pricing_plan_id":"cebpf4jnsgd1na2vs0mg"},{"bike_id":"6c07d8f6-8ef7-49d0-bf57-01eb250d01c9","system_id":"levelo_inurba_marseille","lat":43.27909,"lon":5.39579,"is_reserved":false,"is_disabled":false,"rental_uris":{"android":"levelo://app?vid=6c07d8f6-8ef7-49d0-bf57-01eb250d01c9","ios":"levelo://app?vid=6c07d8f6-8ef7-49d0-bf57-01eb250d01c9"},"vehicle_type_id":"4","last_reported":1739808684,"current_range_meters":14000,"station_id":"ce4bhf92rcd13ifvqf40","pricing_plan_id":"cebpf4jnsgd1na2vs0mg"},{"bike_id":"357623cd-2b1a-4f89-8928-b43d7b636162","system_id":"levelo_inurba_marseille","lat":43.26573,"lon":5.4231,"is_reserved":false,"is_disabled":false,"rental_uris":{"android":"levelo://app?vid=357623cd-2b1a-4f89-8928-b43d7b636162","ios":"levelo://app?vid=357623cd-2b1a-4f89-8928-b43d7b636162"},"vehicle_type_id":"4","last_reported":1739808684,"current_range_meters":14000,"station_id":"","pricing_plan_id":"cebpf4jnsgd1na2vs0mg"},{"bike_id":"d9773d79-1af1-44da-ac2b-b3f4162d7444","system_id":"levelo_inurba_marseille","lat":43.23179,"lon":5.39986,"is_reserved":false,"is_disabled":false,"rental_uris":{"android":"levelo://app?vid=d9773d79-1af1-44da-ac2b-b3f4162d7444","ios":"levelo://app?vid=d9773d79-1af1-44da-ac2b-b3f4162d7444"},"vehicle_type_id":"4","last_reported":1739808684,"current_range_meters":14400,"station_id":"ce4bhn12rcd13ifvqgqg","pricing_plan_id":"cebpf4jnsgd1na2vs0mg"},{"bike_id":"bb92d80e-1f68-40a7-9b75-ac28d7a88f46","system_id":"levelo_inurba_marseille","lat":43.29623,"lon":5.37734,"is_reserved":false,"is_disabled":false,"rental_uris":{"android":"levelo://app?vid=bb92d80e-1f68-40a7-9b75-ac28d7a88f46","ios":"levelo://app?vid=bb92d80e-1f68-40a7-9b75-ac28d7a88f46"},"vehicle_type_id":"4","last_reported":1739808684,"current_range_meters":14000,"station_id":"ce4bgi92rcd13ifvqb90","pricing_plan_id":"cebpf4jnsgd1na2vs0mg"},{"bike_id":"4b5952f1-cc7b-4e3b-827d-03f2b5989d32","system_id":"levelo_inurba_marseille","lat":43.29283,"lon":5.40908,"is_reserved":false,"is_disabled":false,"rental_uris":{"android":"levelo://app?vid=4b5952f1-cc7b-4e3b-827d-03f2b5989d32","ios":"levelo://app?vid=4b5952f1-cc7b-4e3b-827d-03f2b5989d32"},"vehicle_type_id":"4","last_reported":1739808684,"current_range_meters":14400,"station_id":"ce4bh192rcd13ifvqdc0","pricing_plan_id":"cebpf4jnsgd1na2vs0mg"},{"bike_id":"3533ac9a-5e10-41a9-bba9-a6e305e1fa1f","system_id":"levelo_inurba_marseille","lat":43.28612,"lon":5.35105,"is_reserved":false,"is_disabled":false,"rental_uris":{"android":"levelo://app?vid=3533ac9a-5e10-41a9-bba9-a6e305e1fa1f","ios":"levelo://app?vid=3533ac9a-5e10-41a9-bba9-a6e305e1fa1f"},"vehicle_type_id":"4","last_reported":1739808684,"current_range_meters":14400,"station_id":"","pricing_plan_id":"cebpf4jnsgd1na2vs0mg"},{"bike_id":"c5c59f41-6de9-4286-8e47-0b749ef897bc","system_id":"levelo_inurba_marseille","lat":43.28618,"lon":5.35109,"is_reserved":false,"is_disabled":false,"rental_uris":{"android":"levelo://app?vid=c5c59f41-6de9-4286-8e47-0b749ef897bc","ios":"levelo://app?vid=c5c59f41-6de9-4286-8e47-0b749ef897bc"},"vehicle_type_id":"4","last_reported":1739808684,"current_range_meters":14800,"station_id":"ce4bhch2rcd13ifvqeug","pricing_plan_id":"cebpf4jnsgd1na2vs0mg"},{"bike_id":"c36da817-8dc7-4129-86b4-f2f40234ec4e","system_id":"levelo_inurba_marseille","lat":43.30804,"lon":5.38154,"is_reserved":false,"is_disabled":false,"rental_uris":{"android":"levelo://app?vid=c36da817-8dc7-4129-86b4-f2f40234ec4e","ios":"levelo://app?vid=c36da817-8dc7-4129-86b4-f2f40234ec4e"},"vehicle_type_id":"4","last_reported":1739808684,"current_range_meters":14800,"station_id":"ce4bgt12rcd13ifvqce0","pricing_plan_id":"cebpf4jnsgd1na2vs0mg"},{"bike_id":"eab31898-d3d3-4356-867b-a31aa919e6f7","system_id":"levelo_inurba_marseille","lat":43.27386,"lon":5.36276,"is_reserved":false,"is_disabled":false,"rental_uris":{"android":"levelo://app?vid=eab31898-d3d3-4356-867b-a31aa919e6f7","ios":"levelo://app?vid=eab31898-d3d3-4356-867b-a31aa919e6f7"},"vehicle_type_id":"4","last_reported":1739808684,"current_range_meters":14800,"station_id":"ce4bhbh2rcd13ifvqeo0","pricing_plan_id":"cebpf4jnsgd1na2vs0mg"},{"bike_id":"7cec40f1-5eb5-422a-9967-84055fbf0756","system_id":"levelo_inurba_marseille","lat":43.28463,"lon":5.35889,"is_reserved":false,"is_disabled":false,"rental_uris":{"android":"levelo://app?vid=7cec40f1-5eb5-422a-9967-84055fbf0756","ios":"levelo://app?vid=7cec40f1-5eb5-422a-9967-84055fbf0756"},"vehicle_type_id":"4","last_reported":1739808684,"current_range_meters":16400,"station_id":"ce4bhah2rcd13ifvqei0","pricing_plan_id":"cebpf4jnsgd1na2vs0mg"},{"bike_id":"f1587341-e99f-4c22-a69b-ed88d6533d53","system_id":"levelo_inurba_marseille","lat":43.260345,"lon":5.375478,"is_reserved":false,"is_disabled":false,"rental_uris":{"android":"levelo://app?vid=f1587341-e99f-4c22-a69b-ed88d6533d53","ios":"levelo://app?vid=f1587341-e99f-4c22-a69b-ed88d6533d53"},"vehicle_type_id":"4","last_reported":1739808684,"current_range_meters":15200,"station_id":"ce4bgj92rcd13ifvqbe0","pricing_plan_id":"cebpf4jnsgd1na2vs0mg"},{"bike_id":"64627059-f94e-4aa2-a301-7dfa05f02d32","system_id":"levelo_inurba_marseille","lat":43.288553,"lon":5.35876,"is_reserved":false,"is_disabled":false,"rental_uris":{"android":"levelo://app?vid=64627059-f94e-4aa2-a301-7dfa05f02d32","ios":"levelo://app?vid=64627059-f94e-4aa2-a301-7dfa05f02d32"},"vehicle_type_id":"4","last_reported":1739808684,"current_range_meters":15200,"station_id":"ce4bhb12rcd13ifvqem0","pricing_plan_id":"cebpf4jnsgd1na2vs0mg"},{"bike_id":"f2ed1939-a611-4c0c-b834-6691e0118b72","system_id":"levelo_inurba_marseille","lat":43.231957,"lon":5.355571,"is_reserved":false,"is_disabled":false,"rental_uris":{"android":"levelo://app?vid=f2ed1939-a611-4c0c-b834-6691e0118b72","ios":"levelo://app?vid=f2ed1939-a611-4c0c-b834-6691e0118b72"},"vehicle_type_id":"4","last_reported":1739808684,"current_range_meters":15200,"station_id":"ce4bhu92rcd13ifvqi70","pricing_plan_id":"cebpf4jnsgd1na2vs0mg"},{"bike_id":"4767ce61-083b-49b6-b6bd-c77650019e8f","system_id":"levelo_inurba_marseille","lat":43.32101,"lon":5.36785,"is_reserved":false,"is_disabled":false,"rental_uris":{"android":"levelo://app?vid=4767ce61-083b-49b6-b6bd-c77650019e8f","ios":"levelo://app?vid=4767ce61-083b-49b6-b6bd-c77650019e8f"},"vehicle_type_id":"4","last_reported":1739808684,"current_range_meters":15200,"station_id":"","pricing_plan_id":"cebpf4jnsgd1na2vs0mg"},{"bike_id":"719e6f2a-a3b4-4ffc-b8e4-e98702fb499a","system_id":"levelo_inurba_marseille","lat":43.30136,"lon":5.38785,"is_reserved":false,"is_disabled":false,"rental_uris":{"android":"levelo://app?vid=719e6f2a-a3b4-4ffc-b8e4-e98702fb499a","ios":"levelo://app?vid=719e6f2a-a3b4-4ffc-b8e4-e98702fb499a"},"vehicle_type_id":"4","last_reported":1739808684,"current_range_meters":16000,"station_id":"ce4bhoh2rcd13ifvqh6g","pricing_plan_id":"cebpf4jnsgd1na2vs0mg"},{"bike_id":"9084f880-c05c-41d9-962e-1ab7add2848e","system_id":"levelo_inurba_marseille","lat":43.24072,"lon":5.37774,"is_reserved":false,"is_disabled":false,"rental_uris":{"android":"levelo://app?vid=9084f880-c05c-41d9-962e-1ab7add2848e","ios":"levelo://app?vid=9084f880-c05c-41d9-962e-1ab7add2848e"},"vehicle_type_id":"4","last_reported":1739808684,"current_range_meters":15200,"station_id":"ce4bhnp2rcd13ifvqgvg","pricing_plan_id":"cebpf4jnsgd1na2vs0mg"},{"bike_id":"cbb1e776-6ac2-4cd0-a8d5-9fc7a9410b19","system_id":"levelo_inurba_marseille","lat":43.26933,"lon":5.38915,"is_reserved":false,"is_disabled":false,"rental_uris":{"android":"levelo://app?vid=cbb1e776-6ac2-4cd0-a8d5-9fc7a9410b19","ios":"levelo://app?vid=cbb1e776-6ac2-4cd0-a8d5-9fc7a9410b19"},"vehicle_type_id":"4","last_reported":1739808684,"current_range_meters":16000,"station_id":"","pricing_plan_id":"cebpf4jnsgd1na2vs0mg"},{"bike_id":"128cce82-41f1-41dc-8077-e85d75aa236e","system_id":"levelo_inurba_marseille","lat":43.26957,"lon":5.38639,"is_reserved":false,"is_disabled":false,"rental_uris":{"android":"levelo://app?vid=128cce82-41f1-41dc-8077-e85d75aa236e","ios":"levelo://app?vid=128cce82-41f1-41dc-8077-e85d75aa236e"},"vehicle_type_id":"4","last_reported":1739808684,"current_range_meters":16000,"station_id":"ce4bhh92rcd13ifvqfh0","pricing_plan_id":"cebpf4jnsgd1na2vs0mg"},{"bike_id":"4a42b849-8dce-4679-be4e-fb42f1f7b062","system_id":"levelo_inurba_marseille","lat":43.24177,"lon":5.39736,"is_reserved":false,"is_disabled":false,"rental_uris":{"android":"levelo://app?vid=4a42b849-8dce-4679-be4e-fb42f1f7b062","ios":"levelo://app?vid=4a42b849-8dce-4679-be4e-fb42f1f7b062"},"vehicle_type_id":"4","last_reported":1739808684,"current_range_meters":16000,"station_id":"ce4bhn12rcd13ifvqgpg","pricing_plan_id":"cebpf4jnsgd1na2vs0mg"},{"bike_id":"e57f9313-8443-49d5-820a-e3f0c205b6f2","system_id":"levelo_inurba_marseille","lat":43.24064,"lon":5.37739,"is_reserved":false,"is_disabled":false,"rental_uris":{"android":"levelo://app?vid=e57f9313-8443-49d5-820a-e3f0c205b6f2","ios":"levelo://app?vid=e57f9313-8443-49d5-820a-e3f0c205b6f2"},"vehicle_type_id":"4","last_reported":1739808684,"current_range_meters":16000,"station_id":"ce4bhnp2rcd13ifvqgvg","pricing_plan_id":"cebpf4jnsgd1na2vs0mg"},{"bike_id":"855e00a6-9e8c-4de0-bc87-12b351c5db28","system_id":"levelo_inurba_marseille","lat":43.28419,"lon":5.34992,"is_reserved":false,"is_disabled":false,"rental_uris":{"android":"levelo://app?vid=855e00a6-9e8c-4de0-bc87-12b351c5db28","ios":"levelo://app?vid=855e00a6-9e8c-4de0-bc87-12b351c5db28"},"vehicle_type_id":"4","last_reported":1739808684,"current_range_meters":16000,"station_id":"ce4bhbh2rcd13ifvqepg","pricing_plan_id":"cebpf4jnsgd1na2vs0mg"},{"bike_id":"ad9bd4c8-8015-4bd3-84cf-f21c35bdf7e1","system_id":"levelo_inurba_marseille","lat":43.30154,"lon":5.38098,"is_reserved":false,"is_disabled":false,"rental_uris":{"android":"levelo://app?vid=ad9bd4c8-8015-4bd3-84cf-f21c35bdf7e1","ios":"levelo://app?vid=ad9bd4c8-8015-4bd3-84cf-f21c35bdf7e1"},"vehicle_type_id":"4","last_reported":1739808684,"current_range_meters":16000,"station_id":"","pricing_plan_id":"cebpf4jnsgd1na2vs0mg"},{"bike_id":"91bf3218-0a05-4226-acc9-b3131b7d5a8d","system_id":"levelo_inurba_marseille","lat":43.2396,"lon":5.36643,"is_reserved":false,"is_disabled":false,"rental_uris":{"android":"levelo://app?vid=91bf3218-0a05-4226-acc9-b3131b7d5a8d","ios":"levelo://app?vid=91bf3218-0a05-4226-acc9-b3131b7d5a8d"},"vehicle_type_id":"4","last_reported":1739808684,"current_range_meters":16400,"station_id":"ce4bhi12rcd13ifvqfp0","pricing_plan_id":"cebpf4jnsgd1na2vs0mg"},{"bike_id":"085f975e-f80f-40c8-8c97-4c4e0a22eba2","system_id":"levelo_inurba_marseille","lat":43.23959,"lon":5.36601,"is_reserved":false,"is_disabled":false,"rental_uris":{"android":"levelo://app?vid=085f975e-f80f-40c8-8c97-4c4e0a22eba2","ios":"levelo://app?vid=085f975e-f80f-40c8-8c97-4c4e0a22eba2"},"vehicle_type_id":"4","last_reported":1739808684,"current_range_meters":16400,"station_id":"ce4bhi12rcd13ifvqfp0","pricing_plan_id":"cebpf4jnsgd1na2vs0mg"},{"bike_id":"c5886895-ed8c-448f-ad7b-7e19ecb74d63","system_id":"levelo_inurba_marseille","lat":43.3032,"lon":5.40436,"is_reserved":false,"is_disabled":false,"rental_uris":{"android":"levelo://app?vid=c5886895-ed8c-448f-ad7b-7e19ecb74d63","ios":"levelo://app?vid=c5886895-ed8c-448f-ad7b-7e19ecb74d63"},"vehicle_type_id":"4","last_reported":1739808684,"current_range_meters":16400,"station_id":"ce4bh012rcd13ifvqd10","pricing_plan_id":"cebpf4jnsgd1na2vs0mg"},{"bike_id":"b4f7951e-a8d9-4f42-b03f-b06ba82daa83","system_id":"levelo_inurba_marseille","lat":43.27185,"lon":5.40995,"is_reserved":false,"is_disabled":false,"rental_uris":{"android":"levelo://app?vid=b4f7951e-a8d9-4f42-b03f-b06ba82daa83","ios":"levelo://app?vid=b4f7951e-a8d9-4f42-b03f-b06ba82daa83"},"vehicle_type_id":"4","last_reported":1739808684,"current_range_meters":16400,"station_id":"ce4bhl12rcd13ifvqgf0","pricing_plan_id":"cebpf4jnsgd1na2vs0mg"},{"bike_id":"d1dec037-ee4c-4db9-a655-1087d8ee1f4f","system_id":"levelo_inurba_marseille","lat":43.28449,"lon":5.39187,"is_reserved":false,"is_disabled":true,"rental_uris":{"android":"levelo://app?vid=d1dec037-ee4c-4db9-a655-1087d8ee1f4f","ios":"levelo://app?vid=d1dec037-ee4c-4db9-a655-1087d8ee1f4f"},"vehicle_type_id":"4","last_reported":1739808684,"current_range_meters":16400,"station_id":"","pricing_plan_id":"cebpf4jnsgd1na2vs0mg"},{"bike_id":"d2ebfaae-2273-42f3-ba56-88f2905b2c63","system_id":"levelo_inurba_marseille","lat":43.29534,"lon":5.38547,"is_reserved":false,"is_disabled":false,"rental_uris":{"android":"levelo://app?vid=d2ebfaae-2273-42f3-ba56-88f2905b2c63","ios":"levelo://app?vid=d2ebfaae-2273-42f3-ba56-88f2905b2c63"},"vehicle_type_id":"4","last_reported":1739808684,"current_range_meters":16400,"station_id":"ce4bgih2rcd13ifvqba0","pricing_plan_id":"cebpf4jnsgd1na2vs0mg"},{"bike_id":"dd81c4e7-9486-4912-b60c-3d490747084a","system_id":"levelo_inurba_marseille","lat":43.27317,"lon":5.3909,"is_reserved":false,"is_disabled":false,"rental_uris":{"android":"levelo://app?vid=dd81c4e7-9486-4912-b60c-3d490747084a","ios":"levelo://app?vid=dd81c4e7-9486-4912-b60c-3d490747084a"},"vehicle_type_id":"4","last_reported":1739808684,"current_range_meters":16400,"station_id":"ce4bhgp2rcd13ifvqfe0","pricing_plan_id":"cebpf4jnsgd1na2vs0mg"},{"bike_id":"51e5e272-1390-4266-8747-10ef46d95bd1","system_id":"levelo_inurba_marseille","lat":43.22933,"lon":5.35381,"is_reserved":false,"is_disabled":false,"rental_uris":{"android":"levelo://app?vid=51e5e272-1390-4266-8747-10ef46d95bd1","ios":"levelo://app?vid=51e5e272-1390-4266-8747-10ef46d95bd1"},"vehicle_type_id":"4","last_reported":1739808684,"current_range_meters":16400,"station_id":"cpo3532slgdg3j2ikp40","pricing_plan_id":"cebpf4jnsgd1na2vs0mg"},{"bike_id":"b7ea6e7f-4daa-4886-9c63-6c0211897347","system_id":"levelo_inurba_marseille","lat":43.300912,"lon":5.390673,"is_reserved":false,"is_disabled":false,"rental_uris":{"android":"levelo://app?vid=b7ea6e7f-4daa-4886-9c63-6c0211897347","ios":"levelo://app?vid=b7ea6e7f-4daa-4886-9c63-6c0211897347"},"vehicle_type_id":"4","last_reported":1739808684,"current_range_meters":16800,"station_id":"","pricing_plan_id":"cebpf4jnsgd1na2vs0mg"},{"bike_id":"b8094bfc-aee7-472a-9e46-ff22053005be","system_id":"levelo_inurba_marseille","lat":43.29618,"lon":5.37739,"is_reserved":false,"is_disabled":false,"rental_uris":{"android":"levelo://app?vid=b8094bfc-aee7-472a-9e46-ff22053005be","ios":"levelo://app?vid=b8094bfc-aee7-472a-9e46-ff22053005be"},"vehicle_type_id":"4","last_reported":1739808684,"current_range_meters":16800,"station_id":"","pricing_plan_id":"cebpf4jnsgd1na2vs0mg"},{"bike_id":"85ccc3b4-cd7e-4fd7-b29c-a5ec4c26d0b7","system_id":"levelo_inurba_marseille","lat":43.29937,"lon":5.37455,"is_reserved":false,"is_disabled":false,"rental_uris":{"android":"levelo://app?vid=85ccc3b4-cd7e-4fd7-b29c-a5ec4c26d0b7","ios":"levelo://app?vid=85ccc3b4-cd7e-4fd7-b29c-a5ec4c26d0b7"},"vehicle_type_id":"4","last_reported":1739808684,"current_range_meters":16400,"station_id":"ce4bgjh2rcd13ifvqbg0","pricing_plan_id":"cebpf4jnsgd1na2vs0mg"},{"bike_id":"d49b7767-7a10-4de3-a6d6-e4df1901ae19","system_id":"levelo_inurba_marseille","lat":43.28616,"lon":5.35099,"is_reserved":false,"is_disabled":false,"rental_uris":{"android":"levelo://app?vid=d49b7767-7a10-4de3-a6d6-e4df1901ae19","ios":"levelo://app?vid=d49b7767-7a10-4de3-a6d6-e4df1901ae19"},"vehicle_type_id":"4","last_reported":1739808684,"current_range_meters":16800,"station_id":"ce4bhch2rcd13ifvqeug","pricing_plan_id":"cebpf4jnsgd1na2vs0mg"},{"bike_id":"7a3d8707-0c11-40ff-af62-c09e58148f73","system_id":"levelo_inurba_marseille","lat":43.30788,"lon":5.38162,"is_reserved":false,"is_disabled":false,"rental_uris":{"android":"levelo://app?vid=7a3d8707-0c11-40ff-af62-c09e58148f73","ios":"levelo://app?vid=7a3d8707-0c11-40ff-af62-c09e58148f73"},"vehicle_type_id":"4","last_reported":1739808684,"current_range_meters":16800,"station_id":"ce4bgt12rcd13ifvqce0","pricing_plan_id":"cebpf4jnsgd1na2vs0mg"},{"bike_id":"bb4a3648-09cb-4cc2-9947-bf380533d03f","system_id":"levelo_inurba_marseille","lat":43.31664,"lon":5.37244,"is_reserved":false,"is_disabled":true,"rental_uris":{"android":"levelo://app?vid=bb4a3648-09cb-4cc2-9947-bf380533d03f","ios":"levelo://app?vid=bb4a3648-09cb-4cc2-9947-bf380533d03f"},"vehicle_type_id":"4","last_reported":1739808684,"current_range_meters":16800,"station_id":"","pricing_plan_id":"cebpf4jnsgd1na2vs0mg"},{"bike_id":"e493d32f-c7df-48a8-8644-e6c67b333882","system_id":"levelo_inurba_marseille","lat":43.30144,"lon":5.37118,"is_reserved":false,"is_disabled":false,"rental_uris":{"android":"levelo://app?vid=e493d32f-c7df-48a8-8644-e6c67b333882","ios":"levelo://app?vid=e493d32f-c7df-48a8-8644-e6c67b333882"},"vehicle_type_id":"4","last_reported":1739808684,"current_range_meters":16800,"station_id":"","pricing_plan_id":"cebpf4jnsgd1na2vs0mg"},{"bike_id":"26423f42-e324-48a3-bf30-64bdb5e014c7","system_id":"levelo_inurba_marseille","lat":43.310237,"lon":5.379047,"is_reserved":false,"is_disabled":false,"rental_uris":{"android":"levelo://app?vid=26423f42-e324-48a3-bf30-64bdb5e014c7","ios":"levelo://app?vid=26423f42-e324-48a3-bf30-64bdb5e014c7"},"vehicle_type_id":"4","last_reported":1739808684,"current_range_meters":16800,"station_id":"ce4bgup2rcd13ifvqcn0","pricing_plan_id":"cebpf4jnsgd1na2vs0mg"},{"bike_id":"59b36b46-3bd8-442a-b142-213da782c965","system_id":"levelo_inurba_marseille","lat":43.29282,"lon":5.40116,"is_reserved":false,"is_disabled":false,"rental_uris":{"android":"levelo://app?vid=59b36b46-3bd8-442a-b142-213da782c965","ios":"levelo://app?vid=59b36b46-3bd8-442a-b142-213da782c965"},"vehicle_type_id":"4","last_reported":1739808684,"current_range_meters":17200,"station_id":"ce4bh312rcd13ifvqdk0","pricing_plan_id":"cebpf4jnsgd1na2vs0mg"},{"bike_id":"1c4ab1c1-f8e5-4ceb-8507-e3b252ef908b","system_id":"levelo_inurba_marseille","lat":43.24164,"lon":5.36402,"is_reserved":false,"is_disabled":false,"rental_uris":{"android":"levelo://app?vid=1c4ab1c1-f8e5-4ceb-8507-e3b252ef908b","ios":"levelo://app?vid=1c4ab1c1-f8e5-4ceb-8507-e3b252ef908b"},"vehicle_type_id":"4","last_reported":1739808684,"current_range_meters":17200,"station_id":"cpo36qri1sfpv3e86is0","pricing_plan_id":"cebpf4jnsgd1na2vs0mg"},{"bike_id":"e46ad52b-d861-4d04-a2c4-ea45df01633c","system_id":"levelo_inurba_marseille","lat":43.268,"lon":5.4026,"is_reserved":false,"is_disabled":true,"rental_uris":{"android":"levelo://app?vid=e46ad52b-d861-4d04-a2c4-ea45df01633c","ios":"levelo://app?vid=e46ad52b-d861-4d04-a2c4-ea45df01633c"},"vehicle_type_id":"4","last_reported":1739808684,"current_range_meters":17200,"station_id":"ce501612rcd8frsf0b60","pricing_plan_id":"cebpf4jnsgd1na2vs0mg"},{"bike_id":"84dc2dc8-69f2-4813-a36e-4d36b9136b36","system_id":"levelo_inurba_marseille","lat":43.32289,"lon":5.38271,"is_reserved":false,"is_disabled":false,"rental_uris":{"android":"levelo://app?vid=84dc2dc8-69f2-4813-a36e-4d36b9136b36","ios":"levelo://app?vid=84dc2dc8-69f2-4813-a36e-4d36b9136b36"},"vehicle_type_id":"4","last_reported":1739808684,"current_range_meters":17200,"station_id":"ce4bhr12rcd13ifvqhqg","pricing_plan_id":"cebpf4jnsgd1na2vs0mg"},{"bike_id":"a81f047e-2602-4d29-8821-508c11538471","system_id":"levelo_inurba_marseille","lat":43.2294,"lon":5.35376,"is_reserved":false,"is_disabled":false,"rental_uris":{"android":"levelo://app?vid=a81f047e-2602-4d29-8821-508c11538471","ios":"levelo://app?vid=a81f047e-2602-4d29-8821-508c11538471"},"vehicle_type_id":"4","last_reported":1739808684,"current_range_meters":17600,"station_id":"cpo3532slgdg3j2ikp40","pricing_plan_id":"cebpf4jnsgd1na2vs0mg"},{"bike_id":"51f27dc7-16d6-4d9b-98f5-58d046d521ef","system_id":"levelo_inurba_marseille","lat":43.28617,"lon":5.3511,"is_reserved":false,"is_disabled":false,"rental_uris":{"android":"levelo://app?vid=51f27dc7-16d6-4d9b-98f5-58d046d521ef","ios":"levelo://app?vid=51f27dc7-16d6-4d9b-98f5-58d046d521ef"},"vehicle_type_id":"4","last_reported":1739808684,"current_range_meters":17600,"station_id":"","pricing_plan_id":"cebpf4jnsgd1na2vs0mg"},{"bike_id":"4777c823-6052-4b6a-801b-264a14bbc050","system_id":"levelo_inurba_marseille","lat":43.29719,"lon":5.37698,"is_reserved":false,"is_disabled":false,"rental_uris":{"android":"levelo://app?vid=4777c823-6052-4b6a-801b-264a14bbc050","ios":"levelo://app?vid=4777c823-6052-4b6a-801b-264a14bbc050"},"vehicle_type_id":"4","last_reported":1739808684,"current_range_meters":17200,"station_id":"ce4bgkh2rcd13ifvqbl0","pricing_plan_id":"cebpf4jnsgd1na2vs0mg"},{"bike_id":"7f263bf7-2fd3-4250-ae80-f1b93e105454","system_id":"levelo_inurba_marseille","lat":43.28641,"lon":5.35145,"is_reserved":false,"is_disabled":false,"rental_uris":{"android":"levelo://app?vid=7f263bf7-2fd3-4250-ae80-f1b93e105454","ios":"levelo://app?vid=7f263bf7-2fd3-4250-ae80-f1b93e105454"},"vehicle_type_id":"4","last_reported":1739808684,"current_range_meters":17600,"station_id":"ce4bgjh2rcd13ifvqbg0","pricing_plan_id":"cebpf4jnsgd1na2vs0mg"},{"bike_id":"d6512eff-5d97-400a-8d2d-536bb57f9efb","system_id":"levelo_inurba_marseille","lat":43.285269,"lon":5.420301,"is_reserved":false,"is_disabled":false,"rental_uris":{"android":"levelo://app?vid=d6512eff-5d97-400a-8d2d-536bb57f9efb","ios":"levelo://app?vid=d6512eff-5d97-400a-8d2d-536bb57f9efb"},"vehicle_type_id":"4","last_reported":1739808684,"current_range_meters":17600,"station_id":"ce4bhnh2rcd13ifvqgug","pricing_plan_id":"cebpf4jnsgd1na2vs0mg"},{"bike_id":"a9e8daf3-70cf-4ca0-a2bf-a2ff80ebc918","system_id":"levelo_inurba_marseille","lat":43.30461,"lon":5.36966,"is_reserved":false,"is_disabled":false,"rental_uris":{"android":"levelo://app?vid=a9e8daf3-70cf-4ca0-a2bf-a2ff80ebc918","ios":"levelo://app?vid=a9e8daf3-70cf-4ca0-a2bf-a2ff80ebc918"},"vehicle_type_id":"4","last_reported":1739808684,"current_range_meters":17600,"station_id":"","pricing_plan_id":"cebpf4jnsgd1na2vs0mg"},{"bike_id":"1e79a963-3549-46df-9349-d031ee640213","system_id":"levelo_inurba_marseille","lat":43.29792,"lon":5.4041,"is_reserved":false,"is_disabled":false,"rental_uris":{"android":"levelo://app?vid=1e79a963-3549-46df-9349-d031ee640213","ios":"levelo://app?vid=1e79a963-3549-46df-9349-d031ee640213"},"vehicle_type_id":"4","last_reported":1739808684,"current_range_meters":17200,"station_id":"ce4bh112rcd13ifvqd90","pricing_plan_id":"cebpf4jnsgd1na2vs0mg"},{"bike_id":"6b77062c-0a3f-48ab-8049-109cc7ef2930","system_id":"levelo_inurba_marseille","lat":43.29862,"lon":5.39739,"is_reserved":false,"is_disabled":false,"rental_uris":{"android":"levelo://app?vid=6b77062c-0a3f-48ab-8049-109cc7ef2930","ios":"levelo://app?vid=6b77062c-0a3f-48ab-8049-109cc7ef2930"},"vehicle_type_id":"4","last_reported":1739808684,"current_range_meters":17600,"station_id":"ce4bh0h2rcd13ifvqd50","pricing_plan_id":"cebpf4jnsgd1na2vs0mg"},{"bike_id":"289a20ef-8f0e-4cb4-9a61-b48074967201","system_id":"levelo_inurba_marseille","lat":43.29435,"lon":5.39756,"is_reserved":false,"is_disabled":false,"rental_uris":{"android":"levelo://app?vid=289a20ef-8f0e-4cb4-9a61-b48074967201","ios":"levelo://app?vid=289a20ef-8f0e-4cb4-9a61-b48074967201"},"vehicle_type_id":"4","last_reported":1739808684,"current_range_meters":18000,"station_id":"ce4bh3h2rcd13ifvqdo0","pricing_plan_id":"cebpf4jnsgd1na2vs0mg"},{"bike_id":"e77122d4-cf69-44d7-ac32-00b593dacedf","system_id":"levelo_inurba_marseille","lat":43.31127,"lon":5.37763,"is_reserved":false,"is_disabled":false,"rental_uris":{"android":"levelo://app?vid=e77122d4-cf69-44d7-ac32-00b593dacedf","ios":"levelo://app?vid=e77122d4-cf69-44d7-ac32-00b593dacedf"},"vehicle_type_id":"4","last_reported":1739808684,"current_range_meters":18000,"station_id":"ce4bgt92rcd13ifvqcg0","pricing_plan_id":"cebpf4jnsgd1na2vs0mg"},{"bike_id":"223ddfa2-7806-4573-b45d-90a173ee46ce","system_id":"levelo_inurba_marseille","lat":43.24179,"lon":5.39726,"is_reserved":false,"is_disabled":false,"rental_uris":{"android":"levelo://app?vid=223ddfa2-7806-4573-b45d-90a173ee46ce","ios":"levelo://app?vid=223ddfa2-7806-4573-b45d-90a173ee46ce"},"vehicle_type_id":"4","last_reported":1739808684,"current_range_meters":18000,"station_id":"","pricing_plan_id":"cebpf4jnsgd1na2vs0mg"},{"bike_id":"99470bc2-2a8f-43a7-9f55-f9f780a712f1","system_id":"levelo_inurba_marseille","lat":43.30539,"lon":5.36527,"is_reserved":false,"is_disabled":false,"rental_uris":{"android":"levelo://app?vid=99470bc2-2a8f-43a7-9f55-f9f780a712f1","ios":"levelo://app?vid=99470bc2-2a8f-43a7-9f55-f9f780a712f1"},"vehicle_type_id":"4","last_reported":1739808684,"current_range_meters":18000,"station_id":"","pricing_plan_id":"cebpf4jnsgd1na2vs0mg"},{"bike_id":"8b50d3d8-8395-4d02-ba35-0a0e77546b53","system_id":"levelo_inurba_marseille","lat":43.26573,"lon":5.39006,"is_reserved":false,"is_disabled":false,"rental_uris":{"android":"levelo://app?vid=8b50d3d8-8395-4d02-ba35-0a0e77546b53","ios":"levelo://app?vid=8b50d3d8-8395-4d02-ba35-0a0e77546b53"},"vehicle_type_id":"4","last_reported":1739808684,"current_range_meters":18000,"station_id":"ce4bhe12rcd13ifvqf30","pricing_plan_id":"cebpf4jnsgd1na2vs0mg"},{"bike_id":"c0372983-dc5e-4efb-9f19-1a09e9eac3b1","system_id":"levelo_inurba_marseille","lat":43.25873,"lon":5.39894,"is_reserved":false,"is_disabled":false,"rental_uris":{"android":"levelo://app?vid=c0372983-dc5e-4efb-9f19-1a09e9eac3b1","ios":"levelo://app?vid=c0372983-dc5e-4efb-9f19-1a09e9eac3b1"},"vehicle_type_id":"4","last_reported":1739808684,"current_range_meters":17600,"station_id":"ce4bhl92rcd13ifvqghg","pricing_plan_id":"cebpf4jnsgd1na2vs0mg"},{"bike_id":"db90dd96-e348-4c68-ac8b-20428675b838","system_id":"levelo_inurba_marseille","lat":43.27184,"lon":5.40005,"is_reserved":false,"is_disabled":false,"rental_uris":{"android":"levelo://app?vid=db90dd96-e348-4c68-ac8b-20428675b838","ios":"levelo://app?vid=db90dd96-e348-4c68-ac8b-20428675b838"},"vehicle_type_id":"4","last_reported":1739808684,"current_range_meters":18000,"station_id":"","pricing_plan_id":"cebpf4jnsgd1na2vs0mg"},{"bike_id":"47571b7b-5f27-43dd-a2cc-d48926c58063","system_id":"levelo_inurba_marseille","lat":43.30115,"lon":5.39875,"is_reserved":false,"is_disabled":false,"rental_uris":{"android":"levelo://app?vid=47571b7b-5f27-43dd-a2cc-d48926c58063","ios":"levelo://app?vid=47571b7b-5f27-43dd-a2cc-d48926c58063"},"vehicle_type_id":"4","last_reported":1739808684,"current_range_meters":18800,"station_id":"ce4bh0h2rcd13ifvqd40","pricing_plan_id":"cebpf4jnsgd1na2vs0mg"},{"bike_id":"ff7f4373-418d-47c4-92b8-8e40f7b617a4","system_id":"levelo_inurba_marseille","lat":43.22932,"lon":5.35383,"is_reserved":false,"is_disabled":false,"rental_uris":{"android":"levelo://app?vid=ff7f4373-418d-47c4-92b8-8e40f7b617a4","ios":"levelo://app?vid=ff7f4373-418d-47c4-92b8-8e40f7b617a4"},"vehicle_type_id":"4","last_reported":1739808684,"current_range_meters":18800,"station_id":"cpo3532slgdg3j2ikp40","pricing_plan_id":"cebpf4jnsgd1na2vs0mg"},{"bike_id":"9885c601-2cbe-4ea7-9b6c-479dc416387c","system_id":"levelo_inurba_marseille","lat":43.29893,"lon":5.43671,"is_reserved":false,"is_disabled":false,"rental_uris":{"android":"levelo://app?vid=9885c601-2cbe-4ea7-9b6c-479dc416387c","ios":"levelo://app?vid=9885c601-2cbe-4ea7-9b6c-479dc416387c"},"vehicle_type_id":"4","last_reported":1739808684,"current_range_meters":18800,"station_id":"ce4bhpp2rcd13ifvqhfg","pricing_plan_id":"cebpf4jnsgd1na2vs0mg"},{"bike_id":"2b78a580-f064-4192-a68d-8925275237ea","system_id":"levelo_inurba_marseille","lat":43.28267,"lon":5.35077,"is_reserved":false,"is_disabled":false,"rental_uris":{"android":"levelo://app?vid=2b78a580-f064-4192-a68d-8925275237ea","ios":"levelo://app?vid=2b78a580-f064-4192-a68d-8925275237ea"},"vehicle_type_id":"4","last_reported":1739808684,"current_range_meters":18800,"station_id":"ce4bhbp2rcd13ifvqerg","pricing_plan_id":"cebpf4jnsgd1na2vs0mg"},{"bike_id":"f2f038bb-5d3a-415b-9164-ad30d51c80ee","system_id":"levelo_inurba_marseille","lat":43.24087,"lon":5.3774,"is_reserved":false,"is_disabled":false,"rental_uris":{"android":"levelo://app?vid=f2f038bb-5d3a-415b-9164-ad30d51c80ee","ios":"levelo://app?vid=f2f038bb-5d3a-415b-9164-ad30d51c80ee"},"vehicle_type_id":"4","last_reported":1739808684,"current_range_meters":18800,"station_id":"","pricing_plan_id":"cebpf4jnsgd1na2vs0mg"},{"bike_id":"3844954a-cc46-48bc-a82a-df8591639f75","system_id":"levelo_inurba_marseille","lat":43.3133,"lon":5.39688,"is_reserved":false,"is_disabled":false,"rental_uris":{"android":"levelo://app?vid=3844954a-cc46-48bc-a82a-df8591639f75","ios":"levelo://app?vid=3844954a-cc46-48bc-a82a-df8591639f75"},"vehicle_type_id":"4","last_reported":1739808684,"current_range_meters":18000,"station_id":"ce4bgvp2rcd13ifvqcu0","pricing_plan_id":"cebpf4jnsgd1na2vs0mg"},{"bike_id":"954882ad-f997-48eb-8b49-af0b0b38bc7e","system_id":"levelo_inurba_marseille","lat":43.31052,"lon":5.36966,"is_reserved":false,"is_disabled":false,"rental_uris":{"android":"levelo://app?vid=954882ad-f997-48eb-8b49-af0b0b38bc7e","ios":"levelo://app?vid=954882ad-f997-48eb-8b49-af0b0b38bc7e"},"vehicle_type_id":"4","last_reported":1739808684,"current_range_meters":18800,"station_id":"","pricing_plan_id":"cebpf4jnsgd1na2vs0mg"},{"bike_id":"d429a340-5499-4f75-95be-d9cf84c86984","system_id":"levelo_inurba_marseille","lat":43.2961,"lon":5.37721,"is_reserved":false,"is_disabled":false,"rental_uris":{"android":"levelo://app?vid=d429a340-5499-4f75-95be-d9cf84c86984","ios":"levelo://app?vid=d429a340-5499-4f75-95be-d9cf84c86984"},"vehicle_type_id":"4","last_reported":1739808684,"current_range_meters":18800,"station_id":"","pricing_plan_id":"cebpf4jnsgd1na2vs0mg"},{"bike_id":"eccd8f50-0d44-405a-897c-7354c541adab","system_id":"levelo_inurba_marseille","lat":43.23185,"lon":5.39985,"is_reserved":false,"is_disabled":false,"rental_uris":{"android":"levelo://app?vid=eccd8f50-0d44-405a-897c-7354c541adab","ios":"levelo://app?vid=eccd8f50-0d44-405a-897c-7354c541adab"},"vehicle_type_id":"4","last_reported":1739808684,"current_range_meters":18800,"station_id":"ce4bhn12rcd13ifvqgqg","pricing_plan_id":"cebpf4jnsgd1na2vs0mg"},{"bike_id":"20d8d89d-c719-4224-ad39-1781880517ba","system_id":"levelo_inurba_marseille","lat":43.25125,"lon":5.40328,"is_reserved":false,"is_disabled":false,"rental_uris":{"android":"levelo://app?vid=20d8d89d-c719-4224-ad39-1781880517ba","ios":"levelo://app?vid=20d8d89d-c719-4224-ad39-1781880517ba"},"vehicle_type_id":"4","last_reported":1739808684,"current_range_meters":18800,"station_id":"ce4bhlh2rcd13ifvqgig","pricing_plan_id":"cebpf4jnsgd1na2vs0mg"},{"bike_id":"1a68f0cd-5f94-4b36-8631-4150cbc4cba2","system_id":"levelo_inurba_marseille","lat":43.27906,"lon":5.38009,"is_reserved":false,"is_disabled":false,"rental_uris":{"android":"levelo://app?vid=1a68f0cd-5f94-4b36-8631-4150cbc4cba2","ios":"levelo://app?vid=1a68f0cd-5f94-4b36-8631-4150cbc4cba2"},"vehicle_type_id":"4","last_reported":1739808684,"current_range_meters":18800,"station_id":"ce4bhf92rcd13ifvqf50","pricing_plan_id":"cebpf4jnsgd1na2vs0mg"},{"bike_id":"87e4e3d9-887e-4f25-bf58-279367bc8327","system_id":"levelo_inurba_marseille","lat":43.30671,"lon":5.40085,"is_reserved":false,"is_disabled":true,"rental_uris":{"android":"levelo://app?vid=87e4e3d9-887e-4f25-bf58-279367bc8327","ios":"levelo://app?vid=87e4e3d9-887e-4f25-bf58-279367bc8327"},"vehicle_type_id":"4","last_reported":1739808684,"current_range_meters":19200,"station_id":"ce4bh112rcd13ifvqda0","pricing_plan_id":"cebpf4jnsgd1na2vs0mg"},{"bike_id":"a1d9314a-748b-4a1c-83cf-efcb6ce89650","system_id":"levelo_inurba_marseille","lat":43.29282,"lon":5.40112,"is_reserved":false,"is_disabled":false,"rental_uris":{"android":"levelo://app?vid=a1d9314a-748b-4a1c-83cf-efcb6ce89650","ios":"levelo://app?vid=a1d9314a-748b-4a1c-83cf-efcb6ce89650"},"vehicle_type_id":"4","last_reported":1739808684,"current_range_meters":19200,"station_id":"ce4bh312rcd13ifvqdk0","pricing_plan_id":"cebpf4jnsgd1na2vs0mg"},{"bike_id":"aca91660-92ff-43f6-aaa1-f962fa318352","system_id":"levelo_inurba_marseille","lat":43.25865,"lon":5.39903,"is_reserved":false,"is_disabled":false,"rental_uris":{"android":"levelo://app?vid=aca91660-92ff-43f6-aaa1-f962fa318352","ios":"levelo://app?vid=aca91660-92ff-43f6-aaa1-f962fa318352"},"vehicle_type_id":"4","last_reported":1739808684,"current_range_meters":19200,"station_id":"ce4bhl92rcd13ifvqghg","pricing_plan_id":"cebpf4jnsgd1na2vs0mg"},{"bike_id":"8796c4a1-cf69-4acb-819d-b56299eee9b7","system_id":"levelo_inurba_marseille","lat":43.33255,"lon":5.37897,"is_reserved":false,"is_disabled":false,"rental_uris":{"android":"levelo://app?vid=8796c4a1-cf69-4acb-819d-b56299eee9b7","ios":"levelo://app?vid=8796c4a1-cf69-4acb-819d-b56299eee9b7"},"vehicle_type_id":"4","last_reported":1739808684,"current_range_meters":19200,"station_id":"","pricing_plan_id":"cebpf4jnsgd1na2vs0mg"},{"bike_id":"950461d3-a02e-4e1c-879c-e540cfb25abc","system_id":"levelo_inurba_marseille","lat":43.28995,"lon":5.35613,"is_reserved":false,"is_disabled":false,"rental_uris":{"android":"levelo://app?vid=950461d3-a02e-4e1c-879c-e540cfb25abc","ios":"levelo://app?vid=950461d3-a02e-4e1c-879c-e540cfb25abc"},"vehicle_type_id":"4","last_reported":1739808684,"current_range_meters":19200,"station_id":"ce4bhb92rcd13ifvqen0","pricing_plan_id":"cebpf4jnsgd1na2vs0mg"},{"bike_id":"5d9f75d7-ea2d-49cd-aa32-3c186580dce1","system_id":"levelo_inurba_marseille","lat":43.28618,"lon":5.35105,"is_reserved":false,"is_disabled":false,"rental_uris":{"android":"levelo://app?vid=5d9f75d7-ea2d-49cd-aa32-3c186580dce1","ios":"levelo://app?vid=5d9f75d7-ea2d-49cd-aa32-3c186580dce1"},"vehicle_type_id":"4","last_reported":1739808684,"current_range_meters":19200,"station_id":"","pricing_plan_id":"cebpf4jnsgd1na2vs0mg"},{"bike_id":"943c5072-0fbe-4587-8296-1c919a3b11d6","system_id":"levelo_inurba_marseille","lat":43.28156,"lon":5.42639,"is_reserved":false,"is_disabled":false,"rental_uris":{"android":"levelo://app?vid=943c5072-0fbe-4587-8296-1c919a3b11d6","ios":"levelo://app?vid=943c5072-0fbe-4587-8296-1c919a3b11d6"},"vehicle_type_id":"4","last_reported":1739808684,"current_range_meters":19200,"station_id":"ce4bhnh2rcd13ifvqgug","pricing_plan_id":"cebpf4jnsgd1na2vs0mg"},{"bike_id":"205b37be-1620-49cb-9cf5-b45ac0498016","system_id":"levelo_inurba_marseille","lat":43.24183,"lon":5.3973,"is_reserved":false,"is_disabled":false,"rental_uris":{"android":"levelo://app?vid=205b37be-1620-49cb-9cf5-b45ac0498016","ios":"levelo://app?vid=205b37be-1620-49cb-9cf5-b45ac0498016"},"vehicle_type_id":"4","last_reported":1739808684,"current_range_meters":19200,"station_id":"ce4bhp92rcd13ifvqhcg","pricing_plan_id":"cebpf4jnsgd1na2vs0mg"},{"bike_id":"58a5c712-9d46-4329-afac-796b4051eca6","system_id":"levelo_inurba_marseille","lat":43.25005,"lon":5.38916,"is_reserved":false,"is_disabled":true,"rental_uris":{"android":"levelo://app?vid=58a5c712-9d46-4329-afac-796b4051eca6","ios":"levelo://app?vid=58a5c712-9d46-4329-afac-796b4051eca6"},"vehicle_type_id":"4","last_reported":1739808684,"current_range_meters":19200,"station_id":"ce4bhgp2rcd13ifvqfd0","pricing_plan_id":"cebpf4jnsgd1na2vs0mg"},{"bike_id":"7312cda3-bba1-47e6-b097-bd447e567723","system_id":"levelo_inurba_marseille","lat":43.24086,"lon":5.37759,"is_reserved":false,"is_disabled":false,"rental_uris":{"android":"levelo://app?vid=7312cda3-bba1-47e6-b097-bd447e567723","ios":"levelo://app?vid=7312cda3-bba1-47e6-b097-bd447e567723"},"vehicle_type_id":"4","last_reported":1739808684,"current_range_meters":19200,"station_id":"ce4bhnp2rcd13ifvqgvg","pricing_plan_id":"cebpf4jnsgd1na2vs0mg"},{"bike_id":"a974028c-b93f-43e8-87dc-8a70950f8da2","system_id":"levelo_inurba_marseille","lat":43.29673,"lon":5.37301,"is_reserved":false,"is_disabled":false,"rental_uris":{"android":"levelo://app?vid=a974028c-b93f-43e8-87dc-8a70950f8da2","ios":"levelo://app?vid=a974028c-b93f-43e8-87dc-8a70950f8da2"},"vehicle_type_id":"4","last_reported":1739808684,"current_range_meters":16800,"station_id":"ce4bgk12rcd13ifvqbj0","pricing_plan_id":"cebpf4jnsgd1na2vs0mg"},{"bike_id":"1129ec66-bba0-417b-a8e8-8f5d9dd16838","system_id":"levelo_inurba_marseille","lat":43.26942,"lon":5.3892,"is_reserved":false,"is_disabled":false,"rental_uris":{"android":"levelo://app?vid=1129ec66-bba0-417b-a8e8-8f5d9dd16838","ios":"levelo://app?vid=1129ec66-bba0-417b-a8e8-8f5d9dd16838"},"vehicle_type_id":"4","last_reported":1739808684,"current_range_meters":19200,"station_id":"ce4bhh92rcd13ifvqfh0","pricing_plan_id":"cebpf4jnsgd1na2vs0mg"},{"bike_id":"6dda2f23-46bb-4bc4-9193-80a071d223c9","system_id":"levelo_inurba_marseille","lat":43.30634,"lon":5.36728,"is_reserved":false,"is_disabled":false,"rental_uris":{"android":"levelo://app?vid=6dda2f23-46bb-4bc4-9193-80a071d223c9","ios":"levelo://app?vid=6dda2f23-46bb-4bc4-9193-80a071d223c9"},"vehicle_type_id":"4","last_reported":1739808684,"current_range_meters":19600,"station_id":"","pricing_plan_id":"cebpf4jnsgd1na2vs0mg"},{"bike_id":"2157b35b-64f2-45ec-a8af-aeb4d2bea322","system_id":"levelo_inurba_marseille","lat":43.31286,"lon":5.40176,"is_reserved":false,"is_disabled":false,"rental_uris":{"android":"levelo://app?vid=2157b35b-64f2-45ec-a8af-aeb4d2bea322","ios":"levelo://app?vid=2157b35b-64f2-45ec-a8af-aeb4d2bea322"},"vehicle_type_id":"4","last_reported":1739808684,"current_range_meters":19600,"station_id":"ce4bh092rcd13ifvqd30","pricing_plan_id":"cebpf4jnsgd1na2vs0mg"},{"bike_id":"efb4d34c-0431-4825-a7ba-2885c84af47e","system_id":"levelo_inurba_marseille","lat":43.28671,"lon":5.36357,"is_reserved":false,"is_disabled":false,"rental_uris":{"android":"levelo://app?vid=efb4d34c-0431-4825-a7ba-2885c84af47e","ios":"levelo://app?vid=efb4d34c-0431-4825-a7ba-2885c84af47e"},"vehicle_type_id":"4","last_reported":1739808684,"current_range_meters":19200,"station_id":"ce4bhah2rcd13ifvqej0","pricing_plan_id":"cebpf4jnsgd1na2vs0mg"},{"bike_id":"9154daf3-0a1a-4dd0-9469-449ac8bc82f4","system_id":"levelo_inurba_marseille","lat":43.32034,"lon":5.41555,"is_reserved":false,"is_disabled":false,"rental_uris":{"android":"levelo://app?vid=9154daf3-0a1a-4dd0-9469-449ac8bc82f4","ios":"levelo://app?vid=9154daf3-0a1a-4dd0-9469-449ac8bc82f4"},"vehicle_type_id":"4","last_reported":1739808684,"current_range_meters":19600,"station_id":"","pricing_plan_id":"cebpf4jnsgd1na2vs0mg"},{"bike_id":"25ea9eec-29d9-4063-8007-929ebb2d1ef2","system_id":"levelo_inurba_marseille","lat":43.25501,"lon":5.37655,"is_reserved":false,"is_disabled":false,"rental_uris":{"android":"levelo://app?vid=25ea9eec-29d9-4063-8007-929ebb2d1ef2","ios":"levelo://app?vid=25ea9eec-29d9-4063-8007-929ebb2d1ef2"},"vehicle_type_id":"4","last_reported":1739808684,"current_range_meters":19600,"station_id":"ce4bhh12rcd13ifvqff0","pricing_plan_id":"cebpf4jnsgd1na2vs0mg"},{"bike_id":"ec7eb08a-1a7d-43c4-99f5-444e73b522c8","system_id":"levelo_inurba_marseille","lat":43.29901,"lon":5.43669,"is_reserved":false,"is_disabled":false,"rental_uris":{"android":"levelo://app?vid=ec7eb08a-1a7d-43c4-99f5-444e73b522c8","ios":"levelo://app?vid=ec7eb08a-1a7d-43c4-99f5-444e73b522c8"},"vehicle_type_id":"4","last_reported":1739808684,"current_range_meters":19600,"station_id":"ce4bhpp2rcd13ifvqhfg","pricing_plan_id":"cebpf4jnsgd1na2vs0mg"},{"bike_id":"08607146-c8bc-4693-b607-4fde4fa5c6ef","system_id":"levelo_inurba_marseille","lat":43.24177,"lon":5.39734,"is_reserved":false,"is_disabled":false,"rental_uris":{"android":"levelo://app?vid=08607146-c8bc-4693-b607-4fde4fa5c6ef","ios":"levelo://app?vid=08607146-c8bc-4693-b607-4fde4fa5c6ef"},"vehicle_type_id":"4","last_reported":1739808684,"current_range_meters":19600,"station_id":"ce4bhn12rcd13ifvqgpg","pricing_plan_id":"cebpf4jnsgd1na2vs0mg"},{"bike_id":"b1f8e5c1-43a1-44fc-b83c-9a7e95749cdf","system_id":"levelo_inurba_marseille","lat":43.31689,"lon":5.4048,"is_reserved":false,"is_disabled":false,"rental_uris":{"android":"levelo://app?vid=b1f8e5c1-43a1-44fc-b83c-9a7e95749cdf","ios":"levelo://app?vid=b1f8e5c1-43a1-44fc-b83c-9a7e95749cdf"},"vehicle_type_id":"4","last_reported":1739808684,"current_range_meters":19600,"station_id":"ce4bh012rcd13ifvqd00","pricing_plan_id":"cebpf4jnsgd1na2vs0mg"},{"bike_id":"bc596076-3e5d-4d42-b5bf-8c70b99f1996","system_id":"levelo_inurba_marseille","lat":43.30422,"lon":5.41286,"is_reserved":false,"is_disabled":false,"rental_uris":{"android":"levelo://app?vid=bc596076-3e5d-4d42-b5bf-8c70b99f1996","ios":"levelo://app?vid=bc596076-3e5d-4d42-b5bf-8c70b99f1996"},"vehicle_type_id":"4","last_reported":1739808684,"current_range_meters":19200,"station_id":"ce4bhop2rcd13ifvqh8g","pricing_plan_id":"cebpf4jnsgd1na2vs0mg"},{"bike_id":"03d4faad-c15a-48aa-9dae-b9ddb0491fbe","system_id":"levelo_inurba_marseille","lat":43.33716,"lon":5.39206,"is_reserved":false,"is_disabled":true,"rental_uris":{"android":"levelo://app?vid=03d4faad-c15a-48aa-9dae-b9ddb0491fbe","ios":"levelo://app?vid=03d4faad-c15a-48aa-9dae-b9ddb0491fbe"},"vehicle_type_id":"4","last_reported":1739808684,"current_range_meters":19600,"station_id":"ce4bhr92rcd13ifvqhsg","pricing_plan_id":"cebpf4jnsgd1na2vs0mg"},{"bike_id":"c9b637c0-5bd6-41dc-a5ee-204fb6342032","system_id":"levelo_inurba_marseille","lat":43.25493,"lon":5.37649,"is_reserved":false,"is_disabled":false,"rental_uris":{"android":"levelo://app?vid=c9b637c0-5bd6-41dc-a5ee-204fb6342032","ios":"levelo://app?vid=c9b637c0-5bd6-41dc-a5ee-204fb6342032"},"vehicle_type_id":"4","last_reported":1739808684,"current_range_meters":19600,"station_id":"ce4bhh12rcd13ifvqff0","pricing_plan_id":"cebpf4jnsgd1na2vs0mg"},{"bike_id":"b14ea508-230e-4a24-a884-862f09e3bb47","system_id":"levelo_inurba_marseille","lat":43.25493,"lon":5.3765,"is_reserved":false,"is_disabled":false,"rental_uris":{"android":"levelo://app?vid=b14ea508-230e-4a24-a884-862f09e3bb47","ios":"levelo://app?vid=b14ea508-230e-4a24-a884-862f09e3bb47"},"vehicle_type_id":"4","last_reported":1739808684,"current_range_meters":20000,"station_id":"ce4bhh12rcd13ifvqff0","pricing_plan_id":"cebpf4jnsgd1na2vs0mg"},{"bike_id":"0b770661-f904-4da3-b6b0-e73994ea9269","system_id":"levelo_inurba_marseille","lat":43.26556,"lon":5.37292,"is_reserved":false,"is_disabled":false,"rental_uris":{"android":"levelo://app?vid=0b770661-f904-4da3-b6b0-e73994ea9269","ios":"levelo://app?vid=0b770661-f904-4da3-b6b0-e73994ea9269"},"vehicle_type_id":"4","last_reported":1739808684,"current_range_meters":20000,"station_id":"","pricing_plan_id":"cebpf4jnsgd1na2vs0mg"},{"bike_id":"5c3e56f9-b7df-4b47-b1a7-e9fb85099b05","system_id":"levelo_inurba_marseille","lat":43.24547,"lon":5.39528,"is_reserved":false,"is_disabled":false,"rental_uris":{"android":"levelo://app?vid=5c3e56f9-b7df-4b47-b1a7-e9fb85099b05","ios":"levelo://app?vid=5c3e56f9-b7df-4b47-b1a7-e9fb85099b05"},"vehicle_type_id":"4","last_reported":1739808684,"current_range_meters":20000,"station_id":"ce4bhlp2rcd13ifvqgjg","pricing_plan_id":"cebpf4jnsgd1na2vs0mg"},{"bike_id":"5937c61a-ff3c-4c9c-a9c5-7ca5a85e16f6","system_id":"levelo_inurba_marseille","lat":43.2407,"lon":5.3776,"is_reserved":false,"is_disabled":false,"rental_uris":{"android":"levelo://app?vid=5937c61a-ff3c-4c9c-a9c5-7ca5a85e16f6","ios":"levelo://app?vid=5937c61a-ff3c-4c9c-a9c5-7ca5a85e16f6"},"vehicle_type_id":"4","last_reported":1739808684,"current_range_meters":20000,"station_id":"ce4bhnp2rcd13ifvqgvg","pricing_plan_id":"cebpf4jnsgd1na2vs0mg"},{"bike_id":"94d4a97a-f70c-41ec-a555-e620fb9459bd","system_id":"levelo_inurba_marseille","lat":43.26197,"lon":5.37935,"is_reserved":false,"is_disabled":false,"rental_uris":{"android":"levelo://app?vid=94d4a97a-f70c-41ec-a555-e620fb9459bd","ios":"levelo://app?vid=94d4a97a-f70c-41ec-a555-e620fb9459bd"},"vehicle_type_id":"4","last_reported":1739808684,"current_range_meters":20000,"station_id":"ce4bhjp2rcd13ifvqg90","pricing_plan_id":"cebpf4jnsgd1na2vs0mg"},{"bike_id":"e4519c7c-e66d-4078-82cf-81dfd68bd511","system_id":"levelo_inurba_marseille","lat":43.28415,"lon":5.37497,"is_reserved":false,"is_disabled":false,"rental_uris":{"android":"levelo://app?vid=e4519c7c-e66d-4078-82cf-81dfd68bd511","ios":"levelo://app?vid=e4519c7c-e66d-4078-82cf-81dfd68bd511"},"vehicle_type_id":"4","last_reported":1739808684,"current_range_meters":20000,"station_id":"ce4bh412rcd13ifvqds0","pricing_plan_id":"cebpf4jnsgd1na2vs0mg"},{"bike_id":"a4857bb5-4244-44a9-94da-7cc4b011dd75","system_id":"levelo_inurba_marseille","lat":43.30538,"lon":5.36538,"is_reserved":false,"is_disabled":false,"rental_uris":{"android":"levelo://app?vid=a4857bb5-4244-44a9-94da-7cc4b011dd75","ios":"levelo://app?vid=a4857bb5-4244-44a9-94da-7cc4b011dd75"},"vehicle_type_id":"4","last_reported":1739808684,"current_range_meters":19600,"station_id":"ce4bgs12rcd13ifvqcag","pricing_plan_id":"cebpf4jnsgd1na2vs0mg"},{"bike_id":"2ab31347-0af9-4979-82f5-b4808ab2e38a","system_id":"levelo_inurba_marseille","lat":43.28086,"lon":5.39661,"is_reserved":false,"is_disabled":false,"rental_uris":{"android":"levelo://app?vid=2ab31347-0af9-4979-82f5-b4808ab2e38a","ios":"levelo://app?vid=2ab31347-0af9-4979-82f5-b4808ab2e38a"},"vehicle_type_id":"4","last_reported":1739808684,"current_range_meters":20400,"station_id":"ce4bho12rcd13ifvqh2g","pricing_plan_id":"cebpf4jnsgd1na2vs0mg"},{"bike_id":"2c399f01-e332-4493-b772-5e8853a326dc","system_id":"levelo_inurba_marseille","lat":43.27318,"lon":5.39104,"is_reserved":false,"is_disabled":false,"rental_uris":{"android":"levelo://app?vid=2c399f01-e332-4493-b772-5e8853a326dc","ios":"levelo://app?vid=2c399f01-e332-4493-b772-5e8853a326dc"},"vehicle_type_id":"4","last_reported":1739808684,"current_range_meters":20400,"station_id":"ce4bhgp2rcd13ifvqfe0","pricing_plan_id":"cebpf4jnsgd1na2vs0mg"},{"bike_id":"9ad66307-60c9-4cae-a574-95de71e6ff2c","system_id":"levelo_inurba_marseille","lat":43.29096,"lon":5.38135,"is_reserved":false,"is_disabled":false,"rental_uris":{"android":"levelo://app?vid=9ad66307-60c9-4cae-a574-95de71e6ff2c","ios":"levelo://app?vid=9ad66307-60c9-4cae-a574-95de71e6ff2c"},"vehicle_type_id":"4","last_reported":1739808684,"current_range_meters":20400,"station_id":"ce4bh512rcd13ifvqe2g","pricing_plan_id":"cebpf4jnsgd1na2vs0mg"},{"bike_id":"af7831b5-09df-4518-a98c-1cd2dc88fbed","system_id":"levelo_inurba_marseille","lat":43.32064,"lon":5.41536,"is_reserved":false,"is_disabled":false,"rental_uris":{"android":"levelo://app?vid=af7831b5-09df-4518-a98c-1cd2dc88fbed","ios":"levelo://app?vid=af7831b5-09df-4518-a98c-1cd2dc88fbed"},"vehicle_type_id":"4","last_reported":1739808684,"current_range_meters":20400,"station_id":"ce4bhq92rcd13ifvqhkg","pricing_plan_id":"cebpf4jnsgd1na2vs0mg"},{"bike_id":"b5ba262d-3b35-4d6c-9202-c54b101fe069","system_id":"levelo_inurba_marseille","lat":43.30462,"lon":5.37905,"is_reserved":false,"is_disabled":false,"rental_uris":{"android":"levelo://app?vid=b5ba262d-3b35-4d6c-9202-c54b101fe069","ios":"levelo://app?vid=b5ba262d-3b35-4d6c-9202-c54b101fe069"},"vehicle_type_id":"4","last_reported":1739808684,"current_range_meters":20400,"station_id":"ce4bgup2rcd13ifvqcn0","pricing_plan_id":"cebpf4jnsgd1na2vs0mg"},{"bike_id":"b81914d6-4c0b-4921-86cd-9736c04011d2","system_id":"levelo_inurba_marseille","lat":43.31765,"lon":5.38983,"is_reserved":false,"is_disabled":false,"rental_uris":{"android":"levelo://app?vid=b81914d6-4c0b-4921-86cd-9736c04011d2","ios":"levelo://app?vid=b81914d6-4c0b-4921-86cd-9736c04011d2"},"vehicle_type_id":"4","last_reported":1739808684,"current_range_meters":20400,"station_id":"","pricing_plan_id":"cebpf4jnsgd1na2vs0mg"},{"bike_id":"591418ab-191e-482a-82c4-b5bc6728b895","system_id":"levelo_inurba_marseille","lat":43.29538,"lon":5.38546,"is_reserved":false,"is_disabled":false,"rental_uris":{"android":"levelo://app?vid=591418ab-191e-482a-82c4-b5bc6728b895","ios":"levelo://app?vid=591418ab-191e-482a-82c4-b5bc6728b895"},"vehicle_type_id":"4","last_reported":1739808684,"current_range_meters":20800,"station_id":"ce4bgih2rcd13ifvqba0","pricing_plan_id":"cebpf4jnsgd1na2vs0mg"},{"bike_id":"ef4f6a2e-8025-4dde-a751-dced4ee9b2f1","system_id":"levelo_inurba_marseille","lat":43.28619,"lon":5.35103,"is_reserved":false,"is_disabled":false,"rental_uris":{"android":"levelo://app?vid=ef4f6a2e-8025-4dde-a751-dced4ee9b2f1","ios":"levelo://app?vid=ef4f6a2e-8025-4dde-a751-dced4ee9b2f1"},"vehicle_type_id":"4","last_reported":1739808684,"current_range_meters":20800,"station_id":"ce4bhch2rcd13ifvqeug","pricing_plan_id":"cebpf4jnsgd1na2vs0mg"},{"bike_id":"5391cc59-51be-4ee7-919e-f6270f6a7131","system_id":"levelo_inurba_marseille","lat":43.28369,"lon":5.38634,"is_reserved":false,"is_disabled":false,"rental_uris":{"android":"levelo://app?vid=5391cc59-51be-4ee7-919e-f6270f6a7131","ios":"levelo://app?vid=5391cc59-51be-4ee7-919e-f6270f6a7131"},"vehicle_type_id":"4","last_reported":1739808684,"current_range_meters":20400,"station_id":"ce4bh492rcd13ifvqdvg","pricing_plan_id":"cebpf4jnsgd1na2vs0mg"},{"bike_id":"1d63a175-89ef-49ff-9ead-dfe9ed6c22cf","system_id":"levelo_inurba_marseille","lat":43.246933,"lon":5.394358,"is_reserved":false,"is_disabled":false,"rental_uris":{"android":"levelo://app?vid=1d63a175-89ef-49ff-9ead-dfe9ed6c22cf","ios":"levelo://app?vid=1d63a175-89ef-49ff-9ead-dfe9ed6c22cf"},"vehicle_type_id":"4","last_reported":1739808684,"current_range_meters":20800,"station_id":"","pricing_plan_id":"cebpf4jnsgd1na2vs0mg"},{"bike_id":"9698a2bd-8897-4f9c-97fa-5979b7c1135d","system_id":"levelo_inurba_marseille","lat":43.3056,"lon":5.36548,"is_reserved":false,"is_disabled":false,"rental_uris":{"android":"levelo://app?vid=9698a2bd-8897-4f9c-97fa-5979b7c1135d","ios":"levelo://app?vid=9698a2bd-8897-4f9c-97fa-5979b7c1135d"},"vehicle_type_id":"4","last_reported":1739808684,"current_range_meters":20800,"station_id":"ce4bgs12rcd13ifvqcag","pricing_plan_id":"cebpf4jnsgd1na2vs0mg"},{"bike_id":"f0376bed-5806-4a78-89e0-cc8934556f71","system_id":"levelo_inurba_marseille","lat":43.30324,"lon":5.40447,"is_reserved":false,"is_disabled":false,"rental_uris":{"android":"levelo://app?vid=f0376bed-5806-4a78-89e0-cc8934556f71","ios":"levelo://app?vid=f0376bed-5806-4a78-89e0-cc8934556f71"},"vehicle_type_id":"4","last_reported":1739808684,"current_range_meters":20800,"station_id":"ce4bh012rcd13ifvqd10","pricing_plan_id":"cebpf4jnsgd1na2vs0mg"},