{"last_updated":1731900273,"ttl":60,"version":"2.2","data":{"bikes":[{"bike_id":"5a5cda28-413a-466c-b416-640a2c5260a6","system_id":"levelo_inurba_marseille","lat":43.29777,"lon":5.39358,"is_reserved":false,"is_disabled":false,"rental_uris":{"android":"levelo://app?vid=5a5cda28-413a-466c-b416-640a2c5260a6","ios":"levelo://app?vid=5a5cda28-413a-466c-b416-640a2c5260a6"},"vehicle_type_id":"4","last_reported":1731900273,"current_range_meters":24400,"station_id":"chh1huq6cuj3fo74tm60","pricing_plan_id":"cebpf4jnsgd1na2vs0mg"},{"bike_id":"db2b91a4-d5c9-49a3-9079-d94c82ff95d7","system_id":"levelo_inurba_marseille","lat":43.30052,"lon":5.40945,"is_reserved":false,"is_disabled":false,"rental_uris":{"android":"levelo://app?vid=db2b91a4-d5c9-49a3-9079-d94c82ff95d7","ios":"levelo://app?vid=db2b91a4-d5c9-49a3-9079-d94c82ff95d7"},"vehicle_type_id":"4","last_reported":1731900273,"current_range_meters":7200,"station_id":"","pricing_plan_id":"cebpf4jnsgd1na2vs0mg"},{"bike_id":"07f44c2d-6d0b-41f2-ba11-0031c4dea411","system_id":"levelo_inurba_marseille","lat":43.24656,"lon":5.38163,"is_reserved":false,"is_disabled":false,"rental_uris":{"android":"levelo://app?vid=07f44c2d-6d0b-41f2-ba11-0031c4dea411","ios":"levelo://app?vid=07f44c2d-6d0b-41f2-ba11-0031c4dea411"},"vehicle_type_id":"4","last_reported":1731900273,"current_range_meters":8800,"station_id":"ce4bhih2rcd13ifvqfr0","pricing_plan_id":"cebpf4jnsgd1na2vs0mg"},{"bike_id":"21b61ede-e062-4fe8-a6bc-6c449d2ab9c7","system_id":"levelo_inurba_marseille","lat":43.30274,"lon":5.40092,"is_reserved":false,"is_disabled":false,"rental_uris":{"android":"levelo://app?vid=21b61ede-e062-4fe8-a6bc-6c449d2ab9c7","ios":"levelo://app?vid=21b61ede-e062-4fe8-a6bc-6c449d2ab9c7"},"vehicle_type_id":"4","last_reported":1731900273,"current_range_meters":11600,"station_id":"ce4bgvh2rcd13ifvqcs0","pricing_plan_id":"cebpf4jnsgd1na2vs0mg"},{"bike_id":"17cddf6a-79b2-43ef-905b-8f248e409224","system_id":"levelo_inurba_marseille","lat":43.30324,"lon":5.40442,"is_reserved":false,"is_disabled":false,"rental_uris":{"android":"levelo://app?vid=17cddf6a-79b2-43ef-905b-8f248e409224","ios":"levelo://app?vid=17cddf6a-79b2-43ef-905b-8f248e409224"},"vehicle_type_id":"4","last_reported":1731900273,"current_range_meters":28800,"station_id":"ce4bh012rcd13ifvqd10","pricing_plan_id":"cebpf4jnsgd1na2vs0mg"},{"bike_id":"5919b4a2-8e29-4aea-b761-94728798d366","system_id":"levelo_inurba_marseille","lat":43.30791,"lon":5.38155,"is_reserved":false,"is_disabled":false,"rental_uris":{"android":"levelo://app?vid=5919b4a2-8e29-4aea-b761-94728798d366","ios":"levelo://app?vid=5919b4a2-8e29-4aea-b761-94728798d366"},"vehicle_type_id":"4","last_reported":1731900273,"current_range_meters":26800,"station_id":"ce4bgt12rcd13ifvqce0","pricing_plan_id":"cebpf4jnsgd1na2vs0mg"},{"bike_id":"9196a10b-4329-4cc1-8f2d-fbffd30cb04c","system_id":"levelo_inurba_marseille","lat":43.31336,"lon":5.39697,"is_reserved":false,"is_disabled":false,"rental_uris":{"android":"levelo://app?vid=9196a10b-4329-4cc1-8f2d-fbffd30cb04c","ios":"levelo://app?vid=9196a10b-4329-4cc1-8f2d-fbffd30cb04c"},"vehicle_type_id":"4","last_reported":1731900273,"current_range_meters":26800,"station_id":"ce4bgvp2rcd13ifvqcu0","pricing_plan_id":"cebpf4jnsgd1na2vs0mg"},{"bike_id":"0672d165-d197-4474-bbec-2df95543fd2f","system_id":"levelo_inurba_marseille","lat":43.29902,"lon":5.43656,"is_reserved":false,"is_disabled":false,"rental_uris":{"android":"levelo://app?vid=0672d165-d197-4474-bbec-2df95543fd2f","ios":"levelo://app?vid=0672d165-d197-4474-bbec-2df95543fd2f"},"vehicle_type_id":"4","last_reported":1731900273,"current_range_meters":38800,"station_id":"ce4bhpp2rcd13ifvqhfg","pricing_plan_id":"cebpf4jnsgd1na2vs0mg"},{"bike_id":"0abafd50-d6f0-4ae1-8b2e-e1936ed5039b","system_id":"levelo_inurba_marseille","lat":43.2983,"lon":5.41009,"is_reserved":false,"is_disabled":false,"rental_uris":{"android":"levelo://app?vid=0abafd50-d6f0-4ae1-8b2e-e1936ed5039b","ios":"levelo://app?vid=0abafd50-d6f0-4ae1-8b2e-e1936ed5039b"},"vehicle_type_id":"4","last_reported":1731900273,"current_range_meters":7200,"station_id":"","pricing_plan_id":"cebpf4jnsgd1na2vs0mg"},{"bike_id":"9f9eff5e-4633-4f86-8cdc-5509372a6217","system_id":"levelo_inurba_marseille","lat":43.28009,"lon":5.38756,"is_reserved":false,"is_disabled":false,"rental_uris":{"android":"levelo://app?vid=9f9eff5e-4633-4f86-8cdc-5509372a6217","ios":"levelo://app?vid=9f9eff5e-4633-4f86-8cdc-5509372a6217"},"vehicle_type_id":"4","last_reported":1731900273,"current_range_meters":12000,"station_id":"ce4bhg12rcd13ifvqf80","pricing_plan_id":"cebpf4jnsgd1na2vs0mg"},{"bike_id":"0f3d0b2a-d858-49f7-8e00-3f33dd92b649","system_id":"levelo_inurba_marseille","lat":43.28151,"lon":5.42641,"is_reserved":false,"is_disabled":false,"rental_uris":{"android":"levelo://app?vid=0f3d0b2a-d858-49f7-8e00-3f33dd92b649","ios":"levelo://app?vid=0f3d0b2a-d858-49f7-8e00-3f33dd92b649"},"vehicle_type_id":"4","last_reported":1731900273,"current_range_meters":13600,"station_id":"ce4bhnh2rcd13ifvqgug","pricing_plan_id":"cebpf4jnsgd1na2vs0mg"},{"bike_id":"bd187281-d318-4ef3-a751-fcd35f67a3e2","system_id":"levelo_inurba_marseille","lat":43.288526,"lon":5.358508,"is_reserved":false,"is_disabled":false,"rental_uris":{"android":"levelo://app?vid=bd187281-d318-4ef3-a751-fcd35f67a3e2","ios":"levelo://app?vid=bd187281-d318-4ef3-a751-fcd35f67a3e2"},"vehicle_type_id":"4","last_reported":1731900273,"current_range_meters":21600,"station_id":"ce4bhb12rcd13ifvqem0","pricing_plan_id":"cebpf4jnsgd1na2vs0mg"},{"bike_id":"319d47b2-c7ed-49fc-a78d-3600206a6bb0","system_id":"levelo_inurba_marseille","lat":43.30958,"lon":5.39046,"is_reserved":false,"is_disabled":false,"rental_uris":{"android":"levelo://app?vid=319d47b2-c7ed-49fc-a78d-3600206a6bb0","ios":"levelo://app?vid=319d47b2-c7ed-49fc-a78d-3600206a6bb0"},"vehicle_type_id":"4","last_reported":1731900273,"current_range_meters":38800,"station_id":"ce4bgup2rcd13ifvqco0","pricing_plan_id":"cebpf4jnsgd1na2vs0mg"},{"bike_id":"c54ace73-7fe9-4545-948e-f93a958c6393","system_id":"levelo_inurba_marseille","lat":43.28462,"lon":5.35883,"is_reserved":false,"is_disabled":false,"rental_uris":{"android":"levelo://app?vid=c54ace73-7fe9-4545-948e-f93a958c6393","ios":"levelo://app?vid=c54ace73-7fe9-4545-948e-f93a958c6393"},"vehicle_type_id":"4","last_reported":1731900273,"current_range_meters":26800,"station_id":"ce4bhah2rcd13ifvqei0","pricing_plan_id":"cebpf4jnsgd1na2vs0mg"},{"bike_id":"4c167bc3-2964-4625-adc0-c92e539ad80f","system_id":"levelo_inurba_marseille","lat":43.28292,"lon":5.40795,"is_reserved":false,"is_disabled":false,"rental_uris":{"android":"levelo://app?vid=4c167bc3-2964-4625-adc0-c92e539ad80f","ios":"levelo://app?vid=4c167bc3-2964-4625-adc0-c92e539ad80f"},"vehicle_type_id":"4","last_reported":1731900273,"current_range_meters":31200,"station_id":"","pricing_plan_id":"cebpf4jnsgd1na2vs0mg"},{"bike_id":"3203c545-8816-47a4-ae40-21487a89e084","system_id":"levelo_inurba_marseille","lat":43.30603,"lon":5.37233,"is_reserved":false,"is_disabled":false,"rental_uris":{"android":"levelo://app?vid=3203c545-8816-47a4-ae40-21487a89e084","ios":"levelo://app?vid=3203c545-8816-47a4-ae40-21487a89e084"},"vehicle_type_id":"4","last_reported":1731900273,"current_range_meters":34800,"station_id":"ce4bgqh2rcd13ifvqc4g","pricing_plan_id":"cebpf4jnsgd1na2vs0mg"},{"bike_id":"91089654-3498-4d52-975f-3e50b134cfcc","system_id":"levelo_inurba_marseille","lat":43.324808,"lon":5.365675,"is_reserved":false,"is_disabled":false,"rental_uris":{"android":"levelo://app?vid=91089654-3498-4d52-975f-3e50b134cfcc","ios":"levelo://app?vid=91089654-3498-4d52-975f-3e50b134cfcc"},"vehicle_type_id":"4","last_reported":1731900273,"current_range_meters":30800,"station_id":"ce4bhs12rcd13ifvqhvg","pricing_plan_id":"cebpf4jnsgd1na2vs0mg"},{"bike_id":"853a1166-61cc-42b2-9e7f-3b747ea4f57f","system_id":"levelo_inurba_marseille","lat":43.29551,"lon":5.42285,"is_reserved":false,"is_disabled":false,"rental_uris":{"android":"levelo://app?vid=853a1166-61cc-42b2-9e7f-3b747ea4f57f","ios":"levelo://app?vid=853a1166-61cc-42b2-9e7f-3b747ea4f57f"},"vehicle_type_id":"4","last_reported":1731900273,"current_range_meters":40000,"station_id":"ce4bhph2rcd13ifvqhdg","pricing_plan_id":"cebpf4jnsgd1na2vs0mg"},{"bike_id":"bc35825d-b16b-4f60-bc37-8998b8906223","system_id":"levelo_inurba_marseille","lat":43.28941,"lon":5.39636,"is_reserved":false,"is_disabled":false,"rental_uris":{"android":"levelo://app?vid=bc35825d-b16b-4f60-bc37-8998b8906223","ios":"levelo://app?vid=bc35825d-b16b-4f60-bc37-8998b8906223"},"vehicle_type_id":"4","last_reported":1731900273,"current_range_meters":27200,"station_id":"ce4bh3h2rcd13ifvqdn0","pricing_plan_id":"cebpf4jnsgd1na2vs0mg"},{"bike_id":"6b0ea79e-cb12-4a50-9845-e4686b3cacc8","system_id":"levelo_inurba_marseille","lat":43.295751,"lon":5.399791,"is_reserved":false,"is_disabled":false,"rental_uris":{"android":"levelo://app?vid=6b0ea79e-cb12-4a50-9845-e4686b3cacc8","ios":"levelo://app?vid=6b0ea79e-cb12-4a50-9845-e4686b3cacc8"},"vehicle_type_id":"4","last_reported":1731900273,"current_range_meters":6800,"station_id":"","pricing_plan_id":"cebpf4jnsgd1na2vs0mg"},{"bike_id":"f4b49472-97d3-4805-999e-d80bf1b16d13","system_id":"levelo_inurba_marseille","lat":43.29781,"lon":5.39364,"is_reserved":false,"is_disabled":false,"rental_uris":{"android":"levelo://app?vid=f4b49472-97d3-4805-999e-d80bf1b16d13","ios":"levelo://app?vid=f4b49472-97d3-4805-999e-d80bf1b16d13"},"vehicle_type_id":"4","last_reported":1731900273,"current_range_meters":10000,"station_id":"chh1huq6cuj3fo74tm60","pricing_plan_id":"cebpf4jnsgd1na2vs0mg"},{"bike_id":"225566f2-8521-4eac-bc8f-0baee111d8d3","system_id":"levelo_inurba_marseille","lat":43.30652,"lon":5.40076,"is_reserved":false,"is_disabled":false,"rental_uris":{"android":"levelo://app?vid=225566f2-8521-4eac-bc8f-0baee111d8d3","ios":"levelo://app?vid=225566f2-8521-4eac-bc8f-0baee111d8d3"},"vehicle_type_id":"4","last_reported":1731900273,"current_range_meters":12800,"station_id":"ce4bh112rcd13ifvqda0","pricing_plan_id":"cebpf4jnsgd1na2vs0mg"},{"bike_id":"f7c8f250-fca5-42b3-8329-2e3027e41932","system_id":"levelo_inurba_marseille","lat":43.27062,"lon":5.40254,"is_reserved":false,"is_disabled":false,"rental_uris":{"android":"levelo://app?vid=f7c8f250-fca5-42b3-8329-2e3027e41932","ios":"levelo://app?vid=f7c8f250-fca5-42b3-8329-2e3027e41932"},"vehicle_type_id":"4","last_reported":1731900273,"current_range_meters":38800,"station_id":"ce4bhk92rcd13ifvqgc0","pricing_plan_id":"cebpf4jnsgd1na2vs0mg"},{"bike_id":"e0b967c0-b35f-4934-9248-f55c41b4f08b","system_id":"levelo_inurba_marseille","lat":43.28151,"lon":5.4422,"is_reserved":false,"is_disabled":false,"rental_uris":{"android":"levelo://app?vid=e0b967c0-b35f-4934-9248-f55c41b4f08b","ios":"levelo://app?vid=e0b967c0-b35f-4934-9248-f55c41b4f08b"},"vehicle_type_id":"4","last_reported":1731900273,"current_range_meters":6000,"station_id":"","pricing_plan_id":"cebpf4jnsgd1na2vs0mg"},{"bike_id":"d4eaf7ee-8167-48d2-8c55-2507b2ca67a2","system_id":"levelo_inurba_marseille","lat":43.30937,"lon":5.40137,"is_reserved":false,"is_disabled":false,"rental_uris":{"android":"levelo://app?vid=d4eaf7ee-8167-48d2-8c55-2507b2ca67a2","ios":"levelo://app?vid=d4eaf7ee-8167-48d2-8c55-2507b2ca67a2"},"vehicle_type_id":"4","last_reported":1731900273,"current_range_meters":38400,"station_id":"ce4bgvp2rcd13ifvqct0","pricing_plan_id":"cebpf4jnsgd1na2vs0mg"},{"bike_id":"d61c8a52-528d-46d9-b1fb-db8c6ca71e05","system_id":"levelo_inurba_marseille","lat":43.24166,"lon":5.36394,"is_reserved":false,"is_disabled":false,"rental_uris":{"android":"levelo://app?vid=d61c8a52-528d-46d9-b1fb-db8c6ca71e05","ios":"levelo://app?vid=d61c8a52-528d-46d9-b1fb-db8c6ca71e05"},"vehicle_type_id":"4","last_reported":1731900273,"current_range_meters":18000,"station_id":"cpo36qri1sfpv3e86is0","pricing_plan_id":"cebpf4jnsgd1na2vs0mg"},{"bike_id":"fd5dd092-f218-4ee9-8566-83eb35688117","system_id":"levelo_inurba_marseille","lat":43.30416,"lon":5.4128,"is_reserved":false,"is_disabled":false,"rental_uris":{"android":"levelo://app?vid=fd5dd092-f218-4ee9-8566-83eb35688117","ios":"levelo://app?vid=fd5dd092-f218-4ee9-8566-83eb35688117"},"vehicle_type_id":"4","last_reported":1731900273,"current_range_meters":25200,"station_id":"ce4bhop2rcd13ifvqh8g","pricing_plan_id":"cebpf4jnsgd1na2vs0mg"},{"bike_id":"0e1d2e7a-8318-45fe-af1b-31857eb1aac8","system_id":"levelo_inurba_marseille","lat":43.239588,"lon":5.366285,"is_reserved":false,"is_disabled":false,"rental_uris":{"android":"levelo://app?vid=0e1d2e7a-8318-45fe-af1b-31857eb1aac8","ios":"levelo://app?vid=0e1d2e7a-8318-45fe-af1b-31857eb1aac8"},"vehicle_type_id":"4","last_reported":1731900273,"current_range_meters":20000,"station_id":"ce4bhi12rcd13ifvqfp0","pricing_plan_id":"cebpf4jnsgd1na2vs0mg"},{"bike_id":"4305c1d1-ca62-4e47-ac96-b9970d6e957d","system_id":"levelo_inurba_marseille","lat":43.23194,"lon":5.35539,"is_reserved":false,"is_disabled":false,"rental_uris":{"android":"levelo://app?vid=4305c1d1-ca62-4e47-ac96-b9970d6e957d","ios":"levelo://app?vid=4305c1d1-ca62-4e47-ac96-b9970d6e957d"},"vehicle_type_id":"4","last_reported":1731900273,"current_range_meters":38400,"station_id":"ce4bhu92rcd13ifvqi70","pricing_plan_id":"cebpf4jnsgd1na2vs0mg"},{"bike_id":"2bd3ae1c-22d2-4b0f-9fd7-42d6b84fc3a3","system_id":"levelo_inurba_marseille","lat":43.33604,"lon":5.41035,"is_reserved":false,"is_disabled":false,"rental_uris":{"android":"levelo://app?vid=2bd3ae1c-22d2-4b0f-9fd7-42d6b84fc3a3","ios":"levelo://app?vid=2bd3ae1c-22d2-4b0f-9fd7-42d6b84fc3a3"},"vehicle_type_id":"4","last_reported":1731900273,"current_range_meters":14000,"station_id":"ce4bhqh2rcd13ifvqhmg","pricing_plan_id":"cebpf4jnsgd1na2vs0mg"},{"bike_id":"79b76398-f4aa-422b-b325-2360d07a8784","system_id":"levelo_inurba_marseille","lat":43.3373,"lon":5.39187,"is_reserved":false,"is_disabled":false,"rental_uris":{"android":"levelo://app?vid=79b76398-f4aa-422b-b325-2360d07a8784","ios":"levelo://app?vid=79b76398-f4aa-422b-b325-2360d07a8784"},"vehicle_type_id":"4","last_reported":1731900273,"current_range_meters":38800,"station_id":"ce4bhr92rcd13ifvqhsg","pricing_plan_id":"cebpf4jnsgd1na2vs0mg"},{"bike_id":"a7081911-a624-4ede-9084-31328e822934","system_id":"levelo_inurba_marseille","lat":43.28457,"lon":5.35896,"is_reserved":false,"is_disabled":false,"rental_uris":{"android":"levelo://app?vid=a7081911-a624-4ede-9084-31328e822934","ios":"levelo://app?vid=a7081911-a624-4ede-9084-31328e822934"},"vehicle_type_id":"4","last_reported":1731900273,"current_range_meters":38800,"station_id":"ce4bhah2rcd13ifvqei0","pricing_plan_id":"cebpf4jnsgd1na2vs0mg"},{"bike_id":"e5a40c09-f3b5-4397-915d-91914292716d","system_id":"levelo_inurba_marseille","lat":43.3107,"lon":5.38345,"is_reserved":false,"is_disabled":false,"rental_uris":{"android":"levelo://app?vid=e5a40c09-f3b5-4397-915d-91914292716d","ios":"levelo://app?vid=e5a40c09-f3b5-4397-915d-91914292716d"},"vehicle_type_id":"4","last_reported":1731900273,"current_range_meters":38800,"station_id":"ce4bgv92rcd13ifvqcr0","pricing_plan_id":"cebpf4jnsgd1na2vs0mg"},{"bike_id":"100937a9-9046-4fa5-80a9-fe089467ae94","system_id":"levelo_inurba_marseille","lat":43.25871,"lon":5.39894,"is_reserved":false,"is_disabled":false,"rental_uris":{"android":"levelo://app?vid=100937a9-9046-4fa5-80a9-fe089467ae94","ios":"levelo://app?vid=100937a9-9046-4fa5-80a9-fe089467ae94"},"vehicle_type_id":"4","last_reported":1731900273,"current_range_meters":38000,"station_id":"ce4bhl92rcd13ifvqghg","pricing_plan_id":"cebpf4jnsgd1na2vs0mg"},{"bike_id":"fde0efd8-797c-4064-bf04-92ac65694e64","system_id":"levelo_inurba_marseille","lat":43.26192,"lon":5.37451,"is_reserved":false,"is_disabled":false,"rental_uris":{"android":"levelo://app?vid=fde0efd8-797c-4064-bf04-92ac65694e64","ios":"levelo://app?vid=fde0efd8-797c-4064-bf04-92ac65694e64"},"vehicle_type_id":"4","last_reported":1731900273,"current_range_meters":33200,"station_id":"ce4bhgp2rcd13ifvqfc0","pricing_plan_id":"cebpf4jnsgd1na2vs0mg"},{"bike_id":"d2f0f3fe-5594-42dd-8e69-8cdbebee7e7d","system_id":"levelo_inurba_marseille","lat":43.23152,"lon":5.43716,"is_reserved":false,"is_disabled":false,"rental_uris":{"android":"levelo://app?vid=d2f0f3fe-5594-42dd-8e69-8cdbebee7e7d","ios":"levelo://app?vid=d2f0f3fe-5594-42dd-8e69-8cdbebee7e7d"},"vehicle_type_id":"4","last_reported":1731900273,"current_range_meters":18800,"station_id":"ce4bhmp2rcd13ifvqgog","pricing_plan_id":"cebpf4jnsgd1na2vs0mg"},{"bike_id":"20ffb415-d9aa-411c-8645-81527fa595da","system_id":"levelo_inurba_marseille","lat":43.26681,"lon":5.38272,"is_reserved":false,"is_disabled":false,"rental_uris":{"android":"levelo://app?vid=20ffb415-d9aa-411c-8645-81527fa595da","ios":"levelo://app?vid=20ffb415-d9aa-411c-8645-81527fa595da"},"vehicle_type_id":"4","last_reported":1731900273,"current_range_meters":38400,"station_id":"ce4bhg92rcd13ifvqf90","pricing_plan_id":"cebpf4jnsgd1na2vs0mg"},{"bike_id":"ecb1e287-bf1e-4781-b7b6-1e2173aeca0f","system_id":"levelo_inurba_marseille","lat":43.24803,"lon":5.37455,"is_reserved":false,"is_disabled":false,"rental_uris":{"android":"levelo://app?vid=ecb1e287-bf1e-4781-b7b6-1e2173aeca0f","ios":"levelo://app?vid=ecb1e287-bf1e-4781-b7b6-1e2173aeca0f"},"vehicle_type_id":"4","last_reported":1731900273,"current_range_meters":33600,"station_id":"ce4bhgh2rcd13ifvqfb0","pricing_plan_id":"cebpf4jnsgd1na2vs0mg"},{"bike_id":"554f9f37-475e-4957-bb89-39b927e67831","system_id":"levelo_inurba_marseille","lat":43.25105,"lon":5.40327,"is_reserved":false,"is_disabled":false,"rental_uris":{"android":"levelo://app?vid=554f9f37-475e-4957-bb89-39b927e67831","ios":"levelo://app?vid=554f9f37-475e-4957-bb89-39b927e67831"},"vehicle_type_id":"4","last_reported":1731900273,"current_range_meters":9200,"station_id":"ce4bhlh2rcd13ifvqgig","pricing_plan_id":"cebpf4jnsgd1na2vs0mg"},{"bike_id":"6d963061-1c58-4842-a70f-52b352d49730","system_id":"levelo_inurba_marseille","lat":43.25115,"lon":5.40322,"is_reserved":false,"is_disabled":false,"rental_uris":{"android":"levelo://app?vid=6d963061-1c58-4842-a70f-52b352d49730","ios":"levelo://app?vid=6d963061-1c58-4842-a70f-52b352d49730"},"vehicle_type_id":"4","last_reported":1731900273,"current_range_meters":30400,"station_id":"ce4bhlh2rcd13ifvqgig","pricing_plan_id":"cebpf4jnsgd1na2vs0mg"},{"bike_id":"d39f9232-70a6-4226-9dc3-9cf304b98baf","system_id":"levelo_inurba_marseille","lat":43.289414,"lon":5.396305,"is_reserved":false,"is_disabled":false,"rental_uris":{"android":"levelo://app?vid=d39f9232-70a6-4226-9dc3-9cf304b98baf","ios":"levelo://app?vid=d39f9232-70a6-4226-9dc3-9cf304b98baf"},"vehicle_type_id":"4","last_reported":1731900273,"current_range_meters":23200,"station_id":"ce4bh3h2rcd13ifvqdn0","pricing_plan_id":"cebpf4jnsgd1na2vs0mg"},{"bike_id":"0988c4a8-0e4f-4b0d-86f3-57b6b77623b5","system_id":"levelo_inurba_marseille","lat":43.31264,"lon":5.40178,"is_reserved":false,"is_disabled":false,"rental_uris":{"android":"levelo://app?vid=0988c4a8-0e4f-4b0d-86f3-57b6b77623b5","ios":"levelo://app?vid=0988c4a8-0e4f-4b0d-86f3-57b6b77623b5"},"vehicle_type_id":"4","last_reported":1731900273,"current_range_meters":28000,"station_id":"ce4bh092rcd13ifvqd30","pricing_plan_id":"cebpf4jnsgd1na2vs0mg"},{"bike_id":"cf5ea393-3b59-4a1e-9b6d-8606af277bcc","system_id":"levelo_inurba_marseille","lat":43.25578,"lon":5.38232,"is_reserved":false,"is_disabled":false,"rental_uris":{"android":"levelo://app?vid=cf5ea393-3b59-4a1e-9b6d-8606af277bcc","ios":"levelo://app?vid=cf5ea393-3b59-4a1e-9b6d-8606af277bcc"},"vehicle_type_id":"4","last_reported":1731900273,"current_range_meters":26800,"station_id":"ce4bhih2rcd13ifvqfs0","pricing_plan_id":"cebpf4jnsgd1na2vs0mg"},{"bike_id":"2459f503-6e83-43a2-8e1d-8dc2645bc27d","system_id":"levelo_inurba_marseille","lat":43.30894,"lon":5.39642,"is_reserved":false,"is_disabled":false,"rental_uris":{"android":"levelo://app?vid=2459f503-6e83-43a2-8e1d-8dc2645bc27d","ios":"levelo://app?vid=2459f503-6e83-43a2-8e1d-8dc2645bc27d"},"vehicle_type_id":"4","last_reported":1731900273,"current_range_meters":29600,"station_id":"ce4bh012rcd13ifvqcv0","pricing_plan_id":"cebpf4jnsgd1na2vs0mg"},{"bike_id":"d69a917e-f2d6-4ead-8fe4-e1c217bba902","system_id":"levelo_inurba_marseille","lat":43.28422,"lon":5.34992,"is_reserved":false,"is_disabled":false,"rental_uris":{"android":"levelo://app?vid=d69a917e-f2d6-4ead-8fe4-e1c217bba902","ios":"levelo://app?vid=d69a917e-f2d6-4ead-8fe4-e1c217bba902"},"vehicle_type_id":"4","last_reported":1731900273,"current_range_meters":38000,"station_id":"ce4bhbh2rcd13ifvqepg","pricing_plan_id":"cebpf4jnsgd1na2vs0mg"},{"bike_id":"d2fe990b-e82c-427d-8072-64d25cdb2c73","system_id":"levelo_inurba_marseille","lat":43.30667,"lon":5.4008,"is_reserved":false,"is_disabled":false,"rental_uris":{"android":"levelo://app?vid=d2fe990b-e82c-427d-8072-64d25cdb2c73","ios":"levelo://app?vid=d2fe990b-e82c-427d-8072-64d25cdb2c73"},"vehicle_type_id":"4","last_reported":1731900273,"current_range_meters":17600,"station_id":"ce4bh112rcd13ifvqda0","pricing_plan_id":"cebpf4jnsgd1na2vs0mg"},{"bike_id":"baf4c2e7-ed73-4134-a515-0b8ffa7ff561","system_id":"levelo_inurba_marseille","lat":43.24663,"lon":5.38163,"is_reserved":false,"is_disabled":false,"rental_uris":{"android":"levelo://app?vid=baf4c2e7-ed73-4134-a515-0b8ffa7ff561","ios":"levelo://app?vid=baf4c2e7-ed73-4134-a515-0b8ffa7ff561"},"vehicle_type_id":"4","last_reported":1731900273,"current_range_meters":7200,"station_id":"ce4bhih2rcd13ifvqfr0","pricing_plan_id":"cebpf4jnsgd1na2vs0mg"},{"bike_id":"5cad086e-cb7b-4491-81b8-b4839c9d4e1f","system_id":"levelo_inurba_marseille","lat":43.3361,"lon":5.41027,"is_reserved":false,"is_disabled":false,"rental_uris":{"android":"levelo://app?vid=5cad086e-cb7b-4491-81b8-b4839c9d4e1f","ios":"levelo://app?vid=5cad086e-cb7b-4491-81b8-b4839c9d4e1f"},"vehicle_type_id":"4","last_reported":1731900273,"current_range_meters":37600,"station_id":"ce4bhqh2rcd13ifvqhmg","pricing_plan_id":"cebpf4jnsgd1na2vs0mg"},{"bike_id":"8a9f823e-baf2-4d03-b304-e7d0af967984","system_id":"levelo_inurba_marseille","lat":43.27891,"lon":5.37998,"is_reserved":false,"is_disabled":false,"rental_uris":{"android":"levelo://app?vid=8a9f823e-baf2-4d03-b304-e7d0af967984","ios":"levelo://app?vid=8a9f823e-baf2-4d03-b304-e7d0af967984"},"vehicle_type_id":"4","last_reported":1731900273,"current_range_meters":25600,"station_id":"ce4bhf92rcd13ifvqf50","pricing_plan_id":"cebpf4jnsgd1na2vs0mg"},{"bike_id":"a8564ab8-45dd-44af-a2ae-f304d3814047","system_id":"levelo_inurba_marseille","lat":43.3266,"lon":5.40986,"is_reserved":false,"is_disabled":false,"rental_uris":{"android":"levelo://app?vid=a8564ab8-45dd-44af-a2ae-f304d3814047","ios":"levelo://app?vid=a8564ab8-45dd-44af-a2ae-f304d3814047"},"vehicle_type_id":"4","last_reported":1731900273,"current_range_meters":35200,"station_id":"ce4bhpp2rcd13ifvqhgg","pricing_plan_id":"cebpf4jnsgd1na2vs0mg"},{"bike_id":"74c37457-d54d-454c-848d-3e859a50fe09","system_id":"levelo_inurba_marseille","lat":43.30429,"lon":5.39749,"is_reserved":false,"is_disabled":false,"rental_uris":{"android":"levelo://app?vid=74c37457-d54d-454c-848d-3e859a50fe09","ios":"levelo://app?vid=74c37457-d54d-454c-848d-3e859a50fe09"},"vehicle_type_id":"4","last_reported":1731900273,"current_range_meters":37600,"station_id":"ce4bh092rcd13ifvqd20","pricing_plan_id":"cebpf4jnsgd1na2vs0mg"},{"bike_id":"d3311a20-ce24-4c11-a8e7-793b40287f1c","system_id":"levelo_inurba_marseille","lat":43.31171,"lon":5.38717,"is_reserved":false,"is_disabled":false,"rental_uris":{"android":"levelo://app?vid=d3311a20-ce24-4c11-a8e7-793b40287f1c","ios":"levelo://app?vid=d3311a20-ce24-4c11-a8e7-793b40287f1c"},"vehicle_type_id":"4","last_reported":1731900273,"current_range_meters":38000,"station_id":"ce4bgv12rcd13ifvqcp0","pricing_plan_id":"cebpf4jnsgd1na2vs0mg"},{"bike_id":"f9a03401-7713-439c-a74d-a2e5d319320a","system_id":"levelo_inurba_marseille","lat":43.303996,"lon":5.375269,"is_reserved":false,"is_disabled":false,"rental_uris":{"android":"levelo://app?vid=f9a03401-7713-439c-a74d-a2e5d319320a","ios":"levelo://app?vid=f9a03401-7713-439c-a74d-a2e5d319320a"},"vehicle_type_id":"4","last_reported":1731900273,"current_range_meters":36000,"station_id":"","pricing_plan_id":"cebpf4jnsgd1na2vs0mg"},{"bike_id":"a3543c19-764d-410b-b892-b7d7a8c792bc","system_id":"levelo_inurba_marseille","lat":43.275635,"lon":5.384386,"is_reserved":false,"is_disabled":false,"rental_uris":{"android":"levelo://app?vid=a3543c19-764d-410b-b892-b7d7a8c792bc","ios":"levelo://app?vid=a3543c19-764d-410b-b892-b7d7a8c792bc"},"vehicle_type_id":"4","last_reported":1731900273,"current_range_meters":33200,"station_id":"ce4bhh92rcd13ifvqfi0","pricing_plan_id":"cebpf4jnsgd1na2vs0mg"},{"bike_id":"0777fa14-82ef-4160-971f-e65af9fff72b","system_id":"levelo_inurba_marseille","lat":43.28463,"lon":5.3589,"is_reserved":false,"is_disabled":false,"rental_uris":{"android":"levelo://app?vid=0777fa14-82ef-4160-971f-e65af9fff72b","ios":"levelo://app?vid=0777fa14-82ef-4160-971f-e65af9fff72b"},"vehicle_type_id":"4","last_reported":1731900273,"current_range_meters":30400,"station_id":"ce4bhah2rcd13ifvqei0","pricing_plan_id":"cebpf4jnsgd1na2vs0mg"},{"bike_id":"449ad6af-8dda-49da-bd92-112f0e899ac4","system_id":"levelo_inurba_marseille","lat":43.31331,"lon":5.39694,"is_reserved":false,"is_disabled":false,"rental_uris":{"android":"levelo://app?vid=449ad6af-8dda-49da-bd92-112f0e899ac4","ios":"levelo://app?vid=449ad6af-8dda-49da-bd92-112f0e899ac4"},"vehicle_type_id":"4","last_reported":1731900273,"current_range_meters":39200,"station_id":"ce4bgvp2rcd13ifvqcu0","pricing_plan_id":"cebpf4jnsgd1na2vs0mg"},{"bike_id":"c1435150-7b10-4549-95bb-6de8b18fb0d1","system_id":"levelo_inurba_marseille","lat":43.30599,"lon":5.39354,"is_reserved":false,"is_disabled":false,"rental_uris":{"android":"levelo://app?vid=c1435150-7b10-4549-95bb-6de8b18fb0d1","ios":"levelo://app?vid=c1435150-7b10-4549-95bb-6de8b18fb0d1"},"vehicle_type_id":"4","last_reported":1731900273,"current_range_meters":5600,"station_id":"ce4bh0p2rcd13ifvqd80","pricing_plan_id":"cebpf4jnsgd1na2vs0mg"},{"bike_id":"302188f6-b7a6-453f-a4eb-19a9a4822828","system_id":"levelo_inurba_marseille","lat":43.29064,"lon":5.37152,"is_reserved":false,"is_disabled":false,"rental_uris":{"android":"levelo://app?vid=302188f6-b7a6-453f-a4eb-19a9a4822828","ios":"levelo://app?vid=302188f6-b7a6-453f-a4eb-19a9a4822828"},"vehicle_type_id":"4","last_reported":1731900273,"current_range_meters":37600,"station_id":"ce4bh5p2rcd13ifvqe4g","pricing_plan_id":"cebpf4jnsgd1na2vs0mg"},{"bike_id":"eef859fe-6cbe-43db-9bd6-dedd68a5d4ff","system_id":"levelo_inurba_marseille","lat":43.2707,"lon":5.42279,"is_reserved":false,"is_disabled":false,"rental_uris":{"android":"levelo://app?vid=eef859fe-6cbe-43db-9bd6-dedd68a5d4ff","ios":"levelo://app?vid=eef859fe-6cbe-43db-9bd6-dedd68a5d4ff"},"vehicle_type_id":"4","last_reported":1731900273,"current_range_meters":39200,"station_id":"ce4bhk92rcd13ifvqgb0","pricing_plan_id":"cebpf4jnsgd1na2vs0mg"},{"bike_id":"ac0dd881-c557-4a0b-b0b2-aef727564c09","system_id":"levelo_inurba_marseille","lat":43.280999,"lon":5.378526,"is_reserved":false,"is_disabled":false,"rental_uris":{"android":"levelo://app?vid=ac0dd881-c557-4a0b-b0b2-aef727564c09","ios":"levelo://app?vid=ac0dd881-c557-4a0b-b0b2-aef727564c09"},"vehicle_type_id":"4","last_reported":1731900273,"current_range_meters":38000,"station_id":"ce4bha12rcd13ifvqee0","pricing_plan_id":"cebpf4jnsgd1na2vs0mg"},{"bike_id":"0ce3c42e-a8b6-4365-a23a-7e3e3036ddac","system_id":"levelo_inurba_marseille","lat":43.25121,"lon":5.40319,"is_reserved":false,"is_disabled":false,"rental_uris":{"android":"levelo://app?vid=0ce3c42e-a8b6-4365-a23a-7e3e3036ddac","ios":"levelo://app?vid=0ce3c42e-a8b6-4365-a23a-7e3e3036ddac"},"vehicle_type_id":"4","last_reported":1731900273,"current_range_meters":32400,"station_id":"ce4bhlh2rcd13ifvqgig","pricing_plan_id":"cebpf4jnsgd1na2vs0mg"},{"bike_id":"cd7e3420-4506-40b3-8f82-5b3bd525fcbd","system_id":"levelo_inurba_marseille","lat":43.28696,"lon":5.39976,"is_reserved":false,"is_disabled":false,"rental_uris":{"android":"levelo://app?vid=cd7e3420-4506-40b3-8f82-5b3bd525fcbd","ios":"levelo://app?vid=cd7e3420-4506-40b3-8f82-5b3bd525fcbd"},"vehicle_type_id":"4","last_reported":1731900273,"current_range_meters":39200,"station_id":"ce4bho92rcd13ifvqh3g","pricing_plan_id":"cebpf4jnsgd1na2vs0mg"},{"bike_id":"8c73c003-28b1-462f-8475-f67eb8e70b2a","system_id":"levelo_inurba_marseille","lat":43.32656,"lon":5.40992,"is_reserved":false,"is_disabled":false,"rental_uris":{"android":"levelo://app?vid=8c73c003-28b1-462f-8475-f67eb8e70b2a","ios":"levelo://app?vid=8c73c003-28b1-462f-8475-f67eb8e70b2a"},"vehicle_type_id":"4","last_reported":1731900273,"current_range_meters":6800,"station_id":"ce4bhpp2rcd13ifvqhgg","pricing_plan_id":"cebpf4jnsgd1na2vs0mg"},{"bike_id":"b651c1a1-4876-4b4a-95e3-202eeee791d1","system_id":"levelo_inurba_marseille","lat":43.29254,"lon":5.40906,"is_reserved":false,"is_disabled":false,"rental_uris":{"android":"levelo://app?vid=b651c1a1-4876-4b4a-95e3-202eeee791d1","ios":"levelo://app?vid=b651c1a1-4876-4b4a-95e3-202eeee791d1"},"vehicle_type_id":"4","last_reported":1731900273,"current_range_meters":24400,"station_id":"ce4bh192rcd13ifvqdc0","pricing_plan_id":"cebpf4jnsgd1na2vs0mg"},{"bike_id":"e1cbbc39-b3d6-45a9-b7e5-8900bdc53898","system_id":"levelo_inurba_marseille","lat":43.27903,"lon":5.39569,"is_reserved":false,"is_disabled":false,"rental_uris":{"android":"levelo://app?vid=e1cbbc39-b3d6-45a9-b7e5-8900bdc53898","ios":"levelo://app?vid=e1cbbc39-b3d6-45a9-b7e5-8900bdc53898"},"vehicle_type_id":"4","last_reported":1731900273,"current_range_meters":30000,"station_id":"ce4bhf92rcd13ifvqf40","pricing_plan_id":"cebpf4jnsgd1na2vs0mg"},{"bike_id":"01272bd5-a2c0-44b6-b76e-87cd305d9451","system_id":"levelo_inurba_marseille","lat":43.33025,"lon":5.39042,"is_reserved":false,"is_disabled":false,"rental_uris":{"android":"levelo://app?vid=01272bd5-a2c0-44b6-b76e-87cd305d9451","ios":"levelo://app?vid=01272bd5-a2c0-44b6-b76e-87cd305d9451"},"vehicle_type_id":"4","last_reported":1731900273,"current_range_meters":11200,"station_id":"ce4bhr92rcd13ifvqhrg","pricing_plan_id":"cebpf4jnsgd1na2vs0mg"},{"bike_id":"e1f6415b-e101-43e7-9b1b-480b213c11b4","system_id":"levelo_inurba_marseille","lat":43.29517,"lon":5.39408,"is_reserved":false,"is_disabled":false,"rental_uris":{"android":"levelo://app?vid=e1f6415b-e101-43e7-9b1b-480b213c11b4","ios":"levelo://app?vid=e1f6415b-e101-43e7-9b1b-480b213c11b4"},"vehicle_type_id":"4","last_reported":1731900273,"current_range_meters":37600,"station_id":"ce4bh292rcd13ifvqdf0","pricing_plan_id":"cebpf4jnsgd1na2vs0mg"},{"bike_id":"7694d120-882b-4df8-9318-0f76e5aee323","system_id":"levelo_inurba_marseille","lat":43.2981,"lon":5.37729,"is_reserved":false,"is_disabled":false,"rental_uris":{"android":"levelo://app?vid=7694d120-882b-4df8-9318-0f76e5aee323","ios":"levelo://app?vid=7694d120-882b-4df8-9318-0f76e5aee323"},"vehicle_type_id":"4","last_reported":1731900273,"current_range_meters":32000,"station_id":"","pricing_plan_id":"cebpf4jnsgd1na2vs0mg"},{"bike_id":"b3daf5c5-2c70-4b50-b0c0-26454236441d","system_id":"levelo_inurba_marseille","lat":43.25724,"lon":5.41108,"is_reserved":false,"is_disabled":false,"rental_uris":{"android":"levelo://app?vid=b3daf5c5-2c70-4b50-b0c0-26454236441d","ios":"levelo://app?vid=b3daf5c5-2c70-4b50-b0c0-26454236441d"},"vehicle_type_id":"4","last_reported":1731900273,"current_range_meters":38400,"station_id":"ce4bhkp2rcd13ifvqgd0","pricing_plan_id":"cebpf4jnsgd1na2vs0mg"},{"bike_id":"4a89aa35-85ac-4ed2-ab81-e79562e27477","system_id":"levelo_inurba_marseille","lat":43.3014,"lon":5.39867,"is_reserved":false,"is_disabled":false,"rental_uris":{"android":"levelo://app?vid=4a89aa35-85ac-4ed2-ab81-e79562e27477","ios":"levelo://app?vid=4a89aa35-85ac-4ed2-ab81-e79562e27477"},"vehicle_type_id":"4","last_reported":1731900273,"current_range_meters":38000,"station_id":"ce4bh0h2rcd13ifvqd40","pricing_plan_id":"cebpf4jnsgd1na2vs0mg"},{"bike_id":"8300deb3-1fed-4359-9d2f-62192a22298f","system_id":"levelo_inurba_marseille","lat":43.30197,"lon":5.38789,"is_reserved":false,"is_disabled":false,"rental_uris":{"android":"levelo://app?vid=8300deb3-1fed-4359-9d2f-62192a22298f","ios":"levelo://app?vid=8300deb3-1fed-4359-9d2f-62192a22298f"},"vehicle_type_id":"4","last_reported":1731900273,"current_range_meters":29600,"station_id":"","pricing_plan_id":"cebpf4jnsgd1na2vs0mg"},{"bike_id":"b219a1c1-2cb4-4ae1-8e3f-102f1db645df","system_id":"levelo_inurba_marseille","lat":43.30881,"lon":5.39644,"is_reserved":false,"is_disabled":false,"rental_uris":{"android":"levelo://app?vid=b219a1c1-2cb4-4ae1-8e3f-102f1db645df","ios":"levelo://app?vid=b219a1c1-2cb4-4ae1-8e3f-102f1db645df"},"vehicle_type_id":"4","last_reported":1731900273,"current_range_meters":39200,"station_id":"ce4bh012rcd13ifvqcv0","pricing_plan_id":"cebpf4jnsgd1na2vs0mg"},{"bike_id":"9981c636-3878-494b-95dc-15d318c997a5","system_id":"levelo_inurba_marseille","lat":43.29441,"lon":5.3975,"is_reserved":false,"is_disabled":false,"rental_uris":{"android":"levelo://app?vid=9981c636-3878-494b-95dc-15d318c997a5","ios":"levelo://app?vid=9981c636-3878-494b-95dc-15d318c997a5"},"vehicle_type_id":"4","last_reported":1731900273,"current_range_meters":39200,"station_id":"ce4bh3h2rcd13ifvqdo0","pricing_plan_id":"cebpf4jnsgd1na2vs0mg"},{"bike_id":"cb3165b9-4890-480d-ae63-784fba188dfc","system_id":"levelo_inurba_marseille","lat":43.27069,"lon":5.42278,"is_reserved":false,"is_disabled":false,"rental_uris":{"android":"levelo://app?vid=cb3165b9-4890-480d-ae63-784fba188dfc","ios":"levelo://app?vid=cb3165b9-4890-480d-ae63-784fba188dfc"},"vehicle_type_id":"4","last_reported":1731900273,"current_range_meters":39200,"station_id":"ce4bhk92rcd13ifvqgb0","pricing_plan_id":"cebpf4jnsgd1na2vs0mg"},{"bike_id":"e255a41c-fb0d-4289-92d3-782765fbd7ee","system_id":"levelo_inurba_marseille","lat":43.31536,"lon":5.38032,"is_reserved":false,"is_disabled":false,"rental_uris":{"android":"levelo://app?vid=e255a41c-fb0d-4289-92d3-782765fbd7ee","ios":"levelo://app?vid=e255a41c-fb0d-4289-92d3-782765fbd7ee"},"vehicle_type_id":"4","last_reported":1731900273,"current_range_meters":39200,"station_id":"ce4bhsp2rcd13ifvqi50","pricing_plan_id":"cebpf4jnsgd1na2vs0mg"},{"bike_id":"5938f129-0be9-4612-acac-86791f6673ad","system_id":"levelo_inurba_marseille","lat":43.28206,"lon":5.44376,"is_reserved":false,"is_disabled":false,"rental_uris":{"android":"levelo://app?vid=5938f129-0be9-4612-acac-86791f6673ad","ios":"levelo://app?vid=5938f129-0be9-4612-acac-86791f6673ad"},"vehicle_type_id":"4","last_reported":1731900273,"current_range_meters":9600,"station_id":"","pricing_plan_id":"cebpf4jnsgd1na2vs0mg"},{"bike_id":"fd179809-e6fa-4118-bc5c-b276cfa9228c","system_id":"levelo_inurba_marseille","lat":43.27621,"lon":5.36113,"is_reserved":false,"is_disabled":false,"rental_uris":{"android":"levelo://app?vid=fd179809-e6fa-4118-bc5c-b276cfa9228c","ios":"levelo://app?vid=fd179809-e6fa-4118-bc5c-b276cfa9228c"},"vehicle_type_id":"4","last_reported":1731900273,"current_range_meters":38000,"station_id":"ce4bgj92rcd13ifvqbe0","pricing_plan_id":"cebpf4jnsgd1na2vs0mg"},{"bike_id":"e9c95dd5-afb3-4df6-8ea4-96bbc6bd78de","system_id":"levelo_inurba_marseille","lat":43.3302,"lon":5.39037,"is_reserved":false,"is_disabled":false,"rental_uris":{"android":"levelo://app?vid=e9c95dd5-afb3-4df6-8ea4-96bbc6bd78de","ios":"levelo://app?vid=e9c95dd5-afb3-4df6-8ea4-96bbc6bd78de"},"vehicle_type_id":"4","last_reported":1731900273,"current_range_meters":36000,"station_id":"ce4bhr92rcd13ifvqhrg","pricing_plan_id":"cebpf4jnsgd1na2vs0mg"},{"bike_id":"b67b3d0a-3c2c-4647-87f1-b68fa34d830a","system_id":"levelo_inurba_marseille","lat":43.281556,"lon":5.426394,"is_reserved":false,"is_disabled":false,"rental_uris":{"android":"levelo://app?vid=b67b3d0a-3c2c-4647-87f1-b68fa34d830a","ios":"levelo://app?vid=b67b3d0a-3c2c-4647-87f1-b68fa34d830a"},"vehicle_type_id":"4","last_reported":1731900273,"current_range_meters":38800,"station_id":"ce4bhnh2rcd13ifvqgug","pricing_plan_id":"cebpf4jnsgd1na2vs0mg"},{"bike_id":"eda5f5d6-66aa-4b3a-bca5-bf9d1afb6cce","system_id":"levelo_inurba_marseille","lat":43.3042,"lon":5.39753,"is_reserved":false,"is_disabled":false,"rental_uris":{"android":"levelo://app?vid=eda5f5d6-66aa-4b3a-bca5-bf9d1afb6cce","ios":"levelo://app?vid=eda5f5d6-66aa-4b3a-bca5-bf9d1afb6cce"},"vehicle_type_id":"4","last_reported":1731900273,"current_range_meters":38400,"station_id":"ce4bh092rcd13ifvqd20","pricing_plan_id":"cebpf4jnsgd1na2vs0mg"},{"bike_id":"3de61345-366f-4f92-b607-4e5e6f7dd6dc","system_id":"levelo_inurba_marseille","lat":43.25114,"lon":5.40326,"is_reserved":false,"is_disabled":false,"rental_uris":{"android":"levelo://app?vid=3de61345-366f-4f92-b607-4e5e6f7dd6dc","ios":"levelo://app?vid=3de61345-366f-4f92-b607-4e5e6f7dd6dc"},"vehicle_type_id":"4","last_reported":1731900273,"current_range_meters":33200,"station_id":"ce4bhlh2rcd13ifvqgig","pricing_plan_id":"cebpf4jnsgd1na2vs0mg"},{"bike_id":"d92dedd7-95ef-4799-b9ec-11fbcef9ffbd","system_id":"levelo_inurba_marseille","lat":43.246682,"lon":5.381592,"is_reserved":false,"is_disabled":false,"rental_uris":{"android":"levelo://app?vid=d92dedd7-95ef-4799-b9ec-11fbcef9ffbd","ios":"levelo://app?vid=d92dedd7-95ef-4799-b9ec-11fbcef9ffbd"},"vehicle_type_id":"4","last_reported":1731900273,"current_range_meters":30800,"station_id":"ce4bhih2rcd13ifvqfr0","pricing_plan_id":"cebpf4jnsgd1na2vs0mg"},{"bike_id":"157c9958-9e83-4d13-9bb0-2f78eb9720a7","system_id":"levelo_inurba_marseille","lat":43.28482,"lon":5.38397,"is_reserved":false,"is_disabled":false,"rental_uris":{"android":"levelo://app?vid=157c9958-9e83-4d13-9bb0-2f78eb9720a7","ios":"levelo://app?vid=157c9958-9e83-4d13-9bb0-2f78eb9720a7"},"vehicle_type_id":"4","last_reported":1731900273,"current_range_meters":27600,"station_id":"ce4bh512rcd13ifvqe3g","pricing_plan_id":"cebpf4jnsgd1na2vs0mg"},{"bike_id":"88a6fc2c-cbf5-49bb-92b4-8f6aed2214e8","system_id":"levelo_inurba_marseille","lat":43.29275,"lon":5.40147,"is_reserved":false,"is_disabled":false,"rental_uris":{"android":"levelo://app?vid=88a6fc2c-cbf5-49bb-92b4-8f6aed2214e8","ios":"levelo://app?vid=88a6fc2c-cbf5-49bb-92b4-8f6aed2214e8"},"vehicle_type_id":"4","last_reported":1731900273,"current_range_meters":30400,"station_id":"ce4bh312rcd13ifvqdk0","pricing_plan_id":"cebpf4jnsgd1na2vs0mg"},{"bike_id":"12867844-fa2a-41b2-8d74-706d4ef15909","system_id":"levelo_inurba_marseille","lat":43.33759,"lon":5.37445,"is_reserved":false,"is_disabled":false,"rental_uris":{"android":"levelo://app?vid=12867844-fa2a-41b2-8d74-706d4ef15909","ios":"levelo://app?vid=12867844-fa2a-41b2-8d74-706d4ef15909"},"vehicle_type_id":"4","last_reported":1731900273,"current_range_meters":30400,"station_id":"","pricing_plan_id":"cebpf4jnsgd1na2vs0mg"},{"bike_id":"08bebddc-2f83-4060-9f6d-3a473ed2bb45","system_id":"levelo_inurba_marseille","lat":43.3054,"lon":5.38435,"is_reserved":false,"is_disabled":false,"rental_uris":{"android":"levelo://app?vid=08bebddc-2f83-4060-9f6d-3a473ed2bb45","ios":"levelo://app?vid=08bebddc-2f83-4060-9f6d-3a473ed2bb45"},"vehicle_type_id":"4","last_reported":1731900273,"current_range_meters":32000,"station_id":"ce4bgg92rcd13ifvqb30","pricing_plan_id":"cebpf4jnsgd1na2vs0mg"},{"bike_id":"a336ee14-58f3-4199-a15a-797b15af1e0f","system_id":"levelo_inurba_marseille","lat":43.30417,"lon":5.41287,"is_reserved":false,"is_disabled":false,"rental_uris":{"android":"levelo://app?vid=a336ee14-58f3-4199-a15a-797b15af1e0f","ios":"levelo://app?vid=a336ee14-58f3-4199-a15a-797b15af1e0f"},"vehicle_type_id":"4","last_reported":1731900273,"current_range_meters":39200,"station_id":"ce4bhop2rcd13ifvqh8g","pricing_plan_id":"cebpf4jnsgd1na2vs0mg"},{"bike_id":"23f7e7bd-3c70-44bb-943b-2505231e7297","system_id":"levelo_inurba_marseille","lat":43.28471,"lon":5.35885,"is_reserved":false,"is_disabled":false,"rental_uris":{"android":"levelo://app?vid=23f7e7bd-3c70-44bb-943b-2505231e7297","ios":"levelo://app?vid=23f7e7bd-3c70-44bb-943b-2505231e7297"},"vehicle_type_id":"4","last_reported":1731900273,"current_range_meters":39200,"station_id":"ce4bhah2rcd13ifvqei0","pricing_plan_id":"cebpf4jnsgd1na2vs0mg"},{"bike_id":"5a9704f3-fb36-482c-9b5e-70977a2c766e","system_id":"levelo_inurba_marseille","lat":43.3079,"lon":5.3765,"is_reserved":false,"is_disabled":false,"rental_uris":{"android":"levelo://app?vid=5a9704f3-fb36-482c-9b5e-70977a2c766e","ios":"levelo://app?vid=5a9704f3-fb36-482c-9b5e-70977a2c766e"},"vehicle_type_id":"4","last_reported":1731900273,"current_range_meters":40000,"station_id":"ce4bgv92rcd13ifvqcq0","pricing_plan_id":"cebpf4jnsgd1na2vs0mg"},{"bike_id":"29805b00-7c0a-4e6a-9e25-4043a0fff472","system_id":"levelo_inurba_marseille","lat":43.31269,"lon":5.40173,"is_reserved":false,"is_disabled":false,"rental_uris":{"android":"levelo://app?vid=29805b00-7c0a-4e6a-9e25-4043a0fff472","ios":"levelo://app?vid=29805b00-7c0a-4e6a-9e25-4043a0fff472"},"vehicle_type_id":"4","last_reported":1731900273,"current_range_meters":27600,"station_id":"ce4bh092rcd13ifvqd30","pricing_plan_id":"cebpf4jnsgd1na2vs0mg"},{"bike_id":"31e4d655-cf0c-4e30-a369-4e33235b51b8","system_id":"levelo_inurba_marseille","lat":43.29554,"lon":5.42276,"is_reserved":false,"is_disabled":false,"rental_uris":{"android":"levelo://app?vid=31e4d655-cf0c-4e30-a369-4e33235b51b8","ios":"levelo://app?vid=31e4d655-cf0c-4e30-a369-4e33235b51b8"},"vehicle_type_id":"4","last_reported":1731900273,"current_range_meters":38800,"station_id":"ce4bhph2rcd13ifvqhdg","pricing_plan_id":"cebpf4jnsgd1na2vs0mg"},{"bike_id":"29ec9999-f816-4642-99ea-8047239d6744","system_id":"levelo_inurba_marseille","lat":43.30256,"lon":5.40069,"is_reserved":false,"is_disabled":false,"rental_uris":{"android":"levelo://app?vid=29ec9999-f816-4642-99ea-8047239d6744","ios":"levelo://app?vid=29ec9999-f816-4642-99ea-8047239d6744"},"vehicle_type_id":"4","last_reported":1731900273,"current_range_meters":18000,"station_id":"ce4bgvh2rcd13ifvqcs0","pricing_plan_id":"cebpf4jnsgd1na2vs0mg"},{"bike_id":"98b30b3c-7cbd-4c05-9f09-80d74e70b142","system_id":"levelo_inurba_marseille","lat":43.31222,"lon":5.36847,"is_reserved":false,"is_disabled":false,"rental_uris":{"android":"levelo://app?vid=98b30b3c-7cbd-4c05-9f09-80d74e70b142","ios":"levelo://app?vid=98b30b3c-7cbd-4c05-9f09-80d74e70b142"},"vehicle_type_id":"4","last_reported":1731900273,"current_range_meters":38000,"station_id":"ce4bgl92rcd13ifvqbq0","pricing_plan_id":"cebpf4jnsgd1na2vs0mg"},{"bike_id":"10808265-c82e-4663-ad34-00454e769817","system_id":"levelo_inurba_marseille","lat":43.23188,"lon":5.39991,"is_reserved":false,"is_disabled":false,"rental_uris":{"android":"levelo://app?vid=10808265-c82e-4663-ad34-00454e769817","ios":"levelo://app?vid=10808265-c82e-4663-ad34-00454e769817"},"vehicle_type_id":"4","last_reported":1731900273,"current_range_meters":28000,"station_id":"ce4bhn12rcd13ifvqgqg","pricing_plan_id":"cebpf4jnsgd1na2vs0mg"},{"bike_id":"8bcea2eb-873a-48a8-83fc-0ac9c052e180","system_id":"levelo_inurba_marseille","lat":43.32337,"lon":5.40624,"is_reserved":false,"is_disabled":false,"rental_uris":{"android":"levelo://app?vid=8bcea2eb-873a-48a8-83fc-0ac9c052e180","ios":"levelo://app?vid=8bcea2eb-873a-48a8-83fc-0ac9c052e180"},"vehicle_type_id":"4","last_reported":1731900273,"current_range_meters":33200,"station_id":"ce4bhq92rcd13ifvqhjg","pricing_plan_id":"cebpf4jnsgd1na2vs0mg"},{"bike_id":"f86d1405-ab23-4ac0-85a6-f6aed059b230","system_id":"levelo_inurba_marseille","lat":43.30666,"lon":5.4009,"is_reserved":false,"is_disabled":false,"rental_uris":{"android":"levelo://app?vid=f86d1405-ab23-4ac0-85a6-f6aed059b230","ios":"levelo://app?vid=f86d1405-ab23-4ac0-85a6-f6aed059b230"},"vehicle_type_id":"4","last_reported":1731900273,"current_range_meters":14800,"station_id":"ce4bh112rcd13ifvqda0","pricing_plan_id":"cebpf4jnsgd1na2vs0mg"},{"bike_id":"4e5fd13b-c4e8-401a-b443-a8df42e12c69","system_id":"levelo_inurba_marseille","lat":43.279375,"lon":5.410457,"is_reserved":false,"is_disabled":false,"rental_uris":{"android":"levelo://app?vid=4e5fd13b-c4e8-401a-b443-a8df42e12c69","ios":"levelo://app?vid=4e5fd13b-c4e8-401a-b443-a8df42e12c69"},"vehicle_type_id":"4","last_reported":1731900273,"current_range_meters":8400,"station_id":"ce4bhnp2rcd13ifvqh0g","pricing_plan_id":"cebpf4jnsgd1na2vs0mg"},{"bike_id":"780d4ee5-1ebe-409e-9dbf-654bac15441c","system_id":"levelo_inurba_marseille","lat":43.32366,"lon":5.38883,"is_reserved":false,"is_disabled":false,"rental_uris":{"android":"levelo://app?vid=780d4ee5-1ebe-409e-9dbf-654bac15441c","ios":"levelo://app?vid=780d4ee5-1ebe-409e-9dbf-654bac15441c"},"vehicle_type_id":"4","last_reported":1731900273,"current_range_meters":38800,"station_id":"ce4bhqp2rcd13ifvqhog","pricing_plan_id":"cebpf4jnsgd1na2vs0mg"},{"bike_id":"8f019a78-c493-4f9d-a72d-a75fc0e36210","system_id":"levelo_inurba_marseille","lat":43.2407,"lon":5.37759,"is_reserved":false,"is_disabled":false,"rental_uris":{"android":"levelo://app?vid=8f019a78-c493-4f9d-a72d-a75fc0e36210","ios":"levelo://app?vid=8f019a78-c493-4f9d-a72d-a75fc0e36210"},"vehicle_type_id":"4","last_reported":1731900273,"current_range_meters":28000,"station_id":"ce4bhnp2rcd13ifvqgvg","pricing_plan_id":"cebpf4jnsgd1na2vs0mg"},{"bike_id":"0c7d5aa1-d519-481a-a7a1-26870fd7e01b","system_id":"levelo_inurba_marseille","lat":43.29031,"lon":5.39982,"is_reserved":false,"is_disabled":false,"rental_uris":{"android":"levelo://app?vid=0c7d5aa1-d519-481a-a7a1-26870fd7e01b","ios":"levelo://app?vid=0c7d5aa1-d519-481a-a7a1-26870fd7e01b"},"vehicle_type_id":"4","last_reported":1731900273,"current_range_meters":38000,"station_id":"ce4bh392rcd13ifvqdm0","pricing_plan_id":"cebpf4jnsgd1na2vs0mg"},{"bike_id":"21b7cad8-33fb-468a-bc70-a7cb4d570e6b","system_id":"levelo_inurba_marseille","lat":43.29783,"lon":5.39354,"is_reserved":false,"is_disabled":false,"rental_uris":{"android":"levelo://app?vid=21b7cad8-33fb-468a-bc70-a7cb4d570e6b","ios":"levelo://app?vid=21b7cad8-33fb-468a-bc70-a7cb4d570e6b"},"vehicle_type_id":"4","last_reported":1731900273,"current_range_meters":38400,"station_id":"chh1huq6cuj3fo74tm60","pricing_plan_id":"cebpf4jnsgd1na2vs0mg"},{"bike_id":"dfdaed04-9a9a-4392-8f9c-82afefbe9402","system_id":"levelo_inurba_marseille","lat":43.290372,"lon":5.359176,"is_reserved":false,"is_disabled":false,"rental_uris":{"android":"levelo://app?vid=dfdaed04-9a9a-4392-8f9c-82afefbe9402","ios":"levelo://app?vid=dfdaed04-9a9a-4392-8f9c-82afefbe9402"},"vehicle_type_id":"4","last_reported":1731900273,"current_range_meters":8400,"station_id":"ce4bha92rcd13ifvqeg0","pricing_plan_id":"cebpf4jnsgd1na2vs0mg"},{"bike_id":"bec56b94-4d7b-4994-859b-bb682d5c422a","system_id":"levelo_inurba_marseille","lat":43.306,"lon":5.39353,"is_reserved":false,"is_disabled":false,"rental_uris":{"android":"levelo://app?vid=bec56b94-4d7b-4994-859b-bb682d5c422a","ios":"levelo://app?vid=bec56b94-4d7b-4994-859b-bb682d5c422a"},"vehicle_type_id":"4","last_reported":1731900273,"current_range_meters":38800,"station_id":"ce4bh0p2rcd13ifvqd80","pricing_plan_id":"cebpf4jnsgd1na2vs0mg"},{"bike_id":"a3a50842-12fb-436f-a1a6-082e2b162372","system_id":"levelo_inurba_marseille","lat":43.29195,"lon":5.39305,"is_reserved":false,"is_disabled":false,"rental_uris":{"android":"levelo://app?vid=a3a50842-12fb-436f-a1a6-082e2b162372","ios":"levelo://app?vid=a3a50842-12fb-436f-a1a6-082e2b162372"},"vehicle_type_id":"4","last_reported":1731900273,"current_range_meters":14000,"station_id":"ce4bh192rcd13ifvqdd0","pricing_plan_id":"cebpf4jnsgd1na2vs0mg"},{"bike_id":"304847a3-3e07-4fb8-955c-861fbc7ac28f","system_id":"levelo_inurba_marseille","lat":43.25724,"lon":5.41105,"is_reserved":false,"is_disabled":false,"rental_uris":{"android":"levelo://app?vid=304847a3-3e07-4fb8-955c-861fbc7ac28f","ios":"levelo://app?vid=304847a3-3e07-4fb8-955c-861fbc7ac28f"},"vehicle_type_id":"4","last_reported":1731900273,"current_range_meters":38800,"station_id":"ce4bhkp2rcd13ifvqgd0","pricing_plan_id":"cebpf4jnsgd1na2vs0mg"},{"bike_id":"ef06d57c-185d-4ee2-9358-4d90d68f5b48","system_id":"levelo_inurba_marseille","lat":43.278338,"lon":5.392024,"is_reserved":false,"is_disabled":false,"rental_uris":{"android":"levelo://app?vid=ef06d57c-185d-4ee2-9358-4d90d68f5b48","ios":"levelo://app?vid=ef06d57c-185d-4ee2-9358-4d90d68f5b48"},"vehicle_type_id":"4","last_reported":1731900273,"current_range_meters":37600,"station_id":"ce4bhjp2rcd13ifvqga0","pricing_plan_id":"cebpf4jnsgd1na2vs0mg"},{"bike_id":"bfbc2b2b-7068-4fab-9a65-f7be18644268","system_id":"levelo_inurba_marseille","lat":43.27815,"lon":5.40712,"is_reserved":false,"is_disabled":false,"rental_uris":{"android":"levelo://app?vid=bfbc2b2b-7068-4fab-9a65-f7be18644268","ios":"levelo://app?vid=bfbc2b2b-7068-4fab-9a65-f7be18644268"},"vehicle_type_id":"4","last_reported":1731900273,"current_range_meters":27600,"station_id":"ce4bhnh2rcd13ifvqgtg","pricing_plan_id":"cebpf4jnsgd1na2vs0mg"},{"bike_id":"e97c3a2f-bff1-4458-8624-bdaf47013ce6","system_id":"levelo_inurba_marseille","lat":43.28941,"lon":5.39626,"is_reserved":false,"is_disabled":false,"rental_uris":{"android":"levelo://app?vid=e97c3a2f-bff1-4458-8624-bdaf47013ce6","ios":"levelo://app?vid=e97c3a2f-bff1-4458-8624-bdaf47013ce6"},"vehicle_type_id":"4","last_reported":1731900273,"current_range_meters":36800,"station_id":"ce4bh3h2rcd13ifvqdn0","pricing_plan_id":"cebpf4jnsgd1na2vs0mg"},{"bike_id":"2b754c48-bf72-4e88-a569-49c168e62a76","system_id":"levelo_inurba_marseille","lat":43.28079,"lon":5.39657,"is_reserved":false,"is_disabled":false,"rental_uris":{"android":"levelo://app?vid=2b754c48-bf72-4e88-a569-49c168e62a76","ios":"levelo://app?vid=2b754c48-bf72-4e88-a569-49c168e62a76"},"vehicle_type_id":"4","last_reported":1731900273,"current_range_meters":35200,"station_id":"ce4bho12rcd13ifvqh2g","pricing_plan_id":"cebpf4jnsgd1na2vs0mg"},{"bike_id":"a3471b01-d347-453f-9107-802a928d4193","system_id":"levelo_inurba_marseille","lat":43.2846,"lon":5.35888,"is_reserved":false,"is_disabled":false,"rental_uris":{"android":"levelo://app?vid=a3471b01-d347-453f-9107-802a928d4193","ios":"levelo://app?vid=a3471b01-d347-453f-9107-802a928d4193"},"vehicle_type_id":"4","last_reported":1731900273,"current_range_meters":39200,"station_id":"ce4bhah2rcd13ifvqei0","pricing_plan_id":"cebpf4jnsgd1na2vs0mg"},{"bike_id":"130086f9-de3d-4333-a5c2-2de3b65de107","system_id":"levelo_inurba_marseille","lat":43.28649,"lon":5.38677,"is_reserved":false,"is_disabled":false,"rental_uris":{"android":"levelo://app?vid=130086f9-de3d-4333-a5c2-2de3b65de107","ios":"levelo://app?vid=130086f9-de3d-4333-a5c2-2de3b65de107"},"vehicle_type_id":"4","last_reported":1731900273,"current_range_meters":11600,"station_id":"ce4bh492rcd13ifvqdug","pricing_plan_id":"cebpf4jnsgd1na2vs0mg"},{"bike_id":"e73206b1-cfd7-4ecb-ba5a-91c351b433ae","system_id":"levelo_inurba_marseille","lat":43.33599,"lon":5.41025,"is_reserved":false,"is_disabled":false,"rental_uris":{"android":"levelo://app?vid=e73206b1-cfd7-4ecb-ba5a-91c351b433ae","ios":"levelo://app?vid=e73206b1-cfd7-4ecb-ba5a-91c351b433ae"},"vehicle_type_id":"4","last_reported":1731900273,"current_range_meters":35600,"station_id":"ce4bhqh2rcd13ifvqhmg","pricing_plan_id":"cebpf4jnsgd1na2vs0mg"},{"bike_id":"fc9ffa41-3ad0-472d-8cbd-b06e4af7cd1e","system_id":"levelo_inurba_marseille","lat":43.284089,"lon":5.375211,"is_reserved":false,"is_disabled":false,"rental_uris":{"android":"levelo://app?vid=fc9ffa41-3ad0-472d-8cbd-b06e4af7cd1e","ios":"levelo://app?vid=fc9ffa41-3ad0-472d-8cbd-b06e4af7cd1e"},"vehicle_type_id":"4","last_reported":1731900273,"current_range_meters":38000,"station_id":"ce4bh412rcd13ifvqds0","pricing_plan_id":"cebpf4jnsgd1na2vs0mg"},{"bike_id":"3368b5ef-1d3a-4ea6-ae1b-b7ea13ec07ad","system_id":"levelo_inurba_marseille","lat":43.30776,"lon":5.3766,"is_reserved":false,"is_disabled":false,"rental_uris":{"android":"levelo://app?vid=3368b5ef-1d3a-4ea6-ae1b-b7ea13ec07ad","ios":"levelo://app?vid=3368b5ef-1d3a-4ea6-ae1b-b7ea13ec07ad"},"vehicle_type_id":"4","last_reported":1731900273,"current_range_meters":40000,"station_id":"ce4bgv92rcd13ifvqcq0","pricing_plan_id":"cebpf4jnsgd1na2vs0mg"},{"bike_id":"d87f6f92-00ca-48a6-b48d-18553faed056","system_id":"levelo_inurba_marseille","lat":43.27988,"lon":5.41661,"is_reserved":false,"is_disabled":false,"rental_uris":{"android":"levelo://app?vid=d87f6f92-00ca-48a6-b48d-18553faed056","ios":"levelo://app?vid=d87f6f92-00ca-48a6-b48d-18553faed056"},"vehicle_type_id":"4","last_reported":1731900273,"current_range_meters":39200,"station_id":"ce4bho12rcd13ifvqh1g","pricing_plan_id":"cebpf4jnsgd1na2vs0mg"},{"bike_id":"147342ca-f981-427b-a8da-c8a0cbf9790e","system_id":"levelo_inurba_marseille","lat":43.23182,"lon":5.39982,"is_reserved":false,"is_disabled":false,"rental_uris":{"android":"levelo://app?vid=147342ca-f981-427b-a8da-c8a0cbf9790e","ios":"levelo://app?vid=147342ca-f981-427b-a8da-c8a0cbf9790e"},"vehicle_type_id":"4","last_reported":1731900273,"current_range_meters":38800,"station_id":"ce4bhn12rcd13ifvqgqg","pricing_plan_id":"cebpf4jnsgd1na2vs0mg"},{"bike_id":"8670051b-f022-4429-b0af-75a0bd731d27","system_id":"levelo_inurba_marseille","lat":43.25576,"lon":5.38228,"is_reserved":false,"is_disabled":false,"rental_uris":{"android":"levelo://app?vid=8670051b-f022-4429-b0af-75a0bd731d27","ios":"levelo://app?vid=8670051b-f022-4429-b0af-75a0bd731d27"},"vehicle_type_id":"4","last_reported":1731900273,"current_range_meters":30800,"station_id":"ce4bhih2rcd13ifvqfs0","pricing_plan_id":"cebpf4jnsgd1na2vs0mg"},{"bike_id":"8cdbbb9d-e54c-4963-8b6c-ba5d001805cc","system_id":"levelo_inurba_marseille","lat":43.28149,"lon":5.44216,"is_reserved":false,"is_disabled":false,"rental_uris":{"android":"levelo://app?vid=8cdbbb9d-e54c-4963-8b6c-ba5d001805cc","ios":"levelo://app?vid=8cdbbb9d-e54c-4963-8b6c-ba5d001805cc"},"vehicle_type_id":"4","last_reported":1731900273,"current_range_meters":32400,"station_id":"","pricing_plan_id":"cebpf4jnsgd1na2vs0mg"},{"bike_id":"88fbcddc-fc1e-4412-b0ae-ec12ac073173","system_id":"levelo_inurba_marseille","lat":43.28081,"lon":5.396655,"is_reserved":false,"is_disabled":false,"rental_uris":{"android":"levelo://app?vid=88fbcddc-fc1e-4412-b0ae-ec12ac073173","ios":"levelo://app?vid=88fbcddc-fc1e-4412-b0ae-ec12ac073173"},"vehicle_type_id":"4","last_reported":1731900273,"current_range_meters":39200,"station_id":"ce4bho12rcd13ifvqh2g","pricing_plan_id":"cebpf4jnsgd1na2vs0mg"},{"bike_id":"62bf7f9f-0570-4538-99ac-1d7a8eab4b3c","system_id":"levelo_inurba_marseille","lat":43.31172,"lon":5.38714,"is_reserved":false,"is_disabled":false,"rental_uris":{"android":"levelo://app?vid=62bf7f9f-0570-4538-99ac-1d7a8eab4b3c","ios":"levelo://app?vid=62bf7f9f-0570-4538-99ac-1d7a8eab4b3c"},"vehicle_type_id":"4","last_reported":1731900273,"current_range_meters":39200,"station_id":"ce4bgv12rcd13ifvqcp0","pricing_plan_id":"cebpf4jnsgd1na2vs0mg"},{"bike_id":"e8b6d443-382b-451d-bf0e-2f2cd5240c4f","system_id":"levelo_inurba_marseille","lat":43.29258,"lon":5.40902,"is_reserved":false,"is_disabled":false,"rental_uris":{"android":"levelo://app?vid=e8b6d443-382b-451d-bf0e-2f2cd5240c4f","ios":"levelo://app?vid=e8b6d443-382b-451d-bf0e-2f2cd5240c4f"},"vehicle_type_id":"4","last_reported":1731900273,"current_range_meters":38400,"station_id":"ce4bh192rcd13ifvqdc0","pricing_plan_id":"cebpf4jnsgd1na2vs0mg"},{"bike_id":"97c497a2-0333-46c6-bca7-6323136b5191","system_id":"levelo_inurba_marseille","lat":43.29516,"lon":5.3941,"is_reserved":false,"is_disabled":false,"rental_uris":{"android":"levelo://app?vid=97c497a2-0333-46c6-bca7-6323136b5191","ios":"levelo://app?vid=97c497a2-0333-46c6-bca7-6323136b5191"},"vehicle_type_id":"4","last_reported":1731900273,"current_range_meters":10800,"station_id":"ce4bh292rcd13ifvqdf0","pricing_plan_id":"cebpf4jnsgd1na2vs0mg"},{"bike_id":"c483694c-438e-462f-90c6-ccb355245e72","system_id":"levelo_inurba_marseille","lat":43.293,"lon":5.37452,"is_reserved":false,"is_disabled":false,"rental_uris":{"android":"levelo://app?vid=c483694c-438e-462f-90c6-ccb355245e72","ios":"levelo://app?vid=c483694c-438e-462f-90c6-ccb355245e72"},"vehicle_type_id":"4","last_reported":1731900273,"current_range_meters":33600,"station_id":"ce4bgi12rcd13ifvqb70","pricing_plan_id":"cebpf4jnsgd1na2vs0mg"},{"bike_id":"2af50316-86b7-44b8-b637-f843be742f2f","system_id":"levelo_inurba_marseille","lat":43.2847,"lon":5.3841,"is_reserved":false,"is_disabled":false,"rental_uris":{"android":"levelo://app?vid=2af50316-86b7-44b8-b637-f843be742f2f","ios":"levelo://app?vid=2af50316-86b7-44b8-b637-f843be742f2f"},"vehicle_type_id":"4","last_reported":1731900273,"current_range_meters":38400,"station_id":"ce4bh512rcd13ifvqe3g","pricing_plan_id":"cebpf4jnsgd1na2vs0mg"},{"bike_id":"ea152aa9-505a-42a6-bd71-48052765bae5","system_id":"levelo_inurba_marseille","lat":43.29233,"lon":5.36634,"is_reserved":false,"is_disabled":false,"rental_uris":{"android":"levelo://app?vid=ea152aa9-505a-42a6-bd71-48052765bae5","ios":"levelo://app?vid=ea152aa9-505a-42a6-bd71-48052765bae5"},"vehicle_type_id":"4","last_reported":1731900273,"current_range_meters":3600,"station_id":"","pricing_plan_id":"cebpf4jnsgd1na2vs0mg"},{"bike_id":"5182db36-2a90-44fe-b81c-43203f4be9df","system_id":"levelo_inurba_marseille","lat":43.30592,"lon":5.39352,"is_reserved":false,"is_disabled":false,"rental_uris":{"android":"levelo://app?vid=5182db36-2a90-44fe-b81c-43203f4be9df","ios":"levelo://app?vid=5182db36-2a90-44fe-b81c-43203f4be9df"},"vehicle_type_id":"4","last_reported":1731900273,"current_range_meters":19600,"station_id":"ce4bh0p2rcd13ifvqd80","pricing_plan_id":"cebpf4jnsgd1na2vs0mg"},{"bike_id":"c789f843-6a8e-473f-8e7e-4886ff8f1b02","system_id":"levelo_inurba_marseille","lat":43.23184,"lon":5.39983,"is_reserved":false,"is_disabled":false,"rental_uris":{"android":"levelo://app?vid=c789f843-6a8e-473f-8e7e-4886ff8f1b02","ios":"levelo://app?vid=c789f843-6a8e-473f-8e7e-4886ff8f1b02"},"vehicle_type_id":"4","last_reported":1731900273,"current_range_meters":39200,"station_id":"ce4bhn12rcd13ifvqgqg","pricing_plan_id":"cebpf4jnsgd1na2vs0mg"},{"bike_id":"76f17f04-f739-43db-843c-2a9c5eb70c12","system_id":"levelo_inurba_marseille","lat":43.311211,"lon":5.377649,"is_reserved":false,"is_disabled":false,"rental_uris":{"android":"levelo://app?vid=76f17f04-f739-43db-843c-2a9c5eb70c12","ios":"levelo://app?vid=76f17f04-f739-43db-843c-2a9c5eb70c12"},"vehicle_type_id":"4","last_reported":1731900273,"current_range_meters":38400,"station_id":"ce4bgt92rcd13ifvqcg0","pricing_plan_id":"cebpf4jnsgd1na2vs0mg"},{"bike_id":"6f9092c0-1995-4332-b299-947d0bc2449f","system_id":"levelo_inurba_marseille","lat":43.27825,"lon":5.39206,"is_reserved":false,"is_disabled":false,"rental_uris":{"android":"levelo://app?vid=6f9092c0-1995-4332-b299-947d0bc2449f","ios":"levelo://app?vid=6f9092c0-1995-4332-b299-947d0bc2449f"},"vehicle_type_id":"4","last_reported":1731900273,"current_range_meters":38000,"station_id":"ce4bhjp2rcd13ifvqga0","pricing_plan_id":"cebpf4jnsgd1na2vs0mg"},{"bike_id":"25e8af85-9a67-438e-bf92-99314951acd2","system_id":"levelo_inurba_marseille","lat":43.301,"lon":5.39081,"is_reserved":false,"is_disabled":false,"rental_uris":{"android":"levelo://app?vid=25e8af85-9a67-438e-bf92-99314951acd2","ios":"levelo://app?vid=25e8af85-9a67-438e-bf92-99314951acd2"},"vehicle_type_id":"4","last_reported":1731900273,"current_range_meters":30000,"station_id":"ce4bh192rcd13ifvqdb0","pricing_plan_id":"cebpf4jnsgd1na2vs0mg"},{"bike_id":"2340cb86-c374-404b-8be0-bf4efc611cee","system_id":"levelo_inurba_marseille","lat":43.33606,"lon":5.410388,"is_reserved":false,"is_disabled":false,"rental_uris":{"android":"levelo://app?vid=2340cb86-c374-404b-8be0-bf4efc611cee","ios":"levelo://app?vid=2340cb86-c374-404b-8be0-bf4efc611cee"},"vehicle_type_id":"4","last_reported":1731900273,"current_range_meters":17200,"station_id":"ce4bhqh2rcd13ifvqhmg","pricing_plan_id":"cebpf4jnsgd1na2vs0mg"},{"bike_id":"61532233-7c94-48c6-8d42-2974a985b8a2","system_id":"levelo_inurba_marseille","lat":43.25079,"lon":5.39511,"is_reserved":false,"is_disabled":false,"rental_uris":{"android":"levelo://app?vid=61532233-7c94-48c6-8d42-2974a985b8a2","ios":"levelo://app?vid=61532233-7c94-48c6-8d42-2974a985b8a2"},"vehicle_type_id":"4","last_reported":1731900273,"current_range_meters":38800,"station_id":"ce4bhm12rcd13ifvqgkg","pricing_plan_id":"cebpf4jnsgd1na2vs0mg"},{"bike_id":"0cf4affd-7653-45c1-969a-6ed0c5c50ba6","system_id":"levelo_inurba_marseille","lat":43.2315,"lon":5.43729,"is_reserved":false,"is_disabled":false,"rental_uris":{"android":"levelo://app?vid=0cf4affd-7653-45c1-969a-6ed0c5c50ba6","ios":"levelo://app?vid=0cf4affd-7653-45c1-969a-6ed0c5c50ba6"},"vehicle_type_id":"4","last_reported":1731900273,"current_range_meters":17200,"station_id":"ce4bhmp2rcd13ifvqgog","pricing_plan_id":"cebpf4jnsgd1na2vs0mg"},{"bike_id":"4f01fa73-c9c0-4fc0-986b-b2a94d270e4a","system_id":"levelo_inurba_marseille","lat":43.302519,"lon":5.400883,"is_reserved":false,"is_disabled":false,"rental_uris":{"android":"levelo://app?vid=4f01fa73-c9c0-4fc0-986b-b2a94d270e4a","ios":"levelo://app?vid=4f01fa73-c9c0-4fc0-986b-b2a94d270e4a"},"vehicle_type_id":"4","last_reported":1731900273,"current_range_meters":8000,"station_id":"ce4bgvh2rcd13ifvqcs0","pricing_plan_id":"cebpf4jnsgd1na2vs0mg"},{"bike_id":"6d757fef-4f26-43f9-ac2c-ffab39bf7dae","system_id":"levelo_inurba_marseille","lat":43.32249,"lon":5.36901,"is_reserved":false,"is_disabled":false,"rental_uris":{"android":"levelo://app?vid=6d757fef-4f26-43f9-ac2c-ffab39bf7dae","ios":"levelo://app?vid=6d757fef-4f26-43f9-ac2c-ffab39bf7dae"},"vehicle_type_id":"4","last_reported":1731900273,"current_range_meters":12400,"station_id":"","pricing_plan_id":"cebpf4jnsgd1na2vs0mg"},{"bike_id":"d14c1b93-5193-4c76-88bb-4329772f8656","system_id":"levelo_inurba_marseille","lat":43.28469,"lon":5.35894,"is_reserved":false,"is_disabled":false,"rental_uris":{"android":"levelo://app?vid=d14c1b93-5193-4c76-88bb-4329772f8656","ios":"levelo://app?vid=d14c1b93-5193-4c76-88bb-4329772f8656"},"vehicle_type_id":"4","last_reported":1731900273,"current_range_meters":30400,"station_id":"ce4bhah2rcd13ifvqei0","pricing_plan_id":"cebpf4jnsgd1na2vs0mg"},{"bike_id":"4a851098-0d4c-481f-8ec2-d29f76466c9e","system_id":"levelo_inurba_marseille","lat":43.31712,"lon":5.37756,"is_reserved":false,"is_disabled":false,"rental_uris":{"android":"levelo://app?vid=4a851098-0d4c-481f-8ec2-d29f76466c9e","ios":"levelo://app?vid=4a851098-0d4c-481f-8ec2-d29f76466c9e"},"vehicle_type_id":"4","last_reported":1731900273,"current_range_meters":39200,"station_id":"ce4bgth2rcd13ifvqch0","pricing_plan_id":"cebpf4jnsgd1na2vs0mg"},{"bike_id":"250baacc-16ca-4248-a285-691ee29a779c","system_id":"levelo_inurba_marseille","lat":43.2815,"lon":5.42644,"is_reserved":false,"is_disabled":false,"rental_uris":{"android":"levelo://app?vid=250baacc-16ca-4248-a285-691ee29a779c","ios":"levelo://app?vid=250baacc-16ca-4248-a285-691ee29a779c"},"vehicle_type_id":"4","last_reported":1731900273,"current_range_meters":24800,"station_id":"ce4bhnh2rcd13ifvqgug","pricing_plan_id":"cebpf4jnsgd1na2vs0mg"},{"bike_id":"22079bec-21a8-4663-b8a3-bc67abf67751","system_id":"levelo_inurba_marseille","lat":43.2512,"lon":5.4032,"is_reserved":false,"is_disabled":false,"rental_uris":{"android":"levelo://app?vid=22079bec-21a8-4663-b8a3-bc67abf67751","ios":"levelo://app?vid=22079bec-21a8-4663-b8a3-bc67abf67751"},"vehicle_type_id":"4","last_reported":1731900273,"current_range_meters":39200,"station_id":"ce4bhlh2rcd13ifvqgig","pricing_plan_id":"cebpf4jnsgd1na2vs0mg"},{"bike_id":"d2f42cf5-8801-43db-acf5-b3c9c3015ac2","system_id":"levelo_inurba_marseille","lat":43.27919,"lon":5.39583,"is_reserved":false,"is_disabled":false,"rental_uris":{"android":"levelo://app?vid=d2f42cf5-8801-43db-acf5-b3c9c3015ac2","ios":"levelo://app?vid=d2f42cf5-8801-43db-acf5-b3c9c3015ac2"},"vehicle_type_id":"4","last_reported":1731900273,"current_range_meters":30400,"station_id":"ce4bhf92rcd13ifvqf40","pricing_plan_id":"cebpf4jnsgd1na2vs0mg"},{"bike_id":"ab9926fe-4fee-415f-ac5e-4b05b67d6da5","system_id":"levelo_inurba_marseille","lat":43.27994,"lon":5.41664,"is_reserved":false,"is_disabled":false,"rental_uris":{"android":"levelo://app?vid=ab9926fe-4fee-415f-ac5e-4b05b67d6da5","ios":"levelo://app?vid=ab9926fe-4fee-415f-ac5e-4b05b67d6da5"},"vehicle_type_id":"4","last_reported":1731900273,"current_range_meters":38800,"station_id":"ce4bho12rcd13ifvqh1g","pricing_plan_id":"cebpf4jnsgd1na2vs0mg"},{"bike_id":"e46c9e43-82bd-42fa-9189-a835c8b13d00","system_id":"levelo_inurba_marseille","lat":43.24808,"lon":5.37456,"is_reserved":false,"is_disabled":false,"rental_uris":{"android":"levelo://app?vid=e46c9e43-82bd-42fa-9189-a835c8b13d00","ios":"levelo://app?vid=e46c9e43-82bd-42fa-9189-a835c8b13d00"},"vehicle_type_id":"4","last_reported":1731900273,"current_range_meters":38800,"station_id":"ce4bhgh2rcd13ifvqfb0","pricing_plan_id":"cebpf4jnsgd1na2vs0mg"},{"bike_id":"c21f3614-1870-4cfd-a917-d8a30c4cb6d9","system_id":"levelo_inurba_marseille","lat":43.2849,"lon":5.385643,"is_reserved":false,"is_disabled":false,"rental_uris":{"android":"levelo://app?vid=c21f3614-1870-4cfd-a917-d8a30c4cb6d9","ios":"levelo://app?vid=c21f3614-1870-4cfd-a917-d8a30c4cb6d9"},"vehicle_type_id":"4","last_reported":1731900273,"current_range_meters":28000,"station_id":"ce4bh8p2rcd13ifvqeb0","pricing_plan_id":"cebpf4jnsgd1na2vs0mg"},{"bike_id":"0915b3ed-9c74-407d-8c35-25f6d5470718","system_id":"levelo_inurba_marseille","lat":43.25719,"lon":5.41113,"is_reserved":false,"is_disabled":false,"rental_uris":{"android":"levelo://app?vid=0915b3ed-9c74-407d-8c35-25f6d5470718","ios":"levelo://app?vid=0915b3ed-9c74-407d-8c35-25f6d5470718"},"vehicle_type_id":"4","last_reported":1731900273,"current_range_meters":38800,"station_id":"ce4bhkp2rcd13ifvqgd0","pricing_plan_id":"cebpf4jnsgd1na2vs0mg"},{"bike_id":"9ff38033-d054-4613-bd77-ebd0c6541edc","system_id":"levelo_inurba_marseille","lat":43.29551,"lon":5.42276,"is_reserved":false,"is_disabled":false,"rental_uris":{"android":"levelo://app?vid=9ff38033-d054-4613-bd77-ebd0c6541edc","ios":"levelo://app?vid=9ff38033-d054-4613-bd77-ebd0c6541edc"},"vehicle_type_id":"4","last_reported":1731900273,"current_range_meters":33200,"station_id":"ce4bhph2rcd13ifvqhdg","pricing_plan_id":"cebpf4jnsgd1na2vs0mg"},{"bike_id":"f9e50a29-65aa-464d-89e3-9f7ac82c689d","system_id":"levelo_inurba_marseille","lat":43.29257,"lon":5.40907,"is_reserved":false,"is_disabled":false,"rental_uris":{"android":"levelo://app?vid=f9e50a29-65aa-464d-89e3-9f7ac82c689d","ios":"levelo://app?vid=f9e50a29-65aa-464d-89e3-9f7ac82c689d"},"vehicle_type_id":"4","last_reported":1731900273,"current_range_meters":38800,"station_id":"ce4bh192rcd13ifvqdc0","pricing_plan_id":"cebpf4jnsgd1na2vs0mg"},{"bike_id":"cc67dd01-e7d7-4ac0-819a-389c381e84e0","system_id":"levelo_inurba_marseille","lat":43.29275,"lon":5.4013,"is_reserved":false,"is_disabled":false,"rental_uris":{"android":"levelo://app?vid=cc67dd01-e7d7-4ac0-819a-389c381e84e0","ios":"levelo://app?vid=cc67dd01-e7d7-4ac0-819a-389c381e84e0"},"vehicle_type_id":"4","last_reported":1731900273,"current_range_meters":10800,"station_id":"ce4bh312rcd13ifvqdk0","pricing_plan_id":"cebpf4jnsgd1na2vs0mg"},{"bike_id":"e99bbdb4-4354-418e-9651-b9e865b5a650","system_id":"levelo_inurba_marseille","lat":43.27499,"lon":5.42455,"is_reserved":false,"is_disabled":false,"rental_uris":{"android":"levelo://app?vid=e99bbdb4-4354-418e-9651-b9e865b5a650","ios":"levelo://app?vid=e99bbdb4-4354-418e-9651-b9e865b5a650"},"vehicle_type_id":"4","last_reported":1731900273,"current_range_meters":17600,"station_id":"ce4bhn92rcd13ifvqgrg","pricing_plan_id":"cebpf4jnsgd1na2vs0mg"},{"bike_id":"bce6b1ad-1716-472e-b942-46c470014632","system_id":"levelo_inurba_marseille","lat":43.23185,"lon":5.3999,"is_reserved":false,"is_disabled":false,"rental_uris":{"android":"levelo://app?vid=bce6b1ad-1716-472e-b942-46c470014632","ios":"levelo://app?vid=bce6b1ad-1716-472e-b942-46c470014632"},"vehicle_type_id":"4","last_reported":1731900273,"current_range_meters":30000,"station_id":"ce4bhn12rcd13ifvqgqg","pricing_plan_id":"cebpf4jnsgd1na2vs0mg"},{"bike_id":"45d93a23-1a37-4b6f-b188-0d6505a9ca9e","system_id":"levelo_inurba_marseille","lat":43.30136,"lon":5.38784,"is_reserved":false,"is_disabled":false,"rental_uris":{"android":"levelo://app?vid=45d93a23-1a37-4b6f-b188-0d6505a9ca9e","ios":"levelo://app?vid=45d93a23-1a37-4b6f-b188-0d6505a9ca9e"},"vehicle_type_id":"4","last_reported":1731900273,"current_range_meters":34000,"station_id":"ce4bghh2rcd13ifvqb60","pricing_plan_id":"cebpf4jnsgd1na2vs0mg"},{"bike_id":"65ad3404-ca16-4ff6-a3da-345d3f802f80","system_id":"levelo_inurba_marseille","lat":43.24176,"lon":5.3972,"is_reserved":false,"is_disabled":false,"rental_uris":{"android":"levelo://app?vid=65ad3404-ca16-4ff6-a3da-345d3f802f80","ios":"levelo://app?vid=65ad3404-ca16-4ff6-a3da-345d3f802f80"},"vehicle_type_id":"4","last_reported":1731900273,"current_range_meters":28800,"station_id":"ce4bhn12rcd13ifvqgpg","pricing_plan_id":"cebpf4jnsgd1na2vs0mg"},{"bike_id":"560057b5-38ed-41d2-8363-c423745ab422","system_id":"levelo_inurba_marseille","lat":43.28149,"lon":5.42631,"is_reserved":false,"is_disabled":false,"rental_uris":{"android":"levelo://app?vid=560057b5-38ed-41d2-8363-c423745ab422","ios":"levelo://app?vid=560057b5-38ed-41d2-8363-c423745ab422"},"vehicle_type_id":"4","last_reported":1731900273,"current_range_meters":38000,"station_id":"ce4bhnh2rcd13ifvqgug","pricing_plan_id":"cebpf4jnsgd1na2vs0mg"},{"bike_id":"b3c8f588-6c68-4be5-8417-3eb50ad07ca0","system_id":"levelo_inurba_marseille","lat":43.25087,"lon":5.39502,"is_reserved":false,"is_disabled":false,"rental_uris":{"android":"levelo://app?vid=b3c8f588-6c68-4be5-8417-3eb50ad07ca0","ios":"levelo://app?vid=b3c8f588-6c68-4be5-8417-3eb50ad07ca0"},"vehicle_type_id":"4","last_reported":1731900273,"current_range_meters":34800,"station_id":"ce4bhm12rcd13ifvqgkg","pricing_plan_id":"cebpf4jnsgd1na2vs0mg"},{"bike_id":"93b28b0d-4448-49b0-a659-1076ec8f95aa","system_id":"levelo_inurba_marseille","lat":43.31068,"lon":5.38346,"is_reserved":false,"is_disabled":false,"rental_uris":{"android":"levelo://app?vid=93b28b0d-4448-49b0-a659-1076ec8f95aa","ios":"levelo://app?vid=93b28b0d-4448-49b0-a659-1076ec8f95aa"},"vehicle_type_id":"4","last_reported":1731900273,"current_range_meters":8400,"station_id":"ce4bgv92rcd13ifvqcr0","pricing_plan_id":"cebpf4jnsgd1na2vs0mg"},{"bike_id":"b2afc7b2-0754-4922-906a-134440384a59","system_id":"levelo_inurba_marseille","lat":43.28722,"lon":5.36096,"is_reserved":false,"is_disabled":false,"rental_uris":{"android":"levelo://app?vid=b2afc7b2-0754-4922-906a-134440384a59","ios":"levelo://app?vid=b2afc7b2-0754-4922-906a-134440384a59"},"vehicle_type_id":"4","last_reported":1731900273,"current_range_meters":38800,"station_id":"cki0cbj6b192h4jlfktg","pricing_plan_id":"cebpf4jnsgd1na2vs0mg"},{"bike_id":"50ceeba4-3535-49fd-9dc5-aeaefffb553c","system_id":"levelo_inurba_marseille","lat":43.24674,"lon":5.38163,"is_reserved":false,"is_disabled":false,"rental_uris":{"android":"levelo://app?vid=50ceeba4-3535-49fd-9dc5-aeaefffb553c","ios":"levelo://app?vid=50ceeba4-3535-49fd-9dc5-aeaefffb553c"},"vehicle_type_id":"4","last_reported":1731900273,"current_range_meters":32800,"station_id":"ce4bhih2rcd13ifvqfr0","pricing_plan_id":"cebpf4jnsgd1na2vs0mg"},{"bike_id":"756e6efe-a3c3-44a4-afb4-9b895a088a93","system_id":"levelo_inurba_marseille","lat":43.307971,"lon":5.435221,"is_reserved":false,"is_disabled":false,"rental_uris":{"android":"levelo://app?vid=756e6efe-a3c3-44a4-afb4-9b895a088a93","ios":"levelo://app?vid=756e6efe-a3c3-44a4-afb4-9b895a088a93"},"vehicle_type_id":"4","last_reported":1731900273,"current_range_meters":37600,"station_id":"ce4bhph2rcd13ifvqheg","pricing_plan_id":"cebpf4jnsgd1na2vs0mg"},{"bike_id":"2ed17fb3-d4dc-4d23-86b8-87846dc96e6f","system_id":"levelo_inurba_marseille","lat":43.30596,"lon":5.39347,"is_reserved":false,"is_disabled":false,"rental_uris":{"android":"levelo://app?vid=2ed17fb3-d4dc-4d23-86b8-87846dc96e6f","ios":"levelo://app?vid=2ed17fb3-d4dc-4d23-86b8-87846dc96e6f"},"vehicle_type_id":"4","last_reported":1731900273,"current_range_meters":40000,"station_id":"ce4bh0p2rcd13ifvqd80","pricing_plan_id":"cebpf4jnsgd1na2vs0mg"},{"bike_id":"7c4762ad-f49d-4eef-9d08-9dfd4b66a9ca","system_id":"levelo_inurba_marseille","lat":43.28944,"lon":5.36636,"is_reserved":false,"is_disabled":false,"rental_uris":{"android":"levelo://app?vid=7c4762ad-f49d-4eef-9d08-9dfd4b66a9ca","ios":"levelo://app?vid=7c4762ad-f49d-4eef-9d08-9dfd4b66a9ca"},"vehicle_type_id":"4","last_reported":1731900273,"current_range_meters":28400,"station_id":"ce4bhap2rcd13ifvqek0","pricing_plan_id":"cebpf4jnsgd1na2vs0mg"},{"bike_id":"927d2a74-e5a2-442a-9486-2af398843ebf","system_id":"levelo_inurba_marseille","lat":43.32363,"lon":5.38885,"is_reserved":false,"is_disabled":false,"rental_uris":{"android":"levelo://app?vid=927d2a74-e5a2-442a-9486-2af398843ebf","ios":"levelo://app?vid=927d2a74-e5a2-442a-9486-2af398843ebf"},"vehicle_type_id":"4","last_reported":1731900273,"current_range_meters":28400,"station_id":"ce4bhqp2rcd13ifvqhog","pricing_plan_id":"cebpf4jnsgd1na2vs0mg"},{"bike_id":"ad982bfa-78ad-414d-a23f-0f0b04b06fc8","system_id":"levelo_inurba_marseille","lat":43.31757,"lon":5.39022,"is_reserved":false,"is_disabled":false,"rental_uris":{"android":"levelo://app?vid=ad982bfa-78ad-414d-a23f-0f0b04b06fc8","ios":"levelo://app?vid=ad982bfa-78ad-414d-a23f-0f0b04b06fc8"},"vehicle_type_id":"4","last_reported":1731900273,"current_range_meters":38800,"station_id":"ce4bhqp2rcd13ifvqhng","pricing_plan_id":"cebpf4jnsgd1na2vs0mg"},{"bike_id":"3188bb0a-f569-4b99-911a-c4f8931a5d08","system_id":"levelo_inurba_marseille","lat":43.28457,"lon":5.35893,"is_reserved":false,"is_disabled":false,"rental_uris":{"android":"levelo://app?vid=3188bb0a-f569-4b99-911a-c4f8931a5d08","ios":"levelo://app?vid=3188bb0a-f569-4b99-911a-c4f8931a5d08"},"vehicle_type_id":"4","last_reported":1731900273,"current_range_meters":20800,"station_id":"ce4bhah2rcd13ifvqei0","pricing_plan_id":"cebpf4jnsgd1na2vs0mg"},{"bike_id":"0be92811-2ea3-4ef7-9959-f0d40183d31b","system_id":"levelo_inurba_marseille","lat":43.289408,"lon":5.396284,"is_reserved":false,"is_disabled":false,"rental_uris":{"android":"levelo://app?vid=0be92811-2ea3-4ef7-9959-f0d40183d31b","ios":"levelo://app?vid=0be92811-2ea3-4ef7-9959-f0d40183d31b"},"vehicle_type_id":"4","last_reported":1731900273,"current_range_meters":28800,"station_id":"ce4bh3h2rcd13ifvqdn0","pricing_plan_id":"cebpf4jnsgd1na2vs0mg"},{"bike_id":"aa1298a1-2453-4873-ab0e-6f99dd6e96bb","system_id":"levelo_inurba_marseille","lat":43.33019,"lon":5.39036,"is_reserved":false,"is_disabled":false,"rental_uris":{"android":"levelo://app?vid=aa1298a1-2453-4873-ab0e-6f99dd6e96bb","ios":"levelo://app?vid=aa1298a1-2453-4873-ab0e-6f99dd6e96bb"},"vehicle_type_id":"4","last_reported":1731900273,"current_range_meters":11200,"station_id":"ce4bhr92rcd13ifvqhrg","pricing_plan_id":"cebpf4jnsgd1na2vs0mg"},{"bike_id":"aedf0c89-1e5d-42d2-9af3-32999bc8bda5","system_id":"levelo_inurba_marseille","lat":43.29868,"lon":5.39746,"is_reserved":false,"is_disabled":false,"rental_uris":{"android":"levelo://app?vid=aedf0c89-1e5d-42d2-9af3-32999bc8bda5","ios":"levelo://app?vid=aedf0c89-1e5d-42d2-9af3-32999bc8bda5"},"vehicle_type_id":"4","last_reported":1731900273,"current_range_meters":38800,"station_id":"ce4bh0h2rcd13ifvqd50","pricing_plan_id":"cebpf4jnsgd1na2vs0mg"},{"bike_id":"7c98e0a9-8a05-4c51-84e1-8e2ad06176a0","system_id":"levelo_inurba_marseille","lat":43.32544,"lon":5.41424,"is_reserved":false,"is_disabled":false,"rental_uris":{"android":"levelo://app?vid=7c98e0a9-8a05-4c51-84e1-8e2ad06176a0","ios":"levelo://app?vid=7c98e0a9-8a05-4c51-84e1-8e2ad06176a0"},"vehicle_type_id":"4","last_reported":1731900273,"current_range_meters":37600,"station_id":"ce4bhq12rcd13ifvqhhg","pricing_plan_id":"cebpf4jnsgd1na2vs0mg"},{"bike_id":"cdfc78e3-0d7a-42a8-a81c-3a6e816d2c3c","system_id":"levelo_inurba_marseille","lat":43.30885,"lon":5.39631,"is_reserved":false,"is_disabled":false,"rental_uris":{"android":"levelo://app?vid=cdfc78e3-0d7a-42a8-a81c-3a6e816d2c3c","ios":"levelo://app?vid=cdfc78e3-0d7a-42a8-a81c-3a6e816d2c3c"},"vehicle_type_id":"4","last_reported":1731900273,"current_range_meters":34800,"station_id":"ce4bh012rcd13ifvqcv0","pricing_plan_id":"cebpf4jnsgd1na2vs0mg"},{"bike_id":"dbf4a046-ec4b-42a2-89d2-1a2f6e4b54e9","system_id":"levelo_inurba_marseille","lat":43.31281,"lon":5.40176,"is_reserved":false,"is_disabled":false,"rental_uris":{"android":"levelo://app?vid=dbf4a046-ec4b-42a2-89d2-1a2f6e4b54e9","ios":"levelo://app?vid=dbf4a046-ec4b-42a2-89d2-1a2f6e4b54e9"},"vehicle_type_id":"4","last_reported":1731900273,"current_range_meters":38800,"station_id":"ce4bh092rcd13ifvqd30","pricing_plan_id":"cebpf4jnsgd1na2vs0mg"},{"bike_id":"098f1096-2911-42a5-a6fc-37b2daf8f744","system_id":"levelo_inurba_marseille","lat":43.31065,"lon":5.38341,"is_reserved":false,"is_disabled":false,"rental_uris":{"android":"levelo://app?vid=098f1096-2911-42a5-a6fc-37b2daf8f744","ios":"levelo://app?vid=098f1096-2911-42a5-a6fc-37b2daf8f744"},"vehicle_type_id":"4","last_reported":1731900273,"current_range_meters":38800,"station_id":"ce4bgv92rcd13ifvqcr0","pricing_plan_id":"cebpf4jnsgd1na2vs0mg"},{"bike_id":"adba1b3c-6bab-4b09-9e8e-9992e2e12fa1","system_id":"levelo_inurba_marseille","lat":43.3044,"lon":5.38881,"is_reserved":false,"is_disabled":false,"rental_uris":{"android":"levelo://app?vid=adba1b3c-6bab-4b09-9e8e-9992e2e12fa1","ios":"levelo://app?vid=adba1b3c-6bab-4b09-9e8e-9992e2e12fa1"},"vehicle_type_id":"4","last_reported":1731900273,"current_range_meters":38800,"station_id":"ce4bgk12rcd13ifvqbi0","pricing_plan_id":"cebpf4jnsgd1na2vs0mg"},{"bike_id":"1b7f2b5b-1b8f-4600-a455-f35719c088dc","system_id":"levelo_inurba_marseille","lat":43.33763,"lon":5.37438,"is_reserved":false,"is_disabled":false,"rental_uris":{"android":"levelo://app?vid=1b7f2b5b-1b8f-4600-a455-f35719c088dc","ios":"levelo://app?vid=1b7f2b5b-1b8f-4600-a455-f35719c088dc"},"vehicle_type_id":"4","last_reported":1731900273,"current_range_meters":2000,"station_id":"","pricing_plan_id":"cebpf4jnsgd1na2vs0mg"},{"bike_id":"3624a52b-a585-4109-b2b1-a430528cdfcb","system_id":"levelo_inurba_marseille","lat":43.29443,"lon":5.397562,"is_reserved":false,"is_disabled":false,"rental_uris":{"android":"levelo://app?vid=3624a52b-a585-4109-b2b1-a430528cdfcb","ios":"levelo://app?vid=3624a52b-a585-4109-b2b1-a430528cdfcb"},"vehicle_type_id":"4","last_reported":1731900273,"current_range_meters":18000,"station_id":"ce4bh3h2rcd13ifvqdo0","pricing_plan_id":"cebpf4jnsgd1na2vs0mg"},{"bike_id":"ae0a9a57-ce40-4d29-87ba-66b134fd406f","system_id":"levelo_inurba_marseille","lat":43.28702,"lon":5.39977,"is_reserved":false,"is_disabled":false,"rental_uris":{"android":"levelo://app?vid=ae0a9a57-ce40-4d29-87ba-66b134fd406f","ios":"levelo://app?vid=ae0a9a57-ce40-4d29-87ba-66b134fd406f"},"vehicle_type_id":"4","last_reported":1731900273,"current_range_meters":38800,"station_id":"ce4bho92rcd13ifvqh3g","pricing_plan_id":"cebpf4jnsgd1na2vs0mg"},{"bike_id":"cd7ea6ad-5c09-4d44-b698-5463beb60b5d","system_id":"levelo_inurba_marseille","lat":43.302611,"lon":5.400745,"is_reserved":false,"is_disabled":false,"rental_uris":{"android":"levelo://app?vid=cd7ea6ad-5c09-4d44-b698-5463beb60b5d","ios":"levelo://app?vid=cd7ea6ad-5c09-4d44-b698-5463beb60b5d"},"vehicle_type_id":"4","last_reported":1731900273,"current_range_meters":30400,"station_id":"ce4bgvh2rcd13ifvqcs0","pricing_plan_id":"cebpf4jnsgd1na2vs0mg"},{"bike_id":"22ea48db-755d-43c3-a7d2-0beff01815d8","system_id":"levelo_inurba_marseille","lat":43.33748,"lon":5.37419,"is_reserved":false,"is_disabled":false,"rental_uris":{"android":"levelo://app?vid=22ea48db-755d-43c3-a7d2-0beff01815d8","ios":"levelo://app?vid=22ea48db-755d-43c3-a7d2-0beff01815d8"},"vehicle_type_id":"4","last_reported":1731900273,"current_range_meters":6400,"station_id":"","pricing_plan_id":"cebpf4jnsgd1na2vs0mg"},{"bike_id":"f9c1573b-7a87-4762-9e78-59eb93cb4c0a","system_id":"levelo_inurba_marseille","lat":43.2512,"lon":5.40319,"is_reserved":false,"is_disabled":false,"rental_uris":{"android":"levelo://app?vid=f9c1573b-7a87-4762-9e78-59eb93cb4c0a","ios":"levelo://app?vid=f9c1573b-7a87-4762-9e78-59eb93cb4c0a"},"vehicle_type_id":"4","last_reported":1731900273,"current_range_meters":39200,"station_id":"ce4bhlh2rcd13ifvqgig","pricing_plan_id":"cebpf4jnsgd1na2vs0mg"},{"bike_id":"15fcc8f8-48f4-4ee0-b8d1-4b8952c9848d","system_id":"levelo_inurba_marseille","lat":43.28845,"lon":5.35838,"is_reserved":false,"is_disabled":false,"rental_uris":{"android":"levelo://app?vid=15fcc8f8-48f4-4ee0-b8d1-4b8952c9848d","ios":"levelo://app?vid=15fcc8f8-48f4-4ee0-b8d1-4b8952c9848d"},"vehicle_type_id":"4","last_reported":1731900273,"current_range_meters":38400,"station_id":"ce4bhb12rcd13ifvqem0","pricing_plan_id":"cebpf4jnsgd1na2vs0mg"},{"bike_id":"8891eb82-3520-475e-82b8-b1c307e8095a","system_id":"levelo_inurba_marseille","lat":43.33023,"lon":5.39039,"is_reserved":false,"is_disabled":false,"rental_uris":{"android":"levelo://app?vid=8891eb82-3520-475e-82b8-b1c307e8095a","ios":"levelo://app?vid=8891eb82-3520-475e-82b8-b1c307e8095a"},"vehicle_type_id":"4","last_reported":1731900273,"current_range_meters":25600,"station_id":"ce4bhr92rcd13ifvqhrg","pricing_plan_id":"cebpf4jnsgd1na2vs0mg"},{"bike_id":"f1bde73f-d4a0-4638-b576-2d712be40fe5","system_id":"levelo_inurba_marseille","lat":43.30436,"lon":5.3889,"is_reserved":false,"is_disabled":false,"rental_uris":{"android":"levelo://app?vid=f1bde73f-d4a0-4638-b576-2d712be40fe5","ios":"levelo://app?vid=f1bde73f-d4a0-4638-b576-2d712be40fe5"},"vehicle_type_id":"4","last_reported":1731900273,"current_range_meters":39200,"station_id":"ce4bgk12rcd13ifvqbi0","pricing_plan_id":"cebpf4jnsgd1na2vs0mg"},{"bike_id":"8ace9814-5ce0-425e-a31f-f0fa72c1b7e4","system_id":"levelo_inurba_marseille","lat":43.30778,"lon":5.37649,"is_reserved":false,"is_disabled":false,"rental_uris":{"android":"levelo://app?vid=8ace9814-5ce0-425e-a31f-f0fa72c1b7e4","ios":"levelo://app?vid=8ace9814-5ce0-425e-a31f-f0fa72c1b7e4"},"vehicle_type_id":"4","last_reported":1731900273,"current_range_meters":12000,"station_id":"ce4bgv92rcd13ifvqcq0","pricing_plan_id":"cebpf4jnsgd1na2vs0mg"},{"bike_id":"50d840e1-ecaa-4c23-a768-f45da2889fa6","system_id":"levelo_inurba_marseille","lat":43.31285,"lon":5.40173,"is_reserved":false,"is_disabled":false,"rental_uris":{"android":"levelo://app?vid=50d840e1-ecaa-4c23-a768-f45da2889fa6","ios":"levelo://app?vid=50d840e1-ecaa-4c23-a768-f45da2889fa6"},"vehicle_type_id":"4","last_reported":1731900273,"current_range_meters":25200,"station_id":"ce4bh092rcd13ifvqd30","pricing_plan_id":"cebpf4jnsgd1na2vs0mg"},{"bike_id":"ca655f3b-8380-4045-b3f8-8acaa0e83ede","system_id":"levelo_inurba_marseille","lat":43.33739,"lon":5.37423,"is_reserved":false,"is_disabled":false,"rental_uris":{"android":"levelo://app?vid=ca655f3b-8380-4045-b3f8-8acaa0e83ede","ios":"levelo://app?vid=ca655f3b-8380-4045-b3f8-8acaa0e83ede"},"vehicle_type_id":"4","last_reported":1731900273,"current_range_meters":30400,"station_id":"","pricing_plan_id":"cebpf4jnsgd1na2vs0mg"},{"bike_id":"5f4a3ad8-dd77-4a7e-89b6-bb792badcc22","system_id":"levelo_inurba_marseille","lat":43.31328,"lon":5.39694,"is_reserved":false,"is_disabled":false,"rental_uris":{"android":"levelo://app?vid=5f4a3ad8-dd77-4a7e-89b6-bb792badcc22","ios":"levelo://app?vid=5f4a3ad8-dd77-4a7e-89b6-bb792badcc22"},"vehicle_type_id":"4","last_reported":1731900273,"current_range_meters":39200,"station_id":"ce4bgvp2rcd13ifvqcu0","pricing_plan_id":"cebpf4jnsgd1na2vs0mg"},{"bike_id":"bfcd3afd-435f-4d8f-9734-2a0e9ce62ac0","system_id":"levelo_inurba_marseille","lat":43.304372,"lon":5.388864,"is_reserved":false,"is_disabled":false,"rental_uris":{"android":"levelo://app?vid=bfcd3afd-435f-4d8f-9734-2a0e9ce62ac0","ios":"levelo://app?vid=bfcd3afd-435f-4d8f-9734-2a0e9ce62ac0"},"vehicle_type_id":"4","last_reported":1731900273,"current_range_meters":38800,"station_id":"ce4bgk12rcd13ifvqbi0","pricing_plan_id":"cebpf4jnsgd1na2vs0mg"},{"bike_id":"a6b8c285-acc9-4039-9531-1aae39136a33","system_id":"levelo_inurba_marseille","lat":43.312042,"lon":5.367348,"is_reserved":false,"is_disabled":false,"rental_uris":{"android":"levelo://app?vid=a6b8c285-acc9-4039-9531-1aae39136a33","ios":"levelo://app?vid=a6b8c285-acc9-4039-9531-1aae39136a33"},"vehicle_type_id":"4","last_reported":1731900273,"current_range_meters":8000,"station_id":"","pricing_plan_id":"cebpf4jnsgd1na2vs0mg"},{"bike_id":"8732dc48-0ead-4fbf-abd3-bc444cb9a620","system_id":"levelo_inurba_marseille","lat":43.32097,"lon":5.36854,"is_reserved":false,"is_disabled":false,"rental_uris":{"android":"levelo://app?vid=8732dc48-0ead-4fbf-abd3-bc444cb9a620","ios":"levelo://app?vid=8732dc48-0ead-4fbf-abd3-bc444cb9a620"},"vehicle_type_id":"4","last_reported":1731900273,"current_range_meters":38400,"station_id":"ce4bhrh2rcd13ifvqhug","pricing_plan_id":"cebpf4jnsgd1na2vs0mg"},{"bike_id":"6c7173dc-f348-4f7f-a701-bb5f0e890cee","system_id":"levelo_inurba_marseille","lat":43.23962,"lon":5.36628,"is_reserved":false,"is_disabled":false,"rental_uris":{"android":"levelo://app?vid=6c7173dc-f348-4f7f-a701-bb5f0e890cee","ios":"levelo://app?vid=6c7173dc-f348-4f7f-a701-bb5f0e890cee"},"vehicle_type_id":"4","last_reported":1731900273,"current_range_meters":16400,"station_id":"ce4bhi12rcd13ifvqfp0","pricing_plan_id":"cebpf4jnsgd1na2vs0mg"},{"bike_id":"4bd27c08-a147-407e-adf1-13a0b0271287","system_id":"levelo_inurba_marseille","lat":43.28436,"lon":5.39176,"is_reserved":false,"is_disabled":false,"rental_uris":{"android":"levelo://app?vid=4bd27c08-a147-407e-adf1-13a0b0271287","ios":"levelo://app?vid=4bd27c08-a147-407e-adf1-13a0b0271287"},"vehicle_type_id":"4","last_reported":1731900273,"current_range_meters":39200,"station_id":"ce4bhoh2rcd13ifvqh5g","pricing_plan_id":"cebpf4jnsgd1na2vs0mg"},{"bike_id":"3e8f8de7-3ee6-4a31-b72b-08490f801121","system_id":"levelo_inurba_marseille","lat":43.27819,"lon":5.40716,"is_reserved":false,"is_disabled":false,"rental_uris":{"android":"levelo://app?vid=3e8f8de7-3ee6-4a31-b72b-08490f801121","ios":"levelo://app?vid=3e8f8de7-3ee6-4a31-b72b-08490f801121"},"vehicle_type_id":"4","last_reported":1731900273,"current_range_meters":37600,"station_id":"ce4bhnh2rcd13ifvqgtg","pricing_plan_id":"cebpf4jnsgd1na2vs0mg"},{"bike_id":"71f13507-0980-42f0-ae7a-bd3bf2600327","system_id":"levelo_inurba_marseille","lat":43.23186,"lon":5.39979,"is_reserved":false,"is_disabled":false,"rental_uris":{"android":"levelo://app?vid=71f13507-0980-42f0-ae7a-bd3bf2600327","ios":"levelo://app?vid=71f13507-0980-42f0-ae7a-bd3bf2600327"},"vehicle_type_id":"4","last_reported":1731900273,"current_range_meters":38800,"station_id":"ce4bhn12rcd13ifvqgqg","pricing_plan_id":"cebpf4jnsgd1na2vs0mg"},{"bike_id":"9af3cdec-4f63-4439-b320-1cf5e6351989","system_id":"levelo_inurba_marseille","lat":43.26304,"lon":5.37391,"is_reserved":false,"is_disabled":false,"rental_uris":{"android":"levelo://app?vid=9af3cdec-4f63-4439-b320-1cf5e6351989","ios":"levelo://app?vid=9af3cdec-4f63-4439-b320-1cf5e6351989"},"vehicle_type_id":"4","last_reported":1731900273,"current_range_meters":28000,"station_id":"","pricing_plan_id":"cebpf4jnsgd1na2vs0mg"},{"bike_id":"8c19b2d4-a3cd-45ab-a3d3-1f5f9c12afc6","system_id":"levelo_inurba_marseille","lat":43.3036,"lon":5.38585,"is_reserved":false,"is_disabled":false,"rental_uris":{"android":"levelo://app?vid=8c19b2d4-a3cd-45ab-a3d3-1f5f9c12afc6","ios":"levelo://app?vid=8c19b2d4-a3cd-45ab-a3d3-1f5f9c12afc6"},"vehicle_type_id":"4","last_reported":1731900273,"current_range_meters":36000,"station_id":"","pricing_plan_id":"cebpf4jnsgd1na2vs0mg"},{"bike_id":"3522119d-16dd-4b56-b32b-308c731895a5","system_id":"levelo_inurba_marseille","lat":43.27809,"lon":5.40711,"is_reserved":false,"is_disabled":false,"rental_uris":{"android":"levelo://app?vid=3522119d-16dd-4b56-b32b-308c731895a5","ios":"levelo://app?vid=3522119d-16dd-4b56-b32b-308c731895a5"},"vehicle_type_id":"4","last_reported":1731900273,"current_range_meters":4000,"station_id":"ce4bhnh2rcd13ifvqgtg","pricing_plan_id":"cebpf4jnsgd1na2vs0mg"},{"bike_id":"de7343c2-973c-4525-a649-403a680a16c5","system_id":"levelo_inurba_marseille","lat":43.3009,"lon":5.39086,"is_reserved":false,"is_disabled":false,"rental_uris":{"android":"levelo://app?vid=de7343c2-973c-4525-a649-403a680a16c5","ios":"levelo://app?vid=de7343c2-973c-4525-a649-403a680a16c5"},"vehicle_type_id":"4","last_reported":1731900273,"current_range_meters":40000,"station_id":"ce4bh192rcd13ifvqdb0","pricing_plan_id":"cebpf4jnsgd1na2vs0mg"},{"bike_id":"05ccbef7-43cf-4daa-af4c-483d919c0c14","system_id":"levelo_inurba_marseille","lat":43.24165,"lon":5.36406,"is_reserved":false,"is_disabled":false,"rental_uris":{"android":"levelo://app?vid=05ccbef7-43cf-4daa-af4c-483d919c0c14","ios":"levelo://app?vid=05ccbef7-43cf-4daa-af4c-483d919c0c14"},"vehicle_type_id":"4","last_reported":1731900273,"current_range_meters":33200,"station_id":"cpo36qri1sfpv3e86is0","pricing_plan_id":"cebpf4jnsgd1na2vs0mg"},{"bike_id":"d76e3eef-80ae-4c00-8032-c641b88cca39","system_id":"levelo_inurba_marseille","lat":43.28436,"lon":5.39176,"is_reserved":false,"is_disabled":false,"rental_uris":{"android":"levelo://app?vid=d76e3eef-80ae-4c00-8032-c641b88cca39","ios":"levelo://app?vid=d76e3eef-80ae-4c00-8032-c641b88cca39"},"vehicle_type_id":"4","last_reported":1731900273,"current_range_meters":30000,"station_id":"ce4bhoh2rcd13ifvqh5g","pricing_plan_id":"cebpf4jnsgd1na2vs0mg"},{"bike_id":"493b2083-a7a4-46d2-bc93-1724c5bd01cb","system_id":"levelo_inurba_marseille","lat":43.30649,"lon":5.40069,"is_reserved":false,"is_disabled":false,"rental_uris":{"android":"levelo://app?vid=493b2083-a7a4-46d2-bc93-1724c5bd01cb","ios":"levelo://app?vid=493b2083-a7a4-46d2-bc93-1724c5bd01cb"},"vehicle_type_id":"4","last_reported":1731900273,"current_range_meters":19200,"station_id":"ce4bh112rcd13ifvqda0","pricing_plan_id":"cebpf4jnsgd1na2vs0mg"},{"bike_id":"92ac4858-87d6-4ceb-8f6e-004635a816a8","system_id":"levelo_inurba_marseille","lat":43.27786,"lon":5.4074,"is_reserved":false,"is_disabled":false,"rental_uris":{"android":"levelo://app?vid=92ac4858-87d6-4ceb-8f6e-004635a816a8","ios":"levelo://app?vid=92ac4858-87d6-4ceb-8f6e-004635a816a8"},"vehicle_type_id":"4","last_reported":1731900273,"current_range_meters":24400,"station_id":"ce4bhnh2rcd13ifvqgtg","pricing_plan_id":"cebpf4jnsgd1na2vs0mg"},{"bike_id":"2b0ff95a-3fbc-4264-9c8f-0a3734e035cc","system_id":"levelo_inurba_marseille","lat":43.31755,"lon":5.39025,"is_reserved":false,"is_disabled":false,"rental_uris":{"android":"levelo://app?vid=2b0ff95a-3fbc-4264-9c8f-0a3734e035cc","ios":"levelo://app?vid=2b0ff95a-3fbc-4264-9c8f-0a3734e035cc"},"vehicle_type_id":"4","last_reported":1731900273,"current_range_meters":38800,"station_id":"ce4bhqp2rcd13ifvqhng","pricing_plan_id":"cebpf4jnsgd1na2vs0mg"},{"bike_id":"25a9be2d-adf9-4893-a334-7b3ca0d1fec3","system_id":"levelo_inurba_marseille","lat":43.3065,"lon":5.4007,"is_reserved":false,"is_disabled":false,"rental_uris":{"android":"levelo://app?vid=25a9be2d-adf9-4893-a334-7b3ca0d1fec3","ios":"levelo://app?vid=25a9be2d-adf9-4893-a334-7b3ca0d1fec3"},"vehicle_type_id":"4","last_reported":1731900273,"current_range_meters":36400,"station_id":"ce4bh112rcd13ifvqda0","pricing_plan_id":"cebpf4jnsgd1na2vs0mg"},{"bike_id":"d7ea65f4-c363-4361-bca9-7b8470b6547a","system_id":"levelo_inurba_marseille","lat":43.24646,"lon":5.38892,"is_reserved":false,"is_disabled":false,"rental_uris":{"android":"levelo://app?vid=d7ea65f4-c363-4361-bca9-7b8470b6547a","ios":"levelo://app?vid=d7ea65f4-c363-4361-bca9-7b8470b6547a"},"vehicle_type_id":"4","last_reported":1731900273,"current_range_meters":32400,"station_id":"ce4bhg12rcd13ifvqf60","pricing_plan_id":"cebpf4jnsgd1na2vs0mg"},{"bike_id":"143df917-e46c-4ede-ace7-3394b01236b7","system_id":"levelo_inurba_marseille","lat":43.31268,"lon":5.40163,"is_reserved":false,"is_disabled":false,"rental_uris":{"android":"levelo://app?vid=143df917-e46c-4ede-ace7-3394b01236b7","ios":"levelo://app?vid=143df917-e46c-4ede-ace7-3394b01236b7"},"vehicle_type_id":"4","last_reported":1731900273,"current_range_meters":11200,"station_id":"ce4bh092rcd13ifvqd30","pricing_plan_id":"cebpf4jnsgd1na2vs0mg"},{"bike_id":"a46fda1b-778c-41f9-89e7-58d703a9e96c","system_id":"levelo_inurba_marseille","lat":43.299805,"lon":5.380866,"is_reserved":false,"is_disabled":false,"rental_uris":{"android":"levelo://app?vid=a46fda1b-778c-41f9-89e7-58d703a9e96c","ios":"levelo://app?vid=a46fda1b-778c-41f9-89e7-58d703a9e96c"},"vehicle_type_id":"4","last_reported":1731900273,"current_range_meters":30000,"station_id":"","pricing_plan_id":"cebpf4jnsgd1na2vs0mg"},{"bike_id":"6aa71fb1-49f8-472b-9d09-3a619f0eff1e","system_id":"levelo_inurba_marseille","lat":43.27559,"lon":5.38406,"is_reserved":false,"is_disabled":false,"rental_uris":{"android":"levelo://app?vid=6aa71fb1-49f8-472b-9d09-3a619f0eff1e","ios":"levelo://app?vid=6aa71fb1-49f8-472b-9d09-3a619f0eff1e"},"vehicle_type_id":"4","last_reported":1731900273,"current_range_meters":39200,"station_id":"ce4bhh92rcd13ifvqfi0","pricing_plan_id":"cebpf4jnsgd1na2vs0mg"},{"bike_id":"31dddf60-0702-4f9f-8219-0ef701219338","system_id":"levelo_inurba_marseille","lat":43.31279,"lon":5.40165,"is_reserved":false,"is_disabled":false,"rental_uris":{"android":"levelo://app?vid=31dddf60-0702-4f9f-8219-0ef701219338","ios":"levelo://app?vid=31dddf60-0702-4f9f-8219-0ef701219338"},"vehicle_type_id":"4","last_reported":1731900273,"current_range_meters":9200,"station_id":"ce4bh092rcd13ifvqd30","pricing_plan_id":"cebpf4jnsgd1na2vs0mg"},{"bike_id":"15df1f9d-5729-492d-8d80-9683396a9f8c","system_id":"levelo_inurba_marseille","lat":43.32486,"lon":5.36572,"is_reserved":false,"is_disabled":false,"rental_uris":{"android":"levelo://app?vid=15df1f9d-5729-492d-8d80-9683396a9f8c","ios":"levelo://app?vid=15df1f9d-5729-492d-8d80-9683396a9f8c"},"vehicle_type_id":"4","last_reported":1731900273,"current_range_meters":8400,"station_id":"ce4bhs12rcd13ifvqhvg","pricing_plan_id":"cebpf4jnsgd1na2vs0mg"},{"bike_id":"7465bc4b-7341-47ef-959d-45c0a1d37e4c","system_id":"levelo_inurba_marseille","lat":43.2408,"lon":5.37731,"is_reserved":false,"is_disabled":false,"rental_uris":{"android":"levelo://app?vid=7465bc4b-7341-47ef-959d-45c0a1d37e4c","ios":"levelo://app?vid=7465bc4b-7341-47ef-959d-45c0a1d37e4c"},"vehicle_type_id":"4","last_reported":1731900273,"current_range_meters":26000,"station_id":"ce4bhnp2rcd13ifvqgvg","pricing_plan_id":"cebpf4jnsgd1na2vs0mg"},{"bike_id":"ed47ee70-605c-4ebe-b492-11cf3d5ceed1","system_id":"levelo_inurba_marseille","lat":43.317156,"lon":5.437121,"is_reserved":false,"is_disabled":false,"rental_uris":{"android":"levelo://app?vid=ed47ee70-605c-4ebe-b492-11cf3d5ceed1","ios":"levelo://app?vid=ed47ee70-605c-4ebe-b492-11cf3d5ceed1"},"vehicle_type_id":"4","last_reported":1731900273,"current_range_meters":38000,"station_id":"ce4bhp92rcd13ifvqhcg","pricing_plan_id":"cebpf4jnsgd1na2vs0mg"},{"bike_id":"a84f5389-258d-4508-9c0f-32ee5d326b43","system_id":"levelo_inurba_marseille","lat":43.33767,"lon":5.37475,"is_reserved":false,"is_disabled":false,"rental_uris":{"android":"levelo://app?vid=a84f5389-258d-4508-9c0f-32ee5d326b43","ios":"levelo://app?vid=a84f5389-258d-4508-9c0f-32ee5d326b43"},"vehicle_type_id":"4","last_reported":1731900273,"current_range_meters":27200,"station_id":"","pricing_plan_id":"cebpf4jnsgd1na2vs0mg"},{"bike_id":"107d8ace-9cc0-41a3-b0d7-0d269f65302e","system_id":"levelo_inurba_marseille","lat":43.279692,"lon":5.386934,"is_reserved":false,"is_disabled":false,"rental_uris":{"android":"levelo://app?vid=107d8ace-9cc0-41a3-b0d7-0d269f65302e","ios":"levelo://app?vid=107d8ace-9cc0-41a3-b0d7-0d269f65302e"},"vehicle_type_id":"4","last_reported":1731900273,"current_range_meters":17200,"station_id":"ce4bhg12rcd13ifvqf80","pricing_plan_id":"cebpf4jnsgd1na2vs0mg"},{"bike_id":"04158c1a-fd46-49c3-a56e-df452be93304","system_id":"levelo_inurba_marseille","lat":43.295177,"lon":5.394105,"is_reserved":false,"is_disabled":false,"rental_uris":{"android":"levelo://app?vid=04158c1a-fd46-49c3-a56e-df452be93304","ios":"levelo://app?vid=04158c1a-fd46-49c3-a56e-df452be93304"},"vehicle_type_id":"4","last_reported":1731900273,"current_range_meters":33200,"station_id":"ce4bh292rcd13ifvqdf0","pricing_plan_id":"cebpf4jnsgd1na2vs0mg"},{"bike_id":"8f426890-14c3-4f84-af0e-ede85f28b7aa","system_id":"levelo_inurba_marseille","lat":43.23149,"lon":5.4372,"is_reserved":false,"is_disabled":false,"rental_uris":{"android":"levelo://app?vid=8f426890-14c3-4f84-af0e-ede85f28b7aa","ios":"levelo://app?vid=8f426890-14c3-4f84-af0e-ede85f28b7aa"},"vehicle_type_id":"4","last_reported":1731900273,"current_range_meters":21600,"station_id":"ce4bhmp2rcd13ifvqgog","pricing_plan_id":"cebpf4jnsgd1na2vs0mg"},{"bike_id":"090ee16d-d915-4e55-a092-3526860b8952","system_id":"levelo_inurba_marseille","lat":43.26778,"lon":5.39434,"is_reserved":false,"is_disabled":false,"rental_uris":{"android":"levelo://app?vid=090ee16d-d915-4e55-a092-3526860b8952","ios":"levelo://app?vid=090ee16d-d915-4e55-a092-3526860b8952"},"vehicle_type_id":"4","last_reported":1731900273,"current_range_meters":37600,"station_id":"ce4bhh12rcd13ifvqfg0","pricing_plan_id":"cebpf4jnsgd1na2vs0mg"},{"bike_id":"719862df-eb31-4da6-8f57-20e84f6c29b5","system_id":"levelo_inurba_marseille","lat":43.32362,"lon":5.38884,"is_reserved":false,"is_disabled":false,"rental_uris":{"android":"levelo://app?vid=719862df-eb31-4da6-8f57-20e84f6c29b5","ios":"levelo://app?vid=719862df-eb31-4da6-8f57-20e84f6c29b5"},"vehicle_type_id":"4","last_reported":1731900273,"current_range_meters":8000,"station_id":"ce4bhqp2rcd13ifvqhog","pricing_plan_id":"cebpf4jnsgd1na2vs0mg"},{"bike_id":"ba4cfa6b-d262-4c5f-ad80-f1c569b77562","system_id":"levelo_inurba_marseille","lat":43.2572,"lon":5.41118,"is_reserved":false,"is_disabled":false,"rental_uris":{"android":"levelo://app?vid=ba4cfa6b-d262-4c5f-ad80-f1c569b77562","ios":"levelo://app?vid=ba4cfa6b-d262-4c5f-ad80-f1c569b77562"},"vehicle_type_id":"4","last_reported":1731900273,"current_range_meters":38000,"station_id":"ce4bhkp2rcd13ifvqgd0","pricing_plan_id":"cebpf4jnsgd1na2vs0mg"},{"bike_id":"95b7222f-eb18-4b6a-8fe7-103e91bfc300","system_id":"levelo_inurba_marseille","lat":43.3265,"lon":5.40995,"is_reserved":false,"is_disabled":false,"rental_uris":{"android":"levelo://app?vid=95b7222f-eb18-4b6a-8fe7-103e91bfc300","ios":"levelo://app?vid=95b7222f-eb18-4b6a-8fe7-103e91bfc300"},"vehicle_type_id":"4","last_reported":1731900273,"current_range_meters":38000,"station_id":"ce4bhpp2rcd13ifvqhgg","pricing_plan_id":"cebpf4jnsgd1na2vs0mg"},{"bike_id":"2278ff27-67f2-4840-a242-2d6ee755536b","system_id":"levelo_inurba_marseille","lat":43.3248,"lon":5.36563,"is_reserved":false,"is_disabled":false,"rental_uris":{"android":"levelo://app?vid=2278ff27-67f2-4840-a242-2d6ee755536b","ios":"levelo://app?vid=2278ff27-67f2-4840-a242-2d6ee755536b"},"vehicle_type_id":"4","last_reported":1731900273,"current_range_meters":40000,"station_id":"ce4bhs12rcd13ifvqhvg","pricing_plan_id":"cebpf4jnsgd1na2vs0mg"},{"bike_id":"70bce780-771f-4c17-812f-060c6d1434d0","system_id":"levelo_inurba_marseille","lat":43.32658,"lon":5.40991,"is_reserved":false,"is_disabled":false,"rental_uris":{"android":"levelo://app?vid=70bce780-771f-4c17-812f-060c6d1434d0","ios":"levelo://app?vid=70bce780-771f-4c17-812f-060c6d1434d0"},"vehicle_type_id":"4","last_reported":1731900273,"current_range_meters":38800,"station_id":"ce4bhpp2rcd13ifvqhgg","pricing_plan_id":"cebpf4jnsgd1na2vs0mg"},{"bike_id":"7c0a99b0-2291-4a5e-b431-d5d68272736a","system_id":"levelo_inurba_marseille","lat":43.2407,"lon":5.37762,"is_reserved":false,"is_disabled":false,"rental_uris":{"android":"levelo://app?vid=7c0a99b0-2291-4a5e-b431-d5d68272736a","ios":"levelo://app?vid=7c0a99b0-2291-4a5e-b431-d5d68272736a"},"vehicle_type_id":"4","last_reported":1731900273,"current_range_meters":16800,"station_id":"ce4bhnp2rcd13ifvqgvg","pricing_plan_id":"cebpf4jnsgd1na2vs0mg"},